{"data": {"bikes": [{"lon": -77.0494845, "fusion_lat": 0.0, "type": "electric_scooter", "lat": 38.923481, "is_disabled": 0, "name": "6e87c98847cbb7d6d4a18899f9d6873c", "is_reserved": 0, "bike_id": "6e87c98847cbb7d6d4a18899f9d6873c", "fusion_lon": 0.0, "rental_uris": {"ios": "https://dc.lft.to/lastmile_qr_scan", "android": "https://dc.lft.to/lastmile_qr_scan"}}, {"lon": -77.04814816666666, "fusion_lat": 0.0, "type": "electric_scooter", "lat": 38.916307833333335, "is_disabled": 0, "name": "92ffd6b01348f9778b0182e3589d4840", "is_reserved": 0, "bike_id": "92ffd6b01348f9778b0182e3589d4840", "fusion_lon": 0.0, "rental_uris": {"ios": "https://dc.lft.to/lastmile_qr_scan", "android": "https://dc.lft.to/lastmile_qr_scan"}}, {"lon": -77.0328135, "fusion_lat": 0.0, "type": "electric_bike", "lat": 38.94095, "is_disabled": 0, "name": "d4ddeb3530747526d582ae87af114ab6", "is_reserved": 0, "bike_id": "d4ddeb3530747526d582ae87af114ab6", "fusion_lon": 0.0, "rental_uris": {"ios": "https://dc.lft.to/lastmile_qr_scan", "android": "https://dc.lft.to/lastmile_qr_scan"}}, {"lon": -77.01465966666666, "fusion_lat": 0.0, "type": "electric_scooter", "lat": 38.91750916666667, "is_disabled": 0, "name": "30e98f8270ab58a71e9e60808b686dc4", "is_reserved": 0, "bike_id": "30e98f8270ab58a71e9e60808b686dc4", "fusion_lon": 0.0, "rental_uris": {"ios": "https://dc.lft.to/lastmile_qr_scan", "android": "https://dc.lft.to/lastmile_qr_scan"}}, {"lon": -76.95835466666666, "fusion_lat": 0.0, "type": "electric_scooter", "lat": 38.930467666666665, "is_disabled": 0, "name": "3ed6c680569d73b3a9ae77b715b0f4ec", "is_reserved": 0, "bike_id": "3ed6c680569d73b3a9ae77b715b0f4ec", "fusion_lon": 0.0, "rental_uris": {"ios": "https://dc.lft.to/lastmile_qr_scan", "android": "https://dc.lft.to/lastmile_qr_scan"}}, {"lon": -77.02693033333334, "fusion_lat": 0.0, "type": "electric_scooter", "lat": 38.90677683333333, "is_disabled": 0, "name": "16a54edde59cb3f6d954b70cce570268", "is_reserved": 0, "bike_id": "16a54edde59cb3f6d954b70cce570268", "fusion_lon": 0.0, "rental_uris": {"ios": "https://dc.lft.to/lastmile_qr_scan", "android": "https://dc.lft.to/lastmile_qr_scan"}}, {"lon": -76.99326616666667, "fusion_lat": 0.0, "type": "electric_scooter", "lat": 38.87656533333333, "is_disabled": 0, "name": "c99c77b3be24518f2823849eb1377c4a", "is_reserved": 0, "bike_id": "c99c77b3be24518f2823849eb1377c4a", "fusion_lon": 0.0, "rental_uris": {"ios": "https://dc.lft.to/lastmile_qr_scan", "android": "https://dc.lft.to/lastmile_qr_scan"}}, {"lon": -77.04901766666667, "fusion_lat": 0.0, "type": "electric_scooter", "lat": 38.89825233333333, "is_disabled": 0, "name": "2debb1bc68641d5f4c805eb3e72d49e7", "is_reserved": 0, "bike_id": "2debb1bc68641d5f4c805eb3e72d49e7", "fusion_lon": 0.0, "rental_uris": {"ios": "https://dc.lft.to/lastmile_qr_scan", "android": "https://dc.lft.to/lastmile_qr_scan"}}, {"lon": -77.03565433333333, "fusion_lat": 0.0, "type": "electric_scooter", "lat": 38.92078466666667, "is_disabled": 0, "name": "6e5e6496ce89d35d91219face0628f6e", "is_reserved": 0, "bike_id": "6e5e6496ce89d35d91219face0628f6e", "fusion_lon": 0.0, "rental_uris": {"ios": "https://dc.lft.to/lastmile_qr_scan", "android": "https://dc.lft.to/lastmile_qr_scan"}}, {"lon": -77.13919383333334, "fusion_lat": 0.0, "type": "electric_bike", "lat": 38.84673, "is_disabled": 0, "name": "d024c63a3937410ba1074b9a397a2b77", "is_reserved": 0, "bike_id": "d024c63a3937410ba1074b9a397a2b77", "fusion_lon": 0.0, "rental_uris": {"ios": "https://dc.lft.to/lastmile_qr_scan", "android": "https://dc.lft.to/lastmile_qr_scan"}}, {"lon": -76.97326566666666, "fusion_lat": 0.0, "type": "electric_scooter", "lat": 38.904061166666665, "is_disabled": 0, "name": "e2f7e976b26a96c0896d1b624d63c890", "is_reserved": 0, "bike_id": "e2f7e976b26a96c0896d1b624d63c890", "fusion_lon": 0.0, "rental_uris": {"ios": "https://dc.lft.to/lastmile_qr_scan", "android": "https://dc.lft.to/lastmile_qr_scan"}}, {"lon": -77.02859366666667, "fusion_lat": 0.0, "type": "electric_scooter", "lat": 38.91259616666667, "is_disabled": 0, "name": "35f9805f03cc614331694d2a2a6e620b", "is_reserved": 0, "bike_id": "35f9805f03cc614331694d2a2a6e620b", "fusion_lon": 0.0, "rental_uris": {"ios": "https://dc.lft.to/lastmile_qr_scan", "android": "https://dc.lft.to/lastmile_qr_scan"}}, {"lon": -77.02301083333333, "fusion_lat": 0.0, "type": "electric_scooter", "lat": 38.92063983333333, "is_disabled": 0, "name": "d661a208ac85fbe987f764bb55051e12", "is_reserved": 0, "bike_id": "d661a208ac85fbe987f764bb55051e12", "fusion_lon": 0.0, "rental_uris": {"ios": "https://dc.lft.to/lastmile_qr_scan", "android": "https://dc.lft.to/lastmile_qr_scan"}}, {"lon": -77.022949, "fusion_lat": 0.0, "type": "electric_scooter", "lat": 38.92062766666667, "is_disabled": 0, "name": "afa8b46c434cf42dbd0be82bd149ac6e", "is_reserved": 0, "bike_id": "afa8b46c434cf42dbd0be82bd149ac6e", "fusion_lon": 0.0, "rental_uris": {"ios": "https://dc.lft.to/lastmile_qr_scan", "android": "https://dc.lft.to/lastmile_qr_scan"}}, {"lon": -77.03199833333333, "fusion_lat": 0.0, "type": "electric_scooter", "lat": 38.91099366666667, "is_disabled": 0, "name": "084dff6974f6d0e38ae5012dd8e5a739", "is_reserved": 0, "bike_id": "084dff6974f6d0e38ae5012dd8e5a739", "fusion_lon": 0.0, "rental_uris": {"ios": "https://dc.lft.to/lastmile_qr_scan", "android": "https://dc.lft.to/lastmile_qr_scan"}}, {"lon": -77.06121033333334, "fusion_lat": 0.0, "type": "electric_scooter", "lat": 38.90195833333333, "is_disabled": 0, "name": "7eeb20716a89400909bb05c81a604cbd", "is_reserved": 0, "bike_id": "7eeb20716a89400909bb05c81a604cbd", "fusion_lon": 0.0, "rental_uris": {"ios": "https://dc.lft.to/lastmile_qr_scan", "android": "https://dc.lft.to/lastmile_qr_scan"}}, {"lon": -77.036327, "fusion_lat": 0.0, "type": "electric_scooter", "lat": 38.936642166666665, "is_disabled": 0, "name": "8dceb5b63d1b7b378f3a9ebb82cb8553", "is_reserved": 0, "bike_id": "8dceb5b63d1b7b378f3a9ebb82cb8553", "fusion_lon": 0.0, "rental_uris": {"ios": "https://dc.lft.to/lastmile_qr_scan", "android": "https://dc.lft.to/lastmile_qr_scan"}}, {"lon": -77.0243015, "fusion_lat": 0.0, "type": "electric_scooter", "lat": 38.956353, "is_disabled": 0, "name": "4116966b1e5ed77309d95d1d70ec60cd", "is_reserved": 0, "bike_id": "4116966b1e5ed77309d95d1d70ec60cd", "fusion_lon": 0.0, "rental_uris": {"ios": "https://dc.lft.to/lastmile_qr_scan", "android": "https://dc.lft.to/lastmile_qr_scan"}}, {"lon": -77.029073, "fusion_lat": 0.0, "type": "electric_scooter", "lat": 38.923656666666666, "is_disabled": 0, "name": "902c5522a334b9ab1a17e12223c41d5f", "is_reserved": 0, "bike_id": "902c5522a334b9ab1a17e12223c41d5f", "fusion_lon": 0.0, "rental_uris": {"ios": "https://dc.lft.to/lastmile_qr_scan", "android": "https://dc.lft.to/lastmile_qr_scan"}}, {"lon": -77.0169625, "fusion_lat": 0.0, "type": "electric_scooter", "lat": 38.90229033333333, "is_disabled": 0, "name": "d91b36dfb78a18cd915b22268110a637", "is_reserved": 0, "bike_id": "d91b36dfb78a18cd915b22268110a637", "fusion_lon": 0.0, "rental_uris": {"ios": "https://dc.lft.to/lastmile_qr_scan", "android": "https://dc.lft.to/lastmile_qr_scan"}}, {"lon": -77.00966316666667, "fusion_lat": 0.0, "type": "electric_scooter", "lat": 38.8976155, "is_disabled": 0, "name": "1e2b5edc4adaeeda8bc66513eea25491", "is_reserved": 0, "bike_id": "1e2b5edc4adaeeda8bc66513eea25491", "fusion_lon": 0.0, "rental_uris": {"ios": "https://dc.lft.to/lastmile_qr_scan", "android": "https://dc.lft.to/lastmile_qr_scan"}}, {"lon": -77.07118083333333, "fusion_lat": 0.0, "type": "electric_scooter", "lat": 38.919679, "is_disabled": 0, "name": "0709a526cb1d5ca1ed94b5607e1f9e41", "is_reserved": 0, "bike_id": "0709a526cb1d5ca1ed94b5607e1f9e41", "fusion_lon": 0.0, "rental_uris": {"ios": "https://dc.lft.to/lastmile_qr_scan", "android": "https://dc.lft.to/lastmile_qr_scan"}}, {"lon": -77.01482716666666, "fusion_lat": 0.0, "type": "electric_scooter", "lat": 38.92678466666667, "is_disabled": 0, "name": "6ebcc970a53e1c803f9ae975b0f9f50b", "is_reserved": 0, "bike_id": "6ebcc970a53e1c803f9ae975b0f9f50b", "fusion_lon": 0.0, "rental_uris": {"ios": "https://dc.lft.to/lastmile_qr_scan", "android": "https://dc.lft.to/lastmile_qr_scan"}}, {"lon": -76.985369, "fusion_lat": 0.0, "type": "electric_scooter", "lat": 38.885268833333335, "is_disabled": 0, "name": "fde45caf485de779bca87378008a5741", "is_reserved": 0, "bike_id": "fde45caf485de779bca87378008a5741", "fusion_lon": 0.0, "rental_uris": {"ios": "https://dc.lft.to/lastmile_qr_scan", "android": "https://dc.lft.to/lastmile_qr_scan"}}, {"lon": -77.00585116666667, "fusion_lat": 0.0, "type": "electric_scooter", "lat": 38.87571783333333, "is_disabled": 0, "name": "fe9ec6bf8117eaf66aab2115d6be6641", "is_reserved": 0, "bike_id": "fe9ec6bf8117eaf66aab2115d6be6641", "fusion_lon": 0.0, "rental_uris": {"ios": "https://dc.lft.to/lastmile_qr_scan", "android": "https://dc.lft.to/lastmile_qr_scan"}}, {"lon": -76.99797983333333, "fusion_lat": 0.0, "type": "electric_scooter", "lat": 38.935520833333335, "is_disabled": 0, "name": "3cfc0f7f6c486a30e04b64197fd3516e", "is_reserved": 0, "bike_id": "3cfc0f7f6c486a30e04b64197fd3516e", "fusion_lon": 0.0, "rental_uris": {"ios": "https://dc.lft.to/lastmile_qr_scan", "android": "https://dc.lft.to/lastmile_qr_scan"}}, {"lon": -77.02851716666666, "fusion_lat": 0.0, "type": "electric_scooter", "lat": 38.93523316666667, "is_disabled": 0, "name": "acb8f9e63455350bfde025cdc72946d3", "is_reserved": 0, "bike_id": "acb8f9e63455350bfde025cdc72946d3", "fusion_lon": 0.0, "rental_uris": {"ios": "https://dc.lft.to/lastmile_qr_scan", "android": "https://dc.lft.to/lastmile_qr_scan"}}, {"lon": -77.00090533333334, "fusion_lat": 0.0, "type": "electric_scooter", "lat": 38.87369233333333, "is_disabled": 0, "name": "b1939a3c08b2cc178b2d5b9a4d1ad336", "is_reserved": 0, "bike_id": "b1939a3c08b2cc178b2d5b9a4d1ad336", "fusion_lon": 0.0, "rental_uris": {"ios": "https://dc.lft.to/lastmile_qr_scan", "android": "https://dc.lft.to/lastmile_qr_scan"}}, {"lon": -77.0364755, "fusion_lat": 0.0, "type": "electric_scooter", "lat": 38.90387533333333, "is_disabled": 0, "name": "5bb3733ed3ca319a67ff6b8fd7325744", "is_reserved": 0, "bike_id": "5bb3733ed3ca319a67ff6b8fd7325744", "fusion_lon": 0.0, "rental_uris": {"ios": "https://dc.lft.to/lastmile_qr_scan", "android": "https://dc.lft.to/lastmile_qr_scan"}}, {"lon": -77.05061366666666, "fusion_lat": 0.0, "type": "electric_scooter", "lat": 38.900735833333336, "is_disabled": 0, "name": "f146825b91347740c1c464dcdf0e972b", "is_reserved": 0, "bike_id": "f146825b91347740c1c464dcdf0e972b", "fusion_lon": 0.0, "rental_uris": {"ios": "https://dc.lft.to/lastmile_qr_scan", "android": "https://dc.lft.to/lastmile_qr_scan"}}, {"lon": -77.03257733333334, "fusion_lat": 0.0, "type": "electric_scooter", "lat": 38.9193125, "is_disabled": 0, "name": "cd9d7998b75c620acdbe874fe0797281", "is_reserved": 0, "bike_id": "cd9d7998b75c620acdbe874fe0797281", "fusion_lon": 0.0, "rental_uris": {"ios": "https://dc.lft.to/lastmile_qr_scan", "android": "https://dc.lft.to/lastmile_qr_scan"}}, {"lon": -76.98679566666667, "fusion_lat": 0.0, "type": "electric_scooter", "lat": 38.90011716666667, "is_disabled": 0, "name": "0f59d728cd8bb34f02dc0d00ed26c9b4", "is_reserved": 0, "bike_id": "0f59d728cd8bb34f02dc0d00ed26c9b4", "fusion_lon": 0.0, "rental_uris": {"ios": "https://dc.lft.to/lastmile_qr_scan", "android": "https://dc.lft.to/lastmile_qr_scan"}}, {"lon": -77.03914616666667, "fusion_lat": 0.0, "type": "electric_bike", "lat": 39.035586, "is_disabled": 0, "name": "5e15eb1c7308f3008c122ca7083d55d4", "is_reserved": 0, "bike_id": "5e15eb1c7308f3008c122ca7083d55d4", "fusion_lon": 0.0, "rental_uris": {"ios": "https://dc.lft.to/lastmile_qr_scan", "android": "https://dc.lft.to/lastmile_qr_scan"}}, {"lon": -77.032156, "fusion_lat": 0.0, "type": "electric_scooter", "lat": 38.9119475, "is_disabled": 0, "name": "d55c857e35788f00f4ac64b3655c34ac", "is_reserved": 0, "bike_id": "d55c857e35788f00f4ac64b3655c34ac", "fusion_lon": 0.0, "rental_uris": {"ios": "https://dc.lft.to/lastmile_qr_scan", "android": "https://dc.lft.to/lastmile_qr_scan"}}, {"lon": -77.01135016666667, "fusion_lat": 0.0, "type": "electric_scooter", "lat": 38.89500266666667, "is_disabled": 0, "name": "64d159468ee3a82914959eb5febae28e", "is_reserved": 0, "bike_id": "64d159468ee3a82914959eb5febae28e", "fusion_lon": 0.0, "rental_uris": {"ios": "https://dc.lft.to/lastmile_qr_scan", "android": "https://dc.lft.to/lastmile_qr_scan"}}, {"lon": -77.01548783333334, "fusion_lat": 0.0, "type": "electric_scooter", "lat": 38.907729333333336, "is_disabled": 0, "name": "df4405fe005d69039d6318b3b7fb5b34", "is_reserved": 0, "bike_id": "df4405fe005d69039d6318b3b7fb5b34", "fusion_lon": 0.0, "rental_uris": {"ios": "https://dc.lft.to/lastmile_qr_scan", "android": "https://dc.lft.to/lastmile_qr_scan"}}, {"lon": -77.03193766666666, "fusion_lat": 0.0, "type": "electric_scooter", "lat": 38.89331883333333, "is_disabled": 0, "name": "3c84a33bf1dd19e0a2d5fe8510776160", "is_reserved": 0, "bike_id": "3c84a33bf1dd19e0a2d5fe8510776160", "fusion_lon": 0.0, "rental_uris": {"ios": "https://dc.lft.to/lastmile_qr_scan", "android": "https://dc.lft.to/lastmile_qr_scan"}}, {"lon": -77.027273, "fusion_lat": 0.0, "type": "electric_scooter", "lat": 38.896620166666665, "is_disabled": 0, "name": "8e726f0ad0daa170dc2348dcfb2ef7da", "is_reserved": 0, "bike_id": "8e726f0ad0daa170dc2348dcfb2ef7da", "fusion_lon": 0.0, "rental_uris": {"ios": "https://dc.lft.to/lastmile_qr_scan", "android": "https://dc.lft.to/lastmile_qr_scan"}}, {"lon": -77.03213466666666, "fusion_lat": 0.0, "type": "electric_scooter", "lat": 38.897843, "is_disabled": 0, "name": "49f20f8cf6b1adc9e43c852a04443179", "is_reserved": 0, "bike_id": "49f20f8cf6b1adc9e43c852a04443179", "fusion_lon": 0.0, "rental_uris": {"ios": "https://dc.lft.to/lastmile_qr_scan", "android": "https://dc.lft.to/lastmile_qr_scan"}}, {"lon": -77.04462683333334, "fusion_lat": 0.0, "type": "electric_scooter", "lat": 38.915452333333334, "is_disabled": 0, "name": "9a5fa972da2c96160bfc8613a28e2ebf", "is_reserved": 0, "bike_id": "9a5fa972da2c96160bfc8613a28e2ebf", "fusion_lon": 0.0, "rental_uris": {"ios": "https://dc.lft.to/lastmile_qr_scan", "android": "https://dc.lft.to/lastmile_qr_scan"}}, {"lon": -77.0326155, "fusion_lat": 0.0, "type": "electric_scooter", "lat": 38.925362166666666, "is_disabled": 0, "name": "9b941d7018ab97735e56fb873d57bb65", "is_reserved": 0, "bike_id": "9b941d7018ab97735e56fb873d57bb65", "fusion_lon": 0.0, "rental_uris": {"ios": "https://dc.lft.to/lastmile_qr_scan", "android": "https://dc.lft.to/lastmile_qr_scan"}}, {"lon": -77.02355316666667, "fusion_lat": 0.0, "type": "electric_bike", "lat": 38.944675, "is_disabled": 0, "name": "15bf698805e7ae387fb99b4b553ee23d", "is_reserved": 0, "bike_id": "15bf698805e7ae387fb99b4b553ee23d", "fusion_lon": 0.0, "rental_uris": {"ios": "https://dc.lft.to/lastmile_qr_scan", "android": "https://dc.lft.to/lastmile_qr_scan"}}, {"lon": -77.02808866666666, "fusion_lat": 0.0, "type": "electric_scooter", "lat": 38.8991395, "is_disabled": 0, "name": "9057ac9bee116472568a3b82c38e633c", "is_reserved": 0, "bike_id": "9057ac9bee116472568a3b82c38e633c", "fusion_lon": 0.0, "rental_uris": {"ios": "https://dc.lft.to/lastmile_qr_scan", "android": "https://dc.lft.to/lastmile_qr_scan"}}, {"lon": -77.022667, "fusion_lat": 0.0, "type": "electric_scooter", "lat": 38.91322683333333, "is_disabled": 0, "name": "a55a40f761b48d692ffe55c4cb3ef267", "is_reserved": 0, "bike_id": "a55a40f761b48d692ffe55c4cb3ef267", "fusion_lon": 0.0, "rental_uris": {"ios": "https://dc.lft.to/lastmile_qr_scan", "android": "https://dc.lft.to/lastmile_qr_scan"}}, {"lon": -77.07009683333334, "fusion_lat": 0.0, "type": "electric_scooter", "lat": 38.95576483333333, "is_disabled": 0, "name": "ddaf0f0fd05388417ee7689197f927fe", "is_reserved": 0, "bike_id": "ddaf0f0fd05388417ee7689197f927fe", "fusion_lon": 0.0, "rental_uris": {"ios": "https://dc.lft.to/lastmile_qr_scan", "android": "https://dc.lft.to/lastmile_qr_scan"}}, {"lon": -77.030848, "fusion_lat": 0.0, "type": "electric_scooter", "lat": 38.92239416666666, "is_disabled": 0, "name": "1361a59f4e690d4debbcdfe3b7ee14d3", "is_reserved": 0, "bike_id": "1361a59f4e690d4debbcdfe3b7ee14d3", "fusion_lon": 0.0, "rental_uris": {"ios": "https://dc.lft.to/lastmile_qr_scan", "android": "https://dc.lft.to/lastmile_qr_scan"}}, {"lon": -77.05325583333334, "fusion_lat": 0.0, "type": "electric_scooter", "lat": 38.927870166666665, "is_disabled": 0, "name": "7e0983343c81040cec98130d1fff57bd", "is_reserved": 0, "bike_id": "7e0983343c81040cec98130d1fff57bd", "fusion_lon": 0.0, "rental_uris": {"ios": "https://dc.lft.to/lastmile_qr_scan", "android": "https://dc.lft.to/lastmile_qr_scan"}}, {"lon": -77.03681233333333, "fusion_lat": 0.0, "type": "electric_scooter", "lat": 38.903830166666665, "is_disabled": 0, "name": "5a6989e20077b91139249e2fe90420ee", "is_reserved": 0, "bike_id": "5a6989e20077b91139249e2fe90420ee", "fusion_lon": 0.0, "rental_uris": {"ios": "https://dc.lft.to/lastmile_qr_scan", "android": "https://dc.lft.to/lastmile_qr_scan"}}, {"lon": -76.97639933333333, "fusion_lat": 0.0, "type": "electric_scooter", "lat": 38.886856, "is_disabled": 0, "name": "9f3ba53b32db3b33143c363c3968e69a", "is_reserved": 0, "bike_id": "9f3ba53b32db3b33143c363c3968e69a", "fusion_lon": 0.0, "rental_uris": {"ios": "https://dc.lft.to/lastmile_qr_scan", "android": "https://dc.lft.to/lastmile_qr_scan"}}, {"lon": -77.00357733333334, "fusion_lat": 0.0, "type": "electric_scooter", "lat": 38.907147, "is_disabled": 0, "name": "80eefa9ebf7d4149720e47b8043a49bf", "is_reserved": 0, "bike_id": "80eefa9ebf7d4149720e47b8043a49bf", "fusion_lon": 0.0, "rental_uris": {"ios": "https://dc.lft.to/lastmile_qr_scan", "android": "https://dc.lft.to/lastmile_qr_scan"}}, {"lon": -76.992154, "fusion_lat": 0.0, "type": "electric_scooter", "lat": 38.8951205, "is_disabled": 0, "name": "a73e376e09de809ddb286f3a91a905d3", "is_reserved": 0, "bike_id": "a73e376e09de809ddb286f3a91a905d3", "fusion_lon": 0.0, "rental_uris": {"ios": "https://dc.lft.to/lastmile_qr_scan", "android": "https://dc.lft.to/lastmile_qr_scan"}}, {"lon": -76.999589, "fusion_lat": 0.0, "type": "electric_scooter", "lat": 38.9026335, "is_disabled": 0, "name": "7e258b713b8867dd6dbd68580e820493", "is_reserved": 0, "bike_id": "7e258b713b8867dd6dbd68580e820493", "fusion_lon": 0.0, "rental_uris": {"ios": "https://dc.lft.to/lastmile_qr_scan", "android": "https://dc.lft.to/lastmile_qr_scan"}}, {"lon": -77.02426733333333, "fusion_lat": 0.0, "type": "electric_scooter", "lat": 38.960204166666664, "is_disabled": 0, "name": "144382ff21e9f11810c96d87e6eee25f", "is_reserved": 0, "bike_id": "144382ff21e9f11810c96d87e6eee25f", "fusion_lon": 0.0, "rental_uris": {"ios": "https://dc.lft.to/lastmile_qr_scan", "android": "https://dc.lft.to/lastmile_qr_scan"}}, {"lon": -76.97452783333334, "fusion_lat": 0.0, "type": "electric_bike", "lat": 38.8560115, "is_disabled": 0, "name": "affeb617b4b328af82ebf5c49ee2aee3", "is_reserved": 0, "bike_id": "affeb617b4b328af82ebf5c49ee2aee3", "fusion_lon": 0.0, "rental_uris": {"ios": "https://dc.lft.to/lastmile_qr_scan", "android": "https://dc.lft.to/lastmile_qr_scan"}}, {"lon": -76.99014683333333, "fusion_lat": 0.0, "type": "electric_bike", "lat": 38.943148, "is_disabled": 0, "name": "81cfc30e274a9f85125558399aadc2b6", "is_reserved": 0, "bike_id": "81cfc30e274a9f85125558399aadc2b6", "fusion_lon": 0.0, "rental_uris": {"ios": "https://dc.lft.to/lastmile_qr_scan", "android": "https://dc.lft.to/lastmile_qr_scan"}}, {"lon": -77.02205933333333, "fusion_lat": 0.0, "type": "electric_scooter", "lat": 38.9246385, "is_disabled": 0, "name": "eacc20f8d3161bf3d58710bfd9ed84f3", "is_reserved": 0, "bike_id": "eacc20f8d3161bf3d58710bfd9ed84f3", "fusion_lon": 0.0, "rental_uris": {"ios": "https://dc.lft.to/lastmile_qr_scan", "android": "https://dc.lft.to/lastmile_qr_scan"}}, {"lon": -77.048217, "fusion_lat": 0.0, "type": "electric_scooter", "lat": 38.90721966666667, "is_disabled": 0, "name": "35f88a5d4fcc71ff3479bb14bae99d34", "is_reserved": 0, "bike_id": "35f88a5d4fcc71ff3479bb14bae99d34", "fusion_lon": 0.0, "rental_uris": {"ios": "https://dc.lft.to/lastmile_qr_scan", "android": "https://dc.lft.to/lastmile_qr_scan"}}, {"lon": -77.03544616666667, "fusion_lat": 0.0, "type": "electric_scooter", "lat": 38.90369533333333, "is_disabled": 0, "name": "0c730476db68e9caee39fe67b61a4748", "is_reserved": 0, "bike_id": "0c730476db68e9caee39fe67b61a4748", "fusion_lon": 0.0, "rental_uris": {"ios": "https://dc.lft.to/lastmile_qr_scan", "android": "https://dc.lft.to/lastmile_qr_scan"}}, {"lon": -77.02824466666667, "fusion_lat": 0.0, "type": "electric_scooter", "lat": 38.902337333333335, "is_disabled": 0, "name": "429ef8d59e307ef6007841d7542bd831", "is_reserved": 0, "bike_id": "429ef8d59e307ef6007841d7542bd831", "fusion_lon": 0.0, "rental_uris": {"ios": "https://dc.lft.to/lastmile_qr_scan", "android": "https://dc.lft.to/lastmile_qr_scan"}}, {"lon": -77.03277133333333, "fusion_lat": 0.0, "type": "electric_scooter", "lat": 38.929574, "is_disabled": 0, "name": "785b7325d7a574a9290cf2e7350f741a", "is_reserved": 0, "bike_id": "785b7325d7a574a9290cf2e7350f741a", "fusion_lon": 0.0, "rental_uris": {"ios": "https://dc.lft.to/lastmile_qr_scan", "android": "https://dc.lft.to/lastmile_qr_scan"}}, {"lon": -77.00600533333333, "fusion_lat": 0.0, "type": "electric_scooter", "lat": 38.87745316666667, "is_disabled": 0, "name": "14ad7bd0384a8887406c48bdc4408669", "is_reserved": 0, "bike_id": "14ad7bd0384a8887406c48bdc4408669", "fusion_lon": 0.0, "rental_uris": {"ios": "https://dc.lft.to/lastmile_qr_scan", "android": "https://dc.lft.to/lastmile_qr_scan"}}, {"lon": -77.01765933333333, "fusion_lat": 0.0, "type": "electric_scooter", "lat": 38.93892533333333, "is_disabled": 0, "name": "331ffccbf7810b168aea1fe2ba7c91b5", "is_reserved": 0, "bike_id": "331ffccbf7810b168aea1fe2ba7c91b5", "fusion_lon": 0.0, "rental_uris": {"ios": "https://dc.lft.to/lastmile_qr_scan", "android": "https://dc.lft.to/lastmile_qr_scan"}}, {"lon": -76.977113, "fusion_lat": 0.0, "type": "electric_scooter", "lat": 38.8881685, "is_disabled": 0, "name": "107f61e5ef9d08c740c91f3309613398", "is_reserved": 0, "bike_id": "107f61e5ef9d08c740c91f3309613398", "fusion_lon": 0.0, "rental_uris": {"ios": "https://dc.lft.to/lastmile_qr_scan", "android": "https://dc.lft.to/lastmile_qr_scan"}}, {"lon": -77.04349366666666, "fusion_lat": 0.0, "type": "electric_scooter", "lat": 38.900277333333335, "is_disabled": 0, "name": "e05b7316e7f918259de0a8c141dab5bf", "is_reserved": 0, "bike_id": "e05b7316e7f918259de0a8c141dab5bf", "fusion_lon": 0.0, "rental_uris": {"ios": "https://dc.lft.to/lastmile_qr_scan", "android": "https://dc.lft.to/lastmile_qr_scan"}}, {"lon": -77.03181733333334, "fusion_lat": 0.0, "type": "electric_scooter", "lat": 38.89222616666667, "is_disabled": 0, "name": "10ad0fa7c182c23354eed63c8538b01d", "is_reserved": 0, "bike_id": "10ad0fa7c182c23354eed63c8538b01d", "fusion_lon": 0.0, "rental_uris": {"ios": "https://dc.lft.to/lastmile_qr_scan", "android": "https://dc.lft.to/lastmile_qr_scan"}}, {"lon": -77.05573683333333, "fusion_lat": 0.0, "type": "electric_scooter", "lat": 38.9306385, "is_disabled": 0, "name": "7437b50173361f635c4a4fa87e96f9a1", "is_reserved": 0, "bike_id": "7437b50173361f635c4a4fa87e96f9a1", "fusion_lon": 0.0, "rental_uris": {"ios": "https://dc.lft.to/lastmile_qr_scan", "android": "https://dc.lft.to/lastmile_qr_scan"}}, {"lon": -77.048742, "fusion_lat": 0.0, "type": "electric_scooter", "lat": 38.898488, "is_disabled": 0, "name": "c2428e1d206e94b117750cce92310d4c", "is_reserved": 0, "bike_id": "c2428e1d206e94b117750cce92310d4c", "fusion_lon": 0.0, "rental_uris": {"ios": "https://dc.lft.to/lastmile_qr_scan", "android": "https://dc.lft.to/lastmile_qr_scan"}}, {"lon": -77.021808, "fusion_lat": 0.0, "type": "electric_scooter", "lat": 38.905815, "is_disabled": 0, "name": "58ac93fef3c8e5490c5ed1eebe666103", "is_reserved": 0, "bike_id": "58ac93fef3c8e5490c5ed1eebe666103", "fusion_lon": 0.0, "rental_uris": {"ios": "https://dc.lft.to/lastmile_qr_scan", "android": "https://dc.lft.to/lastmile_qr_scan"}}, {"lon": -76.965539, "fusion_lat": 0.0, "type": "electric_scooter", "lat": 38.9185955, "is_disabled": 0, "name": "164334f8e41bc82ab124232b3452e9c8", "is_reserved": 0, "bike_id": "164334f8e41bc82ab124232b3452e9c8", "fusion_lon": 0.0, "rental_uris": {"ios": "https://dc.lft.to/lastmile_qr_scan", "android": "https://dc.lft.to/lastmile_qr_scan"}}, {"lon": -77.01911716666666, "fusion_lat": 0.0, "type": "electric_scooter", "lat": 38.92020183333333, "is_disabled": 0, "name": "54051faa736000b1a8316c05fa749e3a", "is_reserved": 0, "bike_id": "54051faa736000b1a8316c05fa749e3a", "fusion_lon": 0.0, "rental_uris": {"ios": "https://dc.lft.to/lastmile_qr_scan", "android": "https://dc.lft.to/lastmile_qr_scan"}}, {"lon": -77.055996, "fusion_lat": 0.0, "type": "electric_scooter", "lat": 38.93694816666667, "is_disabled": 0, "name": "35cec871d9d3fbe9d7b65271ad77609a", "is_reserved": 0, "bike_id": "35cec871d9d3fbe9d7b65271ad77609a", "fusion_lon": 0.0, "rental_uris": {"ios": "https://dc.lft.to/lastmile_qr_scan", "android": "https://dc.lft.to/lastmile_qr_scan"}}, {"lon": -77.0269405, "fusion_lat": 0.0, "type": "electric_scooter", "lat": 38.924626333333336, "is_disabled": 0, "name": "0e7bbd51df38b2fdf7c97c2a0e2baee4", "is_reserved": 0, "bike_id": "0e7bbd51df38b2fdf7c97c2a0e2baee4", "fusion_lon": 0.0, "rental_uris": {"ios": "https://dc.lft.to/lastmile_qr_scan", "android": "https://dc.lft.to/lastmile_qr_scan"}}, {"lon": -77.0211225, "fusion_lat": 0.0, "type": "electric_scooter", "lat": 38.92466833333334, "is_disabled": 0, "name": "24d0b74cbef1a06d6b4d0f8e7a886188", "is_reserved": 0, "bike_id": "24d0b74cbef1a06d6b4d0f8e7a886188", "fusion_lon": 0.0, "rental_uris": {"ios": "https://dc.lft.to/lastmile_qr_scan", "android": "https://dc.lft.to/lastmile_qr_scan"}}, {"lon": -77.02126233333334, "fusion_lat": 0.0, "type": "electric_scooter", "lat": 38.89968233333333, "is_disabled": 0, "name": "e0a9e6916ee078f06f0dea42aa454f61", "is_reserved": 0, "bike_id": "e0a9e6916ee078f06f0dea42aa454f61", "fusion_lon": 0.0, "rental_uris": {"ios": "https://dc.lft.to/lastmile_qr_scan", "android": "https://dc.lft.to/lastmile_qr_scan"}}, {"lon": -77.019102, "fusion_lat": 0.0, "type": "electric_scooter", "lat": 38.921744833333335, "is_disabled": 0, "name": "a2e4b4bdcf968d0bade24ab743a74140", "is_reserved": 0, "bike_id": "a2e4b4bdcf968d0bade24ab743a74140", "fusion_lon": 0.0, "rental_uris": {"ios": "https://dc.lft.to/lastmile_qr_scan", "android": "https://dc.lft.to/lastmile_qr_scan"}}, {"lon": -76.93262333333334, "fusion_lat": 0.0, "type": "electric_scooter", "lat": 38.887673166666666, "is_disabled": 0, "name": "39179cb2855f241b0a25cc5c85362f5c", "is_reserved": 0, "bike_id": "39179cb2855f241b0a25cc5c85362f5c", "fusion_lon": 0.0, "rental_uris": {"ios": "https://dc.lft.to/lastmile_qr_scan", "android": "https://dc.lft.to/lastmile_qr_scan"}}, {"lon": -77.02770033333333, "fusion_lat": 0.0, "type": "electric_scooter", "lat": 38.92980166666667, "is_disabled": 0, "name": "52cc095a15de647c06f53f1daf091e42", "is_reserved": 0, "bike_id": "52cc095a15de647c06f53f1daf091e42", "fusion_lon": 0.0, "rental_uris": {"ios": "https://dc.lft.to/lastmile_qr_scan", "android": "https://dc.lft.to/lastmile_qr_scan"}}, {"lon": -77.02337083333333, "fusion_lat": 0.0, "type": "electric_scooter", "lat": 38.894156833333334, "is_disabled": 0, "name": "16d2c1f839e1bd16385b46db0c9add6c", "is_reserved": 0, "bike_id": "16d2c1f839e1bd16385b46db0c9add6c", "fusion_lon": 0.0, "rental_uris": {"ios": "https://dc.lft.to/lastmile_qr_scan", "android": "https://dc.lft.to/lastmile_qr_scan"}}, {"lon": -77.02713983333334, "fusion_lat": 0.0, "type": "electric_bike", "lat": 38.931154, "is_disabled": 0, "name": "4fd68259b2724ed4d1af75c57af74cfa", "is_reserved": 0, "bike_id": "4fd68259b2724ed4d1af75c57af74cfa", "fusion_lon": 0.0, "rental_uris": {"ios": "https://dc.lft.to/lastmile_qr_scan", "android": "https://dc.lft.to/lastmile_qr_scan"}}, {"lon": -77.00406183333334, "fusion_lat": 0.0, "type": "electric_scooter", "lat": 38.8861435, "is_disabled": 0, "name": "2c56b952c2bd131d75077abc808d1535", "is_reserved": 0, "bike_id": "2c56b952c2bd131d75077abc808d1535", "fusion_lon": 0.0, "rental_uris": {"ios": "https://dc.lft.to/lastmile_qr_scan", "android": "https://dc.lft.to/lastmile_qr_scan"}}, {"lon": -77.015518, "fusion_lat": 0.0, "type": "electric_scooter", "lat": 38.891715166666664, "is_disabled": 0, "name": "bc503d7efa9203c4554021f8caabbff1", "is_reserved": 0, "bike_id": "bc503d7efa9203c4554021f8caabbff1", "fusion_lon": 0.0, "rental_uris": {"ios": "https://dc.lft.to/lastmile_qr_scan", "android": "https://dc.lft.to/lastmile_qr_scan"}}, {"lon": -77.046722, "fusion_lat": 0.0, "type": "electric_scooter", "lat": 38.89877833333333, "is_disabled": 0, "name": "ae667282b8fb5dcd45dfb5dbe4013fbb", "is_reserved": 0, "bike_id": "ae667282b8fb5dcd45dfb5dbe4013fbb", "fusion_lon": 0.0, "rental_uris": {"ios": "https://dc.lft.to/lastmile_qr_scan", "android": "https://dc.lft.to/lastmile_qr_scan"}}, {"lon": -77.025768, "fusion_lat": 0.0, "type": "electric_scooter", "lat": 38.90145233333333, "is_disabled": 0, "name": "f240b9751397a64d60d55cdf9f1f911e", "is_reserved": 0, "bike_id": "f240b9751397a64d60d55cdf9f1f911e", "fusion_lon": 0.0, "rental_uris": {"ios": "https://dc.lft.to/lastmile_qr_scan", "android": "https://dc.lft.to/lastmile_qr_scan"}}, {"lon": -77.0270865, "fusion_lat": 0.0, "type": "electric_scooter", "lat": 38.90582283333333, "is_disabled": 0, "name": "f9ae364224694ac14f32a0b27051c658", "is_reserved": 0, "bike_id": "f9ae364224694ac14f32a0b27051c658", "fusion_lon": 0.0, "rental_uris": {"ios": "https://dc.lft.to/lastmile_qr_scan", "android": "https://dc.lft.to/lastmile_qr_scan"}}, {"lon": -77.0332435, "fusion_lat": 0.0, "type": "electric_scooter", "lat": 38.903540166666666, "is_disabled": 0, "name": "f5d318abf06e566e140da2ec480e7455", "is_reserved": 0, "bike_id": "f5d318abf06e566e140da2ec480e7455", "fusion_lon": 0.0, "rental_uris": {"ios": "https://dc.lft.to/lastmile_qr_scan", "android": "https://dc.lft.to/lastmile_qr_scan"}}, {"lon": -77.026948, "fusion_lat": 0.0, "type": "electric_scooter", "lat": 38.90238166666666, "is_disabled": 0, "name": "bf0de8750f9e36b0621fa8e412bdf9d1", "is_reserved": 0, "bike_id": "bf0de8750f9e36b0621fa8e412bdf9d1", "fusion_lon": 0.0, "rental_uris": {"ios": "https://dc.lft.to/lastmile_qr_scan", "android": "https://dc.lft.to/lastmile_qr_scan"}}, {"lon": -77.03203083333334, "fusion_lat": 0.0, "type": "electric_scooter", "lat": 38.91343633333334, "is_disabled": 0, "name": "bcc7d01aa4773d4224a2d779892e1d5a", "is_reserved": 0, "bike_id": "bcc7d01aa4773d4224a2d779892e1d5a", "fusion_lon": 0.0, "rental_uris": {"ios": "https://dc.lft.to/lastmile_qr_scan", "android": "https://dc.lft.to/lastmile_qr_scan"}}, {"lon": -77.031722, "fusion_lat": 0.0, "type": "electric_scooter", "lat": 38.914044833333335, "is_disabled": 0, "name": "42c36dbe93eaf44fe91696e69b37a37d", "is_reserved": 0, "bike_id": "42c36dbe93eaf44fe91696e69b37a37d", "fusion_lon": 0.0, "rental_uris": {"ios": "https://dc.lft.to/lastmile_qr_scan", "android": "https://dc.lft.to/lastmile_qr_scan"}}, {"lon": -77.05284883333333, "fusion_lat": 0.0, "type": "electric_scooter", "lat": 38.910129166666664, "is_disabled": 0, "name": "3dfd5d4d192e2a4738dac89f667ebe5d", "is_reserved": 0, "bike_id": "3dfd5d4d192e2a4738dac89f667ebe5d", "fusion_lon": 0.0, "rental_uris": {"ios": "https://dc.lft.to/lastmile_qr_scan", "android": "https://dc.lft.to/lastmile_qr_scan"}}, {"lon": -77.04157416666666, "fusion_lat": 0.0, "type": "electric_scooter", "lat": 38.907249166666666, "is_disabled": 0, "name": "58affb153387868922fef7811abc41e7", "is_reserved": 0, "bike_id": "58affb153387868922fef7811abc41e7", "fusion_lon": 0.0, "rental_uris": {"ios": "https://dc.lft.to/lastmile_qr_scan", "android": "https://dc.lft.to/lastmile_qr_scan"}}, {"lon": -77.02688516666667, "fusion_lat": 0.0, "type": "electric_scooter", "lat": 38.91287666666667, "is_disabled": 0, "name": "c79197b505e93b63a1c3c581a41575e3", "is_reserved": 0, "bike_id": "c79197b505e93b63a1c3c581a41575e3", "fusion_lon": 0.0, "rental_uris": {"ios": "https://dc.lft.to/lastmile_qr_scan", "android": "https://dc.lft.to/lastmile_qr_scan"}}, {"lon": -77.017596, "fusion_lat": 0.0, "type": "electric_scooter", "lat": 38.90252133333333, "is_disabled": 0, "name": "8e52435bfa2323f4e8739be339b7f2fa", "is_reserved": 0, "bike_id": "8e52435bfa2323f4e8739be339b7f2fa", "fusion_lon": 0.0, "rental_uris": {"ios": "https://dc.lft.to/lastmile_qr_scan", "android": "https://dc.lft.to/lastmile_qr_scan"}}, {"lon": -77.04078333333334, "fusion_lat": 0.0, "type": "electric_scooter", "lat": 38.926604833333336, "is_disabled": 0, "name": "1c6ca967eb1bdd435425e5e1a844118e", "is_reserved": 0, "bike_id": "1c6ca967eb1bdd435425e5e1a844118e", "fusion_lon": 0.0, "rental_uris": {"ios": "https://dc.lft.to/lastmile_qr_scan", "android": "https://dc.lft.to/lastmile_qr_scan"}}, {"lon": -76.86843233333333, "fusion_lat": 0.0, "type": "electric_bike", "lat": 38.89385216666667, "is_disabled": 0, "name": "cc812defb8c91b934646b01e8f254d88", "is_reserved": 0, "bike_id": "cc812defb8c91b934646b01e8f254d88", "fusion_lon": 0.0, "rental_uris": {"ios": "https://dc.lft.to/lastmile_qr_scan", "android": "https://dc.lft.to/lastmile_qr_scan"}}, {"lon": -77.0310125, "fusion_lat": 0.0, "type": "electric_scooter", "lat": 38.8954915, "is_disabled": 0, "name": "a295db767608e333fe1d5c748781cee7", "is_reserved": 0, "bike_id": "a295db767608e333fe1d5c748781cee7", "fusion_lon": 0.0, "rental_uris": {"ios": "https://dc.lft.to/lastmile_qr_scan", "android": "https://dc.lft.to/lastmile_qr_scan"}}, {"lon": -76.98089133333333, "fusion_lat": 0.0, "type": "electric_scooter", "lat": 38.9001815, "is_disabled": 0, "name": "ce771f4821d2c36eda8f0a1130730857", "is_reserved": 0, "bike_id": "ce771f4821d2c36eda8f0a1130730857", "fusion_lon": 0.0, "rental_uris": {"ios": "https://dc.lft.to/lastmile_qr_scan", "android": "https://dc.lft.to/lastmile_qr_scan"}}, {"lon": -77.01998066666667, "fusion_lat": 0.0, "type": "electric_scooter", "lat": 38.87672283333333, "is_disabled": 0, "name": "5a7981ec1a17f4665c8dcdef854d9182", "is_reserved": 0, "bike_id": "5a7981ec1a17f4665c8dcdef854d9182", "fusion_lon": 0.0, "rental_uris": {"ios": "https://dc.lft.to/lastmile_qr_scan", "android": "https://dc.lft.to/lastmile_qr_scan"}}, {"lon": -77.0245485, "fusion_lat": 0.0, "type": "electric_scooter", "lat": 38.907679, "is_disabled": 0, "name": "8cc6145268ec7f19b668c659c75eeabb", "is_reserved": 0, "bike_id": "8cc6145268ec7f19b668c659c75eeabb", "fusion_lon": 0.0, "rental_uris": {"ios": "https://dc.lft.to/lastmile_qr_scan", "android": "https://dc.lft.to/lastmile_qr_scan"}}, {"lon": -77.05537333333334, "fusion_lat": 0.0, "type": "electric_scooter", "lat": 38.92791583333333, "is_disabled": 0, "name": "804daa5ccf3122f89262cc57fbf02c9f", "is_reserved": 0, "bike_id": "804daa5ccf3122f89262cc57fbf02c9f", "fusion_lon": 0.0, "rental_uris": {"ios": "https://dc.lft.to/lastmile_qr_scan", "android": "https://dc.lft.to/lastmile_qr_scan"}}, {"lon": -77.02307983333333, "fusion_lat": 0.0, "type": "electric_scooter", "lat": 38.920599833333334, "is_disabled": 0, "name": "1169e0248ad6719eb0343ae972d88ae9", "is_reserved": 0, "bike_id": "1169e0248ad6719eb0343ae972d88ae9", "fusion_lon": 0.0, "rental_uris": {"ios": "https://dc.lft.to/lastmile_qr_scan", "android": "https://dc.lft.to/lastmile_qr_scan"}}, {"lon": -77.023759, "fusion_lat": 0.0, "type": "electric_scooter", "lat": 38.901980333333334, "is_disabled": 0, "name": "144b74fb9fdd956da0660c885d0d52a8", "is_reserved": 0, "bike_id": "144b74fb9fdd956da0660c885d0d52a8", "fusion_lon": 0.0, "rental_uris": {"ios": "https://dc.lft.to/lastmile_qr_scan", "android": "https://dc.lft.to/lastmile_qr_scan"}}, {"lon": -76.942532, "fusion_lat": 0.0, "type": "electric_bike", "lat": 38.947940833333334, "is_disabled": 0, "name": "47e482c8d3dc1754a488a51eb597d6d5", "is_reserved": 0, "bike_id": "47e482c8d3dc1754a488a51eb597d6d5", "fusion_lon": 0.0, "rental_uris": {"ios": "https://dc.lft.to/lastmile_qr_scan", "android": "https://dc.lft.to/lastmile_qr_scan"}}, {"lon": -77.02416183333334, "fusion_lat": 0.0, "type": "electric_scooter", "lat": 38.920728, "is_disabled": 0, "name": "33d74b350893300bbb41c60484e0b960", "is_reserved": 0, "bike_id": "33d74b350893300bbb41c60484e0b960", "fusion_lon": 0.0, "rental_uris": {"ios": "https://dc.lft.to/lastmile_qr_scan", "android": "https://dc.lft.to/lastmile_qr_scan"}}, {"lon": -76.9833445, "fusion_lat": 0.0, "type": "electric_scooter", "lat": 38.895437333333334, "is_disabled": 0, "name": "a567d91bd08b9298f54708303d9384a1", "is_reserved": 0, "bike_id": "a567d91bd08b9298f54708303d9384a1", "fusion_lon": 0.0, "rental_uris": {"ios": "https://dc.lft.to/lastmile_qr_scan", "android": "https://dc.lft.to/lastmile_qr_scan"}}, {"lon": -76.99611883333333, "fusion_lat": 0.0, "type": "electric_scooter", "lat": 38.87668016666667, "is_disabled": 0, "name": "139e178e5153e385955c742bffcb9256", "is_reserved": 0, "bike_id": "139e178e5153e385955c742bffcb9256", "fusion_lon": 0.0, "rental_uris": {"ios": "https://dc.lft.to/lastmile_qr_scan", "android": "https://dc.lft.to/lastmile_qr_scan"}}, {"lon": -77.04144266666667, "fusion_lat": 0.0, "type": "electric_scooter", "lat": 38.922951833333336, "is_disabled": 0, "name": "412f838e1d5e61785e6afcfbc8410488", "is_reserved": 0, "bike_id": "412f838e1d5e61785e6afcfbc8410488", "fusion_lon": 0.0, "rental_uris": {"ios": "https://dc.lft.to/lastmile_qr_scan", "android": "https://dc.lft.to/lastmile_qr_scan"}}, {"lon": -77.017936, "fusion_lat": 0.0, "type": "electric_scooter", "lat": 38.91966933333333, "is_disabled": 0, "name": "79de42faafa5518a4abe25f278e23507", "is_reserved": 0, "bike_id": "79de42faafa5518a4abe25f278e23507", "fusion_lon": 0.0, "rental_uris": {"ios": "https://dc.lft.to/lastmile_qr_scan", "android": "https://dc.lft.to/lastmile_qr_scan"}}, {"lon": -77.04193716666667, "fusion_lat": 0.0, "type": "electric_scooter", "lat": 38.90691233333333, "is_disabled": 0, "name": "6f5d180afdac2cd4f50240497edf7a3c", "is_reserved": 0, "bike_id": "6f5d180afdac2cd4f50240497edf7a3c", "fusion_lon": 0.0, "rental_uris": {"ios": "https://dc.lft.to/lastmile_qr_scan", "android": "https://dc.lft.to/lastmile_qr_scan"}}, {"lon": -77.03207033333334, "fusion_lat": 0.0, "type": "electric_scooter", "lat": 38.913444, "is_disabled": 0, "name": "3a402ae4bba20ec74071bc9c169e3850", "is_reserved": 0, "bike_id": "3a402ae4bba20ec74071bc9c169e3850", "fusion_lon": 0.0, "rental_uris": {"ios": "https://dc.lft.to/lastmile_qr_scan", "android": "https://dc.lft.to/lastmile_qr_scan"}}, {"lon": -77.02669266666666, "fusion_lat": 0.0, "type": "electric_scooter", "lat": 38.894451, "is_disabled": 0, "name": "e12129e5d69ac00ede51a864981a12c0", "is_reserved": 0, "bike_id": "e12129e5d69ac00ede51a864981a12c0", "fusion_lon": 0.0, "rental_uris": {"ios": "https://dc.lft.to/lastmile_qr_scan", "android": "https://dc.lft.to/lastmile_qr_scan"}}, {"lon": -77.0257355, "fusion_lat": 0.0, "type": "electric_scooter", "lat": 38.897497333333334, "is_disabled": 0, "name": "94cc588d475f70a15248fdfec6c4fecf", "is_reserved": 0, "bike_id": "94cc588d475f70a15248fdfec6c4fecf", "fusion_lon": 0.0, "rental_uris": {"ios": "https://dc.lft.to/lastmile_qr_scan", "android": "https://dc.lft.to/lastmile_qr_scan"}}, {"lon": -77.025332, "fusion_lat": 0.0, "type": "electric_scooter", "lat": 38.90639316666667, "is_disabled": 0, "name": "87661668f4a5621215829f257d635edf", "is_reserved": 0, "bike_id": "87661668f4a5621215829f257d635edf", "fusion_lon": 0.0, "rental_uris": {"ios": "https://dc.lft.to/lastmile_qr_scan", "android": "https://dc.lft.to/lastmile_qr_scan"}}, {"lon": -77.02611516666667, "fusion_lat": 0.0, "type": "electric_scooter", "lat": 38.896160333333334, "is_disabled": 0, "name": "20dfeb970860621e005980a02f601ba3", "is_reserved": 0, "bike_id": "20dfeb970860621e005980a02f601ba3", "fusion_lon": 0.0, "rental_uris": {"ios": "https://dc.lft.to/lastmile_qr_scan", "android": "https://dc.lft.to/lastmile_qr_scan"}}, {"lon": -76.96552533333333, "fusion_lat": 0.0, "type": "electric_scooter", "lat": 38.918608666666664, "is_disabled": 0, "name": "c3693da14e99338951d6bcd6cb8fd1bd", "is_reserved": 0, "bike_id": "c3693da14e99338951d6bcd6cb8fd1bd", "fusion_lon": 0.0, "rental_uris": {"ios": "https://dc.lft.to/lastmile_qr_scan", "android": "https://dc.lft.to/lastmile_qr_scan"}}, {"lon": -77.000336, "fusion_lat": 0.0, "type": "electric_scooter", "lat": 38.9075925, "is_disabled": 0, "name": "adf511bcc29d0836af2c0fa3cb7f85b1", "is_reserved": 0, "bike_id": "adf511bcc29d0836af2c0fa3cb7f85b1", "fusion_lon": 0.0, "rental_uris": {"ios": "https://dc.lft.to/lastmile_qr_scan", "android": "https://dc.lft.to/lastmile_qr_scan"}}, {"lon": -77.0611755, "fusion_lat": 0.0, "type": "electric_scooter", "lat": 38.94370766666667, "is_disabled": 0, "name": "ea98544596cceda4c987fe538adbf6a2", "is_reserved": 0, "bike_id": "ea98544596cceda4c987fe538adbf6a2", "fusion_lon": 0.0, "rental_uris": {"ios": "https://dc.lft.to/lastmile_qr_scan", "android": "https://dc.lft.to/lastmile_qr_scan"}}, {"lon": -77.05713466666667, "fusion_lat": 0.0, "type": "electric_bike", "lat": 38.90560466666667, "is_disabled": 0, "name": "ea21d66e21b825f3255f5dc8f54e1f31", "is_reserved": 0, "bike_id": "ea21d66e21b825f3255f5dc8f54e1f31", "fusion_lon": 0.0, "rental_uris": {"ios": "https://dc.lft.to/lastmile_qr_scan", "android": "https://dc.lft.to/lastmile_qr_scan"}}, {"lon": -76.98839933333333, "fusion_lat": 0.0, "type": "electric_scooter", "lat": 38.9003525, "is_disabled": 0, "name": "328eaded3cd360118e0fa6e9ddaf6c06", "is_reserved": 0, "bike_id": "328eaded3cd360118e0fa6e9ddaf6c06", "fusion_lon": 0.0, "rental_uris": {"ios": "https://dc.lft.to/lastmile_qr_scan", "android": "https://dc.lft.to/lastmile_qr_scan"}}, {"lon": -77.02108966666667, "fusion_lat": 0.0, "type": "electric_scooter", "lat": 38.92742033333333, "is_disabled": 0, "name": "3a81ea68767c1255b909b133d1c5d721", "is_reserved": 0, "bike_id": "3a81ea68767c1255b909b133d1c5d721", "fusion_lon": 0.0, "rental_uris": {"ios": "https://dc.lft.to/lastmile_qr_scan", "android": "https://dc.lft.to/lastmile_qr_scan"}}, {"lon": -77.041919, "fusion_lat": 0.0, "type": "electric_scooter", "lat": 38.907407166666665, "is_disabled": 0, "name": "f552748354b1e2c704f5741c15665e78", "is_reserved": 0, "bike_id": "f552748354b1e2c704f5741c15665e78", "fusion_lon": 0.0, "rental_uris": {"ios": "https://dc.lft.to/lastmile_qr_scan", "android": "https://dc.lft.to/lastmile_qr_scan"}}, {"lon": -77.0072685, "fusion_lat": 0.0, "type": "electric_scooter", "lat": 38.95420583333333, "is_disabled": 0, "name": "5ea3bb27963cc4e6786226867624811c", "is_reserved": 0, "bike_id": "5ea3bb27963cc4e6786226867624811c", "fusion_lon": 0.0, "rental_uris": {"ios": "https://dc.lft.to/lastmile_qr_scan", "android": "https://dc.lft.to/lastmile_qr_scan"}}, {"lon": -77.01903933333334, "fusion_lat": 0.0, "type": "electric_scooter", "lat": 38.923384, "is_disabled": 0, "name": "042ac983070e76bbd5d72379f2774075", "is_reserved": 0, "bike_id": "042ac983070e76bbd5d72379f2774075", "fusion_lon": 0.0, "rental_uris": {"ios": "https://dc.lft.to/lastmile_qr_scan", "android": "https://dc.lft.to/lastmile_qr_scan"}}, {"lon": -77.03782583333333, "fusion_lat": 0.0, "type": "electric_scooter", "lat": 38.920033, "is_disabled": 0, "name": "30a790de782608f5481b53cdcb90474a", "is_reserved": 0, "bike_id": "30a790de782608f5481b53cdcb90474a", "fusion_lon": 0.0, "rental_uris": {"ios": "https://dc.lft.to/lastmile_qr_scan", "android": "https://dc.lft.to/lastmile_qr_scan"}}, {"lon": -77.023845, "fusion_lat": 0.0, "type": "electric_scooter", "lat": 38.8923355, "is_disabled": 0, "name": "e5b6d3a74f3670f024e884a2a5a585a3", "is_reserved": 0, "bike_id": "e5b6d3a74f3670f024e884a2a5a585a3", "fusion_lon": 0.0, "rental_uris": {"ios": "https://dc.lft.to/lastmile_qr_scan", "android": "https://dc.lft.to/lastmile_qr_scan"}}, {"lon": -77.02672916666667, "fusion_lat": 0.0, "type": "electric_scooter", "lat": 38.921698, "is_disabled": 0, "name": "b37a85cc51106f571a9d8aef5fc1ee03", "is_reserved": 0, "bike_id": "b37a85cc51106f571a9d8aef5fc1ee03", "fusion_lon": 0.0, "rental_uris": {"ios": "https://dc.lft.to/lastmile_qr_scan", "android": "https://dc.lft.to/lastmile_qr_scan"}}, {"lon": -77.0091295, "fusion_lat": 0.0, "type": "electric_scooter", "lat": 38.9575555, "is_disabled": 0, "name": "e2b8c56e64ea82024d1482a1bf380596", "is_reserved": 0, "bike_id": "e2b8c56e64ea82024d1482a1bf380596", "fusion_lon": 0.0, "rental_uris": {"ios": "https://dc.lft.to/lastmile_qr_scan", "android": "https://dc.lft.to/lastmile_qr_scan"}}, {"lon": -76.9967905, "fusion_lat": 0.0, "type": "electric_scooter", "lat": 38.88508, "is_disabled": 0, "name": "2258f29e877fde3c7929611223551fe4", "is_reserved": 0, "bike_id": "2258f29e877fde3c7929611223551fe4", "fusion_lon": 0.0, "rental_uris": {"ios": "https://dc.lft.to/lastmile_qr_scan", "android": "https://dc.lft.to/lastmile_qr_scan"}}, {"lon": -76.99322133333334, "fusion_lat": 0.0, "type": "electric_scooter", "lat": 38.876585666666664, "is_disabled": 0, "name": "0944a24b21767723785ed40fe4d6c93d", "is_reserved": 0, "bike_id": "0944a24b21767723785ed40fe4d6c93d", "fusion_lon": 0.0, "rental_uris": {"ios": "https://dc.lft.to/lastmile_qr_scan", "android": "https://dc.lft.to/lastmile_qr_scan"}}, {"lon": -77.041218, "fusion_lat": 0.0, "type": "electric_scooter", "lat": 38.92353416666667, "is_disabled": 0, "name": "0fe9cca3defc2a4fa0a96be2a293a331", "is_reserved": 0, "bike_id": "0fe9cca3defc2a4fa0a96be2a293a331", "fusion_lon": 0.0, "rental_uris": {"ios": "https://dc.lft.to/lastmile_qr_scan", "android": "https://dc.lft.to/lastmile_qr_scan"}}, {"lon": -76.96548433333334, "fusion_lat": 0.0, "type": "electric_scooter", "lat": 38.918384, "is_disabled": 0, "name": "999135b7bee7787be9f80198b721b3b5", "is_reserved": 0, "bike_id": "999135b7bee7787be9f80198b721b3b5", "fusion_lon": 0.0, "rental_uris": {"ios": "https://dc.lft.to/lastmile_qr_scan", "android": "https://dc.lft.to/lastmile_qr_scan"}}, {"lon": -77.02640283333334, "fusion_lat": 0.0, "type": "electric_scooter", "lat": 38.982249833333334, "is_disabled": 0, "name": "dd8bae04f5c01b5b14f9f70134454d2f", "is_reserved": 0, "bike_id": "dd8bae04f5c01b5b14f9f70134454d2f", "fusion_lon": 0.0, "rental_uris": {"ios": "https://dc.lft.to/lastmile_qr_scan", "android": "https://dc.lft.to/lastmile_qr_scan"}}, {"lon": -77.06121916666666, "fusion_lat": 0.0, "type": "electric_scooter", "lat": 38.9435765, "is_disabled": 0, "name": "4ccd94823da04fcbb3e6cf595b7986dd", "is_reserved": 0, "bike_id": "4ccd94823da04fcbb3e6cf595b7986dd", "fusion_lon": 0.0, "rental_uris": {"ios": "https://dc.lft.to/lastmile_qr_scan", "android": "https://dc.lft.to/lastmile_qr_scan"}}, {"lon": -77.02164383333333, "fusion_lat": 0.0, "type": "electric_scooter", "lat": 38.901771833333335, "is_disabled": 0, "name": "2db4121787a690ac1693db34297996b3", "is_reserved": 0, "bike_id": "2db4121787a690ac1693db34297996b3", "fusion_lon": 0.0, "rental_uris": {"ios": "https://dc.lft.to/lastmile_qr_scan", "android": "https://dc.lft.to/lastmile_qr_scan"}}, {"lon": -77.03172133333334, "fusion_lat": 0.0, "type": "electric_scooter", "lat": 38.914182833333335, "is_disabled": 0, "name": "cf51f2155c644eaefbb8b62e0f6d537e", "is_reserved": 0, "bike_id": "cf51f2155c644eaefbb8b62e0f6d537e", "fusion_lon": 0.0, "rental_uris": {"ios": "https://dc.lft.to/lastmile_qr_scan", "android": "https://dc.lft.to/lastmile_qr_scan"}}, {"lon": -76.996991, "fusion_lat": 0.0, "type": "electric_scooter", "lat": 38.90834266666667, "is_disabled": 0, "name": "fa59078ac66dd048a4cc76f5f0ec272a", "is_reserved": 0, "bike_id": "fa59078ac66dd048a4cc76f5f0ec272a", "fusion_lon": 0.0, "rental_uris": {"ios": "https://dc.lft.to/lastmile_qr_scan", "android": "https://dc.lft.to/lastmile_qr_scan"}}, {"lon": -77.01796666666667, "fusion_lat": 0.0, "type": "electric_bike", "lat": 38.994119, "is_disabled": 0, "name": "3cdf919a8db9eba6301502f174ed3b04", "is_reserved": 0, "bike_id": "3cdf919a8db9eba6301502f174ed3b04", "fusion_lon": 0.0, "rental_uris": {"ios": "https://dc.lft.to/lastmile_qr_scan", "android": "https://dc.lft.to/lastmile_qr_scan"}}, {"lon": -77.01314566666667, "fusion_lat": 0.0, "type": "electric_scooter", "lat": 38.89707716666667, "is_disabled": 0, "name": "fb1c4667a3dd4f1edc37cc1bcdc36a82", "is_reserved": 0, "bike_id": "fb1c4667a3dd4f1edc37cc1bcdc36a82", "fusion_lon": 0.0, "rental_uris": {"ios": "https://dc.lft.to/lastmile_qr_scan", "android": "https://dc.lft.to/lastmile_qr_scan"}}, {"lon": -76.99536916666666, "fusion_lat": 0.0, "type": "electric_bike", "lat": 38.83866733333333, "is_disabled": 0, "name": "1fec6d73d39ab683219f745033fd33db", "is_reserved": 0, "bike_id": "1fec6d73d39ab683219f745033fd33db", "fusion_lon": 0.0, "rental_uris": {"ios": "https://dc.lft.to/lastmile_qr_scan", "android": "https://dc.lft.to/lastmile_qr_scan"}}, {"lon": -76.99490183333333, "fusion_lat": 0.0, "type": "electric_scooter", "lat": 38.894742666666666, "is_disabled": 0, "name": "811c436269d765749b608f832c6d5bf7", "is_reserved": 0, "bike_id": "811c436269d765749b608f832c6d5bf7", "fusion_lon": 0.0, "rental_uris": {"ios": "https://dc.lft.to/lastmile_qr_scan", "android": "https://dc.lft.to/lastmile_qr_scan"}}, {"lon": -77.03263616666666, "fusion_lat": 0.0, "type": "electric_scooter", "lat": 38.9394365, "is_disabled": 0, "name": "c843adb341e9576e7400aa60dfb89ff0", "is_reserved": 0, "bike_id": "c843adb341e9576e7400aa60dfb89ff0", "fusion_lon": 0.0, "rental_uris": {"ios": "https://dc.lft.to/lastmile_qr_scan", "android": "https://dc.lft.to/lastmile_qr_scan"}}, {"lon": -77.024045, "fusion_lat": 0.0, "type": "electric_scooter", "lat": 38.924935, "is_disabled": 0, "name": "a4480c68d62516682e9a466b70e200bb", "is_reserved": 0, "bike_id": "a4480c68d62516682e9a466b70e200bb", "fusion_lon": 0.0, "rental_uris": {"ios": "https://dc.lft.to/lastmile_qr_scan", "android": "https://dc.lft.to/lastmile_qr_scan"}}, {"lon": -77.03225533333334, "fusion_lat": 0.0, "type": "electric_scooter", "lat": 38.90447133333333, "is_disabled": 0, "name": "bed73f347349a9ea45e265845f5ac420", "is_reserved": 0, "bike_id": "bed73f347349a9ea45e265845f5ac420", "fusion_lon": 0.0, "rental_uris": {"ios": "https://dc.lft.to/lastmile_qr_scan", "android": "https://dc.lft.to/lastmile_qr_scan"}}, {"lon": -77.032073, "fusion_lat": 0.0, "type": "electric_scooter", "lat": 38.892363, "is_disabled": 0, "name": "db8b59dc8c05ad5cc245eba291f92835", "is_reserved": 0, "bike_id": "db8b59dc8c05ad5cc245eba291f92835", "fusion_lon": 0.0, "rental_uris": {"ios": "https://dc.lft.to/lastmile_qr_scan", "android": "https://dc.lft.to/lastmile_qr_scan"}}, {"lon": -77.01948033333333, "fusion_lat": 0.0, "type": "electric_scooter", "lat": 38.92441916666667, "is_disabled": 0, "name": "66a6de04095c01096b822ffb6572e58e", "is_reserved": 0, "bike_id": "66a6de04095c01096b822ffb6572e58e", "fusion_lon": 0.0, "rental_uris": {"ios": "https://dc.lft.to/lastmile_qr_scan", "android": "https://dc.lft.to/lastmile_qr_scan"}}, {"lon": -77.02405366666666, "fusion_lat": 0.0, "type": "electric_scooter", "lat": 38.91608183333334, "is_disabled": 0, "name": "bb0b78e73bc9495c0ea3d165fd6621cb", "is_reserved": 0, "bike_id": "bb0b78e73bc9495c0ea3d165fd6621cb", "fusion_lon": 0.0, "rental_uris": {"ios": "https://dc.lft.to/lastmile_qr_scan", "android": "https://dc.lft.to/lastmile_qr_scan"}}, {"lon": -77.04872866666666, "fusion_lat": 0.0, "type": "electric_scooter", "lat": 38.904780833333334, "is_disabled": 0, "name": "8b72890ca25a8d9aa5ca0df518ef3601", "is_reserved": 0, "bike_id": "8b72890ca25a8d9aa5ca0df518ef3601", "fusion_lon": 0.0, "rental_uris": {"ios": "https://dc.lft.to/lastmile_qr_scan", "android": "https://dc.lft.to/lastmile_qr_scan"}}, {"lon": -77.03417233333333, "fusion_lat": 0.0, "type": "electric_bike", "lat": 38.96614133333333, "is_disabled": 0, "name": "34ce3fdeff36e58f0aec8b14fcfe931a", "is_reserved": 0, "bike_id": "34ce3fdeff36e58f0aec8b14fcfe931a", "fusion_lon": 0.0, "rental_uris": {"ios": "https://dc.lft.to/lastmile_qr_scan", "android": "https://dc.lft.to/lastmile_qr_scan"}}, {"lon": -77.02602566666667, "fusion_lat": 0.0, "type": "electric_scooter", "lat": 38.91712616666667, "is_disabled": 0, "name": "dbc9892120f259e1f96aee82681b5c14", "is_reserved": 0, "bike_id": "dbc9892120f259e1f96aee82681b5c14", "fusion_lon": 0.0, "rental_uris": {"ios": "https://dc.lft.to/lastmile_qr_scan", "android": "https://dc.lft.to/lastmile_qr_scan"}}, {"lon": -77.02020433333334, "fusion_lat": 0.0, "type": "electric_scooter", "lat": 38.9243325, "is_disabled": 0, "name": "47ee580bf45f87cef68b8447746f3b17", "is_reserved": 0, "bike_id": "47ee580bf45f87cef68b8447746f3b17", "fusion_lon": 0.0, "rental_uris": {"ios": "https://dc.lft.to/lastmile_qr_scan", "android": "https://dc.lft.to/lastmile_qr_scan"}}, {"lon": -77.02714, "fusion_lat": 0.0, "type": "electric_scooter", "lat": 38.9007545, "is_disabled": 0, "name": "20c796d42ceaaa74731bd9d3980558da", "is_reserved": 0, "bike_id": "20c796d42ceaaa74731bd9d3980558da", "fusion_lon": 0.0, "rental_uris": {"ios": "https://dc.lft.to/lastmile_qr_scan", "android": "https://dc.lft.to/lastmile_qr_scan"}}, {"lon": -77.023418, "fusion_lat": 0.0, "type": "electric_scooter", "lat": 38.94968866666667, "is_disabled": 0, "name": "72fe7962a0c8b9787ab4328f7c07bbfe", "is_reserved": 0, "bike_id": "72fe7962a0c8b9787ab4328f7c07bbfe", "fusion_lon": 0.0, "rental_uris": {"ios": "https://dc.lft.to/lastmile_qr_scan", "android": "https://dc.lft.to/lastmile_qr_scan"}}, {"lon": -77.04198316666667, "fusion_lat": 0.0, "type": "electric_scooter", "lat": 38.905802333333334, "is_disabled": 0, "name": "abf68e4ad604b7d40639d7a9d2130459", "is_reserved": 0, "bike_id": "abf68e4ad604b7d40639d7a9d2130459", "fusion_lon": 0.0, "rental_uris": {"ios": "https://dc.lft.to/lastmile_qr_scan", "android": "https://dc.lft.to/lastmile_qr_scan"}}, {"lon": -77.03062533333333, "fusion_lat": 0.0, "type": "electric_scooter", "lat": 38.8980955, "is_disabled": 0, "name": "3060877643b1ed69e399c63809e48a29", "is_reserved": 0, "bike_id": "3060877643b1ed69e399c63809e48a29", "fusion_lon": 0.0, "rental_uris": {"ios": "https://dc.lft.to/lastmile_qr_scan", "android": "https://dc.lft.to/lastmile_qr_scan"}}, {"lon": -77.016752, "fusion_lat": 0.0, "type": "electric_scooter", "lat": 38.92039366666667, "is_disabled": 0, "name": "6d2255ddc615e81ca954547e445a9c2e", "is_reserved": 0, "bike_id": "6d2255ddc615e81ca954547e445a9c2e", "fusion_lon": 0.0, "rental_uris": {"ios": "https://dc.lft.to/lastmile_qr_scan", "android": "https://dc.lft.to/lastmile_qr_scan"}}, {"lon": -77.0504855, "fusion_lat": 0.0, "type": "electric_scooter", "lat": 38.903668833333334, "is_disabled": 0, "name": "2ca6bd9ef8a154b20efc9df1a9de40ca", "is_reserved": 0, "bike_id": "2ca6bd9ef8a154b20efc9df1a9de40ca", "fusion_lon": 0.0, "rental_uris": {"ios": "https://dc.lft.to/lastmile_qr_scan", "android": "https://dc.lft.to/lastmile_qr_scan"}}, {"lon": -77.03374583333333, "fusion_lat": 0.0, "type": "electric_scooter", "lat": 38.89826016666667, "is_disabled": 0, "name": "738a456d526eba49c6dca94b9663587f", "is_reserved": 0, "bike_id": "738a456d526eba49c6dca94b9663587f", "fusion_lon": 0.0, "rental_uris": {"ios": "https://dc.lft.to/lastmile_qr_scan", "android": "https://dc.lft.to/lastmile_qr_scan"}}, {"lon": -77.03859766666666, "fusion_lat": 0.0, "type": "electric_scooter", "lat": 38.909688333333335, "is_disabled": 0, "name": "e7a22c3dd391e27a85aa99f814514d5e", "is_reserved": 0, "bike_id": "e7a22c3dd391e27a85aa99f814514d5e", "fusion_lon": 0.0, "rental_uris": {"ios": "https://dc.lft.to/lastmile_qr_scan", "android": "https://dc.lft.to/lastmile_qr_scan"}}, {"lon": -77.0445265, "fusion_lat": 0.0, "type": "electric_scooter", "lat": 38.91015383333333, "is_disabled": 0, "name": "1399c2a6650030a7a6ab468666b2712c", "is_reserved": 0, "bike_id": "1399c2a6650030a7a6ab468666b2712c", "fusion_lon": 0.0, "rental_uris": {"ios": "https://dc.lft.to/lastmile_qr_scan", "android": "https://dc.lft.to/lastmile_qr_scan"}}, {"lon": -77.02341233333334, "fusion_lat": 0.0, "type": "electric_scooter", "lat": 38.913021, "is_disabled": 0, "name": "3c2e8ef43042067bface2c489870288e", "is_reserved": 0, "bike_id": "3c2e8ef43042067bface2c489870288e", "fusion_lon": 0.0, "rental_uris": {"ios": "https://dc.lft.to/lastmile_qr_scan", "android": "https://dc.lft.to/lastmile_qr_scan"}}, {"lon": -77.031852, "fusion_lat": 0.0, "type": "electric_scooter", "lat": 38.89237883333333, "is_disabled": 0, "name": "0c48547d16c71f006ad15926f9f0ec8a", "is_reserved": 0, "bike_id": "0c48547d16c71f006ad15926f9f0ec8a", "fusion_lon": 0.0, "rental_uris": {"ios": "https://dc.lft.to/lastmile_qr_scan", "android": "https://dc.lft.to/lastmile_qr_scan"}}, {"lon": -77.01134316666666, "fusion_lat": 0.0, "type": "electric_scooter", "lat": 38.895485666666666, "is_disabled": 0, "name": "fbe1a99c2e32e69cfc2bc2aa44eed50e", "is_reserved": 0, "bike_id": "fbe1a99c2e32e69cfc2bc2aa44eed50e", "fusion_lon": 0.0, "rental_uris": {"ios": "https://dc.lft.to/lastmile_qr_scan", "android": "https://dc.lft.to/lastmile_qr_scan"}}, {"lon": -77.018778, "fusion_lat": 0.0, "type": "electric_scooter", "lat": 38.91942616666667, "is_disabled": 0, "name": "37fbaf71b27dbf4d08657266e7b6d0f9", "is_reserved": 0, "bike_id": "37fbaf71b27dbf4d08657266e7b6d0f9", "fusion_lon": 0.0, "rental_uris": {"ios": "https://dc.lft.to/lastmile_qr_scan", "android": "https://dc.lft.to/lastmile_qr_scan"}}, {"lon": -77.0732205, "fusion_lat": 0.0, "type": "electric_scooter", "lat": 38.90958833333333, "is_disabled": 0, "name": "974eae2839ffbc13cec61d97ebb36f5c", "is_reserved": 0, "bike_id": "974eae2839ffbc13cec61d97ebb36f5c", "fusion_lon": 0.0, "rental_uris": {"ios": "https://dc.lft.to/lastmile_qr_scan", "android": "https://dc.lft.to/lastmile_qr_scan"}}, {"lon": -77.03263283333334, "fusion_lat": 0.0, "type": "electric_scooter", "lat": 38.92893983333333, "is_disabled": 0, "name": "c739b2432a18f00bf4fc65fdaa3cbb18", "is_reserved": 0, "bike_id": "c739b2432a18f00bf4fc65fdaa3cbb18", "fusion_lon": 0.0, "rental_uris": {"ios": "https://dc.lft.to/lastmile_qr_scan", "android": "https://dc.lft.to/lastmile_qr_scan"}}, {"lon": -76.999071, "fusion_lat": 0.0, "type": "electric_scooter", "lat": 38.928438166666666, "is_disabled": 0, "name": "0817ff488fe9b3ee72c6787f1b38d5a1", "is_reserved": 0, "bike_id": "0817ff488fe9b3ee72c6787f1b38d5a1", "fusion_lon": 0.0, "rental_uris": {"ios": "https://dc.lft.to/lastmile_qr_scan", "android": "https://dc.lft.to/lastmile_qr_scan"}}, {"lon": -77.016916, "fusion_lat": 0.0, "type": "electric_scooter", "lat": 38.90118316666667, "is_disabled": 0, "name": "63950a05e369531c28b776ac788a6912", "is_reserved": 0, "bike_id": "63950a05e369531c28b776ac788a6912", "fusion_lon": 0.0, "rental_uris": {"ios": "https://dc.lft.to/lastmile_qr_scan", "android": "https://dc.lft.to/lastmile_qr_scan"}}, {"lon": -77.02184183333334, "fusion_lat": 0.0, "type": "electric_scooter", "lat": 38.885031833333336, "is_disabled": 0, "name": "b5d7de7ea00e05d9b602efefbfe4153f", "is_reserved": 0, "bike_id": "b5d7de7ea00e05d9b602efefbfe4153f", "fusion_lon": 0.0, "rental_uris": {"ios": "https://dc.lft.to/lastmile_qr_scan", "android": "https://dc.lft.to/lastmile_qr_scan"}}, {"lon": -77.03418016666667, "fusion_lat": 0.0, "type": "electric_scooter", "lat": 38.92858366666667, "is_disabled": 0, "name": "101692d818accfbbc0eaee0e6c6620e0", "is_reserved": 0, "bike_id": "101692d818accfbbc0eaee0e6c6620e0", "fusion_lon": 0.0, "rental_uris": {"ios": "https://dc.lft.to/lastmile_qr_scan", "android": "https://dc.lft.to/lastmile_qr_scan"}}, {"lon": -76.9896425, "fusion_lat": 0.0, "type": "electric_scooter", "lat": 38.901361666666666, "is_disabled": 0, "name": "87d2de8c74fdf78c4ae1ef7e415676c6", "is_reserved": 0, "bike_id": "87d2de8c74fdf78c4ae1ef7e415676c6", "fusion_lon": 0.0, "rental_uris": {"ios": "https://dc.lft.to/lastmile_qr_scan", "android": "https://dc.lft.to/lastmile_qr_scan"}}, {"lon": -77.03483133333333, "fusion_lat": 0.0, "type": "electric_scooter", "lat": 38.905651666666664, "is_disabled": 0, "name": "3ff7a27f64a11b486818681848a7690d", "is_reserved": 0, "bike_id": "3ff7a27f64a11b486818681848a7690d", "fusion_lon": 0.0, "rental_uris": {"ios": "https://dc.lft.to/lastmile_qr_scan", "android": "https://dc.lft.to/lastmile_qr_scan"}}, {"lon": -77.02188783333334, "fusion_lat": 0.0, "type": "electric_scooter", "lat": 38.9247205, "is_disabled": 0, "name": "a765becc8dfcdb867801fc113c6d5354", "is_reserved": 0, "bike_id": "a765becc8dfcdb867801fc113c6d5354", "fusion_lon": 0.0, "rental_uris": {"ios": "https://dc.lft.to/lastmile_qr_scan", "android": "https://dc.lft.to/lastmile_qr_scan"}}, {"lon": -77.032232, "fusion_lat": 0.0, "type": "electric_scooter", "lat": 38.938806166666666, "is_disabled": 0, "name": "1aea4fca1a1af6e1514ad3468a32835a", "is_reserved": 0, "bike_id": "1aea4fca1a1af6e1514ad3468a32835a", "fusion_lon": 0.0, "rental_uris": {"ios": "https://dc.lft.to/lastmile_qr_scan", "android": "https://dc.lft.to/lastmile_qr_scan"}}, {"lon": -76.9882755, "fusion_lat": 0.0, "type": "electric_scooter", "lat": 38.90029166666667, "is_disabled": 0, "name": "dc1a7f0a96f4880937e46230d3957374", "is_reserved": 0, "bike_id": "dc1a7f0a96f4880937e46230d3957374", "fusion_lon": 0.0, "rental_uris": {"ios": "https://dc.lft.to/lastmile_qr_scan", "android": "https://dc.lft.to/lastmile_qr_scan"}}, {"lon": -77.03774466666667, "fusion_lat": 0.0, "type": "electric_scooter", "lat": 38.902221, "is_disabled": 0, "name": "6834fb7cfdd9597c62ece18c2c92eee2", "is_reserved": 0, "bike_id": "6834fb7cfdd9597c62ece18c2c92eee2", "fusion_lon": 0.0, "rental_uris": {"ios": "https://dc.lft.to/lastmile_qr_scan", "android": "https://dc.lft.to/lastmile_qr_scan"}}, {"lon": -77.00895816666667, "fusion_lat": 0.0, "type": "electric_scooter", "lat": 38.884996, "is_disabled": 0, "name": "e0c3eea4fc04f195869033943bc03c58", "is_reserved": 0, "bike_id": "e0c3eea4fc04f195869033943bc03c58", "fusion_lon": 0.0, "rental_uris": {"ios": "https://dc.lft.to/lastmile_qr_scan", "android": "https://dc.lft.to/lastmile_qr_scan"}}, {"lon": -77.06578216666666, "fusion_lat": 0.0, "type": "electric_bike", "lat": 38.91131383333333, "is_disabled": 0, "name": "d617f5aa3ec9e9b9b2311f4d0e825ade", "is_reserved": 0, "bike_id": "d617f5aa3ec9e9b9b2311f4d0e825ade", "fusion_lon": 0.0, "rental_uris": {"ios": "https://dc.lft.to/lastmile_qr_scan", "android": "https://dc.lft.to/lastmile_qr_scan"}}, {"lon": -77.03112333333333, "fusion_lat": 0.0, "type": "electric_scooter", "lat": 38.920412666666664, "is_disabled": 0, "name": "da3710763387bb7bc0f628ae6d832586", "is_reserved": 0, "bike_id": "da3710763387bb7bc0f628ae6d832586", "fusion_lon": 0.0, "rental_uris": {"ios": "https://dc.lft.to/lastmile_qr_scan", "android": "https://dc.lft.to/lastmile_qr_scan"}}, {"lon": -77.0195895, "fusion_lat": 0.0, "type": "electric_scooter", "lat": 38.92276833333333, "is_disabled": 0, "name": "fe0ee54f319db157ac90f70500519f78", "is_reserved": 0, "bike_id": "fe0ee54f319db157ac90f70500519f78", "fusion_lon": 0.0, "rental_uris": {"ios": "https://dc.lft.to/lastmile_qr_scan", "android": "https://dc.lft.to/lastmile_qr_scan"}}, {"lon": -77.06407083333333, "fusion_lat": 0.0, "type": "electric_scooter", "lat": 38.9121895, "is_disabled": 0, "name": "292d42ffff9c24370b37d8489d8f5733", "is_reserved": 0, "bike_id": "292d42ffff9c24370b37d8489d8f5733", "fusion_lon": 0.0, "rental_uris": {"ios": "https://dc.lft.to/lastmile_qr_scan", "android": "https://dc.lft.to/lastmile_qr_scan"}}, {"lon": -77.03027333333333, "fusion_lat": 0.0, "type": "electric_scooter", "lat": 38.939651166666664, "is_disabled": 0, "name": "057a3552b3ad33f75489d78d0d272994", "is_reserved": 0, "bike_id": "057a3552b3ad33f75489d78d0d272994", "fusion_lon": 0.0, "rental_uris": {"ios": "https://dc.lft.to/lastmile_qr_scan", "android": "https://dc.lft.to/lastmile_qr_scan"}}, {"lon": -76.98487116666666, "fusion_lat": 0.0, "type": "electric_scooter", "lat": 38.90371066666667, "is_disabled": 0, "name": "c8f8c557c5655c39926d6f2b4d1a0304", "is_reserved": 0, "bike_id": "c8f8c557c5655c39926d6f2b4d1a0304", "fusion_lon": 0.0, "rental_uris": {"ios": "https://dc.lft.to/lastmile_qr_scan", "android": "https://dc.lft.to/lastmile_qr_scan"}}, {"lon": -77.021837, "fusion_lat": 0.0, "type": "electric_scooter", "lat": 38.92852083333333, "is_disabled": 0, "name": "2e2529cfd6671b59e99aa9e10c7dc267", "is_reserved": 0, "bike_id": "2e2529cfd6671b59e99aa9e10c7dc267", "fusion_lon": 0.0, "rental_uris": {"ios": "https://dc.lft.to/lastmile_qr_scan", "android": "https://dc.lft.to/lastmile_qr_scan"}}, {"lon": -77.00190083333334, "fusion_lat": 0.0, "type": "electric_scooter", "lat": 38.902404, "is_disabled": 0, "name": "155a8b209e477bc952ae99352a530b14", "is_reserved": 0, "bike_id": "155a8b209e477bc952ae99352a530b14", "fusion_lon": 0.0, "rental_uris": {"ios": "https://dc.lft.to/lastmile_qr_scan", "android": "https://dc.lft.to/lastmile_qr_scan"}}, {"lon": -76.99569333333334, "fusion_lat": 0.0, "type": "electric_scooter", "lat": 38.8920695, "is_disabled": 0, "name": "2bcdc683f8dec7c8ef000983fa1a6b2e", "is_reserved": 0, "bike_id": "2bcdc683f8dec7c8ef000983fa1a6b2e", "fusion_lon": 0.0, "rental_uris": {"ios": "https://dc.lft.to/lastmile_qr_scan", "android": "https://dc.lft.to/lastmile_qr_scan"}}, {"lon": -77.03282916666667, "fusion_lat": 0.0, "type": "electric_scooter", "lat": 38.93250316666666, "is_disabled": 0, "name": "34e2bdf54e3cf35aa253644bc8260fd4", "is_reserved": 0, "bike_id": "34e2bdf54e3cf35aa253644bc8260fd4", "fusion_lon": 0.0, "rental_uris": {"ios": "https://dc.lft.to/lastmile_qr_scan", "android": "https://dc.lft.to/lastmile_qr_scan"}}, {"lon": -76.97614633333333, "fusion_lat": 0.0, "type": "electric_bike", "lat": 38.84030633333333, "is_disabled": 0, "name": "ba3afbd537ae7589aaa774ffb6acd313", "is_reserved": 0, "bike_id": "ba3afbd537ae7589aaa774ffb6acd313", "fusion_lon": 0.0, "rental_uris": {"ios": "https://dc.lft.to/lastmile_qr_scan", "android": "https://dc.lft.to/lastmile_qr_scan"}}, {"lon": -77.028051, "fusion_lat": 0.0, "type": "electric_scooter", "lat": 38.896009166666666, "is_disabled": 0, "name": "426e5626200fdf2bc99be3dab56fc457", "is_reserved": 0, "bike_id": "426e5626200fdf2bc99be3dab56fc457", "fusion_lon": 0.0, "rental_uris": {"ios": "https://dc.lft.to/lastmile_qr_scan", "android": "https://dc.lft.to/lastmile_qr_scan"}}, {"lon": -77.03202833333333, "fusion_lat": 0.0, "type": "electric_scooter", "lat": 38.91824316666667, "is_disabled": 0, "name": "3c1513feceefa883837d12a282855aaa", "is_reserved": 0, "bike_id": "3c1513feceefa883837d12a282855aaa", "fusion_lon": 0.0, "rental_uris": {"ios": "https://dc.lft.to/lastmile_qr_scan", "android": "https://dc.lft.to/lastmile_qr_scan"}}, {"lon": -77.0570525, "fusion_lat": 0.0, "type": "electric_scooter", "lat": 38.9335855, "is_disabled": 0, "name": "e52c7864ae0effd11ddaa3896552a85a", "is_reserved": 0, "bike_id": "e52c7864ae0effd11ddaa3896552a85a", "fusion_lon": 0.0, "rental_uris": {"ios": "https://dc.lft.to/lastmile_qr_scan", "android": "https://dc.lft.to/lastmile_qr_scan"}}, {"lon": -77.023756, "fusion_lat": 0.0, "type": "electric_scooter", "lat": 38.896118666666666, "is_disabled": 0, "name": "276be20d9e614e4c1ff90fac83587839", "is_reserved": 0, "bike_id": "276be20d9e614e4c1ff90fac83587839", "fusion_lon": 0.0, "rental_uris": {"ios": "https://dc.lft.to/lastmile_qr_scan", "android": "https://dc.lft.to/lastmile_qr_scan"}}, {"lon": -77.03462583333334, "fusion_lat": 0.0, "type": "electric_scooter", "lat": 38.915731, "is_disabled": 0, "name": "f2ddb532ebcd36ef58e693cc67116f35", "is_reserved": 0, "bike_id": "f2ddb532ebcd36ef58e693cc67116f35", "fusion_lon": 0.0, "rental_uris": {"ios": "https://dc.lft.to/lastmile_qr_scan", "android": "https://dc.lft.to/lastmile_qr_scan"}}, {"lon": -77.01526583333333, "fusion_lat": 0.0, "type": "electric_scooter", "lat": 38.88482966666667, "is_disabled": 0, "name": "539e12793a0aeee4d70dbd7b2e759062", "is_reserved": 0, "bike_id": "539e12793a0aeee4d70dbd7b2e759062", "fusion_lon": 0.0, "rental_uris": {"ios": "https://dc.lft.to/lastmile_qr_scan", "android": "https://dc.lft.to/lastmile_qr_scan"}}, {"lon": -77.03199616666667, "fusion_lat": 0.0, "type": "electric_scooter", "lat": 38.91476133333333, "is_disabled": 0, "name": "dad9adf1de22b4e5746f27035f4b7183", "is_reserved": 0, "bike_id": "dad9adf1de22b4e5746f27035f4b7183", "fusion_lon": 0.0, "rental_uris": {"ios": "https://dc.lft.to/lastmile_qr_scan", "android": "https://dc.lft.to/lastmile_qr_scan"}}, {"lon": -77.031812, "fusion_lat": 0.0, "type": "electric_scooter", "lat": 38.91397466666667, "is_disabled": 0, "name": "eb6c68dcdef4353e087073d5a0def35b", "is_reserved": 0, "bike_id": "eb6c68dcdef4353e087073d5a0def35b", "fusion_lon": 0.0, "rental_uris": {"ios": "https://dc.lft.to/lastmile_qr_scan", "android": "https://dc.lft.to/lastmile_qr_scan"}}, {"lon": -77.0200765, "fusion_lat": 0.0, "type": "electric_scooter", "lat": 38.93503366666667, "is_disabled": 0, "name": "db36b73e79e0c1a462353a3c2007bb64", "is_reserved": 0, "bike_id": "db36b73e79e0c1a462353a3c2007bb64", "fusion_lon": 0.0, "rental_uris": {"ios": "https://dc.lft.to/lastmile_qr_scan", "android": "https://dc.lft.to/lastmile_qr_scan"}}, {"lon": -77.026401, "fusion_lat": 0.0, "type": "electric_scooter", "lat": 38.894750333333334, "is_disabled": 0, "name": "6f584b79db516fc59d98ad6221ec1d4b", "is_reserved": 0, "bike_id": "6f584b79db516fc59d98ad6221ec1d4b", "fusion_lon": 0.0, "rental_uris": {"ios": "https://dc.lft.to/lastmile_qr_scan", "android": "https://dc.lft.to/lastmile_qr_scan"}}, {"lon": -77.02703866666667, "fusion_lat": 0.0, "type": "electric_scooter", "lat": 38.90528283333333, "is_disabled": 0, "name": "4bb3777ab379f6ae1a2653f84a65c2b9", "is_reserved": 0, "bike_id": "4bb3777ab379f6ae1a2653f84a65c2b9", "fusion_lon": 0.0, "rental_uris": {"ios": "https://dc.lft.to/lastmile_qr_scan", "android": "https://dc.lft.to/lastmile_qr_scan"}}, {"lon": -77.05901433333334, "fusion_lat": 0.0, "type": "electric_scooter", "lat": 38.905269833333335, "is_disabled": 0, "name": "69919234c629d8e923345cffe9aacaa0", "is_reserved": 0, "bike_id": "69919234c629d8e923345cffe9aacaa0", "fusion_lon": 0.0, "rental_uris": {"ios": "https://dc.lft.to/lastmile_qr_scan", "android": "https://dc.lft.to/lastmile_qr_scan"}}, {"lon": -77.05056466666667, "fusion_lat": 0.0, "type": "electric_scooter", "lat": 38.92354733333333, "is_disabled": 0, "name": "3a1963725314158bf3fc1fd9b3755a00", "is_reserved": 0, "bike_id": "3a1963725314158bf3fc1fd9b3755a00", "fusion_lon": 0.0, "rental_uris": {"ios": "https://dc.lft.to/lastmile_qr_scan", "android": "https://dc.lft.to/lastmile_qr_scan"}}, {"lon": -77.020556, "fusion_lat": 0.0, "type": "electric_scooter", "lat": 38.919052, "is_disabled": 0, "name": "5040857c75320c2a78aee8a48fd859ed", "is_reserved": 0, "bike_id": "5040857c75320c2a78aee8a48fd859ed", "fusion_lon": 0.0, "rental_uris": {"ios": "https://dc.lft.to/lastmile_qr_scan", "android": "https://dc.lft.to/lastmile_qr_scan"}}, {"lon": -77.01940083333334, "fusion_lat": 0.0, "type": "electric_scooter", "lat": 38.924254, "is_disabled": 0, "name": "c7da71a59e008bcaf28a61e0a883d222", "is_reserved": 0, "bike_id": "c7da71a59e008bcaf28a61e0a883d222", "fusion_lon": 0.0, "rental_uris": {"ios": "https://dc.lft.to/lastmile_qr_scan", "android": "https://dc.lft.to/lastmile_qr_scan"}}, {"lon": -77.0191055, "fusion_lat": 0.0, "type": "electric_scooter", "lat": 38.923377, "is_disabled": 0, "name": "7c1cdce8d95f83e2aacc7b42e0787d2b", "is_reserved": 0, "bike_id": "7c1cdce8d95f83e2aacc7b42e0787d2b", "fusion_lon": 0.0, "rental_uris": {"ios": "https://dc.lft.to/lastmile_qr_scan", "android": "https://dc.lft.to/lastmile_qr_scan"}}, {"lon": -77.04367283333333, "fusion_lat": 0.0, "type": "electric_scooter", "lat": 38.89841716666667, "is_disabled": 0, "name": "0e169580e228052aafff2853b78e6941", "is_reserved": 0, "bike_id": "0e169580e228052aafff2853b78e6941", "fusion_lon": 0.0, "rental_uris": {"ios": "https://dc.lft.to/lastmile_qr_scan", "android": "https://dc.lft.to/lastmile_qr_scan"}}, {"lon": -77.0467495, "fusion_lat": 0.0, "type": "electric_scooter", "lat": 38.900281, "is_disabled": 0, "name": "700968a9b598598a7cba71f0c7eab64c", "is_reserved": 0, "bike_id": "700968a9b598598a7cba71f0c7eab64c", "fusion_lon": 0.0, "rental_uris": {"ios": "https://dc.lft.to/lastmile_qr_scan", "android": "https://dc.lft.to/lastmile_qr_scan"}}, {"lon": -77.02981233333334, "fusion_lat": 0.0, "type": "electric_scooter", "lat": 38.9228135, "is_disabled": 0, "name": "3d976d3a74255087bf7671c5d4596b1d", "is_reserved": 0, "bike_id": "3d976d3a74255087bf7671c5d4596b1d", "fusion_lon": 0.0, "rental_uris": {"ios": "https://dc.lft.to/lastmile_qr_scan", "android": "https://dc.lft.to/lastmile_qr_scan"}}, {"lon": -77.032082, "fusion_lat": 0.0, "type": "electric_scooter", "lat": 38.916362, "is_disabled": 0, "name": "594ef90b2a74ea03d46d61e91043c079", "is_reserved": 0, "bike_id": "594ef90b2a74ea03d46d61e91043c079", "fusion_lon": 0.0, "rental_uris": {"ios": "https://dc.lft.to/lastmile_qr_scan", "android": "https://dc.lft.to/lastmile_qr_scan"}}, {"lon": -76.9385075, "fusion_lat": 0.0, "type": "electric_scooter", "lat": 38.899672333333335, "is_disabled": 0, "name": "00c2d1f0b763570c1647ffc85fa43307", "is_reserved": 0, "bike_id": "00c2d1f0b763570c1647ffc85fa43307", "fusion_lon": 0.0, "rental_uris": {"ios": "https://dc.lft.to/lastmile_qr_scan", "android": "https://dc.lft.to/lastmile_qr_scan"}}, {"lon": -77.02404316666667, "fusion_lat": 0.0, "type": "electric_scooter", "lat": 38.9056595, "is_disabled": 0, "name": "c764d40d986bb8a951ec56bc2f2705e1", "is_reserved": 0, "bike_id": "c764d40d986bb8a951ec56bc2f2705e1", "fusion_lon": 0.0, "rental_uris": {"ios": "https://dc.lft.to/lastmile_qr_scan", "android": "https://dc.lft.to/lastmile_qr_scan"}}, {"lon": -76.92419016666666, "fusion_lat": 0.0, "type": "electric_scooter", "lat": 38.88369766666667, "is_disabled": 0, "name": "7b8949e62abc2c74b266c66eaad412a5", "is_reserved": 0, "bike_id": "7b8949e62abc2c74b266c66eaad412a5", "fusion_lon": 0.0, "rental_uris": {"ios": "https://dc.lft.to/lastmile_qr_scan", "android": "https://dc.lft.to/lastmile_qr_scan"}}, {"lon": -77.03214583333333, "fusion_lat": 0.0, "type": "electric_scooter", "lat": 38.91600916666667, "is_disabled": 0, "name": "9debb939661b9c6b75c341048e17b0a0", "is_reserved": 0, "bike_id": "9debb939661b9c6b75c341048e17b0a0", "fusion_lon": 0.0, "rental_uris": {"ios": "https://dc.lft.to/lastmile_qr_scan", "android": "https://dc.lft.to/lastmile_qr_scan"}}, {"lon": -77.03662483333333, "fusion_lat": 0.0, "type": "electric_scooter", "lat": 38.926028, "is_disabled": 0, "name": "4c581ed321cd56608f8f2010ece1c2ea", "is_reserved": 0, "bike_id": "4c581ed321cd56608f8f2010ece1c2ea", "fusion_lon": 0.0, "rental_uris": {"ios": "https://dc.lft.to/lastmile_qr_scan", "android": "https://dc.lft.to/lastmile_qr_scan"}}, {"lon": -77.02592416666667, "fusion_lat": 0.0, "type": "electric_scooter", "lat": 38.91727183333333, "is_disabled": 0, "name": "1a9e24cace3043a78f894453c1f33120", "is_reserved": 0, "bike_id": "1a9e24cace3043a78f894453c1f33120", "fusion_lon": 0.0, "rental_uris": {"ios": "https://dc.lft.to/lastmile_qr_scan", "android": "https://dc.lft.to/lastmile_qr_scan"}}, {"lon": -77.00611516666666, "fusion_lat": 0.0, "type": "electric_scooter", "lat": 38.8960185, "is_disabled": 0, "name": "8bc113d36031c3245ad081e4f80224a9", "is_reserved": 0, "bike_id": "8bc113d36031c3245ad081e4f80224a9", "fusion_lon": 0.0, "rental_uris": {"ios": "https://dc.lft.to/lastmile_qr_scan", "android": "https://dc.lft.to/lastmile_qr_scan"}}, {"lon": -77.03440416666666, "fusion_lat": 0.0, "type": "electric_scooter", "lat": 38.91815616666667, "is_disabled": 0, "name": "494a6b9e0da7e9eec302bcc7bf9d2c37", "is_reserved": 0, "bike_id": "494a6b9e0da7e9eec302bcc7bf9d2c37", "fusion_lon": 0.0, "rental_uris": {"ios": "https://dc.lft.to/lastmile_qr_scan", "android": "https://dc.lft.to/lastmile_qr_scan"}}, {"lon": -77.00974766666667, "fusion_lat": 0.0, "type": "electric_scooter", "lat": 38.9192295, "is_disabled": 0, "name": "7c051c8cba5fe461272825e91c5f9218", "is_reserved": 0, "bike_id": "7c051c8cba5fe461272825e91c5f9218", "fusion_lon": 0.0, "rental_uris": {"ios": "https://dc.lft.to/lastmile_qr_scan", "android": "https://dc.lft.to/lastmile_qr_scan"}}, {"lon": -77.02308416666666, "fusion_lat": 0.0, "type": "electric_scooter", "lat": 38.920903, "is_disabled": 0, "name": "056aa085a294e77a207d22a9adbbceed", "is_reserved": 0, "bike_id": "056aa085a294e77a207d22a9adbbceed", "fusion_lon": 0.0, "rental_uris": {"ios": "https://dc.lft.to/lastmile_qr_scan", "android": "https://dc.lft.to/lastmile_qr_scan"}}, {"lon": -77.0079965, "fusion_lat": 0.0, "type": "electric_scooter", "lat": 38.89712566666667, "is_disabled": 0, "name": "a0f5aa1e45d9141a54a57331485e3440", "is_reserved": 0, "bike_id": "a0f5aa1e45d9141a54a57331485e3440", "fusion_lon": 0.0, "rental_uris": {"ios": "https://dc.lft.to/lastmile_qr_scan", "android": "https://dc.lft.to/lastmile_qr_scan"}}, {"lon": -77.0246775, "fusion_lat": 0.0, "type": "electric_scooter", "lat": 38.93855766666667, "is_disabled": 0, "name": "2abc188e3436d6b30e431151efbc932a", "is_reserved": 0, "bike_id": "2abc188e3436d6b30e431151efbc932a", "fusion_lon": 0.0, "rental_uris": {"ios": "https://dc.lft.to/lastmile_qr_scan", "android": "https://dc.lft.to/lastmile_qr_scan"}}, {"lon": -77.03837183333333, "fusion_lat": 0.0, "type": "electric_scooter", "lat": 38.9034855, "is_disabled": 0, "name": "e76903f9c6aa358ec8722fe9df35db69", "is_reserved": 0, "bike_id": "e76903f9c6aa358ec8722fe9df35db69", "fusion_lon": 0.0, "rental_uris": {"ios": "https://dc.lft.to/lastmile_qr_scan", "android": "https://dc.lft.to/lastmile_qr_scan"}}, {"lon": -77.011137, "fusion_lat": 0.0, "type": "electric_scooter", "lat": 38.88510216666667, "is_disabled": 0, "name": "47baced16a4637fefe95710774131d82", "is_reserved": 0, "bike_id": "47baced16a4637fefe95710774131d82", "fusion_lon": 0.0, "rental_uris": {"ios": "https://dc.lft.to/lastmile_qr_scan", "android": "https://dc.lft.to/lastmile_qr_scan"}}, {"lon": -76.99483316666667, "fusion_lat": 0.0, "type": "electric_scooter", "lat": 38.892094166666666, "is_disabled": 0, "name": "d9e5013a30fa10f6cb871e3882a63655", "is_reserved": 0, "bike_id": "d9e5013a30fa10f6cb871e3882a63655", "fusion_lon": 0.0, "rental_uris": {"ios": "https://dc.lft.to/lastmile_qr_scan", "android": "https://dc.lft.to/lastmile_qr_scan"}}, {"lon": -77.027174, "fusion_lat": 0.0, "type": "electric_scooter", "lat": 38.90667783333333, "is_disabled": 0, "name": "b72d74b2b15d34cff5e231d75dbccf70", "is_reserved": 0, "bike_id": "b72d74b2b15d34cff5e231d75dbccf70", "fusion_lon": 0.0, "rental_uris": {"ios": "https://dc.lft.to/lastmile_qr_scan", "android": "https://dc.lft.to/lastmile_qr_scan"}}, {"lon": -77.03316866666667, "fusion_lat": 0.0, "type": "electric_scooter", "lat": 38.93895716666667, "is_disabled": 0, "name": "74414904bcab018f9ab70d47882061a1", "is_reserved": 0, "bike_id": "74414904bcab018f9ab70d47882061a1", "fusion_lon": 0.0, "rental_uris": {"ios": "https://dc.lft.to/lastmile_qr_scan", "android": "https://dc.lft.to/lastmile_qr_scan"}}, {"lon": -76.95002, "fusion_lat": 0.0, "type": "electric_scooter", "lat": 38.906189166666664, "is_disabled": 0, "name": "bba6ffabd5e86be32b2ee698714c57b1", "is_reserved": 0, "bike_id": "bba6ffabd5e86be32b2ee698714c57b1", "fusion_lon": 0.0, "rental_uris": {"ios": "https://dc.lft.to/lastmile_qr_scan", "android": "https://dc.lft.to/lastmile_qr_scan"}}, {"lon": -77.07149666666666, "fusion_lat": 0.0, "type": "electric_scooter", "lat": 38.907728166666665, "is_disabled": 0, "name": "c8722f6007a3b867ec6b0677d38fc95b", "is_reserved": 0, "bike_id": "c8722f6007a3b867ec6b0677d38fc95b", "fusion_lon": 0.0, "rental_uris": {"ios": "https://dc.lft.to/lastmile_qr_scan", "android": "https://dc.lft.to/lastmile_qr_scan"}}, {"lon": -77.02306066666667, "fusion_lat": 0.0, "type": "electric_scooter", "lat": 38.9209055, "is_disabled": 0, "name": "54a7b0b1c13af33aa9992c8de8addc9b", "is_reserved": 0, "bike_id": "54a7b0b1c13af33aa9992c8de8addc9b", "fusion_lon": 0.0, "rental_uris": {"ios": "https://dc.lft.to/lastmile_qr_scan", "android": "https://dc.lft.to/lastmile_qr_scan"}}, {"lon": -77.0532745, "fusion_lat": 0.0, "type": "electric_scooter", "lat": 38.90493133333333, "is_disabled": 0, "name": "35e134cd533e0814fe51d372ece45b95", "is_reserved": 0, "bike_id": "35e134cd533e0814fe51d372ece45b95", "fusion_lon": 0.0, "rental_uris": {"ios": "https://dc.lft.to/lastmile_qr_scan", "android": "https://dc.lft.to/lastmile_qr_scan"}}, {"lon": -77.0392135, "fusion_lat": 0.0, "type": "electric_scooter", "lat": 38.912560666666664, "is_disabled": 0, "name": "b7b37ac10aaabb6dc81e97c2225f72d6", "is_reserved": 0, "bike_id": "b7b37ac10aaabb6dc81e97c2225f72d6", "fusion_lon": 0.0, "rental_uris": {"ios": "https://dc.lft.to/lastmile_qr_scan", "android": "https://dc.lft.to/lastmile_qr_scan"}}, {"lon": -77.08400933333333, "fusion_lat": 0.0, "type": "electric_scooter", "lat": 38.908004, "is_disabled": 0, "name": "b4aeba6a81231d08a882a3536e34960c", "is_reserved": 0, "bike_id": "b4aeba6a81231d08a882a3536e34960c", "fusion_lon": 0.0, "rental_uris": {"ios": "https://dc.lft.to/lastmile_qr_scan", "android": "https://dc.lft.to/lastmile_qr_scan"}}, {"lon": -77.02550533333333, "fusion_lat": 0.0, "type": "electric_scooter", "lat": 38.88434083333333, "is_disabled": 0, "name": "c0e274308f20722a05cf7a4c8bf23126", "is_reserved": 0, "bike_id": "c0e274308f20722a05cf7a4c8bf23126", "fusion_lon": 0.0, "rental_uris": {"ios": "https://dc.lft.to/lastmile_qr_scan", "android": "https://dc.lft.to/lastmile_qr_scan"}}, {"lon": -77.00379366666667, "fusion_lat": 0.0, "type": "electric_scooter", "lat": 38.879386, "is_disabled": 0, "name": "4361a03150b2494003c1fded8b5a4ce2", "is_reserved": 0, "bike_id": "4361a03150b2494003c1fded8b5a4ce2", "fusion_lon": 0.0, "rental_uris": {"ios": "https://dc.lft.to/lastmile_qr_scan", "android": "https://dc.lft.to/lastmile_qr_scan"}}, {"lon": -77.00258383333333, "fusion_lat": 0.0, "type": "electric_scooter", "lat": 38.9650285, "is_disabled": 0, "name": "4ad907881324b7b8e391f1ddf9fe564f", "is_reserved": 0, "bike_id": "4ad907881324b7b8e391f1ddf9fe564f", "fusion_lon": 0.0, "rental_uris": {"ios": "https://dc.lft.to/lastmile_qr_scan", "android": "https://dc.lft.to/lastmile_qr_scan"}}, {"lon": -76.942895, "fusion_lat": 0.0, "type": "electric_scooter", "lat": 38.88337766666667, "is_disabled": 0, "name": "43842f85c8238cacee74c994aa86c1cf", "is_reserved": 0, "bike_id": "43842f85c8238cacee74c994aa86c1cf", "fusion_lon": 0.0, "rental_uris": {"ios": "https://dc.lft.to/lastmile_qr_scan", "android": "https://dc.lft.to/lastmile_qr_scan"}}, {"lon": -77.0321075, "fusion_lat": 0.0, "type": "electric_scooter", "lat": 38.903606, "is_disabled": 0, "name": "655fb3726c26ff62289b8072d2b4a6d6", "is_reserved": 0, "bike_id": "655fb3726c26ff62289b8072d2b4a6d6", "fusion_lon": 0.0, "rental_uris": {"ios": "https://dc.lft.to/lastmile_qr_scan", "android": "https://dc.lft.to/lastmile_qr_scan"}}, {"lon": -77.00738116666666, "fusion_lat": 0.0, "type": "electric_scooter", "lat": 38.9118535, "is_disabled": 0, "name": "091204f91ff423a8b6c962f9005732f8", "is_reserved": 0, "bike_id": "091204f91ff423a8b6c962f9005732f8", "fusion_lon": 0.0, "rental_uris": {"ios": "https://dc.lft.to/lastmile_qr_scan", "android": "https://dc.lft.to/lastmile_qr_scan"}}, {"lon": -76.98378383333333, "fusion_lat": 0.0, "type": "electric_scooter", "lat": 38.887252, "is_disabled": 0, "name": "10ad85ce5aa0624948280b2c84fb0fd6", "is_reserved": 0, "bike_id": "10ad85ce5aa0624948280b2c84fb0fd6", "fusion_lon": 0.0, "rental_uris": {"ios": "https://dc.lft.to/lastmile_qr_scan", "android": "https://dc.lft.to/lastmile_qr_scan"}}, {"lon": -77.04916933333334, "fusion_lat": 0.0, "type": "electric_scooter", "lat": 38.900650666666664, "is_disabled": 0, "name": "a4748a4c9368ac6ce35b3c58672e5c36", "is_reserved": 0, "bike_id": "a4748a4c9368ac6ce35b3c58672e5c36", "fusion_lon": 0.0, "rental_uris": {"ios": "https://dc.lft.to/lastmile_qr_scan", "android": "https://dc.lft.to/lastmile_qr_scan"}}, {"lon": -77.0237765, "fusion_lat": 0.0, "type": "electric_scooter", "lat": 38.91962816666667, "is_disabled": 0, "name": "977c5274c8fa4215cc04a9d7ee7d5868", "is_reserved": 0, "bike_id": "977c5274c8fa4215cc04a9d7ee7d5868", "fusion_lon": 0.0, "rental_uris": {"ios": "https://dc.lft.to/lastmile_qr_scan", "android": "https://dc.lft.to/lastmile_qr_scan"}}, {"lon": -77.03431216666667, "fusion_lat": 0.0, "type": "electric_scooter", "lat": 38.9449675, "is_disabled": 0, "name": "3281291e56196cb076fc373e026e93a4", "is_reserved": 0, "bike_id": "3281291e56196cb076fc373e026e93a4", "fusion_lon": 0.0, "rental_uris": {"ios": "https://dc.lft.to/lastmile_qr_scan", "android": "https://dc.lft.to/lastmile_qr_scan"}}, {"lon": -77.0220895, "fusion_lat": 0.0, "type": "electric_scooter", "lat": 38.898428833333334, "is_disabled": 0, "name": "01be3229ea34ece39f6bac296b377779", "is_reserved": 0, "bike_id": "01be3229ea34ece39f6bac296b377779", "fusion_lon": 0.0, "rental_uris": {"ios": "https://dc.lft.to/lastmile_qr_scan", "android": "https://dc.lft.to/lastmile_qr_scan"}}, {"lon": -77.02136083333333, "fusion_lat": 0.0, "type": "electric_scooter", "lat": 38.923851, "is_disabled": 0, "name": "e87988300fc7422a6875684ed0fb79e7", "is_reserved": 0, "bike_id": "e87988300fc7422a6875684ed0fb79e7", "fusion_lon": 0.0, "rental_uris": {"ios": "https://dc.lft.to/lastmile_qr_scan", "android": "https://dc.lft.to/lastmile_qr_scan"}}, {"lon": -76.99276616666667, "fusion_lat": 0.0, "type": "electric_bike", "lat": 38.97252866666667, "is_disabled": 0, "name": "cb64ebb82387a9353df90aff0348fc72", "is_reserved": 0, "bike_id": "cb64ebb82387a9353df90aff0348fc72", "fusion_lon": 0.0, "rental_uris": {"ios": "https://dc.lft.to/lastmile_qr_scan", "android": "https://dc.lft.to/lastmile_qr_scan"}}, {"lon": -77.01935483333334, "fusion_lat": 0.0, "type": "electric_scooter", "lat": 38.894620333333336, "is_disabled": 0, "name": "24d51e9310ea187e4edfd9949a52bb7e", "is_reserved": 0, "bike_id": "24d51e9310ea187e4edfd9949a52bb7e", "fusion_lon": 0.0, "rental_uris": {"ios": "https://dc.lft.to/lastmile_qr_scan", "android": "https://dc.lft.to/lastmile_qr_scan"}}, {"lon": -77.0320645, "fusion_lat": 0.0, "type": "electric_scooter", "lat": 38.913404, "is_disabled": 0, "name": "2b5c3e0bec39e8e9fc925ea7f3ba7a21", "is_reserved": 0, "bike_id": "2b5c3e0bec39e8e9fc925ea7f3ba7a21", "fusion_lon": 0.0, "rental_uris": {"ios": "https://dc.lft.to/lastmile_qr_scan", "android": "https://dc.lft.to/lastmile_qr_scan"}}, {"lon": -77.031726, "fusion_lat": 0.0, "type": "electric_scooter", "lat": 38.887356833333335, "is_disabled": 0, "name": "9ba00401941e5d4bf8003d7839d8d93b", "is_reserved": 0, "bike_id": "9ba00401941e5d4bf8003d7839d8d93b", "fusion_lon": 0.0, "rental_uris": {"ios": "https://dc.lft.to/lastmile_qr_scan", "android": "https://dc.lft.to/lastmile_qr_scan"}}, {"lon": -77.0024645, "fusion_lat": 0.0, "type": "electric_scooter", "lat": 38.8870535, "is_disabled": 0, "name": "6e61e8d4254b4dd175c7dd0979c56a8d", "is_reserved": 0, "bike_id": "6e61e8d4254b4dd175c7dd0979c56a8d", "fusion_lon": 0.0, "rental_uris": {"ios": "https://dc.lft.to/lastmile_qr_scan", "android": "https://dc.lft.to/lastmile_qr_scan"}}, {"lon": -76.99282166666667, "fusion_lat": 0.0, "type": "electric_scooter", "lat": 38.88119233333333, "is_disabled": 0, "name": "a6dffde4e23d6d10f5ef9e662adf3399", "is_reserved": 0, "bike_id": "a6dffde4e23d6d10f5ef9e662adf3399", "fusion_lon": 0.0, "rental_uris": {"ios": "https://dc.lft.to/lastmile_qr_scan", "android": "https://dc.lft.to/lastmile_qr_scan"}}, {"lon": -77.041592, "fusion_lat": 0.0, "type": "electric_scooter", "lat": 38.91515916666667, "is_disabled": 0, "name": "c17b0ac0bce4744a690f8e2cb5444536", "is_reserved": 0, "bike_id": "c17b0ac0bce4744a690f8e2cb5444536", "fusion_lon": 0.0, "rental_uris": {"ios": "https://dc.lft.to/lastmile_qr_scan", "android": "https://dc.lft.to/lastmile_qr_scan"}}, {"lon": -77.04151183333333, "fusion_lat": 0.0, "type": "electric_scooter", "lat": 38.92351433333333, "is_disabled": 0, "name": "9f3f020a0f87d98c033a1b7842080a83", "is_reserved": 0, "bike_id": "9f3f020a0f87d98c033a1b7842080a83", "fusion_lon": 0.0, "rental_uris": {"ios": "https://dc.lft.to/lastmile_qr_scan", "android": "https://dc.lft.to/lastmile_qr_scan"}}, {"lon": -77.04248, "fusion_lat": 0.0, "type": "electric_scooter", "lat": 38.9263035, "is_disabled": 0, "name": "af917aa0341fa1d13e6b0e7b77631295", "is_reserved": 0, "bike_id": "af917aa0341fa1d13e6b0e7b77631295", "fusion_lon": 0.0, "rental_uris": {"ios": "https://dc.lft.to/lastmile_qr_scan", "android": "https://dc.lft.to/lastmile_qr_scan"}}, {"lon": -77.02633383333334, "fusion_lat": 0.0, "type": "electric_scooter", "lat": 38.89444016666667, "is_disabled": 0, "name": "a41e8afea5f00ff0e90527d99623b77b", "is_reserved": 0, "bike_id": "a41e8afea5f00ff0e90527d99623b77b", "fusion_lon": 0.0, "rental_uris": {"ios": "https://dc.lft.to/lastmile_qr_scan", "android": "https://dc.lft.to/lastmile_qr_scan"}}, {"lon": -76.99960483333334, "fusion_lat": 0.0, "type": "electric_scooter", "lat": 38.92563766666667, "is_disabled": 0, "name": "aca727a89b27663a69830cec3040d963", "is_reserved": 0, "bike_id": "aca727a89b27663a69830cec3040d963", "fusion_lon": 0.0, "rental_uris": {"ios": "https://dc.lft.to/lastmile_qr_scan", "android": "https://dc.lft.to/lastmile_qr_scan"}}, {"lon": -77.0190865, "fusion_lat": 0.0, "type": "electric_scooter", "lat": 38.9192875, "is_disabled": 0, "name": "7d1ebbeacca4592c15eded10e23af6f9", "is_reserved": 0, "bike_id": "7d1ebbeacca4592c15eded10e23af6f9", "fusion_lon": 0.0, "rental_uris": {"ios": "https://dc.lft.to/lastmile_qr_scan", "android": "https://dc.lft.to/lastmile_qr_scan"}}, {"lon": -77.022089, "fusion_lat": 0.0, "type": "electric_scooter", "lat": 38.9036045, "is_disabled": 0, "name": "c6c0bcdf636c1e9be59f8df44e50e6df", "is_reserved": 0, "bike_id": "c6c0bcdf636c1e9be59f8df44e50e6df", "fusion_lon": 0.0, "rental_uris": {"ios": "https://dc.lft.to/lastmile_qr_scan", "android": "https://dc.lft.to/lastmile_qr_scan"}}, {"lon": -76.982138, "fusion_lat": 0.0, "type": "electric_scooter", "lat": 38.857085833333336, "is_disabled": 0, "name": "d56546e30abf85c82d547afd24fafdea", "is_reserved": 0, "bike_id": "d56546e30abf85c82d547afd24fafdea", "fusion_lon": 0.0, "rental_uris": {"ios": "https://dc.lft.to/lastmile_qr_scan", "android": "https://dc.lft.to/lastmile_qr_scan"}}, {"lon": -77.02371133333334, "fusion_lat": 0.0, "type": "electric_scooter", "lat": 38.920634166666666, "is_disabled": 0, "name": "339064943455ab184eb9c4c100bd2d3d", "is_reserved": 0, "bike_id": "339064943455ab184eb9c4c100bd2d3d", "fusion_lon": 0.0, "rental_uris": {"ios": "https://dc.lft.to/lastmile_qr_scan", "android": "https://dc.lft.to/lastmile_qr_scan"}}, {"lon": -76.99164783333333, "fusion_lat": 0.0, "type": "electric_scooter", "lat": 38.880757, "is_disabled": 0, "name": "38bd61df596fb7b2197b527e1d87d941", "is_reserved": 0, "bike_id": "38bd61df596fb7b2197b527e1d87d941", "fusion_lon": 0.0, "rental_uris": {"ios": "https://dc.lft.to/lastmile_qr_scan", "android": "https://dc.lft.to/lastmile_qr_scan"}}, {"lon": -77.00598283333333, "fusion_lat": 0.0, "type": "electric_scooter", "lat": 38.87561983333333, "is_disabled": 0, "name": "14f7cb4e71ff2c7d0111d3d095431def", "is_reserved": 0, "bike_id": "14f7cb4e71ff2c7d0111d3d095431def", "fusion_lon": 0.0, "rental_uris": {"ios": "https://dc.lft.to/lastmile_qr_scan", "android": "https://dc.lft.to/lastmile_qr_scan"}}, {"lon": -77.0228175, "fusion_lat": 0.0, "type": "electric_scooter", "lat": 38.914904666666665, "is_disabled": 0, "name": "912ef374967bb31f98a40ea12e8865b2", "is_reserved": 0, "bike_id": "912ef374967bb31f98a40ea12e8865b2", "fusion_lon": 0.0, "rental_uris": {"ios": "https://dc.lft.to/lastmile_qr_scan", "android": "https://dc.lft.to/lastmile_qr_scan"}}, {"lon": -76.96899583333334, "fusion_lat": 0.0, "type": "electric_scooter", "lat": 38.865088666666665, "is_disabled": 0, "name": "72b1ca737d8f95649da722e9215072ef", "is_reserved": 0, "bike_id": "72b1ca737d8f95649da722e9215072ef", "fusion_lon": 0.0, "rental_uris": {"ios": "https://dc.lft.to/lastmile_qr_scan", "android": "https://dc.lft.to/lastmile_qr_scan"}}, {"lon": -76.9822865, "fusion_lat": 0.0, "type": "electric_scooter", "lat": 38.8646255, "is_disabled": 0, "name": "7ce349540bd64aec4d87f929666d21d9", "is_reserved": 0, "bike_id": "7ce349540bd64aec4d87f929666d21d9", "fusion_lon": 0.0, "rental_uris": {"ios": "https://dc.lft.to/lastmile_qr_scan", "android": "https://dc.lft.to/lastmile_qr_scan"}}, {"lon": -77.0281305, "fusion_lat": 0.0, "type": "electric_scooter", "lat": 38.898311, "is_disabled": 0, "name": "4eab69129322816751dc6e4cc7baa4c4", "is_reserved": 0, "bike_id": "4eab69129322816751dc6e4cc7baa4c4", "fusion_lon": 0.0, "rental_uris": {"ios": "https://dc.lft.to/lastmile_qr_scan", "android": "https://dc.lft.to/lastmile_qr_scan"}}, {"lon": -77.02598216666667, "fusion_lat": 0.0, "type": "electric_scooter", "lat": 38.904132833333335, "is_disabled": 0, "name": "40bd0da69142675ab31e2b1ca8a4d31e", "is_reserved": 0, "bike_id": "40bd0da69142675ab31e2b1ca8a4d31e", "fusion_lon": 0.0, "rental_uris": {"ios": "https://dc.lft.to/lastmile_qr_scan", "android": "https://dc.lft.to/lastmile_qr_scan"}}, {"lon": -77.02495033333334, "fusion_lat": 0.0, "type": "electric_scooter", "lat": 38.92585666666667, "is_disabled": 0, "name": "1ba9dc28b3829e4251e81c2ff84d7d31", "is_reserved": 0, "bike_id": "1ba9dc28b3829e4251e81c2ff84d7d31", "fusion_lon": 0.0, "rental_uris": {"ios": "https://dc.lft.to/lastmile_qr_scan", "android": "https://dc.lft.to/lastmile_qr_scan"}}, {"lon": -77.23407, "fusion_lat": 0.0, "type": "electric_bike", "lat": 38.875785, "is_disabled": 0, "name": "cfe958ecbf6cbc885d0c822aa19969b4", "is_reserved": 0, "bike_id": "cfe958ecbf6cbc885d0c822aa19969b4", "fusion_lon": 0.0, "rental_uris": {"ios": "https://dc.lft.to/lastmile_qr_scan", "android": "https://dc.lft.to/lastmile_qr_scan"}}, {"lon": -77.05451, "fusion_lat": 0.0, "type": "electric_scooter", "lat": 38.928558833333334, "is_disabled": 0, "name": "00f1b2e86ff61adf05dfe3b55c83d36b", "is_reserved": 0, "bike_id": "00f1b2e86ff61adf05dfe3b55c83d36b", "fusion_lon": 0.0, "rental_uris": {"ios": "https://dc.lft.to/lastmile_qr_scan", "android": "https://dc.lft.to/lastmile_qr_scan"}}, {"lon": -76.98659, "fusion_lat": 0.0, "type": "electric_scooter", "lat": 38.868689833333335, "is_disabled": 0, "name": "fe4aab965145bc7cb4ba6d12d57a970c", "is_reserved": 0, "bike_id": "fe4aab965145bc7cb4ba6d12d57a970c", "fusion_lon": 0.0, "rental_uris": {"ios": "https://dc.lft.to/lastmile_qr_scan", "android": "https://dc.lft.to/lastmile_qr_scan"}}, {"lon": -77.04530666666666, "fusion_lat": 0.0, "type": "electric_scooter", "lat": 38.90561916666667, "is_disabled": 0, "name": "acad135a622c35dac7d4481a2d0b3348", "is_reserved": 0, "bike_id": "acad135a622c35dac7d4481a2d0b3348", "fusion_lon": 0.0, "rental_uris": {"ios": "https://dc.lft.to/lastmile_qr_scan", "android": "https://dc.lft.to/lastmile_qr_scan"}}, {"lon": -77.03471316666666, "fusion_lat": 0.0, "type": "electric_scooter", "lat": 38.905470333333334, "is_disabled": 0, "name": "1e2ea454a2ceee73d6430a6a512f9c43", "is_reserved": 0, "bike_id": "1e2ea454a2ceee73d6430a6a512f9c43", "fusion_lon": 0.0, "rental_uris": {"ios": "https://dc.lft.to/lastmile_qr_scan", "android": "https://dc.lft.to/lastmile_qr_scan"}}, {"lon": -77.02417216666667, "fusion_lat": 0.0, "type": "electric_scooter", "lat": 38.87958016666666, "is_disabled": 0, "name": "f94552faf3e9058c31e61d876a0d7dd7", "is_reserved": 0, "bike_id": "f94552faf3e9058c31e61d876a0d7dd7", "fusion_lon": 0.0, "rental_uris": {"ios": "https://dc.lft.to/lastmile_qr_scan", "android": "https://dc.lft.to/lastmile_qr_scan"}}, {"lon": -77.026882, "fusion_lat": 0.0, "type": "electric_scooter", "lat": 38.924619666666665, "is_disabled": 0, "name": "2b9790c647f16da0e6426b777b97935d", "is_reserved": 0, "bike_id": "2b9790c647f16da0e6426b777b97935d", "fusion_lon": 0.0, "rental_uris": {"ios": "https://dc.lft.to/lastmile_qr_scan", "android": "https://dc.lft.to/lastmile_qr_scan"}}, {"lon": -77.02193866666667, "fusion_lat": 0.0, "type": "electric_scooter", "lat": 38.916520166666665, "is_disabled": 0, "name": "a3e561397da2c9a4b6c4f3fc822e816d", "is_reserved": 0, "bike_id": "a3e561397da2c9a4b6c4f3fc822e816d", "fusion_lon": 0.0, "rental_uris": {"ios": "https://dc.lft.to/lastmile_qr_scan", "android": "https://dc.lft.to/lastmile_qr_scan"}}, {"lon": -77.03851416666667, "fusion_lat": 0.0, "type": "electric_scooter", "lat": 38.912006833333336, "is_disabled": 0, "name": "6047ec58633cbcd721bec25f569aebe5", "is_reserved": 0, "bike_id": "6047ec58633cbcd721bec25f569aebe5", "fusion_lon": 0.0, "rental_uris": {"ios": "https://dc.lft.to/lastmile_qr_scan", "android": "https://dc.lft.to/lastmile_qr_scan"}}, {"lon": -77.001969, "fusion_lat": 0.0, "type": "electric_scooter", "lat": 38.886776, "is_disabled": 0, "name": "6c14aeb9b784416f54f365aef0891c88", "is_reserved": 0, "bike_id": "6c14aeb9b784416f54f365aef0891c88", "fusion_lon": 0.0, "rental_uris": {"ios": "https://dc.lft.to/lastmile_qr_scan", "android": "https://dc.lft.to/lastmile_qr_scan"}}, {"lon": -76.99953133333334, "fusion_lat": 0.0, "type": "electric_scooter", "lat": 38.923480833333336, "is_disabled": 0, "name": "e11067f513fa9a5d55e6026a3036ab88", "is_reserved": 0, "bike_id": "e11067f513fa9a5d55e6026a3036ab88", "fusion_lon": 0.0, "rental_uris": {"ios": "https://dc.lft.to/lastmile_qr_scan", "android": "https://dc.lft.to/lastmile_qr_scan"}}, {"lon": -76.99851033333333, "fusion_lat": 0.0, "type": "electric_scooter", "lat": 38.8962465, "is_disabled": 0, "name": "01a4099e61f42f289f1b25010cf0adc8", "is_reserved": 0, "bike_id": "01a4099e61f42f289f1b25010cf0adc8", "fusion_lon": 0.0, "rental_uris": {"ios": "https://dc.lft.to/lastmile_qr_scan", "android": "https://dc.lft.to/lastmile_qr_scan"}}, {"lon": -77.01744083333334, "fusion_lat": 0.0, "type": "electric_scooter", "lat": 38.887367833333336, "is_disabled": 0, "name": "65f6d921957b45c65c32d69765b79e7d", "is_reserved": 0, "bike_id": "65f6d921957b45c65c32d69765b79e7d", "fusion_lon": 0.0, "rental_uris": {"ios": "https://dc.lft.to/lastmile_qr_scan", "android": "https://dc.lft.to/lastmile_qr_scan"}}, {"lon": -77.02372366666667, "fusion_lat": 0.0, "type": "electric_scooter", "lat": 38.90191883333333, "is_disabled": 0, "name": "4842b8b3f902624eb20d207ed230f6c0", "is_reserved": 0, "bike_id": "4842b8b3f902624eb20d207ed230f6c0", "fusion_lon": 0.0, "rental_uris": {"ios": "https://dc.lft.to/lastmile_qr_scan", "android": "https://dc.lft.to/lastmile_qr_scan"}}, {"lon": -77.06199366666667, "fusion_lat": 0.0, "type": "electric_scooter", "lat": 38.90333733333333, "is_disabled": 0, "name": "1a2cadaad725ff52141f2d666f3ed821", "is_reserved": 0, "bike_id": "1a2cadaad725ff52141f2d666f3ed821", "fusion_lon": 0.0, "rental_uris": {"ios": "https://dc.lft.to/lastmile_qr_scan", "android": "https://dc.lft.to/lastmile_qr_scan"}}, {"lon": -77.03229016666667, "fusion_lat": 0.0, "type": "electric_scooter", "lat": 38.929848666666665, "is_disabled": 0, "name": "842800473c6df3c4fab129b54e9e246c", "is_reserved": 0, "bike_id": "842800473c6df3c4fab129b54e9e246c", "fusion_lon": 0.0, "rental_uris": {"ios": "https://dc.lft.to/lastmile_qr_scan", "android": "https://dc.lft.to/lastmile_qr_scan"}}, {"lon": -77.04002466666667, "fusion_lat": 0.0, "type": "electric_scooter", "lat": 38.88868133333333, "is_disabled": 0, "name": "49c5722e461e5bc47954847d8eef9ff7", "is_reserved": 0, "bike_id": "49c5722e461e5bc47954847d8eef9ff7", "fusion_lon": 0.0, "rental_uris": {"ios": "https://dc.lft.to/lastmile_qr_scan", "android": "https://dc.lft.to/lastmile_qr_scan"}}, {"lon": -77.023864, "fusion_lat": 0.0, "type": "electric_scooter", "lat": 38.91322016666667, "is_disabled": 0, "name": "749bea6fddfe8d6bcf58230dab9128c4", "is_reserved": 0, "bike_id": "749bea6fddfe8d6bcf58230dab9128c4", "fusion_lon": 0.0, "rental_uris": {"ios": "https://dc.lft.to/lastmile_qr_scan", "android": "https://dc.lft.to/lastmile_qr_scan"}},