{"data": {"bikes": [{"name": "bc16685d4eaca5ec38aac598589598d7", "lon": -76.9319285, "lat": 38.89877516666667, "type": "electric_scooter", "fusion_lon": 0.0, "is_reserved": 0, "bike_id": "bc16685d4eaca5ec38aac598589598d7", "fusion_lat": 0.0, "is_disabled": 0, "rental_uris": {"ios": "https://dc.lft.to/lastmile_qr_scan", "android": "https://dc.lft.to/lastmile_qr_scan"}}, {"name": "f30b1d4a70e529c480fd849f107ce823", "lon": -77.041706, "lat": 38.8997105, "type": "electric_scooter", "fusion_lon": 0.0, "is_reserved": 0, "bike_id": "f30b1d4a70e529c480fd849f107ce823", "fusion_lat": 0.0, "is_disabled": 0, "rental_uris": {"ios": "https://dc.lft.to/lastmile_qr_scan", "android": "https://dc.lft.to/lastmile_qr_scan"}}, {"name": "8ef970c5f09a61fc9d05fd6931445219", "lon": -77.04475283333333, "lat": 38.92238916666667, "type": "electric_scooter", "fusion_lon": 0.0, "is_reserved": 0, "bike_id": "8ef970c5f09a61fc9d05fd6931445219", "fusion_lat": 0.0, "is_disabled": 0, "rental_uris": {"ios": "https://dc.lft.to/lastmile_qr_scan", "android": "https://dc.lft.to/lastmile_qr_scan"}}, {"name": "b97d4942a05d3960f3be47011cd3872b", "lon": -76.935445, "lat": 38.955599166666666, "type": "electric_bike", "fusion_lon": 0.0, "is_reserved": 0, "bike_id": "b97d4942a05d3960f3be47011cd3872b", "fusion_lat": 0.0, "is_disabled": 0, "rental_uris": {"ios": "https://dc.lft.to/lastmile_qr_scan", "android": "https://dc.lft.to/lastmile_qr_scan"}}, {"name": "ad1057135074cd9309f57d9b59051d30", "lon": -76.9849835, "lat": 38.866718666666664, "type": "electric_scooter", "fusion_lon": 0.0, "is_reserved": 0, "bike_id": "ad1057135074cd9309f57d9b59051d30", "fusion_lat": 0.0, "is_disabled": 0, "rental_uris": {"ios": "https://dc.lft.to/lastmile_qr_scan", "android": "https://dc.lft.to/lastmile_qr_scan"}}, {"name": "298ffbe02c9e0f20225d1a1acfbe86c1", "lon": -76.9947635, "lat": 38.902990833333334, "type": "electric_scooter", "fusion_lon": 0.0, "is_reserved": 0, "bike_id": "298ffbe02c9e0f20225d1a1acfbe86c1", "fusion_lat": 0.0, "is_disabled": 0, "rental_uris": {"ios": "https://dc.lft.to/lastmile_qr_scan", "android": "https://dc.lft.to/lastmile_qr_scan"}}, {"name": "749422c62f10c5944031db35aca4ecc2", "lon": -77.04150283333334, "lat": 38.9195475, "type": "electric_scooter", "fusion_lon": 0.0, "is_reserved": 0, "bike_id": "749422c62f10c5944031db35aca4ecc2", "fusion_lat": 0.0, "is_disabled": 0, "rental_uris": {"ios": "https://dc.lft.to/lastmile_qr_scan", "android": "https://dc.lft.to/lastmile_qr_scan"}}, {"name": "351f921b1fd9771d7631f56483e98299", "lon": -77.04901583333333, "lat": 38.888403, "type": "electric_scooter", "fusion_lon": 0.0, "is_reserved": 0, "bike_id": "351f921b1fd9771d7631f56483e98299", "fusion_lat": 0.0, "is_disabled": 0, "rental_uris": {"ios": "https://dc.lft.to/lastmile_qr_scan", "android": "https://dc.lft.to/lastmile_qr_scan"}}, {"name": "bf74ec8ba17099590d967b646cd7cac7", "lon": -77.02235816666666, "lat": 38.90224, "type": "electric_scooter", "fusion_lon": 0.0, "is_reserved": 0, "bike_id": "bf74ec8ba17099590d967b646cd7cac7", "fusion_lat": 0.0, "is_disabled": 0, "rental_uris": {"ios": "https://dc.lft.to/lastmile_qr_scan", "android": "https://dc.lft.to/lastmile_qr_scan"}}, {"name": "a8e3af6a2256562c870392380a10bf4c", "lon": -77.04476433333333, "lat": 38.918701, "type": "electric_scooter", "fusion_lon": 0.0, "is_reserved": 0, "bike_id": "a8e3af6a2256562c870392380a10bf4c", "fusion_lat": 0.0, "is_disabled": 0, "rental_uris": {"ios": "https://dc.lft.to/lastmile_qr_scan", "android": "https://dc.lft.to/lastmile_qr_scan"}}, {"name": "ba4abb5197f82202ecea27a84a0cc741", "lon": -77.04501866666666, "lat": 38.90006483333333, "type": "electric_scooter", "fusion_lon": 0.0, "is_reserved": 0, "bike_id": "ba4abb5197f82202ecea27a84a0cc741", "fusion_lat": 0.0, "is_disabled": 0, "rental_uris": {"ios": "https://dc.lft.to/lastmile_qr_scan", "android": "https://dc.lft.to/lastmile_qr_scan"}}, {"name": "bfced4e92f340ae572aedb03495027b5", "lon": -77.01912516666667, "lat": 38.902363333333334, "type": "electric_scooter", "fusion_lon": 0.0, "is_reserved": 0, "bike_id": "bfced4e92f340ae572aedb03495027b5", "fusion_lat": 0.0, "is_disabled": 0, "rental_uris": {"ios": "https://dc.lft.to/lastmile_qr_scan", "android": "https://dc.lft.to/lastmile_qr_scan"}}, {"name": "19705d9d84d2c20e0bf8d1aef5b471f1", "lon": -77.05144216666666, "lat": 38.905129333333335, "type": "electric_scooter", "fusion_lon": 0.0, "is_reserved": 0, "bike_id": "19705d9d84d2c20e0bf8d1aef5b471f1", "fusion_lat": 0.0, "is_disabled": 0, "rental_uris": {"ios": "https://dc.lft.to/lastmile_qr_scan", "android": "https://dc.lft.to/lastmile_qr_scan"}}, {"name": "e9c3debca6a13114ab31ffe558384f03", "lon": -77.02347083333333, "lat": 38.94617683333333, "type": "electric_scooter", "fusion_lon": 0.0, "is_reserved": 0, "bike_id": "e9c3debca6a13114ab31ffe558384f03", "fusion_lat": 0.0, "is_disabled": 0, "rental_uris": {"ios": "https://dc.lft.to/lastmile_qr_scan", "android": "https://dc.lft.to/lastmile_qr_scan"}}, {"name": "9cb0b9ba52416a2f18017a5d7d217e33", "lon": -76.98711266666666, "lat": 38.866996, "type": "electric_scooter", "fusion_lon": 0.0, "is_reserved": 0, "bike_id": "9cb0b9ba52416a2f18017a5d7d217e33", "fusion_lat": 0.0, "is_disabled": 0, "rental_uris": {"ios": "https://dc.lft.to/lastmile_qr_scan", "android": "https://dc.lft.to/lastmile_qr_scan"}}, {"name": "90a71b86ed4337a0653d9cd29139396c", "lon": -77.02426883333334, "lat": 38.92154216666667, "type": "electric_scooter", "fusion_lon": 0.0, "is_reserved": 0, "bike_id": "90a71b86ed4337a0653d9cd29139396c", "fusion_lat": 0.0, "is_disabled": 0, "rental_uris": {"ios": "https://dc.lft.to/lastmile_qr_scan", "android": "https://dc.lft.to/lastmile_qr_scan"}}, {"name": "4fa69e240261ed14f913c2bfb4286b0d", "lon": -77.0240225, "lat": 38.920812, "type": "electric_scooter", "fusion_lon": 0.0, "is_reserved": 0, "bike_id": "4fa69e240261ed14f913c2bfb4286b0d", "fusion_lat": 0.0, "is_disabled": 0, "rental_uris": {"ios": "https://dc.lft.to/lastmile_qr_scan", "android": "https://dc.lft.to/lastmile_qr_scan"}}, {"name": "7e362b9c3b85e2ff6400d10d47b4666b", "lon": -77.02311233333333, "lat": 38.91770783333333, "type": "electric_scooter", "fusion_lon": 0.0, "is_reserved": 0, "bike_id": "7e362b9c3b85e2ff6400d10d47b4666b", "fusion_lat": 0.0, "is_disabled": 0, "rental_uris": {"ios": "https://dc.lft.to/lastmile_qr_scan", "android": "https://dc.lft.to/lastmile_qr_scan"}}, {"name": "f6b7623c9310e3c39aa63309d6751327", "lon": -77.02222283333333, "lat": 38.896214, "type": "electric_scooter", "fusion_lon": 0.0, "is_reserved": 0, "bike_id": "f6b7623c9310e3c39aa63309d6751327", "fusion_lat": 0.0, "is_disabled": 0, "rental_uris": {"ios": "https://dc.lft.to/lastmile_qr_scan", "android": "https://dc.lft.to/lastmile_qr_scan"}}, {"name": "fb94fb43af0b4464757ff485d761de27", "lon": -77.033241, "lat": 38.91321666666666, "type": "electric_scooter", "fusion_lon": 0.0, "is_reserved": 0, "bike_id": "fb94fb43af0b4464757ff485d761de27", "fusion_lat": 0.0, "is_disabled": 0, "rental_uris": {"ios": "https://dc.lft.to/lastmile_qr_scan", "android": "https://dc.lft.to/lastmile_qr_scan"}}, {"name": "3b8982fcc9e899352128db7eec823601", "lon": -77.03182066666666, "lat": 38.918149, "type": "electric_scooter", "fusion_lon": 0.0, "is_reserved": 0, "bike_id": "3b8982fcc9e899352128db7eec823601", "fusion_lat": 0.0, "is_disabled": 0, "rental_uris": {"ios": "https://dc.lft.to/lastmile_qr_scan", "android": "https://dc.lft.to/lastmile_qr_scan"}}, {"name": "c9af95afe01589b43804be4c2275e91e", "lon": -76.99903033333334, "lat": 38.946936666666666, "type": "electric_scooter", "fusion_lon": 0.0, "is_reserved": 0, "bike_id": "c9af95afe01589b43804be4c2275e91e", "fusion_lat": 0.0, "is_disabled": 0, "rental_uris": {"ios": "https://dc.lft.to/lastmile_qr_scan", "android": "https://dc.lft.to/lastmile_qr_scan"}}, {"name": "fddce226a174ddb6414fa76ba5d169c4", "lon": -77.023055, "lat": 38.920986666666664, "type": "electric_scooter", "fusion_lon": 0.0, "is_reserved": 0, "bike_id": "fddce226a174ddb6414fa76ba5d169c4", "fusion_lat": 0.0, "is_disabled": 0, "rental_uris": {"ios": "https://dc.lft.to/lastmile_qr_scan", "android": "https://dc.lft.to/lastmile_qr_scan"}}, {"name": "db0db03ff2d20e4c30c230ebd0ddff7e", "lon": -77.0160165, "lat": 38.9178095, "type": "electric_scooter", "fusion_lon": 0.0, "is_reserved": 0, "bike_id": "db0db03ff2d20e4c30c230ebd0ddff7e", "fusion_lat": 0.0, "is_disabled": 0, "rental_uris": {"ios": "https://dc.lft.to/lastmile_qr_scan", "android": "https://dc.lft.to/lastmile_qr_scan"}}, {"name": "ff5afa230c385ffe89ecbf4be0d8d595", "lon": -76.90973766666667, "lat": 38.854405166666666, "type": "electric_bike", "fusion_lon": 0.0, "is_reserved": 0, "bike_id": "ff5afa230c385ffe89ecbf4be0d8d595", "fusion_lat": 0.0, "is_disabled": 0, "rental_uris": {"ios": "https://dc.lft.to/lastmile_qr_scan", "android": "https://dc.lft.to/lastmile_qr_scan"}}, {"name": "9fb46a707b1fe426f39bc05aaa39020c", "lon": -77.00482416666667, "lat": 38.874757, "type": "electric_scooter", "fusion_lon": 0.0, "is_reserved": 0, "bike_id": "9fb46a707b1fe426f39bc05aaa39020c", "fusion_lat": 0.0, "is_disabled": 0, "rental_uris": {"ios": "https://dc.lft.to/lastmile_qr_scan", "android": "https://dc.lft.to/lastmile_qr_scan"}}, {"name": "a89095506d338ae861b74ef355191653", "lon": -77.028131, "lat": 38.91693166666667, "type": "electric_scooter", "fusion_lon": 0.0, "is_reserved": 0, "bike_id": "a89095506d338ae861b74ef355191653", "fusion_lat": 0.0, "is_disabled": 0, "rental_uris": {"ios": "https://dc.lft.to/lastmile_qr_scan", "android": "https://dc.lft.to/lastmile_qr_scan"}}, {"name": "cce5817c72fb347b8d5f2fa9d2ecdc5c", "lon": -76.96525866666667, "lat": 38.87626816666667, "type": "electric_scooter", "fusion_lon": 0.0, "is_reserved": 0, "bike_id": "cce5817c72fb347b8d5f2fa9d2ecdc5c", "fusion_lat": 0.0, "is_disabled": 0, "rental_uris": {"ios": "https://dc.lft.to/lastmile_qr_scan", "android": "https://dc.lft.to/lastmile_qr_scan"}}, {"name": "242471cecea3be45ee4cf26cc87c158d", "lon": -77.02308483333333, "lat": 38.91775633333334, "type": "electric_scooter", "fusion_lon": 0.0, "is_reserved": 0, "bike_id": "242471cecea3be45ee4cf26cc87c158d", "fusion_lat": 0.0, "is_disabled": 0, "rental_uris": {"ios": "https://dc.lft.to/lastmile_qr_scan", "android": "https://dc.lft.to/lastmile_qr_scan"}}, {"name": "62864740cc9fb19fd3bbee6c91d722ac", "lon": -77.04099666666667, "lat": 38.9177715, "type": "electric_scooter", "fusion_lon": 0.0, "is_reserved": 0, "bike_id": "62864740cc9fb19fd3bbee6c91d722ac", "fusion_lat": 0.0, "is_disabled": 0, "rental_uris": {"ios": "https://dc.lft.to/lastmile_qr_scan", "android": "https://dc.lft.to/lastmile_qr_scan"}}, {"name": "3445a9be58f144647f5fe7c2764e08e3", "lon": -77.04330883333333, "lat": 38.892278, "type": "electric_scooter", "fusion_lon": 0.0, "is_reserved": 0, "bike_id": "3445a9be58f144647f5fe7c2764e08e3", "fusion_lat": 0.0, "is_disabled": 0, "rental_uris": {"ios": "https://dc.lft.to/lastmile_qr_scan", "android": "https://dc.lft.to/lastmile_qr_scan"}}, {"name": "da4cbe2909f5b519122a0a11aafc2592", "lon": -77.03218, "lat": 38.92018066666667, "type": "electric_scooter", "fusion_lon": 0.0, "is_reserved": 0, "bike_id": "da4cbe2909f5b519122a0a11aafc2592", "fusion_lat": 0.0, "is_disabled": 0, "rental_uris": {"ios": "https://dc.lft.to/lastmile_qr_scan", "android": "https://dc.lft.to/lastmile_qr_scan"}}, {"name": "d99ffc1426fdbd9272016f51d26b5985", "lon": -77.03999433333334, "lat": 38.9039675, "type": "electric_scooter", "fusion_lon": 0.0, "is_reserved": 0, "bike_id": "d99ffc1426fdbd9272016f51d26b5985", "fusion_lat": 0.0, "is_disabled": 0, "rental_uris": {"ios": "https://dc.lft.to/lastmile_qr_scan", "android": "https://dc.lft.to/lastmile_qr_scan"}}, {"name": "fc2f89983b2f936b32acab3cf847f3de", "lon": -77.026819, "lat": 38.88137316666667, "type": "electric_scooter", "fusion_lon": 0.0, "is_reserved": 0, "bike_id": "fc2f89983b2f936b32acab3cf847f3de", "fusion_lat": 0.0, "is_disabled": 0, "rental_uris": {"ios": "https://dc.lft.to/lastmile_qr_scan", "android": "https://dc.lft.to/lastmile_qr_scan"}}, {"name": "6982cbb77c93490bbb8b5eb7f9441f29", "lon": -77.03336566666667, "lat": 38.928793666666664, "type": "electric_scooter", "fusion_lon": 0.0, "is_reserved": 0, "bike_id": "6982cbb77c93490bbb8b5eb7f9441f29", "fusion_lat": 0.0, "is_disabled": 0, "rental_uris": {"ios": "https://dc.lft.to/lastmile_qr_scan", "android": "https://dc.lft.to/lastmile_qr_scan"}}, {"name": "acf7fa26ee86938711e5a7687fe24e8d", "lon": -77.04198216666667, "lat": 38.90130166666667, "type": "electric_scooter", "fusion_lon": 0.0, "is_reserved": 0, "bike_id": "acf7fa26ee86938711e5a7687fe24e8d", "fusion_lat": 0.0, "is_disabled": 0, "rental_uris": {"ios": "https://dc.lft.to/lastmile_qr_scan", "android": "https://dc.lft.to/lastmile_qr_scan"}}, {"name": "9797eb12d94b8d04d4a1f6ccc113cdf0", "lon": -76.9809935, "lat": 38.92111633333333, "type": "electric_bike", "fusion_lon": 0.0, "is_reserved": 0, "bike_id": "9797eb12d94b8d04d4a1f6ccc113cdf0", "fusion_lat": 0.0, "is_disabled": 0, "rental_uris": {"ios": "https://dc.lft.to/lastmile_qr_scan", "android": "https://dc.lft.to/lastmile_qr_scan"}}, {"name": "52119f23761bc79c7e305dc82563eba3", "lon": -77.026455, "lat": 38.984525833333336, "type": "electric_scooter", "fusion_lon": 0.0, "is_reserved": 0, "bike_id": "52119f23761bc79c7e305dc82563eba3", "fusion_lat": 0.0, "is_disabled": 0, "rental_uris": {"ios": "https://dc.lft.to/lastmile_qr_scan", "android": "https://dc.lft.to/lastmile_qr_scan"}}, {"name": "75248dc20fc848b003451f36afcb2643", "lon": -77.02804, "lat": 38.910411333333336, "type": "electric_scooter", "fusion_lon": 0.0, "is_reserved": 0, "bike_id": "75248dc20fc848b003451f36afcb2643", "fusion_lat": 0.0, "is_disabled": 0, "rental_uris": {"ios": "https://dc.lft.to/lastmile_qr_scan", "android": "https://dc.lft.to/lastmile_qr_scan"}}, {"name": "a99da7988847ef5231d0644388c43b71", "lon": -77.02681383333334, "lat": 38.897174666666665, "type": "electric_scooter", "fusion_lon": 0.0, "is_reserved": 0, "bike_id": "a99da7988847ef5231d0644388c43b71", "fusion_lat": 0.0, "is_disabled": 0, "rental_uris": {"ios": "https://dc.lft.to/lastmile_qr_scan", "android": "https://dc.lft.to/lastmile_qr_scan"}}, {"name": "7e3647e69cfc0ce2397d4cec776f4de1", "lon": -77.02139766666667, "lat": 38.899510666666664, "type": "electric_scooter", "fusion_lon": 0.0, "is_reserved": 0, "bike_id": "7e3647e69cfc0ce2397d4cec776f4de1", "fusion_lat": 0.0, "is_disabled": 0, "rental_uris": {"ios": "https://dc.lft.to/lastmile_qr_scan", "android": "https://dc.lft.to/lastmile_qr_scan"}}, {"name": "0acfac6b92a5923122703bada05974ce", "lon": -77.02203316666667, "lat": 38.916219, "type": "electric_scooter", "fusion_lon": 0.0, "is_reserved": 0, "bike_id": "0acfac6b92a5923122703bada05974ce", "fusion_lat": 0.0, "is_disabled": 0, "rental_uris": {"ios": "https://dc.lft.to/lastmile_qr_scan", "android": "https://dc.lft.to/lastmile_qr_scan"}}, {"name": "0593acb243a2b31fa36d123b9969fd12", "lon": -77.0486775, "lat": 38.90629933333334, "type": "electric_scooter", "fusion_lon": 0.0, "is_reserved": 0, "bike_id": "0593acb243a2b31fa36d123b9969fd12", "fusion_lat": 0.0, "is_disabled": 0, "rental_uris": {"ios": "https://dc.lft.to/lastmile_qr_scan", "android": "https://dc.lft.to/lastmile_qr_scan"}}, {"name": "b1676963a03f866dbecbed17019d7d24", "lon": -77.04852466666667, "lat": 38.90639733333333, "type": "electric_scooter", "fusion_lon": 0.0, "is_reserved": 0, "bike_id": "b1676963a03f866dbecbed17019d7d24", "fusion_lat": 0.0, "is_disabled": 0, "rental_uris": {"ios": "https://dc.lft.to/lastmile_qr_scan", "android": "https://dc.lft.to/lastmile_qr_scan"}}, {"name": "69e54ee8081ca4cbcfc488d35b07c51d", "lon": -77.03523183333333, "lat": 38.93609433333334, "type": "electric_scooter", "fusion_lon": 0.0, "is_reserved": 0, "bike_id": "69e54ee8081ca4cbcfc488d35b07c51d", "fusion_lat": 0.0, "is_disabled": 0, "rental_uris": {"ios": "https://dc.lft.to/lastmile_qr_scan", "android": "https://dc.lft.to/lastmile_qr_scan"}}, {"name": "56017a31221a4b6de099d36528c7e156", "lon": -77.044514, "lat": 38.905325833333336, "type": "electric_scooter", "fusion_lon": 0.0, "is_reserved": 0, "bike_id": "56017a31221a4b6de099d36528c7e156", "fusion_lat": 0.0, "is_disabled": 0, "rental_uris": {"ios": "https://dc.lft.to/lastmile_qr_scan", "android": "https://dc.lft.to/lastmile_qr_scan"}}, {"name": "ae7b5aa4189f51febd0f5352b004de21", "lon": -77.043261, "lat": 38.89223666666667, "type": "electric_scooter", "fusion_lon": 0.0, "is_reserved": 0, "bike_id": "ae7b5aa4189f51febd0f5352b004de21", "fusion_lat": 0.0, "is_disabled": 0, "rental_uris": {"ios": "https://dc.lft.to/lastmile_qr_scan", "android": "https://dc.lft.to/lastmile_qr_scan"}}, {"name": "2b64c8506e308c1ad0d25430de71bd25", "lon": -77.04909666666667, "lat": 38.900805, "type": "electric_scooter", "fusion_lon": 0.0, "is_reserved": 0, "bike_id": "2b64c8506e308c1ad0d25430de71bd25", "fusion_lat": 0.0, "is_disabled": 0, "rental_uris": {"ios": "https://dc.lft.to/lastmile_qr_scan", "android": "https://dc.lft.to/lastmile_qr_scan"}}, {"name": "7cd2f66602e172bd6fb2086c4bb5c439", "lon": -77.03379616666666, "lat": 38.93226883333333, "type": "electric_scooter", "fusion_lon": 0.0, "is_reserved": 0, "bike_id": "7cd2f66602e172bd6fb2086c4bb5c439", "fusion_lat": 0.0, "is_disabled": 0, "rental_uris": {"ios": "https://dc.lft.to/lastmile_qr_scan", "android": "https://dc.lft.to/lastmile_qr_scan"}}, {"name": "a635c4d16e0f8e52101ab9286fc79617", "lon": -77.02685016666666, "lat": 38.89622083333333, "type": "electric_scooter", "fusion_lon": 0.0, "is_reserved": 0, "bike_id": "a635c4d16e0f8e52101ab9286fc79617", "fusion_lat": 0.0, "is_disabled": 0, "rental_uris": {"ios": "https://dc.lft.to/lastmile_qr_scan", "android": "https://dc.lft.to/lastmile_qr_scan"}}, {"name": "6645324036d91ca56868dc53a8b80373", "lon": -76.98536616666667, "lat": 38.86647816666667, "type": "electric_scooter", "fusion_lon": 0.0, "is_reserved": 0, "bike_id": "6645324036d91ca56868dc53a8b80373", "fusion_lat": 0.0, "is_disabled": 0, "rental_uris": {"ios": "https://dc.lft.to/lastmile_qr_scan", "android": "https://dc.lft.to/lastmile_qr_scan"}}, {"name": "d8b60e35114b9ff3437e5d2c4075e59b", "lon": -77.02724633333334, "lat": 38.94959883333333, "type": "electric_scooter", "fusion_lon": 0.0, "is_reserved": 0, "bike_id": "d8b60e35114b9ff3437e5d2c4075e59b", "fusion_lat": 0.0, "is_disabled": 0, "rental_uris": {"ios": "https://dc.lft.to/lastmile_qr_scan", "android": "https://dc.lft.to/lastmile_qr_scan"}}, {"name": "45fb97721a53de884aed251c7fb5faee", "lon": -77.06922733333333, "lat": 38.907763, "type": "electric_scooter", "fusion_lon": 0.0, "is_reserved": 0, "bike_id": "45fb97721a53de884aed251c7fb5faee", "fusion_lat": 0.0, "is_disabled": 0, "rental_uris": {"ios": "https://dc.lft.to/lastmile_qr_scan", "android": "https://dc.lft.to/lastmile_qr_scan"}}, {"name": "57e7bd3b82ab557e0e979f2424f4cf10", "lon": -77.03092916666667, "lat": 38.93169783333333, "type": "electric_scooter", "fusion_lon": 0.0, "is_reserved": 0, "bike_id": "57e7bd3b82ab557e0e979f2424f4cf10", "fusion_lat": 0.0, "is_disabled": 0, "rental_uris": {"ios": "https://dc.lft.to/lastmile_qr_scan", "android": "https://dc.lft.to/lastmile_qr_scan"}}, {"name": "a27329d4b412562c209bf996189be3b6", "lon": -77.025185, "lat": 38.9386535, "type": "electric_scooter", "fusion_lon": 0.0, "is_reserved": 0, "bike_id": "a27329d4b412562c209bf996189be3b6", "fusion_lat": 0.0, "is_disabled": 0, "rental_uris": {"ios": "https://dc.lft.to/lastmile_qr_scan", "android": "https://dc.lft.to/lastmile_qr_scan"}}, {"name": "b068b20b756f61b5dfc78f2d8b32d6a0", "lon": -77.028137, "lat": 38.88180533333333, "type": "electric_scooter", "fusion_lon": 0.0, "is_reserved": 0, "bike_id": "b068b20b756f61b5dfc78f2d8b32d6a0", "fusion_lat": 0.0, "is_disabled": 0, "rental_uris": {"ios": "https://dc.lft.to/lastmile_qr_scan", "android": "https://dc.lft.to/lastmile_qr_scan"}}, {"name": "3ae8452205252861e8fda5f36e35d1e7", "lon": -77.03203816666667, "lat": 38.920085, "type": "electric_scooter", "fusion_lon": 0.0, "is_reserved": 0, "bike_id": "3ae8452205252861e8fda5f36e35d1e7", "fusion_lat": 0.0, "is_disabled": 0, "rental_uris": {"ios": "https://dc.lft.to/lastmile_qr_scan", "android": "https://dc.lft.to/lastmile_qr_scan"}}, {"name": "cfb3d1fd72bf2fbc6a5abfc954b8024f", "lon": -77.040913, "lat": 38.90599433333333, "type": "electric_scooter", "fusion_lon": 0.0, "is_reserved": 0, "bike_id": "cfb3d1fd72bf2fbc6a5abfc954b8024f", "fusion_lat": 0.0, "is_disabled": 0, "rental_uris": {"ios": "https://dc.lft.to/lastmile_qr_scan", "android": "https://dc.lft.to/lastmile_qr_scan"}}, {"name": "356a36022a7daa1f2d6f4dccd132a038", "lon": -77.04641166666667, "lat": 38.915907833333335, "type": "electric_scooter", "fusion_lon": 0.0, "is_reserved": 0, "bike_id": "356a36022a7daa1f2d6f4dccd132a038", "fusion_lat": 0.0, "is_disabled": 0, "rental_uris": {"ios": "https://dc.lft.to/lastmile_qr_scan", "android": "https://dc.lft.to/lastmile_qr_scan"}}, {"name": "8664a54a7ee9d8db4dad3bd2c1141108", "lon": -77.041031, "lat": 38.91776766666667, "type": "electric_scooter", "fusion_lon": 0.0, "is_reserved": 0, "bike_id": "8664a54a7ee9d8db4dad3bd2c1141108", "fusion_lat": 0.0, "is_disabled": 0, "rental_uris": {"ios": "https://dc.lft.to/lastmile_qr_scan", "android": "https://dc.lft.to/lastmile_qr_scan"}}, {"name": "12353353b967de9026d36c8cbb44fc19", "lon": -77.0462455, "lat": 38.92347183333333, "type": "electric_scooter", "fusion_lon": 0.0, "is_reserved": 0, "bike_id": "12353353b967de9026d36c8cbb44fc19", "fusion_lat": 0.0, "is_disabled": 0, "rental_uris": {"ios": "https://dc.lft.to/lastmile_qr_scan", "android": "https://dc.lft.to/lastmile_qr_scan"}}, {"name": "7b9187526263cafd6fdf418ea0fad39e", "lon": -77.03287916666666, "lat": 38.92888683333334, "type": "electric_scooter", "fusion_lon": 0.0, "is_reserved": 0, "bike_id": "7b9187526263cafd6fdf418ea0fad39e", "fusion_lat": 0.0, "is_disabled": 0, "rental_uris": {"ios": "https://dc.lft.to/lastmile_qr_scan", "android": "https://dc.lft.to/lastmile_qr_scan"}}, {"name": "553e22ddddbc98a1960b532d810090ce", "lon": -77.023234, "lat": 38.8972985, "type": "electric_scooter", "fusion_lon": 0.0, "is_reserved": 0, "bike_id": "553e22ddddbc98a1960b532d810090ce", "fusion_lat": 0.0, "is_disabled": 0, "rental_uris": {"ios": "https://dc.lft.to/lastmile_qr_scan", "android": "https://dc.lft.to/lastmile_qr_scan"}}, {"name": "c305b855f50a829caee81e0288e6f177", "lon": -76.98208566666666, "lat": 38.98509216666667, "type": "electric_bike", "fusion_lon": 0.0, "is_reserved": 0, "bike_id": "c305b855f50a829caee81e0288e6f177", "fusion_lat": 0.0, "is_disabled": 0, "rental_uris": {"ios": "https://dc.lft.to/lastmile_qr_scan", "android": "https://dc.lft.to/lastmile_qr_scan"}}, {"name": "77f80aa4ea43d470ed00591e4d875437", "lon": -77.03264183333333, "lat": 38.9299355, "type": "electric_scooter", "fusion_lon": 0.0, "is_reserved": 0, "bike_id": "77f80aa4ea43d470ed00591e4d875437", "fusion_lat": 0.0, "is_disabled": 0, "rental_uris": {"ios": "https://dc.lft.to/lastmile_qr_scan", "android": "https://dc.lft.to/lastmile_qr_scan"}}, {"name": "32ead1445e17b6b6760c3efc10c06f17", "lon": -76.9468325, "lat": 38.886286166666665, "type": "electric_scooter", "fusion_lon": 0.0, "is_reserved": 0, "bike_id": "32ead1445e17b6b6760c3efc10c06f17", "fusion_lat": 0.0, "is_disabled": 0, "rental_uris": {"ios": "https://dc.lft.to/lastmile_qr_scan", "android": "https://dc.lft.to/lastmile_qr_scan"}}, {"name": "4882aa16d71fcf685b0990177d400d91", "lon": -77.023937, "lat": 38.91994533333333, "type": "electric_scooter", "fusion_lon": 0.0, "is_reserved": 0, "bike_id": "4882aa16d71fcf685b0990177d400d91", "fusion_lat": 0.0, "is_disabled": 0, "rental_uris": {"ios": "https://dc.lft.to/lastmile_qr_scan", "android": "https://dc.lft.to/lastmile_qr_scan"}}, {"name": "bbc1aaa0f1898a1493f14cf1b970751f", "lon": -77.0120885, "lat": 38.9169195, "type": "electric_scooter", "fusion_lon": 0.0, "is_reserved": 0, "bike_id": "bbc1aaa0f1898a1493f14cf1b970751f", "fusion_lat": 0.0, "is_disabled": 0, "rental_uris": {"ios": "https://dc.lft.to/lastmile_qr_scan", "android": "https://dc.lft.to/lastmile_qr_scan"}}, {"name": "ee83a645f95d5c011c01b1077cfbed0a", "lon": -76.94942166666667, "lat": 38.894976666666665, "type": "electric_scooter", "fusion_lon": 0.0, "is_reserved": 0, "bike_id": "ee83a645f95d5c011c01b1077cfbed0a", "fusion_lat": 0.0, "is_disabled": 0, "rental_uris": {"ios": "https://dc.lft.to/lastmile_qr_scan", "android": "https://dc.lft.to/lastmile_qr_scan"}}, {"name": "15fee95aa542a1fccd07c9f8a5d4110f", "lon": -77.03500466666667, "lat": 38.96386533333333, "type": "electric_scooter", "fusion_lon": 0.0, "is_reserved": 0, "bike_id": "15fee95aa542a1fccd07c9f8a5d4110f", "fusion_lat": 0.0, "is_disabled": 0, "rental_uris": {"ios": "https://dc.lft.to/lastmile_qr_scan", "android": "https://dc.lft.to/lastmile_qr_scan"}}, {"name": "0fffab5595d7069ab6e3f646e3dc74fb", "lon": -77.03250516666667, "lat": 38.91565333333333, "type": "electric_scooter", "fusion_lon": 0.0, "is_reserved": 0, "bike_id": "0fffab5595d7069ab6e3f646e3dc74fb", "fusion_lat": 0.0, "is_disabled": 0, "rental_uris": {"ios": "https://dc.lft.to/lastmile_qr_scan", "android": "https://dc.lft.to/lastmile_qr_scan"}}, {"name": "873fed57cf9e9083a7065a9697dbaecb", "lon": -77.01170516666667, "lat": 38.87713983333333, "type": "electric_bike", "fusion_lon": 0.0, "is_reserved": 0, "bike_id": "873fed57cf9e9083a7065a9697dbaecb", "fusion_lat": 0.0, "is_disabled": 0, "rental_uris": {"ios": "https://dc.lft.to/lastmile_qr_scan", "android": "https://dc.lft.to/lastmile_qr_scan"}}, {"name": "3a1290f2985b99193fa19ac021223cbc", "lon": -77.0047205, "lat": 38.911316166666666, "type": "electric_scooter", "fusion_lon": 0.0, "is_reserved": 0, "bike_id": "3a1290f2985b99193fa19ac021223cbc", "fusion_lat": 0.0, "is_disabled": 0, "rental_uris": {"ios": "https://dc.lft.to/lastmile_qr_scan", "android": "https://dc.lft.to/lastmile_qr_scan"}}, {"name": "d18a3f98bd6fe9f5576e0b633c36c8b4", "lon": -76.9975705, "lat": 38.88773333333334, "type": "electric_scooter", "fusion_lon": 0.0, "is_reserved": 0, "bike_id": "d18a3f98bd6fe9f5576e0b633c36c8b4", "fusion_lat": 0.0, "is_disabled": 0, "rental_uris": {"ios": "https://dc.lft.to/lastmile_qr_scan", "android": "https://dc.lft.to/lastmile_qr_scan"}}, {"name": "de155889c30445041647035de6a680ff", "lon": -77.04098416666666, "lat": 38.9178025, "type": "electric_scooter", "fusion_lon": 0.0, "is_reserved": 0, "bike_id": "de155889c30445041647035de6a680ff", "fusion_lat": 0.0, "is_disabled": 0, "rental_uris": {"ios": "https://dc.lft.to/lastmile_qr_scan", "android": "https://dc.lft.to/lastmile_qr_scan"}}, {"name": "64cecbb310d22f264a9ed4410d8210d8", "lon": -77.01772166666667, "lat": 38.98274116666666, "type": "electric_bike", "fusion_lon": 0.0, "is_reserved": 0, "bike_id": "64cecbb310d22f264a9ed4410d8210d8", "fusion_lat": 0.0, "is_disabled": 0, "rental_uris": {"ios": "https://dc.lft.to/lastmile_qr_scan", "android": "https://dc.lft.to/lastmile_qr_scan"}}, {"name": "9c615a8a373ac07177d44fe01e9cf4d1", "lon": -76.97807616666667, "lat": 38.8945325, "type": "electric_scooter", "fusion_lon": 0.0, "is_reserved": 0, "bike_id": "9c615a8a373ac07177d44fe01e9cf4d1", "fusion_lat": 0.0, "is_disabled": 0, "rental_uris": {"ios": "https://dc.lft.to/lastmile_qr_scan", "android": "https://dc.lft.to/lastmile_qr_scan"}}, {"name": "2c1391284a8ab4644966fbcf59528447", "lon": -77.03150483333333, "lat": 38.927967333333335, "type": "electric_scooter", "fusion_lon": 0.0, "is_reserved": 0, "bike_id": "2c1391284a8ab4644966fbcf59528447", "fusion_lat": 0.0, "is_disabled": 0, "rental_uris": {"ios": "https://dc.lft.to/lastmile_qr_scan", "android": "https://dc.lft.to/lastmile_qr_scan"}}, {"name": "b28a1abe605fc0156e4990f5ba3b00fe", "lon": -77.04182583333333, "lat": 38.892242, "type": "electric_scooter", "fusion_lon": 0.0, "is_reserved": 0, "bike_id": "b28a1abe605fc0156e4990f5ba3b00fe", "fusion_lat": 0.0, "is_disabled": 0, "rental_uris": {"ios": "https://dc.lft.to/lastmile_qr_scan", "android": "https://dc.lft.to/lastmile_qr_scan"}}, {"name": "28df56c789e1447e6e66f9d863426ff0", "lon": -77.03822516666666, "lat": 38.915002333333334, "type": "electric_scooter", "fusion_lon": 0.0, "is_reserved": 0, "bike_id": "28df56c789e1447e6e66f9d863426ff0", "fusion_lat": 0.0, "is_disabled": 0, "rental_uris": {"ios": "https://dc.lft.to/lastmile_qr_scan", "android": "https://dc.lft.to/lastmile_qr_scan"}}, {"name": "63963e36b3fc8af2759614b5d4dc7f43", "lon": -77.051243, "lat": 38.92346383333334, "type": "electric_scooter", "fusion_lon": 0.0, "is_reserved": 0, "bike_id": "63963e36b3fc8af2759614b5d4dc7f43", "fusion_lat": 0.0, "is_disabled": 0, "rental_uris": {"ios": "https://dc.lft.to/lastmile_qr_scan", "android": "https://dc.lft.to/lastmile_qr_scan"}}, {"name": "d9efc351df3af514407aeb798d6a6853", "lon": -77.02693933333333, "lat": 38.911283833333336, "type": "electric_scooter", "fusion_lon": 0.0, "is_reserved": 0, "bike_id": "d9efc351df3af514407aeb798d6a6853", "fusion_lat": 0.0, "is_disabled": 0, "rental_uris": {"ios": "https://dc.lft.to/lastmile_qr_scan", "android": "https://dc.lft.to/lastmile_qr_scan"}}, {"name": "03ffb9653ebf21141d962c1728b0a87c", "lon": -76.99803133333333, "lat": 38.88566333333333, "type": "electric_scooter", "fusion_lon": 0.0, "is_reserved": 0, "bike_id": "03ffb9653ebf21141d962c1728b0a87c", "fusion_lat": 0.0, "is_disabled": 0, "rental_uris": {"ios": "https://dc.lft.to/lastmile_qr_scan", "android": "https://dc.lft.to/lastmile_qr_scan"}}, {"name": "1609245d01f34ca80f22f2103128babc", "lon": -77.0481375, "lat": 38.910444, "type": "electric_scooter", "fusion_lon": 0.0, "is_reserved": 0, "bike_id": "1609245d01f34ca80f22f2103128babc", "fusion_lat": 0.0, "is_disabled": 0, "rental_uris": {"ios": "https://dc.lft.to/lastmile_qr_scan", "android": "https://dc.lft.to/lastmile_qr_scan"}}, {"name": "4895e70570b58dfb96387111e6523755", "lon": -77.00196633333333, "lat": 38.902414666666665, "type": "electric_scooter", "fusion_lon": 0.0, "is_reserved": 0, "bike_id": "4895e70570b58dfb96387111e6523755", "fusion_lat": 0.0, "is_disabled": 0, "rental_uris": {"ios": "https://dc.lft.to/lastmile_qr_scan", "android": "https://dc.lft.to/lastmile_qr_scan"}}, {"name": "1f186b841d117dc910d8afb7b5f5b454", "lon": -77.03190216666667, "lat": 38.89826216666667, "type": "electric_scooter", "fusion_lon": 0.0, "is_reserved": 0, "bike_id": "1f186b841d117dc910d8afb7b5f5b454", "fusion_lat": 0.0, "is_disabled": 0, "rental_uris": {"ios": "https://dc.lft.to/lastmile_qr_scan", "android": "https://dc.lft.to/lastmile_qr_scan"}}, {"name": "3a44131422ea7166129db5e2419a972f", "lon": -77.02301383333334, "lat": 38.920892, "type": "electric_scooter", "fusion_lon": 0.0, "is_reserved": 0, "bike_id": "3a44131422ea7166129db5e2419a972f", "fusion_lat": 0.0, "is_disabled": 0, "rental_uris": {"ios": "https://dc.lft.to/lastmile_qr_scan", "android": "https://dc.lft.to/lastmile_qr_scan"}}, {"name": "bbf5a0d620b4385c0391c71984a4d6bf", "lon": -76.99706783333333, "lat": 38.84433466666667, "type": "electric_scooter", "fusion_lon": 0.0, "is_reserved": 0, "bike_id": "bbf5a0d620b4385c0391c71984a4d6bf", "fusion_lat": 0.0, "is_disabled": 0, "rental_uris": {"ios": "https://dc.lft.to/lastmile_qr_scan", "android": "https://dc.lft.to/lastmile_qr_scan"}}, {"name": "d95181d625d854454ce6719e1ec16db8", "lon": -77.02900333333334, "lat": 38.90042666666667, "type": "electric_scooter", "fusion_lon": 0.0, "is_reserved": 0, "bike_id": "d95181d625d854454ce6719e1ec16db8", "fusion_lat": 0.0, "is_disabled": 0, "rental_uris": {"ios": "https://dc.lft.to/lastmile_qr_scan", "android": "https://dc.lft.to/lastmile_qr_scan"}}, {"name": "dda7f15f675612378c6bab535d116a7e", "lon": -77.04850483333334, "lat": 38.919613166666664, "type": "electric_scooter", "fusion_lon": 0.0, "is_reserved": 0, "bike_id": "dda7f15f675612378c6bab535d116a7e", "fusion_lat": 0.0, "is_disabled": 0, "rental_uris": {"ios": "https://dc.lft.to/lastmile_qr_scan", "android": "https://dc.lft.to/lastmile_qr_scan"}}, {"name": "133b0085bd0fc05f5323d57c4fc69a74", "lon": -77.02382266666666, "lat": 38.93359783333333, "type": "electric_scooter", "fusion_lon": 0.0, "is_reserved": 0, "bike_id": "133b0085bd0fc05f5323d57c4fc69a74", "fusion_lat": 0.0, "is_disabled": 0, "rental_uris": {"ios": "https://dc.lft.to/lastmile_qr_scan", "android": "https://dc.lft.to/lastmile_qr_scan"}}, {"name": "c6e946a0ebe1e04d5c429e0b286b3530", "lon": -77.03667416666667, "lat": 38.903775833333334, "type": "electric_scooter", "fusion_lon": 0.0, "is_reserved": 0, "bike_id": "c6e946a0ebe1e04d5c429e0b286b3530", "fusion_lat": 0.0, "is_disabled": 0, "rental_uris": {"ios": "https://dc.lft.to/lastmile_qr_scan", "android": "https://dc.lft.to/lastmile_qr_scan"}}, {"name": "5c4f884a420a9ad0981d4422511bb5cb", "lon": -77.0093745, "lat": 38.9133955, "type": "electric_scooter", "fusion_lon": 0.0, "is_reserved": 0, "bike_id": "5c4f884a420a9ad0981d4422511bb5cb", "fusion_lat": 0.0, "is_disabled": 0, "rental_uris": {"ios": "https://dc.lft.to/lastmile_qr_scan", "android": "https://dc.lft.to/lastmile_qr_scan"}}, {"name": "b9c66621e476cd4e5bf494d209409b4d", "lon": -77.073123, "lat": 38.935813833333334, "type": "electric_scooter", "fusion_lon": 0.0, "is_reserved": 0, "bike_id": "b9c66621e476cd4e5bf494d209409b4d", "fusion_lat": 0.0, "is_disabled": 0, "rental_uris": {"ios": "https://dc.lft.to/lastmile_qr_scan", "android": "https://dc.lft.to/lastmile_qr_scan"}}, {"name": "3506169605440761f3f0d739b4a907a7", "lon": -77.02429833333333, "lat": 38.95628033333333, "type": "electric_scooter", "fusion_lon": 0.0, "is_reserved": 0, "bike_id": "3506169605440761f3f0d739b4a907a7", "fusion_lat": 0.0, "is_disabled": 0, "rental_uris": {"ios": "https://dc.lft.to/lastmile_qr_scan", "android": "https://dc.lft.to/lastmile_qr_scan"}}, {"name": "3ab299ba80de73e499c3d44cc0c84a3e", "lon": -76.98540433333334, "lat": 38.90957016666667, "type": "electric_scooter", "fusion_lon": 0.0, "is_reserved": 0, "bike_id": "3ab299ba80de73e499c3d44cc0c84a3e", "fusion_lat": 0.0, "is_disabled": 0, "rental_uris": {"ios": "https://dc.lft.to/lastmile_qr_scan", "android": "https://dc.lft.to/lastmile_qr_scan"}}, {"name": "7825f78e258722f26aaad30458c2ee4b", "lon": -77.0433105, "lat": 38.89532766666667, "type": "electric_scooter", "fusion_lon": 0.0, "is_reserved": 0, "bike_id": "7825f78e258722f26aaad30458c2ee4b", "fusion_lat": 0.0, "is_disabled": 0, "rental_uris": {"ios": "https://dc.lft.to/lastmile_qr_scan", "android": "https://dc.lft.to/lastmile_qr_scan"}}, {"name": "e7cdbcc5798a74ad9611dca7081ba7fd", "lon": -77.0859095, "lat": 38.908793333333335, "type": "electric_scooter", "fusion_lon": 0.0, "is_reserved": 0, "bike_id": "e7cdbcc5798a74ad9611dca7081ba7fd", "fusion_lat": 0.0, "is_disabled": 0, "rental_uris": {"ios": "https://dc.lft.to/lastmile_qr_scan", "android": "https://dc.lft.to/lastmile_qr_scan"}}, {"name": "61c67e840f9d523a2da4a275d927a65b", "lon": -77.04400033333333, "lat": 38.9108975, "type": "electric_scooter", "fusion_lon": 0.0, "is_reserved": 0, "bike_id": "61c67e840f9d523a2da4a275d927a65b", "fusion_lat": 0.0, "is_disabled": 0, "rental_uris": {"ios": "https://dc.lft.to/lastmile_qr_scan", "android": "https://dc.lft.to/lastmile_qr_scan"}}, {"name": "b1648f5cc23e412c482c5a9a4a0ca4fe", "lon": -76.99944216666667, "lat": 38.84295383333333, "type": "electric_scooter", "fusion_lon": 0.0, "is_reserved": 0, "bike_id": "b1648f5cc23e412c482c5a9a4a0ca4fe", "fusion_lat": 0.0, "is_disabled": 0, "rental_uris": {"ios": "https://dc.lft.to/lastmile_qr_scan", "android": "https://dc.lft.to/lastmile_qr_scan"}}, {"name": "68b4a4cd59b3c05eb275c1e0146c23cd", "lon": -76.9501695, "lat": 38.893897833333334, "type": "electric_scooter", "fusion_lon": 0.0, "is_reserved": 0, "bike_id": "68b4a4cd59b3c05eb275c1e0146c23cd", "fusion_lat": 0.0, "is_disabled": 0, "rental_uris": {"ios": "https://dc.lft.to/lastmile_qr_scan", "android": "https://dc.lft.to/lastmile_qr_scan"}}, {"name": "4183e1322efd3e3ef49942528d95b69c", "lon": -77.033515, "lat": 38.88623316666666, "type": "electric_scooter", "fusion_lon": 0.0, "is_reserved": 0, "bike_id": "4183e1322efd3e3ef49942528d95b69c", "fusion_lat": 0.0, "is_disabled": 0, "rental_uris": {"ios": "https://dc.lft.to/lastmile_qr_scan", "android": "https://dc.lft.to/lastmile_qr_scan"}}, {"name": "b8b66a3d039282ebe5bb8a98645e1d84", "lon": -76.964671, "lat": 38.934490833333335, "type": "electric_scooter", "fusion_lon": 0.0, "is_reserved": 0, "bike_id": "b8b66a3d039282ebe5bb8a98645e1d84", "fusion_lat": 0.0, "is_disabled": 0, "rental_uris": {"ios": "https://dc.lft.to/lastmile_qr_scan", "android": "https://dc.lft.to/lastmile_qr_scan"}}, {"name": "6d4d7ee865e441d3333613bcc4aae4c9", "lon": -77.02532183333334, "lat": 38.94262366666667, "type": "electric_scooter", "fusion_lon": 0.0, "is_reserved": 0, "bike_id": "6d4d7ee865e441d3333613bcc4aae4c9", "fusion_lat": 0.0, "is_disabled": 0, "rental_uris": {"ios": "https://dc.lft.to/lastmile_qr_scan", "android": "https://dc.lft.to/lastmile_qr_scan"}}, {"name": "8b765c5b9b54e07a2f862a70c316ac82", "lon": -77.03376566666667, "lat": 38.91034, "type": "electric_scooter", "fusion_lon": 0.0, "is_reserved": 0, "bike_id": "8b765c5b9b54e07a2f862a70c316ac82", "fusion_lat": 0.0, "is_disabled": 0, "rental_uris": {"ios": "https://dc.lft.to/lastmile_qr_scan", "android": "https://dc.lft.to/lastmile_qr_scan"}}, {"name": "91d7d47d40880d3f93c1c494f43c0de3", "lon": -77.02373866666667, "lat": 38.879281, "type": "electric_scooter", "fusion_lon": 0.0, "is_reserved": 0, "bike_id": "91d7d47d40880d3f93c1c494f43c0de3", "fusion_lat": 0.0, "is_disabled": 0, "rental_uris": {"ios": "https://dc.lft.to/lastmile_qr_scan", "android": "https://dc.lft.to/lastmile_qr_scan"}}, {"name": "7f47becca2194cd09d4c77c625ef8e6b", "lon": -77.03963266666666, "lat": 38.906217833333336, "type": "electric_scooter", "fusion_lon": 0.0, "is_reserved": 0, "bike_id": "7f47becca2194cd09d4c77c625ef8e6b", "fusion_lat": 0.0, "is_disabled": 0, "rental_uris": {"ios": "https://dc.lft.to/lastmile_qr_scan", "android": "https://dc.lft.to/lastmile_qr_scan"}}, {"name": "6a7ce135b21f6d8f39c0a63f7b837026", "lon": -77.0258955, "lat": 38.88337933333333, "type": "electric_scooter", "fusion_lon": 0.0, "is_reserved": 0, "bike_id": "6a7ce135b21f6d8f39c0a63f7b837026", "fusion_lat": 0.0, "is_disabled": 0, "rental_uris": {"ios": "https://dc.lft.to/lastmile_qr_scan", "android": "https://dc.lft.to/lastmile_qr_scan"}}, {"name": "46ec05e3023cc64ef2759e590a0a032c", "lon": -77.03698966666667, "lat": 38.926481833333334, "type": "electric_scooter", "fusion_lon": 0.0, "is_reserved": 0, "bike_id": "46ec05e3023cc64ef2759e590a0a032c", "fusion_lat": 0.0, "is_disabled": 0, "rental_uris": {"ios": "https://dc.lft.to/lastmile_qr_scan", "android": "https://dc.lft.to/lastmile_qr_scan"}}, {"name": "77c72155b434ab38269a913f90941615", "lon": -77.00073716666667, "lat": 38.91639, "type": "electric_scooter", "fusion_lon": 0.0, "is_reserved": 0, "bike_id": "77c72155b434ab38269a913f90941615", "fusion_lat": 0.0, "is_disabled": 0, "rental_uris": {"ios": "https://dc.lft.to/lastmile_qr_scan", "android": "https://dc.lft.to/lastmile_qr_scan"}}, {"name": "2c0c22227bb98c006fd1103ff4878efa", "lon": -77.0258395, "lat": 38.920467, "type": "electric_scooter", "fusion_lon": 0.0, "is_reserved": 0, "bike_id": "2c0c22227bb98c006fd1103ff4878efa", "fusion_lat": 0.0, "is_disabled": 0, "rental_uris": {"ios": "https://dc.lft.to/lastmile_qr_scan", "android": "https://dc.lft.to/lastmile_qr_scan"}}, {"name": "93c6314af8508a6984d7bf360c247a11", "lon": -77.035071, "lat": 38.926313, "type": "electric_scooter", "fusion_lon": 0.0, "is_reserved": 0, "bike_id": "93c6314af8508a6984d7bf360c247a11", "fusion_lat": 0.0, "is_disabled": 0, "rental_uris": {"ios": "https://dc.lft.to/lastmile_qr_scan", "android": "https://dc.lft.to/lastmile_qr_scan"}}, {"name": "bd130b53feb6f87ea3be26ae1cf0def7", "lon": -77.01749116666667, "lat": 38.901230166666664, "type": "electric_scooter", "fusion_lon": 0.0, "is_reserved": 0, "bike_id": "bd130b53feb6f87ea3be26ae1cf0def7", "fusion_lat": 0.0, "is_disabled": 0, "rental_uris": {"ios": "https://dc.lft.to/lastmile_qr_scan", "android": "https://dc.lft.to/lastmile_qr_scan"}}, {"name": "b2103827493dca5092e2382e03eb4b3c", "lon": -76.996372, "lat": 38.925668, "type": "electric_scooter", "fusion_lon": 0.0, "is_reserved": 0, "bike_id": "b2103827493dca5092e2382e03eb4b3c", "fusion_lat": 0.0, "is_disabled": 0, "rental_uris": {"ios": "https://dc.lft.to/lastmile_qr_scan", "android": "https://dc.lft.to/lastmile_qr_scan"}}, {"name": "28324c27626547ca7e2f3c5ab7c86f6a", "lon": -77.0350015, "lat": 38.9073975, "type": "electric_scooter", "fusion_lon": 0.0, "is_reserved": 0, "bike_id": "28324c27626547ca7e2f3c5ab7c86f6a", "fusion_lat": 0.0, "is_disabled": 0, "rental_uris": {"ios": "https://dc.lft.to/lastmile_qr_scan", "android": "https://dc.lft.to/lastmile_qr_scan"}}, {"name": "e4c423a07911492eb8cbc3882a5eed1c", "lon": -77.0079605, "lat": 38.89720466666667, "type": "electric_scooter", "fusion_lon": 0.0, "is_reserved": 0, "bike_id": "e4c423a07911492eb8cbc3882a5eed1c", "fusion_lat": 0.0, "is_disabled": 0, "rental_uris": {"ios": "https://dc.lft.to/lastmile_qr_scan", "android": "https://dc.lft.to/lastmile_qr_scan"}}, {"name": "ad36ed99638206852810f302442d1131", "lon": -77.0307505, "lat": 38.897301166666665, "type": "electric_scooter", "fusion_lon": 0.0, "is_reserved": 0, "bike_id": "ad36ed99638206852810f302442d1131", "fusion_lat": 0.0, "is_disabled": 0, "rental_uris": {"ios": "https://dc.lft.to/lastmile_qr_scan", "android": "https://dc.lft.to/lastmile_qr_scan"}}, {"name": "cf12526416f4a09758dbd65362b90344", "lon": -77.02807633333333, "lat": 38.91703316666667, "type": "electric_scooter", "fusion_lon": 0.0, "is_reserved": 0, "bike_id": "cf12526416f4a09758dbd65362b90344", "fusion_lat": 0.0, "is_disabled": 0, "rental_uris": {"ios": "https://dc.lft.to/lastmile_qr_scan", "android": "https://dc.lft.to/lastmile_qr_scan"}}, {"name": "ed4234f889aba6c6e0e3731397eaf432", "lon": -77.005638, "lat": 38.88510333333333, "type": "electric_scooter", "fusion_lon": 0.0, "is_reserved": 0, "bike_id": "ed4234f889aba6c6e0e3731397eaf432", "fusion_lat": 0.0, "is_disabled": 0, "rental_uris": {"ios": "https://dc.lft.to/lastmile_qr_scan", "android": "https://dc.lft.to/lastmile_qr_scan"}}, {"name": "b1bb5919c2b1040c67cd41b1f2bd7287", "lon": -77.01133183333333, "lat": 38.88039, "type": "electric_scooter", "fusion_lon": 0.0, "is_reserved": 0, "bike_id": "b1bb5919c2b1040c67cd41b1f2bd7287", "fusion_lat": 0.0, "is_disabled": 0, "rental_uris": {"ios": "https://dc.lft.to/lastmile_qr_scan", "android": "https://dc.lft.to/lastmile_qr_scan"}}, {"name": "df97e218e1ad5890268227fd8110f470", "lon": -77.034008, "lat": 38.931241, "type": "electric_scooter", "fusion_lon": 0.0, "is_reserved": 0, "bike_id": "df97e218e1ad5890268227fd8110f470", "fusion_lat": 0.0, "is_disabled": 0, "rental_uris": {"ios": "https://dc.lft.to/lastmile_qr_scan", "android": "https://dc.lft.to/lastmile_qr_scan"}}, {"name": "07648ae9135e6ff4d6c1d6993c537dfe", "lon": -77.02417883333334, "lat": 38.907292166666664, "type": "electric_scooter", "fusion_lon": 0.0, "is_reserved": 0, "bike_id": "07648ae9135e6ff4d6c1d6993c537dfe", "fusion_lat": 0.0, "is_disabled": 0, "rental_uris": {"ios": "https://dc.lft.to/lastmile_qr_scan", "android": "https://dc.lft.to/lastmile_qr_scan"}}, {"name": "67fa9a381f144e45fd7fcc6e6cb536a8", "lon": -76.9866565, "lat": 38.9025525, "type": "electric_scooter", "fusion_lon": 0.0, "is_reserved": 0, "bike_id": "67fa9a381f144e45fd7fcc6e6cb536a8", "fusion_lat": 0.0, "is_disabled": 0, "rental_uris": {"ios": "https://dc.lft.to/lastmile_qr_scan", "android": "https://dc.lft.to/lastmile_qr_scan"}}, {"name": "e5ea29eb09d0004906ed03f03682e433", "lon": -77.039892, "lat": 38.917609166666665, "type": "electric_scooter", "fusion_lon": 0.0, "is_reserved": 0, "bike_id": "e5ea29eb09d0004906ed03f03682e433", "fusion_lat": 0.0, "is_disabled": 0, "rental_uris": {"ios": "https://dc.lft.to/lastmile_qr_scan", "android": "https://dc.lft.to/lastmile_qr_scan"}}, {"name": "f1c89215f9a69b460bba12b9a5302836", "lon": -77.03275716666667, "lat": 38.93717733333333, "type": "electric_scooter", "fusion_lon": 0.0, "is_reserved": 0, "bike_id": "f1c89215f9a69b460bba12b9a5302836", "fusion_lat": 0.0, "is_disabled": 0, "rental_uris": {"ios": "https://dc.lft.to/lastmile_qr_scan", "android": "https://dc.lft.to/lastmile_qr_scan"}}, {"name": "c044301cd929f1de370d822a947f404d", "lon": -77.13473766666667, "lat": 38.8535435, "type": "electric_bike", "fusion_lon": 0.0, "is_reserved": 0, "bike_id": "c044301cd929f1de370d822a947f404d", "fusion_lat": 0.0, "is_disabled": 0, "rental_uris": {"ios": "https://dc.lft.to/lastmile_qr_scan", "android": "https://dc.lft.to/lastmile_qr_scan"}}, {"name": "a9ce39e8f164d48864370961d657a7b7", "lon": -77.0338755, "lat": 38.92066116666667, "type": "electric_scooter", "fusion_lon": 0.0, "is_reserved": 0, "bike_id": "a9ce39e8f164d48864370961d657a7b7", "fusion_lat": 0.0, "is_disabled": 0, "rental_uris": {"ios": "https://dc.lft.to/lastmile_qr_scan", "android": "https://dc.lft.to/lastmile_qr_scan"}}, {"name": "35420d8ad89f0924867f54c69148d836", "lon": -77.04257083333333, "lat": 38.9085395, "type": "electric_bike", "fusion_lon": 0.0, "is_reserved": 0, "bike_id": "35420d8ad89f0924867f54c69148d836", "fusion_lat": 0.0, "is_disabled": 0, "rental_uris": {"ios": "https://dc.lft.to/lastmile_qr_scan", "android": "https://dc.lft.to/lastmile_qr_scan"}}, {"name": "debda47101c7946220eb24e6d77eb097", "lon": -77.0176495, "lat": 38.91270316666667, "type": "electric_scooter", "fusion_lon": 0.0, "is_reserved": 0, "bike_id": "debda47101c7946220eb24e6d77eb097", "fusion_lat": 0.0, "is_disabled": 0, "rental_uris": {"ios": "https://dc.lft.to/lastmile_qr_scan", "android": "https://dc.lft.to/lastmile_qr_scan"}}, {"name": "335eaeb497f350201040c8182835ec15", "lon": -77.03654666666667, "lat": 38.91806783333333, "type": "electric_scooter", "fusion_lon": 0.0, "is_reserved": 0, "bike_id": "335eaeb497f350201040c8182835ec15", "fusion_lat": 0.0, "is_disabled": 0, "rental_uris": {"ios": "https://dc.lft.to/lastmile_qr_scan", "android": "https://dc.lft.to/lastmile_qr_scan"}}, {"name": "f042dab09004134215e570b631c87f02", "lon": -77.04145616666666, "lat": 38.90765866666667, "type": "electric_scooter", "fusion_lon": 0.0, "is_reserved": 0, "bike_id": "f042dab09004134215e570b631c87f02", "fusion_lat": 0.0, "is_disabled": 0, "rental_uris": {"ios": "https://dc.lft.to/lastmile_qr_scan", "android": "https://dc.lft.to/lastmile_qr_scan"}}, {"name": "7234a85255b550bf869a183593d91580", "lon": -77.0088765, "lat": 38.91092666666667, "type": "electric_bike", "fusion_lon": 0.0, "is_reserved": 0, "bike_id": "7234a85255b550bf869a183593d91580", "fusion_lat": 0.0, "is_disabled": 0, "rental_uris": {"ios": "https://dc.lft.to/lastmile_qr_scan", "android": "https://dc.lft.to/lastmile_qr_scan"}}, {"name": "958cc04785df4c5314b5ff793a58b107", "lon": -77.02507266666667, "lat": 38.934150833333334, "type": "electric_bike", "fusion_lon": 0.0, "is_reserved": 0, "bike_id": "958cc04785df4c5314b5ff793a58b107", "fusion_lat": 0.0, "is_disabled": 0, "rental_uris": {"ios": "https://dc.lft.to/lastmile_qr_scan", "android": "https://dc.lft.to/lastmile_qr_scan"}}, {"name": "3dddd93112952b694424938fa5f06b31", "lon": -77.05770683333333, "lat": 38.90528466666667, "type": "electric_scooter", "fusion_lon": 0.0, "is_reserved": 0, "bike_id": "3dddd93112952b694424938fa5f06b31", "fusion_lat": 0.0, "is_disabled": 0, "rental_uris": {"ios": "https://dc.lft.to/lastmile_qr_scan", "android": "https://dc.lft.to/lastmile_qr_scan"}}, {"name": "28ee85dfecc98c8f53abce20ada97fd1", "lon": -77.03262566666666, "lat": 38.93572666666667, "type": "electric_scooter", "fusion_lon": 0.0, "is_reserved": 0, "bike_id": "28ee85dfecc98c8f53abce20ada97fd1", "fusion_lat": 0.0, "is_disabled": 0, "rental_uris": {"ios": "https://dc.lft.to/lastmile_qr_scan", "android": "https://dc.lft.to/lastmile_qr_scan"}}, {"name": "832767c4e876384afa2b34aaebde1695", "lon": -77.05043416666666, "lat": 38.923622, "type": "electric_scooter", "fusion_lon": 0.0, "is_reserved": 0, "bike_id": "832767c4e876384afa2b34aaebde1695", "fusion_lat": 0.0, "is_disabled": 0, "rental_uris": {"ios": "https://dc.lft.to/lastmile_qr_scan", "android": "https://dc.lft.to/lastmile_qr_scan"}}, {"name": "606644d4dc877ef92b25b6d9f903f7b1", "lon": -77.032587, "lat": 38.914071, "type": "electric_scooter", "fusion_lon": 0.0, "is_reserved": 0, "bike_id": "606644d4dc877ef92b25b6d9f903f7b1", "fusion_lat": 0.0, "is_disabled": 0, "rental_uris": {"ios": "https://dc.lft.to/lastmile_qr_scan", "android": "https://dc.lft.to/lastmile_qr_scan"}}, {"name": "6857118d947e83c07f86f7b647e971bc", "lon": -77.05230716666667, "lat": 38.924613666666666, "type": "electric_scooter", "fusion_lon": 0.0, "is_reserved": 0, "bike_id": "6857118d947e83c07f86f7b647e971bc", "fusion_lat": 0.0, "is_disabled": 0, "rental_uris": {"ios": "https://dc.lft.to/lastmile_qr_scan", "android": "https://dc.lft.to/lastmile_qr_scan"}}, {"name": "1666e016079c7eab824046e97e79fb93", "lon": -77.0692575, "lat": 38.913632666666665, "type": "electric_scooter", "fusion_lon": 0.0, "is_reserved": 0, "bike_id": "1666e016079c7eab824046e97e79fb93", "fusion_lat": 0.0, "is_disabled": 0, "rental_uris": {"ios": "https://dc.lft.to/lastmile_qr_scan", "android": "https://dc.lft.to/lastmile_qr_scan"}}, {"name": "d7308fab5042c52c0c181497cbb880f8", "lon": -76.982857, "lat": 38.899846333333336, "type": "electric_scooter", "fusion_lon": 0.0, "is_reserved": 0, "bike_id": "d7308fab5042c52c0c181497cbb880f8", "fusion_lat": 0.0, "is_disabled": 0, "rental_uris": {"ios": "https://dc.lft.to/lastmile_qr_scan", "android": "https://dc.lft.to/lastmile_qr_scan"}}, {"name": "52849dab01146f1da47c327f4226eefc", "lon": -77.02699833333334, "lat": 38.90864966666667, "type": "electric_scooter", "fusion_lon": 0.0, "is_reserved": 0, "bike_id": "52849dab01146f1da47c327f4226eefc", "fusion_lat": 0.0, "is_disabled": 0, "rental_uris": {"ios": "https://dc.lft.to/lastmile_qr_scan", "android": "https://dc.lft.to/lastmile_qr_scan"}}, {"name": "f44e4669005ebb0eb4220d0c931b331a", "lon": -76.99944466666666, "lat": 38.899955166666665, "type": "electric_scooter", "fusion_lon": 0.0, "is_reserved": 0, "bike_id": "f44e4669005ebb0eb4220d0c931b331a", "fusion_lat": 0.0, "is_disabled": 0, "rental_uris": {"ios": "https://dc.lft.to/lastmile_qr_scan", "android": "https://dc.lft.to/lastmile_qr_scan"}}, {"name": "10de516961f2d9019ec531a5b4d87340", "lon": -77.02929366666666, "lat": 38.90925333333333, "type": "electric_scooter", "fusion_lon": 0.0, "is_reserved": 0, "bike_id": "10de516961f2d9019ec531a5b4d87340", "fusion_lat": 0.0, "is_disabled": 0, "rental_uris": {"ios": "https://dc.lft.to/lastmile_qr_scan", "android": "https://dc.lft.to/lastmile_qr_scan"}}, {"name": "0043002518767397f47842b1542cf779", "lon": -77.03479633333333, "lat": 38.902699166666665, "type": "electric_scooter", "fusion_lon": 0.0, "is_reserved": 0, "bike_id": "0043002518767397f47842b1542cf779", "fusion_lat": 0.0, "is_disabled": 0, "rental_uris": {"ios": "https://dc.lft.to/lastmile_qr_scan", "android": "https://dc.lft.to/lastmile_qr_scan"}}, {"name": "c61ce5fe784b5caeca0e97e48530f4bd", "lon": -77.010235, "lat": 38.91708833333333, "type": "electric_scooter", "fusion_lon": 0.0, "is_reserved": 0, "bike_id": "c61ce5fe784b5caeca0e97e48530f4bd", "fusion_lat": 0.0, "is_disabled": 0, "rental_uris": {"ios": "https://dc.lft.to/lastmile_qr_scan", "android": "https://dc.lft.to/lastmile_qr_scan"}}, {"name": "6525e41d315f10adf615f6484eb0c911", "lon": -77.04270316666667, "lat": 38.90874383333333, "type": "electric_scooter", "fusion_lon": 0.0, "is_reserved": 0, "bike_id": "6525e41d315f10adf615f6484eb0c911", "fusion_lat": 0.0, "is_disabled": 0, "rental_uris": {"ios": "https://dc.lft.to/lastmile_qr_scan", "android": "https://dc.lft.to/lastmile_qr_scan"}}, {"name": "98e8b1fb45cea12eb9b630a516a1e8e9", "lon": -77.0344875, "lat": 38.909694, "type": "electric_scooter", "fusion_lon": 0.0, "is_reserved": 0, "bike_id": "98e8b1fb45cea12eb9b630a516a1e8e9", "fusion_lat": 0.0, "is_disabled": 0, "rental_uris": {"ios": "https://dc.lft.to/lastmile_qr_scan", "android": "https://dc.lft.to/lastmile_qr_scan"}}, {"name": "3bfe4601b888ada0bac6014b160af094", "lon": -77.029096, "lat": 38.898435166666665, "type": "electric_scooter", "fusion_lon": 0.0, "is_reserved": 0, "bike_id": "3bfe4601b888ada0bac6014b160af094", "fusion_lat": 0.0, "is_disabled": 0, "rental_uris": {"ios": "https://dc.lft.to/lastmile_qr_scan", "android": "https://dc.lft.to/lastmile_qr_scan"}}, {"name": "16795ef256490f645433d9fbad2fbb64", "lon": -77.05665133333333, "lat": 38.928674, "type": "electric_bike", "fusion_lon": 0.0, "is_reserved": 0, "bike_id": "16795ef256490f645433d9fbad2fbb64", "fusion_lat": 0.0, "is_disabled": 0, "rental_uris": {"ios": "https://dc.lft.to/lastmile_qr_scan", "android": "https://dc.lft.to/lastmile_qr_scan"}}, {"name": "df00a3e7e4f833c8221622cde1098d39", "lon": -76.9912245, "lat": 38.8620885, "type": "electric_scooter", "fusion_lon": 0.0, "is_reserved": 0, "bike_id": "df00a3e7e4f833c8221622cde1098d39", "fusion_lat": 0.0, "is_disabled": 0, "rental_uris": {"ios": "https://dc.lft.to/lastmile_qr_scan", "android": "https://dc.lft.to/lastmile_qr_scan"}}, {"name": "ac021573c2d6d2dbb05789db2d8fa316", "lon": -77.045492, "lat": 38.912657, "type": "electric_scooter", "fusion_lon": 0.0, "is_reserved": 0, "bike_id": "ac021573c2d6d2dbb05789db2d8fa316", "fusion_lat": 0.0, "is_disabled": 0, "rental_uris": {"ios": "https://dc.lft.to/lastmile_qr_scan", "android": "https://dc.lft.to/lastmile_qr_scan"}}, {"name": "b25e111fc96bb1f402dc711eeb3726a0", "lon": -77.0418565, "lat": 38.89291633333333, "type": "electric_scooter", "fusion_lon": 0.0, "is_reserved": 0, "bike_id": "b25e111fc96bb1f402dc711eeb3726a0", "fusion_lat": 0.0, "is_disabled": 0, "rental_uris": {"ios": "https://dc.lft.to/lastmile_qr_scan", "android": "https://dc.lft.to/lastmile_qr_scan"}}, {"name": "43e1fe709e9d9aa348aa8361f6420769", "lon": -77.028923, "lat": 38.91726883333333, "type": "electric_scooter", "fusion_lon": 0.0, "is_reserved": 0, "bike_id": "43e1fe709e9d9aa348aa8361f6420769", "fusion_lat": 0.0, "is_disabled": 0, "rental_uris": {"ios": "https://dc.lft.to/lastmile_qr_scan", "android": "https://dc.lft.to/lastmile_qr_scan"}}, {"name": "dc90e1a7e508fb1cc78bc6dce92e86af", "lon": -77.0319, "lat": 38.92117483333333, "type": "electric_scooter", "fusion_lon": 0.0, "is_reserved": 0, "bike_id": "dc90e1a7e508fb1cc78bc6dce92e86af", "fusion_lat": 0.0, "is_disabled": 0, "rental_uris": {"ios": "https://dc.lft.to/lastmile_qr_scan", "android": "https://dc.lft.to/lastmile_qr_scan"}}, {"name": "be89ed0ca2cbfba8ea9241c1f29c2e2d", "lon": -77.02412233333334, "lat": 38.909629833333334, "type": "electric_scooter", "fusion_lon": 0.0, "is_reserved": 0, "bike_id": "be89ed0ca2cbfba8ea9241c1f29c2e2d", "fusion_lat": 0.0, "is_disabled": 0, "rental_uris": {"ios": "https://dc.lft.to/lastmile_qr_scan", "android": "https://dc.lft.to/lastmile_qr_scan"}}, {"name": "53ba776bb8362c60f7057f024db6643d", "lon": -76.97835783333333, "lat": 38.87211, "type": "electric_scooter", "fusion_lon": 0.0, "is_reserved": 0, "bike_id": "53ba776bb8362c60f7057f024db6643d", "fusion_lat": 0.0, "is_disabled": 0, "rental_uris": {"ios": "https://dc.lft.to/lastmile_qr_scan", "android": "https://dc.lft.to/lastmile_qr_scan"}}, {"name": "996737d9a5fadbb2d5115b40db1e38b5", "lon": -77.012793, "lat": 38.8717055, "type": "electric_bike", "fusion_lon": 0.0, "is_reserved": 0, "bike_id": "996737d9a5fadbb2d5115b40db1e38b5", "fusion_lat": 0.0, "is_disabled": 0, "rental_uris": {"ios": "https://dc.lft.to/lastmile_qr_scan", "android": "https://dc.lft.to/lastmile_qr_scan"}}, {"name": "48c2eb6e0add0649a1559adb792c5ca6", "lon": -77.00749533333334, "lat": 38.898521333333335, "type": "electric_scooter", "fusion_lon": 0.0, "is_reserved": 0, "bike_id": "48c2eb6e0add0649a1559adb792c5ca6", "fusion_lat": 0.0, "is_disabled": 0, "rental_uris": {"ios": "https://dc.lft.to/lastmile_qr_scan", "android": "https://dc.lft.to/lastmile_qr_scan"}}, {"name": "d07cf6f6f7e10a607151229a675510bb", "lon": -76.9791445, "lat": 38.904476833333334, "type": "electric_scooter", "fusion_lon": 0.0, "is_reserved": 0, "bike_id": "d07cf6f6f7e10a607151229a675510bb", "fusion_lat": 0.0, "is_disabled": 0, "rental_uris": {"ios": "https://dc.lft.to/lastmile_qr_scan", "android": "https://dc.lft.to/lastmile_qr_scan"}}, {"name": "cf1afb1eaee20e4b6fca6f96276c9a78", "lon": -77.010272, "lat": 38.86661733333333, "type": "electric_scooter", "fusion_lon": 0.0, "is_reserved": 0, "bike_id": "cf1afb1eaee20e4b6fca6f96276c9a78", "fusion_lat": 0.0, "is_disabled": 0, "rental_uris": {"ios": "https://dc.lft.to/lastmile_qr_scan", "android": "https://dc.lft.to/lastmile_qr_scan"}}, {"name": "c2cafcd17c3ee4abe195162a27ff579f", "lon": -77.049987, "lat": 38.904281, "type": "electric_scooter", "fusion_lon": 0.0, "is_reserved": 0, "bike_id": "c2cafcd17c3ee4abe195162a27ff579f", "fusion_lat": 0.0, "is_disabled": 0, "rental_uris": {"ios": "https://dc.lft.to/lastmile_qr_scan", "android": "https://dc.lft.to/lastmile_qr_scan"}}, {"name": "0ac3fdd0fdd01c1c9d0eaec648476ebd", "lon": -77.05581133333334, "lat": 38.89328233333333, "type": "electric_scooter", "fusion_lon": 0.0, "is_reserved": 0, "bike_id": "0ac3fdd0fdd01c1c9d0eaec648476ebd", "fusion_lat": 0.0, "is_disabled": 0, "rental_uris": {"ios": "https://dc.lft.to/lastmile_qr_scan", "android": "https://dc.lft.to/lastmile_qr_scan"}}, {"name": "47caaa58187f2ff8ac709fc77740675d", "lon": -76.988855, "lat": 38.866608166666666, "type": "electric_scooter", "fusion_lon": 0.0, "is_reserved": 0, "bike_id": "47caaa58187f2ff8ac709fc77740675d", "fusion_lat": 0.0, "is_disabled": 0, "rental_uris": {"ios": "https://dc.lft.to/lastmile_qr_scan", "android": "https://dc.lft.to/lastmile_qr_scan"}}, {"name": "1c3c88f20b39669a0da67ab46f232430", "lon": -77.04363816666667, "lat": 38.91122516666667, "type": "electric_scooter", "fusion_lon": 0.0, "is_reserved": 0, "bike_id": "1c3c88f20b39669a0da67ab46f232430", "fusion_lat": 0.0, "is_disabled": 0, "rental_uris": {"ios": "https://dc.lft.to/lastmile_qr_scan", "android": "https://dc.lft.to/lastmile_qr_scan"}}, {"name": "bb465edfb2065235aa04609642c7af10", "lon": -77.04617016666667, "lat": 38.909723666666665, "type": "electric_scooter", "fusion_lon": 0.0, "is_reserved": 0, "bike_id": "bb465edfb2065235aa04609642c7af10", "fusion_lat": 0.0, "is_disabled": 0, "rental_uris": {"ios": "https://dc.lft.to/lastmile_qr_scan", "android": "https://dc.lft.to/lastmile_qr_scan"}}, {"name": "0d4d62d3d9924b7da95a84084f898b22", "lon": -77.0252985, "lat": 38.942585, "type": "electric_scooter", "fusion_lon": 0.0, "is_reserved": 0, "bike_id": "0d4d62d3d9924b7da95a84084f898b22", "fusion_lat": 0.0, "is_disabled": 0, "rental_uris": {"ios": "https://dc.lft.to/lastmile_qr_scan", "android": "https://dc.lft.to/lastmile_qr_scan"}}, {"name": "8ae816d1716ad7c160b7bba52b7225f4", "lon": -77.04122433333333, "lat": 38.917106833333335, "type": "electric_scooter", "fusion_lon": 0.0, "is_reserved": 0, "bike_id": "8ae816d1716ad7c160b7bba52b7225f4", "fusion_lat": 0.0, "is_disabled": 0, "rental_uris": {"ios": "https://dc.lft.to/lastmile_qr_scan", "android": "https://dc.lft.to/lastmile_qr_scan"}}, {"name": "728468523ccb59b66b5ebc464a52b76d", "lon": -77.04154333333334, "lat": 38.915911666666666, "type": "electric_scooter", "fusion_lon": 0.0, "is_reserved": 0, "bike_id": "728468523ccb59b66b5ebc464a52b76d", "fusion_lat": 0.0, "is_disabled": 0, "rental_uris": {"ios": "https://dc.lft.to/lastmile_qr_scan", "android": "https://dc.lft.to/lastmile_qr_scan"}}, {"name": "6c491df106b80951c4b41d55b494587b", "lon": -77.02195066666667, "lat": 38.91461416666667, "type": "electric_scooter", "fusion_lon": 0.0, "is_reserved": 0, "bike_id": "6c491df106b80951c4b41d55b494587b", "fusion_lat": 0.0, "is_disabled": 0, "rental_uris": {"ios": "https://dc.lft.to/lastmile_qr_scan", "android": "https://dc.lft.to/lastmile_qr_scan"}}, {"name": "8e076c240d8208d45fb194ec6e0a0144", "lon": -77.03214733333333, "lat": 38.91839483333333, "type": "electric_scooter", "fusion_lon": 0.0, "is_reserved": 0, "bike_id": "8e076c240d8208d45fb194ec6e0a0144", "fusion_lat": 0.0, "is_disabled": 0, "rental_uris": {"ios": "https://dc.lft.to/lastmile_qr_scan", "android": "https://dc.lft.to/lastmile_qr_scan"}}, {"name": "68b88044a9ab5f6595800ac14afd9104", "lon": -77.04505816666666, "lat": 38.903764333333335, "type": "electric_scooter", "fusion_lon": 0.0, "is_reserved": 0, "bike_id": "68b88044a9ab5f6595800ac14afd9104", "fusion_lat": 0.0, "is_disabled": 0, "rental_uris": {"ios": "https://dc.lft.to/lastmile_qr_scan", "android": "https://dc.lft.to/lastmile_qr_scan"}}, {"name": "225899450cf502b1f0dd83e4068e4fe0", "lon": -76.97182933333333, "lat": 38.91788866666667, "type": "electric_bike", "fusion_lon": 0.0, "is_reserved": 0, "bike_id": "225899450cf502b1f0dd83e4068e4fe0", "fusion_lat": 0.0, "is_disabled": 0, "rental_uris": {"ios": "https://dc.lft.to/lastmile_qr_scan", "android": "https://dc.lft.to/lastmile_qr_scan"}}, {"name": "44ff8cb85ccd9f2b914f537f8f0a8d77", "lon": -76.9963, "lat": 38.8847785, "type": "electric_scooter", "fusion_lon": 0.0, "is_reserved": 0, "bike_id": "44ff8cb85ccd9f2b914f537f8f0a8d77", "fusion_lat": 0.0, "is_disabled": 0, "rental_uris": {"ios": "https://dc.lft.to/lastmile_qr_scan", "android": "https://dc.lft.to/lastmile_qr_scan"}}, {"name": "2588cba91b575e8d948338a23191a153", "lon": -77.02616366666666, "lat": 38.917083833333336, "type": "electric_scooter", "fusion_lon": 0.0, "is_reserved": 0, "bike_id": "2588cba91b575e8d948338a23191a153", "fusion_lat": 0.0, "is_disabled": 0, "rental_uris": {"ios": "https://dc.lft.to/lastmile_qr_scan", "android": "https://dc.lft.to/lastmile_qr_scan"}}, {"name": "6a6aeac932b96d657568a8af1137007a", "lon": -77.05762483333334, "lat": 38.93387966666667, "type": "electric_scooter", "fusion_lon": 0.0, "is_reserved": 0, "bike_id": "6a6aeac932b96d657568a8af1137007a", "fusion_lat": 0.0, "is_disabled": 0, "rental_uris": {"ios": "https://dc.lft.to/lastmile_qr_scan", "android": "https://dc.lft.to/lastmile_qr_scan"}}, {"name": "1b9a3e2648883b8df19394e6bc7bca9a", "lon": -77.01132966666667, "lat": 38.8852805, "type": "electric_scooter", "fusion_lon": 0.0, "is_reserved": 0, "bike_id": "1b9a3e2648883b8df19394e6bc7bca9a", "fusion_lat": 0.0, "is_disabled": 0, "rental_uris": {"ios": "https://dc.lft.to/lastmile_qr_scan", "android": "https://dc.lft.to/lastmile_qr_scan"}}, {"name": "b656096aec4790aa38609ca60d210c01", "lon": -77.05139283333334, "lat": 38.903691333333335, "type": "electric_scooter", "fusion_lon": 0.0, "is_reserved": 0, "bike_id": "b656096aec4790aa38609ca60d210c01", "fusion_lat": 0.0, "is_disabled": 0, "rental_uris": {"ios": "https://dc.lft.to/lastmile_qr_scan", "android": "https://dc.lft.to/lastmile_qr_scan"}}, {"name": "a981315d7c12c778c52b48da910d6e3c", "lon": -77.0216855, "lat": 38.9428835, "type": "electric_scooter", "fusion_lon": 0.0, "is_reserved": 0, "bike_id": "a981315d7c12c778c52b48da910d6e3c", "fusion_lat": 0.0, "is_disabled": 0, "rental_uris": {"ios": "https://dc.lft.to/lastmile_qr_scan", "android": "https://dc.lft.to/lastmile_qr_scan"}}, {"name": "2bf7ee042dde192509eb6854e9828588", "lon": -77.13143583333333, "lat": 38.861708166666666, "type": "electric_bike", "fusion_lon": 0.0, "is_reserved": 0, "bike_id": "2bf7ee042dde192509eb6854e9828588", "fusion_lat": 0.0, "is_disabled": 0, "rental_uris": {"ios": "https://dc.lft.to/lastmile_qr_scan", "android": "https://dc.lft.to/lastmile_qr_scan"}}, {"name": "39e98f198a98e454e8e8039db2200810", "lon": -77.05499916666666, "lat": 38.936677, "type": "electric_scooter", "fusion_lon": 0.0, "is_reserved": 0, "bike_id": "39e98f198a98e454e8e8039db2200810", "fusion_lat": 0.0, "is_disabled": 0, "rental_uris": {"ios": "https://dc.lft.to/lastmile_qr_scan", "android": "https://dc.lft.to/lastmile_qr_scan"}}, {"name": "ad3dc936874b9ae6562a5decdcc61101", "lon": -77.00600766666666, "lat": 38.905615166666664, "type": "electric_scooter", "fusion_lon": 0.0, "is_reserved": 0, "bike_id": "ad3dc936874b9ae6562a5decdcc61101", "fusion_lat": 0.0, "is_disabled": 0, "rental_uris": {"ios": "https://dc.lft.to/lastmile_qr_scan", "android": "https://dc.lft.to/lastmile_qr_scan"}}, {"name": "397c3884a50766a2117ba3831bc25b77", "lon": -77.01914733333334, "lat": 38.923668166666666, "type": "electric_scooter", "fusion_lon": 0.0, "is_reserved": 0, "bike_id": "397c3884a50766a2117ba3831bc25b77", "fusion_lat": 0.0, "is_disabled": 0, "rental_uris": {"ios": "https://dc.lft.to/lastmile_qr_scan", "android": "https://dc.lft.to/lastmile_qr_scan"}}, {"name": "ee6d165ee07cabd5faa34dbb3ca38413", "lon": -77.117525, "lat": 39.049031, "type": "electric_bike", "fusion_lon": 0.0, "is_reserved": 0, "bike_id": "ee6d165ee07cabd5faa34dbb3ca38413", "fusion_lat": 0.0, "is_disabled": 0, "rental_uris": {"ios": "https://dc.lft.to/lastmile_qr_scan", "android": "https://dc.lft.to/lastmile_qr_scan"}}, {"name": "ad6d082eebb6bc029d569795a16398db", "lon": -76.9730865, "lat": 38.9199485, "type": "electric_scooter", "fusion_lon": 0.0, "is_reserved": 0, "bike_id": "ad6d082eebb6bc029d569795a16398db", "fusion_lat": 0.0, "is_disabled": 0, "rental_uris": {"ios": "https://dc.lft.to/lastmile_qr_scan", "android": "https://dc.lft.to/lastmile_qr_scan"}}, {"name": "3307b141c2a6fdf0882f26e14f0114a5", "lon": -77.0310505, "lat": 38.894586, "type": "electric_scooter", "fusion_lon": 0.0, "is_reserved": 0, "bike_id": "3307b141c2a6fdf0882f26e14f0114a5", "fusion_lat": 0.0, "is_disabled": 0, "rental_uris": {"ios": "https://dc.lft.to/lastmile_qr_scan", "android": "https://dc.lft.to/lastmile_qr_scan"}}, {"name": "4e77cd9027473a00fd8f65730bf5dc79", "lon": -77.04308166666667, "lat": 38.881044333333335, "type": "electric_scooter", "fusion_lon": 0.0, "is_reserved": 0, "bike_id": "4e77cd9027473a00fd8f65730bf5dc79", "fusion_lat": 0.0, "is_disabled": 0, "rental_uris": {"ios": "https://dc.lft.to/lastmile_qr_scan", "android": "https://dc.lft.to/lastmile_qr_scan"}}, {"name": "28c685d36a90a0dd133b642829dababc", "lon": -77.01166316666666, "lat": 38.91707683333333, "type": "electric_scooter", "fusion_lon": 0.0, "is_reserved": 0, "bike_id": "28c685d36a90a0dd133b642829dababc", "fusion_lat": 0.0, "is_disabled": 0, "rental_uris": {"ios": "https://dc.lft.to/lastmile_qr_scan", "android": "https://dc.lft.to/lastmile_qr_scan"}}, {"name": "327914a2400718e4f3e8d0c1ca28b22f", "lon": -77.0290615, "lat": 38.917258333333336, "type": "electric_scooter", "fusion_lon": 0.0, "is_reserved": 0, "bike_id": "327914a2400718e4f3e8d0c1ca28b22f", "fusion_lat": 0.0, "is_disabled": 0, "rental_uris": {"ios": "https://dc.lft.to/lastmile_qr_scan", "android": "https://dc.lft.to/lastmile_qr_scan"}}, {"name": "6b7bfd9ec9ddde9abc3a886f577ac787", "lon": -77.0304555, "lat": 38.8840485, "type": "electric_scooter", "fusion_lon": 0.0, "is_reserved": 0, "bike_id": "6b7bfd9ec9ddde9abc3a886f577ac787", "fusion_lat": 0.0, "is_disabled": 0, "rental_uris": {"ios": "https://dc.lft.to/lastmile_qr_scan", "android": "https://dc.lft.to/lastmile_qr_scan"}}, {"name": "f6bd07f3f735c28130324d29e9e7f35b", "lon": -77.02409233333333, "lat": 38.89648966666667, "type": "electric_scooter", "fusion_lon": 0.0, "is_reserved": 0, "bike_id": "f6bd07f3f735c28130324d29e9e7f35b", "fusion_lat": 0.0, "is_disabled": 0, "rental_uris": {"ios": "https://dc.lft.to/lastmile_qr_scan", "android": "https://dc.lft.to/lastmile_qr_scan"}}, {"name": "0b22fdee73606118e8d215c3bfa0cdea", "lon": -77.041668, "lat": 38.90589766666667, "type": "electric_scooter", "fusion_lon": 0.0, "is_reserved": 0, "bike_id": "0b22fdee73606118e8d215c3bfa0cdea", "fusion_lat": 0.0, "is_disabled": 0, "rental_uris": {"ios": "https://dc.lft.to/lastmile_qr_scan", "android": "https://dc.lft.to/lastmile_qr_scan"}}, {"name": "003be647a7cad5631987bbd2a740c3ca", "lon": -76.99560316666667, "lat": 38.86260083333333, "type": "electric_scooter", "fusion_lon": 0.0, "is_reserved": 0, "bike_id": "003be647a7cad5631987bbd2a740c3ca", "fusion_lat": 0.0, "is_disabled": 0, "rental_uris": {"ios": "https://dc.lft.to/lastmile_qr_scan", "android": "https://dc.lft.to/lastmile_qr_scan"}}, {"name": "957dc1c1ef564d3340e730fc021383b8", "lon": -77.03859116666666, "lat": 38.911764, "type": "electric_scooter", "fusion_lon": 0.0, "is_reserved": 0, "bike_id": "957dc1c1ef564d3340e730fc021383b8", "fusion_lat": 0.0, "is_disabled": 0, "rental_uris": {"ios": "https://dc.lft.to/lastmile_qr_scan", "android": "https://dc.lft.to/lastmile_qr_scan"}}, {"name": "a60faaac8e6a07f4749e7326dadcc7ae", "lon": -77.039109, "lat": 38.918328, "type": "electric_scooter", "fusion_lon": 0.0, "is_reserved": 0, "bike_id": "a60faaac8e6a07f4749e7326dadcc7ae", "fusion_lat": 0.0, "is_disabled": 0, "rental_uris": {"ios": "https://dc.lft.to/lastmile_qr_scan", "android": "https://dc.lft.to/lastmile_qr_scan"}}, {"name": "fac22ea316b327eb5139a88db281da72", "lon": -77.04694066666667, "lat": 38.92159766666666, "type": "electric_scooter", "fusion_lon": 0.0, "is_reserved": 0, "bike_id": "fac22ea316b327eb5139a88db281da72", "fusion_lat": 0.0, "is_disabled": 0, "rental_uris": {"ios": "https://dc.lft.to/lastmile_qr_scan", "android": "https://dc.lft.to/lastmile_qr_scan"}}, {"name": "25ce211a835d44114c6fb363182bbd11", "lon": -77.022572, "lat": 38.923089166666664, "type": "electric_scooter", "fusion_lon": 0.0, "is_reserved": 0, "bike_id": "25ce211a835d44114c6fb363182bbd11", "fusion_lat": 0.0, "is_disabled": 0, "rental_uris": {"ios": "https://dc.lft.to/lastmile_qr_scan", "android": "https://dc.lft.to/lastmile_qr_scan"}}, {"name": "510cba41ba5fe0006989fce193eee1b9", "lon": -76.9977945, "lat": 38.844347166666665, "type": "electric_scooter", "fusion_lon": 0.0, "is_reserved": 0, "bike_id": "510cba41ba5fe0006989fce193eee1b9", "fusion_lat": 0.0, "is_disabled": 0, "rental_uris": {"ios": "https://dc.lft.to/lastmile_qr_scan", "android": "https://dc.lft.to/lastmile_qr_scan"}}, {"name": "d22d4486a2a78330ecd595a2a22df101", "lon": -76.98307383333334, "lat": 38.868923, "type": "electric_scooter", "fusion_lon": 0.0, "is_reserved": 0, "bike_id": "d22d4486a2a78330ecd595a2a22df101", "fusion_lat": 0.0, "is_disabled": 0, "rental_uris": {"ios": "https://dc.lft.to/lastmile_qr_scan", "android": "https://dc.lft.to/lastmile_qr_scan"}}, {"name": "0fcfb994604542caf988e522fbda6c3a", "lon": -77.028121, "lat": 38.881850166666666, "type": "electric_scooter", "fusion_lon": 0.0, "is_reserved": 0, "bike_id": "0fcfb994604542caf988e522fbda6c3a", "fusion_lat": 0.0, "is_disabled": 0, "rental_uris": {"ios": "https://dc.lft.to/lastmile_qr_scan", "android": "https://dc.lft.to/lastmile_qr_scan"}}, {"name": "c4b9ce027b8000a40b2aaf14e4872343", "lon": -77.00484716666666, "lat": 38.8747665, "type": "electric_scooter", "fusion_lon": 0.0, "is_reserved": 0, "bike_id": "c4b9ce027b8000a40b2aaf14e4872343", "fusion_lat": 0.0, "is_disabled": 0, "rental_uris": {"ios": "https://dc.lft.to/lastmile_qr_scan", "android": "https://dc.lft.to/lastmile_qr_scan"}}, {"name": "dd7fddf1fcc296aaae5b33ae008c2f17", "lon": -77.021868, "lat": 38.91569, "type": "electric_scooter", "fusion_lon": 0.0, "is_reserved": 0, "bike_id": "dd7fddf1fcc296aaae5b33ae008c2f17", "fusion_lat": 0.0, "is_disabled": 0, "rental_uris": {"ios": "https://dc.lft.to/lastmile_qr_scan", "android": "https://dc.lft.to/lastmile_qr_scan"}}, {"name": "45353ad440f0105a18667e091657cd99", "lon": -77.02767, "lat": 38.954235, "type": "electric_scooter", "fusion_lon": 0.0, "is_reserved": 0, "bike_id": "45353ad440f0105a18667e091657cd99", "fusion_lat": 0.0, "is_disabled": 0, "rental_uris": {"ios": "https://dc.lft.to/lastmile_qr_scan", "android": "https://dc.lft.to/lastmile_qr_scan"}}, {"name": "56f34af23f74698aacc47e409d7d15b6", "lon": -76.9336235, "lat": 38.8989105, "type": "electric_scooter", "fusion_lon": 0.0, "is_reserved": 0, "bike_id": "56f34af23f74698aacc47e409d7d15b6", "fusion_lat": 0.0, "is_disabled": 0, "rental_uris": {"ios": "https://dc.lft.to/lastmile_qr_scan", "android": "https://dc.lft.to/lastmile_qr_scan"}}, {"name": "b0e5fc60dd116029389f869a15f955c4", "lon": -77.03194816666667, "lat": 38.91342516666667, "type": "electric_scooter", "fusion_lon": 0.0, "is_reserved": 0, "bike_id": "b0e5fc60dd116029389f869a15f955c4", "fusion_lat": 0.0, "is_disabled": 0, "rental_uris": {"ios": "https://dc.lft.to/lastmile_qr_scan", "android": "https://dc.lft.to/lastmile_qr_scan"}}, {"name": "c1022599020e5d2a8071765a9e4a178a", "lon": -76.996192, "lat": 38.900192833333335, "type": "electric_scooter", "fusion_lon": 0.0, "is_reserved": 0, "bike_id": "c1022599020e5d2a8071765a9e4a178a", "fusion_lat": 0.0, "is_disabled": 0, "rental_uris": {"ios": "https://dc.lft.to/lastmile_qr_scan", "android": "https://dc.lft.to/lastmile_qr_scan"}}, {"name": "52197d4d4aee58b826d173b6b14ec3ad", "lon": -77.0684915, "lat": 38.95280316666667, "type": "electric_scooter", "fusion_lon": 0.0, "is_reserved": 0, "bike_id": "52197d4d4aee58b826d173b6b14ec3ad", "fusion_lat": 0.0, "is_disabled": 0, "rental_uris": {"ios": "https://dc.lft.to/lastmile_qr_scan", "android": "https://dc.lft.to/lastmile_qr_scan"}}, {"name": "bf86f074cdffd44a3ce6f3c8263e9e3f", "lon": -76.9772995, "lat": 38.895200833333334, "type": "electric_scooter", "fusion_lon": 0.0, "is_reserved": 0, "bike_id": "bf86f074cdffd44a3ce6f3c8263e9e3f", "fusion_lat": 0.0, "is_disabled": 0, "rental_uris": {"ios": "https://dc.lft.to/lastmile_qr_scan", "android": "https://dc.lft.to/lastmile_qr_scan"}}, {"name": "ea86f026f54146d0a8c97591fc7b4e07", "lon": -77.04182183333333, "lat": 38.89224133333333, "type": "electric_scooter", "fusion_lon": 0.0, "is_reserved": 0, "bike_id": "ea86f026f54146d0a8c97591fc7b4e07", "fusion_lat": 0.0, "is_disabled": 0, "rental_uris": {"ios": "https://dc.lft.to/lastmile_qr_scan", "android": "https://dc.lft.to/lastmile_qr_scan"}}, {"name": "96b2c64922100a9e605d6f47b199dfbb", "lon": -77.04454, "lat": 38.93014266666667, "type": "electric_scooter", "fusion_lon": 0.0, "is_reserved": 0, "bike_id": "96b2c64922100a9e605d6f47b199dfbb", "fusion_lat": 0.0, "is_disabled": 0, "rental_uris": {"ios": "https://dc.lft.to/lastmile_qr_scan", "android": "https://dc.lft.to/lastmile_qr_scan"}}, {"name": "70eb25c8d1efaed56339a47af898d6b8", "lon": -77.04368066666666, "lat": 38.90810833333333, "type": "electric_scooter", "fusion_lon": 0.0, "is_reserved": 0, "bike_id": "70eb25c8d1efaed56339a47af898d6b8", "fusion_lat": 0.0, "is_disabled": 0, "rental_uris": {"ios": "https://dc.lft.to/lastmile_qr_scan", "android": "https://dc.lft.to/lastmile_qr_scan"}}, {"name": "646109498e28708b8dce02514b68b955", "lon": -77.035457, "lat": 38.924183666666664, "type": "electric_scooter", "fusion_lon": 0.0, "is_reserved": 0, "bike_id": "646109498e28708b8dce02514b68b955", "fusion_lat": 0.0, "is_disabled": 0, "rental_uris": {"ios": "https://dc.lft.to/lastmile_qr_scan", "android": "https://dc.lft.to/lastmile_qr_scan"}}, {"name": "76ca645b9f92d11f355b5107ee7be099", "lon": -77.03853883333333, "lat": 38.917777666666666, "type": "electric_scooter", "fusion_lon": 0.0, "is_reserved": 0, "bike_id": "76ca645b9f92d11f355b5107ee7be099", "fusion_lat": 0.0, "is_disabled": 0, "rental_uris": {"ios": "https://dc.lft.to/lastmile_qr_scan", "android": "https://dc.lft.to/lastmile_qr_scan"}}, {"name": "b7111faa20de6d3fcd8f4e64725a90e5", "lon": -77.03493016666667, "lat": 38.93263866666667, "type": "electric_scooter", "fusion_lon": 0.0, "is_reserved": 0, "bike_id": "b7111faa20de6d3fcd8f4e64725a90e5", "fusion_lat": 0.0, "is_disabled": 0, "rental_uris": {"ios": "https://dc.lft.to/lastmile_qr_scan", "android": "https://dc.lft.to/lastmile_qr_scan"}}, {"name": "cb461489e2a958d4f258b62aa7bfdb04", "lon": -77.022993, "lat": 38.915560666666664, "type": "electric_scooter", "fusion_lon": 0.0, "is_reserved": 0, "bike_id": "cb461489e2a958d4f258b62aa7bfdb04", "fusion_lat": 0.0, "is_disabled": 0, "rental_uris": {"ios": "https://dc.lft.to/lastmile_qr_scan", "android": "https://dc.lft.to/lastmile_qr_scan"}}, {"name": "0f9ceb8a74bed5d7e006634b02395e51", "lon": -77.04241383333333, "lat": 38.906440833333335, "type": "electric_scooter", "fusion_lon": 0.0, "is_reserved": 0, "bike_id": "0f9ceb8a74bed5d7e006634b02395e51", "fusion_lat": 0.0, "is_disabled": 0, "rental_uris": {"ios": "https://dc.lft.to/lastmile_qr_scan", "android": "https://dc.lft.to/lastmile_qr_scan"}}, {"name": "20ec27702cb5da94913d287b1b0e54cb", "lon": -77.04480933333333, "lat": 38.912517333333334, "type": "electric_scooter", "fusion_lon": 0.0, "is_reserved": 0, "bike_id": "20ec27702cb5da94913d287b1b0e54cb", "fusion_lat": 0.0, "is_disabled": 0, "rental_uris": {"ios": "https://dc.lft.to/lastmile_qr_scan", "android": "https://dc.lft.to/lastmile_qr_scan"}}, {"name": "ef5e5c255156c0d4b3276172313255a5", "lon": -77.033489, "lat": 38.89956733333333, "type": "electric_scooter", "fusion_lon": 0.0, "is_reserved": 0, "bike_id": "ef5e5c255156c0d4b3276172313255a5", "fusion_lat": 0.0, "is_disabled": 0, "rental_uris": {"ios": "https://dc.lft.to/lastmile_qr_scan", "android": "https://dc.lft.to/lastmile_qr_scan"}}, {"name": "50510936c25631794f5646298e5a817c", "lon": -77.02744466666667, "lat": 38.9240515, "type": "electric_scooter", "fusion_lon": 0.0, "is_reserved": 0, "bike_id": "50510936c25631794f5646298e5a817c", "fusion_lat": 0.0, "is_disabled": 0, "rental_uris": {"ios": "https://dc.lft.to/lastmile_qr_scan", "android": "https://dc.lft.to/lastmile_qr_scan"}}, {"name": "bfb9b0ce2d187f7ecda5be2f6542563d", "lon": -77.05423466666667, "lat": 38.92361866666667, "type": "electric_scooter", "fusion_lon": 0.0, "is_reserved": 0, "bike_id": "bfb9b0ce2d187f7ecda5be2f6542563d", "fusion_lat": 0.0, "is_disabled": 0, "rental_uris": {"ios": "https://dc.lft.to/lastmile_qr_scan", "android": "https://dc.lft.to/lastmile_qr_scan"}}, {"name": "c02e7a6bb3c162b6d6a7de4757803c30", "lon": -77.0391585, "lat": 38.92315383333333, "type": "electric_scooter", "fusion_lon": 0.0, "is_reserved": 0, "bike_id": "c02e7a6bb3c162b6d6a7de4757803c30", "fusion_lat": 0.0, "is_disabled": 0, "rental_uris": {"ios": "https://dc.lft.to/lastmile_qr_scan", "android": "https://dc.lft.to/lastmile_qr_scan"}}, {"name": "9f7602566b85aa55cfca3dde6a5b37a4", "lon": -77.03852233333333, "lat": 38.86750266666667, "type": "electric_scooter", "fusion_lon": 0.0, "is_reserved": 0, "bike_id": "9f7602566b85aa55cfca3dde6a5b37a4", "fusion_lat": 0.0, "is_disabled": 0, "rental_uris": {"ios": "https://dc.lft.to/lastmile_qr_scan", "android": "https://dc.lft.to/lastmile_qr_scan"}}, {"name": "c5e79987e601830fa8890aeb08998d63", "lon": -76.96060683333333, "lat": 38.884055833333335, "type": "electric_bike", "fusion_lon": 0.0, "is_reserved": 0, "bike_id": "c5e79987e601830fa8890aeb08998d63", "fusion_lat": 0.0, "is_disabled": 0, "rental_uris": {"ios": "https://dc.lft.to/lastmile_qr_scan", "android": "https://dc.lft.to/lastmile_qr_scan"}}, {"name": "fbd64ec76ab66fe0750585f36cdc5038", "lon": -77.05518183333334, "lat": 38.92826816666667, "type": "electric_scooter", "fusion_lon": 0.0, "is_reserved": 0, "bike_id": "fbd64ec76ab66fe0750585f36cdc5038", "fusion_lat": 0.0, "is_disabled": 0, "rental_uris": {"ios": "https://dc.lft.to/lastmile_qr_scan", "android": "https://dc.lft.to/lastmile_qr_scan"}}, {"name": "df0cd477100fca42fd4c6d82eeebdf5a", "lon": -76.98869316666666, "lat": 38.954849333333335, "type": "electric_bike", "fusion_lon": 0.0, "is_reserved": 0, "bike_id": "df0cd477100fca42fd4c6d82eeebdf5a", "fusion_lat": 0.0, "is_disabled": 0, "rental_uris": {"ios": "https://dc.lft.to/lastmile_qr_scan", "android": "https://dc.lft.to/lastmile_qr_scan"}}, {"name": "4159c300196d37b0e5f577d888a1d5ef", "lon": -76.993341, "lat": 38.871456, "type": "electric_scooter", "fusion_lon": 0.0, "is_reserved": 0, "bike_id": "4159c300196d37b0e5f577d888a1d5ef", "fusion_lat": 0.0, "is_disabled": 0, "rental_uris": {"ios": "https://dc.lft.to/lastmile_qr_scan", "android": "https://dc.lft.to/lastmile_qr_scan"}}, {"name": "36d944b66f5d8f1299b08a354665f9fd", "lon": -77.0220275, "lat": 38.910524833333334, "type": "electric_scooter", "fusion_lon": 0.0, "is_reserved": 0, "bike_id": "36d944b66f5d8f1299b08a354665f9fd", "fusion_lat": 0.0, "is_disabled": 0, "rental_uris": {"ios": "https://dc.lft.to/lastmile_qr_scan", "android": "https://dc.lft.to/lastmile_qr_scan"}}, {"name": "6f2c970f965750affc5c2df03d4aaf83", "lon": -77.03261833333333, "lat": 38.93540316666667, "type": "electric_scooter", "fusion_lon": 0.0, "is_reserved": 0, "bike_id": "6f2c970f965750affc5c2df03d4aaf83", "fusion_lat": 0.0, "is_disabled": 0, "rental_uris": {"ios": "https://dc.lft.to/lastmile_qr_scan", "android": "https://dc.lft.to/lastmile_qr_scan"}}, {"name": "5baa0b233d8dada48ad50fbde1ee4762", "lon": -76.94797383333334, "lat": 38.89405433333334, "type": "electric_bike", "fusion_lon": 0.0, "is_reserved": 0, "bike_id": "5baa0b233d8dada48ad50fbde1ee4762", "fusion_lat": 0.0, "is_disabled": 0, "rental_uris": {"ios": "https://dc.lft.to/lastmile_qr_scan", "android": "https://dc.lft.to/lastmile_qr_scan"}}, {"name": "9eca4ef39b9bcea87505f09d4e6b637b", "lon": -77.01912583333333, "lat": 38.915025666666665, "type": "electric_scooter", "fusion_lon": 0.0, "is_reserved": 0, "bike_id": "9eca4ef39b9bcea87505f09d4e6b637b", "fusion_lat": 0.0, "is_disabled": 0, "rental_uris": {"ios": "https://dc.lft.to/lastmile_qr_scan", "android": "https://dc.lft.to/lastmile_qr_scan"}}, {"name": "e08697b168b596411953ad0fcb58188f", "lon": -76.929162, "lat": 38.89298216666667, "type": "electric_scooter", "fusion_lon": 0.0, "is_reserved": 0, "bike_id": "e08697b168b596411953ad0fcb58188f", "fusion_lat": 0.0, "is_disabled": 0, "rental_uris": {"ios": "https://dc.lft.to/lastmile_qr_scan", "android": "https://dc.lft.to/lastmile_qr_scan"}}, {"name": "508b0c78ee3a748f3da946f1b3e45d70", "lon": -76.97825366666666, "lat": 38.8707945, "type": "electric_bike", "fusion_lon": 0.0, "is_reserved": 0, "bike_id": "508b0c78ee3a748f3da946f1b3e45d70", "fusion_lat": 0.0, "is_disabled": 0, "rental_uris": {"ios": "https://dc.lft.to/lastmile_qr_scan", "android": "https://dc.lft.to/lastmile_qr_scan"}}, {"name": "e0d3e23057daca71de6b0bf21a387e02", "lon": -77.02919833333333, "lat": 38.89832583333333, "type": "electric_scooter", "fusion_lon": 0.0, "is_reserved": 0, "bike_id": "e0d3e23057daca71de6b0bf21a387e02", "fusion_lat": 0.0, "is_disabled": 0, "rental_uris": {"ios": "https://dc.lft.to/lastmile_qr_scan", "android": "https://dc.lft.to/lastmile_qr_scan"}}, {"name": "44ba1b4ca5ffeedef96e7343d16c47df", "lon": -77.01349166666667, "lat": 38.89913083333333, "type": "electric_scooter", "fusion_lon": 0.0, "is_reserved": 0, "bike_id": "44ba1b4ca5ffeedef96e7343d16c47df", "fusion_lat": 0.0, "is_disabled": 0, "rental_uris": {"ios": "https://dc.lft.to/lastmile_qr_scan", "android": "https://dc.lft.to/lastmile_qr_scan"}}, {"name": "93dba4e79a5ff3b8799f30ffcab0d71b", "lon": -77.00798283333333, "lat": 38.897208166666665, "type": "electric_scooter", "fusion_lon": 0.0, "is_reserved": 0, "bike_id": "93dba4e79a5ff3b8799f30ffcab0d71b", "fusion_lat": 0.0, "is_disabled": 0, "rental_uris": {"ios": "https://dc.lft.to/lastmile_qr_scan", "android": "https://dc.lft.to/lastmile_qr_scan"}}, {"name": "2357bf6fe3fd79d1f195f4abc1de2755", "lon": -77.043746, "lat": 38.911184666666664, "type": "electric_scooter", "fusion_lon": 0.0, "is_reserved": 0, "bike_id": "2357bf6fe3fd79d1f195f4abc1de2755", "fusion_lat": 0.0, "is_disabled": 0, "rental_uris": {"ios": "https://dc.lft.to/lastmile_qr_scan", "android": "https://dc.lft.to/lastmile_qr_scan"}}, {"name": "465048a14c01ba2e44e31b69c65daceb", "lon": -77.02385683333334, "lat": 38.892523, "type": "electric_scooter", "fusion_lon": 0.0, "is_reserved": 0, "bike_id": "465048a14c01ba2e44e31b69c65daceb", "fusion_lat": 0.0, "is_disabled": 0, "rental_uris": {"ios": "https://dc.lft.to/lastmile_qr_scan", "android": "https://dc.lft.to/lastmile_qr_scan"}}, {"name": "fd43373a12c317142b998c2ed15f4923", "lon": -77.02277216666667, "lat": 38.91650533333333, "type": "electric_scooter", "fusion_lon": 0.0, "is_reserved": 0, "bike_id": "fd43373a12c317142b998c2ed15f4923", "fusion_lat": 0.0, "is_disabled": 0, "rental_uris": {"ios": "https://dc.lft.to/lastmile_qr_scan", "android": "https://dc.lft.to/lastmile_qr_scan"}}, {"name": "678c1d4196cfc785d1f7908e6d945152", "lon": -77.04574316666667, "lat": 38.91761283333334, "type": "electric_scooter", "fusion_lon": 0.0, "is_reserved": 0, "bike_id": "678c1d4196cfc785d1f7908e6d945152", "fusion_lat": 0.0, "is_disabled": 0, "rental_uris": {"ios": "https://dc.lft.to/lastmile_qr_scan", "android": "https://dc.lft.to/lastmile_qr_scan"}}, {"name": "0c886472183fa415ec0e62def32c89c8", "lon": -77.02467383333334, "lat": 38.93300833333333, "type": "electric_scooter", "fusion_lon": 0.0, "is_reserved": 0, "bike_id": "0c886472183fa415ec0e62def32c89c8", "fusion_lat": 0.0, "is_disabled": 0, "rental_uris": {"ios": "https://dc.lft.to/lastmile_qr_scan", "android": "https://dc.lft.to/lastmile_qr_scan"}}, {"name": "049c5ef0ba0ade6f82c6ab4cf89e335d", "lon": -77.081784, "lat": 38.9354745, "type": "electric_scooter", "fusion_lon": 0.0, "is_reserved": 0, "bike_id": "049c5ef0ba0ade6f82c6ab4cf89e335d", "fusion_lat": 0.0, "is_disabled": 0, "rental_uris": {"ios": "https://dc.lft.to/lastmile_qr_scan", "android": "https://dc.lft.to/lastmile_qr_scan"}}, {"name": "a28dd5dae405be13800ce94cbb3857bb", "lon": -77.02385716666667, "lat": 38.90717133333333, "type": "electric_scooter", "fusion_lon": 0.0, "is_reserved": 0, "bike_id": "a28dd5dae405be13800ce94cbb3857bb", "fusion_lat": 0.0, "is_disabled": 0, "rental_uris": {"ios": "https://dc.lft.to/lastmile_qr_scan", "android": "https://dc.lft.to/lastmile_qr_scan"}}, {"name": "9705d743efe2d8eb878b882338672f21", "lon": -77.01534766666667, "lat": 38.88748266666666, "type": "electric_scooter", "fusion_lon": 0.0, "is_reserved": 0, "bike_id": "9705d743efe2d8eb878b882338672f21", "fusion_lat": 0.0, "is_disabled": 0, "rental_uris": {"ios": "https://dc.lft.to/lastmile_qr_scan", "android": "https://dc.lft.to/lastmile_qr_scan"}}, {"name": "01066be7a800aa18a5cf9c9b146c72dc", "lon": -77.02391016666667, "lat": 38.919970666666664, "type": "electric_scooter", "fusion_lon": 0.0, "is_reserved": 0, "bike_id": "01066be7a800aa18a5cf9c9b146c72dc", "fusion_lat": 0.0, "is_disabled": 0, "rental_uris": {"ios": "https://dc.lft.to/lastmile_qr_scan", "android": "https://dc.lft.to/lastmile_qr_scan"}}, {"name": "06c17be14589c0739c75dd86a25b7b2c", "lon": -77.03174166666666, "lat": 38.89991466666667, "type": "electric_scooter", "fusion_lon": 0.0, "is_reserved": 0, "bike_id": "06c17be14589c0739c75dd86a25b7b2c", "fusion_lat": 0.0, "is_disabled": 0, "rental_uris": {"ios": "https://dc.lft.to/lastmile_qr_scan", "android": "https://dc.lft.to/lastmile_qr_scan"}}, {"name": "46289e2afb20557cefc2bdf880cc4c34", "lon": -77.0406895, "lat": 38.9027515, "type": "electric_scooter", "fusion_lon": 0.0, "is_reserved": 0, "bike_id": "46289e2afb20557cefc2bdf880cc4c34", "fusion_lat": 0.0, "is_disabled": 0, "rental_uris": {"ios": "https://dc.lft.to/lastmile_qr_scan", "android": "https://dc.lft.to/lastmile_qr_scan"}}, {"name": "d439b692fb01ca5973312faa33b92f6f", "lon": -77.0336855, "lat": 38.932165499999996, "type": "electric_scooter", "fusion_lon": 0.0, "is_reserved": 0, "bike_id": "d439b692fb01ca5973312faa33b92f6f", "fusion_lat": 0.0, "is_disabled": 0, "rental_uris": {"ios": "https://dc.lft.to/lastmile_qr_scan", "android": "https://dc.lft.to/lastmile_qr_scan"}}, {"name": "7969b8cb1c6c46ef66466e4ab02b1135", "lon": -77.09468816666667, "lat": 39.03057416666667, "type": "electric_bike", "fusion_lon": 0.0, "is_reserved": 0, "bike_id": "7969b8cb1c6c46ef66466e4ab02b1135", "fusion_lat": 0.0, "is_disabled": 0, "rental_uris": {"ios": "https://dc.lft.to/lastmile_qr_scan", "android": "https://dc.lft.to/lastmile_qr_scan"}}, {"name": "55c3c1615fd167e14abe9d81174ce877", "lon": -77.0229415, "lat": 38.9366935, "type": "electric_scooter", "fusion_lon": 0.0, "is_reserved": 0, "bike_id": "55c3c1615fd167e14abe9d81174ce877", "fusion_lat": 0.0, "is_disabled": 0, "rental_uris": {"ios": "https://dc.lft.to/lastmile_qr_scan", "android": "https://dc.lft.to/lastmile_qr_scan"}}, {"name": "a997c50aae01440773019587ddbb9b75", "lon": -77.02748316666667, "lat": 38.951703, "type": "electric_scooter", "fusion_lon": 0.0, "is_reserved": 0, "bike_id": "a997c50aae01440773019587ddbb9b75", "fusion_lat": 0.0, "is_disabled": 0, "rental_uris": {"ios": "https://dc.lft.to/lastmile_qr_scan", "android": "https://dc.lft.to/lastmile_qr_scan"}}, {"name": "b0ad9350d490b12f858b0b7d4b1e846d", "lon": -77.025191, "lat": 38.93863183333333, "type": "electric_scooter", "fusion_lon": 0.0, "is_reserved": 0, "bike_id": "b0ad9350d490b12f858b0b7d4b1e846d", "fusion_lat": 0.0, "is_disabled": 0, "rental_uris": {"ios": "https://dc.lft.to/lastmile_qr_scan", "android": "https://dc.lft.to/lastmile_qr_scan"}}, {"name": "57ce350abaac748faea05d6886596c4c", "lon": -77.02660383333334, "lat": 38.896244, "type": "electric_scooter", "fusion_lon": 0.0, "is_reserved": 0, "bike_id": "57ce350abaac748faea05d6886596c4c", "fusion_lat": 0.0, "is_disabled": 0, "rental_uris": {"ios": "https://dc.lft.to/lastmile_qr_scan", "android": "https://dc.lft.to/lastmile_qr_scan"}}, {"name": "8c9db44939dc64307780bda8eef222a4", "lon": -76.989977, "lat": 38.92441566666667, "type": "electric_scooter", "fusion_lon": 0.0, "is_reserved": 0, "bike_id": "8c9db44939dc64307780bda8eef222a4", "fusion_lat": 0.0, "is_disabled": 0, "rental_uris": {"ios": "https://dc.lft.to/lastmile_qr_scan", "android": "https://dc.lft.to/lastmile_qr_scan"}}, {"name": "51dd0464016bbcdb28b9a89b54ef3486", "lon": -76.9473285, "lat": 38.8968015, "type": "electric_scooter", "fusion_lon": 0.0, "is_reserved": 0, "bike_id": "51dd0464016bbcdb28b9a89b54ef3486", "fusion_lat": 0.0, "is_disabled": 0, "rental_uris": {"ios": "https://dc.lft.to/lastmile_qr_scan", "android": "https://dc.lft.to/lastmile_qr_scan"}}, {"name": "ba7ad659be73fdb90f7d2c43955a49fb", "lon": -77.01859666666667, "lat": 38.900781333333335, "type": "electric_scooter", "fusion_lon": 0.0, "is_reserved": 0, "bike_id": "ba7ad659be73fdb90f7d2c43955a49fb", "fusion_lat": 0.0, "is_disabled": 0, "rental_uris": {"ios": "https://dc.lft.to/lastmile_qr_scan", "android": "https://dc.lft.to/lastmile_qr_scan"}}, {"name": "13475cd22b3fac39cfd6352b17bdd90b", "lon": -77.13106833333333, "lat": 39.024343, "type": "electric_bike", "fusion_lon": 0.0, "is_reserved": 0, "bike_id": "13475cd22b3fac39cfd6352b17bdd90b", "fusion_lat": 0.0, "is_disabled": 0, "rental_uris": {"ios": "https://dc.lft.to/lastmile_qr_scan", "android": "https://dc.lft.to/lastmile_qr_scan"}}, {"name": "eca28db49f495c5aaade938d3b3df0aa", "lon": -77.06070066666666, "lat": 38.88581033333333, "type": "electric_bike", "fusion_lon": 0.0, "is_reserved": 0, "bike_id": "eca28db49f495c5aaade938d3b3df0aa", "fusion_lat": 0.0, "is_disabled": 0, "rental_uris": {"ios": "https://dc.lft.to/lastmile_qr_scan", "android": "https://dc.lft.to/lastmile_qr_scan"}}, {"name": "83e908f259c3bfdc8f971072fd123a94", "lon": -77.04853633333333, "lat": 38.90974333333333, "type": "electric_scooter", "fusion_lon": 0.0, "is_reserved": 0, "bike_id": "83e908f259c3bfdc8f971072fd123a94", "fusion_lat": 0.0, "is_disabled": 0, "rental_uris": {"ios": "https://dc.lft.to/lastmile_qr_scan", "android": "https://dc.lft.to/lastmile_qr_scan"}}, {"name": "4307b3b25e0ead2a7f99f8aaf9c55439", "lon": -77.02716633333333, "lat": 38.90264966666667, "type": "electric_scooter", "fusion_lon": 0.0, "is_reserved": 0, "bike_id": "4307b3b25e0ead2a7f99f8aaf9c55439", "fusion_lat": 0.0, "is_disabled": 0, "rental_uris": {"ios": "https://dc.lft.to/lastmile_qr_scan", "android": "https://dc.lft.to/lastmile_qr_scan"}}, {"name": "1de671ef979d2899c9c42b5631436727", "lon": -76.99609516666666, "lat": 38.886393166666664, "type": "electric_scooter", "fusion_lon": 0.0, "is_reserved": 0, "bike_id": "1de671ef979d2899c9c42b5631436727", "fusion_lat": 0.0, "is_disabled": 0, "rental_uris": {"ios": "https://dc.lft.to/lastmile_qr_scan", "android": "https://dc.lft.to/lastmile_qr_scan"}}, {"name": "250c430d35fb739f29308de3e9127ba5", "lon": -77.043926, "lat": 38.90121833333333, "type": "electric_scooter", "fusion_lon": 0.0, "is_reserved": 0, "bike_id": "250c430d35fb739f29308de3e9127ba5", "fusion_lat": 0.0, "is_disabled": 0, "rental_uris": {"ios": "https://dc.lft.to/lastmile_qr_scan", "android": "https://dc.lft.to/lastmile_qr_scan"}}, {"name": "5458ceb38ab336070011ba8fcd6d2c2c", "lon": -77.03268233333333, "lat": 38.92179816666667, "type": "electric_scooter", "fusion_lon": 0.0, "is_reserved": 0, "bike_id": "5458ceb38ab336070011ba8fcd6d2c2c", "fusion_lat": 0.0, "is_disabled": 0, "rental_uris": {"ios": "https://dc.lft.to/lastmile_qr_scan", "android": "https://dc.lft.to/lastmile_qr_scan"}}, {"name": "f4dc552fa36af83fc546e86b4d0de5f1", "lon": -77.00330533333333, "lat": 38.89963216666666, "type": "electric_scooter", "fusion_lon": 0.0, "is_reserved": 0, "bike_id": "f4dc552fa36af83fc546e86b4d0de5f1", "fusion_lat": 0.0, "is_disabled": 0, "rental_uris": {"ios": "https://dc.lft.to/lastmile_qr_scan", "android": "https://dc.lft.to/lastmile_qr_scan"}}, {"name": "825277e54e19d3b06c92650fc6590c57", "lon": -76.98302916666667, "lat": 38.905285, "type": "electric_scooter", "fusion_lon": 0.0, "is_reserved": 0, "bike_id": "825277e54e19d3b06c92650fc6590c57", "fusion_lat": 0.0, "is_disabled": 0, "rental_uris": {"ios": "https://dc.lft.to/lastmile_qr_scan", "android": "https://dc.lft.to/lastmile_qr_scan"}}, {"name": "3470de6eedb73d3cf5882a7622d9f88d", "lon": -77.02573283333334, "lat": 38.92040766666667, "type": "electric_scooter", "fusion_lon": 0.0, "is_reserved": 0, "bike_id": "3470de6eedb73d3cf5882a7622d9f88d", "fusion_lat": 0.0, "is_disabled": 0, "rental_uris": {"ios": "https://dc.lft.to/lastmile_qr_scan", "android": "https://dc.lft.to/lastmile_qr_scan"}}, {"name": "d8e97470990b1d2529a77fcef109319b", "lon": -77.02872416666666, "lat": 38.939805166666666, "type": "electric_scooter", "fusion_lon": 0.0, "is_reserved": 0, "bike_id": "d8e97470990b1d2529a77fcef109319b", "fusion_lat": 0.0, "is_disabled": 0, "rental_uris": {"ios": "https://dc.lft.to/lastmile_qr_scan", "android": "https://dc.lft.to/lastmile_qr_scan"}}, {"name": "3eed5676eb1e506c8fefbb9a3103c210", "lon": -77.023084, "lat": 38.928429333333334, "type": "electric_scooter", "fusion_lon": 0.0, "is_reserved": 0, "bike_id": "3eed5676eb1e506c8fefbb9a3103c210", "fusion_lat": 0.0, "is_disabled": 0, "rental_uris": {"ios": "https://dc.lft.to/lastmile_qr_scan", "android": "https://dc.lft.to/lastmile_qr_scan"}}, {"name": "4244e7b5e94a22ecbccfa4015d9dd0a3", "lon": -77.02780633333333, "lat": 38.89708733333333, "type": "electric_scooter", "fusion_lon": 0.0, "is_reserved": 0, "bike_id": "4244e7b5e94a22ecbccfa4015d9dd0a3", "fusion_lat": 0.0, "is_disabled": 0, "rental_uris": {"ios": "https://dc.lft.to/lastmile_qr_scan", "android": "https://dc.lft.to/lastmile_qr_scan"}}, {"name": "b3dd116cacb43fc9f95972e8d1f11659", "lon": -76.938855, "lat": 38.9563625, "type": "electric_bike", "fusion_lon": 0.0, "is_reserved": 0, "bike_id": "b3dd116cacb43fc9f95972e8d1f11659", "fusion_lat": 0.0, "is_disabled": 0, "rental_uris": {"ios": "https://dc.lft.to/lastmile_qr_scan", "android": "https://dc.lft.to/lastmile_qr_scan"}}, {"name": "cf9f5188c206b7fd5c73ea2b0ea81349", "lon": -77.04570116666666, "lat": 38.91471466666667, "type": "electric_scooter", "fusion_lon": 0.0, "is_reserved": 0, "bike_id": "cf9f5188c206b7fd5c73ea2b0ea81349", "fusion_lat": 0.0, "is_disabled": 0, "rental_uris": {"ios": "https://dc.lft.to/lastmile_qr_scan", "android": "https://dc.lft.to/lastmile_qr_scan"}}, {"name": "843c7afc37f77c1c6057ab91d9e8c648", "lon": -77.04639983333334, "lat": 38.919259833333335, "type": "electric_scooter", "fusion_lon": 0.0, "is_reserved": 0, "bike_id": "843c7afc37f77c1c6057ab91d9e8c648", "fusion_lat": 0.0, "is_disabled": 0, "rental_uris": {"ios": "https://dc.lft.to/lastmile_qr_scan", "android": "https://dc.lft.to/lastmile_qr_scan"}}, {"name": "5eafe02f20a03a378ed782865db87694", "lon": -77.00381083333333, "lat": 38.8360925, "type": "electric_bike", "fusion_lon": 0.0, "is_reserved": 0, "bike_id": "5eafe02f20a03a378ed782865db87694", "fusion_lat": 0.0, "is_disabled": 0, "rental_uris": {"ios": "https://dc.lft.to/lastmile_qr_scan", "android": "https://dc.lft.to/lastmile_qr_scan"}}, {"name": "f56cae6367938885fa1a9cff947caad4", "lon": -77.02448, "lat": 38.93412416666666, "type": "electric_scooter", "fusion_lon": 0.0, "is_reserved": 0, "bike_id": "f56cae6367938885fa1a9cff947caad4", "fusion_lat": 0.0, "is_disabled": 0, "rental_uris": {"ios": "https://dc.lft.to/lastmile_qr_scan", "android": "https://dc.lft.to/lastmile_qr_scan"}}, {"name": "d6286616b80664951a711112899c1885", "lon": -77.0140195, "lat": 38.88126066666667, "type": "electric_scooter", "fusion_lon": 0.0, "is_reserved": 0, "bike_id": "d6286616b80664951a711112899c1885", "fusion_lat": 0.0, "is_disabled": 0, "rental_uris": {"ios": "https://dc.lft.to/lastmile_qr_scan", "android": "https://dc.lft.to/lastmile_qr_scan"}}, {"name": "76f75c40f440eb4b4b4b08778523ff34", "lon": -77.03333883333333, "lat": 38.909804, "type": "electric_scooter", "fusion_lon": 0.0, "is_reserved": 0, "bike_id": "76f75c40f440eb4b4b4b08778523ff34", "fusion_lat": 0.0, "is_disabled": 0, "rental_uris": {"ios": "https://dc.lft.to/lastmile_qr_scan", "android": "https://dc.lft.to/lastmile_qr_scan"}}, {"name": "92eb181b09545e7f99bd31358fb3c1dd", "lon": -77.03632116666667, "lat": 38.936809333333336, "type": "electric_scooter", "fusion_lon": 0.0, "is_reserved": 0, "bike_id": "92eb181b09545e7f99bd31358fb3c1dd", "fusion_lat": 0.0, "is_disabled": 0, "rental_uris": {"ios": "https://dc.lft.to/lastmile_qr_scan", "android": "https://dc.lft.to/lastmile_qr_scan"}}, {"name": "d88a9f8a65f78eff6be5d07da2bf405f", "lon": -77.0143795, "lat": 38.91968583333333, "type": "electric_scooter", "fusion_lon": 0.0, "is_reserved": 0, "bike_id": "d88a9f8a65f78eff6be5d07da2bf405f", "fusion_lat": 0.0, "is_disabled": 0, "rental_uris": {"ios": "https://dc.lft.to/lastmile_qr_scan", "android": "https://dc.lft.to/lastmile_qr_scan"}}, {"name": "6e31863a7f0e908695ca9d7e0c5d9949", "lon": -77.11850433333333, "lat": 38.87732333333334, "type": "electric_bike", "fusion_lon": 0.0, "is_reserved": 0, "bike_id": "6e31863a7f0e908695ca9d7e0c5d9949", "fusion_lat": 0.0, "is_disabled": 0, "rental_uris": {"ios": "https://dc.lft.to/lastmile_qr_scan", "android": "https://dc.lft.to/lastmile_qr_scan"}}, {"name": "a3faf0886aabe61320011a0449eee3cf", "lon": -76.93543733333334, "lat": 38.95185083333333, "type": "electric_bike", "fusion_lon": 0.0, "is_reserved": 0, "bike_id": "a3faf0886aabe61320011a0449eee3cf", "fusion_lat": 0.0, "is_disabled": 0, "rental_uris": {"ios": "https://dc.lft.to/lastmile_qr_scan", "android": "https://dc.lft.to/lastmile_qr_scan"}}, {"name": "72be04d8a7e98e6eaa262795e7a31571", "lon": -77.013522, "lat": 38.86970566666667, "type": "electric_scooter", "fusion_lon": 0.0, "is_reserved": 0, "bike_id": "72be04d8a7e98e6eaa262795e7a31571", "fusion_lat": 0.0, "is_disabled": 0, "rental_uris": {"ios": "https://dc.lft.to/lastmile_qr_scan", "android": "https://dc.lft.to/lastmile_qr_scan"}}, {"name": "ea3a21f2daf725ae74dfb4dae2dc3b08", "lon": -77.046896, "lat": 38.892215, "type": "electric_scooter", "fusion_lon": 0.0, "is_reserved": 0, "bike_id": "ea3a21f2daf725ae74dfb4dae2dc3b08", "fusion_lat": 0.0, "is_disabled": 0, "rental_uris": {"ios": "https://dc.lft.to/lastmile_qr_scan", "android": "https://dc.lft.to/lastmile_qr_scan"}}, {"name": "4888725e9ff2eac361e609466706b08c", "lon": -77.039726, "lat": 38.90630266666667, "type": "electric_scooter", "fusion_lon": 0.0, "is_reserved": 0, "bike_id": "4888725e9ff2eac361e609466706b08c", "fusion_lat": 0.0, "is_disabled": 0, "rental_uris": {"ios": "https://dc.lft.to/lastmile_qr_scan", "android": "https://dc.lft.to/lastmile_qr_scan"}}, {"name": "0f73b2bc420b79cc09caa8f94286146f", "lon": -77.02766216666667, "lat": 38.907335, "type": "electric_scooter", "fusion_lon": 0.0, "is_reserved": 0, "bike_id": "0f73b2bc420b79cc09caa8f94286146f", "fusion_lat": 0.0, "is_disabled": 0, "rental_uris": {"ios": "https://dc.lft.to/lastmile_qr_scan", "android": "https://dc.lft.to/lastmile_qr_scan"}},