{"data": {"bikes": [{"fusion_lat": 0.0, "fusion_lon": 0.0, "rental_uris": {"android": "https://dc.lft.to/lastmile_qr_scan", "ios": "https://dc.lft.to/lastmile_qr_scan"}, "lon": -76.93207116666666, "name": "e93f47bb446643fc6a896a7602fd572b", "is_disabled": 0, "is_reserved": 0, "bike_id": "e93f47bb446643fc6a896a7602fd572b", "lat": 38.89664233333333, "type": "electric_scooter"}, {"fusion_lat": 0.0, "fusion_lon": 0.0, "rental_uris": {"android": "https://dc.lft.to/lastmile_qr_scan", "ios": "https://dc.lft.to/lastmile_qr_scan"}, "lon": -76.987407, "name": "dff193e64eca41b5674bee2e54811e6d", "is_disabled": 0, "is_reserved": 0, "bike_id": "dff193e64eca41b5674bee2e54811e6d", "lat": 38.900261, "type": "electric_scooter"}, {"fusion_lat": 0.0, "fusion_lon": 0.0, "rental_uris": {"android": "https://dc.lft.to/lastmile_qr_scan", "ios": "https://dc.lft.to/lastmile_qr_scan"}, "lon": -76.99625716666667, "name": "d58729c1d01746283172e99398732a9d", "is_disabled": 0, "is_reserved": 0, "bike_id": "d58729c1d01746283172e99398732a9d", "lat": 38.90063283333333, "type": "electric_scooter"}, {"fusion_lat": 0.0, "fusion_lon": 0.0, "rental_uris": {"android": "https://dc.lft.to/lastmile_qr_scan", "ios": "https://dc.lft.to/lastmile_qr_scan"}, "lon": -77.04008716666667, "name": "bdb1ed3872d102907209924c6b160950", "is_disabled": 0, "is_reserved": 0, "bike_id": "bdb1ed3872d102907209924c6b160950", "lat": 38.92193683333333, "type": "electric_scooter"}, {"fusion_lat": 0.0, "fusion_lon": 0.0, "rental_uris": {"android": "https://dc.lft.to/lastmile_qr_scan", "ios": "https://dc.lft.to/lastmile_qr_scan"}, "lon": -77.0342145, "name": "011ec03641805802280f2203838bb172", "is_disabled": 0, "is_reserved": 0, "bike_id": "011ec03641805802280f2203838bb172", "lat": 38.927339, "type": "electric_scooter"}, {"fusion_lat": 0.0, "fusion_lon": 0.0, "rental_uris": {"android": "https://dc.lft.to/lastmile_qr_scan", "ios": "https://dc.lft.to/lastmile_qr_scan"}, "lon": -77.0426215, "name": "2262021f0d5d4d2183b0658ac1528dcf", "is_disabled": 0, "is_reserved": 0, "bike_id": "2262021f0d5d4d2183b0658ac1528dcf", "lat": 38.90727583333333, "type": "electric_scooter"}, {"fusion_lat": 0.0, "fusion_lon": 0.0, "rental_uris": {"android": "https://dc.lft.to/lastmile_qr_scan", "ios": "https://dc.lft.to/lastmile_qr_scan"}, "lon": -77.0335805, "name": "02ba5e1ea4e5705cd2872824d672ad95", "is_disabled": 0, "is_reserved": 0, "bike_id": "02ba5e1ea4e5705cd2872824d672ad95", "lat": 38.8869105, "type": "electric_scooter"}, {"fusion_lat": 0.0, "fusion_lon": 0.0, "rental_uris": {"android": "https://dc.lft.to/lastmile_qr_scan", "ios": "https://dc.lft.to/lastmile_qr_scan"}, "lon": -77.02954883333334, "name": "3312118d9526d5747c0b1ee2ba08dc8f", "is_disabled": 0, "is_reserved": 0, "bike_id": "3312118d9526d5747c0b1ee2ba08dc8f", "lat": 38.907878333333336, "type": "electric_scooter"}, {"fusion_lat": 0.0, "fusion_lon": 0.0, "rental_uris": {"android": "https://dc.lft.to/lastmile_qr_scan", "ios": "https://dc.lft.to/lastmile_qr_scan"}, "lon": -77.02481666666667, "name": "cacdf96e60310cf4a8d0e6d0e6c5e063", "is_disabled": 0, "is_reserved": 0, "bike_id": "cacdf96e60310cf4a8d0e6d0e6c5e063", "lat": 38.938488666666665, "type": "electric_scooter"}, {"fusion_lat": 0.0, "fusion_lon": 0.0, "rental_uris": {"android": "https://dc.lft.to/lastmile_qr_scan", "ios": "https://dc.lft.to/lastmile_qr_scan"}, "lon": -77.04736666666666, "name": "1f6e7ce6d18cbad93324b429c05f63c7", "is_disabled": 0, "is_reserved": 0, "bike_id": "1f6e7ce6d18cbad93324b429c05f63c7", "lat": 38.90143883333333, "type": "electric_scooter"}, {"fusion_lat": 0.0, "fusion_lon": 0.0, "rental_uris": {"android": "https://dc.lft.to/lastmile_qr_scan", "ios": "https://dc.lft.to/lastmile_qr_scan"}, "lon": -77.0112755, "name": "1a7573293998c102de0896b788dd43a9", "is_disabled": 0, "is_reserved": 0, "bike_id": "1a7573293998c102de0896b788dd43a9", "lat": 38.895495833333335, "type": "electric_scooter"}, {"fusion_lat": 0.0, "fusion_lon": 0.0, "rental_uris": {"android": "https://dc.lft.to/lastmile_qr_scan", "ios": "https://dc.lft.to/lastmile_qr_scan"}, "lon": -77.025068, "name": "9e24e3a39b6a58b23734d096e1c07d81", "is_disabled": 0, "is_reserved": 0, "bike_id": "9e24e3a39b6a58b23734d096e1c07d81", "lat": 38.91807, "type": "electric_scooter"}, {"fusion_lat": 0.0, "fusion_lon": 0.0, "rental_uris": {"android": "https://dc.lft.to/lastmile_qr_scan", "ios": "https://dc.lft.to/lastmile_qr_scan"}, "lon": -77.04517766666666, "name": "0dcc817c867affcaef8577f511254858", "is_disabled": 0, "is_reserved": 0, "bike_id": "0dcc817c867affcaef8577f511254858", "lat": 38.899522833333336, "type": "electric_scooter"}, {"fusion_lat": 0.0, "fusion_lon": 0.0, "rental_uris": {"android": "https://dc.lft.to/lastmile_qr_scan", "ios": "https://dc.lft.to/lastmile_qr_scan"}, "lon": -77.02909783333334, "name": "49e96d59d5a01145a9cd45bce3b1a063", "is_disabled": 0, "is_reserved": 0, "bike_id": "49e96d59d5a01145a9cd45bce3b1a063", "lat": 38.917176833333336, "type": "electric_scooter"}, {"fusion_lat": 0.0, "fusion_lon": 0.0, "rental_uris": {"android": "https://dc.lft.to/lastmile_qr_scan", "ios": "https://dc.lft.to/lastmile_qr_scan"}, "lon": -77.03102983333333, "name": "e4d393e5557366433201bac62a9de660", "is_disabled": 0, "is_reserved": 0, "bike_id": "e4d393e5557366433201bac62a9de660", "lat": 38.883258, "type": "electric_scooter"}, {"fusion_lat": 0.0, "fusion_lon": 0.0, "rental_uris": {"android": "https://dc.lft.to/lastmile_qr_scan", "ios": "https://dc.lft.to/lastmile_qr_scan"}, "lon": -77.0425595, "name": "7fd5410ecb9b038ae29d82cfc7ce3d6e", "is_disabled": 0, "is_reserved": 0, "bike_id": "7fd5410ecb9b038ae29d82cfc7ce3d6e", "lat": 38.906487166666665, "type": "electric_scooter"}, {"fusion_lat": 0.0, "fusion_lon": 0.0, "rental_uris": {"android": "https://dc.lft.to/lastmile_qr_scan", "ios": "https://dc.lft.to/lastmile_qr_scan"}, "lon": -77.0291425, "name": "0107cecfa9d50ef8455db9fba23ef708", "is_disabled": 0, "is_reserved": 0, "bike_id": "0107cecfa9d50ef8455db9fba23ef708", "lat": 38.938757833333334, "type": "electric_scooter"}, {"fusion_lat": 0.0, "fusion_lon": 0.0, "rental_uris": {"android": "https://dc.lft.to/lastmile_qr_scan", "ios": "https://dc.lft.to/lastmile_qr_scan"}, "lon": -77.03666133333333, "name": "2a165679ef32289fb2ec0e2c2a222447", "is_disabled": 0, "is_reserved": 0, "bike_id": "2a165679ef32289fb2ec0e2c2a222447", "lat": 38.9068325, "type": "electric_scooter"}, {"fusion_lat": 0.0, "fusion_lon": 0.0, "rental_uris": {"android": "https://dc.lft.to/lastmile_qr_scan", "ios": "https://dc.lft.to/lastmile_qr_scan"}, "lon": -77.03522316666667, "name": "71b18705c30fc28db210db348e98db5a", "is_disabled": 0, "is_reserved": 0, "bike_id": "71b18705c30fc28db210db348e98db5a", "lat": 38.92529483333333, "type": "electric_scooter"}, {"fusion_lat": 0.0, "fusion_lon": 0.0, "rental_uris": {"android": "https://dc.lft.to/lastmile_qr_scan", "ios": "https://dc.lft.to/lastmile_qr_scan"}, "lon": -77.01218433333334, "name": "c00c2df03838a0e1a0f810a1fc5e2072", "is_disabled": 0, "is_reserved": 0, "bike_id": "c00c2df03838a0e1a0f810a1fc5e2072", "lat": 38.913467, "type": "electric_scooter"}, {"fusion_lat": 0.0, "fusion_lon": 0.0, "rental_uris": {"android": "https://dc.lft.to/lastmile_qr_scan", "ios": "https://dc.lft.to/lastmile_qr_scan"}, "lon": -77.032093, "name": "3bc85f98883462315ef59b2af89d8eaf", "is_disabled": 0, "is_reserved": 0, "bike_id": "3bc85f98883462315ef59b2af89d8eaf", "lat": 38.90120233333333, "type": "electric_scooter"}, {"fusion_lat": 0.0, "fusion_lon": 0.0, "rental_uris": {"android": "https://dc.lft.to/lastmile_qr_scan", "ios": "https://dc.lft.to/lastmile_qr_scan"}, "lon": -77.03223683333333, "name": "19687f2e07c79fa61a3768919e0d9e3e", "is_disabled": 0, "is_reserved": 0, "bike_id": "19687f2e07c79fa61a3768919e0d9e3e", "lat": 38.91847633333333, "type": "electric_scooter"}, {"fusion_lat": 0.0, "fusion_lon": 0.0, "rental_uris": {"android": "https://dc.lft.to/lastmile_qr_scan", "ios": "https://dc.lft.to/lastmile_qr_scan"}, "lon": -77.04998633333334, "name": "d6e2d2a22c127e4b9713aad0c3d066ff", "is_disabled": 0, "is_reserved": 0, "bike_id": "d6e2d2a22c127e4b9713aad0c3d066ff", "lat": 38.89394633333333, "type": "electric_scooter"}, {"fusion_lat": 0.0, "fusion_lon": 0.0, "rental_uris": {"android": "https://dc.lft.to/lastmile_qr_scan", "ios": "https://dc.lft.to/lastmile_qr_scan"}, "lon": -77.023571, "name": "d935c325a8885dae93675e928a957440", "is_disabled": 0, "is_reserved": 0, "bike_id": "d935c325a8885dae93675e928a957440", "lat": 38.9251635, "type": "electric_scooter"}, {"fusion_lat": 0.0, "fusion_lon": 0.0, "rental_uris": {"android": "https://dc.lft.to/lastmile_qr_scan", "ios": "https://dc.lft.to/lastmile_qr_scan"}, "lon": -77.0434595, "name": "6fe7c82436cfaffcf2e6afaa522663e9", "is_disabled": 0, "is_reserved": 0, "bike_id": "6fe7c82436cfaffcf2e6afaa522663e9", "lat": 38.90834133333333, "type": "electric_scooter"}, {"fusion_lat": 0.0, "fusion_lon": 0.0, "rental_uris": {"android": "https://dc.lft.to/lastmile_qr_scan", "ios": "https://dc.lft.to/lastmile_qr_scan"}, "lon": -77.04254566666667, "name": "092c0bcdbba07aaf8a13702644c085ea", "is_disabled": 0, "is_reserved": 0, "bike_id": "092c0bcdbba07aaf8a13702644c085ea", "lat": 38.92244433333333, "type": "electric_scooter"}, {"fusion_lat": 0.0, "fusion_lon": 0.0, "rental_uris": {"android": "https://dc.lft.to/lastmile_qr_scan", "ios": "https://dc.lft.to/lastmile_qr_scan"}, "lon": -77.02488533333333, "name": "d80713fd573a0cb4d43d8ef9d4f292d7", "is_disabled": 0, "is_reserved": 0, "bike_id": "d80713fd573a0cb4d43d8ef9d4f292d7", "lat": 38.91687016666667, "type": "electric_scooter"}, {"fusion_lat": 0.0, "fusion_lon": 0.0, "rental_uris": {"android": "https://dc.lft.to/lastmile_qr_scan", "ios": "https://dc.lft.to/lastmile_qr_scan"}, "lon": -76.9882255, "name": "6650ac00ba7b81978d7e378ca01e1879", "is_disabled": 0, "is_reserved": 0, "bike_id": "6650ac00ba7b81978d7e378ca01e1879", "lat": 38.900387333333335, "type": "electric_scooter"}, {"fusion_lat": 0.0, "fusion_lon": 0.0, "rental_uris": {"android": "https://dc.lft.to/lastmile_qr_scan", "ios": "https://dc.lft.to/lastmile_qr_scan"}, "lon": -77.045817, "name": "7db251e6b9a84335e28dc9d7c7371942", "is_disabled": 0, "is_reserved": 0, "bike_id": "7db251e6b9a84335e28dc9d7c7371942", "lat": 38.92122633333334, "type": "electric_scooter"}, {"fusion_lat": 0.0, "fusion_lon": 0.0, "rental_uris": {"android": "https://dc.lft.to/lastmile_qr_scan", "ios": "https://dc.lft.to/lastmile_qr_scan"}, "lon": -77.04351066666666, "name": "f5e9f87cb98d530aef92319726b94e21", "is_disabled": 0, "is_reserved": 0, "bike_id": "f5e9f87cb98d530aef92319726b94e21", "lat": 38.905750833333336, "type": "electric_scooter"}, {"fusion_lat": 0.0, "fusion_lon": 0.0, "rental_uris": {"android": "https://dc.lft.to/lastmile_qr_scan", "ios": "https://dc.lft.to/lastmile_qr_scan"}, "lon": -77.026523, "name": "347136324f047c990fab7f24c0ebb9cb", "is_disabled": 0, "is_reserved": 0, "bike_id": "347136324f047c990fab7f24c0ebb9cb", "lat": 38.8748405, "type": "electric_bike"}, {"fusion_lat": 0.0, "fusion_lon": 0.0, "rental_uris": {"android": "https://dc.lft.to/lastmile_qr_scan", "ios": "https://dc.lft.to/lastmile_qr_scan"}, "lon": -77.04947466666667, "name": "e38cf717e5e5be88854c917843cda795", "is_disabled": 0, "is_reserved": 0, "bike_id": "e38cf717e5e5be88854c917843cda795", "lat": 38.85467516666667, "type": "electric_bike"}, {"fusion_lat": 0.0, "fusion_lon": 0.0, "rental_uris": {"android": "https://dc.lft.to/lastmile_qr_scan", "ios": "https://dc.lft.to/lastmile_qr_scan"}, "lon": -77.02377216666666, "name": "ae1889fd55bd45042176a392ee33df06", "is_disabled": 0, "is_reserved": 0, "bike_id": "ae1889fd55bd45042176a392ee33df06", "lat": 38.90724566666667, "type": "electric_scooter"}, {"fusion_lat": 0.0, "fusion_lon": 0.0, "rental_uris": {"android": "https://dc.lft.to/lastmile_qr_scan", "ios": "https://dc.lft.to/lastmile_qr_scan"}, "lon": -77.02738766666667, "name": "069ac2986168bd42a9558a1f24483d64", "is_disabled": 0, "is_reserved": 0, "bike_id": "069ac2986168bd42a9558a1f24483d64", "lat": 38.9307465, "type": "electric_scooter"}, {"fusion_lat": 0.0, "fusion_lon": 0.0, "rental_uris": {"android": "https://dc.lft.to/lastmile_qr_scan", "ios": "https://dc.lft.to/lastmile_qr_scan"}, "lon": -77.03214033333333, "name": "3dcdaaf889af8e04aa0e1ea5eebb2f7f", "is_disabled": 0, "is_reserved": 0, "bike_id": "3dcdaaf889af8e04aa0e1ea5eebb2f7f", "lat": 38.92787333333333, "type": "electric_scooter"}, {"fusion_lat": 0.0, "fusion_lon": 0.0, "rental_uris": {"android": "https://dc.lft.to/lastmile_qr_scan", "ios": "https://dc.lft.to/lastmile_qr_scan"}, "lon": -77.039992, "name": "a160d652e6488ace683627cdff84072f", "is_disabled": 0, "is_reserved": 0, "bike_id": "a160d652e6488ace683627cdff84072f", "lat": 38.89633366666666, "type": "electric_scooter"}, {"fusion_lat": 0.0, "fusion_lon": 0.0, "rental_uris": {"android": "https://dc.lft.to/lastmile_qr_scan", "ios": "https://dc.lft.to/lastmile_qr_scan"}, "lon": -77.03904366666667, "name": "e99e5e4052d58ba2c676e9c1ccfbdb71", "is_disabled": 0, "is_reserved": 0, "bike_id": "e99e5e4052d58ba2c676e9c1ccfbdb71", "lat": 38.90482383333333, "type": "electric_scooter"}, {"fusion_lat": 0.0, "fusion_lon": 0.0, "rental_uris": {"android": "https://dc.lft.to/lastmile_qr_scan", "ios": "https://dc.lft.to/lastmile_qr_scan"}, "lon": -77.0235855, "name": "8e2447b997b69efdb6f26429366eeb56", "is_disabled": 0, "is_reserved": 0, "bike_id": "8e2447b997b69efdb6f26429366eeb56", "lat": 38.93740666666667, "type": "electric_scooter"}, {"fusion_lat": 0.0, "fusion_lon": 0.0, "rental_uris": {"android": "https://dc.lft.to/lastmile_qr_scan", "ios": "https://dc.lft.to/lastmile_qr_scan"}, "lon": -77.03851416666667, "name": "31f4b7f1de84dfdcfea58aabcc8b18c0", "is_disabled": 0, "is_reserved": 0, "bike_id": "31f4b7f1de84dfdcfea58aabcc8b18c0", "lat": 38.9072325, "type": "electric_scooter"}, {"fusion_lat": 0.0, "fusion_lon": 0.0, "rental_uris": {"android": "https://dc.lft.to/lastmile_qr_scan", "ios": "https://dc.lft.to/lastmile_qr_scan"}, "lon": -76.94892216666666, "name": "adf9a03affad9f430bb0d0447e9c96c9", "is_disabled": 0, "is_reserved": 0, "bike_id": "adf9a03affad9f430bb0d0447e9c96c9", "lat": 38.89534583333333, "type": "electric_scooter"}, {"fusion_lat": 0.0, "fusion_lon": 0.0, "rental_uris": {"android": "https://dc.lft.to/lastmile_qr_scan", "ios": "https://dc.lft.to/lastmile_qr_scan"}, "lon": -77.02575716666666, "name": "a6689b6358f7e5628b028ea16fee80ad", "is_disabled": 0, "is_reserved": 0, "bike_id": "a6689b6358f7e5628b028ea16fee80ad", "lat": 38.89569866666667, "type": "electric_scooter"}, {"fusion_lat": 0.0, "fusion_lon": 0.0, "rental_uris": {"android": "https://dc.lft.to/lastmile_qr_scan", "ios": "https://dc.lft.to/lastmile_qr_scan"}, "lon": -77.0141085, "name": "0cc246a707cd2569c97ce6aa7d643414", "is_disabled": 0, "is_reserved": 0, "bike_id": "0cc246a707cd2569c97ce6aa7d643414", "lat": 38.905013333333336, "type": "electric_scooter"}, {"fusion_lat": 0.0, "fusion_lon": 0.0, "rental_uris": {"android": "https://dc.lft.to/lastmile_qr_scan", "ios": "https://dc.lft.to/lastmile_qr_scan"}, "lon": -77.05857933333333, "name": "466f5610e55e978c7b20071f503de48a", "is_disabled": 0, "is_reserved": 0, "bike_id": "466f5610e55e978c7b20071f503de48a", "lat": 38.936095, "type": "electric_scooter"}, {"fusion_lat": 0.0, "fusion_lon": 0.0, "rental_uris": {"android": "https://dc.lft.to/lastmile_qr_scan", "ios": "https://dc.lft.to/lastmile_qr_scan"}, "lon": -77.12015183333334, "name": "a24cc85e8e0d14bc906388e32955a7a0", "is_disabled": 0, "is_reserved": 0, "bike_id": "a24cc85e8e0d14bc906388e32955a7a0", "lat": 38.8578355, "type": "electric_bike"}, {"fusion_lat": 0.0, "fusion_lon": 0.0, "rental_uris": {"android": "https://dc.lft.to/lastmile_qr_scan", "ios": "https://dc.lft.to/lastmile_qr_scan"}, "lon": -77.0241915, "name": "2fad8a173c5ca54c4b323995877d77c6", "is_disabled": 0, "is_reserved": 0, "bike_id": "2fad8a173c5ca54c4b323995877d77c6", "lat": 38.92656016666667, "type": "electric_scooter"}, {"fusion_lat": 0.0, "fusion_lon": 0.0, "rental_uris": {"android": "https://dc.lft.to/lastmile_qr_scan", "ios": "https://dc.lft.to/lastmile_qr_scan"}, "lon": -76.94428266666667, "name": "fe58fefc1a7aa077cdebf9130154ce08", "is_disabled": 0, "is_reserved": 0, "bike_id": "fe58fefc1a7aa077cdebf9130154ce08", "lat": 38.99224233333333, "type": "electric_bike"}, {"fusion_lat": 0.0, "fusion_lon": 0.0, "rental_uris": {"android": "https://dc.lft.to/lastmile_qr_scan", "ios": "https://dc.lft.to/lastmile_qr_scan"}, "lon": -77.0511055, "name": "c4ae6aac8a8e050b645d93998ccdbc2d", "is_disabled": 0, "is_reserved": 0, "bike_id": "c4ae6aac8a8e050b645d93998ccdbc2d", "lat": 38.923612166666665, "type": "electric_scooter"}, {"fusion_lat": 0.0, "fusion_lon": 0.0, "rental_uris": {"android": "https://dc.lft.to/lastmile_qr_scan", "ios": "https://dc.lft.to/lastmile_qr_scan"}, "lon": -77.0320995, "name": "e052c502d72bc279986da86c126a1b65", "is_disabled": 0, "is_reserved": 0, "bike_id": "e052c502d72bc279986da86c126a1b65", "lat": 38.915133, "type": "electric_scooter"}, {"fusion_lat": 0.0, "fusion_lon": 0.0, "rental_uris": {"android": "https://dc.lft.to/lastmile_qr_scan", "ios": "https://dc.lft.to/lastmile_qr_scan"}, "lon": -77.114639, "name": "d7beb8aea0fdde846e278e33cd9ce4be", "is_disabled": 0, "is_reserved": 0, "bike_id": "d7beb8aea0fdde846e278e33cd9ce4be", "lat": 38.84146466666667, "type": "electric_bike"}, {"fusion_lat": 0.0, "fusion_lon": 0.0, "rental_uris": {"android": "https://dc.lft.to/lastmile_qr_scan", "ios": "https://dc.lft.to/lastmile_qr_scan"}, "lon": -77.0398495, "name": "c668d3d17efc878ea0fcc8fdddb3227a", "is_disabled": 0, "is_reserved": 0, "bike_id": "c668d3d17efc878ea0fcc8fdddb3227a", "lat": 38.90303733333333, "type": "electric_scooter"}, {"fusion_lat": 0.0, "fusion_lon": 0.0, "rental_uris": {"android": "https://dc.lft.to/lastmile_qr_scan", "ios": "https://dc.lft.to/lastmile_qr_scan"}, "lon": -77.03322483333334, "name": "5be49988fcfa3df32789cb459e01c54b", "is_disabled": 0, "is_reserved": 0, "bike_id": "5be49988fcfa3df32789cb459e01c54b", "lat": 38.89827983333333, "type": "electric_scooter"}, {"fusion_lat": 0.0, "fusion_lon": 0.0, "rental_uris": {"android": "https://dc.lft.to/lastmile_qr_scan", "ios": "https://dc.lft.to/lastmile_qr_scan"}, "lon": -77.0022435, "name": "e06d1f9c03ea2297e21abf6f0d93a206", "is_disabled": 0, "is_reserved": 0, "bike_id": "e06d1f9c03ea2297e21abf6f0d93a206", "lat": 38.89482566666667, "type": "electric_scooter"}, {"fusion_lat": 0.0, "fusion_lon": 0.0, "rental_uris": {"android": "https://dc.lft.to/lastmile_qr_scan", "ios": "https://dc.lft.to/lastmile_qr_scan"}, "lon": -76.98580616666666, "name": "091c22dbb801717b835223cbf7548d29", "is_disabled": 0, "is_reserved": 0, "bike_id": "091c22dbb801717b835223cbf7548d29", "lat": 38.884189666666664, "type": "electric_scooter"}, {"fusion_lat": 0.0, "fusion_lon": 0.0, "rental_uris": {"android": "https://dc.lft.to/lastmile_qr_scan", "ios": "https://dc.lft.to/lastmile_qr_scan"}, "lon": -77.02489383333334, "name": "fc59385e59799817d01d52150db06d24", "is_disabled": 0, "is_reserved": 0, "bike_id": "fc59385e59799817d01d52150db06d24", "lat": 38.94183183333333, "type": "electric_scooter"}, {"fusion_lat": 0.0, "fusion_lon": 0.0, "rental_uris": {"android": "https://dc.lft.to/lastmile_qr_scan", "ios": "https://dc.lft.to/lastmile_qr_scan"}, "lon": -77.03658666666666, "name": "e72aa0044ed49b5c4087abb926b7523b", "is_disabled": 0, "is_reserved": 0, "bike_id": "e72aa0044ed49b5c4087abb926b7523b", "lat": 38.908446833333336, "type": "electric_scooter"}, {"fusion_lat": 0.0, "fusion_lon": 0.0, "rental_uris": {"android": "https://dc.lft.to/lastmile_qr_scan", "ios": "https://dc.lft.to/lastmile_qr_scan"}, "lon": -77.00202716666666, "name": "06fd1c97a057ba4e86b0e09f89841379", "is_disabled": 0, "is_reserved": 0, "bike_id": "06fd1c97a057ba4e86b0e09f89841379", "lat": 38.8951975, "type": "electric_scooter"}, {"fusion_lat": 0.0, "fusion_lon": 0.0, "rental_uris": {"android": "https://dc.lft.to/lastmile_qr_scan", "ios": "https://dc.lft.to/lastmile_qr_scan"}, "lon": -76.99660283333333, "name": "8ee4c2c943893948f01b21f14f5657db", "is_disabled": 0, "is_reserved": 0, "bike_id": "8ee4c2c943893948f01b21f14f5657db", "lat": 38.860056166666666, "type": "electric_scooter"}, {"fusion_lat": 0.0, "fusion_lon": 0.0, "rental_uris": {"android": "https://dc.lft.to/lastmile_qr_scan", "ios": "https://dc.lft.to/lastmile_qr_scan"}, "lon": -77.07278166666667, "name": "6ef4514855e0379e1e75b030ad62b298", "is_disabled": 0, "is_reserved": 0, "bike_id": "6ef4514855e0379e1e75b030ad62b298", "lat": 38.9347765, "type": "electric_scooter"}, {"fusion_lat": 0.0, "fusion_lon": 0.0, "rental_uris": {"android": "https://dc.lft.to/lastmile_qr_scan", "ios": "https://dc.lft.to/lastmile_qr_scan"}, "lon": -77.04302916666667, "name": "b3f2168f384348d680f01912e06bcf46", "is_disabled": 0, "is_reserved": 0, "bike_id": "b3f2168f384348d680f01912e06bcf46", "lat": 38.923291666666664, "type": "electric_scooter"}, {"fusion_lat": 0.0, "fusion_lon": 0.0, "rental_uris": {"android": "https://dc.lft.to/lastmile_qr_scan", "ios": "https://dc.lft.to/lastmile_qr_scan"}, "lon": -77.00209933333333, "name": "cabd22e7d9b83f5158c3f9f8fa45c793", "is_disabled": 0, "is_reserved": 0, "bike_id": "cabd22e7d9b83f5158c3f9f8fa45c793", "lat": 38.900427, "type": "electric_scooter"}, {"fusion_lat": 0.0, "fusion_lon": 0.0, "rental_uris": {"android": "https://dc.lft.to/lastmile_qr_scan", "ios": "https://dc.lft.to/lastmile_qr_scan"}, "lon": -77.007395, "name": "27758803e9419604789e2160bbd8b669", "is_disabled": 0, "is_reserved": 0, "bike_id": "27758803e9419604789e2160bbd8b669", "lat": 38.89850083333333, "type": "electric_scooter"}, {"fusion_lat": 0.0, "fusion_lon": 0.0, "rental_uris": {"android": "https://dc.lft.to/lastmile_qr_scan", "ios": "https://dc.lft.to/lastmile_qr_scan"}, "lon": -76.9833595, "name": "d3a31dc079f5c18ecc7302f4132afeeb", "is_disabled": 0, "is_reserved": 0, "bike_id": "d3a31dc079f5c18ecc7302f4132afeeb", "lat": 38.895435, "type": "electric_scooter"}, {"fusion_lat": 0.0, "fusion_lon": 0.0, "rental_uris": {"android": "https://dc.lft.to/lastmile_qr_scan", "ios": "https://dc.lft.to/lastmile_qr_scan"}, "lon": -77.051037, "name": "3c9c943b07195317d7a284bc5f7afe37", "is_disabled": 0, "is_reserved": 0, "bike_id": "3c9c943b07195317d7a284bc5f7afe37", "lat": 38.923655833333335, "type": "electric_scooter"}, {"fusion_lat": 0.0, "fusion_lon": 0.0, "rental_uris": {"android": "https://dc.lft.to/lastmile_qr_scan", "ios": "https://dc.lft.to/lastmile_qr_scan"}, "lon": -77.00453633333333, "name": "6662cab34d1d9decbab1d589a9bab0c5", "is_disabled": 0, "is_reserved": 0, "bike_id": "6662cab34d1d9decbab1d589a9bab0c5", "lat": 38.876607, "type": "electric_scooter"}, {"fusion_lat": 0.0, "fusion_lon": 0.0, "rental_uris": {"android": "https://dc.lft.to/lastmile_qr_scan", "ios": "https://dc.lft.to/lastmile_qr_scan"}, "lon": -76.99491966666666, "name": "89167a268c68f78f798d88469b35f490", "is_disabled": 0, "is_reserved": 0, "bike_id": "89167a268c68f78f798d88469b35f490", "lat": 38.862387166666664, "type": "electric_scooter"}, {"fusion_lat": 0.0, "fusion_lon": 0.0, "rental_uris": {"android": "https://dc.lft.to/lastmile_qr_scan", "ios": "https://dc.lft.to/lastmile_qr_scan"}, "lon": -76.98822983333334, "name": "6f5e030f175ec57e00af8ae147fb1677", "is_disabled": 0, "is_reserved": 0, "bike_id": "6f5e030f175ec57e00af8ae147fb1677", "lat": 38.89077183333333, "type": "electric_scooter"}, {"fusion_lat": 0.0, "fusion_lon": 0.0, "rental_uris": {"android": "https://dc.lft.to/lastmile_qr_scan", "ios": "https://dc.lft.to/lastmile_qr_scan"}, "lon": -77.03635883333334, "name": "a92c0b3cc36030a024ee8372c66058a0", "is_disabled": 0, "is_reserved": 0, "bike_id": "a92c0b3cc36030a024ee8372c66058a0", "lat": 38.901385, "type": "electric_scooter"}, {"fusion_lat": 0.0, "fusion_lon": 0.0, "rental_uris": {"android": "https://dc.lft.to/lastmile_qr_scan", "ios": "https://dc.lft.to/lastmile_qr_scan"}, "lon": -77.0260585, "name": "57654ffb9f3f7247495bf6e97a84246d", "is_disabled": 0, "is_reserved": 0, "bike_id": "57654ffb9f3f7247495bf6e97a84246d", "lat": 38.92847416666667, "type": "electric_scooter"}, {"fusion_lat": 0.0, "fusion_lon": 0.0, "rental_uris": {"android": "https://dc.lft.to/lastmile_qr_scan", "ios": "https://dc.lft.to/lastmile_qr_scan"}, "lon": -76.93555116666667, "name": "64fefeddb91186a87be19f059d28b482", "is_disabled": 0, "is_reserved": 0, "bike_id": "64fefeddb91186a87be19f059d28b482", "lat": 38.882584666666666, "type": "electric_scooter"}, {"fusion_lat": 0.0, "fusion_lon": 0.0, "rental_uris": {"android": "https://dc.lft.to/lastmile_qr_scan", "ios": "https://dc.lft.to/lastmile_qr_scan"}, "lon": -77.000673, "name": "1db3c0517565ce8cda9f9d67cac090b5", "is_disabled": 0, "is_reserved": 0, "bike_id": "1db3c0517565ce8cda9f9d67cac090b5", "lat": 38.8754255, "type": "electric_scooter"}, {"fusion_lat": 0.0, "fusion_lon": 0.0, "rental_uris": {"android": "https://dc.lft.to/lastmile_qr_scan", "ios": "https://dc.lft.to/lastmile_qr_scan"}, "lon": -77.04830933333334, "name": "ff0a1ff26a2e1475b190ab47d4d8b5a9", "is_disabled": 0, "is_reserved": 0, "bike_id": "ff0a1ff26a2e1475b190ab47d4d8b5a9", "lat": 38.91840533333333, "type": "electric_scooter"}, {"fusion_lat": 0.0, "fusion_lon": 0.0, "rental_uris": {"android": "https://dc.lft.to/lastmile_qr_scan", "ios": "https://dc.lft.to/lastmile_qr_scan"}, "lon": -77.01391383333333, "name": "77f8af7d120801edeaec19715833926a", "is_disabled": 0, "is_reserved": 0, "bike_id": "77f8af7d120801edeaec19715833926a", "lat": 38.9422985, "type": "electric_scooter"}, {"fusion_lat": 0.0, "fusion_lon": 0.0, "rental_uris": {"android": "https://dc.lft.to/lastmile_qr_scan", "ios": "https://dc.lft.to/lastmile_qr_scan"}, "lon": -77.04678666666666, "name": "02d37813df5efa1343a238017faa2e7b", "is_disabled": 0, "is_reserved": 0, "bike_id": "02d37813df5efa1343a238017faa2e7b", "lat": 38.895606, "type": "electric_scooter"}, {"fusion_lat": 0.0, "fusion_lon": 0.0, "rental_uris": {"android": "https://dc.lft.to/lastmile_qr_scan", "ios": "https://dc.lft.to/lastmile_qr_scan"}, "lon": -77.031863, "name": "8c06374114910d7434f84ec247d3aa9d", "is_disabled": 0, "is_reserved": 0, "bike_id": "8c06374114910d7434f84ec247d3aa9d", "lat": 38.913283, "type": "electric_scooter"}, {"fusion_lat": 0.0, "fusion_lon": 0.0, "rental_uris": {"android": "https://dc.lft.to/lastmile_qr_scan", "ios": "https://dc.lft.to/lastmile_qr_scan"}, "lon": -76.9636295, "name": "d8de218a34c71b587ef4bb63493de616", "is_disabled": 0, "is_reserved": 0, "bike_id": "d8de218a34c71b587ef4bb63493de616", "lat": 38.948995, "type": "electric_bike"}, {"fusion_lat": 0.0, "fusion_lon": 0.0, "rental_uris": {"android": "https://dc.lft.to/lastmile_qr_scan", "ios": "https://dc.lft.to/lastmile_qr_scan"}, "lon": -77.03303566666666, "name": "ac5f07bb2b808e00de03e43164ebf7c8", "is_disabled": 0, "is_reserved": 0, "bike_id": "ac5f07bb2b808e00de03e43164ebf7c8", "lat": 38.92454816666667, "type": "electric_scooter"}, {"fusion_lat": 0.0, "fusion_lon": 0.0, "rental_uris": {"android": "https://dc.lft.to/lastmile_qr_scan", "ios": "https://dc.lft.to/lastmile_qr_scan"}, "lon": -77.0414745, "name": "7817f799205b6d693bd9d0aa64c4f493", "is_disabled": 0, "is_reserved": 0, "bike_id": "7817f799205b6d693bd9d0aa64c4f493", "lat": 38.901293, "type": "electric_scooter"}, {"fusion_lat": 0.0, "fusion_lon": 0.0, "rental_uris": {"android": "https://dc.lft.to/lastmile_qr_scan", "ios": "https://dc.lft.to/lastmile_qr_scan"}, "lon": -77.04347216666666, "name": "b18ebbf6670a355f41d6e2813a19a514", "is_disabled": 0, "is_reserved": 0, "bike_id": "b18ebbf6670a355f41d6e2813a19a514", "lat": 38.904809166666666, "type": "electric_scooter"}, {"fusion_lat": 0.0, "fusion_lon": 0.0, "rental_uris": {"android": "https://dc.lft.to/lastmile_qr_scan", "ios": "https://dc.lft.to/lastmile_qr_scan"}, "lon": -77.03209983333333, "name": "fcf4857c05c157042ad7a6744e82ec30", "is_disabled": 0, "is_reserved": 0, "bike_id": "fcf4857c05c157042ad7a6744e82ec30", "lat": 38.913482, "type": "electric_scooter"}, {"fusion_lat": 0.0, "fusion_lon": 0.0, "rental_uris": {"android": "https://dc.lft.to/lastmile_qr_scan", "ios": "https://dc.lft.to/lastmile_qr_scan"}, "lon": -77.03784816666666, "name": "248154d03ef2b71b332fa80c3ec48eaa", "is_disabled": 0, "is_reserved": 0, "bike_id": "248154d03ef2b71b332fa80c3ec48eaa", "lat": 38.996750666666664, "type": "electric_bike"}, {"fusion_lat": 0.0, "fusion_lon": 0.0, "rental_uris": {"android": "https://dc.lft.to/lastmile_qr_scan", "ios": "https://dc.lft.to/lastmile_qr_scan"}, "lon": -77.031914, "name": "ed20519ab1bc5846b1db194901c78631", "is_disabled": 0, "is_reserved": 0, "bike_id": "ed20519ab1bc5846b1db194901c78631", "lat": 38.902287, "type": "electric_scooter"}, {"fusion_lat": 0.0, "fusion_lon": 0.0, "rental_uris": {"android": "https://dc.lft.to/lastmile_qr_scan", "ios": "https://dc.lft.to/lastmile_qr_scan"}, "lon": -77.044954, "name": "a489ae08cae1c731104adf3ded7a922f", "is_disabled": 0, "is_reserved": 0, "bike_id": "a489ae08cae1c731104adf3ded7a922f", "lat": 38.908684, "type": "electric_scooter"}, {"fusion_lat": 0.0, "fusion_lon": 0.0, "rental_uris": {"android": "https://dc.lft.to/lastmile_qr_scan", "ios": "https://dc.lft.to/lastmile_qr_scan"}, "lon": -77.02349733333334, "name": "f19ba3a98bd59c941c97d4612ee0c056", "is_disabled": 0, "is_reserved": 0, "bike_id": "f19ba3a98bd59c941c97d4612ee0c056", "lat": 38.9304685, "type": "electric_scooter"}, {"fusion_lat": 0.0, "fusion_lon": 0.0, "rental_uris": {"android": "https://dc.lft.to/lastmile_qr_scan", "ios": "https://dc.lft.to/lastmile_qr_scan"}, "lon": -77.022776, "name": "5afd3bf599b46759b16dcf7a21140456", "is_disabled": 0, "is_reserved": 0, "bike_id": "5afd3bf599b46759b16dcf7a21140456", "lat": 38.9252335, "type": "electric_scooter"}, {"fusion_lat": 0.0, "fusion_lon": 0.0, "rental_uris": {"android": "https://dc.lft.to/lastmile_qr_scan", "ios": "https://dc.lft.to/lastmile_qr_scan"}, "lon": -76.95418233333334, "name": "d56d30628efc3fb45c16385a47b31650", "is_disabled": 0, "is_reserved": 0, "bike_id": "d56d30628efc3fb45c16385a47b31650", "lat": 38.89001566666666, "type": "electric_scooter"}, {"fusion_lat": 0.0, "fusion_lon": 0.0, "rental_uris": {"android": "https://dc.lft.to/lastmile_qr_scan", "ios": "https://dc.lft.to/lastmile_qr_scan"}, "lon": -77.05020866666666, "name": "9b9720ea871f4cf6e52ac7da100dce29", "is_disabled": 0, "is_reserved": 0, "bike_id": "9b9720ea871f4cf6e52ac7da100dce29", "lat": 38.89656733333333, "type": "electric_scooter"}, {"fusion_lat": 0.0, "fusion_lon": 0.0, "rental_uris": {"android": "https://dc.lft.to/lastmile_qr_scan", "ios": "https://dc.lft.to/lastmile_qr_scan"}, "lon": -77.00698383333334, "name": "17837d81cd151ef4aa92fb355b76b250", "is_disabled": 0, "is_reserved": 0, "bike_id": "17837d81cd151ef4aa92fb355b76b250", "lat": 38.926827833333334, "type": "electric_scooter"}, {"fusion_lat": 0.0, "fusion_lon": 0.0, "rental_uris": {"android": "https://dc.lft.to/lastmile_qr_scan", "ios": "https://dc.lft.to/lastmile_qr_scan"}, "lon": -77.04219216666667, "name": "4043f1de60fbe0a62cbe6bf01ab223ec", "is_disabled": 0, "is_reserved": 0, "bike_id": "4043f1de60fbe0a62cbe6bf01ab223ec", "lat": 38.9231165, "type": "electric_scooter"}, {"fusion_lat": 0.0, "fusion_lon": 0.0, "rental_uris": {"android": "https://dc.lft.to/lastmile_qr_scan", "ios": "https://dc.lft.to/lastmile_qr_scan"}, "lon": -77.0765485, "name": "a17d07a13b7ab55fd5d7540e6e53b321", "is_disabled": 0, "is_reserved": 0, "bike_id": "a17d07a13b7ab55fd5d7540e6e53b321", "lat": 38.943273166666664, "type": "electric_scooter"}, {"fusion_lat": 0.0, "fusion_lon": 0.0, "rental_uris": {"android": "https://dc.lft.to/lastmile_qr_scan", "ios": "https://dc.lft.to/lastmile_qr_scan"}, "lon": -77.04227866666666, "name": "4220693f529043bc0631cc04ab49ffbd", "is_disabled": 0, "is_reserved": 0, "bike_id": "4220693f529043bc0631cc04ab49ffbd", "lat": 38.923099666666666, "type": "electric_scooter"}, {"fusion_lat": 0.0, "fusion_lon": 0.0, "rental_uris": {"android": "https://dc.lft.to/lastmile_qr_scan", "ios": "https://dc.lft.to/lastmile_qr_scan"}, "lon": -77.0010715, "name": "4402d29bd6facc86782763d4a562130f", "is_disabled": 0, "is_reserved": 0, "bike_id": "4402d29bd6facc86782763d4a562130f", "lat": 38.8737455, "type": "electric_scooter"}, {"fusion_lat": 0.0, "fusion_lon": 0.0, "rental_uris": {"android": "https://dc.lft.to/lastmile_qr_scan", "ios": "https://dc.lft.to/lastmile_qr_scan"}, "lon": -77.01945133333334, "name": "4e6a12086165e75bcd51ebb9358c2910", "is_disabled": 0, "is_reserved": 0, "bike_id": "4e6a12086165e75bcd51ebb9358c2910", "lat": 38.924155, "type": "electric_scooter"}, {"fusion_lat": 0.0, "fusion_lon": 0.0, "rental_uris": {"android": "https://dc.lft.to/lastmile_qr_scan", "ios": "https://dc.lft.to/lastmile_qr_scan"}, "lon": -77.06099716666667, "name": "e70280da116947ea246c99989962f8e3", "is_disabled": 0, "is_reserved": 0, "bike_id": "e70280da116947ea246c99989962f8e3", "lat": 38.9052955, "type": "electric_scooter"}, {"fusion_lat": 0.0, "fusion_lon": 0.0, "rental_uris": {"android": "https://dc.lft.to/lastmile_qr_scan", "ios": "https://dc.lft.to/lastmile_qr_scan"}, "lon": -77.04542433333333, "name": "3003a9d8ba85d975c27422b82da936e5", "is_disabled": 0, "is_reserved": 0, "bike_id": "3003a9d8ba85d975c27422b82da936e5", "lat": 38.9118505, "type": "electric_scooter"}, {"fusion_lat": 0.0, "fusion_lon": 0.0, "rental_uris": {"android": "https://dc.lft.to/lastmile_qr_scan", "ios": "https://dc.lft.to/lastmile_qr_scan"}, "lon": -77.03521433333333, "name": "be16289dca243c2cf36fac8f14cf94e5", "is_disabled": 0, "is_reserved": 0, "bike_id": "be16289dca243c2cf36fac8f14cf94e5", "lat": 38.9253915, "type": "electric_scooter"}, {"fusion_lat": 0.0, "fusion_lon": 0.0, "rental_uris": {"android": "https://dc.lft.to/lastmile_qr_scan", "ios": "https://dc.lft.to/lastmile_qr_scan"}, "lon": -77.01151816666666, "name": "2cecd3a4f123ca7f3afd84680a34e769", "is_disabled": 0, "is_reserved": 0, "bike_id": "2cecd3a4f123ca7f3afd84680a34e769", "lat": 38.911093, "type": "electric_scooter"}, {"fusion_lat": 0.0, "fusion_lon": 0.0, "rental_uris": {"android": "https://dc.lft.to/lastmile_qr_scan", "ios": "https://dc.lft.to/lastmile_qr_scan"}, "lon": -76.985617, "name": "b51f63200062ba006c269d1943a01dee", "is_disabled": 0, "is_reserved": 0, "bike_id": "b51f63200062ba006c269d1943a01dee", "lat": 38.86681516666667, "type": "electric_scooter"}, {"fusion_lat": 0.0, "fusion_lon": 0.0, "rental_uris": {"android": "https://dc.lft.to/lastmile_qr_scan", "ios": "https://dc.lft.to/lastmile_qr_scan"}, "lon": -76.98195233333334, "name": "710a8661defff2e98eeec7fdba58058f", "is_disabled": 0, "is_reserved": 0, "bike_id": "710a8661defff2e98eeec7fdba58058f", "lat": 38.91375766666667, "type": "electric_scooter"}, {"fusion_lat": 0.0, "fusion_lon": 0.0, "rental_uris": {"android": "https://dc.lft.to/lastmile_qr_scan", "ios": "https://dc.lft.to/lastmile_qr_scan"}, "lon": -76.999456, "name": "ecfa1c95e4d2d28b4cac56fd40b4c206", "is_disabled": 0, "is_reserved": 0, "bike_id": "ecfa1c95e4d2d28b4cac56fd40b4c206", "lat": 38.8429125, "type": "electric_scooter"}, {"fusion_lat": 0.0, "fusion_lon": 0.0, "rental_uris": {"android": "https://dc.lft.to/lastmile_qr_scan", "ios": "https://dc.lft.to/lastmile_qr_scan"}, "lon": -77.027915, "name": "cd78b7d6bf5005ca5215e5f2c3c3d77c", "is_disabled": 0, "is_reserved": 0, "bike_id": "cd78b7d6bf5005ca5215e5f2c3c3d77c", "lat": 38.9305965, "type": "electric_scooter"}, {"fusion_lat": 0.0, "fusion_lon": 0.0, "rental_uris": {"android": "https://dc.lft.to/lastmile_qr_scan", "ios": "https://dc.lft.to/lastmile_qr_scan"}, "lon": -76.97436533333334, "name": "22ad94033d342fdc82f1d285f3835188", "is_disabled": 0, "is_reserved": 0, "bike_id": "22ad94033d342fdc82f1d285f3835188", "lat": 38.902392, "type": "electric_scooter"}, {"fusion_lat": 0.0, "fusion_lon": 0.0, "rental_uris": {"android": "https://dc.lft.to/lastmile_qr_scan", "ios": "https://dc.lft.to/lastmile_qr_scan"}, "lon": -77.04349383333333, "name": "8652e00271126bca6398236a9b4c86f6", "is_disabled": 0, "is_reserved": 0, "bike_id": "8652e00271126bca6398236a9b4c86f6", "lat": 38.90577366666667, "type": "electric_scooter"}, {"fusion_lat": 0.0, "fusion_lon": 0.0, "rental_uris": {"android": "https://dc.lft.to/lastmile_qr_scan", "ios": "https://dc.lft.to/lastmile_qr_scan"}, "lon": -76.99468716666667, "name": "4ea12634402bce326774016980c56885", "is_disabled": 0, "is_reserved": 0, "bike_id": "4ea12634402bce326774016980c56885", "lat": 38.905175, "type": "electric_scooter"}, {"fusion_lat": 0.0, "fusion_lon": 0.0, "rental_uris": {"android": "https://dc.lft.to/lastmile_qr_scan", "ios": "https://dc.lft.to/lastmile_qr_scan"}, "lon": -77.00568983333334, "name": "313f551573ec20a65d202ff428e51e00", "is_disabled": 0, "is_reserved": 0, "bike_id": "313f551573ec20a65d202ff428e51e00", "lat": 38.87664183333333, "type": "electric_scooter"}, {"fusion_lat": 0.0, "fusion_lon": 0.0, "rental_uris": {"android": "https://dc.lft.to/lastmile_qr_scan", "ios": "https://dc.lft.to/lastmile_qr_scan"}, "lon": -77.04697183333333, "name": "6d3935397bdfc09aad9b5b3520dca68c", "is_disabled": 0, "is_reserved": 0, "bike_id": "6d3935397bdfc09aad9b5b3520dca68c", "lat": 38.8984415, "type": "electric_scooter"}, {"fusion_lat": 0.0, "fusion_lon": 0.0, "rental_uris": {"android": "https://dc.lft.to/lastmile_qr_scan", "ios": "https://dc.lft.to/lastmile_qr_scan"}, "lon": -77.0339795, "name": "1de8cc95185f4a52c699afdaa1196583", "is_disabled": 0, "is_reserved": 0, "bike_id": "1de8cc95185f4a52c699afdaa1196583", "lat": 38.924375, "type": "electric_scooter"}, {"fusion_lat": 0.0, "fusion_lon": 0.0, "rental_uris": {"android": "https://dc.lft.to/lastmile_qr_scan", "ios": "https://dc.lft.to/lastmile_qr_scan"}, "lon": -77.028762, "name": "7b2a078aa97b0ae07fdff5a142901ec3", "is_disabled": 0, "is_reserved": 0, "bike_id": "7b2a078aa97b0ae07fdff5a142901ec3", "lat": 38.912684166666665, "type": "electric_scooter"}, {"fusion_lat": 0.0, "fusion_lon": 0.0, "rental_uris": {"android": "https://dc.lft.to/lastmile_qr_scan", "ios": "https://dc.lft.to/lastmile_qr_scan"}, "lon": -77.02392416666666, "name": "128f750b2d88d5b95a755c54a54b8218", "is_disabled": 0, "is_reserved": 0, "bike_id": "128f750b2d88d5b95a755c54a54b8218", "lat": 38.90326, "type": "electric_scooter"}, {"fusion_lat": 0.0, "fusion_lon": 0.0, "rental_uris": {"android": "https://dc.lft.to/lastmile_qr_scan", "ios": "https://dc.lft.to/lastmile_qr_scan"}, "lon": -77.02825083333333, "name": "120148a352232aa97336d7d904e0badf", "is_disabled": 0, "is_reserved": 0, "bike_id": "120148a352232aa97336d7d904e0badf", "lat": 38.88734083333333, "type": "electric_scooter"}, {"fusion_lat": 0.0, "fusion_lon": 0.0, "rental_uris": {"android": "https://dc.lft.to/lastmile_qr_scan", "ios": "https://dc.lft.to/lastmile_qr_scan"}, "lon": -77.029831, "name": "7a187b57d580782d7ad34abffff41bbe", "is_disabled": 0, "is_reserved": 0, "bike_id": "7a187b57d580782d7ad34abffff41bbe", "lat": 38.897505333333335, "type": "electric_scooter"}, {"fusion_lat": 0.0, "fusion_lon": 0.0, "rental_uris": {"android": "https://dc.lft.to/lastmile_qr_scan", "ios": "https://dc.lft.to/lastmile_qr_scan"}, "lon": -77.04139416666666, "name": "b97cdd13cae6cd98025ea995b68de936", "is_disabled": 0, "is_reserved": 0, "bike_id": "b97cdd13cae6cd98025ea995b68de936", "lat": 38.91267283333333, "type": "electric_scooter"}, {"fusion_lat": 0.0, "fusion_lon": 0.0, "rental_uris": {"android": "https://dc.lft.to/lastmile_qr_scan", "ios": "https://dc.lft.to/lastmile_qr_scan"}, "lon": -77.029226, "name": "543ee5c982d5f96dc92876b80c82d8bf", "is_disabled": 0, "is_reserved": 0, "bike_id": "543ee5c982d5f96dc92876b80c82d8bf", "lat": 38.89525316666667, "type": "electric_scooter"}, {"fusion_lat": 0.0, "fusion_lon": 0.0, "rental_uris": {"android": "https://dc.lft.to/lastmile_qr_scan", "ios": "https://dc.lft.to/lastmile_qr_scan"}, "lon": -77.02975283333333, "name": "87adcd8bc7c0f474580a9d43c02ec173", "is_disabled": 0, "is_reserved": 0, "bike_id": "87adcd8bc7c0f474580a9d43c02ec173", "lat": 38.89644766666667, "type": "electric_bike"}, {"fusion_lat": 0.0, "fusion_lon": 0.0, "rental_uris": {"android": "https://dc.lft.to/lastmile_qr_scan", "ios": "https://dc.lft.to/lastmile_qr_scan"}, "lon": -76.93866766666666, "name": "a79264a1901fcb77a31d424bbdc2dbd3", "is_disabled": 0, "is_reserved": 0, "bike_id": "a79264a1901fcb77a31d424bbdc2dbd3", "lat": 38.956323, "type": "electric_bike"}, {"fusion_lat": 0.0, "fusion_lon": 0.0, "rental_uris": {"android": "https://dc.lft.to/lastmile_qr_scan", "ios": "https://dc.lft.to/lastmile_qr_scan"}, "lon": -77.04170566666667, "name": "a339c23d9eeaea19e5ecea3e9a0ba259", "is_disabled": 0, "is_reserved": 0, "bike_id": "a339c23d9eeaea19e5ecea3e9a0ba259", "lat": 38.8980455, "type": "electric_bike"}, {"fusion_lat": 0.0, "fusion_lon": 0.0, "rental_uris": {"android": "https://dc.lft.to/lastmile_qr_scan", "ios": "https://dc.lft.to/lastmile_qr_scan"}, "lon": -77.0065835, "name": "92f51b27cd1313e0e236f405d4f545be", "is_disabled": 0, "is_reserved": 0, "bike_id": "92f51b27cd1313e0e236f405d4f545be", "lat": 38.897935333333336, "type": "electric_scooter"}, {"fusion_lat": 0.0, "fusion_lon": 0.0, "rental_uris": {"android": "https://dc.lft.to/lastmile_qr_scan", "ios": "https://dc.lft.to/lastmile_qr_scan"}, "lon": -77.03185833333333, "name": "7bd8bb740a3f5a438d1c12cf38072e6f", "is_disabled": 0, "is_reserved": 0, "bike_id": "7bd8bb740a3f5a438d1c12cf38072e6f", "lat": 38.911004166666665, "type": "electric_scooter"}, {"fusion_lat": 0.0, "fusion_lon": 0.0, "rental_uris": {"android": "https://dc.lft.to/lastmile_qr_scan", "ios": "https://dc.lft.to/lastmile_qr_scan"}, "lon": -77.01205066666667, "name": "e2d22ed1865ee69b508c8614a64f0b61", "is_disabled": 0, "is_reserved": 0, "bike_id": "e2d22ed1865ee69b508c8614a64f0b61", "lat": 38.91822716666667, "type": "electric_scooter"}, {"fusion_lat": 0.0, "fusion_lon": 0.0, "rental_uris": {"android": "https://dc.lft.to/lastmile_qr_scan", "ios": "https://dc.lft.to/lastmile_qr_scan"}, "lon": -76.98515866666666, "name": "0684fd8ac9cdc32b36225161cbd19cc7", "is_disabled": 0, "is_reserved": 0, "bike_id": "0684fd8ac9cdc32b36225161cbd19cc7", "lat": 38.860038333333335, "type": "electric_scooter"}, {"fusion_lat": 0.0, "fusion_lon": 0.0, "rental_uris": {"android": "https://dc.lft.to/lastmile_qr_scan", "ios": "https://dc.lft.to/lastmile_qr_scan"}, "lon": -77.0264365, "name": "32b3a2f99714fc0753b786b0d42f92a0", "is_disabled": 0, "is_reserved": 0, "bike_id": "32b3a2f99714fc0753b786b0d42f92a0", "lat": 38.90418433333333, "type": "electric_scooter"}, {"fusion_lat": 0.0, "fusion_lon": 0.0, "rental_uris": {"android": "https://dc.lft.to/lastmile_qr_scan", "ios": "https://dc.lft.to/lastmile_qr_scan"}, "lon": -77.02167783333333, "name": "b8383551702f3d3f8f73f2424b5fee91", "is_disabled": 0, "is_reserved": 0, "bike_id": "b8383551702f3d3f8f73f2424b5fee91", "lat": 38.942956833333334, "type": "electric_scooter"}, {"fusion_lat": 0.0, "fusion_lon": 0.0, "rental_uris": {"android": "https://dc.lft.to/lastmile_qr_scan", "ios": "https://dc.lft.to/lastmile_qr_scan"}, "lon": -77.04354866666667, "name": "8a9a200357706118955a9f7ed511e712", "is_disabled": 0, "is_reserved": 0, "bike_id": "8a9a200357706118955a9f7ed511e712", "lat": 38.921307166666665, "type": "electric_scooter"}, {"fusion_lat": 0.0, "fusion_lon": 0.0, "rental_uris": {"android": "https://dc.lft.to/lastmile_qr_scan", "ios": "https://dc.lft.to/lastmile_qr_scan"}, "lon": -77.017608, "name": "c2909c5a7925c26b667ee9acc6d0fc11", "is_disabled": 0, "is_reserved": 0, "bike_id": "c2909c5a7925c26b667ee9acc6d0fc11", "lat": 38.877186, "type": "electric_scooter"}, {"fusion_lat": 0.0, "fusion_lon": 0.0, "rental_uris": {"android": "https://dc.lft.to/lastmile_qr_scan", "ios": "https://dc.lft.to/lastmile_qr_scan"}, "lon": -77.03168333333333, "name": "e5893ee0d6224033b11fe7773d956bd9", "is_disabled": 0, "is_reserved": 0, "bike_id": "e5893ee0d6224033b11fe7773d956bd9", "lat": 38.91915, "type": "electric_scooter"}, {"fusion_lat": 0.0, "fusion_lon": 0.0, "rental_uris": {"android": "https://dc.lft.to/lastmile_qr_scan", "ios": "https://dc.lft.to/lastmile_qr_scan"}, "lon": -77.04497683333334, "name": "c50bb9c393d8d16a36e69744c9f62eee", "is_disabled": 0, "is_reserved": 0, "bike_id": "c50bb9c393d8d16a36e69744c9f62eee", "lat": 38.899486833333334, "type": "electric_scooter"}, {"fusion_lat": 0.0, "fusion_lon": 0.0, "rental_uris": {"android": "https://dc.lft.to/lastmile_qr_scan", "ios": "https://dc.lft.to/lastmile_qr_scan"}, "lon": -77.0522705, "name": "7aa4a7ad11e583aeb3394956c939ae9f", "is_disabled": 0, "is_reserved": 0, "bike_id": "7aa4a7ad11e583aeb3394956c939ae9f", "lat": 38.9236005, "type": "electric_scooter"}, {"fusion_lat": 0.0, "fusion_lon": 0.0, "rental_uris": {"android": "https://dc.lft.to/lastmile_qr_scan", "ios": "https://dc.lft.to/lastmile_qr_scan"}, "lon": -77.05037533333333, "name": "faee21170fe136d72df34557d53e5a72", "is_disabled": 0, "is_reserved": 0, "bike_id": "faee21170fe136d72df34557d53e5a72", "lat": 38.923407, "type": "electric_scooter"}, {"fusion_lat": 0.0, "fusion_lon": 0.0, "rental_uris": {"android": "https://dc.lft.to/lastmile_qr_scan", "ios": "https://dc.lft.to/lastmile_qr_scan"}, "lon": -77.01653383333333, "name": "dde8c2e49d7735413d12f938aa1a6352", "is_disabled": 0, "is_reserved": 0, "bike_id": "dde8c2e49d7735413d12f938aa1a6352", "lat": 38.88112016666667, "type": "electric_scooter"}, {"fusion_lat": 0.0, "fusion_lon": 0.0, "rental_uris": {"android": "https://dc.lft.to/lastmile_qr_scan", "ios": "https://dc.lft.to/lastmile_qr_scan"}, "lon": -77.021588, "name": "faffca37e8cb8b45e870cf730495d688", "is_disabled": 0, "is_reserved": 0, "bike_id": "faffca37e8cb8b45e870cf730495d688", "lat": 38.926118333333335, "type": "electric_scooter"}, {"fusion_lat": 0.0, "fusion_lon": 0.0, "rental_uris": {"android": "https://dc.lft.to/lastmile_qr_scan", "ios": "https://dc.lft.to/lastmile_qr_scan"}, "lon": -76.99765633333334, "name": "1046cebd6f23f1caf8a88590ff534511", "is_disabled": 0, "is_reserved": 0, "bike_id": "1046cebd6f23f1caf8a88590ff534511", "lat": 38.90897916666667, "type": "electric_scooter"}, {"fusion_lat": 0.0, "fusion_lon": 0.0, "rental_uris": {"android": "https://dc.lft.to/lastmile_qr_scan", "ios": "https://dc.lft.to/lastmile_qr_scan"}, "lon": -76.98542233333333, "name": "e5043dc070fb3da568f844657ae5b719", "is_disabled": 0, "is_reserved": 0, "bike_id": "e5043dc070fb3da568f844657ae5b719", "lat": 38.86690083333333, "type": "electric_scooter"}, {"fusion_lat": 0.0, "fusion_lon": 0.0, "rental_uris": {"android": "https://dc.lft.to/lastmile_qr_scan", "ios": "https://dc.lft.to/lastmile_qr_scan"}, "lon": -76.99128416666667, "name": "40a3b39ad992526efc005ef48d4493eb", "is_disabled": 0, "is_reserved": 0, "bike_id": "40a3b39ad992526efc005ef48d4493eb", "lat": 38.846384, "type": "electric_scooter"}, {"fusion_lat": 0.0, "fusion_lon": 0.0, "rental_uris": {"android": "https://dc.lft.to/lastmile_qr_scan", "ios": "https://dc.lft.to/lastmile_qr_scan"}, "lon": -77.10788716666667, "name": "3b6c23bed417b20b5d587bffadcfd684", "is_disabled": 0, "is_reserved": 0, "bike_id": "3b6c23bed417b20b5d587bffadcfd684", "lat": 38.852488, "type": "electric_bike"}, {"fusion_lat": 0.0, "fusion_lon": 0.0, "rental_uris": {"android": "https://dc.lft.to/lastmile_qr_scan", "ios": "https://dc.lft.to/lastmile_qr_scan"}, "lon": -77.0475365, "name": "6b6eb4c89e519b27a56c09f55c42a97f", "is_disabled": 0, "is_reserved": 0, "bike_id": "6b6eb4c89e519b27a56c09f55c42a97f", "lat": 38.909633166666666, "type": "electric_scooter"}, {"fusion_lat": 0.0, "fusion_lon": 0.0, "rental_uris": {"android": "https://dc.lft.to/lastmile_qr_scan", "ios": "https://dc.lft.to/lastmile_qr_scan"}, "lon": -76.99727883333334, "name": "816ea35311dcb4a1d7f760e93943a35f", "is_disabled": 0, "is_reserved": 0, "bike_id": "816ea35311dcb4a1d7f760e93943a35f", "lat": 38.89947133333333, "type": "electric_scooter"}, {"fusion_lat": 0.0, "fusion_lon": 0.0, "rental_uris": {"android": "https://dc.lft.to/lastmile_qr_scan", "ios": "https://dc.lft.to/lastmile_qr_scan"}, "lon": -77.05028233333333, "name": "412ca9e14e949f6caa9b386695ea8278", "is_disabled": 0, "is_reserved": 0, "bike_id": "412ca9e14e949f6caa9b386695ea8278", "lat": 38.896674833333336, "type": "electric_scooter"}, {"fusion_lat": 0.0, "fusion_lon": 0.0, "rental_uris": {"android": "https://dc.lft.to/lastmile_qr_scan", "ios": "https://dc.lft.to/lastmile_qr_scan"}, "lon": -76.9951355, "name": "a44cec7789a15446af992511816340fc", "is_disabled": 0, "is_reserved": 0, "bike_id": "a44cec7789a15446af992511816340fc", "lat": 38.821759666666665, "type": "electric_bike"}, {"fusion_lat": 0.0, "fusion_lon": 0.0, "rental_uris": {"android": "https://dc.lft.to/lastmile_qr_scan", "ios": "https://dc.lft.to/lastmile_qr_scan"}, "lon": -76.94631283333334, "name": "a28e7d254ad3e6c4d6f779ca418638e2", "is_disabled": 0, "is_reserved": 0, "bike_id": "a28e7d254ad3e6c4d6f779ca418638e2", "lat": 38.898242, "type": "electric_scooter"}, {"fusion_lat": 0.0, "fusion_lon": 0.0, "rental_uris": {"android": "https://dc.lft.to/lastmile_qr_scan", "ios": "https://dc.lft.to/lastmile_qr_scan"}, "lon": -76.99693016666667, "name": "219812b509dfec9723eb26c4743a5aa6", "is_disabled": 0, "is_reserved": 0, "bike_id": "219812b509dfec9723eb26c4743a5aa6", "lat": 38.884167833333336, "type": "electric_scooter"}, {"fusion_lat": 0.0, "fusion_lon": 0.0, "rental_uris": {"android": "https://dc.lft.to/lastmile_qr_scan", "ios": "https://dc.lft.to/lastmile_qr_scan"}, "lon": -77.03220666666667, "name": "458b89a5f419f7630b0be863476592e0", "is_disabled": 0, "is_reserved": 0, "bike_id": "458b89a5f419f7630b0be863476592e0", "lat": 38.917921666666665, "type": "electric_scooter"}, {"fusion_lat": 0.0, "fusion_lon": 0.0, "rental_uris": {"android": "https://dc.lft.to/lastmile_qr_scan", "ios": "https://dc.lft.to/lastmile_qr_scan"}, "lon": -77.032218, "name": "b60827f56007583e17b7e0d702f7eaa5", "is_disabled": 0, "is_reserved": 0, "bike_id": "b60827f56007583e17b7e0d702f7eaa5", "lat": 38.914027833333336, "type": "electric_scooter"}, {"fusion_lat": 0.0, "fusion_lon": 0.0, "rental_uris": {"android": "https://dc.lft.to/lastmile_qr_scan", "ios": "https://dc.lft.to/lastmile_qr_scan"}, "lon": -77.07873266666667, "name": "39cbd99cf03dba8dc54cc9cddef96d3d", "is_disabled": 0, "is_reserved": 0, "bike_id": "39cbd99cf03dba8dc54cc9cddef96d3d", "lat": 38.9316045, "type": "electric_scooter"}, {"fusion_lat": 0.0, "fusion_lon": 0.0, "rental_uris": {"android": "https://dc.lft.to/lastmile_qr_scan", "ios": "https://dc.lft.to/lastmile_qr_scan"}, "lon": -76.99581333333333, "name": "ee98eca42e6c8eefc116fdd40df6482b", "is_disabled": 0, "is_reserved": 0, "bike_id": "ee98eca42e6c8eefc116fdd40df6482b", "lat": 38.851726666666664, "type": "electric_scooter"}, {"fusion_lat": 0.0, "fusion_lon": 0.0, "rental_uris": {"android": "https://dc.lft.to/lastmile_qr_scan", "ios": "https://dc.lft.to/lastmile_qr_scan"}, "lon": -77.00237, "name": "8d215178b68c8f0aea7db78893ff4bfb", "is_disabled": 0, "is_reserved": 0, "bike_id": "8d215178b68c8f0aea7db78893ff4bfb", "lat": 38.89886816666667, "type": "electric_scooter"}, {"fusion_lat": 0.0, "fusion_lon": 0.0, "rental_uris": {"android": "https://dc.lft.to/lastmile_qr_scan", "ios": "https://dc.lft.to/lastmile_qr_scan"}, "lon": -77.06305583333334, "name": "129ec6e43b1fac8b0a9731ece1d9b97a", "is_disabled": 0, "is_reserved": 0, "bike_id": "129ec6e43b1fac8b0a9731ece1d9b97a", "lat": 38.798535, "type": "electric_bike"}, {"fusion_lat": 0.0, "fusion_lon": 0.0, "rental_uris": {"android": "https://dc.lft.to/lastmile_qr_scan", "ios": "https://dc.lft.to/lastmile_qr_scan"}, "lon": -77.04984666666667, "name": "85c15d1a3697d0eb5f2522b8a0a796e4", "is_disabled": 0, "is_reserved": 0, "bike_id": "85c15d1a3697d0eb5f2522b8a0a796e4", "lat": 38.90137166666667, "type": "electric_scooter"}, {"fusion_lat": 0.0, "fusion_lon": 0.0, "rental_uris": {"android": "https://dc.lft.to/lastmile_qr_scan", "ios": "https://dc.lft.to/lastmile_qr_scan"}, "lon": -77.022939, "name": "187fa92ed984fdb946b87565f12ddd83", "is_disabled": 0, "is_reserved": 0, "bike_id": "187fa92ed984fdb946b87565f12ddd83", "lat": 38.89540783333333, "type": "electric_scooter"}, {"fusion_lat": 0.0, "fusion_lon": 0.0, "rental_uris": {"android": "https://dc.lft.to/lastmile_qr_scan", "ios": "https://dc.lft.to/lastmile_qr_scan"}, "lon": -76.96526766666666, "name": "85e249f636d03170c609dc5e5f421bc7", "is_disabled": 0, "is_reserved": 0, "bike_id": "85e249f636d03170c609dc5e5f421bc7", "lat": 38.874780333333334, "type": "electric_bike"}, {"fusion_lat": 0.0, "fusion_lon": 0.0, "rental_uris": {"android": "https://dc.lft.to/lastmile_qr_scan", "ios": "https://dc.lft.to/lastmile_qr_scan"}, "lon": -77.01432583333333, "name": "11be55f54f9f13623ec38a02d5fcaa57", "is_disabled": 0, "is_reserved": 0, "bike_id": "11be55f54f9f13623ec38a02d5fcaa57", "lat": 38.913127833333334, "type": "electric_scooter"}, {"fusion_lat": 0.0, "fusion_lon": 0.0, "rental_uris": {"android": "https://dc.lft.to/lastmile_qr_scan", "ios": "https://dc.lft.to/lastmile_qr_scan"}, "lon": -76.99778516666666, "name": "e0f38d0626335636cae4e5c2e6985218", "is_disabled": 0, "is_reserved": 0, "bike_id": "e0f38d0626335636cae4e5c2e6985218", "lat": 38.844399, "type": "electric_scooter"}, {"fusion_lat": 0.0, "fusion_lon": 0.0, "rental_uris": {"android": "https://dc.lft.to/lastmile_qr_scan", "ios": "https://dc.lft.to/lastmile_qr_scan"}, "lon": -76.98743416666667, "name": "4aaea32421d2dcc5ad92ca6c0d9556a0", "is_disabled": 0, "is_reserved": 0, "bike_id": "4aaea32421d2dcc5ad92ca6c0d9556a0", "lat": 38.85771833333333, "type": "electric_bike"}, {"fusion_lat": 0.0, "fusion_lon": 0.0, "rental_uris": {"android": "https://dc.lft.to/lastmile_qr_scan", "ios": "https://dc.lft.to/lastmile_qr_scan"}, "lon": -77.008908, "name": "86b3195455711ea81c31389d2c063de9", "is_disabled": 0, "is_reserved": 0, "bike_id": "86b3195455711ea81c31389d2c063de9", "lat": 38.914479666666665, "type": "electric_scooter"}, {"fusion_lat": 0.0, "fusion_lon": 0.0, "rental_uris": {"android": "https://dc.lft.to/lastmile_qr_scan", "ios": "https://dc.lft.to/lastmile_qr_scan"}, "lon": -77.00211266666666, "name": "032b61bee55e6cfd0680f0c822f6dbbe", "is_disabled": 0, "is_reserved": 0, "bike_id": "032b61bee55e6cfd0680f0c822f6dbbe", "lat": 38.95737283333333, "type": "electric_scooter"}, {"fusion_lat": 0.0, "fusion_lon": 0.0, "rental_uris": {"android": "https://dc.lft.to/lastmile_qr_scan", "ios": "https://dc.lft.to/lastmile_qr_scan"}, "lon": -77.02601616666666, "name": "900cedf1a40a37b3ffabda144b9e0541", "is_disabled": 0, "is_reserved": 0, "bike_id": "900cedf1a40a37b3ffabda144b9e0541", "lat": 38.944107833333334, "type": "electric_scooter"}, {"fusion_lat": 0.0, "fusion_lon": 0.0, "rental_uris": {"android": "https://dc.lft.to/lastmile_qr_scan", "ios": "https://dc.lft.to/lastmile_qr_scan"}, "lon": -77.0220745, "name": "d57ebb2a9ff9732ee1ff7f07a2a61494", "is_disabled": 0, "is_reserved": 0, "bike_id": "d57ebb2a9ff9732ee1ff7f07a2a61494", "lat": 38.90174783333333, "type": "electric_scooter"}, {"fusion_lat": 0.0, "fusion_lon": 0.0, "rental_uris": {"android": "https://dc.lft.to/lastmile_qr_scan", "ios": "https://dc.lft.to/lastmile_qr_scan"}, "lon": -77.029332, "name": "4eb20056b60fe286b5bfeaf8b554004a", "is_disabled": 0, "is_reserved": 0, "bike_id": "4eb20056b60fe286b5bfeaf8b554004a", "lat": 38.90250283333334, "type": "electric_scooter"}, {"fusion_lat": 0.0, "fusion_lon": 0.0, "rental_uris": {"android": "https://dc.lft.to/lastmile_qr_scan", "ios": "https://dc.lft.to/lastmile_qr_scan"}, "lon": -76.98891666666667, "name": "3f4464f2c55f0d83cdbc298ff829cedd", "is_disabled": 0, "is_reserved": 0, "bike_id": "3f4464f2c55f0d83cdbc298ff829cedd", "lat": 38.86662583333333, "type": "electric_scooter"}, {"fusion_lat": 0.0, "fusion_lon": 0.0, "rental_uris": {"android": "https://dc.lft.to/lastmile_qr_scan", "ios": "https://dc.lft.to/lastmile_qr_scan"}, "lon": -77.02827783333333, "name": "3f76c185691838114e332c7711109275", "is_disabled": 0, "is_reserved": 0, "bike_id": "3f76c185691838114e332c7711109275", "lat": 38.887334333333335, "type": "electric_scooter"}, {"fusion_lat": 0.0, "fusion_lon": 0.0, "rental_uris": {"android": "https://dc.lft.to/lastmile_qr_scan", "ios": "https://dc.lft.to/lastmile_qr_scan"}, "lon": -77.0385195, "name": "af678f4014044267d19cfa711bf1cf5a", "is_disabled": 0, "is_reserved": 0, "bike_id": "af678f4014044267d19cfa711bf1cf5a", "lat": 38.90291066666666, "type": "electric_scooter"}, {"fusion_lat": 0.0, "fusion_lon": 0.0, "rental_uris": {"android": "https://dc.lft.to/lastmile_qr_scan", "ios": "https://dc.lft.to/lastmile_qr_scan"}, "lon": -77.02626633333334, "name": "e6f77c7a6f8c000be62271e8ee48ebc1", "is_disabled": 0, "is_reserved": 0, "bike_id": "e6f77c7a6f8c000be62271e8ee48ebc1", "lat": 38.8877185, "type": "electric_scooter"}, {"fusion_lat": 0.0, "fusion_lon": 0.0, "rental_uris": {"android": "https://dc.lft.to/lastmile_qr_scan", "ios": "https://dc.lft.to/lastmile_qr_scan"}, "lon": -77.0346995, "name": "328c25a6b0345905820d1788fb264189", "is_disabled": 0, "is_reserved": 0, "bike_id": "328c25a6b0345905820d1788fb264189", "lat": 38.905933, "type": "electric_scooter"}, {"fusion_lat": 0.0, "fusion_lon": 0.0, "rental_uris": {"android": "https://dc.lft.to/lastmile_qr_scan", "ios": "https://dc.lft.to/lastmile_qr_scan"}, "lon": -77.041892, "name": "423a14e676b1d6f451a742de15f392c0", "is_disabled": 0, "is_reserved": 0, "bike_id": "423a14e676b1d6f451a742de15f392c0", "lat": 38.920500833333335, "type": "electric_scooter"}, {"fusion_lat": 0.0, "fusion_lon": 0.0, "rental_uris": {"android": "https://dc.lft.to/lastmile_qr_scan", "ios": "https://dc.lft.to/lastmile_qr_scan"}, "lon": -76.9682805, "name": "8d0184cf527643630cad2a0e79e3a86e", "is_disabled": 0, "is_reserved": 0, "bike_id": "8d0184cf527643630cad2a0e79e3a86e", "lat": 38.87333116666667, "type": "electric_scooter"}, {"fusion_lat": 0.0, "fusion_lon": 0.0, "rental_uris": {"android": "https://dc.lft.to/lastmile_qr_scan", "ios": "https://dc.lft.to/lastmile_qr_scan"}, "lon": -76.98136266666667, "name": "600d0dbca73d6af047518aa1dd1aa7a9", "is_disabled": 0, "is_reserved": 0, "bike_id": "600d0dbca73d6af047518aa1dd1aa7a9", "lat": 38.89741383333333, "type": "electric_scooter"}, {"fusion_lat": 0.0, "fusion_lon": 0.0, "rental_uris": {"android": "https://dc.lft.to/lastmile_qr_scan", "ios": "https://dc.lft.to/lastmile_qr_scan"}, "lon": -77.04643716666666, "name": "4e20046737b8f1a7407bc909ec8dd0b3", "is_disabled": 0, "is_reserved": 0, "bike_id": "4e20046737b8f1a7407bc909ec8dd0b3", "lat": 38.900787666666666, "type": "electric_bike"}, {"fusion_lat": 0.0, "fusion_lon": 0.0, "rental_uris": {"android": "https://dc.lft.to/lastmile_qr_scan", "ios": "https://dc.lft.to/lastmile_qr_scan"}, "lon": -77.04007166666666, "name": "88600fa904d26876785004ab994032b8", "is_disabled": 0, "is_reserved": 0, "bike_id": "88600fa904d26876785004ab994032b8", "lat": 38.90331666666667, "type": "electric_scooter"}, {"fusion_lat": 0.0, "fusion_lon": 0.0, "rental_uris": {"android": "https://dc.lft.to/lastmile_qr_scan", "ios": "https://dc.lft.to/lastmile_qr_scan"}, "lon": -77.049478, "name": "15ab016cfac2c71f1290fcd5a8a8fdd1", "is_disabled": 0, "is_reserved": 0, "bike_id": "15ab016cfac2c71f1290fcd5a8a8fdd1", "lat": 38.89735833333334, "type": "electric_scooter"}, {"fusion_lat": 0.0, "fusion_lon": 0.0, "rental_uris": {"android": "https://dc.lft.to/lastmile_qr_scan", "ios": "https://dc.lft.to/lastmile_qr_scan"}, "lon": -77.0326865, "name": "e5745a87e0325b38f10134fffa7bd73a", "is_disabled": 0, "is_reserved": 0, "bike_id": "e5745a87e0325b38f10134fffa7bd73a", "lat": 38.92806383333333, "type": "electric_scooter"}, {"fusion_lat": 0.0, "fusion_lon": 0.0, "rental_uris": {"android": "https://dc.lft.to/lastmile_qr_scan", "ios": "https://dc.lft.to/lastmile_qr_scan"}, "lon": -77.02693816666667, "name": "9279c47356c50442da19e8a822fd956f", "is_disabled": 0, "is_reserved": 0, "bike_id": "9279c47356c50442da19e8a822fd956f", "lat": 38.90683516666667, "type": "electric_scooter"}, {"fusion_lat": 0.0, "fusion_lon": 0.0, "rental_uris": {"android": "https://dc.lft.to/lastmile_qr_scan", "ios": "https://dc.lft.to/lastmile_qr_scan"}, "lon": -77.04330233333333, "name": "eddd185ba98b35e12dd84a4eecff37f2", "is_disabled": 0, "is_reserved": 0, "bike_id": "eddd185ba98b35e12dd84a4eecff37f2", "lat": 38.90050683333333, "type": "electric_scooter"}, {"fusion_lat": 0.0, "fusion_lon": 0.0, "rental_uris": {"android": "https://dc.lft.to/lastmile_qr_scan", "ios": "https://dc.lft.to/lastmile_qr_scan"}, "lon": -77.04803433333333, "name": "0a810af9e19a567bdd95101f899345d3", "is_disabled": 0, "is_reserved": 0, "bike_id": "0a810af9e19a567bdd95101f899345d3", "lat": 38.896315666666666, "type": "electric_scooter"}, {"fusion_lat": 0.0, "fusion_lon": 0.0, "rental_uris": {"android": "https://dc.lft.to/lastmile_qr_scan", "ios": "https://dc.lft.to/lastmile_qr_scan"}, "lon": -77.0574145, "name": "81eda6383301767e0937546346a48cf5", "is_disabled": 0, "is_reserved": 0, "bike_id": "81eda6383301767e0937546346a48cf5", "lat": 38.9339125, "type": "electric_scooter"}, {"fusion_lat": 0.0, "fusion_lon": 0.0, "rental_uris": {"android": "https://dc.lft.to/lastmile_qr_scan", "ios": "https://dc.lft.to/lastmile_qr_scan"}, "lon": -77.0335165, "name": "c4b8fe189ab3a350b60f6f048d02df7d", "is_disabled": 0, "is_reserved": 0, "bike_id": "c4b8fe189ab3a350b60f6f048d02df7d", "lat": 38.925402166666665, "type": "electric_scooter"}, {"fusion_lat": 0.0, "fusion_lon": 0.0, "rental_uris": {"android": "https://dc.lft.to/lastmile_qr_scan", "ios": "https://dc.lft.to/lastmile_qr_scan"}, "lon": -77.0229715, "name": "dea5b6aeb20fe125b5ac8ca158644242", "is_disabled": 0, "is_reserved": 0, "bike_id": "dea5b6aeb20fe125b5ac8ca158644242", "lat": 38.918432, "type": "electric_scooter"}, {"fusion_lat": 0.0, "fusion_lon": 0.0, "rental_uris": {"android": "https://dc.lft.to/lastmile_qr_scan", "ios": "https://dc.lft.to/lastmile_qr_scan"}, "lon": -77.02801166666667, "name": "b2c893d1d9e53e63e9c2ebd1790c4e63", "is_disabled": 0, "is_reserved": 0, "bike_id": "b2c893d1d9e53e63e9c2ebd1790c4e63", "lat": 38.8992015, "type": "electric_scooter"}, {"fusion_lat": 0.0, "fusion_lon": 0.0, "rental_uris": {"android": "https://dc.lft.to/lastmile_qr_scan", "ios": "https://dc.lft.to/lastmile_qr_scan"}, "lon": -77.04355533333333, "name": "bc9f51c45f6202800909645f179d0412", "is_disabled": 0, "is_reserved": 0, "bike_id": "bc9f51c45f6202800909645f179d0412", "lat": 38.9057445, "type": "electric_scooter"}, {"fusion_lat": 0.0, "fusion_lon": 0.0, "rental_uris": {"android": "https://dc.lft.to/lastmile_qr_scan", "ios": "https://dc.lft.to/lastmile_qr_scan"}, "lon": -77.03238733333333, "name": "5fd733dcac76cc7c2f21b518490a3080", "is_disabled": 0, "is_reserved": 0, "bike_id": "5fd733dcac76cc7c2f21b518490a3080", "lat": 38.92725333333333, "type": "electric_scooter"}, {"fusion_lat": 0.0, "fusion_lon": 0.0, "rental_uris": {"android": "https://dc.lft.to/lastmile_qr_scan", "ios": "https://dc.lft.to/lastmile_qr_scan"}, "lon": -76.9940845, "name": "ac48aa73fe480aebbe7bce42fbb4c469", "is_disabled": 0, "is_reserved": 0, "bike_id": "ac48aa73fe480aebbe7bce42fbb4c469", "lat": 38.87782283333333, "type": "electric_scooter"}, {"fusion_lat": 0.0, "fusion_lon": 0.0, "rental_uris": {"android": "https://dc.lft.to/lastmile_qr_scan", "ios": "https://dc.lft.to/lastmile_qr_scan"}, "lon": -77.01900683333334, "name": "5eff3cc4c0f78e30afab4011de842982", "is_disabled": 0, "is_reserved": 0, "bike_id": "5eff3cc4c0f78e30afab4011de842982", "lat": 38.9236795, "type": "electric_scooter"}, {"fusion_lat": 0.0, "fusion_lon": 0.0, "rental_uris": {"android": "https://dc.lft.to/lastmile_qr_scan", "ios": "https://dc.lft.to/lastmile_qr_scan"}, "lon": -77.01980883333333, "name": "e77e3bacc01ad0eb846e9fd8284709b6", "is_disabled": 0, "is_reserved": 0, "bike_id": "e77e3bacc01ad0eb846e9fd8284709b6", "lat": 38.883954833333334, "type": "electric_bike"}, {"fusion_lat": 0.0, "fusion_lon": 0.0, "rental_uris": {"android": "https://dc.lft.to/lastmile_qr_scan", "ios": "https://dc.lft.to/lastmile_qr_scan"}, "lon": -76.98422633333334, "name": "e09566fc6932a81f3cf48704cf8e6f19", "is_disabled": 0, "is_reserved": 0, "bike_id": "e09566fc6932a81f3cf48704cf8e6f19", "lat": 38.926424, "type": "electric_bike"}, {"fusion_lat": 0.0, "fusion_lon": 0.0, "rental_uris": {"android": "https://dc.lft.to/lastmile_qr_scan", "ios": "https://dc.lft.to/lastmile_qr_scan"}, "lon": -77.02533233333334, "name": "8c645a876c145225b45a9e8b9811347f", "is_disabled": 0, "is_reserved": 0, "bike_id": "8c645a876c145225b45a9e8b9811347f", "lat": 38.935896, "type": "electric_scooter"}, {"fusion_lat": 0.0, "fusion_lon": 0.0, "rental_uris": {"android": "https://dc.lft.to/lastmile_qr_scan", "ios": "https://dc.lft.to/lastmile_qr_scan"}, "lon": -76.955064, "name": "81dd3bc10faeaf98957f4439f58404ec", "is_disabled": 0, "is_reserved": 0, "bike_id": "81dd3bc10faeaf98957f4439f58404ec", "lat": 38.93918083333333, "type": "electric_bike"}, {"fusion_lat": 0.0, "fusion_lon": 0.0, "rental_uris": {"android": "https://dc.lft.to/lastmile_qr_scan", "ios": "https://dc.lft.to/lastmile_qr_scan"}, "lon": -77.0436285, "name": "637c0cbe635631561a428e638e49c3df", "is_disabled": 0, "is_reserved": 0, "bike_id": "637c0cbe635631561a428e638e49c3df", "lat": 38.907587166666666, "type": "electric_scooter"}, {"fusion_lat": 0.0, "fusion_lon": 0.0, "rental_uris": {"android": "https://dc.lft.to/lastmile_qr_scan", "ios": "https://dc.lft.to/lastmile_qr_scan"}, "lon": -77.014067, "name": "4664f3040da6ce3887b9fb371550c758", "is_disabled": 0, "is_reserved": 0, "bike_id": "4664f3040da6ce3887b9fb371550c758", "lat": 38.928489666666664, "type": "electric_scooter"}, {"fusion_lat": 0.0, "fusion_lon": 0.0, "rental_uris": {"android": "https://dc.lft.to/lastmile_qr_scan", "ios": "https://dc.lft.to/lastmile_qr_scan"}, "lon": -76.99947466666667, "name": "5d50c8d23536bb1696f0232295804019", "is_disabled": 0, "is_reserved": 0, "bike_id": "5d50c8d23536bb1696f0232295804019", "lat": 38.84294383333334, "type": "electric_scooter"}, {"fusion_lat": 0.0, "fusion_lon": 0.0, "rental_uris": {"android": "https://dc.lft.to/lastmile_qr_scan", "ios": "https://dc.lft.to/lastmile_qr_scan"}, "lon": -77.02409883333333, "name": "d2ae6a8d0d3a306f5e35ba8ca0fe019f", "is_disabled": 0, "is_reserved": 0, "bike_id": "d2ae6a8d0d3a306f5e35ba8ca0fe019f", "lat": 38.87988816666667, "type": "electric_scooter"}, {"fusion_lat": 0.0, "fusion_lon": 0.0, "rental_uris": {"android": "https://dc.lft.to/lastmile_qr_scan", "ios": "https://dc.lft.to/lastmile_qr_scan"}, "lon": -77.03248383333333, "name": "6f95137bfe729c077a10080a74315f6e", "is_disabled": 0, "is_reserved": 0, "bike_id": "6f95137bfe729c077a10080a74315f6e", "lat": 38.90555616666666, "type": "electric_scooter"}, {"fusion_lat": 0.0, "fusion_lon": 0.0, "rental_uris": {"android": "https://dc.lft.to/lastmile_qr_scan", "ios": "https://dc.lft.to/lastmile_qr_scan"}, "lon": -77.05233466666667, "name": "41abfaf35a49bb753fdc6ae8b964c84c", "is_disabled": 0, "is_reserved": 0, "bike_id": "41abfaf35a49bb753fdc6ae8b964c84c", "lat": 38.924640333333336, "type": "electric_scooter"}, {"fusion_lat": 0.0, "fusion_lon": 0.0, "rental_uris": {"android": "https://dc.lft.to/lastmile_qr_scan", "ios": "https://dc.lft.to/lastmile_qr_scan"}, "lon": -76.98725733333333, "name": "f3d2b02c0b582ffb489409cf0e567c0e", "is_disabled": 0, "is_reserved": 0, "bike_id": "f3d2b02c0b582ffb489409cf0e567c0e", "lat": 38.83548316666667, "type": "electric_bike"}, {"fusion_lat": 0.0, "fusion_lon": 0.0, "rental_uris": {"android": "https://dc.lft.to/lastmile_qr_scan", "ios": "https://dc.lft.to/lastmile_qr_scan"}, "lon": -77.02384533333333, "name": "6bdf40a6589a7e70740d86ae92c8a45f", "is_disabled": 0, "is_reserved": 0, "bike_id": "6bdf40a6589a7e70740d86ae92c8a45f", "lat": 38.8922985, "type": "electric_scooter"}, {"fusion_lat": 0.0, "fusion_lon": 0.0, "rental_uris": {"android": "https://dc.lft.to/lastmile_qr_scan", "ios": "https://dc.lft.to/lastmile_qr_scan"}, "lon": -77.02278416666667, "name": "d252d8cd5275fe8530f54d34471064e9", "is_disabled": 0, "is_reserved": 0, "bike_id": "d252d8cd5275fe8530f54d34471064e9", "lat": 38.897277833333334, "type": "electric_scooter"}, {"fusion_lat": 0.0, "fusion_lon": 0.0, "rental_uris": {"android": "https://dc.lft.to/lastmile_qr_scan", "ios": "https://dc.lft.to/lastmile_qr_scan"}, "lon": -77.026973, "name": "8b82662a87a08973c0cc055b6a095a0f", "is_disabled": 0, "is_reserved": 0, "bike_id": "8b82662a87a08973c0cc055b6a095a0f", "lat": 38.9497935, "type": "electric_scooter"}, {"fusion_lat": 0.0, "fusion_lon": 0.0, "rental_uris": {"android": "https://dc.lft.to/lastmile_qr_scan", "ios": "https://dc.lft.to/lastmile_qr_scan"}, "lon": -77.09668716666667, "name": "f9391759ca5edd35f4a087a5a38f8175", "is_disabled": 0, "is_reserved": 0, "bike_id": "f9391759ca5edd35f4a087a5a38f8175", "lat": 38.9461875, "type": "electric_bike"}, {"fusion_lat": 0.0, "fusion_lon": 0.0, "rental_uris": {"android": "https://dc.lft.to/lastmile_qr_scan", "ios": "https://dc.lft.to/lastmile_qr_scan"}, "lon": -77.0127375, "name": "238bb586cdee39477094fda7821a4c1a", "is_disabled": 0, "is_reserved": 0, "bike_id": "238bb586cdee39477094fda7821a4c1a", "lat": 38.8730475, "type": "electric_scooter"}, {"fusion_lat": 0.0, "fusion_lon": 0.0, "rental_uris": {"android": "https://dc.lft.to/lastmile_qr_scan", "ios": "https://dc.lft.to/lastmile_qr_scan"}, "lon": -77.0391355, "name": "a4642dff7bba926018006cb822000dbb", "is_disabled": 0, "is_reserved": 0, "bike_id": "a4642dff7bba926018006cb822000dbb", "lat": 38.911126333333335, "type": "electric_scooter"}, {"fusion_lat": 0.0, "fusion_lon": 0.0, "rental_uris": {"android": "https://dc.lft.to/lastmile_qr_scan", "ios": "https://dc.lft.to/lastmile_qr_scan"}, "lon": -77.005315, "name": "6e16850a2fd0a3654c35607a9cb12eb6", "is_disabled": 0, "is_reserved": 0, "bike_id": "6e16850a2fd0a3654c35607a9cb12eb6", "lat": 38.9074825, "type": "electric_scooter"}, {"fusion_lat": 0.0, "fusion_lon": 0.0, "rental_uris": {"android": "https://dc.lft.to/lastmile_qr_scan", "ios": "https://dc.lft.to/lastmile_qr_scan"}, "lon": -77.057165, "name": "dc19bf500881482418a93d4ea6b710fe", "is_disabled": 0, "is_reserved": 0, "bike_id": "dc19bf500881482418a93d4ea6b710fe", "lat": 38.933613666666666, "type": "electric_scooter"}, {"fusion_lat": 0.0, "fusion_lon": 0.0, "rental_uris": {"android": "https://dc.lft.to/lastmile_qr_scan", "ios": "https://dc.lft.to/lastmile_qr_scan"}, "lon": -77.03949783333333, "name": "5c0832f76db0a96d3b30d8999ed97a82", "is_disabled": 0, "is_reserved": 0, "bike_id": "5c0832f76db0a96d3b30d8999ed97a82", "lat": 38.901070833333335, "type": "electric_scooter"}, {"fusion_lat": 0.0, "fusion_lon": 0.0, "rental_uris": {"android": "https://dc.lft.to/lastmile_qr_scan", "ios": "https://dc.lft.to/lastmile_qr_scan"}, "lon": -77.01777666666666, "name": "185a30df2445be52f4613c4d61ef2f16", "is_disabled": 0, "is_reserved": 0, "bike_id": "185a30df2445be52f4613c4d61ef2f16", "lat": 38.88718216666667, "type": "electric_scooter"}, {"fusion_lat": 0.0, "fusion_lon": 0.0, "rental_uris": {"android": "https://dc.lft.to/lastmile_qr_scan", "ios": "https://dc.lft.to/lastmile_qr_scan"}, "lon": -77.038594, "name": "d7499fff592d14b82886a153b393579a", "is_disabled": 0, "is_reserved": 0, "bike_id": "d7499fff592d14b82886a153b393579a", "lat": 38.90639866666667, "type": "electric_scooter"}, {"fusion_lat": 0.0, "fusion_lon": 0.0, "rental_uris": {"android": "https://dc.lft.to/lastmile_qr_scan", "ios": "https://dc.lft.to/lastmile_qr_scan"}, "lon": -77.00211716666666, "name": "e66ee6be3235699e51728028d07ad008", "is_disabled": 0, "is_reserved": 0, "bike_id": "e66ee6be3235699e51728028d07ad008", "lat": 38.91460133333333, "type": "electric_scooter"}, {"fusion_lat": 0.0, "fusion_lon": 0.0, "rental_uris": {"android": "https://dc.lft.to/lastmile_qr_scan", "ios": "https://dc.lft.to/lastmile_qr_scan"}, "lon": -76.98560716666667, "name": "3dbc94ed2247bf7b2ec65d098f3510af", "is_disabled": 0, "is_reserved": 0, "bike_id": "3dbc94ed2247bf7b2ec65d098f3510af", "lat": 38.8999665, "type": "electric_scooter"}, {"fusion_lat": 0.0, "fusion_lon": 0.0, "rental_uris": {"android": "https://dc.lft.to/lastmile_qr_scan", "ios": "https://dc.lft.to/lastmile_qr_scan"}, "lon": -76.95666683333333, "name": "10367208d70d29f54255ff634811940a", "is_disabled": 0, "is_reserved": 0, "bike_id": "10367208d70d29f54255ff634811940a", "lat": 38.88490566666667, "type": "electric_bike"}, {"fusion_lat": 0.0, "fusion_lon": 0.0, "rental_uris": {"android": "https://dc.lft.to/lastmile_qr_scan", "ios": "https://dc.lft.to/lastmile_qr_scan"}, "lon": -77.029476, "name": "fc78d54a91a26d2f8fb901c602a7843f", "is_disabled": 0, "is_reserved": 0, "bike_id": "fc78d54a91a26d2f8fb901c602a7843f", "lat": 38.90725116666667, "type": "electric_scooter"}, {"fusion_lat": 0.0, "fusion_lon": 0.0, "rental_uris": {"android": "https://dc.lft.to/lastmile_qr_scan", "ios": "https://dc.lft.to/lastmile_qr_scan"}, "lon": -77.02229466666667, "name": "3f94777db7da658983fc0db97c0650dd", "is_disabled": 0, "is_reserved": 0, "bike_id": "3f94777db7da658983fc0db97c0650dd", "lat": 38.887662, "type": "electric_scooter"}, {"fusion_lat": 0.0, "fusion_lon": 0.0, "rental_uris": {"android": "https://dc.lft.to/lastmile_qr_scan", "ios": "https://dc.lft.to/lastmile_qr_scan"}, "lon": -77.00109883333333, "name": "46c1d4592618f6717cda8e957a57d504", "is_disabled": 0, "is_reserved": 0, "bike_id": "46c1d4592618f6717cda8e957a57d504", "lat": 38.873694, "type": "electric_scooter"}, {"fusion_lat": 0.0, "fusion_lon": 0.0, "rental_uris": {"android": "https://dc.lft.to/lastmile_qr_scan", "ios": "https://dc.lft.to/lastmile_qr_scan"}, "lon": -77.04019233333334, "name": "05b5cd153d149aae5457af8bc8f5b817", "is_disabled": 0, "is_reserved": 0, "bike_id": "05b5cd153d149aae5457af8bc8f5b817", "lat": 38.924486, "type": "electric_scooter"}, {"fusion_lat": 0.0, "fusion_lon": 0.0, "rental_uris": {"android": "https://dc.lft.to/lastmile_qr_scan", "ios": "https://dc.lft.to/lastmile_qr_scan"}, "lon": -77.0005855, "name": "1bc5c4864d218eb1e808e63e1ddec0b8", "is_disabled": 0, "is_reserved": 0, "bike_id": "1bc5c4864d218eb1e808e63e1ddec0b8", "lat": 38.8870525, "type": "electric_scooter"}, {"fusion_lat": 0.0, "fusion_lon": 0.0, "rental_uris": {"android": "https://dc.lft.to/lastmile_qr_scan", "ios": "https://dc.lft.to/lastmile_qr_scan"}, "lon": -77.01654466666666, "name": "35e80f4bba8c52da185a09c5436b4081", "is_disabled": 0, "is_reserved": 0, "bike_id": "35e80f4bba8c52da185a09c5436b4081", "lat": 38.88101983333333, "type": "electric_scooter"}, {"fusion_lat": 0.0, "fusion_lon": 0.0, "rental_uris": {"android": "https://dc.lft.to/lastmile_qr_scan", "ios": "https://dc.lft.to/lastmile_qr_scan"}, "lon": -76.97997083333334, "name": "117ffe1d54e3815f6d54fac5b078d2e2", "is_disabled": 0, "is_reserved": 0, "bike_id": "117ffe1d54e3815f6d54fac5b078d2e2", "lat": 38.90682416666667, "type": "electric_scooter"}, {"fusion_lat": 0.0, "fusion_lon": 0.0, "rental_uris": {"android": "https://dc.lft.to/lastmile_qr_scan", "ios": "https://dc.lft.to/lastmile_qr_scan"}, "lon": -77.0344625, "name": "34969e9dd45af289e15a700b37c43d10", "is_disabled": 0, "is_reserved": 0, "bike_id": "34969e9dd45af289e15a700b37c43d10", "lat": 38.9030955, "type": "electric_scooter"}, {"fusion_lat": 0.0, "fusion_lon": 0.0, "rental_uris": {"android": "https://dc.lft.to/lastmile_qr_scan", "ios": "https://dc.lft.to/lastmile_qr_scan"}, "lon": -77.02802666666666, "name": "ac523f33a9a742083012a1b760b9738c", "is_disabled": 0, "is_reserved": 0, "bike_id": "ac523f33a9a742083012a1b760b9738c", "lat": 38.91724083333333, "type": "electric_scooter"}, {"fusion_lat": 0.0, "fusion_lon": 0.0, "rental_uris": {"android": "https://dc.lft.to/lastmile_qr_scan", "ios": "https://dc.lft.to/lastmile_qr_scan"}, "lon": -77.04417583333333, "name": "7ca961118b417bf2a85b914f20318509", "is_disabled": 0, "is_reserved": 0, "bike_id": "7ca961118b417bf2a85b914f20318509", "lat": 38.894019666666665, "type": "electric_scooter"}, {"fusion_lat": 0.0, "fusion_lon": 0.0, "rental_uris": {"android": "https://dc.lft.to/lastmile_qr_scan", "ios": "https://dc.lft.to/lastmile_qr_scan"}, "lon": -77.02153466666667, "name": "01683818def6db22be63d6dd415ad3bc", "is_disabled": 0, "is_reserved": 0, "bike_id": "01683818def6db22be63d6dd415ad3bc", "lat": 38.926028333333335, "type": "electric_scooter"}, {"fusion_lat": 0.0, "fusion_lon": 0.0, "rental_uris": {"android": "https://dc.lft.to/lastmile_qr_scan", "ios": "https://dc.lft.to/lastmile_qr_scan"}, "lon": -77.021739, "name": "ec526002c4edb6a56ffbc05893995889", "is_disabled": 0, "is_reserved": 0, "bike_id": "ec526002c4edb6a56ffbc05893995889", "lat": 38.893771, "type": "electric_scooter"}, {"fusion_lat": 0.0, "fusion_lon": 0.0, "rental_uris": {"android": "https://dc.lft.to/lastmile_qr_scan", "ios": "https://dc.lft.to/lastmile_qr_scan"}, "lon": -77.02717266666667, "name": "8f68beed27cbf8c90651a2e23871468f", "is_disabled": 0, "is_reserved": 0, "bike_id": "8f68beed27cbf8c90651a2e23871468f", "lat": 38.907923333333336, "type": "electric_scooter"}, {"fusion_lat": 0.0, "fusion_lon": 0.0, "rental_uris": {"android": "https://dc.lft.to/lastmile_qr_scan", "ios": "https://dc.lft.to/lastmile_qr_scan"}, "lon": -76.9583455, "name": "b2b8af70412b50012984ce6257567ada", "is_disabled": 0, "is_reserved": 0, "bike_id": "b2b8af70412b50012984ce6257567ada", "lat": 38.930466333333335, "type": "electric_bike"}, {"fusion_lat": 0.0, "fusion_lon": 0.0, "rental_uris": {"android": "https://dc.lft.to/lastmile_qr_scan", "ios": "https://dc.lft.to/lastmile_qr_scan"}, "lon": -77.04534566666666, "name": "2c3b76b94b97c32c7dfcbd7a334bc852", "is_disabled": 0, "is_reserved": 0, "bike_id": "2c3b76b94b97c32c7dfcbd7a334bc852", "lat": 39.03306116666667, "type": "electric_bike"}, {"fusion_lat": 0.0, "fusion_lon": 0.0, "rental_uris": {"android": "https://dc.lft.to/lastmile_qr_scan", "ios": "https://dc.lft.to/lastmile_qr_scan"}, "lon": -77.03315933333333, "name": "7afdf948efdd5293341e3d4e01cb9451", "is_disabled": 0, "is_reserved": 0, "bike_id": "7afdf948efdd5293341e3d4e01cb9451", "lat": 38.9035735, "type": "electric_scooter"}, {"fusion_lat": 0.0, "fusion_lon": 0.0, "rental_uris": {"android": "https://dc.lft.to/lastmile_qr_scan", "ios": "https://dc.lft.to/lastmile_qr_scan"}, "lon": -77.0060905, "name": "b79e47b41b1a90e420ab8c9e4f733a93", "is_disabled": 0, "is_reserved": 0, "bike_id": "b79e47b41b1a90e420ab8c9e4f733a93", "lat": 38.871798, "type": "electric_scooter"}, {"fusion_lat": 0.0, "fusion_lon": 0.0, "rental_uris": {"android": "https://dc.lft.to/lastmile_qr_scan", "ios": "https://dc.lft.to/lastmile_qr_scan"}, "lon": -76.97229716666666, "name": "2b31101c585610815ab5ef725d5b49e3", "is_disabled": 0, "is_reserved": 0, "bike_id": "2b31101c585610815ab5ef725d5b49e3", "lat": 38.90425666666667, "type": "electric_bike"}, {"fusion_lat": 0.0, "fusion_lon": 0.0, "rental_uris": {"android": "https://dc.lft.to/lastmile_qr_scan", "ios": "https://dc.lft.to/lastmile_qr_scan"}, "lon": -77.02441733333333, "name": "404d6b73c94795efac42e7b68cb15eed", "is_disabled": 0, "is_reserved": 0, "bike_id": "404d6b73c94795efac42e7b68cb15eed", "lat": 38.900929833333336, "type": "electric_scooter"}, {"fusion_lat": 0.0, "fusion_lon": 0.0, "rental_uris": {"android": "https://dc.lft.to/lastmile_qr_scan", "ios": "https://dc.lft.to/lastmile_qr_scan"}, "lon": -77.09957016666667, "name": "82ad9b8fd0cbb9b502319cda2c0b1dcc", "is_disabled": 0, "is_reserved": 0, "bike_id": "82ad9b8fd0cbb9b502319cda2c0b1dcc", "lat": 38.857883, "type": "electric_bike"}, {"fusion_lat": 0.0, "fusion_lon": 0.0, "rental_uris": {"android": "https://dc.lft.to/lastmile_qr_scan", "ios": "https://dc.lft.to/lastmile_qr_scan"}, "lon": -77.05151266666667, "name": "63736d6cd087d8977cc61dc6f4c8bc9f", "is_disabled": 0, "is_reserved": 0, "bike_id": "63736d6cd087d8977cc61dc6f4c8bc9f", "lat": 38.92378733333334, "type": "electric_scooter"}, {"fusion_lat": 0.0, "fusion_lon": 0.0, "rental_uris": {"android": "https://dc.lft.to/lastmile_qr_scan", "ios": "https://dc.lft.to/lastmile_qr_scan"}, "lon": -77.0320905, "name": "aabc4a23994019e327ba3e997b389dff", "is_disabled": 0, "is_reserved": 0, "bike_id": "aabc4a23994019e327ba3e997b389dff", "lat": 38.91352416666667, "type": "electric_scooter"}, {"fusion_lat": 0.0, "fusion_lon": 0.0, "rental_uris": {"android": "https://dc.lft.to/lastmile_qr_scan", "ios": "https://dc.lft.to/lastmile_qr_scan"}, "lon": -76.98764766666666, "name": "615cba56ce26fea78dd9a14c4e91b17e", "is_disabled": 0, "is_reserved": 0, "bike_id": "615cba56ce26fea78dd9a14c4e91b17e", "lat": 38.900298666666664, "type": "electric_scooter"}, {"fusion_lat": 0.0, "fusion_lon": 0.0, "rental_uris": {"android": "https://dc.lft.to/lastmile_qr_scan", "ios": "https://dc.lft.to/lastmile_qr_scan"}, "lon": -77.028355, "name": "901b7f682522f85fe3ee12fe9070854b", "is_disabled": 0, "is_reserved": 0, "bike_id": "901b7f682522f85fe3ee12fe9070854b", "lat": 38.893780166666666, "type": "electric_scooter"}, {"fusion_lat": 0.0, "fusion_lon": 0.0, "rental_uris": {"android": "https://dc.lft.to/lastmile_qr_scan", "ios": "https://dc.lft.to/lastmile_qr_scan"}, "lon": -77.02238483333333, "name": "1d2e8f16ec593c089622e26bff4e9269", "is_disabled": 0, "is_reserved": 0, "bike_id": "1d2e8f16ec593c089622e26bff4e9269", "lat": 38.981051666666666, "type": "electric_scooter"}, {"fusion_lat": 0.0, "fusion_lon": 0.0, "rental_uris": {"android": "https://dc.lft.to/lastmile_qr_scan", "ios": "https://dc.lft.to/lastmile_qr_scan"}, "lon": -77.04520416666666, "name": "b0df8c0c5221d8d1c0884b585501463f", "is_disabled": 0, "is_reserved": 0, "bike_id": "b0df8c0c5221d8d1c0884b585501463f", "lat": 38.89964883333333, "type": "electric_scooter"}, {"fusion_lat": 0.0, "fusion_lon": 0.0, "rental_uris": {"android": "https://dc.lft.to/lastmile_qr_scan", "ios": "https://dc.lft.to/lastmile_qr_scan"}, "lon": -77.01477583333333, "name": "93585a681f9665f64bfbcce636ea60bb", "is_disabled": 0, "is_reserved": 0, "bike_id": "93585a681f9665f64bfbcce636ea60bb", "lat": 38.926813833333334, "type": "electric_scooter"}, {"fusion_lat": 0.0, "fusion_lon": 0.0, "rental_uris": {"android": "https://dc.lft.to/lastmile_qr_scan", "ios": "https://dc.lft.to/lastmile_qr_scan"}, "lon": -77.04183183333333, "name": "6704178841c5e4e582d3f4eaa3aad2a8", "is_disabled": 0, "is_reserved": 0, "bike_id": "6704178841c5e4e582d3f4eaa3aad2a8", "lat": 38.91894833333333, "type": "electric_scooter"}, {"fusion_lat": 0.0, "fusion_lon": 0.0, "rental_uris": {"android": "https://dc.lft.to/lastmile_qr_scan", "ios": "https://dc.lft.to/lastmile_qr_scan"}, "lon": -76.98085133333333, "name": "9824c03a1e9d1bf1b58f20678ca119e5", "is_disabled": 0, "is_reserved": 0, "bike_id": "9824c03a1e9d1bf1b58f20678ca119e5", "lat": 38.90011616666666, "type": "electric_scooter"}, {"fusion_lat": 0.0, "fusion_lon": 0.0, "rental_uris": {"android": "https://dc.lft.to/lastmile_qr_scan", "ios": "https://dc.lft.to/lastmile_qr_scan"}, "lon": -77.04163983333333, "name": "578d99b64682a812b58863c13bcd1c02", "is_disabled": 0, "is_reserved": 0, "bike_id": "578d99b64682a812b58863c13bcd1c02", "lat": 38.89850833333333, "type": "electric_scooter"}, {"fusion_lat": 0.0, "fusion_lon": 0.0, "rental_uris": {"android": "https://dc.lft.to/lastmile_qr_scan", "ios": "https://dc.lft.to/lastmile_qr_scan"}, "lon": -77.01537066666667, "name": "1c0637e8814cc383a459b4819bbcfc13", "is_disabled": 0, "is_reserved": 0, "bike_id": "1c0637e8814cc383a459b4819bbcfc13", "lat": 38.89166483333333, "type": "electric_scooter"}, {"fusion_lat": 0.0, "fusion_lon": 0.0, "rental_uris": {"android": "https://dc.lft.to/lastmile_qr_scan", "ios": "https://dc.lft.to/lastmile_qr_scan"}, "lon": -77.053921, "name": "9e435dd5cd9592c81978e94546e82bb4", "is_disabled": 0, "is_reserved": 0, "bike_id": "9e435dd5cd9592c81978e94546e82bb4", "lat": 38.804474666666664, "type": "electric_bike"}, {"fusion_lat": 0.0, "fusion_lon": 0.0, "rental_uris": {"android": "https://dc.lft.to/lastmile_qr_scan", "ios": "https://dc.lft.to/lastmile_qr_scan"}, "lon": -77.01764333333334, "name": "98e601f829ddcd17547f74e4d6c3255b", "is_disabled": 0, "is_reserved": 0, "bike_id": "98e601f829ddcd17547f74e4d6c3255b", "lat": 38.878032, "type": "electric_scooter"}, {"fusion_lat": 0.0, "fusion_lon": 0.0, "rental_uris": {"android": "https://dc.lft.to/lastmile_qr_scan", "ios": "https://dc.lft.to/lastmile_qr_scan"}, "lon": -76.9989975, "name": "1d006fcc040557600e4b2c9b77295e31", "is_disabled": 0, "is_reserved": 0, "bike_id": "1d006fcc040557600e4b2c9b77295e31", "lat": 38.900291, "type": "electric_scooter"}, {"fusion_lat": 0.0, "fusion_lon": 0.0, "rental_uris": {"android": "https://dc.lft.to/lastmile_qr_scan", "ios": "https://dc.lft.to/lastmile_qr_scan"}, "lon": -77.04775333333333, "name": "e987be0876a879be18b0c819e1f0764a", "is_disabled": 0, "is_reserved": 0, "bike_id": "e987be0876a879be18b0c819e1f0764a", "lat": 38.8974165, "type": "electric_scooter"}, {"fusion_lat": 0.0, "fusion_lon": 0.0, "rental_uris": {"android": "https://dc.lft.to/lastmile_qr_scan", "ios": "https://dc.lft.to/lastmile_qr_scan"}, "lon": -77.04873316666666, "name": "1f5af4b64aff1ab8b8a6c5b4927ccc43", "is_disabled": 0, "is_reserved": 0, "bike_id": "1f5af4b64aff1ab8b8a6c5b4927ccc43", "lat": 38.901894, "type": "electric_scooter"}, {"fusion_lat": 0.0, "fusion_lon": 0.0, "rental_uris": {"android": "https://dc.lft.to/lastmile_qr_scan", "ios": "https://dc.lft.to/lastmile_qr_scan"}, "lon": -77.00360583333334, "name": "b0089028b68f0cf4686757fc827fe0e4", "is_disabled": 0, "is_reserved": 0, "bike_id": "b0089028b68f0cf4686757fc827fe0e4", "lat": 38.87633483333333, "type": "electric_scooter"}, {"fusion_lat": 0.0, "fusion_lon": 0.0, "rental_uris": {"android": "https://dc.lft.to/lastmile_qr_scan", "ios": "https://dc.lft.to/lastmile_qr_scan"}, "lon": -76.98206633333334, "name": "c903baf67a7917ff9b7565a774e8fcc4", "is_disabled": 0, "is_reserved": 0, "bike_id": "c903baf67a7917ff9b7565a774e8fcc4", "lat": 38.985040833333336, "type": "electric_bike"}, {"fusion_lat": 0.0, "fusion_lon": 0.0, "rental_uris": {"android": "https://dc.lft.to/lastmile_qr_scan", "ios": "https://dc.lft.to/lastmile_qr_scan"}, "lon": -77.03593716666667, "name": "23ac7f9445172dc011bb4598faa367a8", "is_disabled": 0, "is_reserved": 0, "bike_id": "23ac7f9445172dc011bb4598faa367a8", "lat": 38.93146933333333, "type": "electric_scooter"}, {"fusion_lat": 0.0, "fusion_lon": 0.0, "rental_uris": {"android": "https://dc.lft.to/lastmile_qr_scan", "ios": "https://dc.lft.to/lastmile_qr_scan"}, "lon": -77.05007116666667, "name": "e7e699c423b0fce4a70218a3fb1cc7af", "is_disabled": 0, "is_reserved": 0, "bike_id": "e7e699c423b0fce4a70218a3fb1cc7af", "lat": 38.90425233333333, "type": "electric_scooter"}, {"fusion_lat": 0.0, "fusion_lon": 0.0, "rental_uris": {"android": "https://dc.lft.to/lastmile_qr_scan", "ios": "https://dc.lft.to/lastmile_qr_scan"}, "lon": -77.09710233333334, "name": "6290f3b9daf3152bdf0ebf57912765fd", "is_disabled": 0, "is_reserved": 0, "bike_id": "6290f3b9daf3152bdf0ebf57912765fd", "lat": 38.951079, "type": "electric_scooter"}, {"fusion_lat": 0.0, "fusion_lon": 0.0, "rental_uris": {"android": "https://dc.lft.to/lastmile_qr_scan", "ios": "https://dc.lft.to/lastmile_qr_scan"}, "lon": -77.02210083333334, "name": "903cf866f090f4e1b6b7832a3f64a806", "is_disabled": 0, "is_reserved": 0, "bike_id": "903cf866f090f4e1b6b7832a3f64a806", "lat": 38.92477933333333, "type": "electric_scooter"}, {"fusion_lat": 0.0, "fusion_lon": 0.0, "rental_uris": {"android": "https://dc.lft.to/lastmile_qr_scan", "ios": "https://dc.lft.to/lastmile_qr_scan"}, "lon": -77.0442435, "name": "baa124c31b5c62d947962e0989e56ff6", "is_disabled": 0, "is_reserved": 0, "bike_id": "baa124c31b5c62d947962e0989e56ff6", "lat": 38.910059333333336, "type": "electric_scooter"}, {"fusion_lat": 0.0, "fusion_lon": 0.0, "rental_uris": {"android": "https://dc.lft.to/lastmile_qr_scan", "ios": "https://dc.lft.to/lastmile_qr_scan"}, "lon": -77.03588416666666, "name": "51759ace6c6b16adcd42fcfe1a04cb7d", "is_disabled": 0, "is_reserved": 0, "bike_id": "51759ace6c6b16adcd42fcfe1a04cb7d", "lat": 38.93149116666667, "type": "electric_scooter"}, {"fusion_lat": 0.0, "fusion_lon": 0.0, "rental_uris": {"android": "https://dc.lft.to/lastmile_qr_scan", "ios": "https://dc.lft.to/lastmile_qr_scan"}, "lon": -77.027153, "name": "01bb34d1fc57d6bba30d9f09426c7e91", "is_disabled": 0, "is_reserved": 0, "bike_id": "01bb34d1fc57d6bba30d9f09426c7e91", "lat": 38.90778183333333, "type": "electric_scooter"}, {"fusion_lat": 0.0, "fusion_lon": 0.0, "rental_uris": {"android": "https://dc.lft.to/lastmile_qr_scan", "ios": "https://dc.lft.to/lastmile_qr_scan"}, "lon": -77.03554766666667, "name": "fd331ea7070b0e4a6756494af2b819cd", "is_disabled": 0, "is_reserved": 0, "bike_id": "fd331ea7070b0e4a6756494af2b819cd", "lat": 38.90731266666667, "type": "electric_scooter"}, {"fusion_lat": 0.0, "fusion_lon": 0.0, "rental_uris": {"android": "https://dc.lft.to/lastmile_qr_scan", "ios": "https://dc.lft.to/lastmile_qr_scan"}, "lon": -76.96705816666666, "name": "d3dc53568fa23a970b5fd08d7dd02063", "is_disabled": 0, "is_reserved": 0, "bike_id": "d3dc53568fa23a970b5fd08d7dd02063", "lat": 38.860371, "type": "electric_scooter"}, {"fusion_lat": 0.0, "fusion_lon": 0.0, "rental_uris": {"android": "https://dc.lft.to/lastmile_qr_scan", "ios": "https://dc.lft.to/lastmile_qr_scan"}, "lon": -77.02377966666667, "name": "3f8b53730e141c27c2ee553ba570798c", "is_disabled": 0, "is_reserved": 0, "bike_id": "3f8b53730e141c27c2ee553ba570798c", "lat": 38.90694083333333, "type": "electric_scooter"}, {"fusion_lat": 0.0, "fusion_lon": 0.0, "rental_uris": {"android": "https://dc.lft.to/lastmile_qr_scan", "ios": "https://dc.lft.to/lastmile_qr_scan"}, "lon": -77.00713816666666, "name": "6521bfff7ee98f9b397c712696b6de51", "is_disabled": 0, "is_reserved": 0, "bike_id": "6521bfff7ee98f9b397c712696b6de51", "lat": 38.884877333333336, "type": "electric_scooter"}, {"fusion_lat": 0.0, "fusion_lon": 0.0, "rental_uris": {"android": "https://dc.lft.to/lastmile_qr_scan", "ios": "https://dc.lft.to/lastmile_qr_scan"}, "lon": -77.04671766666667, "name": "97177a75e597ac950f26107a7c502709", "is_disabled": 0, "is_reserved": 0, "bike_id": "97177a75e597ac950f26107a7c502709", "lat": 38.89900333333333, "type": "electric_scooter"}, {"fusion_lat": 0.0, "fusion_lon": 0.0, "rental_uris": {"android": "https://dc.lft.to/lastmile_qr_scan", "ios": "https://dc.lft.to/lastmile_qr_scan"}, "lon": -77.04243933333333, "name": "5a9012db85f38d8341cbee112eaa4fef", "is_disabled": 0, "is_reserved": 0, "bike_id": "5a9012db85f38d8341cbee112eaa4fef", "lat": 38.92275383333333, "type": "electric_scooter"}, {"fusion_lat": 0.0, "fusion_lon": 0.0, "rental_uris": {"android": "https://dc.lft.to/lastmile_qr_scan", "ios": "https://dc.lft.to/lastmile_qr_scan"}, "lon": -77.05044416666667, "name": "d3dabbaadec2327fbb771372a8066c92", "is_disabled": 0, "is_reserved": 0, "bike_id": "d3dabbaadec2327fbb771372a8066c92", "lat": 38.923569, "type": "electric_scooter"}, {"fusion_lat": 0.0, "fusion_lon": 0.0, "rental_uris": {"android": "https://dc.lft.to/lastmile_qr_scan", "ios": "https://dc.lft.to/lastmile_qr_scan"}, "lon": -77.07168333333334, "name": "16864be230ff47b33b65588425f8f9d8", "is_disabled": 0, "is_reserved": 0, "bike_id": "16864be230ff47b33b65588425f8f9d8", "lat": 38.907761666666666, "type": "electric_scooter"}, {"fusion_lat": 0.0, "fusion_lon": 0.0, "rental_uris": {"android": "https://dc.lft.to/lastmile_qr_scan", "ios": "https://dc.lft.to/lastmile_qr_scan"}, "lon": -77.0327035, "name": "fb847dad22b69a01073e6ee04c889a7b", "is_disabled": 0, "is_reserved": 0, "bike_id": "fb847dad22b69a01073e6ee04c889a7b", "lat": 38.89891883333333, "type": "electric_scooter"}, {"fusion_lat": 0.0, "fusion_lon": 0.0, "rental_uris": {"android": "https://dc.lft.to/lastmile_qr_scan", "ios": "https://dc.lft.to/lastmile_qr_scan"}, "lon": -76.99944183333334, "name": "babd79661511d12bd36d96fce0e823ca", "is_disabled": 0, "is_reserved": 0, "bike_id": "babd79661511d12bd36d96fce0e823ca", "lat": 38.8429305, "type": "electric_scooter"}, {"fusion_lat": 0.0, "fusion_lon": 0.0, "rental_uris": {"android": "https://dc.lft.to/lastmile_qr_scan", "ios": "https://dc.lft.to/lastmile_qr_scan"}, "lon": -77.06422666666667, "name": "55315c6f496cb750af31d265ef0aa818", "is_disabled": 0, "is_reserved": 0, "bike_id": "55315c6f496cb750af31d265ef0aa818", "lat": 38.9052865, "type": "electric_scooter"}, {"fusion_lat": 0.0, "fusion_lon": 0.0, "rental_uris": {"android": "https://dc.lft.to/lastmile_qr_scan", "ios": "https://dc.lft.to/lastmile_qr_scan"}, "lon": -77.043565, "name": "a1ec367522b4484ab849118ea1b16444", "is_disabled": 0, "is_reserved": 0, "bike_id": "a1ec367522b4484ab849118ea1b16444", "lat": 38.90774183333333, "type": "electric_scooter"}, {"fusion_lat": 0.0, "fusion_lon": 0.0, "rental_uris": {"android": "https://dc.lft.to/lastmile_qr_scan", "ios": "https://dc.lft.to/lastmile_qr_scan"}, "lon": -77.0445455, "name": "938e4f0a926421b5ef4246425bd586c3", "is_disabled": 0, "is_reserved": 0, "bike_id": "938e4f0a926421b5ef4246425bd586c3", "lat": 38.89615, "type": "electric_scooter"}, {"fusion_lat": 0.0, "fusion_lon": 0.0, "rental_uris": {"android": "https://dc.lft.to/lastmile_qr_scan", "ios": "https://dc.lft.to/lastmile_qr_scan"}, "lon": -77.04867733333333, "name": "3ee4db8e47861c33cabc4ef97e219d15", "is_disabled": 0, "is_reserved": 0, "bike_id": "3ee4db8e47861c33cabc4ef97e219d15", "lat": 38.90680966666667, "type": "electric_scooter"}, {"fusion_lat": 0.0, "fusion_lon": 0.0, "rental_uris": {"android": "https://dc.lft.to/lastmile_qr_scan", "ios": "https://dc.lft.to/lastmile_qr_scan"}, "lon": -77.01113733333334, "name": "4d1932d060157040bb406003e251db6c", "is_disabled": 0, "is_reserved": 0, "bike_id": "4d1932d060157040bb406003e251db6c", "lat": 38.89546766666667, "type": "electric_scooter"}, {"fusion_lat": 0.0, "fusion_lon": 0.0, "rental_uris": {"android": "https://dc.lft.to/lastmile_qr_scan", "ios": "https://dc.lft.to/lastmile_qr_scan"}, "lon": -77.03794333333333, "name": "91c84b6e87f1898c42bacd603a5d8385", "is_disabled": 0, "is_reserved": 0, "bike_id": "91c84b6e87f1898c42bacd603a5d8385", "lat": 38.91995333333333, "type": "electric_scooter"}, {"fusion_lat": 0.0, "fusion_lon": 0.0, "rental_uris": {"android": "https://dc.lft.to/lastmile_qr_scan", "ios": "https://dc.lft.to/lastmile_qr_scan"}, "lon": -77.04659183333334, "name": "912794c8aab68ecdc9213a1bbea42aff", "is_disabled": 0, "is_reserved": 0, "bike_id": "912794c8aab68ecdc9213a1bbea42aff", "lat": 38.896925, "type": "electric_scooter"}, {"fusion_lat": 0.0, "fusion_lon": 0.0, "rental_uris": {"android": "https://dc.lft.to/lastmile_qr_scan", "ios": "https://dc.lft.to/lastmile_qr_scan"}, "lon": -77.03035666666666, "name": "9cf40e75c794c833a9973bf66e62bb36", "is_disabled": 0, "is_reserved": 0, "bike_id": "9cf40e75c794c833a9973bf66e62bb36", "lat": 38.89839833333333, "type": "electric_scooter"}, {"fusion_lat": 0.0, "fusion_lon": 0.0, "rental_uris": {"android": "https://dc.lft.to/lastmile_qr_scan", "ios": "https://dc.lft.to/lastmile_qr_scan"}, "lon": -77.0816825, "name": "516215f776f40c83a997ca7e7fb9296e", "is_disabled": 0, "is_reserved": 0, "bike_id": "516215f776f40c83a997ca7e7fb9296e", "lat": 38.90698733333333, "type": "electric_bike"}, {"fusion_lat": 0.0, "fusion_lon": 0.0, "rental_uris": {"android": "https://dc.lft.to/lastmile_qr_scan", "ios": "https://dc.lft.to/lastmile_qr_scan"}, "lon": -77.0324535, "name": "6d46f938d736b037dd480246d08315fb", "is_disabled": 0, "is_reserved": 0, "bike_id": "6d46f938d736b037dd480246d08315fb", "lat": 38.90142083333333, "type": "electric_scooter"}, {"fusion_lat": 0.0, "fusion_lon": 0.0, "rental_uris": {"android": "https://dc.lft.to/lastmile_qr_scan", "ios": "https://dc.lft.to/lastmile_qr_scan"}, "lon": -77.0402175, "name": "482fd49c0b30e3e44f378217a7833f1a", "is_disabled": 0, "is_reserved": 0, "bike_id": "482fd49c0b30e3e44f378217a7833f1a", "lat": 38.9084555, "type": "electric_bike"}, {"fusion_lat": 0.0, "fusion_lon": 0.0, "rental_uris": {"android": "https://dc.lft.to/lastmile_qr_scan", "ios": "https://dc.lft.to/lastmile_qr_scan"}, "lon": -76.99492316666667, "name": "43316d02a2700475081aaa88998d28b9", "is_disabled": 0, "is_reserved": 0, "bike_id": "43316d02a2700475081aaa88998d28b9", "lat": 38.9098115, "type": "electric_scooter"}, {"fusion_lat": 0.0, "fusion_lon": 0.0, "rental_uris": {"android": "https://dc.lft.to/lastmile_qr_scan", "ios": "https://dc.lft.to/lastmile_qr_scan"}, "lon": -76.9959595, "name": "b63ae9b7b75fdfe0507aa32c892a2e7b", "is_disabled": 0, "is_reserved": 0, "bike_id": "b63ae9b7b75fdfe0507aa32c892a2e7b", "lat": 38.856890166666666, "type": "electric_scooter"}, {"fusion_lat": 0.0, "fusion_lon": 0.0, "rental_uris": {"android": "https://dc.lft.to/lastmile_qr_scan", "ios": "https://dc.lft.to/lastmile_qr_scan"}, "lon": -77.02343983333333, "name": "20f73ca9d4b927dce9b185969493135a", "is_disabled": 0, "is_reserved": 0, "bike_id": "20f73ca9d4b927dce9b185969493135a", "lat": 38.893886, "type": "electric_scooter"}, {"fusion_lat": 0.0, "fusion_lon": 0.0, "rental_uris": {"android": "https://dc.lft.to/lastmile_qr_scan", "ios": "https://dc.lft.to/lastmile_qr_scan"}, "lon": -76.98085566666667, "name": "6bda981673cd6b68c15d4ec9ffb72601", "is_disabled": 0, "is_reserved": 0, "bike_id": "6bda981673cd6b68c15d4ec9ffb72601", "lat": 38.922437, "type": "electric_scooter"}, {"fusion_lat": 0.0, "fusion_lon": 0.0, "rental_uris": {"android": "https://dc.lft.to/lastmile_qr_scan", "ios": "https://dc.lft.to/lastmile_qr_scan"}, "lon": -77.02737466666666, "name": "2ab57529eb395337ecdb83395ae8943d", "is_disabled": 0, "is_reserved": 0, "bike_id": "2ab57529eb395337ecdb83395ae8943d", "lat": 38.89846633333333, "type": "electric_scooter"}, {"fusion_lat": 0.0, "fusion_lon": 0.0, "rental_uris": {"android": "https://dc.lft.to/lastmile_qr_scan", "ios": "https://dc.lft.to/lastmile_qr_scan"}, "lon": -77.04342766666667, "name": "54fb9c1f434f60c3ba39b747482a6825", "is_disabled": 0, "is_reserved": 0, "bike_id": "54fb9c1f434f60c3ba39b747482a6825", "lat": 38.9281425, "type": "electric_scooter"}, {"fusion_lat": 0.0, "fusion_lon": 0.0, "rental_uris": {"android": "https://dc.lft.to/lastmile_qr_scan", "ios": "https://dc.lft.to/lastmile_qr_scan"}, "lon": -77.04894883333333, "name": "23e03b7ac4fbcd0b49716af54d281122", "is_disabled": 0, "is_reserved": 0, "bike_id": "23e03b7ac4fbcd0b49716af54d281122", "lat": 38.89760533333333, "type": "electric_scooter"}, {"fusion_lat": 0.0, "fusion_lon": 0.0, "rental_uris": {"android": "https://dc.lft.to/lastmile_qr_scan", "ios": "https://dc.lft.to/lastmile_qr_scan"}, "lon": -77.00779716666666, "name": "65a6399819e83833bbc06352b4f515ca", "is_disabled": 0, "is_reserved": 0, "bike_id": "65a6399819e83833bbc06352b4f515ca", "lat": 38.907286, "type": "electric_scooter"}, {"fusion_lat": 0.0, "fusion_lon": 0.0, "rental_uris": {"android": "https://dc.lft.to/lastmile_qr_scan", "ios": "https://dc.lft.to/lastmile_qr_scan"}, "lon": -77.0483855, "name": "598023df2828517451d821e25fac5cee", "is_disabled": 0, "is_reserved": 0, "bike_id": "598023df2828517451d821e25fac5cee", "lat": 38.9162665, "type": "electric_bike"}, {"fusion_lat": 0.0, "fusion_lon": 0.0, "rental_uris": {"android": "https://dc.lft.to/lastmile_qr_scan", "ios": "https://dc.lft.to/lastmile_qr_scan"}, "lon": -77.013686, "name": "b84d0f0430c8a88c96e9a6c3cf36e364", "is_disabled": 0, "is_reserved": 0, "bike_id": "b84d0f0430c8a88c96e9a6c3cf36e364", "lat": 38.919114, "type": "electric_scooter"}, {"fusion_lat": 0.0, "fusion_lon": 0.0, "rental_uris": {"android": "https://dc.lft.to/lastmile_qr_scan", "ios": "https://dc.lft.to/lastmile_qr_scan"}, "lon": -77.00116733333333, "name": "17fd82b80f3a9b913d7400f393ae13b2", "is_disabled": 0, "is_reserved": 0, "bike_id": "17fd82b80f3a9b913d7400f393ae13b2", "lat": 38.874855333333336, "type": "electric_scooter"}, {"fusion_lat": 0.0, "fusion_lon": 0.0, "rental_uris": {"android": "https://dc.lft.to/lastmile_qr_scan", "ios": "https://dc.lft.to/lastmile_qr_scan"}, "lon": -77.02231233333333, "name": "f2f4a5428a1ad44a497e2c4d259fe44d", "is_disabled": 0, "is_reserved": 0, "bike_id": "f2f4a5428a1ad44a497e2c4d259fe44d", "lat": 38.8876415, "type": "electric_scooter"}, {"fusion_lat": 0.0, "fusion_lon": 0.0, "rental_uris": {"android": "https://dc.lft.to/lastmile_qr_scan", "ios": "https://dc.lft.to/lastmile_qr_scan"},