{"data": {"bikes": [{"bike_id": "d0abf2ae1db940f8055a6e59177f3709", "type": "electric_scooter", "is_disabled": 0, "lat": 38.896408, "rental_uris": {"ios": "https://dc.lft.to/lastmile_qr_scan", "android": "https://dc.lft.to/lastmile_qr_scan"}, "is_reserved": 0, "fusion_lon": 0.0, "fusion_lat": 0.0, "lon": -77.07051933333334, "name": "d0abf2ae1db940f8055a6e59177f3709"}, {"bike_id": "170be4c6d1ad8d22d891277bc92d5c7a", "type": "electric_scooter", "is_disabled": 0, "lat": 38.91480583333333, "rental_uris": {"ios": "https://dc.lft.to/lastmile_qr_scan", "android": "https://dc.lft.to/lastmile_qr_scan"}, "is_reserved": 0, "fusion_lon": 0.0, "fusion_lat": 0.0, "lon": -77.035716, "name": "170be4c6d1ad8d22d891277bc92d5c7a"}, {"bike_id": "90b08396195f515a1e434a6cff5fd4ee", "type": "electric_scooter", "is_disabled": 0, "lat": 38.92322, "rental_uris": {"ios": "https://dc.lft.to/lastmile_qr_scan", "android": "https://dc.lft.to/lastmile_qr_scan"}, "is_reserved": 0, "fusion_lon": 0.0, "fusion_lat": 0.0, "lon": -77.0556535, "name": "90b08396195f515a1e434a6cff5fd4ee"}, {"bike_id": "0161d59ed109545446daa23a7a5758b0", "type": "electric_scooter", "is_disabled": 0, "lat": 38.92878783333333, "rental_uris": {"ios": "https://dc.lft.to/lastmile_qr_scan", "android": "https://dc.lft.to/lastmile_qr_scan"}, "is_reserved": 0, "fusion_lon": 0.0, "fusion_lat": 0.0, "lon": -77.03924016666667, "name": "0161d59ed109545446daa23a7a5758b0"}, {"bike_id": "d21d2d65f52c63a0ad1eea78b22be329", "type": "electric_scooter", "is_disabled": 0, "lat": 38.90870733333333, "rental_uris": {"ios": "https://dc.lft.to/lastmile_qr_scan", "android": "https://dc.lft.to/lastmile_qr_scan"}, "is_reserved": 0, "fusion_lon": 0.0, "fusion_lat": 0.0, "lon": -77.03183633333333, "name": "d21d2d65f52c63a0ad1eea78b22be329"}, {"bike_id": "be9de9408ae3263fc790205167612efa", "type": "electric_scooter", "is_disabled": 0, "lat": 38.8996025, "rental_uris": {"ios": "https://dc.lft.to/lastmile_qr_scan", "android": "https://dc.lft.to/lastmile_qr_scan"}, "is_reserved": 0, "fusion_lon": 0.0, "fusion_lat": 0.0, "lon": -77.01975066666667, "name": "be9de9408ae3263fc790205167612efa"}, {"bike_id": "6ae412d59cdda6b208c29d3a62434cac", "type": "electric_scooter", "is_disabled": 0, "lat": 38.908109, "rental_uris": {"ios": "https://dc.lft.to/lastmile_qr_scan", "android": "https://dc.lft.to/lastmile_qr_scan"}, "is_reserved": 0, "fusion_lon": 0.0, "fusion_lat": 0.0, "lon": -77.0434035, "name": "6ae412d59cdda6b208c29d3a62434cac"}, {"bike_id": "645d830c92fcce4ff984ded506cab334", "type": "electric_scooter", "is_disabled": 0, "lat": 38.8988325, "rental_uris": {"ios": "https://dc.lft.to/lastmile_qr_scan", "android": "https://dc.lft.to/lastmile_qr_scan"}, "is_reserved": 0, "fusion_lon": 0.0, "fusion_lat": 0.0, "lon": -76.93177883333334, "name": "645d830c92fcce4ff984ded506cab334"}, {"bike_id": "ecd325256bc9ef4c8e867ca48a5103c3", "type": "electric_scooter", "is_disabled": 0, "lat": 38.90858033333333, "rental_uris": {"ios": "https://dc.lft.to/lastmile_qr_scan", "android": "https://dc.lft.to/lastmile_qr_scan"}, "is_reserved": 0, "fusion_lon": 0.0, "fusion_lat": 0.0, "lon": -76.999704, "name": "ecd325256bc9ef4c8e867ca48a5103c3"}, {"bike_id": "7e6268314d1f5a7f92b85d788eed878d", "type": "electric_bike", "is_disabled": 0, "lat": 38.90894566666667, "rental_uris": {"ios": "https://dc.lft.to/lastmile_qr_scan", "android": "https://dc.lft.to/lastmile_qr_scan"}, "is_reserved": 0, "fusion_lon": 0.0, "fusion_lat": 0.0, "lon": -77.03206733333333, "name": "7e6268314d1f5a7f92b85d788eed878d"}, {"bike_id": "8dc4e07c8138781b163c5aa5ee7bc99e", "type": "electric_bike", "is_disabled": 0, "lat": 38.89730016666667, "rental_uris": {"ios": "https://dc.lft.to/lastmile_qr_scan", "android": "https://dc.lft.to/lastmile_qr_scan"}, "is_reserved": 0, "fusion_lon": 0.0, "fusion_lat": 0.0, "lon": -76.97348416666667, "name": "8dc4e07c8138781b163c5aa5ee7bc99e"}, {"bike_id": "d950a98bc456ca782bf2c93faf6654e0", "type": "electric_scooter", "is_disabled": 0, "lat": 38.8878345, "rental_uris": {"ios": "https://dc.lft.to/lastmile_qr_scan", "android": "https://dc.lft.to/lastmile_qr_scan"}, "is_reserved": 0, "fusion_lon": 0.0, "fusion_lat": 0.0, "lon": -76.955267, "name": "d950a98bc456ca782bf2c93faf6654e0"}, {"bike_id": "d26f1dc6a2162df1cb650dcbe1a3ec89", "type": "electric_scooter", "is_disabled": 0, "lat": 38.92071, "rental_uris": {"ios": "https://dc.lft.to/lastmile_qr_scan", "android": "https://dc.lft.to/lastmile_qr_scan"}, "is_reserved": 0, "fusion_lon": 0.0, "fusion_lat": 0.0, "lon": -77.02455633333334, "name": "d26f1dc6a2162df1cb650dcbe1a3ec89"}, {"bike_id": "c846b227e5017fce4485e5d5602b9e72", "type": "electric_scooter", "is_disabled": 0, "lat": 38.903615333333335, "rental_uris": {"ios": "https://dc.lft.to/lastmile_qr_scan", "android": "https://dc.lft.to/lastmile_qr_scan"}, "is_reserved": 0, "fusion_lon": 0.0, "fusion_lat": 0.0, "lon": -77.03162383333333, "name": "c846b227e5017fce4485e5d5602b9e72"}, {"bike_id": "b6ac23f57b53c6ac93c7be28187ccef4", "type": "electric_scooter", "is_disabled": 0, "lat": 38.931762666666664, "rental_uris": {"ios": "https://dc.lft.to/lastmile_qr_scan", "android": "https://dc.lft.to/lastmile_qr_scan"}, "is_reserved": 0, "fusion_lon": 0.0, "fusion_lat": 0.0, "lon": -77.03154316666667, "name": "b6ac23f57b53c6ac93c7be28187ccef4"}, {"bike_id": "c236b68904ef7db0e41248cf59bc8d43", "type": "electric_scooter", "is_disabled": 0, "lat": 38.86627933333333, "rental_uris": {"ios": "https://dc.lft.to/lastmile_qr_scan", "android": "https://dc.lft.to/lastmile_qr_scan"}, "is_reserved": 0, "fusion_lon": 0.0, "fusion_lat": 0.0, "lon": -76.987108, "name": "c236b68904ef7db0e41248cf59bc8d43"}, {"bike_id": "d7a45e078e5e817c93ca426168fdc75d", "type": "electric_scooter", "is_disabled": 0, "lat": 38.91408966666667, "rental_uris": {"ios": "https://dc.lft.to/lastmile_qr_scan", "android": "https://dc.lft.to/lastmile_qr_scan"}, "is_reserved": 0, "fusion_lon": 0.0, "fusion_lat": 0.0, "lon": -77.03990666666667, "name": "d7a45e078e5e817c93ca426168fdc75d"}, {"bike_id": "afe37a501e8c33e4b83cb53aa22ef0d3", "type": "electric_scooter", "is_disabled": 0, "lat": 38.920584833333336, "rental_uris": {"ios": "https://dc.lft.to/lastmile_qr_scan", "android": "https://dc.lft.to/lastmile_qr_scan"}, "is_reserved": 0, "fusion_lon": 0.0, "fusion_lat": 0.0, "lon": -77.023556, "name": "afe37a501e8c33e4b83cb53aa22ef0d3"}, {"bike_id": "9dd1ba4381ff8ad92e15d30185674020", "type": "electric_scooter", "is_disabled": 0, "lat": 38.883042333333336, "rental_uris": {"ios": "https://dc.lft.to/lastmile_qr_scan", "android": "https://dc.lft.to/lastmile_qr_scan"}, "is_reserved": 0, "fusion_lon": 0.0, "fusion_lat": 0.0, "lon": -76.942092, "name": "9dd1ba4381ff8ad92e15d30185674020"}, {"bike_id": "9b08a0839dcba24dbe728eb9f6401451", "type": "electric_scooter", "is_disabled": 0, "lat": 38.90247166666666, "rental_uris": {"ios": "https://dc.lft.to/lastmile_qr_scan", "android": "https://dc.lft.to/lastmile_qr_scan"}, "is_reserved": 0, "fusion_lon": 0.0, "fusion_lat": 0.0, "lon": -77.01817483333333, "name": "9b08a0839dcba24dbe728eb9f6401451"}, {"bike_id": "8589f7caf5b427d4a9e24adbb9e7c893", "type": "electric_scooter", "is_disabled": 0, "lat": 38.92324266666667, "rental_uris": {"ios": "https://dc.lft.to/lastmile_qr_scan", "android": "https://dc.lft.to/lastmile_qr_scan"}, "is_reserved": 0, "fusion_lon": 0.0, "fusion_lat": 0.0, "lon": -77.02962633333334, "name": "8589f7caf5b427d4a9e24adbb9e7c893"}, {"bike_id": "738986c29dc54552c930c497dd78fa65", "type": "electric_scooter", "is_disabled": 0, "lat": 38.921551666666666, "rental_uris": {"ios": "https://dc.lft.to/lastmile_qr_scan", "android": "https://dc.lft.to/lastmile_qr_scan"}, "is_reserved": 0, "fusion_lon": 0.0, "fusion_lat": 0.0, "lon": -77.03441616666667, "name": "738986c29dc54552c930c497dd78fa65"}, {"bike_id": "bad567497cdf05af5658f1f5b395469f", "type": "electric_scooter", "is_disabled": 0, "lat": 38.916012, "rental_uris": {"ios": "https://dc.lft.to/lastmile_qr_scan", "android": "https://dc.lft.to/lastmile_qr_scan"}, "is_reserved": 0, "fusion_lon": 0.0, "fusion_lat": 0.0, "lon": -77.00198183333333, "name": "bad567497cdf05af5658f1f5b395469f"}, {"bike_id": "9e66a0344f3352f38990d6e195d2b089", "type": "electric_scooter", "is_disabled": 0, "lat": 38.91201516666667, "rental_uris": {"ios": "https://dc.lft.to/lastmile_qr_scan", "android": "https://dc.lft.to/lastmile_qr_scan"}, "is_reserved": 0, "fusion_lon": 0.0, "fusion_lat": 0.0, "lon": -77.01194316666667, "name": "9e66a0344f3352f38990d6e195d2b089"}, {"bike_id": "746368e0088eb8167edacf3a32635d40", "type": "electric_scooter", "is_disabled": 0, "lat": 38.93876783333333, "rental_uris": {"ios": "https://dc.lft.to/lastmile_qr_scan", "android": "https://dc.lft.to/lastmile_qr_scan"}, "is_reserved": 0, "fusion_lon": 0.0, "fusion_lat": 0.0, "lon": -77.02461783333334, "name": "746368e0088eb8167edacf3a32635d40"}, {"bike_id": "7d8549d50bb8a825878e0a0ce5e66fc7", "type": "electric_scooter", "is_disabled": 0, "lat": 38.915576, "rental_uris": {"ios": "https://dc.lft.to/lastmile_qr_scan", "android": "https://dc.lft.to/lastmile_qr_scan"}, "is_reserved": 0, "fusion_lon": 0.0, "fusion_lat": 0.0, "lon": -77.0332145, "name": "7d8549d50bb8a825878e0a0ce5e66fc7"}, {"bike_id": "2d961d97ecdab72ddcbe41f5f971d17b", "type": "electric_scooter", "is_disabled": 0, "lat": 38.965563333333336, "rental_uris": {"ios": "https://dc.lft.to/lastmile_qr_scan", "android": "https://dc.lft.to/lastmile_qr_scan"}, "is_reserved": 0, "fusion_lon": 0.0, "fusion_lat": 0.0, "lon": -77.0020205, "name": "2d961d97ecdab72ddcbe41f5f971d17b"}, {"bike_id": "6b44115772e44a102ff29378c9be6c07", "type": "electric_scooter", "is_disabled": 0, "lat": 38.88747016666667, "rental_uris": {"ios": "https://dc.lft.to/lastmile_qr_scan", "android": "https://dc.lft.to/lastmile_qr_scan"}, "is_reserved": 0, "fusion_lon": 0.0, "fusion_lat": 0.0, "lon": -77.02567666666667, "name": "6b44115772e44a102ff29378c9be6c07"}, {"bike_id": "15c55bf6bf91e16bf8bfbbc2e63634bd", "type": "electric_scooter", "is_disabled": 0, "lat": 38.919953166666666, "rental_uris": {"ios": "https://dc.lft.to/lastmile_qr_scan", "android": "https://dc.lft.to/lastmile_qr_scan"}, "is_reserved": 0, "fusion_lon": 0.0, "fusion_lat": 0.0, "lon": -77.03966483333333, "name": "15c55bf6bf91e16bf8bfbbc2e63634bd"}, {"bike_id": "48cd1905514a276d675814645ec1df74", "type": "electric_scooter", "is_disabled": 0, "lat": 38.92476833333333, "rental_uris": {"ios": "https://dc.lft.to/lastmile_qr_scan", "android": "https://dc.lft.to/lastmile_qr_scan"}, "is_reserved": 0, "fusion_lon": 0.0, "fusion_lat": 0.0, "lon": -77.03794933333333, "name": "48cd1905514a276d675814645ec1df74"}, {"bike_id": "0594f1ed02220a9983f8fe0698961aa5", "type": "electric_scooter", "is_disabled": 0, "lat": 38.932474666666664, "rental_uris": {"ios": "https://dc.lft.to/lastmile_qr_scan", "android": "https://dc.lft.to/lastmile_qr_scan"}, "is_reserved": 0, "fusion_lon": 0.0, "fusion_lat": 0.0, "lon": -77.03279, "name": "0594f1ed02220a9983f8fe0698961aa5"}, {"bike_id": "1a6144851767f66e4730c3f79992232b", "type": "electric_scooter", "is_disabled": 0, "lat": 38.930851, "rental_uris": {"ios": "https://dc.lft.to/lastmile_qr_scan", "android": "https://dc.lft.to/lastmile_qr_scan"}, "is_reserved": 0, "fusion_lon": 0.0, "fusion_lat": 0.0, "lon": -77.02552616666667, "name": "1a6144851767f66e4730c3f79992232b"}, {"bike_id": "7973582624c90d76f179a33de778ed32", "type": "electric_scooter", "is_disabled": 0, "lat": 38.9869695, "rental_uris": {"ios": "https://dc.lft.to/lastmile_qr_scan", "android": "https://dc.lft.to/lastmile_qr_scan"}, "is_reserved": 0, "fusion_lon": 0.0, "fusion_lat": 0.0, "lon": -77.02981266666667, "name": "7973582624c90d76f179a33de778ed32"}, {"bike_id": "c0d8d29f84da68422dcc62f6d3d50196", "type": "electric_scooter", "is_disabled": 0, "lat": 38.88715333333333, "rental_uris": {"ios": "https://dc.lft.to/lastmile_qr_scan", "android": "https://dc.lft.to/lastmile_qr_scan"}, "is_reserved": 0, "fusion_lon": 0.0, "fusion_lat": 0.0, "lon": -77.02204333333333, "name": "c0d8d29f84da68422dcc62f6d3d50196"}, {"bike_id": "e1e9ad3d11d9406846af15d550b98790", "type": "electric_scooter", "is_disabled": 0, "lat": 38.928403833333334, "rental_uris": {"ios": "https://dc.lft.to/lastmile_qr_scan", "android": "https://dc.lft.to/lastmile_qr_scan"}, "is_reserved": 0, "fusion_lon": 0.0, "fusion_lat": 0.0, "lon": -77.03275583333334, "name": "e1e9ad3d11d9406846af15d550b98790"}, {"bike_id": "36a7948bc8b1c52d1493555b9965885d", "type": "electric_scooter", "is_disabled": 0, "lat": 38.8806205, "rental_uris": {"ios": "https://dc.lft.to/lastmile_qr_scan", "android": "https://dc.lft.to/lastmile_qr_scan"}, "is_reserved": 0, "fusion_lon": 0.0, "fusion_lat": 0.0, "lon": -77.01534116666667, "name": "36a7948bc8b1c52d1493555b9965885d"}, {"bike_id": "cad780655625cd6c666975ef739afd1f", "type": "electric_scooter", "is_disabled": 0, "lat": 38.932506833333335, "rental_uris": {"ios": "https://dc.lft.to/lastmile_qr_scan", "android": "https://dc.lft.to/lastmile_qr_scan"}, "is_reserved": 0, "fusion_lon": 0.0, "fusion_lat": 0.0, "lon": -76.99517966666667, "name": "cad780655625cd6c666975ef739afd1f"}, {"bike_id": "bb4050ca7895fa00de4353d08f3eb88e", "type": "electric_scooter", "is_disabled": 0, "lat": 38.910189833333334, "rental_uris": {"ios": "https://dc.lft.to/lastmile_qr_scan", "android": "https://dc.lft.to/lastmile_qr_scan"}, "is_reserved": 0, "fusion_lon": 0.0, "fusion_lat": 0.0, "lon": -77.02850333333333, "name": "bb4050ca7895fa00de4353d08f3eb88e"}, {"bike_id": "513d598fc3968c4e29d9889afe826373", "type": "electric_scooter", "is_disabled": 0, "lat": 38.9155435, "rental_uris": {"ios": "https://dc.lft.to/lastmile_qr_scan", "android": "https://dc.lft.to/lastmile_qr_scan"}, "is_reserved": 0, "fusion_lon": 0.0, "fusion_lat": 0.0, "lon": -77.0242565, "name": "513d598fc3968c4e29d9889afe826373"}, {"bike_id": "97c7b3617f30db5d3838598671e75c1b", "type": "electric_scooter", "is_disabled": 0, "lat": 38.90263616666667, "rental_uris": {"ios": "https://dc.lft.to/lastmile_qr_scan", "android": "https://dc.lft.to/lastmile_qr_scan"}, "is_reserved": 0, "fusion_lon": 0.0, "fusion_lat": 0.0, "lon": -77.017623, "name": "97c7b3617f30db5d3838598671e75c1b"}, {"bike_id": "4c8f18ebf74717a3e522eeb75aae8481", "type": "electric_scooter", "is_disabled": 0, "lat": 38.886540333333336, "rental_uris": {"ios": "https://dc.lft.to/lastmile_qr_scan", "android": "https://dc.lft.to/lastmile_qr_scan"}, "is_reserved": 0, "fusion_lon": 0.0, "fusion_lat": 0.0, "lon": -77.02822766666667, "name": "4c8f18ebf74717a3e522eeb75aae8481"}, {"bike_id": "7bc26d119ca04568e3c53f1feb3e15a7", "type": "electric_scooter", "is_disabled": 0, "lat": 38.920713166666665, "rental_uris": {"ios": "https://dc.lft.to/lastmile_qr_scan", "android": "https://dc.lft.to/lastmile_qr_scan"}, "is_reserved": 0, "fusion_lon": 0.0, "fusion_lat": 0.0, "lon": -77.08059733333333, "name": "7bc26d119ca04568e3c53f1feb3e15a7"}, {"bike_id": "8364bae21ee544abce78c70791331cde", "type": "electric_scooter", "is_disabled": 0, "lat": 38.918467666666665, "rental_uris": {"ios": "https://dc.lft.to/lastmile_qr_scan", "android": "https://dc.lft.to/lastmile_qr_scan"}, "is_reserved": 0, "fusion_lon": 0.0, "fusion_lat": 0.0, "lon": -77.03185633333334, "name": "8364bae21ee544abce78c70791331cde"}, {"bike_id": "7b7d0ad53752292086757a263617156d", "type": "electric_scooter", "is_disabled": 0, "lat": 38.906484666666664, "rental_uris": {"ios": "https://dc.lft.to/lastmile_qr_scan", "android": "https://dc.lft.to/lastmile_qr_scan"}, "is_reserved": 0, "fusion_lon": 0.0, "fusion_lat": 0.0, "lon": -77.00997233333334, "name": "7b7d0ad53752292086757a263617156d"}, {"bike_id": "822d6e558de254f6797645982a0bacd0", "type": "electric_scooter", "is_disabled": 0, "lat": 38.906982, "rental_uris": {"ios": "https://dc.lft.to/lastmile_qr_scan", "android": "https://dc.lft.to/lastmile_qr_scan"}, "is_reserved": 0, "fusion_lon": 0.0, "fusion_lat": 0.0, "lon": -77.01545616666667, "name": "822d6e558de254f6797645982a0bacd0"}, {"bike_id": "6721fae89ea78cf0267d18557cef66ce", "type": "electric_bike", "is_disabled": 0, "lat": 38.929212166666666, "rental_uris": {"ios": "https://dc.lft.to/lastmile_qr_scan", "android": "https://dc.lft.to/lastmile_qr_scan"}, "is_reserved": 0, "fusion_lon": 0.0, "fusion_lat": 0.0, "lon": -77.03251933333334, "name": "6721fae89ea78cf0267d18557cef66ce"}, {"bike_id": "c41e0725a9a51cf2fb54789a96d03115", "type": "electric_scooter", "is_disabled": 0, "lat": 38.92124066666667, "rental_uris": {"ios": "https://dc.lft.to/lastmile_qr_scan", "android": "https://dc.lft.to/lastmile_qr_scan"}, "is_reserved": 0, "fusion_lon": 0.0, "fusion_lat": 0.0, "lon": -77.0121225, "name": "c41e0725a9a51cf2fb54789a96d03115"}, {"bike_id": "08874c6ec9a8e4d67f98627e8a8ed426", "type": "electric_scooter", "is_disabled": 0, "lat": 38.9371755, "rental_uris": {"ios": "https://dc.lft.to/lastmile_qr_scan", "android": "https://dc.lft.to/lastmile_qr_scan"}, "is_reserved": 0, "fusion_lon": 0.0, "fusion_lat": 0.0, "lon": -77.03264433333334, "name": "08874c6ec9a8e4d67f98627e8a8ed426"}, {"bike_id": "d29f383e9ebdaf91e11557a7e2fb55d5", "type": "electric_scooter", "is_disabled": 0, "lat": 38.89947933333333, "rental_uris": {"ios": "https://dc.lft.to/lastmile_qr_scan", "android": "https://dc.lft.to/lastmile_qr_scan"}, "is_reserved": 0, "fusion_lon": 0.0, "fusion_lat": 0.0, "lon": -77.01436733333334, "name": "d29f383e9ebdaf91e11557a7e2fb55d5"}, {"bike_id": "0b05bf37ab758b9a36ee3e6606873fc1", "type": "electric_scooter", "is_disabled": 0, "lat": 38.9084565, "rental_uris": {"ios": "https://dc.lft.to/lastmile_qr_scan", "android": "https://dc.lft.to/lastmile_qr_scan"}, "is_reserved": 0, "fusion_lon": 0.0, "fusion_lat": 0.0, "lon": -77.02058383333333, "name": "0b05bf37ab758b9a36ee3e6606873fc1"}, {"bike_id": "ad6067cec10d72b7a5fa31aefda614fc", "type": "electric_scooter", "is_disabled": 0, "lat": 38.86631216666667, "rental_uris": {"ios": "https://dc.lft.to/lastmile_qr_scan", "android": "https://dc.lft.to/lastmile_qr_scan"}, "is_reserved": 0, "fusion_lon": 0.0, "fusion_lat": 0.0, "lon": -76.9891575, "name": "ad6067cec10d72b7a5fa31aefda614fc"}, {"bike_id": "7358197f002448361e196e2c17d95d5a", "type": "electric_scooter", "is_disabled": 0, "lat": 38.91543216666667, "rental_uris": {"ios": "https://dc.lft.to/lastmile_qr_scan", "android": "https://dc.lft.to/lastmile_qr_scan"}, "is_reserved": 0, "fusion_lon": 0.0, "fusion_lat": 0.0, "lon": -77.02005833333334, "name": "7358197f002448361e196e2c17d95d5a"}, {"bike_id": "0e6933fac41483f5abc5c208c5d28959", "type": "electric_scooter", "is_disabled": 0, "lat": 38.90245083333333, "rental_uris": {"ios": "https://dc.lft.to/lastmile_qr_scan", "android": "https://dc.lft.to/lastmile_qr_scan"}, "is_reserved": 0, "fusion_lon": 0.0, "fusion_lat": 0.0, "lon": -77.03595283333334, "name": "0e6933fac41483f5abc5c208c5d28959"}, {"bike_id": "3879fa5e6348c9850174b6f85a2c1bec", "type": "electric_scooter", "is_disabled": 0, "lat": 38.91692716666667, "rental_uris": {"ios": "https://dc.lft.to/lastmile_qr_scan", "android": "https://dc.lft.to/lastmile_qr_scan"}, "is_reserved": 0, "fusion_lon": 0.0, "fusion_lat": 0.0, "lon": -77.03851283333333, "name": "3879fa5e6348c9850174b6f85a2c1bec"}, {"bike_id": "b814de59204438647c57b5f03069353d", "type": "electric_bike", "is_disabled": 0, "lat": 38.91906483333333, "rental_uris": {"ios": "https://dc.lft.to/lastmile_qr_scan", "android": "https://dc.lft.to/lastmile_qr_scan"}, "is_reserved": 0, "fusion_lon": 0.0, "fusion_lat": 0.0, "lon": -77.00066433333333, "name": "b814de59204438647c57b5f03069353d"}, {"bike_id": "e9fab31b64d86782d9469ca5fe84a8df", "type": "electric_scooter", "is_disabled": 0, "lat": 38.88435, "rental_uris": {"ios": "https://dc.lft.to/lastmile_qr_scan", "android": "https://dc.lft.to/lastmile_qr_scan"}, "is_reserved": 0, "fusion_lon": 0.0, "fusion_lat": 0.0, "lon": -76.9575965, "name": "e9fab31b64d86782d9469ca5fe84a8df"}, {"bike_id": "65bc0983a06bc2cc86c8853a4f8f28de", "type": "electric_scooter", "is_disabled": 0, "lat": 38.9155415, "rental_uris": {"ios": "https://dc.lft.to/lastmile_qr_scan", "android": "https://dc.lft.to/lastmile_qr_scan"}, "is_reserved": 0, "fusion_lon": 0.0, "fusion_lat": 0.0, "lon": -77.02136083333333, "name": "65bc0983a06bc2cc86c8853a4f8f28de"}, {"bike_id": "0b433d6fd0c9db965c71fcebfd837993", "type": "electric_scooter", "is_disabled": 0, "lat": 38.926219, "rental_uris": {"ios": "https://dc.lft.to/lastmile_qr_scan", "android": "https://dc.lft.to/lastmile_qr_scan"}, "is_reserved": 0, "fusion_lon": 0.0, "fusion_lat": 0.0, "lon": -77.03703483333334, "name": "0b433d6fd0c9db965c71fcebfd837993"}, {"bike_id": "9c2de3ae18e1edb0fcb2ab107af0bdf1", "type": "electric_bike", "is_disabled": 0, "lat": 38.865187166666665, "rental_uris": {"ios": "https://dc.lft.to/lastmile_qr_scan", "android": "https://dc.lft.to/lastmile_qr_scan"}, "is_reserved": 0, "fusion_lon": 0.0, "fusion_lat": 0.0, "lon": -77.1293385, "name": "9c2de3ae18e1edb0fcb2ab107af0bdf1"}, {"bike_id": "52bb7f999e2979673bf0b6b395b03beb", "type": "electric_scooter", "is_disabled": 0, "lat": 38.90557316666667, "rental_uris": {"ios": "https://dc.lft.to/lastmile_qr_scan", "android": "https://dc.lft.to/lastmile_qr_scan"}, "is_reserved": 0, "fusion_lon": 0.0, "fusion_lat": 0.0, "lon": -77.04483733333333, "name": "52bb7f999e2979673bf0b6b395b03beb"}, {"bike_id": "60297cca53537bba45adc07fdfb1268d", "type": "electric_bike", "is_disabled": 0, "lat": 38.80394883333334, "rental_uris": {"ios": "https://dc.lft.to/lastmile_qr_scan", "android": "https://dc.lft.to/lastmile_qr_scan"}, "is_reserved": 0, "fusion_lon": 0.0, "fusion_lat": 0.0, "lon": -77.0556505, "name": "60297cca53537bba45adc07fdfb1268d"}, {"bike_id": "bc4ddfc8b1fe34a93e8e3c7cd352efbc", "type": "electric_scooter", "is_disabled": 0, "lat": 38.908192, "rental_uris": {"ios": "https://dc.lft.to/lastmile_qr_scan", "android": "https://dc.lft.to/lastmile_qr_scan"}, "is_reserved": 0, "fusion_lon": 0.0, "fusion_lat": 0.0, "lon": -77.02605733333333, "name": "bc4ddfc8b1fe34a93e8e3c7cd352efbc"}, {"bike_id": "393bb2a9084c4365e89cf686f14f45f8", "type": "electric_scooter", "is_disabled": 0, "lat": 38.944707, "rental_uris": {"ios": "https://dc.lft.to/lastmile_qr_scan", "android": "https://dc.lft.to/lastmile_qr_scan"}, "is_reserved": 0, "fusion_lon": 0.0, "fusion_lat": 0.0, "lon": -77.02339933333333, "name": "393bb2a9084c4365e89cf686f14f45f8"}, {"bike_id": "753d42e10d6d1e3c1d607d805f692de5", "type": "electric_scooter", "is_disabled": 0, "lat": 38.878868, "rental_uris": {"ios": "https://dc.lft.to/lastmile_qr_scan", "android": "https://dc.lft.to/lastmile_qr_scan"}, "is_reserved": 0, "fusion_lon": 0.0, "fusion_lat": 0.0, "lon": -76.991544, "name": "753d42e10d6d1e3c1d607d805f692de5"}, {"bike_id": "d5464765588540cf74230c69ab309987", "type": "electric_scooter", "is_disabled": 0, "lat": 38.900820333333336, "rental_uris": {"ios": "https://dc.lft.to/lastmile_qr_scan", "android": "https://dc.lft.to/lastmile_qr_scan"}, "is_reserved": 0, "fusion_lon": 0.0, "fusion_lat": 0.0, "lon": -77.05077366666667, "name": "d5464765588540cf74230c69ab309987"}, {"bike_id": "a9fd47f9147bca215273d38fef13195f", "type": "electric_scooter", "is_disabled": 0, "lat": 38.89713, "rental_uris": {"ios": "https://dc.lft.to/lastmile_qr_scan", "android": "https://dc.lft.to/lastmile_qr_scan"}, "is_reserved": 0, "fusion_lon": 0.0, "fusion_lat": 0.0, "lon": -76.93002616666666, "name": "a9fd47f9147bca215273d38fef13195f"}, {"bike_id": "1da31d3e8cafad36e0615a386030e0a1", "type": "electric_scooter", "is_disabled": 0, "lat": 38.90735316666667, "rental_uris": {"ios": "https://dc.lft.to/lastmile_qr_scan", "android": "https://dc.lft.to/lastmile_qr_scan"}, "is_reserved": 0, "fusion_lon": 0.0, "fusion_lat": 0.0, "lon": -77.04292266666667, "name": "1da31d3e8cafad36e0615a386030e0a1"}, {"bike_id": "ad01f48c49f405b811ebea0859ebacb1", "type": "electric_scooter", "is_disabled": 0, "lat": 38.8952825, "rental_uris": {"ios": "https://dc.lft.to/lastmile_qr_scan", "android": "https://dc.lft.to/lastmile_qr_scan"}, "is_reserved": 0, "fusion_lon": 0.0, "fusion_lat": 0.0, "lon": -77.02274633333333, "name": "ad01f48c49f405b811ebea0859ebacb1"}, {"bike_id": "c40e396e285f24d46c7dc6dd45444850", "type": "electric_scooter", "is_disabled": 0, "lat": 38.8822135, "rental_uris": {"ios": "https://dc.lft.to/lastmile_qr_scan", "android": "https://dc.lft.to/lastmile_qr_scan"}, "is_reserved": 0, "fusion_lon": 0.0, "fusion_lat": 0.0, "lon": -77.02912533333334, "name": "c40e396e285f24d46c7dc6dd45444850"}, {"bike_id": "7d6c5fb3222b8a81ceda839a2f5a92c1", "type": "electric_scooter", "is_disabled": 0, "lat": 38.88711683333333, "rental_uris": {"ios": "https://dc.lft.to/lastmile_qr_scan", "android": "https://dc.lft.to/lastmile_qr_scan"}, "is_reserved": 0, "fusion_lon": 0.0, "fusion_lat": 0.0, "lon": -77.02205633333334, "name": "7d6c5fb3222b8a81ceda839a2f5a92c1"}, {"bike_id": "a2b235b2971da1deee7632a0706a1fb5", "type": "electric_scooter", "is_disabled": 0, "lat": 38.90745366666667, "rental_uris": {"ios": "https://dc.lft.to/lastmile_qr_scan", "android": "https://dc.lft.to/lastmile_qr_scan"}, "is_reserved": 0, "fusion_lon": 0.0, "fusion_lat": 0.0, "lon": -77.021832, "name": "a2b235b2971da1deee7632a0706a1fb5"}, {"bike_id": "e3dac0effd6a62763bd05afa9584ce68", "type": "electric_scooter", "is_disabled": 0, "lat": 38.912726, "rental_uris": {"ios": "https://dc.lft.to/lastmile_qr_scan", "android": "https://dc.lft.to/lastmile_qr_scan"}, "is_reserved": 0, "fusion_lon": 0.0, "fusion_lat": 0.0, "lon": -77.02212966666667, "name": "e3dac0effd6a62763bd05afa9584ce68"}, {"bike_id": "11e6f9311937fa7fdde6e2866865db9d", "type": "electric_scooter", "is_disabled": 0, "lat": 38.915070666666665, "rental_uris": {"ios": "https://dc.lft.to/lastmile_qr_scan", "android": "https://dc.lft.to/lastmile_qr_scan"}, "is_reserved": 0, "fusion_lon": 0.0, "fusion_lat": 0.0, "lon": -77.01779066666667, "name": "11e6f9311937fa7fdde6e2866865db9d"}, {"bike_id": "59011f7a930dbce28ee14666a5dfa33d", "type": "electric_scooter", "is_disabled": 0, "lat": 38.914166333333334, "rental_uris": {"ios": "https://dc.lft.to/lastmile_qr_scan", "android": "https://dc.lft.to/lastmile_qr_scan"}, "is_reserved": 0, "fusion_lon": 0.0, "fusion_lat": 0.0, "lon": -77.02403983333333, "name": "59011f7a930dbce28ee14666a5dfa33d"}, {"bike_id": "226bd3e04587e94d4f788009aaf24767", "type": "electric_bike", "is_disabled": 0, "lat": 38.9473675, "rental_uris": {"ios": "https://dc.lft.to/lastmile_qr_scan", "android": "https://dc.lft.to/lastmile_qr_scan"}, "is_reserved": 0, "fusion_lon": 0.0, "fusion_lat": 0.0, "lon": -76.995816, "name": "226bd3e04587e94d4f788009aaf24767"}, {"bike_id": "ae34cff464fa8bdc7c10ade44afee1b6", "type": "electric_scooter", "is_disabled": 0, "lat": 38.90526666666667, "rental_uris": {"ios": "https://dc.lft.to/lastmile_qr_scan", "android": "https://dc.lft.to/lastmile_qr_scan"}, "is_reserved": 0, "fusion_lon": 0.0, "fusion_lat": 0.0, "lon": -77.04877216666667, "name": "ae34cff464fa8bdc7c10ade44afee1b6"}, {"bike_id": "015fbab8107fe60043411543981a28be", "type": "electric_scooter", "is_disabled": 0, "lat": 38.904176166666666, "rental_uris": {"ios": "https://dc.lft.to/lastmile_qr_scan", "android": "https://dc.lft.to/lastmile_qr_scan"}, "is_reserved": 0, "fusion_lon": 0.0, "fusion_lat": 0.0, "lon": -76.97334866666667, "name": "015fbab8107fe60043411543981a28be"}, {"bike_id": "1a251351f5e656fc44e0de528cedd0f3", "type": "electric_scooter", "is_disabled": 0, "lat": 38.92082716666667, "rental_uris": {"ios": "https://dc.lft.to/lastmile_qr_scan", "android": "https://dc.lft.to/lastmile_qr_scan"}, "is_reserved": 0, "fusion_lon": 0.0, "fusion_lat": 0.0, "lon": -77.02303166666667, "name": "1a251351f5e656fc44e0de528cedd0f3"}, {"bike_id": "3b0f9ac62085c38c7eefe7c4924ab9eb", "type": "electric_scooter", "is_disabled": 0, "lat": 38.866562333333334, "rental_uris": {"ios": "https://dc.lft.to/lastmile_qr_scan", "android": "https://dc.lft.to/lastmile_qr_scan"}, "is_reserved": 0, "fusion_lon": 0.0, "fusion_lat": 0.0, "lon": -76.988646, "name": "3b0f9ac62085c38c7eefe7c4924ab9eb"}, {"bike_id": "d0c93bef333f2f3ba54f87b759c4d9cd", "type": "electric_scooter", "is_disabled": 0, "lat": 38.9172855, "rental_uris": {"ios": "https://dc.lft.to/lastmile_qr_scan", "android": "https://dc.lft.to/lastmile_qr_scan"}, "is_reserved": 0, "fusion_lon": 0.0, "fusion_lat": 0.0, "lon": -77.032096, "name": "d0c93bef333f2f3ba54f87b759c4d9cd"}, {"bike_id": "a33b6d2885a62a7404b9a4ce085d1d78", "type": "electric_scooter", "is_disabled": 0, "lat": 38.90366316666667, "rental_uris": {"ios": "https://dc.lft.to/lastmile_qr_scan", "android": "https://dc.lft.to/lastmile_qr_scan"}, "is_reserved": 0, "fusion_lon": 0.0, "fusion_lat": 0.0, "lon": -77.0221095, "name": "a33b6d2885a62a7404b9a4ce085d1d78"}, {"bike_id": "8f38da1ff81c00d8271628a18c66f515", "type": "electric_scooter", "is_disabled": 0, "lat": 38.91707516666666, "rental_uris": {"ios": "https://dc.lft.to/lastmile_qr_scan", "android": "https://dc.lft.to/lastmile_qr_scan"}, "is_reserved": 0, "fusion_lon": 0.0, "fusion_lat": 0.0, "lon": -77.031423, "name": "8f38da1ff81c00d8271628a18c66f515"}, {"bike_id": "fa2f20db6ca4429fb9b339f5af3fbba6", "type": "electric_scooter", "is_disabled": 0, "lat": 38.921622166666666, "rental_uris": {"ios": "https://dc.lft.to/lastmile_qr_scan", "android": "https://dc.lft.to/lastmile_qr_scan"}, "is_reserved": 0, "fusion_lon": 0.0, "fusion_lat": 0.0, "lon": -77.03342166666667, "name": "fa2f20db6ca4429fb9b339f5af3fbba6"}, {"bike_id": "9d6014d6f136901b6c898c205bca99c8", "type": "electric_scooter", "is_disabled": 0, "lat": 38.906734666666665, "rental_uris": {"ios": "https://dc.lft.to/lastmile_qr_scan", "android": "https://dc.lft.to/lastmile_qr_scan"}, "is_reserved": 0, "fusion_lon": 0.0, "fusion_lat": 0.0, "lon": -77.00014316666666, "name": "9d6014d6f136901b6c898c205bca99c8"}, {"bike_id": "34acf748d3d8d6528d8ba769020a2c89", "type": "electric_scooter", "is_disabled": 0, "lat": 38.912712, "rental_uris": {"ios": "https://dc.lft.to/lastmile_qr_scan", "android": "https://dc.lft.to/lastmile_qr_scan"}, "is_reserved": 0, "fusion_lon": 0.0, "fusion_lat": 0.0, "lon": -77.0222095, "name": "34acf748d3d8d6528d8ba769020a2c89"}, {"bike_id": "be5d828537d896f6f3918bd50f3536bc", "type": "electric_scooter", "is_disabled": 0, "lat": 38.928717166666665, "rental_uris": {"ios": "https://dc.lft.to/lastmile_qr_scan", "android": "https://dc.lft.to/lastmile_qr_scan"}, "is_reserved": 0, "fusion_lon": 0.0, "fusion_lat": 0.0, "lon": -77.034124, "name": "be5d828537d896f6f3918bd50f3536bc"}, {"bike_id": "41eebb1fa5c8d215f76ca3a1d0364227", "type": "electric_scooter", "is_disabled": 0, "lat": 38.908086833333336, "rental_uris": {"ios": "https://dc.lft.to/lastmile_qr_scan", "android": "https://dc.lft.to/lastmile_qr_scan"}, "is_reserved": 0, "fusion_lon": 0.0, "fusion_lat": 0.0, "lon": -77.04291766666667, "name": "41eebb1fa5c8d215f76ca3a1d0364227"}, {"bike_id": "8f8cf6e7ade007af11007d9c28fc47af", "type": "electric_scooter", "is_disabled": 0, "lat": 38.9246275, "rental_uris": {"ios": "https://dc.lft.to/lastmile_qr_scan", "android": "https://dc.lft.to/lastmile_qr_scan"}, "is_reserved": 0, "fusion_lon": 0.0, "fusion_lat": 0.0, "lon": -77.052063, "name": "8f8cf6e7ade007af11007d9c28fc47af"}, {"bike_id": "cb6a8bfffc0ff709b59925cb96952fd8", "type": "electric_scooter", "is_disabled": 0, "lat": 38.920174, "rental_uris": {"ios": "https://dc.lft.to/lastmile_qr_scan", "android": "https://dc.lft.to/lastmile_qr_scan"}, "is_reserved": 0, "fusion_lon": 0.0, "fusion_lat": 0.0, "lon": -77.042015, "name": "cb6a8bfffc0ff709b59925cb96952fd8"}, {"bike_id": "952c1d7fb5deb8b6f5f987db96e27a0d", "type": "electric_scooter", "is_disabled": 0, "lat": 38.90371, "rental_uris": {"ios": "https://dc.lft.to/lastmile_qr_scan", "android": "https://dc.lft.to/lastmile_qr_scan"}, "is_reserved": 0, "fusion_lon": 0.0, "fusion_lat": 0.0, "lon": -77.04808183333333, "name": "952c1d7fb5deb8b6f5f987db96e27a0d"}, {"bike_id": "6239aee963424a128723def243bf1497", "type": "electric_scooter", "is_disabled": 0, "lat": 38.93188266666667, "rental_uris": {"ios": "https://dc.lft.to/lastmile_qr_scan", "android": "https://dc.lft.to/lastmile_qr_scan"}, "is_reserved": 0, "fusion_lon": 0.0, "fusion_lat": 0.0, "lon": -77.03442666666666, "name": "6239aee963424a128723def243bf1497"}, {"bike_id": "4297521065bdaba307daae0dee4c0790", "type": "electric_scooter", "is_disabled": 0, "lat": 38.93426483333333, "rental_uris": {"ios": "https://dc.lft.to/lastmile_qr_scan", "android": "https://dc.lft.to/lastmile_qr_scan"}, "is_reserved": 0, "fusion_lon": 0.0, "fusion_lat": 0.0, "lon": -77.02848033333333, "name": "4297521065bdaba307daae0dee4c0790"}, {"bike_id": "35004be475c0c764b5c5865ceaffe05f", "type": "electric_bike", "is_disabled": 0, "lat": 38.9208575, "rental_uris": {"ios": "https://dc.lft.to/lastmile_qr_scan", "android": "https://dc.lft.to/lastmile_qr_scan"}, "is_reserved": 0, "fusion_lon": 0.0, "fusion_lat": 0.0, "lon": -77.035127, "name": "35004be475c0c764b5c5865ceaffe05f"}, {"bike_id": "c6c70faeddbd6775cda1d48547c62012", "type": "electric_bike", "is_disabled": 0, "lat": 38.95708233333333, "rental_uris": {"ios": "https://dc.lft.to/lastmile_qr_scan", "android": "https://dc.lft.to/lastmile_qr_scan"}, "is_reserved": 0, "fusion_lon": 0.0, "fusion_lat": 0.0, "lon": -77.02397716666667, "name": "c6c70faeddbd6775cda1d48547c62012"}, {"bike_id": "f719e572fa411051051ccd27a69f53ad", "type": "electric_scooter", "is_disabled": 0, "lat": 38.915830666666665, "rental_uris": {"ios": "https://dc.lft.to/lastmile_qr_scan", "android": "https://dc.lft.to/lastmile_qr_scan"}, "is_reserved": 0, "fusion_lon": 0.0, "fusion_lat": 0.0, "lon": -77.01233033333334, "name": "f719e572fa411051051ccd27a69f53ad"}, {"bike_id": "6945f36ab061de84ab8220e7a9565361", "type": "electric_scooter", "is_disabled": 0, "lat": 38.919207166666666, "rental_uris": {"ios": "https://dc.lft.to/lastmile_qr_scan", "android": "https://dc.lft.to/lastmile_qr_scan"}, "is_reserved": 0, "fusion_lon": 0.0, "fusion_lat": 0.0, "lon": -77.00255133333333, "name": "6945f36ab061de84ab8220e7a9565361"}, {"bike_id": "211c6c064efbcd2b3b5f67854adef475", "type": "electric_scooter", "is_disabled": 0, "lat": 38.88501183333333, "rental_uris": {"ios": "https://dc.lft.to/lastmile_qr_scan", "android": "https://dc.lft.to/lastmile_qr_scan"}, "is_reserved": 0, "fusion_lon": 0.0, "fusion_lat": 0.0, "lon": -77.0254395, "name": "211c6c064efbcd2b3b5f67854adef475"}, {"bike_id": "30ae5d9bab6e48ade9c07d692c3f1edf", "type": "electric_scooter", "is_disabled": 0, "lat": 38.92756083333333, "rental_uris": {"ios": "https://dc.lft.to/lastmile_qr_scan", "android": "https://dc.lft.to/lastmile_qr_scan"}, "is_reserved": 0, "fusion_lon": 0.0, "fusion_lat": 0.0, "lon": -77.02381566666666, "name": "30ae5d9bab6e48ade9c07d692c3f1edf"}, {"bike_id": "0b6a2966c3908c4321d5c0ddf0175864", "type": "electric_scooter", "is_disabled": 0, "lat": 38.90445666666667, "rental_uris": {"ios": "https://dc.lft.to/lastmile_qr_scan", "android": "https://dc.lft.to/lastmile_qr_scan"}, "is_reserved": 0, "fusion_lon": 0.0, "fusion_lat": 0.0, "lon": -76.97999966666667, "name": "0b6a2966c3908c4321d5c0ddf0175864"}, {"bike_id": "a9ec379adfa9af5a8034676b8f96d022", "type": "electric_scooter", "is_disabled": 0, "lat": 38.931901, "rental_uris": {"ios": "https://dc.lft.to/lastmile_qr_scan", "android": "https://dc.lft.to/lastmile_qr_scan"}, "is_reserved": 0, "fusion_lon": 0.0, "fusion_lat": 0.0, "lon": -77.02018616666666, "name": "a9ec379adfa9af5a8034676b8f96d022"}, {"bike_id": "7f92df205168d571ea45006c14f1cfe7", "type": "electric_scooter", "is_disabled": 0, "lat": 38.90613666666667, "rental_uris": {"ios": "https://dc.lft.to/lastmile_qr_scan", "android": "https://dc.lft.to/lastmile_qr_scan"}, "is_reserved": 0, "fusion_lon": 0.0, "fusion_lat": 0.0, "lon": -77.00389833333334, "name": "7f92df205168d571ea45006c14f1cfe7"}, {"bike_id": "fe784ce59e29f92b357e43e83c4d0df2", "type": "electric_scooter", "is_disabled": 0, "lat": 38.9180345, "rental_uris": {"ios": "https://dc.lft.to/lastmile_qr_scan", "android": "https://dc.lft.to/lastmile_qr_scan"}, "is_reserved": 0, "fusion_lon": 0.0, "fusion_lat": 0.0, "lon": -77.03448716666666, "name": "fe784ce59e29f92b357e43e83c4d0df2"}, {"bike_id": "10604f0a2f946c9626f51c002564c41e", "type": "electric_scooter", "is_disabled": 0, "lat": 38.89914533333334, "rental_uris": {"ios": "https://dc.lft.to/lastmile_qr_scan", "android": "https://dc.lft.to/lastmile_qr_scan"}, "is_reserved": 0, "fusion_lon": 0.0, "fusion_lat": 0.0, "lon": -76.93373416666667, "name": "10604f0a2f946c9626f51c002564c41e"}, {"bike_id": "4a05e21239d443ad007bcb2201247ef5", "type": "electric_scooter", "is_disabled": 0, "lat": 38.91258966666667, "rental_uris": {"ios": "https://dc.lft.to/lastmile_qr_scan", "android": "https://dc.lft.to/lastmile_qr_scan"}, "is_reserved": 0, "fusion_lon": 0.0, "fusion_lat": 0.0, "lon": -77.03147366666667, "name": "4a05e21239d443ad007bcb2201247ef5"}, {"bike_id": "89c94eb2b9af60c13f00c446b40f165c", "type": "electric_scooter", "is_disabled": 0, "lat": 38.9196715, "rental_uris": {"ios": "https://dc.lft.to/lastmile_qr_scan", "android": "https://dc.lft.to/lastmile_qr_scan"}, "is_reserved": 0, "fusion_lon": 0.0, "fusion_lat": 0.0, "lon": -77.04078233333334, "name": "89c94eb2b9af60c13f00c446b40f165c"}, {"bike_id": "40d815c99c180f0dbed5d29e1bbc7d2a", "type": "electric_scooter", "is_disabled": 0, "lat": 38.9233295, "rental_uris": {"ios": "https://dc.lft.to/lastmile_qr_scan", "android": "https://dc.lft.to/lastmile_qr_scan"}, "is_reserved": 0, "fusion_lon": 0.0, "fusion_lat": 0.0, "lon": -77.02964883333334, "name": "40d815c99c180f0dbed5d29e1bbc7d2a"}, {"bike_id": "ba4ae13c31f140e6c47afaf0f5f6139b", "type": "electric_scooter", "is_disabled": 0, "lat": 38.91013266666667, "rental_uris": {"ios": "https://dc.lft.to/lastmile_qr_scan", "android": "https://dc.lft.to/lastmile_qr_scan"}, "is_reserved": 0, "fusion_lon": 0.0, "fusion_lat": 0.0, "lon": -77.04012416666667, "name": "ba4ae13c31f140e6c47afaf0f5f6139b"}, {"bike_id": "77af343d6dc82eb26d73927678eb359f", "type": "electric_scooter", "is_disabled": 0, "lat": 38.92344283333333, "rental_uris": {"ios": "https://dc.lft.to/lastmile_qr_scan", "android": "https://dc.lft.to/lastmile_qr_scan"}, "is_reserved": 0, "fusion_lon": 0.0, "fusion_lat": 0.0, "lon": -77.05248766666666, "name": "77af343d6dc82eb26d73927678eb359f"}, {"bike_id": "09f4c69c88902372b3ec20649d1b0bdd", "type": "electric_bike", "is_disabled": 0, "lat": 38.923950166666664, "rental_uris": {"ios": "https://dc.lft.to/lastmile_qr_scan", "android": "https://dc.lft.to/lastmile_qr_scan"}, "is_reserved": 0, "fusion_lon": 0.0, "fusion_lat": 0.0, "lon": -77.03037383333333, "name": "09f4c69c88902372b3ec20649d1b0bdd"}, {"bike_id": "796db0cbd164bb3b09e194c7ba2af9c8", "type": "electric_scooter", "is_disabled": 0, "lat": 38.89245, "rental_uris": {"ios": "https://dc.lft.to/lastmile_qr_scan", "android": "https://dc.lft.to/lastmile_qr_scan"}, "is_reserved": 0, "fusion_lon": 0.0, "fusion_lat": 0.0, "lon": -77.05028183333333, "name": "796db0cbd164bb3b09e194c7ba2af9c8"}, {"bike_id": "f6f3d7c09baca417a26fbcdedc7381f3", "type": "electric_scooter", "is_disabled": 0, "lat": 38.91322433333333, "rental_uris": {"ios": "https://dc.lft.to/lastmile_qr_scan", "android": "https://dc.lft.to/lastmile_qr_scan"}, "is_reserved": 0, "fusion_lon": 0.0, "fusion_lat": 0.0, "lon": -77.031721, "name": "f6f3d7c09baca417a26fbcdedc7381f3"}, {"bike_id": "fadde5961a54699e235da68019160d9b", "type": "electric_scooter", "is_disabled": 0, "lat": 38.89476283333333, "rental_uris": {"ios": "https://dc.lft.to/lastmile_qr_scan", "android": "https://dc.lft.to/lastmile_qr_scan"}, "is_reserved": 0, "fusion_lon": 0.0, "fusion_lat": 0.0, "lon": -76.94858866666667, "name": "fadde5961a54699e235da68019160d9b"}, {"bike_id": "2f9873ab413d4b9cb93b46e1cfde5787", "type": "electric_scooter", "is_disabled": 0, "lat": 38.911157833333334, "rental_uris": {"ios": "https://dc.lft.to/lastmile_qr_scan", "android": "https://dc.lft.to/lastmile_qr_scan"}, "is_reserved": 0, "fusion_lon": 0.0, "fusion_lat": 0.0, "lon": -77.02207516666667, "name": "2f9873ab413d4b9cb93b46e1cfde5787"}, {"bike_id": "d441ebd84f1ae1494cfafcc2c00709b2", "type": "electric_scooter", "is_disabled": 0, "lat": 38.892278, "rental_uris": {"ios": "https://dc.lft.to/lastmile_qr_scan", "android": "https://dc.lft.to/lastmile_qr_scan"}, "is_reserved": 0, "fusion_lon": 0.0, "fusion_lat": 0.0, "lon": -77.03177283333333, "name": "d441ebd84f1ae1494cfafcc2c00709b2"}, {"bike_id": "7eee66e5e6433a836d7bcda224c1adf1", "type": "electric_scooter", "is_disabled": 0, "lat": 38.912724, "rental_uris": {"ios": "https://dc.lft.to/lastmile_qr_scan", "android": "https://dc.lft.to/lastmile_qr_scan"}, "is_reserved": 0, "fusion_lon": 0.0, "fusion_lat": 0.0, "lon": -77.03870283333333, "name": "7eee66e5e6433a836d7bcda224c1adf1"}, {"bike_id": "112d8b63a02213a114a9a1d38c0407d3", "type": "electric_scooter", "is_disabled": 0, "lat": 38.876372333333336, "rental_uris": {"ios": "https://dc.lft.to/lastmile_qr_scan", "android": "https://dc.lft.to/lastmile_qr_scan"}, "is_reserved": 0, "fusion_lon": 0.0, "fusion_lat": 0.0, "lon": -77.004308, "name": "112d8b63a02213a114a9a1d38c0407d3"}, {"bike_id": "4e0229d2ce4308ec33b1ac5e1a384f8c", "type": "electric_scooter", "is_disabled": 0, "lat": 38.898390666666664, "rental_uris": {"ios": "https://dc.lft.to/lastmile_qr_scan", "android": "https://dc.lft.to/lastmile_qr_scan"}, "is_reserved": 0, "fusion_lon": 0.0, "fusion_lat": 0.0, "lon": -76.94632, "name": "4e0229d2ce4308ec33b1ac5e1a384f8c"}, {"bike_id": "de2ee7e88b0a5e4edc28fcf8bb9f721a", "type": "electric_scooter", "is_disabled": 0, "lat": 38.90738366666667, "rental_uris": {"ios": "https://dc.lft.to/lastmile_qr_scan", "android": "https://dc.lft.to/lastmile_qr_scan"}, "is_reserved": 0, "fusion_lon": 0.0, "fusion_lat": 0.0, "lon": -77.023888, "name": "de2ee7e88b0a5e4edc28fcf8bb9f721a"}, {"bike_id": "cd3ef6f902aa53a896294901090ad3b4", "type": "electric_scooter", "is_disabled": 0, "lat": 38.9020325, "rental_uris": {"ios": "https://dc.lft.to/lastmile_qr_scan", "android": "https://dc.lft.to/lastmile_qr_scan"}, "is_reserved": 0, "fusion_lon": 0.0, "fusion_lat": 0.0, "lon": -76.98198783333333, "name": "cd3ef6f902aa53a896294901090ad3b4"}, {"bike_id": "0dfaa5d05d15301a043cb6098d675649", "type": "electric_scooter", "is_disabled": 0, "lat": 38.90515383333333, "rental_uris": {"ios": "https://dc.lft.to/lastmile_qr_scan", "android": "https://dc.lft.to/lastmile_qr_scan"}, "is_reserved": 0, "fusion_lon": 0.0, "fusion_lat": 0.0, "lon": -77.01718033333333, "name": "0dfaa5d05d15301a043cb6098d675649"}, {"bike_id": "498dd2ba6ffd26ede292ba8833bf83c6", "type": "electric_scooter", "is_disabled": 0, "lat": 38.90547566666667, "rental_uris": {"ios": "https://dc.lft.to/lastmile_qr_scan", "android": "https://dc.lft.to/lastmile_qr_scan"}, "is_reserved": 0, "fusion_lon": 0.0, "fusion_lat": 0.0, "lon": -77.046703, "name": "498dd2ba6ffd26ede292ba8833bf83c6"}, {"bike_id": "d86cb72c99520cf00c0cb9d3ad12c159", "type": "electric_scooter", "is_disabled": 0, "lat": 38.93211566666667, "rental_uris": {"ios": "https://dc.lft.to/lastmile_qr_scan", "android": "https://dc.lft.to/lastmile_qr_scan"}, "is_reserved": 0, "fusion_lon": 0.0, "fusion_lat": 0.0, "lon": -77.0326415, "name": "d86cb72c99520cf00c0cb9d3ad12c159"}, {"bike_id": "b7dca92e48eeb7d9f9df88779318edea", "type": "electric_scooter", "is_disabled": 0, "lat": 38.9076115, "rental_uris": {"ios": "https://dc.lft.to/lastmile_qr_scan", "android": "https://dc.lft.to/lastmile_qr_scan"}, "is_reserved": 0, "fusion_lon": 0.0, "fusion_lat": 0.0, "lon": -77.01692083333333, "name": "b7dca92e48eeb7d9f9df88779318edea"}, {"bike_id": "eeda1069f8383af6b01703174f774f7a", "type": "electric_bike", "is_disabled": 0, "lat": 38.8748745, "rental_uris": {"ios": "https://dc.lft.to/lastmile_qr_scan", "android": "https://dc.lft.to/lastmile_qr_scan"}, "is_reserved": 0, "fusion_lon": 0.0, "fusion_lat": 0.0, "lon": -76.9652305, "name": "eeda1069f8383af6b01703174f774f7a"}, {"bike_id": "2af6f5efacd944c3289ba39614acedca", "type": "electric_scooter", "is_disabled": 0, "lat": 38.901883833333336, "rental_uris": {"ios": "https://dc.lft.to/lastmile_qr_scan", "android": "https://dc.lft.to/lastmile_qr_scan"}, "is_reserved": 0, "fusion_lon": 0.0, "fusion_lat": 0.0, "lon": -77.021741, "name": "2af6f5efacd944c3289ba39614acedca"}, {"bike_id": "63a6ddd66a6e82b4840fef2168414bc3", "type": "electric_scooter", "is_disabled": 0, "lat": 38.9373255, "rental_uris": {"ios": "https://dc.lft.to/lastmile_qr_scan", "android": "https://dc.lft.to/lastmile_qr_scan"}, "is_reserved": 0, "fusion_lon": 0.0, "fusion_lat": 0.0, "lon": -77.020087, "name": "63a6ddd66a6e82b4840fef2168414bc3"}, {"bike_id": "b98b00b03d9b20e0e6669ab44e1e8c91", "type": "electric_scooter", "is_disabled": 0, "lat": 38.93203916666667, "rental_uris": {"ios": "https://dc.lft.to/lastmile_qr_scan", "android": "https://dc.lft.to/lastmile_qr_scan"}, "is_reserved": 0, "fusion_lon": 0.0, "fusion_lat": 0.0, "lon": -77.0388055, "name": "b98b00b03d9b20e0e6669ab44e1e8c91"}, {"bike_id": "f25d27089f84dc128c74777cba1c7131", "type": "electric_scooter", "is_disabled": 0, "lat": 38.9086835, "rental_uris": {"ios": "https://dc.lft.to/lastmile_qr_scan", "android": "https://dc.lft.to/lastmile_qr_scan"}, "is_reserved": 0, "fusion_lon": 0.0, "fusion_lat": 0.0, "lon": -77.08588, "name": "f25d27089f84dc128c74777cba1c7131"}, {"bike_id": "82caf9cb85e581385608bbce39da738a", "type": "electric_scooter", "is_disabled": 0, "lat": 38.914794666666666, "rental_uris": {"ios": "https://dc.lft.to/lastmile_qr_scan", "android": "https://dc.lft.to/lastmile_qr_scan"}, "is_reserved": 0, "fusion_lon": 0.0, "fusion_lat": 0.0, "lon": -77.03754566666667, "name": "82caf9cb85e581385608bbce39da738a"}, {"bike_id": "3caa6c9f8c5604afcceaa39444490cb4", "type": "electric_scooter", "is_disabled": 0, "lat": 38.909623833333335, "rental_uris": {"ios": "https://dc.lft.to/lastmile_qr_scan", "android": "https://dc.lft.to/lastmile_qr_scan"}, "is_reserved": 0, "fusion_lon": 0.0, "fusion_lat": 0.0, "lon": -77.0445825, "name": "3caa6c9f8c5604afcceaa39444490cb4"}, {"bike_id": "98bb70bdfae397c90e6b793ac54d4185", "type": "electric_bike", "is_disabled": 0, "lat": 38.92070833333333, "rental_uris": {"ios": "https://dc.lft.to/lastmile_qr_scan", "android": "https://dc.lft.to/lastmile_qr_scan"}, "is_reserved": 0, "fusion_lon": 0.0, "fusion_lat": 0.0, "lon": -76.8907105, "name": "98bb70bdfae397c90e6b793ac54d4185"}, {"bike_id": "a7239f3dd078627e423cfab857d6545d", "type": "electric_scooter", "is_disabled": 0, "lat": 38.86247183333333, "rental_uris": {"ios": "https://dc.lft.to/lastmile_qr_scan", "android": "https://dc.lft.to/lastmile_qr_scan"}, "is_reserved": 0, "fusion_lon": 0.0, "fusion_lat": 0.0, "lon": -76.99502216666667, "name": "a7239f3dd078627e423cfab857d6545d"}, {"bike_id": "95bb8a7a1f788e99bfe5910e0bae71bc", "type": "electric_scooter", "is_disabled": 0, "lat": 38.912726, "rental_uris": {"ios": "https://dc.lft.to/lastmile_qr_scan", "android": "https://dc.lft.to/lastmile_qr_scan"}, "is_reserved": 0, "fusion_lon": 0.0, "fusion_lat": 0.0, "lon": -77.04707366666666, "name": "95bb8a7a1f788e99bfe5910e0bae71bc"}, {"bike_id": "802e83c08b1ed84b036bc9a086cae8ce", "type": "electric_scooter", "is_disabled": 0, "lat": 38.903715166666665, "rental_uris": {"ios": "https://dc.lft.to/lastmile_qr_scan", "android": "https://dc.lft.to/lastmile_qr_scan"}, "is_reserved": 0, "fusion_lon": 0.0, "fusion_lat": 0.0, "lon": -77.03185016666667, "name": "802e83c08b1ed84b036bc9a086cae8ce"}, {"bike_id": "ec4e92b3ee59899b17ae247004af4e2b", "type": "electric_scooter", "is_disabled": 0, "lat": 38.911733166666664, "rental_uris": {"ios": "https://dc.lft.to/lastmile_qr_scan", "android": "https://dc.lft.to/lastmile_qr_scan"}, "is_reserved": 0, "fusion_lon": 0.0, "fusion_lat": 0.0, "lon": -77.031866, "name": "ec4e92b3ee59899b17ae247004af4e2b"}, {"bike_id": "a09c6df356e41229942adefaddf4c500", "type": "electric_scooter", "is_disabled": 0, "lat": 38.925269666666665, "rental_uris": {"ios": "https://dc.lft.to/lastmile_qr_scan", "android": "https://dc.lft.to/lastmile_qr_scan"}, "is_reserved": 0, "fusion_lon": 0.0, "fusion_lat": 0.0, "lon": -77.04112266666667, "name": "a09c6df356e41229942adefaddf4c500"}, {"bike_id": "0932e891fa725e7b4c19f49acd8b6846", "type": "electric_scooter", "is_disabled": 0, "lat": 38.92002316666667, "rental_uris": {"ios": "https://dc.lft.to/lastmile_qr_scan", "android": "https://dc.lft.to/lastmile_qr_scan"}, "is_reserved": 0, "fusion_lon": 0.0, "fusion_lat": 0.0, "lon": -77.03254533333333, "name": "0932e891fa725e7b4c19f49acd8b6846"}, {"bike_id": "1f21abef8156c33b8e1e581da3f4d8a8", "type": "electric_scooter", "is_disabled": 0, "lat": 38.93099083333333, "rental_uris": {"ios": "https://dc.lft.to/lastmile_qr_scan", "android": "https://dc.lft.to/lastmile_qr_scan"}, "is_reserved": 0, "fusion_lon": 0.0, "fusion_lat": 0.0, "lon": -77.02665, "name": "1f21abef8156c33b8e1e581da3f4d8a8"}, {"bike_id": "ba8095fa2b77e2103de60e7d2a82fcd7", "type": "electric_scooter", "is_disabled": 0, "lat": 38.897318, "rental_uris": {"ios": "https://dc.lft.to/lastmile_qr_scan", "android": "https://dc.lft.to/lastmile_qr_scan"}, "is_reserved": 0, "fusion_lon": 0.0, "fusion_lat": 0.0, "lon": -77.021706, "name": "ba8095fa2b77e2103de60e7d2a82fcd7"}, {"bike_id": "8f699d1d5bc9d61108676c3b9db3bf2a", "type": "electric_scooter", "is_disabled": 0, "lat": 38.896082166666666, "rental_uris": {"ios": "https://dc.lft.to/lastmile_qr_scan", "android": "https://dc.lft.to/lastmile_qr_scan"}, "is_reserved": 0, "fusion_lon": 0.0, "fusion_lat": 0.0, "lon": -77.0235825, "name": "8f699d1d5bc9d61108676c3b9db3bf2a"}, {"bike_id": "b43a813f65d3c552361b0adad57bb027", "type": "electric_bike", "is_disabled": 0, "lat": 38.85771833333333, "rental_uris": {"ios": "https://dc.lft.to/lastmile_qr_scan", "android": "https://dc.lft.to/lastmile_qr_scan"}, "is_reserved": 0, "fusion_lon": 0.0, "fusion_lat": 0.0, "lon": -76.98767633333334, "name": "b43a813f65d3c552361b0adad57bb027"}, {"bike_id": "64eebdb21cacacb08672aee62987fa22", "type": "electric_scooter", "is_disabled": 0, "lat": 38.919200333333336, "rental_uris": {"ios": "https://dc.lft.to/lastmile_qr_scan", "android": "https://dc.lft.to/lastmile_qr_scan"}, "is_reserved": 0, "fusion_lon": 0.0, "fusion_lat": 0.0, "lon": -77.03176666666667, "name": "64eebdb21cacacb08672aee62987fa22"}, {"bike_id": "31a6ca2cdcb8433d5bbae3ced241a14f", "type": "electric_scooter", "is_disabled": 0, "lat": 38.912882333333336, "rental_uris": {"ios": "https://dc.lft.to/lastmile_qr_scan", "android": "https://dc.lft.to/lastmile_qr_scan"}, "is_reserved": 0, "fusion_lon": 0.0, "fusion_lat": 0.0, "lon": -77.061134, "name": "31a6ca2cdcb8433d5bbae3ced241a14f"}, {"bike_id": "92ab94231025497d23d3488d5d923f09", "type": "electric_scooter", "is_disabled": 0, "lat": 38.8975005, "rental_uris": {"ios": "https://dc.lft.to/lastmile_qr_scan", "android": "https://dc.lft.to/lastmile_qr_scan"}, "is_reserved": 0, "fusion_lon": 0.0, "fusion_lat": 0.0, "lon": -76.94185383333334, "name": "92ab94231025497d23d3488d5d923f09"}, {"bike_id": "b5b61ebb757d20499748bbc6cd327d7c", "type": "electric_scooter", "is_disabled": 0, "lat": 38.915445166666665, "rental_uris": {"ios": "https://dc.lft.to/lastmile_qr_scan", "android": "https://dc.lft.to/lastmile_qr_scan"}, "is_reserved": 0, "fusion_lon": 0.0, "fusion_lat": 0.0, "lon": -77.03641266666666, "name": "b5b61ebb757d20499748bbc6cd327d7c"}, {"bike_id": "e1fb16ff8fb3b9f8443b62909696bfaa", "type": "electric_scooter", "is_disabled": 0, "lat": 38.9148495, "rental_uris": {"ios": "https://dc.lft.to/lastmile_qr_scan", "android": "https://dc.lft.to/lastmile_qr_scan"}, "is_reserved": 0, "fusion_lon": 0.0, "fusion_lat": 0.0, "lon": -77.02578566666666, "name": "e1fb16ff8fb3b9f8443b62909696bfaa"}, {"bike_id": "3ea7cbb996a20359cdf42049bd541204", "type": "electric_scooter", "is_disabled": 0, "lat": 38.92341966666667, "rental_uris": {"ios": "https://dc.lft.to/lastmile_qr_scan", "android": "https://dc.lft.to/lastmile_qr_scan"}, "is_reserved": 0, "fusion_lon": 0.0, "fusion_lat": 0.0, "lon": -77.03479866666666, "name": "3ea7cbb996a20359cdf42049bd541204"}, {"bike_id": "a287d21fd0ac964984b95b25aa0ac83a", "type": "electric_scooter", "is_disabled": 0, "lat": 38.911831166666666, "rental_uris": {"ios": "https://dc.lft.to/lastmile_qr_scan", "android": "https://dc.lft.to/lastmile_qr_scan"}, "is_reserved": 0, "fusion_lon": 0.0, "fusion_lat": 0.0, "lon": -77.017003, "name": "a287d21fd0ac964984b95b25aa0ac83a"}, {"bike_id": "598b6b68ae273625fab823c89a07fd06", "type": "electric_scooter", "is_disabled": 0, "lat": 38.91703483333333, "rental_uris": {"ios": "https://dc.lft.to/lastmile_qr_scan", "android": "https://dc.lft.to/lastmile_qr_scan"}, "is_reserved": 0, "fusion_lon": 0.0, "fusion_lat": 0.0, "lon": -77.0080945, "name": "598b6b68ae273625fab823c89a07fd06"}, {"bike_id": "09ad6b47b75c4a1b749e01c66ad628a0", "type": "electric_scooter", "is_disabled": 0, "lat": 38.82581166666667, "rental_uris": {"ios": "https://dc.lft.to/lastmile_qr_scan", "android": "https://dc.lft.to/lastmile_qr_scan"}, "is_reserved": 0, "fusion_lon": 0.0, "fusion_lat": 0.0, "lon": -77.00754066666667, "name": "09ad6b47b75c4a1b749e01c66ad628a0"}, {"bike_id": "3f6addb273ad60b908b7908fed2eccbd", "type": "electric_scooter", "is_disabled": 0, "lat": 38.86247933333333, "rental_uris": {"ios": "https://dc.lft.to/lastmile_qr_scan", "android": "https://dc.lft.to/lastmile_qr_scan"}, "is_reserved": 0, "fusion_lon": 0.0, "fusion_lat": 0.0, "lon": -76.9950285, "name": "3f6addb273ad60b908b7908fed2eccbd"}, {"bike_id": "e33db9115598c95c860dd30abf2a6c86", "type": "electric_scooter", "is_disabled": 0, "lat": 38.928753666666665, "rental_uris": {"ios": "https://dc.lft.to/lastmile_qr_scan", "android": "https://dc.lft.to/lastmile_qr_scan"}, "is_reserved": 0, "fusion_lon": 0.0, "fusion_lat": 0.0, "lon": -77.03412983333334, "name": "e33db9115598c95c860dd30abf2a6c86"}, {"bike_id": "5e86d5329225b2f8484e601af20d432c", "type": "electric_scooter", "is_disabled": 0, "lat": 38.906823333333335, "rental_uris": {"ios": "https://dc.lft.to/lastmile_qr_scan", "android": "https://dc.lft.to/lastmile_qr_scan"}, "is_reserved": 0, "fusion_lon": 0.0, "fusion_lat": 0.0, "lon": -76.97999616666667, "name": "5e86d5329225b2f8484e601af20d432c"}, {"bike_id": "ae97f0618ea1fc1fb0a97137c8a05d27", "type": "electric_scooter", "is_disabled": 0, "lat": 38.88361783333333, "rental_uris": {"ios": "https://dc.lft.to/lastmile_qr_scan", "android": "https://dc.lft.to/lastmile_qr_scan"}, "is_reserved": 0, "fusion_lon": 0.0, "fusion_lat": 0.0, "lon": -77.01967383333333, "name": "ae97f0618ea1fc1fb0a97137c8a05d27"}, {"bike_id": "521b01fdbd69a4924c0e336923d9593e", "type": "electric_scooter", "is_disabled": 0, "lat": 38.8985145, "rental_uris": {"ios": "https://dc.lft.to/lastmile_qr_scan", "android": "https://dc.lft.to/lastmile_qr_scan"}, "is_reserved": 0, "fusion_lon": 0.0, "fusion_lat": 0.0, "lon": -76.92913633333333, "name": "521b01fdbd69a4924c0e336923d9593e"}, {"bike_id": "6482284d51b2cc71a02d70488fc886c0", "type": "electric_scooter", "is_disabled": 0, "lat": 38.93100183333333, "rental_uris": {"ios": "https://dc.lft.to/lastmile_qr_scan", "android": "https://dc.lft.to/lastmile_qr_scan"}, "is_reserved": 0, "fusion_lon": 0.0, "fusion_lat": 0.0, "lon": -77.0411755, "name": "6482284d51b2cc71a02d70488fc886c0"}, {"bike_id": "3bc5f629ca5425dedc84b27591846bc2", "type": "electric_scooter", "is_disabled": 0, "lat": 38.893857, "rental_uris": {"ios": "https://dc.lft.to/lastmile_qr_scan", "android": "https://dc.lft.to/lastmile_qr_scan"}, "is_reserved": 0, "fusion_lon": 0.0, "fusion_lat": 0.0, "lon": -77.02268916666667, "name": "3bc5f629ca5425dedc84b27591846bc2"}, {"bike_id": "d0031d31257c40b2bce1af5679232b60", "type": "electric_scooter", "is_disabled": 0, "lat": 38.948238833333335, "rental_uris": {"ios": "https://dc.lft.to/lastmile_qr_scan", "android": "https://dc.lft.to/lastmile_qr_scan"}, "is_reserved": 0, "fusion_lon": 0.0, "fusion_lat": 0.0, "lon": -77.02488866666667, "name": "d0031d31257c40b2bce1af5679232b60"}, {"bike_id": "b8ee47284df0f7840f7a954a8c7124c5", "type": "electric_scooter", "is_disabled": 0, "lat": 38.91425866666667, "rental_uris": {"ios": "https://dc.lft.to/lastmile_qr_scan", "android": "https://dc.lft.to/lastmile_qr_scan"}, "is_reserved": 0, "fusion_lon": 0.0, "fusion_lat": 0.0, "lon": -77.03189383333333, "name": "b8ee47284df0f7840f7a954a8c7124c5"}, {"bike_id": "10932ebdf80fb11226ec0320b47b0e21", "type": "electric_scooter", "is_disabled": 0, "lat": 38.903498166666665, "rental_uris": {"ios": "https://dc.lft.to/lastmile_qr_scan", "android": "https://dc.lft.to/lastmile_qr_scan"}, "is_reserved": 0, "fusion_lon": 0.0, "fusion_lat": 0.0, "lon": -77.06265816666667, "name": "10932ebdf80fb11226ec0320b47b0e21"}, {"bike_id": "a104e0cb7cbc930dca9808c117f6895b", "type": "electric_scooter", "is_disabled": 0, "lat": 38.8770345, "rental_uris": {"ios": "https://dc.lft.to/lastmile_qr_scan", "android": "https://dc.lft.to/lastmile_qr_scan"}, "is_reserved": 0, "fusion_lon": 0.0, "fusion_lat": 0.0, "lon": -77.017664, "name": "a104e0cb7cbc930dca9808c117f6895b"}, {"bike_id": "2bf076bfb243140e907e780ed3e27198", "type": "electric_scooter", "is_disabled": 0, "lat": 38.930103333333335, "rental_uris": {"ios": "https://dc.lft.to/lastmile_qr_scan", "android": "https://dc.lft.to/lastmile_qr_scan"}, "is_reserved": 0, "fusion_lon": 0.0, "fusion_lat": 0.0, "lon": -77.0209855, "name": "2bf076bfb243140e907e780ed3e27198"}, {"bike_id": "c9d49184b48b2f2c77cd99d7af309acd", "type": "electric_scooter", "is_disabled": 0, "lat": 38.929004, "rental_uris": {"ios": "https://dc.lft.to/lastmile_qr_scan", "android": "https://dc.lft.to/lastmile_qr_scan"}, "is_reserved": 0, "fusion_lon": 0.0, "fusion_lat": 0.0, "lon": -77.02739966666667, "name": "c9d49184b48b2f2c77cd99d7af309acd"}, {"bike_id": "320b1f99ace0d4e541a10e0778d6fe70", "type": "electric_scooter", "is_disabled": 0, "lat": 38.92249116666667, "rental_uris": {"ios": "https://dc.lft.to/lastmile_qr_scan", "android": "https://dc.lft.to/lastmile_qr_scan"}, "is_reserved": 0, "fusion_lon": 0.0, "fusion_lat": 0.0, "lon": -77.04269666666667, "name": "320b1f99ace0d4e541a10e0778d6fe70"}, {"bike_id": "473991e78371ec445ca1547fc96cd30f", "type": "electric_scooter", "is_disabled": 0, "lat": 38.92109083333333, "rental_uris": {"ios": "https://dc.lft.to/lastmile_qr_scan", "android": "https://dc.lft.to/lastmile_qr_scan"}, "is_reserved": 0, "fusion_lon": 0.0, "fusion_lat": 0.0, "lon": -77.04403066666667, "name": "473991e78371ec445ca1547fc96cd30f"}, {"bike_id": "e0c9fa7416d2ad75eb756bf8e125f95c", "type": "electric_scooter", "is_disabled": 0, "lat": 38.912741833333335, "rental_uris": {"ios": "https://dc.lft.to/lastmile_qr_scan", "android": "https://dc.lft.to/lastmile_qr_scan"}, "is_reserved": 0, "fusion_lon": 0.0, "fusion_lat": 0.0, "lon": -77.02212133333333, "name": "e0c9fa7416d2ad75eb756bf8e125f95c"}, {"bike_id": "83a03e49579591f6c2649c321153f85d", "type": "electric_bike", "is_disabled": 0, "lat": 38.92571816666667, "rental_uris": {"ios": "https://dc.lft.to/lastmile_qr_scan", "android": "https://dc.lft.to/lastmile_qr_scan"}, "is_reserved": 0, "fusion_lon": 0.0, "fusion_lat": 0.0, "lon": -77.04370383333334, "name": "83a03e49579591f6c2649c321153f85d"}, {"bike_id": "713ef707687f4b63baa63c8d7697fb62", "type": "electric_scooter", "is_disabled": 0, "lat": 38.92049516666667, "rental_uris": {"ios": "https://dc.lft.to/lastmile_qr_scan", "android": "https://dc.lft.to/lastmile_qr_scan"}, "is_reserved": 0, "fusion_lon": 0.0, "fusion_lat": 0.0, "lon": -77.033624, "name": "713ef707687f4b63baa63c8d7697fb62"}, {"bike_id": "2a2c9d297e161c12fbb6a510a523d18b", "type": "electric_scooter", "is_disabled": 0, "lat": 38.900293, "rental_uris": {"ios": "https://dc.lft.to/lastmile_qr_scan", "android": "https://dc.lft.to/lastmile_qr_scan"}, "is_reserved": 0, "fusion_lon": 0.0, "fusion_lat": 0.0, "lon": -77.00211383333334, "name": "2a2c9d297e161c12fbb6a510a523d18b"}, {"bike_id": "f14ced34a47181d5df6955d27cb309dd", "type": "electric_scooter", "is_disabled": 0, "lat": 38.928824666666664, "rental_uris": {"ios": "https://dc.lft.to/lastmile_qr_scan", "android": "https://dc.lft.to/lastmile_qr_scan"}, "is_reserved": 0, "fusion_lon": 0.0, "fusion_lat": 0.0, "lon": -77.02669916666666, "name": "f14ced34a47181d5df6955d27cb309dd"}, {"bike_id": "d980568432597dccf725ccfe7bec8a87", "type": "electric_scooter", "is_disabled": 0, "lat": 38.915289333333334, "rental_uris": {"ios": "https://dc.lft.to/lastmile_qr_scan", "android": "https://dc.lft.to/lastmile_qr_scan"}, "is_reserved": 0, "fusion_lon": 0.0, "fusion_lat": 0.0, "lon": -77.023038, "name": "d980568432597dccf725ccfe7bec8a87"}, {"bike_id": "050d689e6ef6a27f55adacfed8a19de6", "type": "electric_bike", "is_disabled": 0, "lat": 38.950982833333335, "rental_uris": {"ios": "https://dc.lft.to/lastmile_qr_scan", "android": "https://dc.lft.to/lastmile_qr_scan"}, "is_reserved": 0, "fusion_lon": 0.0, "fusion_lat": 0.0, "lon": -77.08085433333333, "name": "050d689e6ef6a27f55adacfed8a19de6"}, {"bike_id": "2c7eb61cd70e136f4c3d092907020d2c", "type": "electric_scooter", "is_disabled": 0, "lat": 38.939231666666664, "rental_uris": {"ios": "https://dc.lft.to/lastmile_qr_scan", "android": "https://dc.lft.to/lastmile_qr_scan"}, "is_reserved": 0, "fusion_lon": 0.0, "fusion_lat": 0.0, "lon": -77.06050533333334, "name": "2c7eb61cd70e136f4c3d092907020d2c"}, {"bike_id": "2438e1fa70449a5239f72445824e1967", "type": "electric_scooter", "is_disabled": 0, "lat": 38.87562116666667, "rental_uris": {"ios": "https://dc.lft.to/lastmile_qr_scan", "android": "https://dc.lft.to/lastmile_qr_scan"}, "is_reserved": 0, "fusion_lon": 0.0, "fusion_lat": 0.0, "lon": -76.95865883333333, "name": "2438e1fa70449a5239f72445824e1967"}, {"bike_id": "bd66ef9ca853a14d18bad635bad0416d", "type": "electric_scooter", "is_disabled": 0, "lat": 38.912716, "rental_uris": {"ios": "https://dc.lft.to/lastmile_qr_scan", "android": "https://dc.lft.to/lastmile_qr_scan"}, "is_reserved": 0, "fusion_lon": 0.0, "fusion_lat": 0.0, "lon": -77.02962083333334, "name": "bd66ef9ca853a14d18bad635bad0416d"}, {"bike_id": "194719e5660560ba127c34f1c63e7d0e", "type": "electric_scooter", "is_disabled": 0, "lat": 38.9224835, "rental_uris": {"ios": "https://dc.lft.to/lastmile_qr_scan", "android": "https://dc.lft.to/lastmile_qr_scan"}, "is_reserved": 0, "fusion_lon": 0.0, "fusion_lat": 0.0, "lon": -77.04271733333333, "name": "194719e5660560ba127c34f1c63e7d0e"}, {"bike_id": "9215304354187ec628298a6a07e3e124", "type": "electric_bike", "is_disabled": 0, "lat": 39.03698833333333, "rental_uris": {"ios": "https://dc.lft.to/lastmile_qr_scan", "android": "https://dc.lft.to/lastmile_qr_scan"}, "is_reserved": 0, "fusion_lon": 0.0, "fusion_lat": 0.0, "lon": -77.02855033333333, "name": "9215304354187ec628298a6a07e3e124"}, {"bike_id": "b7936a3b82b93b5340547cd66163a429", "type": "electric_scooter", "is_disabled": 0, "lat": 38.902277, "rental_uris": {"ios": "https://dc.lft.to/lastmile_qr_scan", "android": "https://dc.lft.to/lastmile_qr_scan"}, "is_reserved": 0, "fusion_lon": 0.0, "fusion_lat": 0.0, "lon": -77.05908266666667, "name": "b7936a3b82b93b5340547cd66163a429"}, {"bike_id": "be80c5b68c682906323bdfdabec61372", "type": "electric_scooter", "is_disabled": 0, "lat": 38.93249483333334, "rental_uris": {"ios": "https://dc.lft.to/lastmile_qr_scan", "android": "https://dc.lft.to/lastmile_qr_scan"}, "is_reserved": 0, "fusion_lon": 0.0, "fusion_lat": 0.0, "lon": -77.032729, "name": "be80c5b68c682906323bdfdabec61372"}, {"bike_id": "3e67a04c9086c8ee985e3a8e6a447987", "type": "electric_scooter", "is_disabled": 0, "lat": 38.897217166666664, "rental_uris": {"ios": "https://dc.lft.to/lastmile_qr_scan", "android": "https://dc.lft.to/lastmile_qr_scan"}, "is_reserved": 0, "fusion_lon": 0.0, "fusion_lat": 0.0, "lon": -76.983564, "name": "3e67a04c9086c8ee985e3a8e6a447987"}, {"bike_id": "8ddf97bfd76270572cdc4dcaf8745329", "type": "electric_scooter", "is_disabled": 0, "lat": 38.91570683333333, "rental_uris": {"ios": "https://dc.lft.to/lastmile_qr_scan", "android": "https://dc.lft.to/lastmile_qr_scan"}, "is_reserved": 0, "fusion_lon": 0.0, "fusion_lat": 0.0, "lon": -77.01954283333333, "name": "8ddf97bfd76270572cdc4dcaf8745329"}, {"bike_id": "3999d8fd62f20c84b35cfe6decf8aed9", "type": "electric_scooter", "is_disabled": 0, "lat": 38.91489683333333, "rental_uris": {"ios": "https://dc.lft.to/lastmile_qr_scan", "android": "https://dc.lft.to/lastmile_qr_scan"}, "is_reserved": 0, "fusion_lon": 0.0, "fusion_lat": 0.0, "lon": -77.025818, "name": "3999d8fd62f20c84b35cfe6decf8aed9"}, {"bike_id": "637383689249786a6adb644fb356982e", "type": "electric_scooter", "is_disabled": 0, "lat": 38.871761, "rental_uris": {"ios": "https://dc.lft.to/lastmile_qr_scan", "android": "https://dc.lft.to/lastmile_qr_scan"}, "is_reserved": 0, "fusion_lon": 0.0, "fusion_lat": 0.0, "lon": -77.00622983333334, "name": "637383689249786a6adb644fb356982e"}, {"bike_id": "f8b8084c6fbe3eba1317b38bd67b892f", "type": "electric_scooter", "is_disabled": 0, "lat": 38.8982645, "rental_uris": {"ios": "https://dc.lft.to/lastmile_qr_scan", "android": "https://dc.lft.to/lastmile_qr_scan"}, "is_reserved": 0, "fusion_lon": 0.0, "fusion_lat": 0.0, "lon": -77.01749983333333, "name": "f8b8084c6fbe3eba1317b38bd67b892f"}, {"bike_id": "5c4a05f1574889e568fa2899c7af7117", "type": "electric_scooter", "is_disabled": 0, "lat": 38.915334666666666, "rental_uris": {"ios": "https://dc.lft.to/lastmile_qr_scan", "android": "https://dc.lft.to/lastmile_qr_scan"}, "is_reserved": 0, "fusion_lon": 0.0, "fusion_lat": 0.0, "lon": -77.01843016666666, "name": "5c4a05f1574889e568fa2899c7af7117"}, {"bike_id": "7321040ac18f933a608be71ee7af7777", "type": "electric_scooter", "is_disabled": 0, "lat": 38.912419666666665, "rental_uris": {"ios": "https://dc.lft.to/lastmile_qr_scan", "android": "https://dc.lft.to/lastmile_qr_scan"}, "is_reserved": 0, "fusion_lon": 0.0, "fusion_lat": 0.0, "lon": -77.038503, "name": "7321040ac18f933a608be71ee7af7777"}, {"bike_id": "16bbdb77ac6cd09f7e53784fd26717fc", "type": "electric_bike", "is_disabled": 0, "lat": 38.8343255, "rental_uris": {"ios": "https://dc.lft.to/lastmile_qr_scan", "android": "https://dc.lft.to/lastmile_qr_scan"}, "is_reserved": 0, "fusion_lon": 0.0, "fusion_lat": 0.0, "lon": -77.058848, "name": "16bbdb77ac6cd09f7e53784fd26717fc"}, {"bike_id": "d65c8874b674687f27fbfeea4000baaa", "type": "electric_scooter", "is_disabled": 0, "lat": 38.9190435, "rental_uris": {"ios": "https://dc.lft.to/lastmile_qr_scan", "android": "https://dc.lft.to/lastmile_qr_scan"}, "is_reserved": 0, "fusion_lon": 0.0, "fusion_lat": 0.0, "lon": -77.02390716666666, "name": "d65c8874b674687f27fbfeea4000baaa"}, {"bike_id": "5ef4cbe648c710b69ea0e8a2ca5bb076", "type": "electric_scooter", "is_disabled": 0, "lat": 38.90084516666667, "rental_uris": {"ios": "https://dc.lft.to/lastmile_qr_scan", "android": "https://dc.lft.to/lastmile_qr_scan"}, "is_reserved": 0, "fusion_lon": 0.0, "fusion_lat": 0.0, "lon": -76.983325, "name": "5ef4cbe648c710b69ea0e8a2ca5bb076"}, {"bike_id": "9a22291832d91935d2df272aa875cccf", "type": "electric_scooter", "is_disabled": 0, "lat": 38.928165, "rental_uris": {"ios": "https://dc.lft.to/lastmile_qr_scan", "android": "https://dc.lft.to/lastmile_qr_scan"}, "is_reserved": 0, "fusion_lon": 0.0, "fusion_lat": 0.0, "lon": -77.05432133333333, "name": "9a22291832d91935d2df272aa875cccf"}, {"bike_id": "f4bea543f4d6ab0c72e7e0571aa397d1", "type": "electric_scooter", "is_disabled": 0, "lat": 38.8933125, "rental_uris": {"ios": "https://dc.lft.to/lastmile_qr_scan", "android": "https://dc.lft.to/lastmile_qr_scan"}, "is_reserved": 0, "fusion_lon": 0.0, "fusion_lat": 0.0, "lon": -76.9505815, "name": "f4bea543f4d6ab0c72e7e0571aa397d1"}, {"bike_id": "c987b3f53d63f18701b82b6a21ec0e71", "type": "electric_scooter", "is_disabled": 0, "lat": 38.928255666666665, "rental_uris": {"ios": "https://dc.lft.to/lastmile_qr_scan", "android": "https://dc.lft.to/lastmile_qr_scan"}, "is_reserved": 0, "fusion_lon": 0.0, "fusion_lat": 0.0, "lon": -77.0225445, "name": "c987b3f53d63f18701b82b6a21ec0e71"}, {"bike_id": "fded97de160761e871e68b07d6c0681a", "type": "electric_scooter", "is_disabled": 0, "lat": 38.90196133333333, "rental_uris": {"ios": "https://dc.lft.to/lastmile_qr_scan", "android": "https://dc.lft.to/lastmile_qr_scan"}, "is_reserved": 0, "fusion_lon": 0.0, "fusion_lat": 0.0, "lon": -77.02199016666667, "name": "fded97de160761e871e68b07d6c0681a"}, {"bike_id": "1ac6468a7b0df86a48f73c2d2220ba1c", "type": "electric_scooter", "is_disabled": 0, "lat": 38.873984, "rental_uris": {"ios": "https://dc.lft.to/lastmile_qr_scan", "android": "https://dc.lft.to/lastmile_qr_scan"}, "is_reserved": 0, "fusion_lon": 0.0, "fusion_lat": 0.0, "lon": -77.04350716666667, "name": "1ac6468a7b0df86a48f73c2d2220ba1c"}, {"bike_id": "ca14cd310fcbd5a6e55b7479c8bcbcc9", "type": "electric_scooter", "is_disabled": 0, "lat": 38.918588666666665, "rental_uris": {"ios": "https://dc.lft.to/lastmile_qr_scan", "android": "https://dc.lft.to/lastmile_qr_scan"}, "is_reserved": 0, "fusion_lon": 0.0, "fusion_lat": 0.0, "lon": -77.041012, "name": "ca14cd310fcbd5a6e55b7479c8bcbcc9"}, {"bike_id": "36cdc30351d8a59ceb2a5dd9edccabbe", "type": "electric_scooter", "is_disabled": 0, "lat": 38.887482166666665, "rental_uris": {"ios": "https://dc.lft.to/lastmile_qr_scan", "android": "https://dc.lft.to/lastmile_qr_scan"}, "is_reserved": 0, "fusion_lon": 0.0, "fusion_lat": 0.0, "lon": -77.02844816666666, "name": "36cdc30351d8a59ceb2a5dd9edccabbe"}, {"bike_id": "f1b9a2d380213cf4e4620a34c4948eff", "type": "electric_scooter", "is_disabled": 0, "lat": 38.906084, "rental_uris": {"ios": "https://dc.lft.to/lastmile_qr_scan", "android": "https://dc.lft.to/lastmile_qr_scan"}, "is_reserved": 0, "fusion_lon": 0.0, "fusion_lat": 0.0, "lon": -77.02565133333333, "name": "f1b9a2d380213cf4e4620a34c4948eff"}, {"bike_id": "126b48ff11a1d0e62d495f25ee0509b0", "type": "electric_scooter", "is_disabled": 0, "lat": 38.9015145, "rental_uris": {"ios": "https://dc.lft.to/lastmile_qr_scan", "android": "https://dc.lft.to/lastmile_qr_scan"}, "is_reserved": 0, "fusion_lon": 0.0, "fusion_lat": 0.0, "lon": -77.0607515, "name": "126b48ff11a1d0e62d495f25ee0509b0"}, {"bike_id": "8ca0ea20a913935a5916c143a51d288d", "type": "electric_scooter", "is_disabled": 0, "lat": 38.932522166666665, "rental_uris": {"ios": "https://dc.lft.to/lastmile_qr_scan", "android": "https://dc.lft.to/lastmile_qr_scan"}, "is_reserved": 0, "fusion_lon": 0.0, "fusion_lat": 0.0, "lon": -77.03285216666667, "name": "8ca0ea20a913935a5916c143a51d288d"}, {"bike_id": "0067f878be57ec32e5cf77dfad52b474", "type": "electric_scooter", "is_disabled": 0, "lat": 38.902489, "rental_uris": {"ios": "https://dc.lft.to/lastmile_qr_scan", "android": "https://dc.lft.to/lastmile_qr_scan"}, "is_reserved": 0, "fusion_lon": 0.0, "fusion_lat": 0.0, "lon": -77.03626333333334, "name": "0067f878be57ec32e5cf77dfad52b474"}, {"bike_id": "97de5bfa2bd471bfea091b311585ca43", "type": "electric_scooter", "is_disabled": 0, "lat": 38.9007205, "rental_uris": {"ios": "https://dc.lft.to/lastmile_qr_scan", "android": "https://dc.lft.to/lastmile_qr_scan"}, "is_reserved": 0, "fusion_lon": 0.0, "fusion_lat": 0.0, "lon": -76.99014233333334, "name": "97de5bfa2bd471bfea091b311585ca43"}, {"bike_id": "773f44bf7be23d3d9ac916021b1cfd12", "type": "electric_scooter", "is_disabled": 0, "lat": 38.871234, "rental_uris": {"ios": "https://dc.lft.to/lastmile_qr_scan", "android": "https://dc.lft.to/lastmile_qr_scan"}, "is_reserved": 0, "fusion_lon": 0.0, "fusion_lat": 0.0, "lon": -76.98243766666667, "name": "773f44bf7be23d3d9ac916021b1cfd12"}, {"bike_id": "b9cbced157a7e420632d0e86ab8a4622", "type": "electric_scooter", "is_disabled": 0, "lat": 38.90567816666667, "rental_uris": {"ios": "https://dc.lft.to/lastmile_qr_scan", "android": "https://dc.lft.to/lastmile_qr_scan"}, "is_reserved": 0, "fusion_lon": 0.0, "fusion_lat": 0.0, "lon": -77.022151, "name": "b9cbced157a7e420632d0e86ab8a4622"}, {"bike_id": "6b56c49760e091b2689004d069bcc38e", "type": "electric_scooter", "is_disabled": 0, "lat": 38.857076, "rental_uris": {"ios": "https://dc.lft.to/lastmile_qr_scan", "android": "https://dc.lft.to/lastmile_qr_scan"}, "is_reserved": 0, "fusion_lon": 0.0, "fusion_lat": 0.0, "lon": -76.98998133333333, "name": "6b56c49760e091b2689004d069bcc38e"}, {"bike_id": "81cff3fdf9b5684f1eba6899f01fc67e", "type": "electric_scooter", "is_disabled": 0, "lat": 38.9060095, "rental_uris": {"ios": "https://dc.lft.to/lastmile_qr_scan", "android": "https://dc.lft.to/lastmile_qr_scan"}, "is_reserved": 0, "fusion_lon": 0.0, "fusion_lat": 0.0, "lon": -77.05712633333333, "name": "81cff3fdf9b5684f1eba6899f01fc67e"}, {"bike_id": "24b408ba82a2520679deacb1de413917", "type": "electric_scooter", "is_disabled": 0, "lat": 38.91100933333333, "rental_uris": {"ios": "https://dc.lft.to/lastmile_qr_scan", "android": "https://dc.lft.to/lastmile_qr_scan"}, "is_reserved": 0, "fusion_lon": 0.0, "fusion_lat": 0.0, "lon": -77.04472766666666, "name": "24b408ba82a2520679deacb1de413917"}, {"bike_id": "c1d523e9ba989d574ceec0f23773a149", "type": "electric_bike", "is_disabled": 0, "lat": 39.057896, "rental_uris": {"ios": "https://dc.lft.to/lastmile_qr_scan", "android": "https://dc.lft.to/lastmile_qr_scan"}, "is_reserved": 0, "fusion_lon": 0.0, "fusion_lat": 0.0, "lon": -77.1501835, "name": "c1d523e9ba989d574ceec0f23773a149"}, {"bike_id": "527d1984a890eee3ed220090380fa149", "type": "electric_bike", "is_disabled": 0, "lat": 38.81990866666666, "rental_uris": {"ios": "https://dc.lft.to/lastmile_qr_scan", "android": "https://dc.lft.to/lastmile_qr_scan"}, "is_reserved": 0, "fusion_lon": 0.0, "fusion_lat": 0.0, "lon": -76.998081, "name": "527d1984a890eee3ed220090380fa149"}, {"bike_id": "bb75ace03f5f6a413b33fa76b551f1e1", "type": "electric_scooter", "is_disabled": 0, "lat": 38.90197833333333, "rental_uris": {"ios": "https://dc.lft.to/lastmile_qr_scan", "android": "https://dc.lft.to/lastmile_qr_scan"}, "is_reserved": 0, "fusion_lon": 0.0, "fusion_lat": 0.0, "lon": -77.05047766666667, "name": "bb75ace03f5f6a413b33fa76b551f1e1"}, {"bike_id": "5dc3500e15a7c9c345b99f729503e16a", "type": "electric_scooter", "is_disabled": 0, "lat": 38.9051775, "rental_uris": {"ios": "https://dc.lft.to/lastmile_qr_scan", "android": "https://dc.lft.to/lastmile_qr_scan"}, "is_reserved": 0, "fusion_lon": 0.0, "fusion_lat": 0.0, "lon": -77.050099, "name": "5dc3500e15a7c9c345b99f729503e16a"}, {"bike_id": "5abb451e3420209ebebed900e0eac68f", "type": "electric_scooter", "is_disabled": 0, "lat": 38.938695833333334, "rental_uris": {"ios": "https://dc.lft.to/lastmile_qr_scan", "android": "https://dc.lft.to/lastmile_qr_scan"}, "is_reserved": 0, "fusion_lon": 0.0, "fusion_lat": 0.0, "lon": -77.02469883333333, "name": "5abb451e3420209ebebed900e0eac68f"}, {"bike_id": "dea22e2ec3a6db7e0099bf72de1024e7", "type": "electric_scooter", "is_disabled": 0, "lat": 38.897338166666664, "rental_uris": {"ios": "https://dc.lft.to/lastmile_qr_scan", "android": "https://dc.lft.to/lastmile_qr_scan"}, "is_reserved": 0, "fusion_lon": 0.0, "fusion_lat": 0.0, "lon": -77.05473666666667, "name": "dea22e2ec3a6db7e0099bf72de1024e7"}, {"bike_id": "f2a215280e8be4ee60a3c3cad0aed7a2", "type": "electric_scooter", "is_disabled": 0, "lat": 38.9160115, "rental_uris": {"ios": "https://dc.lft.to/lastmile_qr_scan", "android": "https://dc.lft.to/lastmile_qr_scan"}, "is_reserved": 0, "fusion_lon": 0.0, "fusion_lat": 0.0, "lon": -77.02391933333334, "name": "f2a215280e8be4ee60a3c3cad0aed7a2"}, {"bike_id": "f77025b04a16e43083966e7a3672d3ad", "type": "electric_scooter", "is_disabled": 0, "lat": 38.89023533333334, "rental_uris": {"ios": "https://dc.lft.to/lastmile_qr_scan", "android": "https://dc.lft.to/lastmile_qr_scan"}, "is_reserved": 0, "fusion_lon": 0.0, "fusion_lat": 0.0, "lon": -76.93738866666666, "name": "f77025b04a16e43083966e7a3672d3ad"}, {"bike_id": "6c8a010c9dbc2de1b44139f7d2fccff6", "type": "electric_scooter", "is_disabled": 0, "lat": 38.92331216666667, "rental_uris": {"ios": "https://dc.lft.to/lastmile_qr_scan", "android": "https://dc.lft.to/lastmile_qr_scan"}, "is_reserved": 0, "fusion_lon": 0.0, "fusion_lat": 0.0, "lon": -77.03684616666666, "name": "6c8a010c9dbc2de1b44139f7d2fccff6"}, {"bike_id": "0cfe40ca57aa523727cff9053008be43", "type": "electric_bike", "is_disabled": 0, "lat": 38.952516333333335, "rental_uris": {"ios": "https://dc.lft.to/lastmile_qr_scan", "android": "https://dc.lft.to/lastmile_qr_scan"}, "is_reserved": 0, "fusion_lon": 0.0, "fusion_lat": 0.0, "lon": -76.97673533333334, "name": "0cfe40ca57aa523727cff9053008be43"}, {"bike_id": "8e3bafa36f41e9117983690bea47c390", "type": "electric_scooter", "is_disabled": 0, "lat": 38.920456, "rental_uris": {"ios": "https://dc.lft.to/lastmile_qr_scan", "android": "https://dc.lft.to/lastmile_qr_scan"}, "is_reserved": 0, "fusion_lon": 0.0, "fusion_lat": 0.0, "lon": -77.02574866666667, "name": "8e3bafa36f41e9117983690bea47c390"}, {"bike_id": "6700c26a11c08107ac6494ef0406f8fc", "type": "electric_scooter", "is_disabled": 0, "lat": 38.88714733333333, "rental_uris": {"ios": "https://dc.lft.to/lastmile_qr_scan", "android": "https://dc.lft.to/lastmile_qr_scan"}, "is_reserved": 0, "fusion_lon": 0.0, "fusion_lat": 0.0, "lon": -77.0220075, "name": "6700c26a11c08107ac6494ef0406f8fc"}, {"bike_id": "f6cbe486388345e0996fdc943cc57c11", "type": "electric_scooter", "is_disabled": 0, "lat": 38.905501666666666, "rental_uris": {"ios": "https://dc.lft.to/lastmile_qr_scan", "android": "https://dc.lft.to/lastmile_qr_scan"}, "is_reserved": 0, "fusion_lon": 0.0, "fusion_lat": 0.0, "lon": -77.02183183333334, "name": "f6cbe486388345e0996fdc943cc57c11"}, {"bike_id": "424e8700657951d37f677f8c16535500", "type": "electric_scooter", "is_disabled": 0, "lat": 38.90152783333333, "rental_uris": {"ios": "https://dc.lft.to/lastmile_qr_scan", "android": "https://dc.lft.to/lastmile_qr_scan"}, "is_reserved": 0, "fusion_lon": 0.0, "fusion_lat": 0.0, "lon": -77.02296016666666, "name": "424e8700657951d37f677f8c16535500"}, {"bike_id": "5b738eff537e8899d1b0f64f1a284422", "type": "electric_scooter", "is_disabled": 0, "lat": 38.89965016666667, "rental_uris": {"ios": "https://dc.lft.to/lastmile_qr_scan", "android": "https://dc.lft.to/lastmile_qr_scan"}, "is_reserved": 0, "fusion_lon": 0.0, "fusion_lat": 0.0, "lon": -76.92827283333334, "name": "5b738eff537e8899d1b0f64f1a284422"}, {"bike_id": "8c88cd472e1a71f7b8148652eba6255d", "type": "electric_scooter", "is_disabled": 0, "lat": 38.955284666666664, "rental_uris": {"ios": "https://dc.lft.to/lastmile_qr_scan", "android": "https://dc.lft.to/lastmile_qr_scan"}, "is_reserved": 0, "fusion_lon": 0.0, "fusion_lat": 0.0, "lon": -77.02310183333333, "name": "8c88cd472e1a71f7b8148652eba6255d"}, {"bike_id": "e2d5cdf6d2338f126493323e1e69da54", "type": "electric_bike", "is_disabled": 0, "lat": 38.96316766666666, "rental_uris": {"ios": "https://dc.lft.to/lastmile_qr_scan", "android": "https://dc.lft.to/lastmile_qr_scan"}, "is_reserved": 0, "fusion_lon": 0.0, "fusion_lat": 0.0, "lon": -76.97359266666666, "name": "e2d5cdf6d2338f126493323e1e69da54"}, {"bike_id": "7bfcf6a4e65bcb0e4a6e329b77b07bbc", "type": "electric_scooter", "is_disabled": 0, "lat": 38.91121016666666, "rental_uris": {"ios": "https://dc.lft.to/lastmile_qr_scan", "android": "https://dc.lft.to/lastmile_qr_scan"}, "is_reserved": 0, "fusion_lon": 0.0, "fusion_lat": 0.0, "lon": -77.02208, "name": "7bfcf6a4e65bcb0e4a6e329b77b07bbc"}, {"bike_id": "d12f7693e4b43fe7c53a8d6efeabdc79", "type": "electric_scooter", "is_disabled": 0, "lat": 38.905303833333335, "rental_uris": {"ios": "https://dc.lft.to/lastmile_qr_scan", "android": "https://dc.lft.to/lastmile_qr_scan"}, "is_reserved": 0, "fusion_lon": 0.0, "fusion_lat": 0.0, "lon": -77.07026616666667, "name": "d12f7693e4b43fe7c53a8d6efeabdc79"}, {"bike_id": "cfe1cbecbd0223afd9ee7879ed3daef6", "type": "electric_scooter", "is_disabled": 0, "lat": 38.905683333333336, "rental_uris": {"ios": "https://dc.lft.to/lastmile_qr_scan", "android": "https://dc.lft.to/lastmile_qr_scan"}, "is_reserved": 0, "fusion_lon": 0.0, "fusion_lat": 0.0, "lon": -77.01798433333333, "name": "cfe1cbecbd0223afd9ee7879ed3daef6"}, {"bike_id": "58ac9be2583f43c76f0913a4d52ca9f2", "type": "electric_scooter", "is_disabled": 0, "lat": 38.89729833333333, "rental_uris": {"ios": "https://dc.lft.to/lastmile_qr_scan", "android": "https://dc.lft.to/lastmile_qr_scan"}, "is_reserved": 0, "fusion_lon": 0.0, "fusion_lat": 0.0, "lon": -77.04702983333334, "name": "58ac9be2583f43c76f0913a4d52ca9f2"}, {"bike_id": "56200ae8cf8f2cf38b6817f56ea2986b", "type": "electric_scooter", "is_disabled": 0, "lat": 38.90852433333333, "rental_uris": {"ios": "https://dc.lft.to/lastmile_qr_scan", "android": "https://dc.lft.to/lastmile_qr_scan"}, "is_reserved": 0, "fusion_lon": 0.0, "fusion_lat": 0.0, "lon": -77.021876, "name": "56200ae8cf8f2cf38b6817f56ea2986b"}, {"bike_id": "c3f9985286e7158181d5dc421fbbfd94", "type": "electric_scooter", "is_disabled": 0, "lat": 38.89491866666667, "rental_uris": {"ios": "https://dc.lft.to/lastmile_qr_scan", "android": "https://dc.lft.to/lastmile_qr_scan"}, "is_reserved": 0, "fusion_lon": 0.0, "fusion_lat": 0.0, "lon": -77.0219355, "name": "c3f9985286e7158181d5dc421fbbfd94"}, {"bike_id": "447b53bd97635578ed378d12f5ce9e9e", "type": "electric_scooter", "is_disabled": 0, "lat": 38.86833016666667, "rental_uris": {"ios": "https://dc.lft.to/lastmile_qr_scan", "android": "https://dc.lft.to/lastmile_qr_scan"}, "is_reserved": 0, "fusion_lon": 0.0, "fusion_lat": 0.0, "lon": -77.01148183333333, "name": "447b53bd97635578ed378d12f5ce9e9e"}, {"bike_id": "76780e1595c9f6155b0c2f5d0d0803f6", "type": "electric_scooter", "is_disabled": 0, "lat": 38.926884333333334, "rental_uris": {"ios": "https://dc.lft.to/lastmile_qr_scan", "android": "https://dc.lft.to/lastmile_qr_scan"}, "is_reserved": 0, "fusion_lon": 0.0, "fusion_lat": 0.0, "lon": -77.02788666666666, "name": "76780e1595c9f6155b0c2f5d0d0803f6"}, {"bike_id": "16c57fdb62d7411ed08a9710fbaccd6f", "type": "electric_bike", "is_disabled": 0, "lat": 39.03746366666667, "rental_uris": {"ios": "https://dc.lft.to/lastmile_qr_scan", "android": "https://dc.lft.to/lastmile_qr_scan"}, "is_reserved": 0, "fusion_lon": 0.0, "fusion_lat": 0.0, "lon": -77.05479683333333, "name": "16c57fdb62d7411ed08a9710fbaccd6f"}, {"bike_id": "92241f22128a88fa2f5b9f64e278d6ca", "type": "electric_bike", "is_disabled": 0, "lat": 39.05498083333333, "rental_uris": {"ios": "https://dc.lft.to/lastmile_qr_scan", "android": "https://dc.lft.to/lastmile_qr_scan"}, "is_reserved": 0, "fusion_lon": 0.0, "fusion_lat": 0.0, "lon": -77.11790933333333, "name": "92241f22128a88fa2f5b9f64e278d6ca"}, {"bike_id": "c570ad1d31ea79a424ebbb2fb5adb15a", "type": "electric_bike", "is_disabled": 0, "lat": 38.90693683333333, "rental_uris": {"ios": "https://dc.lft.to/lastmile_qr_scan", "android": "https://dc.lft.to/lastmile_qr_scan"}, "is_reserved": 0, "fusion_lon": 0.0, "fusion_lat": 0.0, "lon": -76.952508, "name": "c570ad1d31ea79a424ebbb2fb5adb15a"}, {"bike_id": "41fc8ed280aa329f08f00fa5c622d2a8", "type": "electric_scooter", "is_disabled": 0, "lat": 38.89352566666667, "rental_uris": {"ios": "https://dc.lft.to/lastmile_qr_scan", "android": "https://dc.lft.to/lastmile_qr_scan"}, "is_reserved": 0, "fusion_lon": 0.0, "fusion_lat": 0.0, "lon": -76.992757, "name": "41fc8ed280aa329f08f00fa5c622d2a8"}, {"bike_id": "7f8beb73ae8f561f6fec6c7158211938", "type": "electric_scooter", "is_disabled": 0, "lat": 38.93919233333333, "rental_uris": {"ios": "https://dc.lft.to/lastmile_qr_scan", "android": "https://dc.lft.to/lastmile_qr_scan"}, "is_reserved": 0, "fusion_lon": 0.0, "fusion_lat": 0.0, "lon": -77.060572, "name": "7f8beb73ae8f561f6fec6c7158211938"}, {"bike_id": "acaa0923e118a775d5ddd2fa86d39444", "type": "electric_scooter", "is_disabled": 0, "lat": 38.90539183333333, "rental_uris": {"ios": "https://dc.lft.to/lastmile_qr_scan", "android": "https://dc.lft.to/lastmile_qr_scan"}, "is_reserved": 0, "fusion_lon": 0.0, "fusion_lat": 0.0, "lon": -77.04154283333334, "name": "acaa0923e118a775d5ddd2fa86d39444"}, {"bike_id": "8beb7d9aa2618ea6dff089bd7f0a5b94", "type": "electric_scooter", "is_disabled": 0, "lat": 38.90349333333333, "rental_uris": {"ios": "https://dc.lft.to/lastmile_qr_scan", "android": "https://dc.lft.to/lastmile_qr_scan"}, "is_reserved": 0, "fusion_lon": 0.0, "fusion_lat": 0.0, "lon": -77.04485583333333, "name": "8beb7d9aa2618ea6dff089bd7f0a5b94"}, {"bike_id": "4f8545aca29a0116df2c31f206c2853c", "type": "electric_scooter", "is_disabled": 0, "lat": 38.899157, "rental_uris": {"ios": "https://dc.lft.to/lastmile_qr_scan", "android": "https://dc.lft.to/lastmile_qr_scan"}, "is_reserved": 0, "fusion_lon": 0.0, "fusion_lat": 0.0, "lon": -76.93372183333334, "name": "4f8545aca29a0116df2c31f206c2853c"}, {"bike_id": "b4b959f0b6ef4d2177690360ac8c0061", "type": "electric_bike", "is_disabled": 0, "lat": 38.872988, "rental_uris": {"ios": "https://dc.lft.to/lastmile_qr_scan", "android": "https://dc.lft.to/lastmile_qr_scan"}, "is_reserved": 0, "fusion_lon": 0.0, "fusion_lat": 0.0, "lon": -77.13924966666667, "name": "b4b959f0b6ef4d2177690360ac8c0061"}, {"bike_id": "bf73f25b18e92537d3730ce5cc99b31d", "type": "electric_bike", "is_disabled": 0, "lat": 38.84283, "rental_uris": {"ios": "https://dc.lft.to/lastmile_qr_scan", "android": "https://dc.lft.to/lastmile_qr_scan"}, "is_reserved": 0, "fusion_lon": 0.0, "fusion_lat": 0.0, "lon": -76.9884035, "name": "bf73f25b18e92537d3730ce5cc99b31d"}, {"bike_id": "28fa0f1c4032b4f0ffe5b9583b4c952c", "type": "electric_scooter", "is_disabled": 0, "lat": 38.923486, "rental_uris": {"ios": "https://dc.lft.to/lastmile_qr_scan", "android": "https://dc.lft.to/lastmile_qr_scan"}, "is_reserved": 0, "fusion_lon": 0.0, "fusion_lat": 0.0, "lon": -77.05118766666666, "name": "28fa0f1c4032b4f0ffe5b9583b4c952c"}, {"bike_id": "ca82ef68ddd217ed0c78b9252b029760", "type": "electric_scooter", "is_disabled": 0, "lat": 38.89481966666666, "rental_uris": {"ios": "https://dc.lft.to/lastmile_qr_scan", "android": "https://dc.lft.to/lastmile_qr_scan"}, "is_reserved": 0, "fusion_lon": 0.0, "fusion_lat": 0.0, "lon": -77.02187583333334, "name": "ca82ef68ddd217ed0c78b9252b029760"}, {"bike_id": "c53fcdb18a012d943ce5992ada6f3638", "type": "electric_scooter", "is_disabled": 0, "lat": 38.96394566666667, "rental_uris": {"ios": "https://dc.lft.to/lastmile_qr_scan", "android": "https://dc.lft.to/lastmile_qr_scan"}, "is_reserved": 0, "fusion_lon": 0.0, "fusion_lat": 0.0, "lon": -77.02590016666667, "name": "c53fcdb18a012d943ce5992ada6f3638"}, {"bike_id": "06166d66350718c6fe567e634b622ed4", "type": "electric_scooter", "is_disabled": 0, "lat": 38.87360816666666, "rental_uris": {"ios": "https://dc.lft.to/lastmile_qr_scan", "android": "https://dc.lft.to/lastmile_qr_scan"}, "is_reserved": 0, "fusion_lon": 0.0, "fusion_lat": 0.0, "lon": -76.97032916666667, "name": "06166d66350718c6fe567e634b622ed4"}, {"bike_id": "17b4ce891a2c6fadb017a4940824b376", "type": "electric_scooter", "is_disabled": 0, "lat": 38.8983755, "rental_uris": {"ios": "https://dc.lft.to/lastmile_qr_scan", "android": "https://dc.lft.to/lastmile_qr_scan"}, "is_reserved": 0, "fusion_lon": 0.0, "fusion_lat": 0.0, "lon": -77.0312505, "name": "17b4ce891a2c6fadb017a4940824b376"}, {"bike_id": "0b79fc25006b7471ba0428955ad2e27c", "type": "electric_scooter", "is_disabled": 0, "lat": 38.893870166666666, "rental_uris": {"ios": "https://dc.lft.to/lastmile_qr_scan", "android": "https://dc.lft.to/lastmile_qr_scan"}, "is_reserved": 0, "fusion_lon": 0.0, "fusion_lat": 0.0, "lon": -77.022699, "name": "0b79fc25006b7471ba0428955ad2e27c"}, {"bike_id": "90c02d1f22ce63c3b7090c268108220c", "type": "electric_scooter", "is_disabled": 0, "lat": 38.91639816666667, "rental_uris": {"ios": "https://dc.lft.to/lastmile_qr_scan", "android": "https://dc.lft.to/lastmile_qr_scan"}, "is_reserved": 0, "fusion_lon": 0.0, "fusion_lat": 0.0, "lon": -77.03187966666667, "name": "90c02d1f22ce63c3b7090c268108220c"}, {"bike_id": "e344087516e427b6ba71ae99a009f02b", "type": "electric_scooter", "is_disabled": 0, "lat": 38.91702433333333, "rental_uris": {"ios": "https://dc.lft.to/lastmile_qr_scan", "android": "https://dc.lft.to/lastmile_qr_scan"}, "is_reserved": 0, "fusion_lon": 0.0, "fusion_lat": 0.0, "lon": -77.02835933333333, "name": "e344087516e427b6ba71ae99a009f02b"}, {"bike_id": "4754703424d578cb8aee579f4bbcb1dc", "type": "electric_scooter", "is_disabled": 0, "lat": 38.919450499999996, "rental_uris": {"ios": "https://dc.lft.to/lastmile_qr_scan", "android": "https://dc.lft.to/lastmile_qr_scan"}, "is_reserved": 0, "fusion_lon": 0.0, "fusion_lat": 0.0, "lon": -77.024938, "name": "4754703424d578cb8aee579f4bbcb1dc"}, {"bike_id": "0e501bc735b98888102459569641b32f", "type": "electric_scooter", "is_disabled": 0, "lat": 38.930808666666664, "rental_uris": {"ios": "https://dc.lft.to/lastmile_qr_scan", "android": "https://dc.lft.to/lastmile_qr_scan"}, "is_reserved": 0, "fusion_lon": 0.0, "fusion_lat": 0.0, "lon": -77.02796766666667, "name": "0e501bc735b98888102459569641b32f"}, {"bike_id": "0b0ae799f018e7997ee008800afde2f1", "type": "electric_scooter", "is_disabled": 0, "lat": 38.892906833333335, "rental_uris": {"ios": "https://dc.lft.to/lastmile_qr_scan", "android": "https://dc.lft.to/lastmile_qr_scan"}, "is_reserved": 0, "fusion_lon": 0.0, "fusion_lat": 0.0, "lon": -77.033474, "name": "0b0ae799f018e7997ee008800afde2f1"}, {"bike_id": "e29cc7e5cefd8c8b026fc2740c162cba", "type": "electric_scooter", "is_disabled": 0, "lat": 38.9079095, "rental_uris": {"ios": "https://dc.lft.to/lastmile_qr_scan", "android": "https://dc.lft.to/lastmile_qr_scan"}, "is_reserved": 0, "fusion_lon": 0.0, "fusion_lat": 0.0, "lon": -77.03206083333333, "name": "e29cc7e5cefd8c8b026fc2740c162cba"}, {"bike_id": "eef9901940661c9f895906859adca54d", "type": "electric_scooter", "is_disabled": 0, "lat": 38.92225833333333, "rental_uris": {"ios": "https://dc.lft.to/lastmile_qr_scan", "android": "https://dc.lft.to/lastmile_qr_scan"}, "is_reserved": 0, "fusion_lon": 0.0, "fusion_lat": 0.0, "lon": -77.038841, "name": "eef9901940661c9f895906859adca54d"}, {"bike_id": "364d30a7455e2dd18c2699cbfe401682", "type": "electric_bike", "is_disabled": 0, "lat": 38.94894516666667, "rental_uris": {"ios": "https://dc.lft.to/lastmile_qr_scan", "android": "https://dc.lft.to/lastmile_qr_scan"}, "is_reserved": 0, "fusion_lon": 0.0, "fusion_lat": 0.0, "lon": -76.96379716666667, "name": "364d30a7455e2dd18c2699cbfe401682"}, {"bike_id": "6b800505c41721f88765d4636a4a23c4", "type": "electric_scooter", "is_disabled": 0, "lat": 38.9377245, "rental_uris": {"ios": "https://dc.lft.to/lastmile_qr_scan", "android": "https://dc.lft.to/lastmile_qr_scan"}, "is_reserved": 0, "fusion_lon": 0.0, "fusion_lat": 0.0, "lon": -76.991442, "name": "6b800505c41721f88765d4636a4a23c4"}, {"bike_id": "c1fa614343341a343cdc156fd7559f0c", "type": "electric_scooter", "is_disabled": 0, "lat": 38.92102533333333, "rental_uris": {"ios": "https://dc.lft.to/lastmile_qr_scan", "android": "https://dc.lft.to/lastmile_qr_scan"}, "is_reserved": 0, "fusion_lon": 0.0, "fusion_lat": 0.0, "lon": -77.01804183333333, "name": "c1fa614343341a343cdc156fd7559f0c"}, {"bike_id": "25a47e5e657d6233716466ceb5a5aac2", "type": "electric_scooter", "is_disabled": 0, "lat": 38.932115333333336, "rental_uris": {"ios": "https://dc.lft.to/lastmile_qr_scan", "android": "https://dc.lft.to/lastmile_qr_scan"}, "is_reserved": 0, "fusion_lon": 0.0, "fusion_lat": 0.0, "lon": -77.03869766666666, "name": "25a47e5e657d6233716466ceb5a5aac2"}, {"bike_id": "22f1083115d73e27756633151c0fec6c", "type": "electric_scooter", "is_disabled": 0, "lat": 38.93345016666667, "rental_uris": {"ios": "https://dc.lft.to/lastmile_qr_scan", "android": "https://dc.lft.to/lastmile_qr_scan"}, "is_reserved": 0, "fusion_lon": 0.0, "fusion_lat": 0.0, "lon": -77.06206483333334, "name": "22f1083115d73e27756633151c0fec6c"}, {"bike_id": "32e6a0ae5aa959cd50437491adbd9bf5", "type": "electric_scooter", "is_disabled": 0, "lat": 38.9250715, "rental_uris": {"ios": "https://dc.lft.to/lastmile_qr_scan", "android": "https://dc.lft.to/lastmile_qr_scan"}, "is_reserved": 0, "fusion_lon": 0.0, "fusion_lat": 0.0, "lon": -77.023296, "name": "32e6a0ae5aa959cd50437491adbd9bf5"}, {"bike_id": "88beaa8c79ea4599791375605a1e7278", "type": "electric_scooter", "is_disabled": 0, "lat": 38.86684316666667, "rental_uris": {"ios": "https://dc.lft.to/lastmile_qr_scan", "android": "https://dc.lft.to/lastmile_qr_scan"}, "is_reserved": 0, "fusion_lon": 0.0, "fusion_lat": 0.0, "lon": -76.985685, "name": "88beaa8c79ea4599791375605a1e7278"}, {"bike_id": "daec5f8eff628665b1f0674af2e1bd90", "type": "electric_scooter", "is_disabled": 0, "lat": 38.900209, "rental_uris": {"ios": "https://dc.lft.to/lastmile_qr_scan", "android": "https://dc.lft.to/lastmile_qr_scan"}, "is_reserved": 0, "fusion_lon": 0.0, "fusion_lat": 0.0, "lon": -77.000357, "name": "daec5f8eff628665b1f0674af2e1bd90"}, {"bike_id": "a5cfaac098d0886a9f532f5b072f5cf5", "type": "electric_scooter", "is_disabled": 0, "lat": 38.9223905, "rental_uris": {"ios": "https://dc.lft.to/lastmile_qr_scan", "android": "https://dc.lft.to/lastmile_qr_scan"}, "is_reserved": 0, "fusion_lon": 0.0, "fusion_lat": 0.0, "lon": -77.03015383333333, "name": "a5cfaac098d0886a9f532f5b072f5cf5"}, {"bike_id": "0ed1731bd45c3917d759d5a94f4ae7c2", "type": "electric_scooter", "is_disabled": 0, "lat": 38.922691666666665, "rental_uris": {"ios": "https://dc.lft.to/lastmile_qr_scan", "android": "https://dc.lft.to/lastmile_qr_scan"}, "is_reserved": 0, "fusion_lon": 0.0, "fusion_lat": 0.0, "lon": -77.03674416666667, "name": "0ed1731bd45c3917d759d5a94f4ae7c2"}, {"bike_id": "76a1edd6066637c68c76a7ae0a068b51", "type": "electric_scooter", "is_disabled": 0, "lat": 38.8668785, "rental_uris": {"ios": "https://dc.lft.to/lastmile_qr_scan", "android": "https://dc.lft.to/lastmile_qr_scan"}, "is_reserved": 0, "fusion_lon": 0.0, "fusion_lat": 0.0, "lon": -76.98578366666666, "name": "76a1edd6066637c68c76a7ae0a068b51"}, {"bike_id": "12b63213b29bbd0bef66c077b7f38ab9", "type": "electric_scooter", "is_disabled": 0, "lat": 38.89967733333334, "rental_uris": {"ios": "https://dc.lft.to/lastmile_qr_scan", "android": "https://dc.lft.to/lastmile_qr_scan"}, "is_reserved": 0, "fusion_lon": 0.0, "fusion_lat": 0.0, "lon": -77.01612583333333, "name": "12b63213b29bbd0bef66c077b7f38ab9"}, {"bike_id": "679246ea29b49db7c16fada8295450c9", "type": "electric_scooter", "is_disabled": 0, "lat": 38.91700933333333, "rental_uris": {"ios": "https://dc.lft.to/lastmile_qr_scan", "android": "https://dc.lft.to/lastmile_qr_scan"}, "is_reserved": 0, "fusion_lon": 0.0, "fusion_lat": 0.0, "lon": -77.04088216666666, "name": "679246ea29b49db7c16fada8295450c9"}, {"bike_id": "f2412a1b0520becff3f892ee44a2e7c1", "type": "electric_scooter", "is_disabled": 0, "lat": 38.892239833333335, "rental_uris": {"ios": "https://dc.lft.to/lastmile_qr_scan", "android": "https://dc.lft.to/lastmile_qr_scan"}, "is_reserved": 0, "fusion_lon": 0.0, "fusion_lat": 0.0, "lon": -77.02261816666666, "name": "f2412a1b0520becff3f892ee44a2e7c1"}, {"bike_id": "29dfb628ae2efca0f9fa545e3af2dea4", "type": "electric_scooter", "is_disabled": 0, "lat": 38.928257, "rental_uris": {"ios": "https://dc.lft.to/lastmile_qr_scan", "android": "https://dc.lft.to/lastmile_qr_scan"}, "is_reserved": 0, "fusion_lon": 0.0, "fusion_lat": 0.0, "lon": -77.022559, "name": "29dfb628ae2efca0f9fa545e3af2dea4"}, {"bike_id": "2febaabea9a8e7a69d97e1362337106f", "type": "electric_scooter", "is_disabled": 0, "lat": 38.86701733333334, "rental_uris": {"ios": "https://dc.lft.to/lastmile_qr_scan", "android": "https://dc.lft.to/lastmile_qr_scan"}, "is_reserved": 0, "fusion_lon": 0.0, "fusion_lat": 0.0, "lon": -76.98713133333334, "name": "2febaabea9a8e7a69d97e1362337106f"}, {"bike_id": "913534233a71d1312691ed729ea23d29", "type": "electric_scooter", "is_disabled": 0, "lat": 38.895563333333335, "rental_uris": {"ios": "https://dc.lft.to/lastmile_qr_scan", "android": "https://dc.lft.to/lastmile_qr_scan"}, "is_reserved": 0, "fusion_lon": 0.0, "fusion_lat": 0.0, "lon": -76.949336, "name": "913534233a71d1312691ed729ea23d29"}, {"bike_id": "486e409f0bceb20c94070546437f3d0f", "type": "electric_scooter", "is_disabled": 0, "lat": 38.90287383333333, "rental_uris": {"ios": "https://dc.lft.to/lastmile_qr_scan", "android": "https://dc.lft.to/lastmile_qr_scan"}, "is_reserved": 0, "fusion_lon": 0.0, "fusion_lat": 0.0, "lon": -77.03340683333333, "name": "486e409f0bceb20c94070546437f3d0f"}, {"bike_id": "1fc2c5920e5339544e92cce74b0a669b", "type": "electric_scooter", "is_disabled": 0, "lat": 38.8988455, "rental_uris": {"ios": "https://dc.lft.to/lastmile_qr_scan", "android": "https://dc.lft.to/lastmile_qr_scan"}, "is_reserved": 0, "fusion_lon": 0.0, "fusion_lat": 0.0, "lon": -76.93175266666667, "name": "1fc2c5920e5339544e92cce74b0a669b"}, {"bike_id": "c8735997bb87ae84c57321d07923b527", "type": "electric_scooter", "is_disabled": 0, "lat": 38.91269066666667, "rental_uris": {"ios": "https://dc.lft.to/lastmile_qr_scan", "android": "https://dc.lft.to/lastmile_qr_scan"}, "is_reserved": 0, "fusion_lon": 0.0, "fusion_lat": 0.0, "lon": -77.04495016666667, "name": "c8735997bb87ae84c57321d07923b527"}, {"bike_id": "22b7c4d934b2bf3bc58fd3c1ab42f2f0", "type": "electric_bike", "is_disabled": 0, "lat": 38.978600166666666, "rental_uris": {"ios": "https://dc.lft.to/lastmile_qr_scan", "android": "https://dc.lft.to/lastmile_qr_scan"}, "is_reserved": 0, "fusion_lon": 0.0, "fusion_lat": 0.0, "lon": -76.94045333333334, "name": "22b7c4d934b2bf3bc58fd3c1ab42f2f0"}, {"bike_id": "c78ab0621886c881862a8e2f16c1b774", "type": "electric_scooter", "is_disabled": 0, "lat": 38.9101685, "rental_uris": {"ios": "https://dc.lft.to/lastmile_qr_scan", "android": "https://dc.lft.to/lastmile_qr_scan"}, "is_reserved": 0, "fusion_lon": 0.0, "fusion_lat": 0.0, "lon": -77.03185716666667, "name": "c78ab0621886c881862a8e2f16c1b774"}, {"bike_id": "5bce10ba0f5f63ed136cdb9aa338b1bb", "type": "electric_scooter", "is_disabled": 0, "lat": 38.92144, "rental_uris": {"ios": "https://dc.lft.to/lastmile_qr_scan", "android": "https://dc.lft.to/lastmile_qr_scan"}, "is_reserved": 0, "fusion_lon": 0.0, "fusion_lat": 0.0, "lon": -77.04353883333333, "name": "5bce10ba0f5f63ed136cdb9aa338b1bb"}, {"bike_id": "53eff6ee1cf0dd919f49ce275ecc8b9c", "type": "electric_scooter", "is_disabled": 0, "lat": 38.86700883333334, "rental_uris": {"ios": "https://dc.lft.to/lastmile_qr_scan", "android": "https://dc.lft.to/lastmile_qr_scan"}, "is_reserved": 0, "fusion_lon": 0.0, "fusion_lat": 0.0, "lon": -76.98714033333333, "name": "53eff6ee1cf0dd919f49ce275ecc8b9c"}, {"bike_id": "6739bad1cc430c38cab33f915055352f", "type": "electric_scooter", "is_disabled": 0, "lat": 38.878703, "rental_uris": {"ios": "https://dc.lft.to/lastmile_qr_scan", "android": "https://dc.lft.to/lastmile_qr_scan"}, "is_reserved": 0, "fusion_lon": 0.0, "fusion_lat": 0.0, "lon": -77.01920716666666, "name": "6739bad1cc430c38cab33f915055352f"}, {"bike_id": "88e16d1858eaabc84029f55dfd770173", "type": "electric_scooter", "is_disabled": 0, "lat": 38.917729333333334, "rental_uris": {"ios": "https://dc.lft.to/lastmile_qr_scan", "android": "https://dc.lft.to/lastmile_qr_scan"}, "is_reserved": 0, "fusion_lon": 0.0, "fusion_lat": 0.0, "lon": -77.04773616666667, "name": "88e16d1858eaabc84029f55dfd770173"}, {"bike_id": "2262303e2829c82c272730076e94936f", "type": "electric_scooter", "is_disabled": 0, "lat": 38.93080916666667, "rental_uris": {"ios": "https://dc.lft.to/lastmile_qr_scan", "android": "https://dc.lft.to/lastmile_qr_scan"}, "is_reserved": 0, "fusion_lon": 0.0, "fusion_lat": 0.0, "lon": -77.027939, "name": "2262303e2829c82c272730076e94936f"}, {"bike_id": "dbfc672e6793c3099c8277aaeba98f7e", "type": "electric_scooter", "is_disabled": 0, "lat": 38.914161, "rental_uris": {"ios": "https://dc.lft.to/lastmile_qr_scan", "android": "https://dc.lft.to/lastmile_qr_scan"}, "is_reserved": 0, "fusion_lon": 0.0, "fusion_lat": 0.0, "lon": -77.02814, "name": "dbfc672e6793c3099c8277aaeba98f7e"},