{"data": {"bikes": [{"lon": -76.97327983333334, "fusion_lon": 0.0, "bike_id": "298ef095e68379fd74128d10d2a4dd62", "type": "electric_scooter", "name": "298ef095e68379fd74128d10d2a4dd62", "rental_uris": {"android": "https://dc.lft.to/lastmile_qr_scan", "ios": "https://dc.lft.to/lastmile_qr_scan"}, "is_disabled": 0, "fusion_lat": 0.0, "lat": 38.90408466666667, "is_reserved": 0}, {"lon": -77.00804766666667, "fusion_lon": 0.0, "bike_id": "09014f04f69c25a7fba225cbc71ce964", "type": "electric_scooter", "name": "09014f04f69c25a7fba225cbc71ce964", "rental_uris": {"android": "https://dc.lft.to/lastmile_qr_scan", "ios": "https://dc.lft.to/lastmile_qr_scan"}, "is_disabled": 0, "fusion_lat": 0.0, "lat": 38.917052, "is_reserved": 0}, {"lon": -77.0071085, "fusion_lon": 0.0, "bike_id": "f3b9617d218e862f83aed152da8057a1", "type": "electric_scooter", "name": "f3b9617d218e862f83aed152da8057a1", "rental_uris": {"android": "https://dc.lft.to/lastmile_qr_scan", "ios": "https://dc.lft.to/lastmile_qr_scan"}, "is_disabled": 0, "fusion_lat": 0.0, "lat": 38.8849085, "is_reserved": 0}, {"lon": -77.0317995, "fusion_lon": 0.0, "bike_id": "cb456b0b2ad748e410032431cc8a2b90", "type": "electric_scooter", "name": "cb456b0b2ad748e410032431cc8a2b90", "rental_uris": {"android": "https://dc.lft.to/lastmile_qr_scan", "ios": "https://dc.lft.to/lastmile_qr_scan"}, "is_disabled": 0, "fusion_lat": 0.0, "lat": 38.924898, "is_reserved": 0}, {"lon": -76.98697083333333, "fusion_lon": 0.0, "bike_id": "8d95237ca94ac55a25d2d2fe13da6090", "type": "electric_scooter", "name": "8d95237ca94ac55a25d2d2fe13da6090", "rental_uris": {"android": "https://dc.lft.to/lastmile_qr_scan", "ios": "https://dc.lft.to/lastmile_qr_scan"}, "is_disabled": 0, "fusion_lat": 0.0, "lat": 38.8672525, "is_reserved": 0}, {"lon": -77.04492033333334, "fusion_lon": 0.0, "bike_id": "cd15d987d0468b0e81c32a76aa78d376", "type": "electric_scooter", "name": "cd15d987d0468b0e81c32a76aa78d376", "rental_uris": {"android": "https://dc.lft.to/lastmile_qr_scan", "ios": "https://dc.lft.to/lastmile_qr_scan"}, "is_disabled": 0, "fusion_lat": 0.0, "lat": 38.897272, "is_reserved": 0}, {"lon": -77.1405295, "fusion_lon": 0.0, "bike_id": "d2ecde8ec90483d055b1aafe7a0e66a0", "type": "electric_bike", "name": "d2ecde8ec90483d055b1aafe7a0e66a0", "rental_uris": {"android": "https://dc.lft.to/lastmile_qr_scan", "ios": "https://dc.lft.to/lastmile_qr_scan"}, "is_disabled": 0, "fusion_lat": 0.0, "lat": 38.9876815, "is_reserved": 0}, {"lon": -77.022877, "fusion_lon": 0.0, "bike_id": "04690787d9d0541c57d21c2b75e230cd", "type": "electric_scooter", "name": "04690787d9d0541c57d21c2b75e230cd", "rental_uris": {"android": "https://dc.lft.to/lastmile_qr_scan", "ios": "https://dc.lft.to/lastmile_qr_scan"}, "is_disabled": 0, "fusion_lat": 0.0, "lat": 38.915666, "is_reserved": 0}, {"lon": -77.0422975, "fusion_lon": 0.0, "bike_id": "26f6dd9408a9bedb02f7bca4e1b37aae", "type": "electric_scooter", "name": "26f6dd9408a9bedb02f7bca4e1b37aae", "rental_uris": {"android": "https://dc.lft.to/lastmile_qr_scan", "ios": "https://dc.lft.to/lastmile_qr_scan"}, "is_disabled": 0, "fusion_lat": 0.0, "lat": 38.9288185, "is_reserved": 0}, {"lon": -77.00305083333333, "fusion_lon": 0.0, "bike_id": "22d2d10bb826149d358e4c181fa65776", "type": "electric_scooter", "name": "22d2d10bb826149d358e4c181fa65776", "rental_uris": {"android": "https://dc.lft.to/lastmile_qr_scan", "ios": "https://dc.lft.to/lastmile_qr_scan"}, "is_disabled": 0, "fusion_lat": 0.0, "lat": 38.920322666666664, "is_reserved": 0}, {"lon": -77.01150533333333, "fusion_lon": 0.0, "bike_id": "ca138b1ad27ca6f69d95d847911ced83", "type": "electric_scooter", "name": "ca138b1ad27ca6f69d95d847911ced83", "rental_uris": {"android": "https://dc.lft.to/lastmile_qr_scan", "ios": "https://dc.lft.to/lastmile_qr_scan"}, "is_disabled": 0, "fusion_lat": 0.0, "lat": 38.90016883333333, "is_reserved": 0}, {"lon": -76.94638883333333, "fusion_lon": 0.0, "bike_id": "720aab60c73370d27e66b7049ce147f6", "type": "electric_scooter", "name": "720aab60c73370d27e66b7049ce147f6", "rental_uris": {"android": "https://dc.lft.to/lastmile_qr_scan", "ios": "https://dc.lft.to/lastmile_qr_scan"}, "is_disabled": 0, "fusion_lat": 0.0, "lat": 38.898608, "is_reserved": 0}, {"lon": -76.98543216666667, "fusion_lon": 0.0, "bike_id": "b8beb1f2d3f2c10664912dbd808e15f6", "type": "electric_scooter", "name": "b8beb1f2d3f2c10664912dbd808e15f6", "rental_uris": {"android": "https://dc.lft.to/lastmile_qr_scan", "ios": "https://dc.lft.to/lastmile_qr_scan"}, "is_disabled": 0, "fusion_lat": 0.0, "lat": 38.86687516666667, "is_reserved": 0}, {"lon": -76.99249133333333, "fusion_lon": 0.0, "bike_id": "c52bdfdcf20887eb2b618d089fabe680", "type": "electric_bike", "name": "c52bdfdcf20887eb2b618d089fabe680", "rental_uris": {"android": "https://dc.lft.to/lastmile_qr_scan", "ios": "https://dc.lft.to/lastmile_qr_scan"}, "is_disabled": 0, "fusion_lat": 0.0, "lat": 38.79472483333333, "is_reserved": 0}, {"lon": -77.02095933333334, "fusion_lon": 0.0, "bike_id": "45c4f1dd67d759ec5774016b6478d21a", "type": "electric_scooter", "name": "45c4f1dd67d759ec5774016b6478d21a", "rental_uris": {"android": "https://dc.lft.to/lastmile_qr_scan", "ios": "https://dc.lft.to/lastmile_qr_scan"}, "is_disabled": 0, "fusion_lat": 0.0, "lat": 38.92697033333334, "is_reserved": 0}, {"lon": -77.07699716666667, "fusion_lon": 0.0, "bike_id": "c394314f4033ae32044b6b3ad297d6e0", "type": "electric_scooter", "name": "c394314f4033ae32044b6b3ad297d6e0", "rental_uris": {"android": "https://dc.lft.to/lastmile_qr_scan", "ios": "https://dc.lft.to/lastmile_qr_scan"}, "is_disabled": 0, "fusion_lat": 0.0, "lat": 38.94378666666667, "is_reserved": 0}, {"lon": -77.02222633333334, "fusion_lon": 0.0, "bike_id": "beb27979ba81af9f655ed3d125966577", "type": "electric_scooter", "name": "beb27979ba81af9f655ed3d125966577", "rental_uris": {"android": "https://dc.lft.to/lastmile_qr_scan", "ios": "https://dc.lft.to/lastmile_qr_scan"}, "is_disabled": 0, "fusion_lat": 0.0, "lat": 38.92469116666667, "is_reserved": 0}, {"lon": -77.014255, "fusion_lon": 0.0, "bike_id": "9101fd5174c5e0cdd1d76654689ccadd", "type": "electric_bike", "name": "9101fd5174c5e0cdd1d76654689ccadd", "rental_uris": {"android": "https://dc.lft.to/lastmile_qr_scan", "ios": "https://dc.lft.to/lastmile_qr_scan"}, "is_disabled": 0, "fusion_lat": 0.0, "lat": 38.97221483333333, "is_reserved": 0}, {"lon": -77.12649216666667, "fusion_lon": 0.0, "bike_id": "9c70b69d68cf05216e96bd2cd3b0c288", "type": "electric_bike", "name": "9c70b69d68cf05216e96bd2cd3b0c288", "rental_uris": {"android": "https://dc.lft.to/lastmile_qr_scan", "ios": "https://dc.lft.to/lastmile_qr_scan"}, "is_disabled": 0, "fusion_lat": 0.0, "lat": 38.81510766666667, "is_reserved": 0}, {"lon": -76.98185416666666, "fusion_lon": 0.0, "bike_id": "0bef511a1b5038506231ca558aebef44", "type": "electric_scooter", "name": "0bef511a1b5038506231ca558aebef44", "rental_uris": {"android": "https://dc.lft.to/lastmile_qr_scan", "ios": "https://dc.lft.to/lastmile_qr_scan"}, "is_disabled": 0, "fusion_lat": 0.0, "lat": 38.895900833333336, "is_reserved": 0}, {"lon": -77.03146066666666, "fusion_lon": 0.0, "bike_id": "3139f93d4c9d710fa844fe31eb72158c", "type": "electric_scooter", "name": "3139f93d4c9d710fa844fe31eb72158c", "rental_uris": {"android": "https://dc.lft.to/lastmile_qr_scan", "ios": "https://dc.lft.to/lastmile_qr_scan"}, "is_disabled": 0, "fusion_lat": 0.0, "lat": 38.893668166666664, "is_reserved": 0}, {"lon": -77.0214805, "fusion_lon": 0.0, "bike_id": "064c2985f2a524f8f002beb2a1aad7de", "type": "electric_scooter", "name": "064c2985f2a524f8f002beb2a1aad7de", "rental_uris": {"android": "https://dc.lft.to/lastmile_qr_scan", "ios": "https://dc.lft.to/lastmile_qr_scan"}, "is_disabled": 0, "fusion_lat": 0.0, "lat": 38.87733033333333, "is_reserved": 0}, {"lon": -77.0131015, "fusion_lon": 0.0, "bike_id": "8289ba3ba73cf3b1c4b6d13cd647927e", "type": "electric_scooter", "name": "8289ba3ba73cf3b1c4b6d13cd647927e", "rental_uris": {"android": "https://dc.lft.to/lastmile_qr_scan", "ios": "https://dc.lft.to/lastmile_qr_scan"}, "is_disabled": 0, "fusion_lat": 0.0, "lat": 38.90139, "is_reserved": 0}, {"lon": -77.08194083333333, "fusion_lon": 0.0, "bike_id": "f1cf781d7844fdcc66d727b27ff76107", "type": "electric_scooter", "name": "f1cf781d7844fdcc66d727b27ff76107", "rental_uris": {"android": "https://dc.lft.to/lastmile_qr_scan", "ios": "https://dc.lft.to/lastmile_qr_scan"}, "is_disabled": 0, "fusion_lat": 0.0, "lat": 38.9355695, "is_reserved": 0}, {"lon": -77.04175833333333, "fusion_lon": 0.0, "bike_id": "e15c1d24b6d6da1207bbea6117d41bf8", "type": "electric_scooter", "name": "e15c1d24b6d6da1207bbea6117d41bf8", "rental_uris": {"android": "https://dc.lft.to/lastmile_qr_scan", "ios": "https://dc.lft.to/lastmile_qr_scan"}, "is_disabled": 0, "fusion_lat": 0.0, "lat": 38.918595, "is_reserved": 0}, {"lon": -77.02198416666667, "fusion_lon": 0.0, "bike_id": "f30cc76379fb7bc4986af30e243af62d", "type": "electric_scooter", "name": "f30cc76379fb7bc4986af30e243af62d", "rental_uris": {"android": "https://dc.lft.to/lastmile_qr_scan", "ios": "https://dc.lft.to/lastmile_qr_scan"}, "is_disabled": 0, "fusion_lat": 0.0, "lat": 38.896181166666665, "is_reserved": 0}, {"lon": -77.0467745, "fusion_lon": 0.0, "bike_id": "4e0fd1e0d7ee22f8200766bec8fa6eb3", "type": "electric_scooter", "name": "4e0fd1e0d7ee22f8200766bec8fa6eb3", "rental_uris": {"android": "https://dc.lft.to/lastmile_qr_scan", "ios": "https://dc.lft.to/lastmile_qr_scan"}, "is_disabled": 0, "fusion_lat": 0.0, "lat": 38.90132533333333, "is_reserved": 0}, {"lon": -77.05068166666666, "fusion_lon": 0.0, "bike_id": "ea509b5035e8f653dc21dc49fd280e5f", "type": "electric_scooter", "name": "ea509b5035e8f653dc21dc49fd280e5f", "rental_uris": {"android": "https://dc.lft.to/lastmile_qr_scan", "ios": "https://dc.lft.to/lastmile_qr_scan"}, "is_disabled": 0, "fusion_lat": 0.0, "lat": 38.92530033333333, "is_reserved": 0}, {"lon": -77.0344635, "fusion_lon": 0.0, "bike_id": "9bb587d405f8c8bd9e0365ed871c83a4", "type": "electric_scooter", "name": "9bb587d405f8c8bd9e0365ed871c83a4", "rental_uris": {"android": "https://dc.lft.to/lastmile_qr_scan", "ios": "https://dc.lft.to/lastmile_qr_scan"}, "is_disabled": 0, "fusion_lat": 0.0, "lat": 38.90735433333333, "is_reserved": 0}, {"lon": -77.04371716666667, "fusion_lon": 0.0, "bike_id": "751909ba5f98180a05e16c2892886e9c", "type": "electric_scooter", "name": "751909ba5f98180a05e16c2892886e9c", "rental_uris": {"android": "https://dc.lft.to/lastmile_qr_scan", "ios": "https://dc.lft.to/lastmile_qr_scan"}, "is_disabled": 0, "fusion_lat": 0.0, "lat": 38.9060515, "is_reserved": 0}, {"lon": -77.05337716666666, "fusion_lon": 0.0, "bike_id": "3808243c3ae987fce9570341788cae86", "type": "electric_scooter", "name": "3808243c3ae987fce9570341788cae86", "rental_uris": {"android": "https://dc.lft.to/lastmile_qr_scan", "ios": "https://dc.lft.to/lastmile_qr_scan"}, "is_disabled": 0, "fusion_lat": 0.0, "lat": 38.90224633333333, "is_reserved": 0}, {"lon": -76.98571933333334, "fusion_lon": 0.0, "bike_id": "e0060d356f296d493cf832d6fe2e9add", "type": "electric_scooter", "name": "e0060d356f296d493cf832d6fe2e9add", "rental_uris": {"android": "https://dc.lft.to/lastmile_qr_scan", "ios": "https://dc.lft.to/lastmile_qr_scan"}, "is_disabled": 0, "fusion_lat": 0.0, "lat": 38.86682166666667, "is_reserved": 0}, {"lon": -77.0270685, "fusion_lon": 0.0, "bike_id": "81b62bd15edcd526379686c5bdfbcc22", "type": "electric_scooter", "name": "81b62bd15edcd526379686c5bdfbcc22", "rental_uris": {"android": "https://dc.lft.to/lastmile_qr_scan", "ios": "https://dc.lft.to/lastmile_qr_scan"}, "is_disabled": 0, "fusion_lat": 0.0, "lat": 38.906684166666665, "is_reserved": 0}, {"lon": -77.00751916666667, "fusion_lon": 0.0, "bike_id": "ad3eafe2cffa61e08ba966436823a005", "type": "electric_scooter", "name": "ad3eafe2cffa61e08ba966436823a005", "rental_uris": {"android": "https://dc.lft.to/lastmile_qr_scan", "ios": "https://dc.lft.to/lastmile_qr_scan"}, "is_disabled": 0, "fusion_lat": 0.0, "lat": 38.904633, "is_reserved": 0}, {"lon": -77.0344355, "fusion_lon": 0.0, "bike_id": "5e66ac3ccf97fd8a06ad189e9eb16157", "type": "electric_scooter", "name": "5e66ac3ccf97fd8a06ad189e9eb16157", "rental_uris": {"android": "https://dc.lft.to/lastmile_qr_scan", "ios": "https://dc.lft.to/lastmile_qr_scan"}, "is_disabled": 0, "fusion_lat": 0.0, "lat": 38.908374, "is_reserved": 0}, {"lon": -76.979692, "fusion_lon": 0.0, "bike_id": "c6f23f1de8404e0d86b4b97ce917e634", "type": "electric_scooter", "name": "c6f23f1de8404e0d86b4b97ce917e634", "rental_uris": {"android": "https://dc.lft.to/lastmile_qr_scan", "ios": "https://dc.lft.to/lastmile_qr_scan"}, "is_disabled": 0, "fusion_lat": 0.0, "lat": 38.89748816666667, "is_reserved": 0}, {"lon": -77.02707333333333, "fusion_lon": 0.0, "bike_id": "6a71e3e77ad6c79037c5e49076595ac8", "type": "electric_scooter", "name": "6a71e3e77ad6c79037c5e49076595ac8", "rental_uris": {"android": "https://dc.lft.to/lastmile_qr_scan", "ios": "https://dc.lft.to/lastmile_qr_scan"}, "is_disabled": 0, "fusion_lat": 0.0, "lat": 38.9171945, "is_reserved": 0}, {"lon": -76.9575695, "fusion_lon": 0.0, "bike_id": "4fab3fb72dbe73d709adf451ca18301a", "type": "electric_scooter", "name": "4fab3fb72dbe73d709adf451ca18301a", "rental_uris": {"android": "https://dc.lft.to/lastmile_qr_scan", "ios": "https://dc.lft.to/lastmile_qr_scan"}, "is_disabled": 0, "fusion_lat": 0.0, "lat": 38.884300333333336, "is_reserved": 0}, {"lon": -77.00518383333333, "fusion_lon": 0.0, "bike_id": "46d2672a71dc9e446fe401c0bf431d0d", "type": "electric_scooter", "name": "46d2672a71dc9e446fe401c0bf431d0d", "rental_uris": {"android": "https://dc.lft.to/lastmile_qr_scan", "ios": "https://dc.lft.to/lastmile_qr_scan"}, "is_disabled": 0, "fusion_lat": 0.0, "lat": 38.896011, "is_reserved": 0}, {"lon": -76.98674316666667, "fusion_lon": 0.0, "bike_id": "740338d688e9a35683def47997558515", "type": "electric_scooter", "name": "740338d688e9a35683def47997558515", "rental_uris": {"android": "https://dc.lft.to/lastmile_qr_scan", "ios": "https://dc.lft.to/lastmile_qr_scan"}, "is_disabled": 0, "fusion_lat": 0.0, "lat": 38.90681933333333, "is_reserved": 0}, {"lon": -76.99530166666666, "fusion_lon": 0.0, "bike_id": "425da4fdd7f0ae6d6dd664b5f8a7f3ab", "type": "electric_scooter", "name": "425da4fdd7f0ae6d6dd664b5f8a7f3ab", "rental_uris": {"android": "https://dc.lft.to/lastmile_qr_scan", "ios": "https://dc.lft.to/lastmile_qr_scan"}, "is_disabled": 0, "fusion_lat": 0.0, "lat": 38.92669816666667, "is_reserved": 0}, {"lon": -77.04467883333334, "fusion_lon": 0.0, "bike_id": "b06afb3fef1feebe981aedede599ae10", "type": "electric_scooter", "name": "b06afb3fef1feebe981aedede599ae10", "rental_uris": {"android": "https://dc.lft.to/lastmile_qr_scan", "ios": "https://dc.lft.to/lastmile_qr_scan"}, "is_disabled": 0, "fusion_lat": 0.0, "lat": 38.895142166666666, "is_reserved": 0}, {"lon": -77.04366916666666, "fusion_lon": 0.0, "bike_id": "6aa56ceb5c91f4e2f0ed44b67d335624", "type": "electric_scooter", "name": "6aa56ceb5c91f4e2f0ed44b67d335624", "rental_uris": {"android": "https://dc.lft.to/lastmile_qr_scan", "ios": "https://dc.lft.to/lastmile_qr_scan"}, "is_disabled": 0, "fusion_lat": 0.0, "lat": 38.89221516666667, "is_reserved": 0}, {"lon": -77.04180516666666, "fusion_lon": 0.0, "bike_id": "2bfabdd69f0a5dd251843ab252e26ad6", "type": "electric_scooter", "name": "2bfabdd69f0a5dd251843ab252e26ad6", "rental_uris": {"android": "https://dc.lft.to/lastmile_qr_scan", "ios": "https://dc.lft.to/lastmile_qr_scan"}, "is_disabled": 0, "fusion_lat": 0.0, "lat": 38.91839566666667, "is_reserved": 0}, {"lon": -77.01739316666666, "fusion_lon": 0.0, "bike_id": "e2a8f3b59cf0705ac4a3bebe9ac3c362", "type": "electric_scooter", "name": "e2a8f3b59cf0705ac4a3bebe9ac3c362", "rental_uris": {"android": "https://dc.lft.to/lastmile_qr_scan", "ios": "https://dc.lft.to/lastmile_qr_scan"}, "is_disabled": 0, "fusion_lat": 0.0, "lat": 38.90272266666667, "is_reserved": 0}, {"lon": -77.01986583333333, "fusion_lon": 0.0, "bike_id": "ad03e1200157247d8aa71d174e071678", "type": "electric_scooter", "name": "ad03e1200157247d8aa71d174e071678", "rental_uris": {"android": "https://dc.lft.to/lastmile_qr_scan", "ios": "https://dc.lft.to/lastmile_qr_scan"}, "is_disabled": 0, "fusion_lat": 0.0, "lat": 38.895329, "is_reserved": 0}, {"lon": -76.955842, "fusion_lon": 0.0, "bike_id": "1af65455fc6c2982e3522e508261e611", "type": "electric_scooter", "name": "1af65455fc6c2982e3522e508261e611", "rental_uris": {"android": "https://dc.lft.to/lastmile_qr_scan", "ios": "https://dc.lft.to/lastmile_qr_scan"}, "is_disabled": 0, "fusion_lat": 0.0, "lat": 38.886171833333336, "is_reserved": 0}, {"lon": -76.9948395, "fusion_lon": 0.0, "bike_id": "0d7aff7e59ac75eba085259b82c0a514", "type": "electric_scooter", "name": "0d7aff7e59ac75eba085259b82c0a514", "rental_uris": {"android": "https://dc.lft.to/lastmile_qr_scan", "ios": "https://dc.lft.to/lastmile_qr_scan"}, "is_disabled": 0, "fusion_lat": 0.0, "lat": 38.862184166666665, "is_reserved": 0}, {"lon": -77.0362435, "fusion_lon": 0.0, "bike_id": "7b090c3036b327f5998abb65247da4b7", "type": "electric_scooter", "name": "7b090c3036b327f5998abb65247da4b7", "rental_uris": {"android": "https://dc.lft.to/lastmile_qr_scan", "ios": "https://dc.lft.to/lastmile_qr_scan"}, "is_disabled": 0, "fusion_lat": 0.0, "lat": 38.92702283333333, "is_reserved": 0}, {"lon": -77.03892466666667, "fusion_lon": 0.0, "bike_id": "04b7c708b912493f9ea6eb8c5777eb8c", "type": "electric_scooter", "name": "04b7c708b912493f9ea6eb8c5777eb8c", "rental_uris": {"android": "https://dc.lft.to/lastmile_qr_scan", "ios": "https://dc.lft.to/lastmile_qr_scan"}, "is_disabled": 0, "fusion_lat": 0.0, "lat": 38.922582166666665, "is_reserved": 0}, {"lon": -77.04349333333333, "fusion_lon": 0.0, "bike_id": "74de25fb9f52ece00fa5a58d3a483a03", "type": "electric_scooter", "name": "74de25fb9f52ece00fa5a58d3a483a03", "rental_uris": {"android": "https://dc.lft.to/lastmile_qr_scan", "ios": "https://dc.lft.to/lastmile_qr_scan"}, "is_disabled": 0, "fusion_lat": 0.0, "lat": 38.90392033333333, "is_reserved": 0}, {"lon": -77.02200633333334, "fusion_lon": 0.0, "bike_id": "7b2c94f00ab71221a3185de00bce168f", "type": "electric_scooter", "name": "7b2c94f00ab71221a3185de00bce168f", "rental_uris": {"android": "https://dc.lft.to/lastmile_qr_scan", "ios": "https://dc.lft.to/lastmile_qr_scan"}, "is_disabled": 0, "fusion_lat": 0.0, "lat": 38.94797666666667, "is_reserved": 0}, {"lon": -76.99799916666667, "fusion_lon": 0.0, "bike_id": "6e01c7e8fa8ebf634d5177ba685c4196", "type": "electric_scooter", "name": "6e01c7e8fa8ebf634d5177ba685c4196", "rental_uris": {"android": "https://dc.lft.to/lastmile_qr_scan", "ios": "https://dc.lft.to/lastmile_qr_scan"}, "is_disabled": 0, "fusion_lat": 0.0, "lat": 38.9013795, "is_reserved": 0}, {"lon": -77.01501033333334, "fusion_lon": 0.0, "bike_id": "e2a3ae4296e95cd97af5fcd1ca46c75f", "type": "electric_scooter", "name": "e2a3ae4296e95cd97af5fcd1ca46c75f", "rental_uris": {"android": "https://dc.lft.to/lastmile_qr_scan", "ios": "https://dc.lft.to/lastmile_qr_scan"}, "is_disabled": 0, "fusion_lat": 0.0, "lat": 38.917659666666665, "is_reserved": 0}, {"lon": -77.02693183333334, "fusion_lon": 0.0, "bike_id": "14f7181af7d8205f7800dbb3eeae1687", "type": "electric_scooter", "name": "14f7181af7d8205f7800dbb3eeae1687", "rental_uris": {"android": "https://dc.lft.to/lastmile_qr_scan", "ios": "https://dc.lft.to/lastmile_qr_scan"}, "is_disabled": 0, "fusion_lat": 0.0, "lat": 38.9068625, "is_reserved": 0}, {"lon": -77.03293466666666, "fusion_lon": 0.0, "bike_id": "eea06d8600fa7d303aec43a8bced7a4f", "type": "electric_scooter", "name": "eea06d8600fa7d303aec43a8bced7a4f", "rental_uris": {"android": "https://dc.lft.to/lastmile_qr_scan", "ios": "https://dc.lft.to/lastmile_qr_scan"}, "is_disabled": 0, "fusion_lat": 0.0, "lat": 38.92873383333333, "is_reserved": 0}, {"lon": -77.05334166666667, "fusion_lon": 0.0, "bike_id": "83b17385ea9d75fe1fc94fe060d2a726", "type": "electric_scooter", "name": "83b17385ea9d75fe1fc94fe060d2a726", "rental_uris": {"android": "https://dc.lft.to/lastmile_qr_scan", "ios": "https://dc.lft.to/lastmile_qr_scan"}, "is_disabled": 0, "fusion_lat": 0.0, "lat": 38.90229583333333, "is_reserved": 0}, {"lon": -77.02955116666666, "fusion_lon": 0.0, "bike_id": "71d2804c90b27e49a0dff7d87f53738c", "type": "electric_scooter", "name": "71d2804c90b27e49a0dff7d87f53738c", "rental_uris": {"android": "https://dc.lft.to/lastmile_qr_scan", "ios": "https://dc.lft.to/lastmile_qr_scan"}, "is_disabled": 0, "fusion_lat": 0.0, "lat": 38.906533, "is_reserved": 0}, {"lon": -77.01635666666667, "fusion_lon": 0.0, "bike_id": "ce4e849f4ba28497220ba779d89c3d4f", "type": "electric_scooter", "name": "ce4e849f4ba28497220ba779d89c3d4f", "rental_uris": {"android": "https://dc.lft.to/lastmile_qr_scan", "ios": "https://dc.lft.to/lastmile_qr_scan"}, "is_disabled": 0, "fusion_lat": 0.0, "lat": 38.881237166666665, "is_reserved": 0}, {"lon": -77.028112, "fusion_lon": 0.0, "bike_id": "3acadaa99c3f94b1772902e554070167", "type": "electric_scooter", "name": "3acadaa99c3f94b1772902e554070167", "rental_uris": {"android": "https://dc.lft.to/lastmile_qr_scan", "ios": "https://dc.lft.to/lastmile_qr_scan"}, "is_disabled": 0, "fusion_lat": 0.0, "lat": 38.91721716666667, "is_reserved": 0}, {"lon": -77.03277133333333, "fusion_lon": 0.0, "bike_id": "063cdbbb015dc143123239e4e9d8fbf8", "type": "electric_scooter", "name": "063cdbbb015dc143123239e4e9d8fbf8", "rental_uris": {"android": "https://dc.lft.to/lastmile_qr_scan", "ios": "https://dc.lft.to/lastmile_qr_scan"}, "is_disabled": 0, "fusion_lat": 0.0, "lat": 38.934349833333336, "is_reserved": 0}, {"lon": -77.0373045, "fusion_lon": 0.0, "bike_id": "14c66d0f3fe44b1bd1a543281f4a1669", "type": "electric_scooter", "name": "14c66d0f3fe44b1bd1a543281f4a1669", "rental_uris": {"android": "https://dc.lft.to/lastmile_qr_scan", "ios": "https://dc.lft.to/lastmile_qr_scan"}, "is_disabled": 0, "fusion_lat": 0.0, "lat": 38.926602333333335, "is_reserved": 0}, {"lon": -77.02716583333333, "fusion_lon": 0.0, "bike_id": "394243c6e7eedefc49ffc9d149a5f39d", "type": "electric_scooter", "name": "394243c6e7eedefc49ffc9d149a5f39d", "rental_uris": {"android": "https://dc.lft.to/lastmile_qr_scan", "ios": "https://dc.lft.to/lastmile_qr_scan"}, "is_disabled": 0, "fusion_lat": 0.0, "lat": 38.8978605, "is_reserved": 0}, {"lon": -77.0580335, "fusion_lon": 0.0, "bike_id": "eaee6a622d636e4dadb675044c4935c6", "type": "electric_scooter", "name": "eaee6a622d636e4dadb675044c4935c6", "rental_uris": {"android": "https://dc.lft.to/lastmile_qr_scan", "ios": "https://dc.lft.to/lastmile_qr_scan"}, "is_disabled": 0, "fusion_lat": 0.0, "lat": 38.9349695, "is_reserved": 0}, {"lon": -77.0572895, "fusion_lon": 0.0, "bike_id": "ec44228668b2579e79b07d82a26d7d5e", "type": "electric_scooter", "name": "ec44228668b2579e79b07d82a26d7d5e", "rental_uris": {"android": "https://dc.lft.to/lastmile_qr_scan", "ios": "https://dc.lft.to/lastmile_qr_scan"}, "is_disabled": 0, "fusion_lat": 0.0, "lat": 38.933668833333336, "is_reserved": 0}, {"lon": -77.07164, "fusion_lon": 0.0, "bike_id": "4f9fe93d6282d01b148e21814719eb6d", "type": "electric_scooter", "name": "4f9fe93d6282d01b148e21814719eb6d", "rental_uris": {"android": "https://dc.lft.to/lastmile_qr_scan", "ios": "https://dc.lft.to/lastmile_qr_scan"}, "is_disabled": 0, "fusion_lat": 0.0, "lat": 38.938227499999996, "is_reserved": 0}, {"lon": -76.99002616666667, "fusion_lon": 0.0, "bike_id": "c710c310df51a822bec33a428fdbcc29", "type": "electric_scooter", "name": "c710c310df51a822bec33a428fdbcc29", "rental_uris": {"android": "https://dc.lft.to/lastmile_qr_scan", "ios": "https://dc.lft.to/lastmile_qr_scan"}, "is_disabled": 0, "fusion_lat": 0.0, "lat": 38.90393616666667, "is_reserved": 0}, {"lon": -77.024526, "fusion_lon": 0.0, "bike_id": "e61657b57a5af3fe9392d1c90dc52c0d", "type": "electric_scooter", "name": "e61657b57a5af3fe9392d1c90dc52c0d", "rental_uris": {"android": "https://dc.lft.to/lastmile_qr_scan", "ios": "https://dc.lft.to/lastmile_qr_scan"}, "is_disabled": 0, "fusion_lat": 0.0, "lat": 38.908607333333336, "is_reserved": 0}, {"lon": -77.0122595, "fusion_lon": 0.0, "bike_id": "ef7f1fc9bae9a8820ed8eea0aef622c7", "type": "electric_scooter", "name": "ef7f1fc9bae9a8820ed8eea0aef622c7", "rental_uris": {"android": "https://dc.lft.to/lastmile_qr_scan", "ios": "https://dc.lft.to/lastmile_qr_scan"}, "is_disabled": 0, "fusion_lat": 0.0, "lat": 38.91546966666667, "is_reserved": 0}, {"lon": -77.0605745, "fusion_lon": 0.0, "bike_id": "bb8bf6501b51fde722d9c4b2c5d9ef25", "type": "electric_scooter", "name": "bb8bf6501b51fde722d9c4b2c5d9ef25", "rental_uris": {"android": "https://dc.lft.to/lastmile_qr_scan", "ios": "https://dc.lft.to/lastmile_qr_scan"}, "is_disabled": 0, "fusion_lat": 0.0, "lat": 38.943343, "is_reserved": 0}, {"lon": -77.0231265, "fusion_lon": 0.0, "bike_id": "ef31046d0a42a7554e2f6aba2eda4e4c", "type": "electric_scooter", "name": "ef31046d0a42a7554e2f6aba2eda4e4c", "rental_uris": {"android": "https://dc.lft.to/lastmile_qr_scan", "ios": "https://dc.lft.to/lastmile_qr_scan"}, "is_disabled": 0, "fusion_lat": 0.0, "lat": 38.9294225, "is_reserved": 0}, {"lon": -77.01256383333333, "fusion_lon": 0.0, "bike_id": "2c4744a917945f860eb2d65f8258b231", "type": "electric_scooter", "name": "2c4744a917945f860eb2d65f8258b231", "rental_uris": {"android": "https://dc.lft.to/lastmile_qr_scan", "ios": "https://dc.lft.to/lastmile_qr_scan"}, "is_disabled": 0, "fusion_lat": 0.0, "lat": 38.918080333333336, "is_reserved": 0}, {"lon": -77.02601966666667, "fusion_lon": 0.0, "bike_id": "b3fc679f983ae168039cadfe10bb14dd", "type": "electric_scooter", "name": "b3fc679f983ae168039cadfe10bb14dd", "rental_uris": {"android": "https://dc.lft.to/lastmile_qr_scan", "ios": "https://dc.lft.to/lastmile_qr_scan"}, "is_disabled": 0, "fusion_lat": 0.0, "lat": 38.906739, "is_reserved": 0}, {"lon": -77.045949, "fusion_lon": 0.0, "bike_id": "2e5854836a8cd1a94af0dab9f6df2efb", "type": "electric_scooter", "name": "2e5854836a8cd1a94af0dab9f6df2efb", "rental_uris": {"android": "https://dc.lft.to/lastmile_qr_scan", "ios": "https://dc.lft.to/lastmile_qr_scan"}, "is_disabled": 0, "fusion_lat": 0.0, "lat": 38.901983666666666, "is_reserved": 0}, {"lon": -76.94640916666667, "fusion_lon": 0.0, "bike_id": "36ad0451d607a184f547fbf04e07867c", "type": "electric_scooter", "name": "36ad0451d607a184f547fbf04e07867c", "rental_uris": {"android": "https://dc.lft.to/lastmile_qr_scan", "ios": "https://dc.lft.to/lastmile_qr_scan"}, "is_disabled": 0, "fusion_lat": 0.0, "lat": 38.898626666666665, "is_reserved": 0}, {"lon": -77.12528216666666, "fusion_lon": 0.0, "bike_id": "2a16440ab0be89cdd7fd8a1a8c573f70", "type": "electric_bike", "name": "2a16440ab0be89cdd7fd8a1a8c573f70", "rental_uris": {"android": "https://dc.lft.to/lastmile_qr_scan", "ios": "https://dc.lft.to/lastmile_qr_scan"}, "is_disabled": 0, "fusion_lat": 0.0, "lat": 39.05635616666667, "is_reserved": 0}, {"lon": -77.04202433333333, "fusion_lon": 0.0, "bike_id": "8996db09d0613073dd52f0bdf07cbcc6", "type": "electric_scooter", "name": "8996db09d0613073dd52f0bdf07cbcc6", "rental_uris": {"android": "https://dc.lft.to/lastmile_qr_scan", "ios": "https://dc.lft.to/lastmile_qr_scan"}, "is_disabled": 0, "fusion_lat": 0.0, "lat": 38.92097783333333, "is_reserved": 0}, {"lon": -76.97169216666667, "fusion_lon": 0.0, "bike_id": "6dae66d1e0ba1148e8c81e731e332988", "type": "electric_scooter", "name": "6dae66d1e0ba1148e8c81e731e332988", "rental_uris": {"android": "https://dc.lft.to/lastmile_qr_scan", "ios": "https://dc.lft.to/lastmile_qr_scan"}, "is_disabled": 0, "fusion_lat": 0.0, "lat": 38.8614005, "is_reserved": 0}, {"lon": -77.05015633333333, "fusion_lon": 0.0, "bike_id": "88ec58afe27c0effb89e62048c837822", "type": "electric_scooter", "name": "88ec58afe27c0effb89e62048c837822", "rental_uris": {"android": "https://dc.lft.to/lastmile_qr_scan", "ios": "https://dc.lft.to/lastmile_qr_scan"}, "is_disabled": 0, "fusion_lat": 0.0, "lat": 38.8978755, "is_reserved": 0}, {"lon": -77.028063, "fusion_lon": 0.0, "bike_id": "1038fcf3227840cfc0bd5c0df237e36a", "type": "electric_scooter", "name": "1038fcf3227840cfc0bd5c0df237e36a", "rental_uris": {"android": "https://dc.lft.to/lastmile_qr_scan", "ios": "https://dc.lft.to/lastmile_qr_scan"}, "is_disabled": 0, "fusion_lat": 0.0, "lat": 38.8990115, "is_reserved": 0}, {"lon": -77.022874, "fusion_lon": 0.0, "bike_id": "07039dc9c49be8e2680196a129e65bae", "type": "electric_scooter", "name": "07039dc9c49be8e2680196a129e65bae", "rental_uris": {"android": "https://dc.lft.to/lastmile_qr_scan", "ios": "https://dc.lft.to/lastmile_qr_scan"}, "is_disabled": 0, "fusion_lat": 0.0, "lat": 38.917890666666665, "is_reserved": 0}, {"lon": -77.05743266666667, "fusion_lon": 0.0, "bike_id": "499fc165fcdf54a1dac89307f1cb101b", "type": "electric_scooter", "name": "499fc165fcdf54a1dac89307f1cb101b", "rental_uris": {"android": "https://dc.lft.to/lastmile_qr_scan", "ios": "https://dc.lft.to/lastmile_qr_scan"}, "is_disabled": 0, "fusion_lat": 0.0, "lat": 38.933926166666666, "is_reserved": 0}, {"lon": -77.0247825, "fusion_lon": 0.0, "bike_id": "43a4c29fa53bd4d0ca0b80db14934ea0", "type": "electric_scooter", "name": "43a4c29fa53bd4d0ca0b80db14934ea0", "rental_uris": {"android": "https://dc.lft.to/lastmile_qr_scan", "ios": "https://dc.lft.to/lastmile_qr_scan"}, "is_disabled": 0, "fusion_lat": 0.0, "lat": 38.930935166666664, "is_reserved": 0}, {"lon": -77.05472166666667, "fusion_lon": 0.0, "bike_id": "aeffc1217b7093650aded32f0b8d5055", "type": "electric_scooter", "name": "aeffc1217b7093650aded32f0b8d5055", "rental_uris": {"android": "https://dc.lft.to/lastmile_qr_scan", "ios": "https://dc.lft.to/lastmile_qr_scan"}, "is_disabled": 0, "fusion_lat": 0.0, "lat": 38.897277, "is_reserved": 0}, {"lon": -76.98579116666667, "fusion_lon": 0.0, "bike_id": "24a5b29a626cfb7801e3a86933881423", "type": "electric_scooter", "name": "24a5b29a626cfb7801e3a86933881423", "rental_uris": {"android": "https://dc.lft.to/lastmile_qr_scan", "ios": "https://dc.lft.to/lastmile_qr_scan"}, "is_disabled": 0, "fusion_lat": 0.0, "lat": 38.883614666666666, "is_reserved": 0}, {"lon": -77.03244366666667, "fusion_lon": 0.0, "bike_id": "16a5ac0c503a1f017eafa42fb9ffddbe", "type": "electric_scooter", "name": "16a5ac0c503a1f017eafa42fb9ffddbe", "rental_uris": {"android": "https://dc.lft.to/lastmile_qr_scan", "ios": "https://dc.lft.to/lastmile_qr_scan"}, "is_disabled": 0, "fusion_lat": 0.0, "lat": 38.923893666666665, "is_reserved": 0}, {"lon": -77.00425183333333, "fusion_lon": 0.0, "bike_id": "668692ced028222b54f409c659562dcc", "type": "electric_scooter", "name": "668692ced028222b54f409c659562dcc", "rental_uris": {"android": "https://dc.lft.to/lastmile_qr_scan", "ios": "https://dc.lft.to/lastmile_qr_scan"}, "is_disabled": 0, "fusion_lat": 0.0, "lat": 38.8765975, "is_reserved": 0}, {"lon": -77.01825883333333, "fusion_lon": 0.0, "bike_id": "a76db437aa56a517e7d7b83cd1d27b9a", "type": "electric_scooter", "name": "a76db437aa56a517e7d7b83cd1d27b9a", "rental_uris": {"android": "https://dc.lft.to/lastmile_qr_scan", "ios": "https://dc.lft.to/lastmile_qr_scan"}, "is_disabled": 0, "fusion_lat": 0.0, "lat": 38.9025595, "is_reserved": 0}, {"lon": -77.02919316666667, "fusion_lon": 0.0, "bike_id": "ede96a2bc6b49e2605f6bf5c6ad6aa9c", "type": "electric_scooter", "name": "ede96a2bc6b49e2605f6bf5c6ad6aa9c", "rental_uris": {"android": "https://dc.lft.to/lastmile_qr_scan", "ios": "https://dc.lft.to/lastmile_qr_scan"}, "is_disabled": 0, "fusion_lat": 0.0, "lat": 38.91723433333333, "is_reserved": 0}, {"lon": -77.01157133333334, "fusion_lon": 0.0, "bike_id": "6d0fdafc4d4ecb37852d66b132ee2d70", "type": "electric_scooter", "name": "6d0fdafc4d4ecb37852d66b132ee2d70", "rental_uris": {"android": "https://dc.lft.to/lastmile_qr_scan", "ios": "https://dc.lft.to/lastmile_qr_scan"}, "is_disabled": 0, "fusion_lat": 0.0, "lat": 38.911197333333334, "is_reserved": 0}, {"lon": -77.03742383333334, "fusion_lon": 0.0, "bike_id": "b5779fe54acaa8f03b2f96878b3e6720", "type": "electric_scooter", "name": "b5779fe54acaa8f03b2f96878b3e6720", "rental_uris": {"android": "https://dc.lft.to/lastmile_qr_scan", "ios": "https://dc.lft.to/lastmile_qr_scan"}, "is_disabled": 0, "fusion_lat": 0.0, "lat": 38.91616966666667, "is_reserved": 0}, {"lon": -77.03534566666667, "fusion_lon": 0.0, "bike_id": "62d868ce857bdba7c77f7123843db0ee", "type": "electric_scooter", "name": "62d868ce857bdba7c77f7123843db0ee", "rental_uris": {"android": "https://dc.lft.to/lastmile_qr_scan", "ios": "https://dc.lft.to/lastmile_qr_scan"}, "is_disabled": 0, "fusion_lat": 0.0, "lat": 38.925338833333335, "is_reserved": 0}, {"lon": -77.00105116666667, "fusion_lon": 0.0, "bike_id": "26c18686731f53359229438452ab66c5", "type": "electric_scooter", "name": "26c18686731f53359229438452ab66c5", "rental_uris": {"android": "https://dc.lft.to/lastmile_qr_scan", "ios": "https://dc.lft.to/lastmile_qr_scan"}, "is_disabled": 0, "fusion_lat": 0.0, "lat": 38.87362483333333, "is_reserved": 0}, {"lon": -77.07658183333334, "fusion_lon": 0.0, "bike_id": "d13b3610d4372af14fb2574b21d4434b", "type": "electric_scooter", "name": "d13b3610d4372af14fb2574b21d4434b", "rental_uris": {"android": "https://dc.lft.to/lastmile_qr_scan", "ios": "https://dc.lft.to/lastmile_qr_scan"}, "is_disabled": 0, "fusion_lat": 0.0, "lat": 38.943272, "is_reserved": 0}, {"lon": -77.019405, "fusion_lon": 0.0, "bike_id": "6344c6170023c7e2ad1692a0e8fcc673", "type": "electric_scooter", "name": "6344c6170023c7e2ad1692a0e8fcc673", "rental_uris": {"android": "https://dc.lft.to/lastmile_qr_scan", "ios": "https://dc.lft.to/lastmile_qr_scan"}, "is_disabled": 0, "fusion_lat": 0.0, "lat": 38.92418466666667, "is_reserved": 0}, {"lon": -77.03499883333333, "fusion_lon": 0.0, "bike_id": "97a8b5fd0def433c50d02033d95f0b05", "type": "electric_scooter", "name": "97a8b5fd0def433c50d02033d95f0b05", "rental_uris": {"android": "https://dc.lft.to/lastmile_qr_scan", "ios": "https://dc.lft.to/lastmile_qr_scan"}, "is_disabled": 0, "fusion_lat": 0.0, "lat": 38.917057166666666, "is_reserved": 0}, {"lon": -77.00339283333334, "fusion_lon": 0.0, "bike_id": "c56c92e5e313dc2d40fc768454e62218", "type": "electric_scooter", "name": "c56c92e5e313dc2d40fc768454e62218", "rental_uris": {"android": "https://dc.lft.to/lastmile_qr_scan", "ios": "https://dc.lft.to/lastmile_qr_scan"}, "is_disabled": 0, "fusion_lat": 0.0, "lat": 38.8952635, "is_reserved": 0}, {"lon": -77.03203233333333, "fusion_lon": 0.0, "bike_id": "a4c6a882eafb1a2e6d85feee7d5f7639", "type": "electric_scooter", "name": "a4c6a882eafb1a2e6d85feee7d5f7639", "rental_uris": {"android": "https://dc.lft.to/lastmile_qr_scan", "ios": "https://dc.lft.to/lastmile_qr_scan"}, "is_disabled": 0, "fusion_lat": 0.0, "lat": 38.909884, "is_reserved": 0}, {"lon": -77.022723, "fusion_lon": 0.0, "bike_id": "317c4b152b7f56dc5a3c6f56f62bc0dc", "type": "electric_scooter", "name": "317c4b152b7f56dc5a3c6f56f62bc0dc", "rental_uris": {"android": "https://dc.lft.to/lastmile_qr_scan", "ios": "https://dc.lft.to/lastmile_qr_scan"}, "is_disabled": 0, "fusion_lat": 0.0, "lat": 38.895132, "is_reserved": 0}, {"lon": -77.0207555, "fusion_lon": 0.0, "bike_id": "ffd473d493634080b37117b720e1d4d1", "type": "electric_scooter", "name": "ffd473d493634080b37117b720e1d4d1", "rental_uris": {"android": "https://dc.lft.to/lastmile_qr_scan", "ios": "https://dc.lft.to/lastmile_qr_scan"}, "is_disabled": 0, "fusion_lat": 0.0, "lat": 38.92696433333333, "is_reserved": 0}, {"lon": -77.02547233333334, "fusion_lon": 0.0, "bike_id": "3075cf0962158e42efe54ccc80ca8720", "type": "electric_scooter", "name": "3075cf0962158e42efe54ccc80ca8720", "rental_uris": {"android": "https://dc.lft.to/lastmile_qr_scan", "ios": "https://dc.lft.to/lastmile_qr_scan"}, "is_disabled": 0, "fusion_lat": 0.0, "lat": 38.9163515, "is_reserved": 0}, {"lon": -76.9494205, "fusion_lon": 0.0, "bike_id": "39e928d0f029dc8ce848874495cb130a", "type": "electric_scooter", "name": "39e928d0f029dc8ce848874495cb130a", "rental_uris": {"android": "https://dc.lft.to/lastmile_qr_scan", "ios": "https://dc.lft.to/lastmile_qr_scan"}, "is_disabled": 0, "fusion_lat": 0.0, "lat": 38.893604, "is_reserved": 0}, {"lon": -77.01278216666667, "fusion_lon": 0.0, "bike_id": "29f4a66dd90dffdbbc03a71da3ec2f03", "type": "electric_scooter", "name": "29f4a66dd90dffdbbc03a71da3ec2f03", "rental_uris": {"android": "https://dc.lft.to/lastmile_qr_scan", "ios": "https://dc.lft.to/lastmile_qr_scan"}, "is_disabled": 0, "fusion_lat": 0.0, "lat": 38.915585, "is_reserved": 0}, {"lon": -77.1293655, "fusion_lon": 0.0, "bike_id": "0ff48752f4ea8280a88e425695072cf1", "type": "electric_bike", "name": "0ff48752f4ea8280a88e425695072cf1", "rental_uris": {"android": "https://dc.lft.to/lastmile_qr_scan", "ios": "https://dc.lft.to/lastmile_qr_scan"}, "is_disabled": 0, "fusion_lat": 0.0, "lat": 38.86514783333333, "is_reserved": 0}, {"lon": -77.00131333333333, "fusion_lon": 0.0, "bike_id": "831be7cdbd716029f4a5f3921178e2fb", "type": "electric_scooter", "name": "831be7cdbd716029f4a5f3921178e2fb", "rental_uris": {"android": "https://dc.lft.to/lastmile_qr_scan", "ios": "https://dc.lft.to/lastmile_qr_scan"}, "is_disabled": 0, "fusion_lat": 0.0, "lat": 38.87505783333334, "is_reserved": 0}, {"lon": -77.06353283333333, "fusion_lon": 0.0, "bike_id": "52b522a382f0f9311c09ddba383a7760", "type": "electric_scooter", "name": "52b522a382f0f9311c09ddba383a7760", "rental_uris": {"android": "https://dc.lft.to/lastmile_qr_scan", "ios": "https://dc.lft.to/lastmile_qr_scan"}, "is_disabled": 0, "fusion_lat": 0.0, "lat": 38.944407, "is_reserved": 0}, {"lon": -77.002244, "fusion_lon": 0.0, "bike_id": "bc1b0ebf20e602b5247da8388fd6d925", "type": "electric_scooter", "name": "bc1b0ebf20e602b5247da8388fd6d925", "rental_uris": {"android": "https://dc.lft.to/lastmile_qr_scan", "ios": "https://dc.lft.to/lastmile_qr_scan"}, "is_disabled": 0, "fusion_lat": 0.0, "lat": 38.919066666666666, "is_reserved": 0}, {"lon": -77.02186833333333, "fusion_lon": 0.0, "bike_id": "0823a961891999aecf8b38b6d3ddf604", "type": "electric_scooter", "name": "0823a961891999aecf8b38b6d3ddf604", "rental_uris": {"android": "https://dc.lft.to/lastmile_qr_scan", "ios": "https://dc.lft.to/lastmile_qr_scan"}, "is_disabled": 0, "fusion_lat": 0.0, "lat": 38.911040666666665, "is_reserved": 0}, {"lon": -77.03093316666667, "fusion_lon": 0.0, "bike_id": "63b39384818a8975c4b5d02f7caece53", "type": "electric_bike", "name": "63b39384818a8975c4b5d02f7caece53", "rental_uris": {"android": "https://dc.lft.to/lastmile_qr_scan", "ios": "https://dc.lft.to/lastmile_qr_scan"}, "is_disabled": 0, "fusion_lat": 0.0, "lat": 38.922379, "is_reserved": 0}, {"lon": -77.02627016666666, "fusion_lon": 0.0, "bike_id": "54807b71c2a203da1170a32f5e3b9c03", "type": "electric_scooter", "name": "54807b71c2a203da1170a32f5e3b9c03", "rental_uris": {"android": "https://dc.lft.to/lastmile_qr_scan", "ios": "https://dc.lft.to/lastmile_qr_scan"}, "is_disabled": 0, "fusion_lat": 0.0, "lat": 38.9106355, "is_reserved": 0}, {"lon": -77.0076175, "fusion_lon": 0.0, "bike_id": "b52cfb327becd4909dc198aa648f3d38", "type": "electric_scooter", "name": "b52cfb327becd4909dc198aa648f3d38", "rental_uris": {"android": "https://dc.lft.to/lastmile_qr_scan", "ios": "https://dc.lft.to/lastmile_qr_scan"}, "is_disabled": 0, "fusion_lat": 0.0, "lat": 38.91031266666667, "is_reserved": 0}, {"lon": -77.02976333333334, "fusion_lon": 0.0, "bike_id": "50e10803ba222c9f25b721a4b391607e", "type": "electric_scooter", "name": "50e10803ba222c9f25b721a4b391607e", "rental_uris": {"android": "https://dc.lft.to/lastmile_qr_scan", "ios": "https://dc.lft.to/lastmile_qr_scan"}, "is_disabled": 0, "fusion_lat": 0.0, "lat": 38.9306775, "is_reserved": 0}, {"lon": -77.00761916666667, "fusion_lon": 0.0, "bike_id": "3774e1ad0182c54b4f3688d5de749b38", "type": "electric_scooter", "name": "3774e1ad0182c54b4f3688d5de749b38", "rental_uris": {"android": "https://dc.lft.to/lastmile_qr_scan", "ios": "https://dc.lft.to/lastmile_qr_scan"}, "is_disabled": 0, "fusion_lat": 0.0, "lat": 38.949212333333335, "is_reserved": 0}, {"lon": -77.02799066666667, "fusion_lon": 0.0, "bike_id": "d50f3a2e052c24c647ed576e46f3a727", "type": "electric_scooter", "name": "d50f3a2e052c24c647ed576e46f3a727", "rental_uris": {"android": "https://dc.lft.to/lastmile_qr_scan", "ios": "https://dc.lft.to/lastmile_qr_scan"}, "is_disabled": 0, "fusion_lat": 0.0, "lat": 38.9604775, "is_reserved": 0}, {"lon": -77.02420666666667, "fusion_lon": 0.0, "bike_id": "a9eccaa972cda78999f944b5e28b06a2", "type": "electric_scooter", "name": "a9eccaa972cda78999f944b5e28b06a2", "rental_uris": {"android": "https://dc.lft.to/lastmile_qr_scan", "ios": "https://dc.lft.to/lastmile_qr_scan"}, "is_disabled": 0, "fusion_lat": 0.0, "lat": 38.9207155, "is_reserved": 0}, {"lon": -77.008124, "fusion_lon": 0.0, "bike_id": "202580e776234c24a76866a769ed190c", "type": "electric_scooter", "name": "202580e776234c24a76866a769ed190c", "rental_uris": {"android": "https://dc.lft.to/lastmile_qr_scan", "ios": "https://dc.lft.to/lastmile_qr_scan"}, "is_disabled": 0, "fusion_lat": 0.0, "lat": 38.83164166666667, "is_reserved": 0}, {"lon": -77.03218983333333, "fusion_lon": 0.0, "bike_id": "8990580c5e912234f2018c8a6c3e833a", "type": "electric_scooter", "name": "8990580c5e912234f2018c8a6c3e833a", "rental_uris": {"android": "https://dc.lft.to/lastmile_qr_scan", "ios": "https://dc.lft.to/lastmile_qr_scan"}, "is_disabled": 0, "fusion_lat": 0.0, "lat": 38.91403, "is_reserved": 0}, {"lon": -77.02713833333334, "fusion_lon": 0.0, "bike_id": "81b8036893437c30b756e1e6a01d5ea6", "type": "electric_scooter", "name": "81b8036893437c30b756e1e6a01d5ea6", "rental_uris": {"android": "https://dc.lft.to/lastmile_qr_scan", "ios": "https://dc.lft.to/lastmile_qr_scan"}, "is_disabled": 0, "fusion_lat": 0.0, "lat": 38.907901, "is_reserved": 0}, {"lon": -77.035589, "fusion_lon": 0.0, "bike_id": "b1a8b094bf21d76f1efa5efa196cac3b", "type": "electric_scooter", "name": "b1a8b094bf21d76f1efa5efa196cac3b", "rental_uris": {"android": "https://dc.lft.to/lastmile_qr_scan", "ios": "https://dc.lft.to/lastmile_qr_scan"}, "is_disabled": 0, "fusion_lat": 0.0, "lat": 38.918684166666665, "is_reserved": 0}, {"lon": -76.90420233333333, "fusion_lon": 0.0, "bike_id": "5c26a69e50c7d464b61572d8899f9c07", "type": "electric_bike", "name": "5c26a69e50c7d464b61572d8899f9c07", "rental_uris": {"android": "https://dc.lft.to/lastmile_qr_scan", "ios": "https://dc.lft.to/lastmile_qr_scan"}, "is_disabled": 0, "fusion_lat": 0.0, "lat": 38.940515833333336, "is_reserved": 0}, {"lon": -77.05256166666666, "fusion_lon": 0.0, "bike_id": "030c97ccb29f6d780b41c36062fa5ba4", "type": "electric_scooter", "name": "030c97ccb29f6d780b41c36062fa5ba4", "rental_uris": {"android": "https://dc.lft.to/lastmile_qr_scan", "ios": "https://dc.lft.to/lastmile_qr_scan"}, "is_disabled": 0, "fusion_lat": 0.0, "lat": 38.923867333333334, "is_reserved": 0}, {"lon": -77.0453145, "fusion_lon": 0.0, "bike_id": "dddaac09bfb1e1f30002e76e2000df9f", "type": "electric_scooter", "name": "dddaac09bfb1e1f30002e76e2000df9f", "rental_uris": {"android": "https://dc.lft.to/lastmile_qr_scan", "ios": "https://dc.lft.to/lastmile_qr_scan"}, "is_disabled": 0, "fusion_lat": 0.0, "lat": 38.8947505, "is_reserved": 0}, {"lon": -77.03817033333333, "fusion_lon": 0.0, "bike_id": "313ef9310afecde3b228011095f16772", "type": "electric_scooter", "name": "313ef9310afecde3b228011095f16772", "rental_uris": {"android": "https://dc.lft.to/lastmile_qr_scan", "ios": "https://dc.lft.to/lastmile_qr_scan"}, "is_disabled": 0, "fusion_lat": 0.0, "lat": 38.90322916666667, "is_reserved": 0}, {"lon": -77.03146516666666, "fusion_lon": 0.0, "bike_id": "59ad33941dcf52129448ca0ff1da7742", "type": "electric_scooter", "name": "59ad33941dcf52129448ca0ff1da7742", "rental_uris": {"android": "https://dc.lft.to/lastmile_qr_scan", "ios": "https://dc.lft.to/lastmile_qr_scan"}, "is_disabled": 0, "fusion_lat": 0.0, "lat": 38.91269, "is_reserved": 0}, {"lon": -77.03272133333333, "fusion_lon": 0.0, "bike_id": "3c106e359ffb7b94ab048a3a7775aa26", "type": "electric_scooter", "name": "3c106e359ffb7b94ab048a3a7775aa26", "rental_uris": {"android": "https://dc.lft.to/lastmile_qr_scan", "ios": "https://dc.lft.to/lastmile_qr_scan"}, "is_disabled": 0, "fusion_lat": 0.0, "lat": 38.897222, "is_reserved": 0}, {"lon": -77.02296083333333, "fusion_lon": 0.0, "bike_id": "aec14fd610d124ce6d74b6ca1f88df10", "type": "electric_scooter", "name": "aec14fd610d124ce6d74b6ca1f88df10", "rental_uris": {"android": "https://dc.lft.to/lastmile_qr_scan", "ios": "https://dc.lft.to/lastmile_qr_scan"}, "is_disabled": 0, "fusion_lat": 0.0, "lat": 38.916751833333336, "is_reserved": 0}, {"lon": -77.0270895, "fusion_lon": 0.0, "bike_id": "774bd7b2cdcdfe92dfc768a7559654ed", "type": "electric_scooter", "name": "774bd7b2cdcdfe92dfc768a7559654ed", "rental_uris": {"android": "https://dc.lft.to/lastmile_qr_scan", "ios": "https://dc.lft.to/lastmile_qr_scan"}, "is_disabled": 0, "fusion_lat": 0.0, "lat": 38.91719533333333, "is_reserved": 0}, {"lon": -76.93733133333333, "fusion_lon": 0.0, "bike_id": "92278676a21554358c32de8ec29f1a2a", "type": "electric_scooter", "name": "92278676a21554358c32de8ec29f1a2a", "rental_uris": {"android": "https://dc.lft.to/lastmile_qr_scan", "ios": "https://dc.lft.to/lastmile_qr_scan"}, "is_disabled": 0, "fusion_lat": 0.0, "lat": 38.89018683333333, "is_reserved": 0}, {"lon": -76.96013883333333, "fusion_lon": 0.0, "bike_id": "f3ed8fb880c3d56a11efa49d721ee2a5", "type": "electric_scooter", "name": "f3ed8fb880c3d56a11efa49d721ee2a5", "rental_uris": {"android": "https://dc.lft.to/lastmile_qr_scan", "ios": "https://dc.lft.to/lastmile_qr_scan"}, "is_disabled": 0, "fusion_lat": 0.0, "lat": 38.8693245, "is_reserved": 0}, {"lon": -77.03879066666667, "fusion_lon": 0.0, "bike_id": "9828a5748eae4db98ad00d635342bb65", "type": "electric_scooter", "name": "9828a5748eae4db98ad00d635342bb65", "rental_uris": {"android": "https://dc.lft.to/lastmile_qr_scan", "ios": "https://dc.lft.to/lastmile_qr_scan"}, "is_disabled": 0, "fusion_lat": 0.0, "lat": 38.91704416666666, "is_reserved": 0}, {"lon": -76.9834915, "fusion_lon": 0.0, "bike_id": "dd658cb9a41d58c03e7bad79c8ba241c", "type": "electric_bike", "name": "dd658cb9a41d58c03e7bad79c8ba241c", "rental_uris": {"android": "https://dc.lft.to/lastmile_qr_scan", "ios": "https://dc.lft.to/lastmile_qr_scan"}, "is_disabled": 0, "fusion_lat": 0.0, "lat": 38.862638, "is_reserved": 0}, {"lon": -77.03427483333333, "fusion_lon": 0.0, "bike_id": "bf11df08cbe42a4a3cfbbfeda9143ec7", "type": "electric_scooter", "name": "bf11df08cbe42a4a3cfbbfeda9143ec7", "rental_uris": {"android": "https://dc.lft.to/lastmile_qr_scan", "ios": "https://dc.lft.to/lastmile_qr_scan"}, "is_disabled": 0, "fusion_lat": 0.0, "lat": 38.927383, "is_reserved": 0}, {"lon": -77.03411283333334, "fusion_lon": 0.0, "bike_id": "bfd7b37637f88cae4b3c0a6f5507a84d", "type": "electric_scooter", "name": "bfd7b37637f88cae4b3c0a6f5507a84d", "rental_uris": {"android": "https://dc.lft.to/lastmile_qr_scan", "ios": "https://dc.lft.to/lastmile_qr_scan"}, "is_disabled": 0, "fusion_lat": 0.0, "lat": 38.9231805, "is_reserved": 0}, {"lon": -77.03440083333334, "fusion_lon": 0.0, "bike_id": "420e2bf19d0f2f7d5fd509a3ec463a9c", "type": "electric_scooter", "name": "420e2bf19d0f2f7d5fd509a3ec463a9c", "rental_uris": {"android": "https://dc.lft.to/lastmile_qr_scan", "ios": "https://dc.lft.to/lastmile_qr_scan"}, "is_disabled": 0, "fusion_lat": 0.0, "lat": 38.91796816666667, "is_reserved": 0}, {"lon": -77.03204533333333, "fusion_lon": 0.0, "bike_id": "46a7d25b1d3d780c4557509d5ebe74d1", "type": "electric_scooter", "name": "46a7d25b1d3d780c4557509d5ebe74d1", "rental_uris": {"android": "https://dc.lft.to/lastmile_qr_scan", "ios": "https://dc.lft.to/lastmile_qr_scan"}, "is_disabled": 0, "fusion_lat": 0.0, "lat": 38.9278515, "is_reserved": 0}, {"lon": -77.04946216666667, "fusion_lon": 0.0, "bike_id": "c0a74ef41c8801da0e452d4169b11aeb", "type": "electric_bike", "name": "c0a74ef41c8801da0e452d4169b11aeb", "rental_uris": {"android": "https://dc.lft.to/lastmile_qr_scan", "ios": "https://dc.lft.to/lastmile_qr_scan"}, "is_disabled": 0, "fusion_lat": 0.0, "lat": 38.854737, "is_reserved": 0}, {"lon": -77.024982, "fusion_lon": 0.0, "bike_id": "cb4942b32cffbad67c9a70de2cad477d", "type": "electric_scooter", "name": "cb4942b32cffbad67c9a70de2cad477d", "rental_uris": {"android": "https://dc.lft.to/lastmile_qr_scan", "ios": "https://dc.lft.to/lastmile_qr_scan"}, "is_disabled": 0, "fusion_lat": 0.0, "lat": 38.940935333333336, "is_reserved": 0}, {"lon": -77.03916883333333, "fusion_lon": 0.0, "bike_id": "66e1cac239c74c82cbd71062a482bf13", "type": "electric_scooter", "name": "66e1cac239c74c82cbd71062a482bf13", "rental_uris": {"android": "https://dc.lft.to/lastmile_qr_scan", "ios": "https://dc.lft.to/lastmile_qr_scan"}, "is_disabled": 0, "fusion_lat": 0.0, "lat": 38.90479633333333, "is_reserved": 0}, {"lon": -77.0382755, "fusion_lon": 0.0, "bike_id": "ee82a458338e21f8dbd399bec58ebca8", "type": "electric_scooter", "name": "ee82a458338e21f8dbd399bec58ebca8", "rental_uris": {"android": "https://dc.lft.to/lastmile_qr_scan", "ios": "https://dc.lft.to/lastmile_qr_scan"}, "is_disabled": 0, "fusion_lat": 0.0, "lat": 38.91507816666667, "is_reserved": 0}, {"lon": -77.04028216666667, "fusion_lon": 0.0, "bike_id": "4850b4ecddd24db27339598a7fbc8694", "type": "electric_scooter", "name": "4850b4ecddd24db27339598a7fbc8694", "rental_uris": {"android": "https://dc.lft.to/lastmile_qr_scan", "ios": "https://dc.lft.to/lastmile_qr_scan"}, "is_disabled": 0, "fusion_lat": 0.0, "lat": 38.896711333333336, "is_reserved": 0}, {"lon": -77.02373966666667, "fusion_lon": 0.0, "bike_id": "6f169ab16800f5515f6a622a35ebb18f", "type": "electric_scooter", "name": "6f169ab16800f5515f6a622a35ebb18f", "rental_uris": {"android": "https://dc.lft.to/lastmile_qr_scan", "ios": "https://dc.lft.to/lastmile_qr_scan"}, "is_disabled": 0, "fusion_lat": 0.0, "lat": 38.93745466666667, "is_reserved": 0}, {"lon": -77.0249445, "fusion_lon": 0.0, "bike_id": "dbba86edaa4ddb7fa3764637b00c07c4", "type": "electric_scooter", "name": "dbba86edaa4ddb7fa3764637b00c07c4", "rental_uris": {"android": "https://dc.lft.to/lastmile_qr_scan", "ios": "https://dc.lft.to/lastmile_qr_scan"}, "is_disabled": 0, "fusion_lat": 0.0, "lat": 38.91709266666667, "is_reserved": 0}, {"lon": -77.04584766666666, "fusion_lon": 0.0, "bike_id": "a93cc79844e18393ed0ecaabbc761b2a", "type": "electric_scooter", "name": "a93cc79844e18393ed0ecaabbc761b2a", "rental_uris": {"android": "https://dc.lft.to/lastmile_qr_scan", "ios": "https://dc.lft.to/lastmile_qr_scan"}, "is_disabled": 0, "fusion_lat": 0.0, "lat": 38.92130816666667, "is_reserved": 0}, {"lon": -76.99033, "fusion_lon": 0.0, "bike_id": "73b8c82320b0742e1fa6a8a05cf7b6cf", "type": "electric_scooter", "name": "73b8c82320b0742e1fa6a8a05cf7b6cf", "rental_uris": {"android": "https://dc.lft.to/lastmile_qr_scan", "ios": "https://dc.lft.to/lastmile_qr_scan"}, "is_disabled": 0, "fusion_lat": 0.0, "lat": 38.89855033333333, "is_reserved": 0}, {"lon": -77.02661416666666, "fusion_lon": 0.0, "bike_id": "e239bbbccf2dc25908b804d3456f8ddb", "type": "electric_scooter", "name": "e239bbbccf2dc25908b804d3456f8ddb", "rental_uris": {"android": "https://dc.lft.to/lastmile_qr_scan", "ios": "https://dc.lft.to/lastmile_qr_scan"}, "is_disabled": 0, "fusion_lat": 0.0, "lat": 38.93103, "is_reserved": 0}, {"lon": -77.03180733333333, "fusion_lon": 0.0, "bike_id": "818855f4e9a3279ba99615d9d3d50241", "type": "electric_scooter", "name": "818855f4e9a3279ba99615d9d3d50241", "rental_uris": {"android": "https://dc.lft.to/lastmile_qr_scan", "ios": "https://dc.lft.to/lastmile_qr_scan"}, "is_disabled": 0, "fusion_lat": 0.0, "lat": 38.9155425, "is_reserved": 0}, {"lon": -77.02515266666667, "fusion_lon": 0.0, "bike_id": "6171f37938d1d52822e1af2251f6c0fc", "type": "electric_scooter", "name": "6171f37938d1d52822e1af2251f6c0fc", "rental_uris": {"android": "https://dc.lft.to/lastmile_qr_scan", "ios": "https://dc.lft.to/lastmile_qr_scan"}, "is_disabled": 0, "fusion_lat": 0.0, "lat": 38.93947633333333, "is_reserved": 0}, {"lon": -76.999059, "fusion_lon": 0.0, "bike_id": "7a51c67d72d7d6787fcb40befc2de99b", "type": "electric_scooter", "name": "7a51c67d72d7d6787fcb40befc2de99b", "rental_uris": {"android": "https://dc.lft.to/lastmile_qr_scan", "ios": "https://dc.lft.to/lastmile_qr_scan"}, "is_disabled": 0, "fusion_lat": 0.0, "lat": 38.932147666666665, "is_reserved": 0}, {"lon": -77.03451066666666, "fusion_lon": 0.0, "bike_id": "b12a8ac545e494c747de134bbb7fa343", "type": "electric_scooter", "name": "b12a8ac545e494c747de134bbb7fa343", "rental_uris": {"android": "https://dc.lft.to/lastmile_qr_scan", "ios": "https://dc.lft.to/lastmile_qr_scan"}, "is_disabled": 0, "fusion_lat": 0.0, "lat": 38.907293333333335, "is_reserved": 0}, {"lon": -77.04219933333333, "fusion_lon": 0.0, "bike_id": "1ceb9af7f36af1e5be8c21e142694154", "type": "electric_scooter", "name": "1ceb9af7f36af1e5be8c21e142694154", "rental_uris": {"android": "https://dc.lft.to/lastmile_qr_scan", "ios": "https://dc.lft.to/lastmile_qr_scan"}, "is_disabled": 0, "fusion_lat": 0.0, "lat": 38.9110275, "is_reserved": 0}, {"lon": -77.03862933333333, "fusion_lon": 0.0, "bike_id": "f63962a990bfd50fa22ee20bad3f24c8", "type": "electric_scooter", "name": "f63962a990bfd50fa22ee20bad3f24c8", "rental_uris": {"android": "https://dc.lft.to/lastmile_qr_scan", "ios": "https://dc.lft.to/lastmile_qr_scan"}, "is_disabled": 0, "fusion_lat": 0.0, "lat": 38.916890333333335, "is_reserved": 0}, {"lon": -77.04675333333333, "fusion_lon": 0.0, "bike_id": "55661c01146a6319586ffe4e43379c63", "type": "electric_scooter", "name": "55661c01146a6319586ffe4e43379c63", "rental_uris": {"android": "https://dc.lft.to/lastmile_qr_scan", "ios": "https://dc.lft.to/lastmile_qr_scan"}, "is_disabled": 0, "fusion_lat": 0.0, "lat": 38.89556483333333, "is_reserved": 0}, {"lon": -77.0533525, "fusion_lon": 0.0, "bike_id": "119047129b4c87c82e82bfee11b5782a", "type": "electric_bike", "name": "119047129b4c87c82e82bfee11b5782a", "rental_uris": {"android": "https://dc.lft.to/lastmile_qr_scan", "ios": "https://dc.lft.to/lastmile_qr_scan"}, "is_disabled": 0, "fusion_lat": 0.0, "lat": 39.0408085, "is_reserved": 0}, {"lon": -76.9509525, "fusion_lon": 0.0, "bike_id": "d230d634268c2e3acfea1124d64fd209", "type": "electric_scooter", "name": "d230d634268c2e3acfea1124d64fd209", "rental_uris": {"android": "https://dc.lft.to/lastmile_qr_scan", "ios": "https://dc.lft.to/lastmile_qr_scan"}, "is_disabled": 0, "fusion_lat": 0.0, "lat": 38.88450683333333, "is_reserved": 0}, {"lon": -77.03830933333333, "fusion_lon": 0.0, "bike_id": "1b25b5be25d6bf9421fd3bfdb028ffc5", "type": "electric_scooter", "name": "1b25b5be25d6bf9421fd3bfdb028ffc5", "rental_uris": {"android": "https://dc.lft.to/lastmile_qr_scan", "ios": "https://dc.lft.to/lastmile_qr_scan"}, "is_disabled": 0, "fusion_lat": 0.0, "lat": 38.911121666666666, "is_reserved": 0}, {"lon": -77.052569, "fusion_lon": 0.0, "bike_id": "473c94a6bb4aff58901078925243b038", "type": "electric_scooter", "name": "473c94a6bb4aff58901078925243b038", "rental_uris": {"android": "https://dc.lft.to/lastmile_qr_scan", "ios": "https://dc.lft.to/lastmile_qr_scan"}, "is_disabled": 0, "fusion_lat": 0.0, "lat": 38.925680666666665, "is_reserved": 0}, {"lon": -77.03348233333334, "fusion_lon": 0.0, "bike_id": "7c5c38cfc6cab3e5176e9fcafe833e0f", "type": "electric_scooter", "name": "7c5c38cfc6cab3e5176e9fcafe833e0f", "rental_uris": {"android": "https://dc.lft.to/lastmile_qr_scan", "ios": "https://dc.lft.to/lastmile_qr_scan"}, "is_disabled": 0, "fusion_lat": 0.0, "lat": 38.9358095, "is_reserved": 0}, {"lon": -77.0115185, "fusion_lon": 0.0, "bike_id": "5d5a0c83eab3b10402ffcf7ee0648576", "type": "electric_scooter", "name": "5d5a0c83eab3b10402ffcf7ee0648576", "rental_uris": {"android": "https://dc.lft.to/lastmile_qr_scan", "ios": "https://dc.lft.to/lastmile_qr_scan"}, "is_disabled": 0, "fusion_lat": 0.0, "lat": 38.9111045, "is_reserved": 0}, {"lon": -77.00203, "fusion_lon": 0.0, "bike_id": "083279d5af1abe26b6fb0e79e0939cf6", "type": "electric_scooter", "name": "083279d5af1abe26b6fb0e79e0939cf6", "rental_uris": {"android": "https://dc.lft.to/lastmile_qr_scan", "ios": "https://dc.lft.to/lastmile_qr_scan"}, "is_disabled": 0, "fusion_lat": 0.0, "lat": 38.908526333333334, "is_reserved": 0}, {"lon": -77.0134665, "fusion_lon": 0.0, "bike_id": "3044b4553bb8b2a174868819c8e12a74", "type": "electric_scooter", "name": "3044b4553bb8b2a174868819c8e12a74", "rental_uris": {"android": "https://dc.lft.to/lastmile_qr_scan", "ios": "https://dc.lft.to/lastmile_qr_scan"}, "is_disabled": 0, "fusion_lat": 0.0, "lat": 38.919122333333334, "is_reserved": 0}, {"lon": -77.02600016666666, "fusion_lon": 0.0, "bike_id": "b206607d345271ca9cb7b9c78158757c", "type": "electric_scooter", "name": "b206607d345271ca9cb7b9c78158757c", "rental_uris": {"android": "https://dc.lft.to/lastmile_qr_scan", "ios": "https://dc.lft.to/lastmile_qr_scan"}, "is_disabled": 0, "fusion_lat": 0.0, "lat": 38.91713383333333, "is_reserved": 0}, {"lon": -77.022946, "fusion_lon": 0.0, "bike_id": "914f372ae363ae89901c7fe45d088e50", "type": "electric_scooter", "name": "914f372ae363ae89901c7fe45d088e50", "rental_uris": {"android": "https://dc.lft.to/lastmile_qr_scan", "ios": "https://dc.lft.to/lastmile_qr_scan"}, "is_disabled": 0, "fusion_lat": 0.0, "lat": 38.90151133333333, "is_reserved": 0}, {"lon": -77.012257, "fusion_lon": 0.0, "bike_id": "df55eddb240a325e98ba303e2e0463ef", "type": "electric_scooter", "name": "df55eddb240a325e98ba303e2e0463ef", "rental_uris": {"android": "https://dc.lft.to/lastmile_qr_scan", "ios": "https://dc.lft.to/lastmile_qr_scan"}, "is_disabled": 0, "fusion_lat": 0.0, "lat": 38.914044, "is_reserved": 0}, {"lon": -77.04669983333334, "fusion_lon": 0.0, "bike_id": "fdd47e32daa4cc2e7fbdee08b8786be9", "type": "electric_scooter", "name": "fdd47e32daa4cc2e7fbdee08b8786be9", "rental_uris": {"android": "https://dc.lft.to/lastmile_qr_scan", "ios": "https://dc.lft.to/lastmile_qr_scan"}, "is_disabled": 0, "fusion_lat": 0.0, "lat": 38.9141845, "is_reserved": 0}, {"lon": -77.02240966666666, "fusion_lon": 0.0, "bike_id": "04dacc28f733682a9ac0656ec0d892c8", "type": "electric_scooter", "name": "04dacc28f733682a9ac0656ec0d892c8", "rental_uris": {"android": "https://dc.lft.to/lastmile_qr_scan", "ios": "https://dc.lft.to/lastmile_qr_scan"}, "is_disabled": 0, "fusion_lat": 0.0, "lat": 38.891933, "is_reserved": 0}, {"lon": -77.044721, "fusion_lon": 0.0, "bike_id": "b930e8bf5d495a555c062ca0bbf89d2e", "type": "electric_scooter", "name": "b930e8bf5d495a555c062ca0bbf89d2e", "rental_uris": {"android": "https://dc.lft.to/lastmile_qr_scan", "ios": "https://dc.lft.to/lastmile_qr_scan"}, "is_disabled": 0, "fusion_lat": 0.0, "lat": 38.90914333333333, "is_reserved": 0}, {"lon": -76.985, "fusion_lon": 0.0, "bike_id": "70403febe41973345dc86c3c7fa6c75f", "type": "electric_scooter", "name": "70403febe41973345dc86c3c7fa6c75f", "rental_uris": {"android": "https://dc.lft.to/lastmile_qr_scan", "ios": "https://dc.lft.to/lastmile_qr_scan"}, "is_disabled": 0, "fusion_lat": 0.0, "lat": 38.91332633333333, "is_reserved": 0}, {"lon": -77.026536, "fusion_lon": 0.0, "bike_id": "d75f8237cc1518df6353c6645f603c20", "type": "electric_scooter", "name": "d75f8237cc1518df6353c6645f603c20", "rental_uris": {"android": "https://dc.lft.to/lastmile_qr_scan", "ios": "https://dc.lft.to/lastmile_qr_scan"}, "is_disabled": 0, "fusion_lat": 0.0, "lat": 38.88114916666667, "is_reserved": 0}, {"lon": -77.02486616666667, "fusion_lon": 0.0, "bike_id": "211ae9d23959c05bdcf62cda834ab9f1", "type": "electric_scooter", "name": "211ae9d23959c05bdcf62cda834ab9f1", "rental_uris": {"android": "https://dc.lft.to/lastmile_qr_scan", "ios": "https://dc.lft.to/lastmile_qr_scan"}, "is_disabled": 0, "fusion_lat": 0.0, "lat": 38.938834166666666, "is_reserved": 0}, {"lon": -77.03498666666667, "fusion_lon": 0.0, "bike_id": "68adf26b2caad3c8a5fbe4eb53eea48e", "type": "electric_scooter", "name": "68adf26b2caad3c8a5fbe4eb53eea48e", "rental_uris": {"android": "https://dc.lft.to/lastmile_qr_scan", "ios": "https://dc.lft.to/lastmile_qr_scan"}, "is_disabled": 0, "fusion_lat": 0.0, "lat": 38.931645, "is_reserved": 0}, {"lon": -76.99552216666666, "fusion_lon": 0.0, "bike_id": "453632eb3f4ad9c6f915804c5e52e4ca", "type": "electric_scooter", "name": "453632eb3f4ad9c6f915804c5e52e4ca", "rental_uris": {"android": "https://dc.lft.to/lastmile_qr_scan", "ios": "https://dc.lft.to/lastmile_qr_scan"}, "is_disabled": 0, "fusion_lat": 0.0, "lat": 38.88421566666667, "is_reserved": 0}, {"lon": -77.00796033333333, "fusion_lon": 0.0, "bike_id": "ee211dd8a188b1e12b7e8e5319e60cef", "type": "electric_scooter", "name": "ee211dd8a188b1e12b7e8e5319e60cef", "rental_uris": {"android": "https://dc.lft.to/lastmile_qr_scan", "ios": "https://dc.lft.to/lastmile_qr_scan"}, "is_disabled": 0, "fusion_lat": 0.0, "lat": 38.915626333333336, "is_reserved": 0}, {"lon": -77.0248695, "fusion_lon": 0.0, "bike_id": "bc689388ab245cedc55fbc31b1989510", "type": "electric_scooter", "name": "bc689388ab245cedc55fbc31b1989510", "rental_uris": {"android": "https://dc.lft.to/lastmile_qr_scan", "ios": "https://dc.lft.to/lastmile_qr_scan"}, "is_disabled": 0, "fusion_lat": 0.0, "lat": 38.91930033333333, "is_reserved": 0}, {"lon": -76.99658533333333, "fusion_lon": 0.0, "bike_id": "4109ef4dbf47a76b7b6ad10a89197b2e", "type": "electric_scooter", "name": "4109ef4dbf47a76b7b6ad10a89197b2e", "rental_uris": {"android": "https://dc.lft.to/lastmile_qr_scan", "ios": "https://dc.lft.to/lastmile_qr_scan"}, "is_disabled": 0, "fusion_lat": 0.0, "lat": 38.86007983333333, "is_reserved": 0}, {"lon": -77.022819, "fusion_lon": 0.0, "bike_id": "55621b03f3df137642e4a86d192cb766", "type": "electric_scooter", "name": "55621b03f3df137642e4a86d192cb766", "rental_uris": {"android": "https://dc.lft.to/lastmile_qr_scan", "ios": "https://dc.lft.to/lastmile_qr_scan"}, "is_disabled": 0, "fusion_lat": 0.0, "lat": 38.90850283333333, "is_reserved": 0}, {"lon": -77.02695383333334, "fusion_lon": 0.0, "bike_id": "7bc4e549f2d95367c3a3aa2754c0f1d9", "type": "electric_scooter", "name": "7bc4e549f2d95367c3a3aa2754c0f1d9", "rental_uris": {"android": "https://dc.lft.to/lastmile_qr_scan", "ios": "https://dc.lft.to/lastmile_qr_scan"}, "is_disabled": 0, "fusion_lat": 0.0, "lat": 38.908398, "is_reserved": 0}, {"lon": -77.02960766666666, "fusion_lon": 0.0, "bike_id": "6827ad5b96b2e98df61919caf8f4590b", "type": "electric_scooter", "name": "6827ad5b96b2e98df61919caf8f4590b", "rental_uris": {"android": "https://dc.lft.to/lastmile_qr_scan", "ios": "https://dc.lft.to/lastmile_qr_scan"}, "is_disabled": 0, "fusion_lat": 0.0, "lat": 38.92326383333333, "is_reserved": 0}, {"lon": -77.02602383333333, "fusion_lon": 0.0, "bike_id": "bb91271c99f16725d8c5f5810a3b6683", "type": "electric_scooter", "name": "bb91271c99f16725d8c5f5810a3b6683", "rental_uris": {"android": "https://dc.lft.to/lastmile_qr_scan", "ios": "https://dc.lft.to/lastmile_qr_scan"}, "is_disabled": 0, "fusion_lat": 0.0, "lat": 38.9284615, "is_reserved": 0}, {"lon": -76.98593966666667, "fusion_lon": 0.0, "bike_id": "3b31cb2b1afa4ef2dd4c56b91bf2b28e", "type": "electric_scooter", "name": "3b31cb2b1afa4ef2dd4c56b91bf2b28e", "rental_uris": {"android": "https://dc.lft.to/lastmile_qr_scan", "ios": "https://dc.lft.to/lastmile_qr_scan"}, "is_disabled": 0, "fusion_lat": 0.0, "lat": 38.88415666666667, "is_reserved": 0}, {"lon": -76.9333915, "fusion_lon": 0.0, "bike_id": "8220d906dd59d8f83c88fc033a2689ae", "type": "electric_scooter", "name": "8220d906dd59d8f83c88fc033a2689ae", "rental_uris": {"android": "https://dc.lft.to/lastmile_qr_scan", "ios": "https://dc.lft.to/lastmile_qr_scan"}, "is_disabled": 0, "fusion_lat": 0.0, "lat": 38.90868483333333, "is_reserved": 0}, {"lon": -77.00174216666667, "fusion_lon": 0.0, "bike_id": "33e3d63950e9c45948fe2bae75a45ee9", "type": "electric_scooter", "name": "33e3d63950e9c45948fe2bae75a45ee9", "rental_uris": {"android": "https://dc.lft.to/lastmile_qr_scan", "ios": "https://dc.lft.to/lastmile_qr_scan"}, "is_disabled": 0, "fusion_lat": 0.0, "lat": 38.90731616666667, "is_reserved": 0}, {"lon": -77.00059316666666, "fusion_lon": 0.0, "bike_id": "891192e8e4a100b3353b50cdd7ad547e", "type": "electric_scooter", "name": "891192e8e4a100b3353b50cdd7ad547e", "rental_uris": {"android": "https://dc.lft.to/lastmile_qr_scan", "ios": "https://dc.lft.to/lastmile_qr_scan"}, "is_disabled": 0, "fusion_lat": 0.0, "lat": 38.875333, "is_reserved": 0}, {"lon": -77.05043783333333, "fusion_lon": 0.0, "bike_id": "eec1843a06050b9b839b50d621ff4390", "type": "electric_scooter", "name": "eec1843a06050b9b839b50d621ff4390", "rental_uris": {"android": "https://dc.lft.to/lastmile_qr_scan", "ios": "https://dc.lft.to/lastmile_qr_scan"}, "is_disabled": 0, "fusion_lat": 0.0, "lat": 38.92365216666666, "is_reserved": 0}, {"lon": -77.00590283333334, "fusion_lon": 0.0, "bike_id": "88181f6eb10ab7194f3019baebac8c99", "type": "electric_scooter", "name": "88181f6eb10ab7194f3019baebac8c99", "rental_uris": {"android": "https://dc.lft.to/lastmile_qr_scan", "ios": "https://dc.lft.to/lastmile_qr_scan"}, "is_disabled": 0, "fusion_lat": 0.0, "lat": 38.905651166666665, "is_reserved": 0}, {"lon": -77.0078575, "fusion_lon": 0.0, "bike_id": "78e06898f3333008162ff36f927f99f4", "type": "electric_scooter", "name": "78e06898f3333008162ff36f927f99f4", "rental_uris": {"android": "https://dc.lft.to/lastmile_qr_scan", "ios": "https://dc.lft.to/lastmile_qr_scan"}, "is_disabled": 0, "fusion_lat": 0.0, "lat": 38.905700833333334, "is_reserved": 0}, {"lon": -76.93559166666667, "fusion_lon": 0.0, "bike_id": "16d2cd968cab5168b9d1f00d81ec6eaf", "type": "electric_scooter", "name": "16d2cd968cab5168b9d1f00d81ec6eaf", "rental_uris": {"android": "https://dc.lft.to/lastmile_qr_scan", "ios": "https://dc.lft.to/lastmile_qr_scan"}, "is_disabled": 0, "fusion_lat": 0.0, "lat": 38.8826105, "is_reserved": 0}, {"lon": -77.00461983333334, "fusion_lon": 0.0, "bike_id": "c241a134cd39a7572c242027db4e4917", "type": "electric_scooter", "name": "c241a134cd39a7572c242027db4e4917", "rental_uris": {"android": "https://dc.lft.to/lastmile_qr_scan", "ios": "https://dc.lft.to/lastmile_qr_scan"}, "is_disabled": 0, "fusion_lat": 0.0, "lat": 38.876620333333335, "is_reserved": 0}, {"lon": -77.03661033333333, "fusion_lon": 0.0, "bike_id": "b03353fa88e1eb3c0031750f70f2e8fd", "type": "electric_scooter", "name": "b03353fa88e1eb3c0031750f70f2e8fd", "rental_uris": {"android": "https://dc.lft.to/lastmile_qr_scan", "ios": "https://dc.lft.to/lastmile_qr_scan"}, "is_disabled": 0, "fusion_lat": 0.0, "lat": 38.9080265, "is_reserved": 0}, {"lon": -77.07281966666666, "fusion_lon": 0.0, "bike_id": "1e1e5df94ca4b12b3c72f4113db21b03", "type": "electric_scooter", "name": "1e1e5df94ca4b12b3c72f4113db21b03", "rental_uris": {"android": "https://dc.lft.to/lastmile_qr_scan", "ios": "https://dc.lft.to/lastmile_qr_scan"}, "is_disabled": 0, "fusion_lat": 0.0, "lat": 38.93479333333333, "is_reserved": 0}, {"lon": -77.02354783333334, "fusion_lon": 0.0, "bike_id": "e5f1c8c043e0d087d81f21f9351ccc73", "type": "electric_scooter", "name": "e5f1c8c043e0d087d81f21f9351ccc73", "rental_uris": {"android": "https://dc.lft.to/lastmile_qr_scan", "ios": "https://dc.lft.to/lastmile_qr_scan"}, "is_disabled": 0, "fusion_lat": 0.0, "lat": 38.9353405, "is_reserved": 0}, {"lon": -76.98543283333333, "fusion_lon": 0.0, "bike_id": "69d2eedccce4d9ebcf8f123226665bc3", "type": "electric_scooter", "name": "69d2eedccce4d9ebcf8f123226665bc3", "rental_uris": {"android": "https://dc.lft.to/lastmile_qr_scan", "ios": "https://dc.lft.to/lastmile_qr_scan"}, "is_disabled": 0, "fusion_lat": 0.0, "lat": 38.86687933333333, "is_reserved": 0}, {"lon": -77.03959766666667, "fusion_lon": 0.0, "bike_id": "87e07d523ad150607fe42848fb25a044", "type": "electric_scooter", "name": "87e07d523ad150607fe42848fb25a044", "rental_uris": {"android": "https://dc.lft.to/lastmile_qr_scan", "ios": "https://dc.lft.to/lastmile_qr_scan"}, "is_disabled": 0, "fusion_lat": 0.0, "lat": 38.917093666666666, "is_reserved": 0}, {"lon": -77.03322516666667, "fusion_lon": 0.0, "bike_id": "eb404700ab2866cb126885163b96edfc", "type": "electric_scooter", "name": "eb404700ab2866cb126885163b96edfc", "rental_uris": {"android": "https://dc.lft.to/lastmile_qr_scan", "ios": "https://dc.lft.to/lastmile_qr_scan"}, "is_disabled": 0, "fusion_lat": 0.0, "lat": 38.8900905, "is_reserved": 0}, {"lon": -77.01641016666666, "fusion_lon": 0.0, "bike_id": "889f04e728dfb8ed992645a00a3bd432", "type": "electric_scooter", "name": "889f04e728dfb8ed992645a00a3bd432", "rental_uris": {"android": "https://dc.lft.to/lastmile_qr_scan", "ios": "https://dc.lft.to/lastmile_qr_scan"}, "is_disabled": 0, "fusion_lat": 0.0, "lat": 38.88130783333333, "is_reserved": 0}, {"lon": -77.03077216666667, "fusion_lon": 0.0, "bike_id": "609471083505d93ff6eee09154f87771", "type": "electric_scooter", "name": "609471083505d93ff6eee09154f87771", "rental_uris": {"android": "https://dc.lft.to/lastmile_qr_scan", "ios": "https://dc.lft.to/lastmile_qr_scan"}, "is_disabled": 0, "fusion_lat": 0.0, "lat": 38.92246316666667, "is_reserved": 0}, {"lon": -77.00072366666667, "fusion_lon": 0.0, "bike_id": "c9b476ff367a86e8fbec54e39d69d8d8", "type": "electric_scooter", "name": "c9b476ff367a86e8fbec54e39d69d8d8", "rental_uris": {"android": "https://dc.lft.to/lastmile_qr_scan", "ios": "https://dc.lft.to/lastmile_qr_scan"}, "is_disabled": 0, "fusion_lat": 0.0, "lat": 38.925412666666666, "is_reserved": 0}, {"lon": -76.99692366666666, "fusion_lon": 0.0, "bike_id": "c03ea4bf95fb646fc35f2d0a775e53a6", "type": "electric_scooter", "name": "c03ea4bf95fb646fc35f2d0a775e53a6", "rental_uris": {"android": "https://dc.lft.to/lastmile_qr_scan", "ios": "https://dc.lft.to/lastmile_qr_scan"}, "is_disabled": 0, "fusion_lat": 0.0, "lat": 38.884200666666665, "is_reserved": 0}, {"lon": -77.03734216666666, "fusion_lon": 0.0, "bike_id": "14293da506429b2d3f6ff41eb831b70f", "type": "electric_scooter", "name": "14293da506429b2d3f6ff41eb831b70f", "rental_uris": {"android": "https://dc.lft.to/lastmile_qr_scan", "ios": "https://dc.lft.to/lastmile_qr_scan"}, "is_disabled": 0, "fusion_lat": 0.0, "lat": 38.92881083333333, "is_reserved": 0}, {"lon": -76.94934366666666, "fusion_lon": 0.0, "bike_id": "0de700dc6bbffedbb95dd9fb3838083d", "type": "electric_scooter", "name": "0de700dc6bbffedbb95dd9fb3838083d", "rental_uris": {"android": "https://dc.lft.to/lastmile_qr_scan", "ios": "https://dc.lft.to/lastmile_qr_scan"}, "is_disabled": 0, "fusion_lat": 0.0, "lat": 38.893543, "is_reserved": 0}, {"lon": -76.99729516666666, "fusion_lon": 0.0, "bike_id": "b8236b839837d6b8f3a171289eab6a32", "type": "electric_scooter", "name": "b8236b839837d6b8f3a171289eab6a32", "rental_uris": {"android": "https://dc.lft.to/lastmile_qr_scan", "ios": "https://dc.lft.to/lastmile_qr_scan"}, "is_disabled": 0, "fusion_lat": 0.0, "lat": 38.8993815, "is_reserved": 0}, {"lon": -77.021735, "fusion_lon": 0.0, "bike_id": "e1f22bb8a2aba8ceefc8420f1e54804b", "type": "electric_scooter", "name": "e1f22bb8a2aba8ceefc8420f1e54804b", "rental_uris": {"android": "https://dc.lft.to/lastmile_qr_scan", "ios": "https://dc.lft.to/lastmile_qr_scan"}, "is_disabled": 0, "fusion_lat": 0.0, "lat": 38.942959333333334, "is_reserved": 0}, {"lon": -76.94635383333333, "fusion_lon": 0.0, "bike_id": "8c78e284535933060a4c41388f4c0abd", "type": "electric_scooter", "name": "8c78e284535933060a4c41388f4c0abd", "rental_uris": {"android": "https://dc.lft.to/lastmile_qr_scan", "ios": "https://dc.lft.to/lastmile_qr_scan"}, "is_disabled": 0, "fusion_lat": 0.0, "lat": 38.898344333333334, "is_reserved": 0}, {"lon": -77.10785683333333, "fusion_lon": 0.0, "bike_id": "1ec3c1c6f674d9065ba4ce1e90d0fea8", "type": "electric_bike", "name": "1ec3c1c6f674d9065ba4ce1e90d0fea8", "rental_uris": {"android": "https://dc.lft.to/lastmile_qr_scan", "ios": "https://dc.lft.to/lastmile_qr_scan"}, "is_disabled": 0, "fusion_lat": 0.0, "lat": 38.85251066666667, "is_reserved": 0}, {"lon": -77.031695, "fusion_lon": 0.0, "bike_id": "bf538fb2006234e77194c8db5287951b", "type": "electric_scooter", "name": "bf538fb2006234e77194c8db5287951b", "rental_uris": {"android": "https://dc.lft.to/lastmile_qr_scan", "ios": "https://dc.lft.to/lastmile_qr_scan"}, "is_disabled": 0, "fusion_lat": 0.0, "lat": 38.9191975, "is_reserved": 0}, {"lon": -76.997674, "fusion_lon": 0.0, "bike_id": "2493ae5413816cedfcb0b4d52f638f77", "type": "electric_scooter", "name": "2493ae5413816cedfcb0b4d52f638f77", "rental_uris": {"android": "https://dc.lft.to/lastmile_qr_scan", "ios": "https://dc.lft.to/lastmile_qr_scan"}, "is_disabled": 0, "fusion_lat": 0.0, "lat": 38.908987333333336, "is_reserved": 0}, {"lon": -76.99516783333334, "fusion_lon": 0.0, "bike_id": "dbdca2dea8ca32873562e308e2cc2a28", "type": "electric_bike", "name": "dbdca2dea8ca32873562e308e2cc2a28", "rental_uris": {"android": "https://dc.lft.to/lastmile_qr_scan", "ios": "https://dc.lft.to/lastmile_qr_scan"}, "is_disabled": 0, "fusion_lat": 0.0, "lat": 38.821757166666664, "is_reserved": 0}, {"lon": -77.03446233333334, "fusion_lon": 0.0, "bike_id": "eeee76e2c5532fc8a0105c1029992422", "type": "electric_scooter", "name": "eeee76e2c5532fc8a0105c1029992422", "rental_uris": {"android": "https://dc.lft.to/lastmile_qr_scan", "ios": "https://dc.lft.to/lastmile_qr_scan"}, "is_disabled": 0, "fusion_lat": 0.0, "lat": 38.9097295, "is_reserved": 0}, {"lon": -77.05041833333334, "fusion_lon": 0.0, "bike_id": "528236a77b4ef55a3dd4184604f80161", "type": "electric_scooter", "name": "528236a77b4ef55a3dd4184604f80161", "rental_uris": {"android": "https://dc.lft.to/lastmile_qr_scan", "ios": "https://dc.lft.to/lastmile_qr_scan"}, "is_disabled": 0, "fusion_lat": 0.0, "lat": 38.923393, "is_reserved": 0}, {"lon": -77.04487333333333, "fusion_lon": 0.0, "bike_id": "279ddd95e1b23822d4eb57f671c5b414", "type": "electric_scooter", "name": "279ddd95e1b23822d4eb57f671c5b414", "rental_uris": {"android": "https://dc.lft.to/lastmile_qr_scan", "ios": "https://dc.lft.to/lastmile_qr_scan"}, "is_disabled": 0, "fusion_lat": 0.0, "lat": 38.89953716666667, "is_reserved": 0}, {"lon": -76.9913155, "fusion_lon": 0.0, "bike_id": "07a344c85909ddcb73e7eec124fd7b13", "type": "electric_scooter", "name": "07a344c85909ddcb73e7eec124fd7b13", "rental_uris": {"android": "https://dc.lft.to/lastmile_qr_scan", "ios": "https://dc.lft.to/lastmile_qr_scan"}, "is_disabled": 0, "fusion_lat": 0.0, "lat": 38.846424, "is_reserved": 0}, {"lon": -77.03823416666667, "fusion_lon": 0.0, "bike_id": "7754b48e44b62f7eee7bfd0f85ed5be9", "type": "electric_scooter", "name": "7754b48e44b62f7eee7bfd0f85ed5be9", "rental_uris": {"android": "https://dc.lft.to/lastmile_qr_scan", "ios": "https://dc.lft.to/lastmile_qr_scan"}, "is_disabled": 0, "fusion_lat": 0.0, "lat": 38.904798666666665, "is_reserved": 0}, {"lon": -77.03514516666667, "fusion_lon": 0.0, "bike_id": "03fe714f96033336d4e29e2375a0fc35", "type": "electric_scooter", "name": "03fe714f96033336d4e29e2375a0fc35", "rental_uris": {"android": "https://dc.lft.to/lastmile_qr_scan", "ios": "https://dc.lft.to/lastmile_qr_scan"}, "is_disabled": 0, "fusion_lat": 0.0, "lat": 38.923387166666664, "is_reserved": 0}, {"lon": -77.04254733333333, "fusion_lon": 0.0, "bike_id": "af6cfe8a0f7cee1dc40756f5d4ea8761", "type": "electric_scooter", "name": "af6cfe8a0f7cee1dc40756f5d4ea8761", "rental_uris": {"android": "https://dc.lft.to/lastmile_qr_scan", "ios": "https://dc.lft.to/lastmile_qr_scan"}, "is_disabled": 0, "fusion_lat": 0.0, "lat": 38.90867216666667, "is_reserved": 0}, {"lon": -77.01296583333334, "fusion_lon": 0.0, "bike_id": "a40022b6f6d6e33073616a6fe0dec257", "type": "electric_scooter", "name": "a40022b6f6d6e33073616a6fe0dec257", "rental_uris": {"android": "https://dc.lft.to/lastmile_qr_scan", "ios": "https://dc.lft.to/lastmile_qr_scan"}, "is_disabled": 0, "fusion_lat": 0.0, "lat": 38.90044683333333, "is_reserved": 0}, {"lon": -77.02207283333334, "fusion_lon": 0.0, "bike_id": "119ac8120e240aa7cac5e3a630faea5b", "type": "electric_scooter", "name": "119ac8120e240aa7cac5e3a630faea5b", "rental_uris": {"android": "https://dc.lft.to/lastmile_qr_scan", "ios": "https://dc.lft.to/lastmile_qr_scan"}, "is_disabled": 0, "fusion_lat": 0.0, "lat": 38.915471, "is_reserved": 0}, {"lon": -77.03468783333334, "fusion_lon": 0.0, "bike_id": "8ae68fd17c2ef5eb87e40a46056f2d04", "type": "electric_scooter", "name": "8ae68fd17c2ef5eb87e40a46056f2d04", "rental_uris": {"android": "https://dc.lft.to/lastmile_qr_scan", "ios": "https://dc.lft.to/lastmile_qr_scan"}, "is_disabled": 0, "fusion_lat": 0.0, "lat": 38.917053833333334, "is_reserved": 0}, {"lon": -77.04998683333334, "fusion_lon": 0.0, "bike_id": "2dd96ce10cc550516f63ae1688f34c09", "type": "electric_scooter", "name": "2dd96ce10cc550516f63ae1688f34c09", "rental_uris": {"android": "https://dc.lft.to/lastmile_qr_scan", "ios": "https://dc.lft.to/lastmile_qr_scan"}, "is_disabled": 0, "fusion_lat": 0.0, "lat": 38.89229983333333, "is_reserved": 0}, {"lon": -76.98681233333333, "fusion_lon": 0.0, "bike_id": "d0307f9d4e708e08d7fead5ab4f95dd0", "type": "electric_scooter", "name": "d0307f9d4e708e08d7fead5ab4f95dd0", "rental_uris": {"android": "https://dc.lft.to/lastmile_qr_scan", "ios": "https://dc.lft.to/lastmile_qr_scan"}, "is_disabled": 0, "fusion_lat": 0.0, "lat": 38.912899, "is_reserved": 0}, {"lon": -77.0282315, "fusion_lon": 0.0, "bike_id": "4adb2925bebce11242c49254af8cb5f3", "type": "electric_scooter", "name": "4adb2925bebce11242c49254af8cb5f3", "rental_uris": {"android": "https://dc.lft.to/lastmile_qr_scan", "ios": "https://dc.lft.to/lastmile_qr_scan"}, "is_disabled": 0, "fusion_lat": 0.0, "lat": 38.9306545, "is_reserved": 0}, {"lon": -76.98697633333333, "fusion_lon": 0.0, "bike_id": "bf41dde4858e17f7df3e9548c5497d9e", "type": "electric_scooter", "name": "bf41dde4858e17f7df3e9548c5497d9e", "rental_uris": {"android": "https://dc.lft.to/lastmile_qr_scan", "ios": "https://dc.lft.to/lastmile_qr_scan"}, "is_disabled": 0, "fusion_lat": 0.0, "lat": 38.867228833333336, "is_reserved": 0}, {"lon": -76.9818655, "fusion_lon": 0.0, "bike_id": "87f348d999b8f4e59cbc2644c333d60a", "type": "electric_scooter", "name": "87f348d999b8f4e59cbc2644c333d60a", "rental_uris": {"android": "https://dc.lft.to/lastmile_qr_scan", "ios": "https://dc.lft.to/lastmile_qr_scan"}, "is_disabled": 0, "fusion_lat": 0.0, "lat": 38.8621455, "is_reserved": 0}, {"lon": -77.0028685, "fusion_lon": 0.0, "bike_id": "04c06e09205b67c3c787b854c1e3a5b3", "type": "electric_scooter", "name": "04c06e09205b67c3c787b854c1e3a5b3", "rental_uris": {"android": "https://dc.lft.to/lastmile_qr_scan", "ios": "https://dc.lft.to/lastmile_qr_scan"}, "is_disabled": 0, "fusion_lat": 0.0, "lat": 38.8772625, "is_reserved": 0}, {"lon": -77.04187616666667, "fusion_lon": 0.0, "bike_id": "50b08255eaa05c54204dc72696f1f358", "type": "electric_scooter", "name": "50b08255eaa05c54204dc72696f1f358", "rental_uris": {"android": "https://dc.lft.to/lastmile_qr_scan", "ios": "https://dc.lft.to/lastmile_qr_scan"}, "is_disabled": 0, "fusion_lat": 0.0, "lat": 38.92059733333333, "is_reserved": 0}, {"lon": -76.98143716666667, "fusion_lon": 0.0, "bike_id": "e64d1780613cc2bac318de16ad76b52d", "type": "electric_scooter", "name": "e64d1780613cc2bac318de16ad76b52d", "rental_uris": {"android": "https://dc.lft.to/lastmile_qr_scan", "ios": "https://dc.lft.to/lastmile_qr_scan"}, "is_disabled": 0, "fusion_lat": 0.0, "lat": 38.89746366666667, "is_reserved": 0}, {"lon": -77.00718566666667, "fusion_lon": 0.0, "bike_id": "fe05f60c33b7f99a7530c03aaa6fa019", "type": "electric_scooter", "name": "fe05f60c33b7f99a7530c03aaa6fa019", "rental_uris": {"android": "https://dc.lft.to/lastmile_qr_scan", "ios": "https://dc.lft.to/lastmile_qr_scan"}, "is_disabled": 0, "fusion_lat": 0.0, "lat": 38.92544216666667, "is_reserved": 0}, {"lon": -77.02692266666666, "fusion_lon": 0.0, "bike_id": "114097b124cc475be401081304fdd56f", "type": "electric_scooter", "name": "114097b124cc475be401081304fdd56f", "rental_uris": {"android": "https://dc.lft.to/lastmile_qr_scan", "ios": "https://dc.lft.to/lastmile_qr_scan"}, "is_disabled": 0, "fusion_lat": 0.0, "lat": 38.90683, "is_reserved": 0}, {"lon": -77.01943233333333, "fusion_lon": 0.0, "bike_id": "b47876eac63e5cb57193398e710bc2f2", "type": "electric_scooter", "name": "b47876eac63e5cb57193398e710bc2f2", "rental_uris": {"android": "https://dc.lft.to/lastmile_qr_scan", "ios": "https://dc.lft.to/lastmile_qr_scan"}, "is_disabled": 0, "fusion_lat": 0.0, "lat": 38.92408316666667, "is_reserved": 0}, {"lon": -76.96830433333334, "fusion_lon": 0.0, "bike_id": "9f19d47c65c588748a3a11ed9e9cd136", "type": "electric_scooter", "name": "9f19d47c65c588748a3a11ed9e9cd136", "rental_uris": {"android": "https://dc.lft.to/lastmile_qr_scan", "ios": "https://dc.lft.to/lastmile_qr_scan"}, "is_disabled": 0, "fusion_lat": 0.0, "lat": 38.873346833333336, "is_reserved": 0}, {"lon": -77.00933483333333, "fusion_lon": 0.0, "bike_id": "4c8a2e096b6476bbf2e53505aeb79555", "type": "electric_scooter", "name": "4c8a2e096b6476bbf2e53505aeb79555", "rental_uris": {"android": "https://dc.lft.to/lastmile_qr_scan", "ios": "https://dc.lft.to/lastmile_qr_scan"}, "is_disabled": 0, "fusion_lat": 0.0, "lat": 38.91269, "is_reserved": 0}, {"lon": -77.03251333333333, "fusion_lon": 0.0, "bike_id": "1286f9ce27c8ebd9f0c314c3825271cd", "type": "electric_scooter", "name": "1286f9ce27c8ebd9f0c314c3825271cd", "rental_uris": {"android": "https://dc.lft.to/lastmile_qr_scan", "ios": "https://dc.lft.to/lastmile_qr_scan"}, "is_disabled": 0, "fusion_lat": 0.0, "lat": 38.928944666666666, "is_reserved": 0}, {"lon": -77.04017716666667, "fusion_lon": 0.0, "bike_id": "a921af81399b865b6f1fcfb1b4ba9e9e", "type": "electric_scooter", "name": "a921af81399b865b6f1fcfb1b4ba9e9e", "rental_uris": {"android": "https://dc.lft.to/lastmile_qr_scan", "ios": "https://dc.lft.to/lastmile_qr_scan"}, "is_disabled": 0, "fusion_lat": 0.0, "lat": 38.90326666666667, "is_reserved": 0}, {"lon": -77.00581033333333, "fusion_lon": 0.0, "bike_id": "ca99cdab27c725c7e8d3e9ea8fccb718", "type": "electric_scooter", "name": "ca99cdab27c725c7e8d3e9ea8fccb718", "rental_uris": {"android": "https://dc.lft.to/lastmile_qr_scan", "ios": "https://dc.lft.to/lastmile_qr_scan"}, "is_disabled": 0, "fusion_lat": 0.0, "lat": 38.902707166666666, "is_reserved": 0}, {"lon": -77.03848016666667, "fusion_lon": 0.0, "bike_id": "8b3552282a8c01283c4924877b8e40b1", "type": "electric_scooter", "name": "8b3552282a8c01283c4924877b8e40b1", "rental_uris": {"android": "https://dc.lft.to/lastmile_qr_scan", "ios": "https://dc.lft.to/lastmile_qr_scan"}, "is_disabled": 0, "fusion_lat": 0.0, "lat": 38.91545683333333, "is_reserved": 0}, {"lon": -77.02627016666666, "fusion_lon": 0.0, "bike_id": "aeaef53e4b6dcecf182f4de7f0800f67", "type": "electric_scooter", "name": "aeaef53e4b6dcecf182f4de7f0800f67", "rental_uris": {"android": "https://dc.lft.to/lastmile_qr_scan", "ios": "https://dc.lft.to/lastmile_qr_scan"}, "is_disabled": 0, "fusion_lat": 0.0, "lat": 38.887716166666664, "is_reserved": 0}, {"lon": -77.02405666666667, "fusion_lon": 0.0, "bike_id": "103e941743f3e94abed1f63ea404d713", "type": "electric_scooter", "name": "103e941743f3e94abed1f63ea404d713", "rental_uris": {"android": "https://dc.lft.to/lastmile_qr_scan", "ios": "https://dc.lft.to/lastmile_qr_scan"}, "is_disabled": 0, "fusion_lat": 0.0, "lat": 38.9249435, "is_reserved": 0}, {"lon": -77.07434016666667, "fusion_lon": 0.0, "bike_id": "4fd9327d5a6a4ee673e6778c57216066", "type": "electric_scooter", "name": "4fd9327d5a6a4ee673e6778c57216066", "rental_uris": {"android": "https://dc.lft.to/lastmile_qr_scan", "ios": "https://dc.lft.to/lastmile_qr_scan"}, "is_disabled": 0, "fusion_lat": 0.0, "lat": 38.931101, "is_reserved": 0}, {"lon": -77.05261666666667, "fusion_lon": 0.0, "bike_id": "abc3c715891d720035e2a598a9b4bae1", "type": "electric_scooter", "name": "abc3c715891d720035e2a598a9b4bae1", "rental_uris": {"android": "https://dc.lft.to/lastmile_qr_scan", "ios": "https://dc.lft.to/lastmile_qr_scan"}, "is_disabled": 0, "fusion_lat": 0.0, "lat": 38.927852, "is_reserved": 0}, {"lon": -77.03425383333334, "fusion_lon": 0.0, "bike_id": "c6cb2258ed84789d3688499ec59e277f", "type": "electric_scooter", "name": "c6cb2258ed84789d3688499ec59e277f", "rental_uris": {"android": "https://dc.lft.to/lastmile_qr_scan", "ios": "https://dc.lft.to/lastmile_qr_scan"}, "is_disabled": 0, "fusion_lat": 0.0, "lat": 38.90316416666667, "is_reserved": 0}, {"lon": -77.03312233333334, "fusion_lon": 0.0, "bike_id": "934dc708ed0550f83d628eaa1272fa43", "type": "electric_scooter", "name": "934dc708ed0550f83d628eaa1272fa43", "rental_uris": {"android": "https://dc.lft.to/lastmile_qr_scan", "ios": "https://dc.lft.to/lastmile_qr_scan"}, "is_disabled": 0, "fusion_lat": 0.0, "lat": 38.913203833333334, "is_reserved": 0}, {"lon": -77.18745833333334, "fusion_lon": 0.0, "bike_id": "18d635c0e589acdb9d3b9846762ed6d4", "type": "electric_bike", "name": "18d635c0e589acdb9d3b9846762ed6d4", "rental_uris": {"android": "https://dc.lft.to/lastmile_qr_scan", "ios": "https://dc.lft.to/lastmile_qr_scan"}, "is_disabled": 0, "fusion_lat": 0.0, "lat": 38.89353766666667, "is_reserved": 0}, {"lon": -77.05165133333334, "fusion_lon": 0.0, "bike_id": "801405fa4a0426e8795f59050e163535", "type": "electric_scooter", "name": "801405fa4a0426e8795f59050e163535", "rental_uris": {"android": "https://dc.lft.to/lastmile_qr_scan", "ios": "https://dc.lft.to/lastmile_qr_scan"}, "is_disabled": 0, "fusion_lat": 0.0, "lat": 38.9011285, "is_reserved": 0}, {"lon": -77.0395615, "fusion_lon": 0.0, "bike_id": "5ddd14aa95a0a8c52a1e299cd4b1ef18", "type": "electric_scooter", "name": "5ddd14aa95a0a8c52a1e299cd4b1ef18", "rental_uris": {"android": "https://dc.lft.to/lastmile_qr_scan", "ios": "https://dc.lft.to/lastmile_qr_scan"}, "is_disabled": 0, "fusion_lat": 0.0, "lat": 38.8962385, "is_reserved": 0}, {"lon": -77.02364383333334, "fusion_lon": 0.0, "bike_id": "b8b3604caf0a1dda525c092ea0f28b18", "type": "electric_scooter", "name": "b8b3604caf0a1dda525c092ea0f28b18", "rental_uris": {"android": "https://dc.lft.to/lastmile_qr_scan", "ios": "https://dc.lft.to/lastmile_qr_scan"}, "is_disabled": 0, "fusion_lat": 0.0, "lat": 38.925011833333336, "is_reserved": 0}, {"lon": -77.00305133333333, "fusion_lon": 0.0, "bike_id": "f8ac44d949dc9470155474fcbd904eb6", "type": "electric_scooter", "name": "f8ac44d949dc9470155474fcbd904eb6", "rental_uris": {"android": "https://dc.lft.to/lastmile_qr_scan", "ios": "https://dc.lft.to/lastmile_qr_scan"}, "is_disabled": 0, "fusion_lat": 0.0, "lat": 38.894996666666664, "is_reserved": 0}, {"lon": -77.00305966666667, "fusion_lon": 0.0, "bike_id": "6ee0ba70ee1b65af2559a3eba0f19476", "type": "electric_scooter", "name": "6ee0ba70ee1b65af2559a3eba0f19476", "rental_uris": {"android": "https://dc.lft.to/lastmile_qr_scan", "ios": "https://dc.lft.to/lastmile_qr_scan"}, "is_disabled": 0, "fusion_lat": 0.0, "lat": 38.8772335, "is_reserved": 0}, {"lon": -77.01181166666667, "fusion_lon": 0.0, "bike_id": "fc9034d9762b22947b06dd027b2fcf48", "type": "electric_scooter", "name": "fc9034d9762b22947b06dd027b2fcf48", "rental_uris": {"android": "https://dc.lft.to/lastmile_qr_scan", "ios": "https://dc.lft.to/lastmile_qr_scan"}, "is_disabled": 0, "fusion_lat": 0.0, "lat": 38.900364, "is_reserved": 0}, {"lon": -76.9981405, "fusion_lon": 0.0, "bike_id": "0f61f64c2855c80e77a5c82af0bab78b", "type": "electric_scooter", "name": "0f61f64c2855c80e77a5c82af0bab78b", "rental_uris": {"android": "https://dc.lft.to/lastmile_qr_scan", "ios": "https://dc.lft.to/lastmile_qr_scan"}, "is_disabled": 0, "fusion_lat": 0.0, "lat": 38.900215, "is_reserved": 0}, {"lon": -77.06056066666666, "fusion_lon": 0.0, "bike_id": "940fc2e6082a07542cc6448c66be6a44", "type": "electric_scooter", "name": "940fc2e6082a07542cc6448c66be6a44", "rental_uris": {"android": "https://dc.lft.to/lastmile_qr_scan", "ios": "https://dc.lft.to/lastmile_qr_scan"}, "is_disabled": 0, "fusion_lat": 0.0, "lat": 38.939167166666664, "is_reserved": 0}, {"lon": -76.98377233333333, "fusion_lon": 0.0, "bike_id": "600de1ee3e0ef694a6c1727747107c7a", "type": "electric_bike", "name": "600de1ee3e0ef694a6c1727747107c7a", "rental_uris": {"android": "https://dc.lft.to/lastmile_qr_scan", "ios": "https://dc.lft.to/lastmile_qr_scan"}, "is_disabled": 0, "fusion_lat": 0.0, "lat": 38.914843833333336, "is_reserved": 0}, {"lon": -77.03220316666666, "fusion_lon": 0.0, "bike_id": "62d73fa5f72b58a9acea8115f1d18757", "type": "electric_scooter", "name": "62d73fa5f72b58a9acea8115f1d18757", "rental_uris": {"android": "https://dc.lft.to/lastmile_qr_scan", "ios": "https://dc.lft.to/lastmile_qr_scan"}, "is_disabled": 0, "fusion_lat": 0.0, "lat": 38.92589, "is_reserved": 0}, {"lon": -77.02712783333334, "fusion_lon": 0.0, "bike_id": "e21ae7d7d1901b28a3ef3bcd2bd9636a", "type": "electric_scooter", "name": "e21ae7d7d1901b28a3ef3bcd2bd9636a", "rental_uris": {"android": "https://dc.lft.to/lastmile_qr_scan", "ios": "https://dc.lft.to/lastmile_qr_scan"}, "is_disabled": 0, "fusion_lat": 0.0, "lat": 38.92474033333333, "is_reserved": 0}, {"lon": -77.023984, "fusion_lon": 0.0, "bike_id": "a4c574a96ec4503a60e7c09a855e5d24", "type": "electric_scooter", "name": "a4c574a96ec4503a60e7c09a855e5d24", "rental_uris": {"android": "https://dc.lft.to/lastmile_qr_scan", "ios": "https://dc.lft.to/lastmile_qr_scan"}, "is_disabled": 0, "fusion_lat": 0.0, "lat": 38.896848166666665, "is_reserved": 0}, {"lon": -77.03523816666667, "fusion_lon": 0.0, "bike_id": "7d5ffc9ed52c43407d0292b8360dadf5", "type": "electric_scooter", "name": "7d5ffc9ed52c43407d0292b8360dadf5", "rental_uris": {"android": "https://dc.lft.to/lastmile_qr_scan", "ios": "https://dc.lft.to/lastmile_qr_scan"}, "is_disabled": 0, "fusion_lat": 0.0, "lat": 38.9360825, "is_reserved": 0}, {"lon": -76.99007583333334, "fusion_lon": 0.0, "bike_id": "3850369e96f45ba3772b3ae887557809", "type": "electric_scooter", "name": "3850369e96f45ba3772b3ae887557809", "rental_uris": {"android": "https://dc.lft.to/lastmile_qr_scan", "ios": "https://dc.lft.to/lastmile_qr_scan"}, "is_disabled": 0, "fusion_lat": 0.0, "lat": 38.865057, "is_reserved": 0}, {"lon": -77.0020195, "fusion_lon": 0.0, "bike_id": "7350489ade73becd0d9fd366b84a0708", "type": "electric_scooter", "name": "7350489ade73becd0d9fd366b84a0708", "rental_uris": {"android": "https://dc.lft.to/lastmile_qr_scan", "ios": "https://dc.lft.to/lastmile_qr_scan"}, "is_disabled": 0, "fusion_lat": 0.0, "lat": 38.902458, "is_reserved": 0}, {"lon": -76.952818, "fusion_lon": 0.0, "bike_id": "cac1e20027a8933bf842028a8dfbefb4", "type": "electric_bike", "name": "cac1e20027a8933bf842028a8dfbefb4", "rental_uris": {"android": "https://dc.lft.to/lastmile_qr_scan", "ios": "https://dc.lft.to/lastmile_qr_scan"}, "is_disabled": 0, "fusion_lat": 0.0, "lat": 38.86242033333333, "is_reserved": 0}, {"lon": -77.02200716666667, "fusion_lon": 0.0, "bike_id": "da5bb251e5b293e0c48a7c13abc9f68f", "type": "electric_scooter", "name": "da5bb251e5b293e0c48a7c13abc9f68f", "rental_uris": {"android": "https://dc.lft.to/lastmile_qr_scan", "ios": "https://dc.lft.to/lastmile_qr_scan"}, "is_disabled": 0, "fusion_lat": 0.0, "lat": 38.914947833333336, "is_reserved": 0}, {"lon": -77.0453885, "fusion_lon": 0.0, "bike_id": "4c2ca002a29926a0657610da1464835b", "type": "electric_scooter", "name": "4c2ca002a29926a0657610da1464835b", "rental_uris": {"android": "https://dc.lft.to/lastmile_qr_scan", "ios": "https://dc.lft.to/lastmile_qr_scan"}, "is_disabled": 0, "fusion_lat": 0.0, "lat": 38.90381516666667, "is_reserved": 0}, {"lon": -76.97697566666666, "fusion_lon": 0.0, "bike_id": "c7116f2dd878f088646814fa7cd8522e", "type": "electric_bike", "name": "c7116f2dd878f088646814fa7cd8522e", "rental_uris": {"android": "https://dc.lft.to/lastmile_qr_scan", "ios": "https://dc.lft.to/lastmile_qr_scan"}, "is_disabled": 0, "fusion_lat": 0.0, "lat": 38.9015985, "is_reserved": 0}, {"lon": -77.0034865, "fusion_lon": 0.0, "bike_id": "7682a7c369e7fcfee5f731d42882c6d2", "type": "electric_scooter", "name": "7682a7c369e7fcfee5f731d42882c6d2", "rental_uris": {"android": "https://dc.lft.to/lastmile_qr_scan", "ios": "https://dc.lft.to/lastmile_qr_scan"}, "is_disabled": 0, "fusion_lat": 0.0, "lat": 38.8844055, "is_reserved": 0}, {"lon": -77.02709666666667, "fusion_lon": 0.0, "bike_id": "373ab6f1d182f3e18547001c5ec384a7", "type": "electric_scooter", "name": "373ab6f1d182f3e18547001c5ec384a7", "rental_uris": {"android": "https://dc.lft.to/lastmile_qr_scan", "ios": "https://dc.lft.to/lastmile_qr_scan"}, "is_disabled": 0, "fusion_lat": 0.0, "lat": 38.906754, "is_reserved": 0}, {"lon": -77.04155766666666, "fusion_lon": 0.0, "bike_id": "6f655ed221cb5fc77e9edb4cc23f4239", "type": "electric_scooter", "name": "6f655ed221cb5fc77e9edb4cc23f4239", "rental_uris": {"android": "https://dc.lft.to/lastmile_qr_scan", "ios": "https://dc.lft.to/lastmile_qr_scan"}, "is_disabled": 0, "fusion_lat": 0.0, "lat": 38.91867333333333, "is_reserved": 0}, {"lon": -77.003002, "fusion_lon": 0.0, "bike_id": "232fc9e44bc8a7f38336e70aac17f20b", "type": "electric_bike", "name": "232fc9e44bc8a7f38336e70aac17f20b", "rental_uris": {"android": "https://dc.lft.to/lastmile_qr_scan", "ios": "https://dc.lft.to/lastmile_qr_scan"}, "is_disabled": 0, "fusion_lat": 0.0, "lat": 38.833641166666666, "is_reserved": 0}, {"lon": -77.00296466666667, "fusion_lon": 0.0, "bike_id": "1513b3ba55aa11bb828d58cccdd91cd5", "type": "electric_scooter", "name": "1513b3ba55aa11bb828d58cccdd91cd5", "rental_uris": {"android": "https://dc.lft.to/lastmile_qr_scan", "ios": "https://dc.lft.to/lastmile_qr_scan"}, "is_disabled": 0, "fusion_lat": 0.0, "lat": 38.91816133333333, "is_reserved": 0}, {"lon": -77.00250083333333, "fusion_lon": 0.0, "bike_id": "9bbd105101655394de1ab6d97e0d1f4e", "type": "electric_scooter", "name": "9bbd105101655394de1ab6d97e0d1f4e", "rental_uris": {"android": "https://dc.lft.to/lastmile_qr_scan", "ios": "https://dc.lft.to/lastmile_qr_scan"}, "is_disabled": 0, "fusion_lat": 0.0, "lat": 38.875096666666664, "is_reserved": 0}, {"lon": -76.98716383333333, "fusion_lon": 0.0, "bike_id": "8378d6647dfd5384c207754d30081c16", "type": "electric_scooter", "name": "8378d6647dfd5384c207754d30081c16", "rental_uris": {"android": "https://dc.lft.to/lastmile_qr_scan", "ios": "https://dc.lft.to/lastmile_qr_scan"}, "is_disabled": 0, "fusion_lat": 0.0, "lat": 38.866255, "is_reserved": 0}, {"lon": -76.99581516666667, "fusion_lon": 0.0, "bike_id": "0b2b2fbb80db3ddb0a0a96f00fe90c9d", "type": "electric_scooter", "name": "0b2b2fbb80db3ddb0a0a96f00fe90c9d", "rental_uris": {"android": "https://dc.lft.to/lastmile_qr_scan", "ios": "https://dc.lft.to/lastmile_qr_scan"}, "is_disabled": 0, "fusion_lat": 0.0, "lat": 38.851765666666665, "is_reserved": 0}, {"lon": -77.03210583333333, "fusion_lon": 0.0, "bike_id": "1f696f5c7a4852a85748041713c0ea46", "type": "electric_scooter", "name": "1f696f5c7a4852a85748041713c0ea46", "rental_uris": {"android": "https://dc.lft.to/lastmile_qr_scan", "ios": "https://dc.lft.to/lastmile_qr_scan"}, "is_disabled": 0, "fusion_lat": 0.0, "lat": 38.91614533333333, "is_reserved": 0}, {"lon": -77.021758, "fusion_lon": 0.0, "bike_id": "7cc4289698fd61d3c6515f4c57a3debf", "type": "electric_scooter", "name": "7cc4289698fd61d3c6515f4c57a3debf", "rental_uris": {"android": "https://dc.lft.to/lastmile_qr_scan", "ios": "https://dc.lft.to/lastmile_qr_scan"}, "is_disabled": 0, "fusion_lat": 0.0, "lat": 38.90571, "is_reserved": 0}, {"lon": -77.03406016666666, "fusion_lon": 0.0, "bike_id": "222f0389cc983f67769547beb613812d", "type": "electric_scooter", "name": "222f0389cc983f67769547beb613812d", "rental_uris": {"android": "https://dc.lft.to/lastmile_qr_scan", "ios": "https://dc.lft.to/lastmile_qr_scan"}, "is_disabled": 0, "fusion_lat": 0.0, "lat": 38.92447333333333, "is_reserved": 0}, {"lon": -77.0326425, "fusion_lon": 0.0, "bike_id": "b6df4b65420680aff793faeee748ae70", "type": "electric_scooter", "name": "b6df4b65420680aff793faeee748ae70", "rental_uris": {"android": "https://dc.lft.to/lastmile_qr_scan", "ios": "https://dc.lft.to/lastmile_qr_scan"}, "is_disabled": 0, "fusion_lat": 0.0, "lat": 38.93774033333333, "is_reserved": 0}, {"lon": -77.03375016666666, "fusion_lon": 0.0, "bike_id": "8de4a39d1ae2063cac6e2681c02920db", "type": "electric_scooter", "name": "8de4a39d1ae2063cac6e2681c02920db", "rental_uris": {"android": "https://dc.lft.to/lastmile_qr_scan", "ios": "https://dc.lft.to/lastmile_qr_scan"}, "is_disabled": 0, "fusion_lat": 0.0, "lat": 38.923673, "is_reserved": 0}, {"lon": -77.03167716666667, "fusion_lon": 0.0, "bike_id": "ffd3f56490892294a489b342fda3a54e", "type": "electric_scooter", "name": "ffd3f56490892294a489b342fda3a54e", "rental_uris": {"android": "https://dc.lft.to/lastmile_qr_scan", "ios": "https://dc.lft.to/lastmile_qr_scan"}, "is_disabled": 0, "fusion_lat": 0.0, "lat": 38.89715483333333, "is_reserved": 0}, {"lon": -77.02695383333334, "fusion_lon": 0.0, "bike_id": "5372b53c541254e5e2f3492cea8e4a64", "type": "electric_scooter", "name": "5372b53c541254e5e2f3492cea8e4a64", "rental_uris": {"android": "https://dc.lft.to/lastmile_qr_scan", "ios": "https://dc.lft.to/lastmile_qr_scan"}, "is_disabled": 0, "fusion_lat": 0.0, "lat": 38.907125, "is_reserved": 0}, {"lon": -77.03346566666667, "fusion_lon": 0.0, "bike_id": "7ae52b2dca985921b643f93ce0cba6e7", "type": "electric_scooter", "name": "7ae52b2dca985921b643f93ce0cba6e7", "rental_uris": {"android": "https://dc.lft.to/lastmile_qr_scan", "ios": "https://dc.lft.to/lastmile_qr_scan"}, "is_disabled": 0, "fusion_lat": 0.0, "lat": 38.88702333333333, "is_reserved": 0}, {"lon": -77.03331883333334, "fusion_lon": 0.0, "bike_id": "21b834da4771ff4a558b9de78ccced94", "type": "electric_scooter", "name": "21b834da4771ff4a558b9de78ccced94", "rental_uris": {"android": "https://dc.lft.to/lastmile_qr_scan", "ios": "https://dc.lft.to/lastmile_qr_scan"}, "is_disabled": 0, "fusion_lat": 0.0, "lat": 38.9217125, "is_reserved": 0}, {"lon": -77.03180316666666, "fusion_lon": 0.0, "bike_id": "886952d57c884ebb49c97f75fc2dbb34", "type": "electric_scooter", "name": "886952d57c884ebb49c97f75fc2dbb34", "rental_uris": {"android": "https://dc.lft.to/lastmile_qr_scan", "ios": "https://dc.lft.to/lastmile_qr_scan"}, "is_disabled": 0, "fusion_lat": 0.0, "lat": 38.92372783333333, "is_reserved": 0}, {"lon": -77.01971366666666, "fusion_lon": 0.0, "bike_id": "52a69f0e8f8b72c7b166018db4499897", "type": "electric_scooter", "name": "52a69f0e8f8b72c7b166018db4499897", "rental_uris": {"android": "https://dc.lft.to/lastmile_qr_scan", "ios": "https://dc.lft.to/lastmile_qr_scan"}, "is_disabled": 0, "fusion_lat": 0.0, "lat": 38.902387, "is_reserved": 0}, {"lon": -77.108526, "fusion_lon": 0.0, "bike_id": "a22e613520305b982dbb6983c1a9cbe5", "type": "electric_bike", "name": "a22e613520305b982dbb6983c1a9cbe5", "rental_uris": {"android": "https://dc.lft.to/lastmile_qr_scan", "ios": "https://dc.lft.to/lastmile_qr_scan"}, "is_disabled": 0, "fusion_lat": 0.0, "lat": 38.87234483333334, "is_reserved": 0}, {"lon": -77.0270865, "fusion_lon": 0.0, "bike_id": "378965dcfdd6a4f10c2e2ef96a4e6ee7", "type": "electric_scooter", "name": "378965dcfdd6a4f10c2e2ef96a4e6ee7", "rental_uris": {"android": "https://dc.lft.to/lastmile_qr_scan", "ios": "https://dc.lft.to/lastmile_qr_scan"}, "is_disabled": 0, "fusion_lat": 0.0, "lat": 38.92878566666667, "is_reserved": 0}, {"lon": -77.01655083333333, "fusion_lon": 0.0, "bike_id": "226c02e478cc2f016b1c7adae6291442", "type": "electric_scooter", "name": "226c02e478cc2f016b1c7adae6291442", "rental_uris": {"android": "https://dc.lft.to/lastmile_qr_scan", "ios": "https://dc.lft.to/lastmile_qr_scan"}, "is_disabled": 0, "fusion_lat": 0.0, "lat": 38.9038045, "is_reserved": 0}, {"lon": -76.99007516666667, "fusion_lon": 0.0, "bike_id": "269b0e72267717a5fec75eba4965605d", "type": "electric_scooter", "name": "269b0e72267717a5fec75eba4965605d", "rental_uris": {"android": "https://dc.lft.to/lastmile_qr_scan", "ios": "https://dc.lft.to/lastmile_qr_scan"}, "is_disabled": 0, "fusion_lat": 0.0, "lat": 38.8650555, "is_reserved": 0},