{"data": {"bikes": [{"bike_id": "bb5655f2e4e0431624df554fc5dda538", "lat": 38.912441333333334, "is_disabled": 0, "lon": -77.06284566666666, "fusion_lon": 0.0, "is_reserved": 0, "fusion_lat": 0.0, "rental_uris": {"android": "https://dc.lft.to/lastmile_qr_scan", "ios": "https://dc.lft.to/lastmile_qr_scan"}, "type": "electric_scooter", "name": "bb5655f2e4e0431624df554fc5dda538"}, {"bike_id": "23536e5eb1a4c4e4070ee84ef9d4354b", "lat": 38.887336166666664, "is_disabled": 0, "lon": -77.01529616666667, "fusion_lon": 0.0, "is_reserved": 0, "fusion_lat": 0.0, "rental_uris": {"android": "https://dc.lft.to/lastmile_qr_scan", "ios": "https://dc.lft.to/lastmile_qr_scan"}, "type": "electric_scooter", "name": "23536e5eb1a4c4e4070ee84ef9d4354b"}, {"bike_id": "5ae520a2aafb1e1c59d945d7c43c5d21", "lat": 38.88960383333333, "is_disabled": 0, "lon": -76.98082683333334, "fusion_lon": 0.0, "is_reserved": 0, "fusion_lat": 0.0, "rental_uris": {"android": "https://dc.lft.to/lastmile_qr_scan", "ios": "https://dc.lft.to/lastmile_qr_scan"}, "type": "electric_scooter", "name": "5ae520a2aafb1e1c59d945d7c43c5d21"}, {"bike_id": "4f717da6b89115dd3e423545f0d6bcc3", "lat": 38.908437666666664, "is_disabled": 0, "lon": -77.0004815, "fusion_lon": 0.0, "is_reserved": 0, "fusion_lat": 0.0, "rental_uris": {"android": "https://dc.lft.to/lastmile_qr_scan", "ios": "https://dc.lft.to/lastmile_qr_scan"}, "type": "electric_scooter", "name": "4f717da6b89115dd3e423545f0d6bcc3"}, {"bike_id": "06199b396ec150dd43579719d1942d18", "lat": 38.907877, "is_disabled": 0, "lon": -77.07248566666667, "fusion_lon": 0.0, "is_reserved": 0, "fusion_lat": 0.0, "rental_uris": {"android": "https://dc.lft.to/lastmile_qr_scan", "ios": "https://dc.lft.to/lastmile_qr_scan"}, "type": "electric_scooter", "name": "06199b396ec150dd43579719d1942d18"}, {"bike_id": "ffff976d704a60f87bb50c981b786214", "lat": 38.907404, "is_disabled": 0, "lon": -77.04327766666667, "fusion_lon": 0.0, "is_reserved": 0, "fusion_lat": 0.0, "rental_uris": {"android": "https://dc.lft.to/lastmile_qr_scan", "ios": "https://dc.lft.to/lastmile_qr_scan"}, "type": "electric_scooter", "name": "ffff976d704a60f87bb50c981b786214"}, {"bike_id": "bddbe7cdc9426282d709d6184ce75625", "lat": 38.862527166666666, "is_disabled": 0, "lon": -76.994762, "fusion_lon": 0.0, "is_reserved": 0, "fusion_lat": 0.0, "rental_uris": {"android": "https://dc.lft.to/lastmile_qr_scan", "ios": "https://dc.lft.to/lastmile_qr_scan"}, "type": "electric_scooter", "name": "bddbe7cdc9426282d709d6184ce75625"}, {"bike_id": "602bd7007aa72974478aa6ac5950c5ed", "lat": 38.920681, "is_disabled": 0, "lon": -77.02420766666667, "fusion_lon": 0.0, "is_reserved": 0, "fusion_lat": 0.0, "rental_uris": {"android": "https://dc.lft.to/lastmile_qr_scan", "ios": "https://dc.lft.to/lastmile_qr_scan"}, "type": "electric_scooter", "name": "602bd7007aa72974478aa6ac5950c5ed"}, {"bike_id": "5e036adb1a37297227611b2ad1b95e6f", "lat": 38.93054433333333, "is_disabled": 0, "lon": -77.0402805, "fusion_lon": 0.0, "is_reserved": 0, "fusion_lat": 0.0, "rental_uris": {"android": "https://dc.lft.to/lastmile_qr_scan", "ios": "https://dc.lft.to/lastmile_qr_scan"}, "type": "electric_scooter", "name": "5e036adb1a37297227611b2ad1b95e6f"}, {"bike_id": "8e196f321642c377dc327e5cbf394507", "lat": 38.9002965, "is_disabled": 0, "lon": -77.00557116666667, "fusion_lon": 0.0, "is_reserved": 0, "fusion_lat": 0.0, "rental_uris": {"android": "https://dc.lft.to/lastmile_qr_scan", "ios": "https://dc.lft.to/lastmile_qr_scan"}, "type": "electric_scooter", "name": "8e196f321642c377dc327e5cbf394507"}, {"bike_id": "152cfabb5394b8de31a9d25920fe77e5", "lat": 38.92478066666666, "is_disabled": 0, "lon": -77.02270283333333, "fusion_lon": 0.0, "is_reserved": 0, "fusion_lat": 0.0, "rental_uris": {"android": "https://dc.lft.to/lastmile_qr_scan", "ios": "https://dc.lft.to/lastmile_qr_scan"}, "type": "electric_scooter", "name": "152cfabb5394b8de31a9d25920fe77e5"}, {"bike_id": "233c6128f7c9af4d2ab67f8582829b05", "lat": 38.938651666666665, "is_disabled": 0, "lon": -77.0265405, "fusion_lon": 0.0, "is_reserved": 0, "fusion_lat": 0.0, "rental_uris": {"android": "https://dc.lft.to/lastmile_qr_scan", "ios": "https://dc.lft.to/lastmile_qr_scan"}, "type": "electric_bike", "name": "233c6128f7c9af4d2ab67f8582829b05"}, {"bike_id": "2e15ba5d31b96906c5f42fa345547454", "lat": 38.876313, "is_disabled": 0, "lon": -77.01574616666667, "fusion_lon": 0.0, "is_reserved": 0, "fusion_lat": 0.0, "rental_uris": {"android": "https://dc.lft.to/lastmile_qr_scan", "ios": "https://dc.lft.to/lastmile_qr_scan"}, "type": "electric_scooter", "name": "2e15ba5d31b96906c5f42fa345547454"}, {"bike_id": "497696323a31136e97c1c24fc60a41fd", "lat": 38.92732483333333, "is_disabled": 0, "lon": -77.02306233333333, "fusion_lon": 0.0, "is_reserved": 0, "fusion_lat": 0.0, "rental_uris": {"android": "https://dc.lft.to/lastmile_qr_scan", "ios": "https://dc.lft.to/lastmile_qr_scan"}, "type": "electric_scooter", "name": "497696323a31136e97c1c24fc60a41fd"}, {"bike_id": "08acfe778918c578d22cda68f0935a07", "lat": 38.911567833333336, "is_disabled": 0, "lon": -77.0045015, "fusion_lon": 0.0, "is_reserved": 0, "fusion_lat": 0.0, "rental_uris": {"android": "https://dc.lft.to/lastmile_qr_scan", "ios": "https://dc.lft.to/lastmile_qr_scan"}, "type": "electric_scooter", "name": "08acfe778918c578d22cda68f0935a07"}, {"bike_id": "181aca332ec4366511dadb92935137b4", "lat": 38.895372333333334, "is_disabled": 0, "lon": -77.046481, "fusion_lon": 0.0, "is_reserved": 0, "fusion_lat": 0.0, "rental_uris": {"android": "https://dc.lft.to/lastmile_qr_scan", "ios": "https://dc.lft.to/lastmile_qr_scan"}, "type": "electric_scooter", "name": "181aca332ec4366511dadb92935137b4"}, {"bike_id": "3bb45a1d04be61722398fe7a4fea352d", "lat": 38.90946866666667, "is_disabled": 0, "lon": -77.06436383333333, "fusion_lon": 0.0, "is_reserved": 0, "fusion_lat": 0.0, "rental_uris": {"android": "https://dc.lft.to/lastmile_qr_scan", "ios": "https://dc.lft.to/lastmile_qr_scan"}, "type": "electric_scooter", "name": "3bb45a1d04be61722398fe7a4fea352d"}, {"bike_id": "4b42aadccb49ce0ab30897ae805a6343", "lat": 38.917375166666666, "is_disabled": 0, "lon": -77.0416845, "fusion_lon": 0.0, "is_reserved": 0, "fusion_lat": 0.0, "rental_uris": {"android": "https://dc.lft.to/lastmile_qr_scan", "ios": "https://dc.lft.to/lastmile_qr_scan"}, "type": "electric_scooter", "name": "4b42aadccb49ce0ab30897ae805a6343"}, {"bike_id": "5143d315416d19d346e287a2cf665507", "lat": 38.9406855, "is_disabled": 0, "lon": -77.0039185, "fusion_lon": 0.0, "is_reserved": 0, "fusion_lat": 0.0, "rental_uris": {"android": "https://dc.lft.to/lastmile_qr_scan", "ios": "https://dc.lft.to/lastmile_qr_scan"}, "type": "electric_scooter", "name": "5143d315416d19d346e287a2cf665507"}, {"bike_id": "f88b963821979e67860be07930e19176", "lat": 38.922412, "is_disabled": 0, "lon": -77.04451116666667, "fusion_lon": 0.0, "is_reserved": 0, "fusion_lat": 0.0, "rental_uris": {"android": "https://dc.lft.to/lastmile_qr_scan", "ios": "https://dc.lft.to/lastmile_qr_scan"}, "type": "electric_scooter", "name": "f88b963821979e67860be07930e19176"}, {"bike_id": "339f6e70c2cf39b9908a26859ee50b9a", "lat": 38.911827333333335, "is_disabled": 0, "lon": -77.0162115, "fusion_lon": 0.0, "is_reserved": 0, "fusion_lat": 0.0, "rental_uris": {"android": "https://dc.lft.to/lastmile_qr_scan", "ios": "https://dc.lft.to/lastmile_qr_scan"}, "type": "electric_scooter", "name": "339f6e70c2cf39b9908a26859ee50b9a"}, {"bike_id": "42b23dba7b15dbbf27fd58a8b6a14282", "lat": 38.94411133333333, "is_disabled": 0, "lon": -77.0551745, "fusion_lon": 0.0, "is_reserved": 0, "fusion_lat": 0.0, "rental_uris": {"android": "https://dc.lft.to/lastmile_qr_scan", "ios": "https://dc.lft.to/lastmile_qr_scan"}, "type": "electric_bike", "name": "42b23dba7b15dbbf27fd58a8b6a14282"}, {"bike_id": "ef8f1b695c1d81d3ea8fdf0b3de2e1da", "lat": 38.916971833333335, "is_disabled": 0, "lon": -77.03475933333333, "fusion_lon": 0.0, "is_reserved": 0, "fusion_lat": 0.0, "rental_uris": {"android": "https://dc.lft.to/lastmile_qr_scan", "ios": "https://dc.lft.to/lastmile_qr_scan"}, "type": "electric_scooter", "name": "ef8f1b695c1d81d3ea8fdf0b3de2e1da"}, {"bike_id": "08edfeeee4277852a4e5b376f99cd806", "lat": 38.89280483333334, "is_disabled": 0, "lon": -77.04669566666666, "fusion_lon": 0.0, "is_reserved": 0, "fusion_lat": 0.0, "rental_uris": {"android": "https://dc.lft.to/lastmile_qr_scan", "ios": "https://dc.lft.to/lastmile_qr_scan"}, "type": "electric_scooter", "name": "08edfeeee4277852a4e5b376f99cd806"}, {"bike_id": "c084dec4beab7664371eea71fb1b44ce", "lat": 38.91700433333333, "is_disabled": 0, "lon": -77.03461233333333, "fusion_lon": 0.0, "is_reserved": 0, "fusion_lat": 0.0, "rental_uris": {"android": "https://dc.lft.to/lastmile_qr_scan", "ios": "https://dc.lft.to/lastmile_qr_scan"}, "type": "electric_scooter", "name": "c084dec4beab7664371eea71fb1b44ce"}, {"bike_id": "b89db6fff1721ef3326696f40b7aeb50", "lat": 38.892256833333334, "is_disabled": 0, "lon": -77.0262745, "fusion_lon": 0.0, "is_reserved": 0, "fusion_lat": 0.0, "rental_uris": {"android": "https://dc.lft.to/lastmile_qr_scan", "ios": "https://dc.lft.to/lastmile_qr_scan"}, "type": "electric_scooter", "name": "b89db6fff1721ef3326696f40b7aeb50"}, {"bike_id": "3f4e38a1fcb7f32bdc00fb5b05c3b994", "lat": 38.908256333333334, "is_disabled": 0, "lon": -77.00209616666666, "fusion_lon": 0.0, "is_reserved": 0, "fusion_lat": 0.0, "rental_uris": {"android": "https://dc.lft.to/lastmile_qr_scan", "ios": "https://dc.lft.to/lastmile_qr_scan"}, "type": "electric_scooter", "name": "3f4e38a1fcb7f32bdc00fb5b05c3b994"}, {"bike_id": "d9ab93ce2b5056a8e7136c3d6d5a743a", "lat": 38.906314333333334, "is_disabled": 0, "lon": -77.04139366666666, "fusion_lon": 0.0, "is_reserved": 0, "fusion_lat": 0.0, "rental_uris": {"android": "https://dc.lft.to/lastmile_qr_scan", "ios": "https://dc.lft.to/lastmile_qr_scan"}, "type": "electric_scooter", "name": "d9ab93ce2b5056a8e7136c3d6d5a743a"}, {"bike_id": "7b1ddd864c803750cd306de0480f7e25", "lat": 38.9340045, "is_disabled": 0, "lon": -77.05745066666667, "fusion_lon": 0.0, "is_reserved": 0, "fusion_lat": 0.0, "rental_uris": {"android": "https://dc.lft.to/lastmile_qr_scan", "ios": "https://dc.lft.to/lastmile_qr_scan"}, "type": "electric_scooter", "name": "7b1ddd864c803750cd306de0480f7e25"}, {"bike_id": "f93f3056d089a75cd64bc7471257727e", "lat": 38.909563, "is_disabled": 0, "lon": -77.00741766666667, "fusion_lon": 0.0, "is_reserved": 0, "fusion_lat": 0.0, "rental_uris": {"android": "https://dc.lft.to/lastmile_qr_scan", "ios": "https://dc.lft.to/lastmile_qr_scan"}, "type": "electric_scooter", "name": "f93f3056d089a75cd64bc7471257727e"}, {"bike_id": "6ea5b24fc5f453ed01b122f4bf8242eb", "lat": 38.902285666666664, "is_disabled": 0, "lon": -76.9927225, "fusion_lon": 0.0, "is_reserved": 0, "fusion_lat": 0.0, "rental_uris": {"android": "https://dc.lft.to/lastmile_qr_scan", "ios": "https://dc.lft.to/lastmile_qr_scan"}, "type": "electric_scooter", "name": "6ea5b24fc5f453ed01b122f4bf8242eb"}, {"bike_id": "e34a611b35b640e7a8563431fe469a40", "lat": 38.880797, "is_disabled": 0, "lon": -77.0055795, "fusion_lon": 0.0, "is_reserved": 0, "fusion_lat": 0.0, "rental_uris": {"android": "https://dc.lft.to/lastmile_qr_scan", "ios": "https://dc.lft.to/lastmile_qr_scan"}, "type": "electric_scooter", "name": "e34a611b35b640e7a8563431fe469a40"}, {"bike_id": "7ce9a50f413a2c45810e754a04bcd5ee", "lat": 38.904193166666666, "is_disabled": 0, "lon": -77.02950033333333, "fusion_lon": 0.0, "is_reserved": 0, "fusion_lat": 0.0, "rental_uris": {"android": "https://dc.lft.to/lastmile_qr_scan", "ios": "https://dc.lft.to/lastmile_qr_scan"}, "type": "electric_scooter", "name": "7ce9a50f413a2c45810e754a04bcd5ee"}, {"bike_id": "f5b6fb1e0d59fe843acbdb951bb4f8fe", "lat": 38.90526833333333, "is_disabled": 0, "lon": -77.04336533333333, "fusion_lon": 0.0, "is_reserved": 0, "fusion_lat": 0.0, "rental_uris": {"android": "https://dc.lft.to/lastmile_qr_scan", "ios": "https://dc.lft.to/lastmile_qr_scan"}, "type": "electric_scooter", "name": "f5b6fb1e0d59fe843acbdb951bb4f8fe"}, {"bike_id": "96adf37096ccd004fbd230391f90492e", "lat": 38.917381666666664, "is_disabled": 0, "lon": -77.04171783333334, "fusion_lon": 0.0, "is_reserved": 0, "fusion_lat": 0.0, "rental_uris": {"android": "https://dc.lft.to/lastmile_qr_scan", "ios": "https://dc.lft.to/lastmile_qr_scan"}, "type": "electric_scooter", "name": "96adf37096ccd004fbd230391f90492e"}, {"bike_id": "dfda9e715b80174fbc799161916ba3e9", "lat": 38.87378316666667, "is_disabled": 0, "lon": -77.00130083333333, "fusion_lon": 0.0, "is_reserved": 0, "fusion_lat": 0.0, "rental_uris": {"android": "https://dc.lft.to/lastmile_qr_scan", "ios": "https://dc.lft.to/lastmile_qr_scan"}, "type": "electric_scooter", "name": "dfda9e715b80174fbc799161916ba3e9"}, {"bike_id": "2e000d6a611c7e5e6d3e90e8d006d33a", "lat": 38.8190615, "is_disabled": 0, "lon": -77.12652766666666, "fusion_lon": 0.0, "is_reserved": 0, "fusion_lat": 0.0, "rental_uris": {"android": "https://dc.lft.to/lastmile_qr_scan", "ios": "https://dc.lft.to/lastmile_qr_scan"}, "type": "electric_bike", "name": "2e000d6a611c7e5e6d3e90e8d006d33a"}, {"bike_id": "473aea0c02d66d78f42a5eb25ab6d5d9", "lat": 38.950214833333334, "is_disabled": 0, "lon": -77.06702166666666, "fusion_lon": 0.0, "is_reserved": 0, "fusion_lat": 0.0, "rental_uris": {"android": "https://dc.lft.to/lastmile_qr_scan", "ios": "https://dc.lft.to/lastmile_qr_scan"}, "type": "electric_scooter", "name": "473aea0c02d66d78f42a5eb25ab6d5d9"}, {"bike_id": "a344badb2740f7783a3270980a7b029d", "lat": 38.905705833333336, "is_disabled": 0, "lon": -77.04376166666667, "fusion_lon": 0.0, "is_reserved": 0, "fusion_lat": 0.0, "rental_uris": {"android": "https://dc.lft.to/lastmile_qr_scan", "ios": "https://dc.lft.to/lastmile_qr_scan"}, "type": "electric_scooter", "name": "a344badb2740f7783a3270980a7b029d"}, {"bike_id": "f40b3450f87d86fbc38283f98f6fad1a", "lat": 38.906954166666665, "is_disabled": 0, "lon": -76.95252316666667, "fusion_lon": 0.0, "is_reserved": 0, "fusion_lat": 0.0, "rental_uris": {"android": "https://dc.lft.to/lastmile_qr_scan", "ios": "https://dc.lft.to/lastmile_qr_scan"}, "type": "electric_bike", "name": "f40b3450f87d86fbc38283f98f6fad1a"}, {"bike_id": "22fa0f9f9ab95961caab66c3805aeca2", "lat": 38.91412283333333, "is_disabled": 0, "lon": -77.04151616666667, "fusion_lon": 0.0, "is_reserved": 0, "fusion_lat": 0.0, "rental_uris": {"android": "https://dc.lft.to/lastmile_qr_scan", "ios": "https://dc.lft.to/lastmile_qr_scan"}, "type": "electric_scooter", "name": "22fa0f9f9ab95961caab66c3805aeca2"}, {"bike_id": "3196e4edd6522757ac5142be204a5f2e", "lat": 38.9068695, "is_disabled": 0, "lon": -77.04211866666667, "fusion_lon": 0.0, "is_reserved": 0, "fusion_lat": 0.0, "rental_uris": {"android": "https://dc.lft.to/lastmile_qr_scan", "ios": "https://dc.lft.to/lastmile_qr_scan"}, "type": "electric_scooter", "name": "3196e4edd6522757ac5142be204a5f2e"}, {"bike_id": "4b05e321e12befc0a826ee48702c9b16", "lat": 38.93561016666666, "is_disabled": 0, "lon": -77.06375033333333, "fusion_lon": 0.0, "is_reserved": 0, "fusion_lat": 0.0, "rental_uris": {"android": "https://dc.lft.to/lastmile_qr_scan", "ios": "https://dc.lft.to/lastmile_qr_scan"}, "type": "electric_scooter", "name": "4b05e321e12befc0a826ee48702c9b16"}, {"bike_id": "b43d09d1696d2d781d266531f92eca3f", "lat": 38.901822833333334, "is_disabled": 0, "lon": -76.928258, "fusion_lon": 0.0, "is_reserved": 0, "fusion_lat": 0.0, "rental_uris": {"android": "https://dc.lft.to/lastmile_qr_scan", "ios": "https://dc.lft.to/lastmile_qr_scan"}, "type": "electric_scooter", "name": "b43d09d1696d2d781d266531f92eca3f"}, {"bike_id": "abab96f76228221eb9e7838b59a572dc", "lat": 38.89363766666666, "is_disabled": 0, "lon": -76.947515, "fusion_lon": 0.0, "is_reserved": 0, "fusion_lat": 0.0, "rental_uris": {"android": "https://dc.lft.to/lastmile_qr_scan", "ios": "https://dc.lft.to/lastmile_qr_scan"}, "type": "electric_scooter", "name": "abab96f76228221eb9e7838b59a572dc"}, {"bike_id": "be92796a83fac542ac41a0eb384c4d86", "lat": 38.90226283333333, "is_disabled": 0, "lon": -77.00218683333334, "fusion_lon": 0.0, "is_reserved": 0, "fusion_lat": 0.0, "rental_uris": {"android": "https://dc.lft.to/lastmile_qr_scan", "ios": "https://dc.lft.to/lastmile_qr_scan"}, "type": "electric_scooter", "name": "be92796a83fac542ac41a0eb384c4d86"}, {"bike_id": "80cf7ca62e0dcf31a851f0c997fb779f", "lat": 38.922904833333334, "is_disabled": 0, "lon": -77.0366975, "fusion_lon": 0.0, "is_reserved": 0, "fusion_lat": 0.0, "rental_uris": {"android": "https://dc.lft.to/lastmile_qr_scan", "ios": "https://dc.lft.to/lastmile_qr_scan"}, "type": "electric_scooter", "name": "80cf7ca62e0dcf31a851f0c997fb779f"}, {"bike_id": "45c359b24f6930c78b430072a9be86b2", "lat": 38.91264366666667, "is_disabled": 0, "lon": -77.03827433333333, "fusion_lon": 0.0, "is_reserved": 0, "fusion_lat": 0.0, "rental_uris": {"android": "https://dc.lft.to/lastmile_qr_scan", "ios": "https://dc.lft.to/lastmile_qr_scan"}, "type": "electric_scooter", "name": "45c359b24f6930c78b430072a9be86b2"}, {"bike_id": "b8d192937bc2976fdcdb29d76b8b56d3", "lat": 38.892213, "is_disabled": 0, "lon": -77.02782, "fusion_lon": 0.0, "is_reserved": 0, "fusion_lat": 0.0, "rental_uris": {"android": "https://dc.lft.to/lastmile_qr_scan", "ios": "https://dc.lft.to/lastmile_qr_scan"}, "type": "electric_scooter", "name": "b8d192937bc2976fdcdb29d76b8b56d3"}, {"bike_id": "fe06868fbcfdf8af1964d31abd3b4281", "lat": 38.9082225, "is_disabled": 0, "lon": -76.99551883333334, "fusion_lon": 0.0, "is_reserved": 0, "fusion_lat": 0.0, "rental_uris": {"android": "https://dc.lft.to/lastmile_qr_scan", "ios": "https://dc.lft.to/lastmile_qr_scan"}, "type": "electric_bike", "name": "fe06868fbcfdf8af1964d31abd3b4281"}, {"bike_id": "8c1d9cbfcbd84996152593749f251c9f", "lat": 38.83864066666667, "is_disabled": 0, "lon": -76.99705666666667, "fusion_lon": 0.0, "is_reserved": 0, "fusion_lat": 0.0, "rental_uris": {"android": "https://dc.lft.to/lastmile_qr_scan", "ios": "https://dc.lft.to/lastmile_qr_scan"}, "type": "electric_bike", "name": "8c1d9cbfcbd84996152593749f251c9f"}, {"bike_id": "144b986308b1d7821f559e3553002162", "lat": 38.938820166666666, "is_disabled": 0, "lon": -77.03286216666666, "fusion_lon": 0.0, "is_reserved": 0, "fusion_lat": 0.0, "rental_uris": {"android": "https://dc.lft.to/lastmile_qr_scan", "ios": "https://dc.lft.to/lastmile_qr_scan"}, "type": "electric_scooter", "name": "144b986308b1d7821f559e3553002162"}, {"bike_id": "ef7ce7d5433bca044bd3e001214f9dcf", "lat": 38.892195, "is_disabled": 0, "lon": -77.02628816666666, "fusion_lon": 0.0, "is_reserved": 0, "fusion_lat": 0.0, "rental_uris": {"android": "https://dc.lft.to/lastmile_qr_scan", "ios": "https://dc.lft.to/lastmile_qr_scan"}, "type": "electric_scooter", "name": "ef7ce7d5433bca044bd3e001214f9dcf"}, {"bike_id": "8af7eeab1efd28c5878a18edc56a1b11", "lat": 38.97257916666667, "is_disabled": 0, "lon": -76.99276316666666, "fusion_lon": 0.0, "is_reserved": 0, "fusion_lat": 0.0, "rental_uris": {"android": "https://dc.lft.to/lastmile_qr_scan", "ios": "https://dc.lft.to/lastmile_qr_scan"}, "type": "electric_bike", "name": "8af7eeab1efd28c5878a18edc56a1b11"}, {"bike_id": "f099ec87b664d6cbd469bcab6318cc2e", "lat": 38.903072, "is_disabled": 0, "lon": -77.05053333333333, "fusion_lon": 0.0, "is_reserved": 0, "fusion_lat": 0.0, "rental_uris": {"android": "https://dc.lft.to/lastmile_qr_scan", "ios": "https://dc.lft.to/lastmile_qr_scan"}, "type": "electric_scooter", "name": "f099ec87b664d6cbd469bcab6318cc2e"}, {"bike_id": "12015706d59b0a87c9170f417eae17dc", "lat": 38.924625666666664, "is_disabled": 0, "lon": -77.04045133333334, "fusion_lon": 0.0, "is_reserved": 0, "fusion_lat": 0.0, "rental_uris": {"android": "https://dc.lft.to/lastmile_qr_scan", "ios": "https://dc.lft.to/lastmile_qr_scan"}, "type": "electric_scooter", "name": "12015706d59b0a87c9170f417eae17dc"}, {"bike_id": "9edf536874893ad67f5131e5025c8bd5", "lat": 38.92106866666666, "is_disabled": 0, "lon": -77.01759983333334, "fusion_lon": 0.0, "is_reserved": 0, "fusion_lat": 0.0, "rental_uris": {"android": "https://dc.lft.to/lastmile_qr_scan", "ios": "https://dc.lft.to/lastmile_qr_scan"}, "type": "electric_scooter", "name": "9edf536874893ad67f5131e5025c8bd5"}, {"bike_id": "fd39c1f004afb8e09613a481b59c48f1", "lat": 38.91730733333333, "is_disabled": 0, "lon": -77.02718383333334, "fusion_lon": 0.0, "is_reserved": 0, "fusion_lat": 0.0, "rental_uris": {"android": "https://dc.lft.to/lastmile_qr_scan", "ios": "https://dc.lft.to/lastmile_qr_scan"}, "type": "electric_scooter", "name": "fd39c1f004afb8e09613a481b59c48f1"}, {"bike_id": "3cd2df9a57f7611fe367fc3423e98815", "lat": 38.900166166666665, "is_disabled": 0, "lon": -77.01177733333333, "fusion_lon": 0.0, "is_reserved": 0, "fusion_lat": 0.0, "rental_uris": {"android": "https://dc.lft.to/lastmile_qr_scan", "ios": "https://dc.lft.to/lastmile_qr_scan"}, "type": "electric_scooter", "name": "3cd2df9a57f7611fe367fc3423e98815"}, {"bike_id": "15bc2ad74dc9957d647aefa7abac1114", "lat": 38.89499433333334, "is_disabled": 0, "lon": -77.00215633333333, "fusion_lon": 0.0, "is_reserved": 0, "fusion_lat": 0.0, "rental_uris": {"android": "https://dc.lft.to/lastmile_qr_scan", "ios": "https://dc.lft.to/lastmile_qr_scan"}, "type": "electric_scooter", "name": "15bc2ad74dc9957d647aefa7abac1114"}, {"bike_id": "bd3cf9ae26c332653c3939eda64401fc", "lat": 38.81361533333333, "is_disabled": 0, "lon": -77.0724105, "fusion_lon": 0.0, "is_reserved": 0, "fusion_lat": 0.0, "rental_uris": {"android": "https://dc.lft.to/lastmile_qr_scan", "ios": "https://dc.lft.to/lastmile_qr_scan"}, "type": "electric_bike", "name": "bd3cf9ae26c332653c3939eda64401fc"}, {"bike_id": "a9c834b4617ecdef9a9f0d6c87583753", "lat": 38.92003166666667, "is_disabled": 0, "lon": -77.02461683333334, "fusion_lon": 0.0, "is_reserved": 0, "fusion_lat": 0.0, "rental_uris": {"android": "https://dc.lft.to/lastmile_qr_scan", "ios": "https://dc.lft.to/lastmile_qr_scan"}, "type": "electric_scooter", "name": "a9c834b4617ecdef9a9f0d6c87583753"}, {"bike_id": "6ca673cd68ff18b29af15e11d891857b", "lat": 38.903758, "is_disabled": 0, "lon": -77.03184516666667, "fusion_lon": 0.0, "is_reserved": 0, "fusion_lat": 0.0, "rental_uris": {"android": "https://dc.lft.to/lastmile_qr_scan", "ios": "https://dc.lft.to/lastmile_qr_scan"}, "type": "electric_scooter", "name": "6ca673cd68ff18b29af15e11d891857b"}, {"bike_id": "95a974799455e7027039067a79f0f967", "lat": 38.919335, "is_disabled": 0, "lon": -77.07085433333333, "fusion_lon": 0.0, "is_reserved": 0, "fusion_lat": 0.0, "rental_uris": {"android": "https://dc.lft.to/lastmile_qr_scan", "ios": "https://dc.lft.to/lastmile_qr_scan"}, "type": "electric_scooter", "name": "95a974799455e7027039067a79f0f967"}, {"bike_id": "20f90a5de7e5a46135009bb57d54fe43", "lat": 38.91698216666666, "is_disabled": 0, "lon": -77.025948, "fusion_lon": 0.0, "is_reserved": 0, "fusion_lat": 0.0, "rental_uris": {"android": "https://dc.lft.to/lastmile_qr_scan", "ios": "https://dc.lft.to/lastmile_qr_scan"}, "type": "electric_scooter", "name": "20f90a5de7e5a46135009bb57d54fe43"}, {"bike_id": "3a035e8ae686e269d66c0cb6677c6a8b", "lat": 38.892200833333334, "is_disabled": 0, "lon": -77.023702, "fusion_lon": 0.0, "is_reserved": 0, "fusion_lat": 0.0, "rental_uris": {"android": "https://dc.lft.to/lastmile_qr_scan", "ios": "https://dc.lft.to/lastmile_qr_scan"}, "type": "electric_scooter", "name": "3a035e8ae686e269d66c0cb6677c6a8b"}, {"bike_id": "a4d423fc96e2fe91eb2c06a27893cd48", "lat": 38.89654483333333, "is_disabled": 0, "lon": -77.03377416666666, "fusion_lon": 0.0, "is_reserved": 0, "fusion_lat": 0.0, "rental_uris": {"android": "https://dc.lft.to/lastmile_qr_scan", "ios": "https://dc.lft.to/lastmile_qr_scan"}, "type": "electric_scooter", "name": "a4d423fc96e2fe91eb2c06a27893cd48"}, {"bike_id": "1f7a724d812bf189b873bbfead3d076c", "lat": 38.929894166666664, "is_disabled": 0, "lon": -77.02522833333333, "fusion_lon": 0.0, "is_reserved": 0, "fusion_lat": 0.0, "rental_uris": {"android": "https://dc.lft.to/lastmile_qr_scan", "ios": "https://dc.lft.to/lastmile_qr_scan"}, "type": "electric_scooter", "name": "1f7a724d812bf189b873bbfead3d076c"}, {"bike_id": "db729e8fc62657e3a1c4cabe877e922f", "lat": 38.911146333333335, "is_disabled": 0, "lon": -77.0221855, "fusion_lon": 0.0, "is_reserved": 0, "fusion_lat": 0.0, "rental_uris": {"android": "https://dc.lft.to/lastmile_qr_scan", "ios": "https://dc.lft.to/lastmile_qr_scan"}, "type": "electric_scooter", "name": "db729e8fc62657e3a1c4cabe877e922f"}, {"bike_id": "99e3b8e36efa6dcd391100edc3feea09", "lat": 38.901520166666664, "is_disabled": 0, "lon": -77.04746266666666, "fusion_lon": 0.0, "is_reserved": 0, "fusion_lat": 0.0, "rental_uris": {"android": "https://dc.lft.to/lastmile_qr_scan", "ios": "https://dc.lft.to/lastmile_qr_scan"}, "type": "electric_scooter", "name": "99e3b8e36efa6dcd391100edc3feea09"}, {"bike_id": "6ec70abf93ebff4cfae6b8eee09f9e56", "lat": 38.87922016666667, "is_disabled": 0, "lon": -76.94324866666666, "fusion_lon": 0.0, "is_reserved": 0, "fusion_lat": 0.0, "rental_uris": {"android": "https://dc.lft.to/lastmile_qr_scan", "ios": "https://dc.lft.to/lastmile_qr_scan"}, "type": "electric_scooter", "name": "6ec70abf93ebff4cfae6b8eee09f9e56"}, {"bike_id": "a34b15a6b10f0d9d3deba8161b2e8411", "lat": 38.9004965, "is_disabled": 0, "lon": -76.9984285, "fusion_lon": 0.0, "is_reserved": 0, "fusion_lat": 0.0, "rental_uris": {"android": "https://dc.lft.to/lastmile_qr_scan", "ios": "https://dc.lft.to/lastmile_qr_scan"}, "type": "electric_scooter", "name": "a34b15a6b10f0d9d3deba8161b2e8411"}, {"bike_id": "7832b6fbb784952ef38652928b25ce05", "lat": 38.89221383333334, "is_disabled": 0, "lon": -77.04195333333334, "fusion_lon": 0.0, "is_reserved": 0, "fusion_lat": 0.0, "rental_uris": {"android": "https://dc.lft.to/lastmile_qr_scan", "ios": "https://dc.lft.to/lastmile_qr_scan"}, "type": "electric_scooter", "name": "7832b6fbb784952ef38652928b25ce05"}, {"bike_id": "a7dffded8002c59f09363b874286c448", "lat": 38.90261133333333, "is_disabled": 0, "lon": -77.0176065, "fusion_lon": 0.0, "is_reserved": 0, "fusion_lat": 0.0, "rental_uris": {"android": "https://dc.lft.to/lastmile_qr_scan", "ios": "https://dc.lft.to/lastmile_qr_scan"}, "type": "electric_scooter", "name": "a7dffded8002c59f09363b874286c448"}, {"bike_id": "015197613c15eb6b963408b46cb191f5", "lat": 38.89325866666667, "is_disabled": 0, "lon": -77.02596966666667, "fusion_lon": 0.0, "is_reserved": 0, "fusion_lat": 0.0, "rental_uris": {"android": "https://dc.lft.to/lastmile_qr_scan", "ios": "https://dc.lft.to/lastmile_qr_scan"}, "type": "electric_scooter", "name": "015197613c15eb6b963408b46cb191f5"}, {"bike_id": "9be78dcf5e2b0c2d1df5fa4291594888", "lat": 38.93852616666667, "is_disabled": 0, "lon": -77.0283775, "fusion_lon": 0.0, "is_reserved": 0, "fusion_lat": 0.0, "rental_uris": {"android": "https://dc.lft.to/lastmile_qr_scan", "ios": "https://dc.lft.to/lastmile_qr_scan"}, "type": "electric_scooter", "name": "9be78dcf5e2b0c2d1df5fa4291594888"}, {"bike_id": "994f4e160258106d531cc83c89dacd80", "lat": 38.91691633333333, "is_disabled": 0, "lon": -76.994252, "fusion_lon": 0.0, "is_reserved": 0, "fusion_lat": 0.0, "rental_uris": {"android": "https://dc.lft.to/lastmile_qr_scan", "ios": "https://dc.lft.to/lastmile_qr_scan"}, "type": "electric_scooter", "name": "994f4e160258106d531cc83c89dacd80"}, {"bike_id": "9d258d1f46d1c6f98b1ac68e6e1030c9", "lat": 38.892207, "is_disabled": 0, "lon": -77.045147, "fusion_lon": 0.0, "is_reserved": 0, "fusion_lat": 0.0, "rental_uris": {"android": "https://dc.lft.to/lastmile_qr_scan", "ios": "https://dc.lft.to/lastmile_qr_scan"}, "type": "electric_scooter", "name": "9d258d1f46d1c6f98b1ac68e6e1030c9"}, {"bike_id": "7cd3b046f6d39a9a4b2d4cb4e642d6fa", "lat": 38.9072535, "is_disabled": 0, "lon": -77.04161133333334, "fusion_lon": 0.0, "is_reserved": 0, "fusion_lat": 0.0, "rental_uris": {"android": "https://dc.lft.to/lastmile_qr_scan", "ios": "https://dc.lft.to/lastmile_qr_scan"}, "type": "electric_scooter", "name": "7cd3b046f6d39a9a4b2d4cb4e642d6fa"}, {"bike_id": "8c226b1e725df00f0f8b085639d6610d", "lat": 38.9297215, "is_disabled": 0, "lon": -77.03775416666667, "fusion_lon": 0.0, "is_reserved": 0, "fusion_lat": 0.0, "rental_uris": {"android": "https://dc.lft.to/lastmile_qr_scan", "ios": "https://dc.lft.to/lastmile_qr_scan"}, "type": "electric_scooter", "name": "8c226b1e725df00f0f8b085639d6610d"}, {"bike_id": "af5442a22c3e6256bf72d764ac27d00d", "lat": 38.900649333333334, "is_disabled": 0, "lon": -77.04979283333333, "fusion_lon": 0.0, "is_reserved": 0, "fusion_lat": 0.0, "rental_uris": {"android": "https://dc.lft.to/lastmile_qr_scan", "ios": "https://dc.lft.to/lastmile_qr_scan"}, "type": "electric_scooter", "name": "af5442a22c3e6256bf72d764ac27d00d"}, {"bike_id": "128542ee6b22f3e215910c68d80889a7", "lat": 38.93467866666667, "is_disabled": 0, "lon": -77.04132816666667, "fusion_lon": 0.0, "is_reserved": 0, "fusion_lat": 0.0, "rental_uris": {"android": "https://dc.lft.to/lastmile_qr_scan", "ios": "https://dc.lft.to/lastmile_qr_scan"}, "type": "electric_scooter", "name": "128542ee6b22f3e215910c68d80889a7"}, {"bike_id": "e216088d4d6eed7a33d1259c89542df3", "lat": 38.9055855, "is_disabled": 0, "lon": -77.03975833333334, "fusion_lon": 0.0, "is_reserved": 0, "fusion_lat": 0.0, "rental_uris": {"android": "https://dc.lft.to/lastmile_qr_scan", "ios": "https://dc.lft.to/lastmile_qr_scan"}, "type": "electric_scooter", "name": "e216088d4d6eed7a33d1259c89542df3"}, {"bike_id": "dfd14971d1571fb6e6af76e04e9cd2a2", "lat": 38.909598, "is_disabled": 0, "lon": -77.044608, "fusion_lon": 0.0, "is_reserved": 0, "fusion_lat": 0.0, "rental_uris": {"android": "https://dc.lft.to/lastmile_qr_scan", "ios": "https://dc.lft.to/lastmile_qr_scan"}, "type": "electric_scooter", "name": "dfd14971d1571fb6e6af76e04e9cd2a2"}, {"bike_id": "0c64b2200b0df68709a606cf17a40393", "lat": 38.88125333333333, "is_disabled": 0, "lon": -76.99343633333334, "fusion_lon": 0.0, "is_reserved": 0, "fusion_lat": 0.0, "rental_uris": {"android": "https://dc.lft.to/lastmile_qr_scan", "ios": "https://dc.lft.to/lastmile_qr_scan"}, "type": "electric_scooter", "name": "0c64b2200b0df68709a606cf17a40393"}, {"bike_id": "2bf40120d4d72fb4f6388a8e57ccdea6", "lat": 38.9094255, "is_disabled": 0, "lon": -76.99588033333333, "fusion_lon": 0.0, "is_reserved": 0, "fusion_lat": 0.0, "rental_uris": {"android": "https://dc.lft.to/lastmile_qr_scan", "ios": "https://dc.lft.to/lastmile_qr_scan"}, "type": "electric_scooter", "name": "2bf40120d4d72fb4f6388a8e57ccdea6"}, {"bike_id": "62f47c017db4129c27ab6830028cfb23", "lat": 38.907621, "is_disabled": 0, "lon": -77.02307366666666, "fusion_lon": 0.0, "is_reserved": 0, "fusion_lat": 0.0, "rental_uris": {"android": "https://dc.lft.to/lastmile_qr_scan", "ios": "https://dc.lft.to/lastmile_qr_scan"}, "type": "electric_scooter", "name": "62f47c017db4129c27ab6830028cfb23"}, {"bike_id": "b3d321458cde97cdc3cdb96534d69b31", "lat": 38.911918666666665, "is_disabled": 0, "lon": -77.01074766666666, "fusion_lon": 0.0, "is_reserved": 0, "fusion_lat": 0.0, "rental_uris": {"android": "https://dc.lft.to/lastmile_qr_scan", "ios": "https://dc.lft.to/lastmile_qr_scan"}, "type": "electric_scooter", "name": "b3d321458cde97cdc3cdb96534d69b31"}, {"bike_id": "1b0b4d02134c3432a912d1b104d86fd0", "lat": 38.94198883333333, "is_disabled": 0, "lon": -77.02436216666666, "fusion_lon": 0.0, "is_reserved": 0, "fusion_lat": 0.0, "rental_uris": {"android": "https://dc.lft.to/lastmile_qr_scan", "ios": "https://dc.lft.to/lastmile_qr_scan"}, "type": "electric_scooter", "name": "1b0b4d02134c3432a912d1b104d86fd0"}, {"bike_id": "78c3e8e4c48868cd940ab24736d2c7b3", "lat": 38.90666616666667, "is_disabled": 0, "lon": -77.03859583333333, "fusion_lon": 0.0, "is_reserved": 0, "fusion_lat": 0.0, "rental_uris": {"android": "https://dc.lft.to/lastmile_qr_scan", "ios": "https://dc.lft.to/lastmile_qr_scan"}, "type": "electric_scooter", "name": "78c3e8e4c48868cd940ab24736d2c7b3"}, {"bike_id": "5ac86ab29f689b80478ee0fff928f4c0", "lat": 38.912668833333335, "is_disabled": 0, "lon": -77.022312, "fusion_lon": 0.0, "is_reserved": 0, "fusion_lat": 0.0, "rental_uris": {"android": "https://dc.lft.to/lastmile_qr_scan", "ios": "https://dc.lft.to/lastmile_qr_scan"}, "type": "electric_scooter", "name": "5ac86ab29f689b80478ee0fff928f4c0"}, {"bike_id": "44d61eaabad19c03f444bb1fc4dcefcc", "lat": 38.922312833333336, "is_disabled": 0, "lon": -77.02980833333334, "fusion_lon": 0.0, "is_reserved": 0, "fusion_lat": 0.0, "rental_uris": {"android": "https://dc.lft.to/lastmile_qr_scan", "ios": "https://dc.lft.to/lastmile_qr_scan"}, "type": "electric_scooter", "name": "44d61eaabad19c03f444bb1fc4dcefcc"}, {"bike_id": "7986179c9ab92d905d897605e41035f3", "lat": 38.9126705, "is_disabled": 0, "lon": -77.017671, "fusion_lon": 0.0, "is_reserved": 0, "fusion_lat": 0.0, "rental_uris": {"android": "https://dc.lft.to/lastmile_qr_scan", "ios": "https://dc.lft.to/lastmile_qr_scan"}, "type": "electric_scooter", "name": "7986179c9ab92d905d897605e41035f3"}, {"bike_id": "0e2093270f418d2c3697689b463fd3d5", "lat": 38.89618016666667, "is_disabled": 0, "lon": -77.04667883333333, "fusion_lon": 0.0, "is_reserved": 0, "fusion_lat": 0.0, "rental_uris": {"android": "https://dc.lft.to/lastmile_qr_scan", "ios": "https://dc.lft.to/lastmile_qr_scan"}, "type": "electric_scooter", "name": "0e2093270f418d2c3697689b463fd3d5"}, {"bike_id": "72097a5068b53394ed0368be8c260097", "lat": 38.918546, "is_disabled": 0, "lon": -77.02431816666666, "fusion_lon": 0.0, "is_reserved": 0, "fusion_lat": 0.0, "rental_uris": {"android": "https://dc.lft.to/lastmile_qr_scan", "ios": "https://dc.lft.to/lastmile_qr_scan"}, "type": "electric_scooter", "name": "72097a5068b53394ed0368be8c260097"}, {"bike_id": "7b3b2cb617beb173db268791859285d1", "lat": 38.84510783333333, "is_disabled": 0, "lon": -76.99354683333334, "fusion_lon": 0.0, "is_reserved": 0, "fusion_lat": 0.0, "rental_uris": {"android": "https://dc.lft.to/lastmile_qr_scan", "ios": "https://dc.lft.to/lastmile_qr_scan"}, "type": "electric_bike", "name": "7b3b2cb617beb173db268791859285d1"}, {"bike_id": "fff66b0b500f967fc2da7e9a3e458f92", "lat": 38.901386333333335, "is_disabled": 0, "lon": -77.04051016666666, "fusion_lon": 0.0, "is_reserved": 0, "fusion_lat": 0.0, "rental_uris": {"android": "https://dc.lft.to/lastmile_qr_scan", "ios": "https://dc.lft.to/lastmile_qr_scan"}, "type": "electric_scooter", "name": "fff66b0b500f967fc2da7e9a3e458f92"}, {"bike_id": "4498365d91f4db8cc2ff25c046445a73", "lat": 38.91059716666667, "is_disabled": 0, "lon": -77.01977666666667, "fusion_lon": 0.0, "is_reserved": 0, "fusion_lat": 0.0, "rental_uris": {"android": "https://dc.lft.to/lastmile_qr_scan", "ios": "https://dc.lft.to/lastmile_qr_scan"}, "type": "electric_scooter", "name": "4498365d91f4db8cc2ff25c046445a73"}, {"bike_id": "6e930c40c0dd8185d9dde2b84cb8051b", "lat": 38.8633075, "is_disabled": 0, "lon": -76.98723533333333, "fusion_lon": 0.0, "is_reserved": 0, "fusion_lat": 0.0, "rental_uris": {"android": "https://dc.lft.to/lastmile_qr_scan", "ios": "https://dc.lft.to/lastmile_qr_scan"}, "type": "electric_bike", "name": "6e930c40c0dd8185d9dde2b84cb8051b"}, {"bike_id": "6796ce94ac80c5895e4d297723820ac4", "lat": 38.874014333333335, "is_disabled": 0, "lon": -76.96985433333333, "fusion_lon": 0.0, "is_reserved": 0, "fusion_lat": 0.0, "rental_uris": {"android": "https://dc.lft.to/lastmile_qr_scan", "ios": "https://dc.lft.to/lastmile_qr_scan"}, "type": "electric_scooter", "name": "6796ce94ac80c5895e4d297723820ac4"}, {"bike_id": "60605abcbfcd38ad9e12d0355b36f25f", "lat": 38.9085955, "is_disabled": 0, "lon": -77.00368383333333, "fusion_lon": 0.0, "is_reserved": 0, "fusion_lat": 0.0, "rental_uris": {"android": "https://dc.lft.to/lastmile_qr_scan", "ios": "https://dc.lft.to/lastmile_qr_scan"}, "type": "electric_scooter", "name": "60605abcbfcd38ad9e12d0355b36f25f"}, {"bike_id": "29135632dc3d5c69d804d1e163cf306d", "lat": 38.931574499999996, "is_disabled": 0, "lon": -77.031936, "fusion_lon": 0.0, "is_reserved": 0, "fusion_lat": 0.0, "rental_uris": {"android": "https://dc.lft.to/lastmile_qr_scan", "ios": "https://dc.lft.to/lastmile_qr_scan"}, "type": "electric_scooter", "name": "29135632dc3d5c69d804d1e163cf306d"}, {"bike_id": "faa2bf62e8556a7799702a69cce871bb", "lat": 38.88433033333333, "is_disabled": 0, "lon": -76.95753583333334, "fusion_lon": 0.0, "is_reserved": 0, "fusion_lat": 0.0, "rental_uris": {"android": "https://dc.lft.to/lastmile_qr_scan", "ios": "https://dc.lft.to/lastmile_qr_scan"}, "type": "electric_scooter", "name": "faa2bf62e8556a7799702a69cce871bb"}, {"bike_id": "b9ef8f96792d775799364fa696b8e640", "lat": 38.916161, "is_disabled": 0, "lon": -77.0466, "fusion_lon": 0.0, "is_reserved": 0, "fusion_lat": 0.0, "rental_uris": {"android": "https://dc.lft.to/lastmile_qr_scan", "ios": "https://dc.lft.to/lastmile_qr_scan"}, "type": "electric_scooter", "name": "b9ef8f96792d775799364fa696b8e640"}, {"bike_id": "d142a83cb60411d578fd692c5d3dd764", "lat": 38.9068815, "is_disabled": 0, "lon": -77.0269675, "fusion_lon": 0.0, "is_reserved": 0, "fusion_lat": 0.0, "rental_uris": {"android": "https://dc.lft.to/lastmile_qr_scan", "ios": "https://dc.lft.to/lastmile_qr_scan"}, "type": "electric_scooter", "name": "d142a83cb60411d578fd692c5d3dd764"}, {"bike_id": "419c2670095cb112a10d3f494770f888", "lat": 38.92112483333333, "is_disabled": 0, "lon": -77.04206716666667, "fusion_lon": 0.0, "is_reserved": 0, "fusion_lat": 0.0, "rental_uris": {"android": "https://dc.lft.to/lastmile_qr_scan", "ios": "https://dc.lft.to/lastmile_qr_scan"}, "type": "electric_scooter", "name": "419c2670095cb112a10d3f494770f888"}, {"bike_id": "3b1a11d81a3d83dcb0d5f81e412ea08d", "lat": 38.9166585, "is_disabled": 0, "lon": -77.04382833333334, "fusion_lon": 0.0, "is_reserved": 0, "fusion_lat": 0.0, "rental_uris": {"android": "https://dc.lft.to/lastmile_qr_scan", "ios": "https://dc.lft.to/lastmile_qr_scan"}, "type": "electric_scooter", "name": "3b1a11d81a3d83dcb0d5f81e412ea08d"}, {"bike_id": "1d1cf617c3202f0bc044feff7052f64f", "lat": 38.89985183333334, "is_disabled": 0, "lon": -77.02120416666666, "fusion_lon": 0.0, "is_reserved": 0, "fusion_lat": 0.0, "rental_uris": {"android": "https://dc.lft.to/lastmile_qr_scan", "ios": "https://dc.lft.to/lastmile_qr_scan"}, "type": "electric_scooter", "name": "1d1cf617c3202f0bc044feff7052f64f"}, {"bike_id": "6bdc88d907c2ded634d000601368f977", "lat": 38.90311633333334, "is_disabled": 0, "lon": -76.9780605, "fusion_lon": 0.0, "is_reserved": 0, "fusion_lat": 0.0, "rental_uris": {"android": "https://dc.lft.to/lastmile_qr_scan", "ios": "https://dc.lft.to/lastmile_qr_scan"}, "type": "electric_scooter", "name": "6bdc88d907c2ded634d000601368f977"}, {"bike_id": "cff83de7a243494f1d9fc3a159febc8f", "lat": 38.90732033333333, "is_disabled": 0, "lon": -77.03990133333333, "fusion_lon": 0.0, "is_reserved": 0, "fusion_lat": 0.0, "rental_uris": {"android": "https://dc.lft.to/lastmile_qr_scan", "ios": "https://dc.lft.to/lastmile_qr_scan"}, "type": "electric_scooter", "name": "cff83de7a243494f1d9fc3a159febc8f"}, {"bike_id": "2952d08bb312a7d6ae779f7d822b11eb", "lat": 38.92011333333333, "is_disabled": 0, "lon": -77.02133916666666, "fusion_lon": 0.0, "is_reserved": 0, "fusion_lat": 0.0, "rental_uris": {"android": "https://dc.lft.to/lastmile_qr_scan", "ios": "https://dc.lft.to/lastmile_qr_scan"}, "type": "electric_scooter", "name": "2952d08bb312a7d6ae779f7d822b11eb"}, {"bike_id": "ef3d4f834e036e5ccf3482eeca006a6b", "lat": 38.92085466666666, "is_disabled": 0, "lon": -77.07559233333333, "fusion_lon": 0.0, "is_reserved": 0, "fusion_lat": 0.0, "rental_uris": {"android": "https://dc.lft.to/lastmile_qr_scan", "ios": "https://dc.lft.to/lastmile_qr_scan"}, "type": "electric_scooter", "name": "ef3d4f834e036e5ccf3482eeca006a6b"}, {"bike_id": "82c8cb4057f7b97f08d79f59d6b6de52", "lat": 38.919471, "is_disabled": 0, "lon": -77.02499483333334, "fusion_lon": 0.0, "is_reserved": 0, "fusion_lat": 0.0, "rental_uris": {"android": "https://dc.lft.to/lastmile_qr_scan", "ios": "https://dc.lft.to/lastmile_qr_scan"}, "type": "electric_scooter", "name": "82c8cb4057f7b97f08d79f59d6b6de52"}, {"bike_id": "6412b5bcb63e13deedc4c0a0f7f3b2a8", "lat": 38.8999935, "is_disabled": 0, "lon": -77.0006105, "fusion_lon": 0.0, "is_reserved": 0, "fusion_lat": 0.0, "rental_uris": {"android": "https://dc.lft.to/lastmile_qr_scan", "ios": "https://dc.lft.to/lastmile_qr_scan"}, "type": "electric_scooter", "name": "6412b5bcb63e13deedc4c0a0f7f3b2a8"}, {"bike_id": "a65a8c25082e319e6d95ce0252b17405", "lat": 38.902506, "is_disabled": 0, "lon": -77.0397255, "fusion_lon": 0.0, "is_reserved": 0, "fusion_lat": 0.0, "rental_uris": {"android": "https://dc.lft.to/lastmile_qr_scan", "ios": "https://dc.lft.to/lastmile_qr_scan"}, "type": "electric_scooter", "name": "a65a8c25082e319e6d95ce0252b17405"}, {"bike_id": "b94b6c098d32d169d78935de0e2f3a95", "lat": 38.902291166666664, "is_disabled": 0, "lon": -76.9419765, "fusion_lon": 0.0, "is_reserved": 0, "fusion_lat": 0.0, "rental_uris": {"android": "https://dc.lft.to/lastmile_qr_scan", "ios": "https://dc.lft.to/lastmile_qr_scan"}, "type": "electric_scooter", "name": "b94b6c098d32d169d78935de0e2f3a95"}, {"bike_id": "1230d46c05950260bc14fa31e177a3ba", "lat": 38.90546833333333, "is_disabled": 0, "lon": -76.9948185, "fusion_lon": 0.0, "is_reserved": 0, "fusion_lat": 0.0, "rental_uris": {"android": "https://dc.lft.to/lastmile_qr_scan", "ios": "https://dc.lft.to/lastmile_qr_scan"}, "type": "electric_scooter", "name": "1230d46c05950260bc14fa31e177a3ba"}, {"bike_id": "15827b51f8f09383ad4c90b0aa00c56a", "lat": 38.90067533333333, "is_disabled": 0, "lon": -77.02801733333334, "fusion_lon": 0.0, "is_reserved": 0, "fusion_lat": 0.0, "rental_uris": {"android": "https://dc.lft.to/lastmile_qr_scan", "ios": "https://dc.lft.to/lastmile_qr_scan"}, "type": "electric_scooter", "name": "15827b51f8f09383ad4c90b0aa00c56a"}, {"bike_id": "7c73e6086c3048a0cc1bce5d94ddbea8", "lat": 38.914427333333336, "is_disabled": 0, "lon": -77.04177333333334, "fusion_lon": 0.0, "is_reserved": 0, "fusion_lat": 0.0, "rental_uris": {"android": "https://dc.lft.to/lastmile_qr_scan", "ios": "https://dc.lft.to/lastmile_qr_scan"}, "type": "electric_scooter", "name": "7c73e6086c3048a0cc1bce5d94ddbea8"}, {"bike_id": "60f94a5ef9592fbb17ad0bd23153a9e3", "lat": 38.91848683333333, "is_disabled": 0, "lon": -76.96539983333334, "fusion_lon": 0.0, "is_reserved": 0, "fusion_lat": 0.0, "rental_uris": {"android": "https://dc.lft.to/lastmile_qr_scan", "ios": "https://dc.lft.to/lastmile_qr_scan"}, "type": "electric_scooter", "name": "60f94a5ef9592fbb17ad0bd23153a9e3"}, {"bike_id": "346db22c6e0ce16256d50da92c1cbd4b", "lat": 38.934245, "is_disabled": 0, "lon": -77.04152666666667, "fusion_lon": 0.0, "is_reserved": 0, "fusion_lat": 0.0, "rental_uris": {"android": "https://dc.lft.to/lastmile_qr_scan", "ios": "https://dc.lft.to/lastmile_qr_scan"}, "type": "electric_scooter", "name": "346db22c6e0ce16256d50da92c1cbd4b"}, {"bike_id": "b0d6c2356732362d06f3ca1c2550c6b9", "lat": 38.90329966666667, "is_disabled": 0, "lon": -77.028693, "fusion_lon": 0.0, "is_reserved": 0, "fusion_lat": 0.0, "rental_uris": {"android": "https://dc.lft.to/lastmile_qr_scan", "ios": "https://dc.lft.to/lastmile_qr_scan"}, "type": "electric_scooter", "name": "b0d6c2356732362d06f3ca1c2550c6b9"}, {"bike_id": "1359f338bcca19fad983a6759d2a51ca", "lat": 38.89838683333333, "is_disabled": 0, "lon": -77.0074515, "fusion_lon": 0.0, "is_reserved": 0, "fusion_lat": 0.0, "rental_uris": {"android": "https://dc.lft.to/lastmile_qr_scan", "ios": "https://dc.lft.to/lastmile_qr_scan"}, "type": "electric_scooter", "name": "1359f338bcca19fad983a6759d2a51ca"}, {"bike_id": "849a4ced20b12217bb7cc0cdcc5e9a12", "lat": 38.8874685, "is_disabled": 0, "lon": -77.03146316666667, "fusion_lon": 0.0, "is_reserved": 0, "fusion_lat": 0.0, "rental_uris": {"android": "https://dc.lft.to/lastmile_qr_scan", "ios": "https://dc.lft.to/lastmile_qr_scan"}, "type": "electric_scooter", "name": "849a4ced20b12217bb7cc0cdcc5e9a12"}, {"bike_id": "e20e20e17024fb653c80b24a0823ac03", "lat": 38.905462166666666, "is_disabled": 0, "lon": -77.04564666666667, "fusion_lon": 0.0, "is_reserved": 0, "fusion_lat": 0.0, "rental_uris": {"android": "https://dc.lft.to/lastmile_qr_scan", "ios": "https://dc.lft.to/lastmile_qr_scan"}, "type": "electric_scooter", "name": "e20e20e17024fb653c80b24a0823ac03"}, {"bike_id": "5c4f813caa99ca12cc66d89356ff27e8", "lat": 38.8922225, "is_disabled": 0, "lon": -77.047539, "fusion_lon": 0.0, "is_reserved": 0, "fusion_lat": 0.0, "rental_uris": {"android": "https://dc.lft.to/lastmile_qr_scan", "ios": "https://dc.lft.to/lastmile_qr_scan"}, "type": "electric_scooter", "name": "5c4f813caa99ca12cc66d89356ff27e8"}, {"bike_id": "2d508e1197ecb7774b27d96318372fdb", "lat": 38.914282166666666, "is_disabled": 0, "lon": -77.03183216666666, "fusion_lon": 0.0, "is_reserved": 0, "fusion_lat": 0.0, "rental_uris": {"android": "https://dc.lft.to/lastmile_qr_scan", "ios": "https://dc.lft.to/lastmile_qr_scan"}, "type": "electric_scooter", "name": "2d508e1197ecb7774b27d96318372fdb"}, {"bike_id": "7540e9bc42b6b134b6e501b16d42c551", "lat": 38.91705233333333, "is_disabled": 0, "lon": -77.0110405, "fusion_lon": 0.0, "is_reserved": 0, "fusion_lat": 0.0, "rental_uris": {"android": "https://dc.lft.to/lastmile_qr_scan", "ios": "https://dc.lft.to/lastmile_qr_scan"}, "type": "electric_scooter", "name": "7540e9bc42b6b134b6e501b16d42c551"}, {"bike_id": "8e1f508cfc352fd5d4edb4a4941b23e7", "lat": 38.920094666666664, "is_disabled": 0, "lon": -77.03208083333334, "fusion_lon": 0.0, "is_reserved": 0, "fusion_lat": 0.0, "rental_uris": {"android": "https://dc.lft.to/lastmile_qr_scan", "ios": "https://dc.lft.to/lastmile_qr_scan"}, "type": "electric_scooter", "name": "8e1f508cfc352fd5d4edb4a4941b23e7"}, {"bike_id": "49c6efe2e7506a5f895d2ccb9cf020ea", "lat": 38.892374833333335, "is_disabled": 0, "lon": -77.04163016666666, "fusion_lon": 0.0, "is_reserved": 0, "fusion_lat": 0.0, "rental_uris": {"android": "https://dc.lft.to/lastmile_qr_scan", "ios": "https://dc.lft.to/lastmile_qr_scan"}, "type": "electric_scooter", "name": "49c6efe2e7506a5f895d2ccb9cf020ea"}, {"bike_id": "c159c49d92ccd5dcb3bdc8e543ba6385", "lat": 38.906295666666665, "is_disabled": 0, "lon": -77.04660616666666, "fusion_lon": 0.0, "is_reserved": 0, "fusion_lat": 0.0, "rental_uris": {"android": "https://dc.lft.to/lastmile_qr_scan", "ios": "https://dc.lft.to/lastmile_qr_scan"}, "type": "electric_scooter", "name": "c159c49d92ccd5dcb3bdc8e543ba6385"}, {"bike_id": "f771b76056daa1626b033d7705359acb", "lat": 38.905134, "is_disabled": 0, "lon": -77.05465633333333, "fusion_lon": 0.0, "is_reserved": 0, "fusion_lat": 0.0, "rental_uris": {"android": "https://dc.lft.to/lastmile_qr_scan", "ios": "https://dc.lft.to/lastmile_qr_scan"}, "type": "electric_scooter", "name": "f771b76056daa1626b033d7705359acb"}, {"bike_id": "ffc9ad0b4df5228fcfa13c6929503f5e", "lat": 38.92795816666667, "is_disabled": 0, "lon": -77.02600883333334, "fusion_lon": 0.0, "is_reserved": 0, "fusion_lat": 0.0, "rental_uris": {"android": "https://dc.lft.to/lastmile_qr_scan", "ios": "https://dc.lft.to/lastmile_qr_scan"}, "type": "electric_scooter", "name": "ffc9ad0b4df5228fcfa13c6929503f5e"}, {"bike_id": "66fdf76353ac03ba51a36dd9dd097eca", "lat": 38.909570333333335, "is_disabled": 0, "lon": -77.02276916666666, "fusion_lon": 0.0, "is_reserved": 0, "fusion_lat": 0.0, "rental_uris": {"android": "https://dc.lft.to/lastmile_qr_scan", "ios": "https://dc.lft.to/lastmile_qr_scan"}, "type": "electric_scooter", "name": "66fdf76353ac03ba51a36dd9dd097eca"}, {"bike_id": "8ae17417d4269aa3462bfc8694ad04d9", "lat": 38.910222, "is_disabled": 0, "lon": -77.0487285, "fusion_lon": 0.0, "is_reserved": 0, "fusion_lat": 0.0, "rental_uris": {"android": "https://dc.lft.to/lastmile_qr_scan", "ios": "https://dc.lft.to/lastmile_qr_scan"}, "type": "electric_scooter", "name": "8ae17417d4269aa3462bfc8694ad04d9"}, {"bike_id": "e5291823b5ce01be360c9bcdb3407d17", "lat": 38.892676, "is_disabled": 0, "lon": -77.04202716666667, "fusion_lon": 0.0, "is_reserved": 0, "fusion_lat": 0.0, "rental_uris": {"android": "https://dc.lft.to/lastmile_qr_scan", "ios": "https://dc.lft.to/lastmile_qr_scan"}, "type": "electric_scooter", "name": "e5291823b5ce01be360c9bcdb3407d17"}, {"bike_id": "be3280c34ba20df9616f9b8a0f6f206f", "lat": 38.880822, "is_disabled": 0, "lon": -76.98508266666667, "fusion_lon": 0.0, "is_reserved": 0, "fusion_lat": 0.0, "rental_uris": {"android": "https://dc.lft.to/lastmile_qr_scan", "ios": "https://dc.lft.to/lastmile_qr_scan"}, "type": "electric_scooter", "name": "be3280c34ba20df9616f9b8a0f6f206f"}, {"bike_id": "bbce5abae4701cc12d66d20fd4892f77", "lat": 38.914072833333336, "is_disabled": 0, "lon": -77.04498516666666, "fusion_lon": 0.0, "is_reserved": 0, "fusion_lat": 0.0, "rental_uris": {"android": "https://dc.lft.to/lastmile_qr_scan", "ios": "https://dc.lft.to/lastmile_qr_scan"}, "type": "electric_scooter", "name": "bbce5abae4701cc12d66d20fd4892f77"}, {"bike_id": "2926bfb4b857965fe637a023eeb1c6fa", "lat": 38.893624, "is_disabled": 0, "lon": -76.98636766666667, "fusion_lon": 0.0, "is_reserved": 0, "fusion_lat": 0.0, "rental_uris": {"android": "https://dc.lft.to/lastmile_qr_scan", "ios": "https://dc.lft.to/lastmile_qr_scan"}, "type": "electric_scooter", "name": "2926bfb4b857965fe637a023eeb1c6fa"}, {"bike_id": "14430312aaf7ad121e63690ca4ebf255", "lat": 38.8974015, "is_disabled": 0, "lon": -77.02458416666667, "fusion_lon": 0.0, "is_reserved": 0, "fusion_lat": 0.0, "rental_uris": {"android": "https://dc.lft.to/lastmile_qr_scan", "ios": "https://dc.lft.to/lastmile_qr_scan"}, "type": "electric_scooter", "name": "14430312aaf7ad121e63690ca4ebf255"}, {"bike_id": "ae0b06e4799471c92f3ab1dd4a3405c7", "lat": 38.922411, "is_disabled": 0, "lon": -77.02095133333333, "fusion_lon": 0.0, "is_reserved": 0, "fusion_lat": 0.0, "rental_uris": {"android": "https://dc.lft.to/lastmile_qr_scan", "ios": "https://dc.lft.to/lastmile_qr_scan"}, "type": "electric_scooter", "name": "ae0b06e4799471c92f3ab1dd4a3405c7"}, {"bike_id": "3d309e0d750630222a5329d33cdc8b52", "lat": 38.89219283333333, "is_disabled": 0, "lon": -77.0486445, "fusion_lon": 0.0, "is_reserved": 0, "fusion_lat": 0.0, "rental_uris": {"android": "https://dc.lft.to/lastmile_qr_scan", "ios": "https://dc.lft.to/lastmile_qr_scan"}, "type": "electric_scooter", "name": "3d309e0d750630222a5329d33cdc8b52"}, {"bike_id": "543f9ef1d139dcec8b976beb794e3c23", "lat": 38.91438383333333, "is_disabled": 0, "lon": -77.041785, "fusion_lon": 0.0, "is_reserved": 0, "fusion_lat": 0.0, "rental_uris": {"android": "https://dc.lft.to/lastmile_qr_scan", "ios": "https://dc.lft.to/lastmile_qr_scan"}, "type": "electric_scooter", "name": "543f9ef1d139dcec8b976beb794e3c23"}, {"bike_id": "fe80a18054323784dafe77158dd3544e", "lat": 38.9200055, "is_disabled": 0, "lon": -77.02136116666667, "fusion_lon": 0.0, "is_reserved": 0, "fusion_lat": 0.0, "rental_uris": {"android": "https://dc.lft.to/lastmile_qr_scan", "ios": "https://dc.lft.to/lastmile_qr_scan"}, "type": "electric_scooter", "name": "fe80a18054323784dafe77158dd3544e"}, {"bike_id": "abac128250d32a6482f9776c45c3dab1", "lat": 38.90166083333333, "is_disabled": 0, "lon": -77.02468733333333, "fusion_lon": 0.0, "is_reserved": 0, "fusion_lat": 0.0, "rental_uris": {"android": "https://dc.lft.to/lastmile_qr_scan", "ios": "https://dc.lft.to/lastmile_qr_scan"}, "type": "electric_scooter", "name": "abac128250d32a6482f9776c45c3dab1"}, {"bike_id": "3c2b38bd1d9612204c5d82fe39043935", "lat": 38.913379666666664, "is_disabled": 0, "lon": -77.06321066666666, "fusion_lon": 0.0, "is_reserved": 0, "fusion_lat": 0.0, "rental_uris": {"android": "https://dc.lft.to/lastmile_qr_scan", "ios": "https://dc.lft.to/lastmile_qr_scan"}, "type": "electric_scooter", "name": "3c2b38bd1d9612204c5d82fe39043935"}, {"bike_id": "62de7981e1fac9d6ffe789be044527c2", "lat": 38.90679883333333, "is_disabled": 0, "lon": -77.0624575, "fusion_lon": 0.0, "is_reserved": 0, "fusion_lat": 0.0, "rental_uris": {"android": "https://dc.lft.to/lastmile_qr_scan", "ios": "https://dc.lft.to/lastmile_qr_scan"}, "type": "electric_scooter", "name": "62de7981e1fac9d6ffe789be044527c2"}, {"bike_id": "5ccebdc847fc34f5f4306fc9372f8b30", "lat": 38.92071883333333, "is_disabled": 0, "lon": -77.02538983333334, "fusion_lon": 0.0, "is_reserved": 0, "fusion_lat": 0.0, "rental_uris": {"android": "https://dc.lft.to/lastmile_qr_scan", "ios": "https://dc.lft.to/lastmile_qr_scan"}, "type": "electric_scooter", "name": "5ccebdc847fc34f5f4306fc9372f8b30"}, {"bike_id": "1a1a0f9da4a95309590d2b911fed5d9c", "lat": 38.894558833333335, "is_disabled": 0, "lon": -77.003481, "fusion_lon": 0.0, "is_reserved": 0, "fusion_lat": 0.0, "rental_uris": {"android": "https://dc.lft.to/lastmile_qr_scan", "ios": "https://dc.lft.to/lastmile_qr_scan"}, "type": "electric_scooter", "name": "1a1a0f9da4a95309590d2b911fed5d9c"}, {"bike_id": "05af89b871fdd74d07fd93e30bcb23ce", "lat": 38.938626, "is_disabled": 0, "lon": -77.024884, "fusion_lon": 0.0, "is_reserved": 0, "fusion_lat": 0.0, "rental_uris": {"android": "https://dc.lft.to/lastmile_qr_scan", "ios": "https://dc.lft.to/lastmile_qr_scan"}, "type": "electric_scooter", "name": "05af89b871fdd74d07fd93e30bcb23ce"}, {"bike_id": "cfe5a43b93689171d815c38e1f59a3a1", "lat": 38.8310715, "is_disabled": 0, "lon": -77.1128435, "fusion_lon": 0.0, "is_reserved": 0, "fusion_lat": 0.0, "rental_uris": {"android": "https://dc.lft.to/lastmile_qr_scan", "ios": "https://dc.lft.to/lastmile_qr_scan"}, "type": "electric_bike", "name": "cfe5a43b93689171d815c38e1f59a3a1"}, {"bike_id": "f67995afa949ce8f981d2b33d13d8059", "lat": 38.917015666666664, "is_disabled": 0, "lon": -77.03602516666666, "fusion_lon": 0.0, "is_reserved": 0, "fusion_lat": 0.0, "rental_uris": {"android": "https://dc.lft.to/lastmile_qr_scan", "ios": "https://dc.lft.to/lastmile_qr_scan"}, "type": "electric_scooter", "name": "f67995afa949ce8f981d2b33d13d8059"}, {"bike_id": "f96d90233303ea503094596b1b51ee36", "lat": 38.899369166666666, "is_disabled": 0, "lon": -77.04184683333334, "fusion_lon": 0.0, "is_reserved": 0, "fusion_lat": 0.0, "rental_uris": {"android": "https://dc.lft.to/lastmile_qr_scan", "ios": "https://dc.lft.to/lastmile_qr_scan"}, "type": "electric_scooter", "name": "f96d90233303ea503094596b1b51ee36"}, {"bike_id": "b6397ebd7a34c396b020a97b451feaea", "lat": 38.943299833333334, "is_disabled": 0, "lon": -77.01477133333333, "fusion_lon": 0.0, "is_reserved": 0, "fusion_lat": 0.0, "rental_uris": {"android": "https://dc.lft.to/lastmile_qr_scan", "ios": "https://dc.lft.to/lastmile_qr_scan"}, "type": "electric_scooter", "name": "b6397ebd7a34c396b020a97b451feaea"}, {"bike_id": "8c849f2c409a0a23e9c215cccb5320b5", "lat": 38.900991, "is_disabled": 0, "lon": -77.01216266666667, "fusion_lon": 0.0, "is_reserved": 0, "fusion_lat": 0.0, "rental_uris": {"android": "https://dc.lft.to/lastmile_qr_scan", "ios": "https://dc.lft.to/lastmile_qr_scan"}, "type": "electric_scooter", "name": "8c849f2c409a0a23e9c215cccb5320b5"}, {"bike_id": "6dfc91292b8f4406447404800d891a55", "lat": 38.909960833333336, "is_disabled": 0, "lon": -77.04462783333334, "fusion_lon": 0.0, "is_reserved": 0, "fusion_lat": 0.0, "rental_uris": {"android": "https://dc.lft.to/lastmile_qr_scan", "ios": "https://dc.lft.to/lastmile_qr_scan"}, "type": "electric_scooter", "name": "6dfc91292b8f4406447404800d891a55"}, {"bike_id": "2e135448824e1dce8a36a5ec2530defb", "lat": 38.887474, "is_disabled": 0, "lon": -77.017303, "fusion_lon": 0.0, "is_reserved": 0, "fusion_lat": 0.0, "rental_uris": {"android": "https://dc.lft.to/lastmile_qr_scan", "ios": "https://dc.lft.to/lastmile_qr_scan"}, "type": "electric_scooter", "name": "2e135448824e1dce8a36a5ec2530defb"}, {"bike_id": "d9c1dc1a8d3c2c8ac2fbbeeade8c5ec0", "lat": 38.899849333333336, "is_disabled": 0, "lon": -76.99477483333334, "fusion_lon": 0.0, "is_reserved": 0, "fusion_lat": 0.0, "rental_uris": {"android": "https://dc.lft.to/lastmile_qr_scan", "ios": "https://dc.lft.to/lastmile_qr_scan"}, "type": "electric_scooter", "name": "d9c1dc1a8d3c2c8ac2fbbeeade8c5ec0"}, {"bike_id": "015b0f8d600f37992e7ecf3daac7bf3c", "lat": 38.924696, "is_disabled": 0, "lon": -77.03061733333334, "fusion_lon": 0.0, "is_reserved": 0, "fusion_lat": 0.0, "rental_uris": {"android": "https://dc.lft.to/lastmile_qr_scan", "ios": "https://dc.lft.to/lastmile_qr_scan"}, "type": "electric_scooter", "name": "015b0f8d600f37992e7ecf3daac7bf3c"}, {"bike_id": "114ffaebab60907bb46275cdc89ec020", "lat": 38.897472, "is_disabled": 0, "lon": -77.04624133333333, "fusion_lon": 0.0, "is_reserved": 0, "fusion_lat": 0.0, "rental_uris": {"android": "https://dc.lft.to/lastmile_qr_scan", "ios": "https://dc.lft.to/lastmile_qr_scan"}, "type": "electric_scooter", "name": "114ffaebab60907bb46275cdc89ec020"}, {"bike_id": "c23bea7cf334ad8057815b597d47e16b", "lat": 38.903747333333335, "is_disabled": 0, "lon": -77.06694033333333, "fusion_lon": 0.0, "is_reserved": 0, "fusion_lat": 0.0, "rental_uris": {"android": "https://dc.lft.to/lastmile_qr_scan", "ios": "https://dc.lft.to/lastmile_qr_scan"}, "type": "electric_scooter", "name": "c23bea7cf334ad8057815b597d47e16b"}, {"bike_id": "6fa17137a0581d4527289c9ea6f8852f", "lat": 38.88604133333333, "is_disabled": 0, "lon": -76.990998, "fusion_lon": 0.0, "is_reserved": 0, "fusion_lat": 0.0, "rental_uris": {"android": "https://dc.lft.to/lastmile_qr_scan", "ios": "https://dc.lft.to/lastmile_qr_scan"}, "type": "electric_scooter", "name": "6fa17137a0581d4527289c9ea6f8852f"}, {"bike_id": "c5f509439c1b0bf6ee5a693e749dfb0d", "lat": 38.86228216666667, "is_disabled": 0, "lon": -76.9949675, "fusion_lon": 0.0, "is_reserved": 0, "fusion_lat": 0.0, "rental_uris": {"android": "https://dc.lft.to/lastmile_qr_scan", "ios": "https://dc.lft.to/lastmile_qr_scan"}, "type": "electric_scooter", "name": "c5f509439c1b0bf6ee5a693e749dfb0d"}, {"bike_id": "c8949a3ac33921c281dbdb5bdbe885d4", "lat": 38.862672333333336, "is_disabled": 0, "lon": -76.99571716666667, "fusion_lon": 0.0, "is_reserved": 0, "fusion_lat": 0.0, "rental_uris": {"android": "https://dc.lft.to/lastmile_qr_scan", "ios": "https://dc.lft.to/lastmile_qr_scan"}, "type": "electric_scooter", "name": "c8949a3ac33921c281dbdb5bdbe885d4"}, {"bike_id": "3a606a1281450d9d6af395658d80055a", "lat": 38.8773765, "is_disabled": 0, "lon": -76.99482733333333, "fusion_lon": 0.0, "is_reserved": 0, "fusion_lat": 0.0, "rental_uris": {"android": "https://dc.lft.to/lastmile_qr_scan", "ios": "https://dc.lft.to/lastmile_qr_scan"}, "type": "electric_scooter", "name": "3a606a1281450d9d6af395658d80055a"}, {"bike_id": "27845f4e8fc52c002446188ea1920a84", "lat": 38.90088333333333, "is_disabled": 0, "lon": -77.02706766666667, "fusion_lon": 0.0, "is_reserved": 0, "fusion_lat": 0.0, "rental_uris": {"android": "https://dc.lft.to/lastmile_qr_scan", "ios": "https://dc.lft.to/lastmile_qr_scan"}, "type": "electric_scooter", "name": "27845f4e8fc52c002446188ea1920a84"}, {"bike_id": "3381b13abe2c5136c59335458313112a", "lat": 38.899114, "is_disabled": 0, "lon": -76.93379283333333, "fusion_lon": 0.0, "is_reserved": 0, "fusion_lat": 0.0, "rental_uris": {"android": "https://dc.lft.to/lastmile_qr_scan", "ios": "https://dc.lft.to/lastmile_qr_scan"}, "type": "electric_scooter", "name": "3381b13abe2c5136c59335458313112a"}, {"bike_id": "ec5106eb290490b2b35a05118544c427", "lat": 38.87638833333333, "is_disabled": 0, "lon": -76.99324966666667, "fusion_lon": 0.0, "is_reserved": 0, "fusion_lat": 0.0, "rental_uris": {"android": "https://dc.lft.to/lastmile_qr_scan", "ios": "https://dc.lft.to/lastmile_qr_scan"}, "type": "electric_scooter", "name": "ec5106eb290490b2b35a05118544c427"}, {"bike_id": "9783920327ee049e84b637a9ed6a47e6", "lat": 38.928435, "is_disabled": 0, "lon": -77.03291933333334, "fusion_lon": 0.0, "is_reserved": 0, "fusion_lat": 0.0, "rental_uris": {"android": "https://dc.lft.to/lastmile_qr_scan", "ios": "https://dc.lft.to/lastmile_qr_scan"}, "type": "electric_scooter", "name": "9783920327ee049e84b637a9ed6a47e6"}, {"bike_id": "877a60b205f407e0df6fefa2739f3906", "lat": 38.91199983333333, "is_disabled": 0, "lon": -76.987795, "fusion_lon": 0.0, "is_reserved": 0, "fusion_lat": 0.0, "rental_uris": {"android": "https://dc.lft.to/lastmile_qr_scan", "ios": "https://dc.lft.to/lastmile_qr_scan"}, "type": "electric_scooter", "name": "877a60b205f407e0df6fefa2739f3906"}, {"bike_id": "9ed790923d192551fa8341b244391ba2", "lat": 38.871753, "is_disabled": 0, "lon": -77.005791, "fusion_lon": 0.0, "is_reserved": 0, "fusion_lat": 0.0, "rental_uris": {"android": "https://dc.lft.to/lastmile_qr_scan", "ios": "https://dc.lft.to/lastmile_qr_scan"}, "type": "electric_scooter", "name": "9ed790923d192551fa8341b244391ba2"}, {"bike_id": "dea8f495dcdfb5c9ade60fd1f8063165", "lat": 38.89508716666667, "is_disabled": 0, "lon": -77.01118866666667, "fusion_lon": 0.0, "is_reserved": 0, "fusion_lat": 0.0, "rental_uris": {"android": "https://dc.lft.to/lastmile_qr_scan", "ios": "https://dc.lft.to/lastmile_qr_scan"}, "type": "electric_scooter", "name": "dea8f495dcdfb5c9ade60fd1f8063165"}, {"bike_id": "ab45abf315aea85548ddfde73a49bed3", "lat": 38.886292833333336, "is_disabled": 0, "lon": -77.022231, "fusion_lon": 0.0, "is_reserved": 0, "fusion_lat": 0.0, "rental_uris": {"android": "https://dc.lft.to/lastmile_qr_scan", "ios": "https://dc.lft.to/lastmile_qr_scan"}, "type": "electric_scooter", "name": "ab45abf315aea85548ddfde73a49bed3"}, {"bike_id": "5878c3e8a34b5210f9bf32b4d8c412b8", "lat": 38.8871875, "is_disabled": 0, "lon": -77.02201316666667, "fusion_lon": 0.0, "is_reserved": 0, "fusion_lat": 0.0, "rental_uris": {"android": "https://dc.lft.to/lastmile_qr_scan", "ios": "https://dc.lft.to/lastmile_qr_scan"}, "type": "electric_scooter", "name": "5878c3e8a34b5210f9bf32b4d8c412b8"}, {"bike_id": "428d94f5033ab1e7b424d77c12b195bf", "lat": 38.91852266666667, "is_disabled": 0, "lon": -77.08999466666667, "fusion_lon": 0.0, "is_reserved": 0, "fusion_lat": 0.0, "rental_uris": {"android": "https://dc.lft.to/lastmile_qr_scan", "ios": "https://dc.lft.to/lastmile_qr_scan"}, "type": "electric_scooter", "name": "428d94f5033ab1e7b424d77c12b195bf"}, {"bike_id": "e07616411f3264d5d05d71b80feda307", "lat": 38.89221116666667, "is_disabled": 0, "lon": -77.04513533333333, "fusion_lon": 0.0, "is_reserved": 0, "fusion_lat": 0.0, "rental_uris": {"android": "https://dc.lft.to/lastmile_qr_scan", "ios": "https://dc.lft.to/lastmile_qr_scan"}, "type": "electric_scooter", "name": "e07616411f3264d5d05d71b80feda307"}, {"bike_id": "6ac4728fbec9bdcf4a6e67079602a54e", "lat": 38.87178383333333, "is_disabled": 0, "lon": -77.0060645, "fusion_lon": 0.0, "is_reserved": 0, "fusion_lat": 0.0, "rental_uris": {"android": "https://dc.lft.to/lastmile_qr_scan", "ios": "https://dc.lft.to/lastmile_qr_scan"}, "type": "electric_scooter", "name": "6ac4728fbec9bdcf4a6e67079602a54e"}, {"bike_id": "5900391ef9d1f9a8d533cc90fdbfed74", "lat": 38.9199, "is_disabled": 0, "lon": -77.04085766666667, "fusion_lon": 0.0, "is_reserved": 0, "fusion_lat": 0.0, "rental_uris": {"android": "https://dc.lft.to/lastmile_qr_scan", "ios": "https://dc.lft.to/lastmile_qr_scan"}, "type": "electric_scooter", "name": "5900391ef9d1f9a8d533cc90fdbfed74"}, {"bike_id": "f3911727c544eeaabac52fc98123b711", "lat": 38.897358, "is_disabled": 0, "lon": -77.02871666666667, "fusion_lon": 0.0, "is_reserved": 0, "fusion_lat": 0.0, "rental_uris": {"android": "https://dc.lft.to/lastmile_qr_scan", "ios": "https://dc.lft.to/lastmile_qr_scan"}, "type": "electric_scooter", "name": "f3911727c544eeaabac52fc98123b711"}, {"bike_id": "c54c40320eefa81a91503118b4fb6316", "lat": 38.9002165, "is_disabled": 0, "lon": -76.99191466666667, "fusion_lon": 0.0, "is_reserved": 0, "fusion_lat": 0.0, "rental_uris": {"android": "https://dc.lft.to/lastmile_qr_scan", "ios": "https://dc.lft.to/lastmile_qr_scan"}, "type": "electric_scooter", "name": "c54c40320eefa81a91503118b4fb6316"}, {"bike_id": "33f5c0abf944aa152e6d43fdaa0aba13", "lat": 38.91269333333334, "is_disabled": 0, "lon": -77.02231133333333, "fusion_lon": 0.0, "is_reserved": 0, "fusion_lat": 0.0, "rental_uris": {"android": "https://dc.lft.to/lastmile_qr_scan", "ios": "https://dc.lft.to/lastmile_qr_scan"}, "type": "electric_scooter", "name": "33f5c0abf944aa152e6d43fdaa0aba13"}, {"bike_id": "030bdd0e33156b5cde490e2d514b541f", "lat": 38.92068316666666, "is_disabled": 0, "lon": -77.0238035, "fusion_lon": 0.0, "is_reserved": 0, "fusion_lat": 0.0, "rental_uris": {"android": "https://dc.lft.to/lastmile_qr_scan", "ios": "https://dc.lft.to/lastmile_qr_scan"}, "type": "electric_scooter", "name": "030bdd0e33156b5cde490e2d514b541f"}, {"bike_id": "9670d7b97febff2996e6d089021ed563", "lat": 38.892329833333335, "is_disabled": 0, "lon": -77.04876466666667, "fusion_lon": 0.0, "is_reserved": 0, "fusion_lat": 0.0, "rental_uris": {"android": "https://dc.lft.to/lastmile_qr_scan", "ios": "https://dc.lft.to/lastmile_qr_scan"}, "type": "electric_scooter", "name": "9670d7b97febff2996e6d089021ed563"}, {"bike_id": "f53fba83317428e4f47ccc910b9dc1cb", "lat": 38.81983266666667, "is_disabled": 0, "lon": -76.998082, "fusion_lon": 0.0, "is_reserved": 0, "fusion_lat": 0.0, "rental_uris": {"android": "https://dc.lft.to/lastmile_qr_scan", "ios": "https://dc.lft.to/lastmile_qr_scan"}, "type": "electric_bike", "name": "f53fba83317428e4f47ccc910b9dc1cb"}, {"bike_id": "4d624eb6b39343fee93bbb8350e32cb7", "lat": 38.89598683333333, "is_disabled": 0, "lon": -77.0475675, "fusion_lon": 0.0, "is_reserved": 0, "fusion_lat": 0.0, "rental_uris": {"android": "https://dc.lft.to/lastmile_qr_scan", "ios": "https://dc.lft.to/lastmile_qr_scan"}, "type": "electric_scooter", "name": "4d624eb6b39343fee93bbb8350e32cb7"}, {"bike_id": "0661666732918fc614cd5ed8bf07fb3d", "lat": 38.9177355, "is_disabled": 0, "lon": -77.02305216666667, "fusion_lon": 0.0, "is_reserved": 0, "fusion_lat": 0.0, "rental_uris": {"android": "https://dc.lft.to/lastmile_qr_scan", "ios": "https://dc.lft.to/lastmile_qr_scan"}, "type": "electric_scooter", "name": "0661666732918fc614cd5ed8bf07fb3d"}, {"bike_id": "30d35bb36f1483b106eba8bf206785a2", "lat": 38.9023765, "is_disabled": 0, "lon": -77.03883266666666, "fusion_lon": 0.0, "is_reserved": 0, "fusion_lat": 0.0, "rental_uris": {"android": "https://dc.lft.to/lastmile_qr_scan", "ios": "https://dc.lft.to/lastmile_qr_scan"}, "type": "electric_scooter", "name": "30d35bb36f1483b106eba8bf206785a2"}, {"bike_id": "dd1325dca98298726255e1d4dd2c288f", "lat": 38.903752833333336, "is_disabled": 0, "lon": -77.01356216666667, "fusion_lon": 0.0, "is_reserved": 0, "fusion_lat": 0.0, "rental_uris": {"android": "https://dc.lft.to/lastmile_qr_scan", "ios": "https://dc.lft.to/lastmile_qr_scan"}, "type": "electric_bike", "name": "dd1325dca98298726255e1d4dd2c288f"}, {"bike_id": "6b3d28dc054ebe67c23593c495b2b350", "lat": 38.86025566666667, "is_disabled": 0, "lon": -76.97001266666666, "fusion_lon": 0.0, "is_reserved": 0, "fusion_lat": 0.0, "rental_uris": {"android": "https://dc.lft.to/lastmile_qr_scan", "ios": "https://dc.lft.to/lastmile_qr_scan"}, "type": "electric_scooter", "name": "6b3d28dc054ebe67c23593c495b2b350"}, {"bike_id": "92b7464b3a0fbb46ccadf0d47399b517", "lat": 38.94475816666667, "is_disabled": 0, "lon": -76.986871, "fusion_lon": 0.0, "is_reserved": 0, "fusion_lat": 0.0, "rental_uris": {"android": "https://dc.lft.to/lastmile_qr_scan", "ios": "https://dc.lft.to/lastmile_qr_scan"}, "type": "electric_bike", "name": "92b7464b3a0fbb46ccadf0d47399b517"}, {"bike_id": "cc34abd8e9a23f605c173f4eadc829de", "lat": 38.89455916666667, "is_disabled": 0, "lon": -76.93669966666667, "fusion_lon": 0.0, "is_reserved": 0, "fusion_lat": 0.0, "rental_uris": {"android": "https://dc.lft.to/lastmile_qr_scan", "ios": "https://dc.lft.to/lastmile_qr_scan"}, "type": "electric_bike", "name": "cc34abd8e9a23f605c173f4eadc829de"}, {"bike_id": "7086a32081bbdc809b2f8519ddde4980", "lat": 38.8958815, "is_disabled": 0, "lon": -77.02971883333333, "fusion_lon": 0.0, "is_reserved": 0, "fusion_lat": 0.0, "rental_uris": {"android": "https://dc.lft.to/lastmile_qr_scan", "ios": "https://dc.lft.to/lastmile_qr_scan"}, "type": "electric_scooter", "name": "7086a32081bbdc809b2f8519ddde4980"}, {"bike_id": "15f3685ec4421ab8d19a4b97a2c2418e", "lat": 38.91627316666667, "is_disabled": 0, "lon": -77.02169033333334, "fusion_lon": 0.0, "is_reserved": 0, "fusion_lat": 0.0, "rental_uris": {"android": "https://dc.lft.to/lastmile_qr_scan", "ios": "https://dc.lft.to/lastmile_qr_scan"}, "type": "electric_scooter", "name": "15f3685ec4421ab8d19a4b97a2c2418e"}, {"bike_id": "f64a4d44ed1eb4f9dbcfc2e619ddcea0", "lat": 38.89959866666667, "is_disabled": 0, "lon": -77.0464495, "fusion_lon": 0.0, "is_reserved": 0, "fusion_lat": 0.0, "rental_uris": {"android": "https://dc.lft.to/lastmile_qr_scan", "ios": "https://dc.lft.to/lastmile_qr_scan"}, "type": "electric_scooter", "name": "f64a4d44ed1eb4f9dbcfc2e619ddcea0"}, {"bike_id": "839164c539b7ad7a20fe41eb2728f44b", "lat": 38.967892, "is_disabled": 0, "lon": -76.96264483333333, "fusion_lon": 0.0, "is_reserved": 0, "fusion_lat": 0.0, "rental_uris": {"android": "https://dc.lft.to/lastmile_qr_scan", "ios": "https://dc.lft.to/lastmile_qr_scan"}, "type": "electric_bike", "name": "839164c539b7ad7a20fe41eb2728f44b"}, {"bike_id": "699f82d55238bb84fba690d61b3f8154", "lat": 38.89225716666667, "is_disabled": 0, "lon": -77.00337633333334, "fusion_lon": 0.0, "is_reserved": 0, "fusion_lat": 0.0, "rental_uris": {"android": "https://dc.lft.to/lastmile_qr_scan", "ios": "https://dc.lft.to/lastmile_qr_scan"}, "type": "electric_scooter", "name": "699f82d55238bb84fba690d61b3f8154"}, {"bike_id": "6b5caa3669a5a71959477c13c6cd6a7a", "lat": 38.89339966666667, "is_disabled": 0, "lon": -77.01232383333334, "fusion_lon": 0.0, "is_reserved": 0, "fusion_lat": 0.0, "rental_uris": {"android": "https://dc.lft.to/lastmile_qr_scan", "ios": "https://dc.lft.to/lastmile_qr_scan"}, "type": "electric_scooter", "name": "6b5caa3669a5a71959477c13c6cd6a7a"}, {"bike_id": "d0f7509807bb6e950dcdebddae98aee9", "lat": 38.9394465, "is_disabled": 0, "lon": -77.07521066666666, "fusion_lon": 0.0, "is_reserved": 0, "fusion_lat": 0.0, "rental_uris": {"android": "https://dc.lft.to/lastmile_qr_scan", "ios": "https://dc.lft.to/lastmile_qr_scan"}, "type": "electric_scooter", "name": "d0f7509807bb6e950dcdebddae98aee9"}, {"bike_id": "c3be445ef0e1f143064e19dbc1df2db1", "lat": 38.8961595, "is_disabled": 0, "lon": -76.9988055, "fusion_lon": 0.0, "is_reserved": 0, "fusion_lat": 0.0, "rental_uris": {"android": "https://dc.lft.to/lastmile_qr_scan", "ios": "https://dc.lft.to/lastmile_qr_scan"}, "type": "electric_scooter", "name": "c3be445ef0e1f143064e19dbc1df2db1"}, {"bike_id": "ea3dd1ff382b34f204c7466e1ebd3f16", "lat": 38.86271516666667, "is_disabled": 0, "lon": -76.99529083333333, "fusion_lon": 0.0, "is_reserved": 0, "fusion_lat": 0.0, "rental_uris": {"android": "https://dc.lft.to/lastmile_qr_scan", "ios": "https://dc.lft.to/lastmile_qr_scan"}, "type": "electric_scooter", "name": "ea3dd1ff382b34f204c7466e1ebd3f16"}, {"bike_id": "f1757aa94ae2e4472facf571915fe4ac", "lat": 38.9185405, "is_disabled": 0, "lon": -77.02453916666667, "fusion_lon": 0.0, "is_reserved": 0, "fusion_lat": 0.0, "rental_uris": {"android": "https://dc.lft.to/lastmile_qr_scan", "ios": "https://dc.lft.to/lastmile_qr_scan"}, "type": "electric_scooter", "name": "f1757aa94ae2e4472facf571915fe4ac"}, {"bike_id": "06da20f2db0e9ffc06eb3e69440e55ae", "lat": 38.874690333333334, "is_disabled": 0, "lon": -77.00558816666667, "fusion_lon": 0.0, "is_reserved": 0, "fusion_lat": 0.0, "rental_uris": {"android": "https://dc.lft.to/lastmile_qr_scan", "ios": "https://dc.lft.to/lastmile_qr_scan"}, "type": "electric_scooter", "name": "06da20f2db0e9ffc06eb3e69440e55ae"}, {"bike_id": "6f93cc462bdca67b541a3722a03b4d5e", "lat": 38.92852, "is_disabled": 0, "lon": -77.03616516666666, "fusion_lon": 0.0, "is_reserved": 0, "fusion_lat": 0.0, "rental_uris": {"android": "https://dc.lft.to/lastmile_qr_scan", "ios": "https://dc.lft.to/lastmile_qr_scan"}, "type": "electric_scooter", "name": "6f93cc462bdca67b541a3722a03b4d5e"}, {"bike_id": "53ad65cb798894435bce87735c64c021", "lat": 38.9189795, "is_disabled": 0, "lon": -77.03534716666667, "fusion_lon": 0.0, "is_reserved": 0, "fusion_lat": 0.0, "rental_uris": {"android": "https://dc.lft.to/lastmile_qr_scan", "ios": "https://dc.lft.to/lastmile_qr_scan"}, "type": "electric_scooter", "name": "53ad65cb798894435bce87735c64c021"}, {"bike_id": "efe7d9d2119c3082994769b743b86ea9", "lat": 38.913610166666665, "is_disabled": 0, "lon": -77.02225766666666, "fusion_lon": 0.0, "is_reserved": 0, "fusion_lat": 0.0, "rental_uris": {"android": "https://dc.lft.to/lastmile_qr_scan", "ios": "https://dc.lft.to/lastmile_qr_scan"}, "type": "electric_scooter", "name": "efe7d9d2119c3082994769b743b86ea9"}, {"bike_id": "9c0cb3b627a8c055356b8a05e63a871b", "lat": 38.86212616666667, "is_disabled": 0, "lon": -76.99472783333333, "fusion_lon": 0.0, "is_reserved": 0, "fusion_lat": 0.0, "rental_uris": {"android": "https://dc.lft.to/lastmile_qr_scan", "ios": "https://dc.lft.to/lastmile_qr_scan"}, "type": "electric_scooter", "name": "9c0cb3b627a8c055356b8a05e63a871b"}, {"bike_id": "97af433694f0bbb8b07eaf7837181896", "lat": 38.933980166666665, "is_disabled": 0, "lon": -77.05742166666667, "fusion_lon": 0.0, "is_reserved": 0, "fusion_lat": 0.0, "rental_uris": {"android": "https://dc.lft.to/lastmile_qr_scan", "ios": "https://dc.lft.to/lastmile_qr_scan"}, "type": "electric_scooter", "name": "97af433694f0bbb8b07eaf7837181896"}, {"bike_id": "b9196e49565c10acb02f387c991528bc", "lat": 38.966091666666664, "is_disabled": 0, "lon": -77.02746016666667, "fusion_lon": 0.0, "is_reserved": 0, "fusion_lat": 0.0, "rental_uris": {"android": "https://dc.lft.to/lastmile_qr_scan", "ios": "https://dc.lft.to/lastmile_qr_scan"}, "type": "electric_scooter", "name": "b9196e49565c10acb02f387c991528bc"}, {"bike_id": "0df15533aa894cd1f3a3c0072f04d7e3", "lat": 38.9053765, "is_disabled": 0, "lon": -77.02215166666667, "fusion_lon": 0.0, "is_reserved": 0, "fusion_lat": 0.0, "rental_uris": {"android": "https://dc.lft.to/lastmile_qr_scan", "ios": "https://dc.lft.to/lastmile_qr_scan"}, "type": "electric_scooter", "name": "0df15533aa894cd1f3a3c0072f04d7e3"}, {"bike_id": "74cdf57ffce2404f494374aea41eca31", "lat": 38.905646833333336, "is_disabled": 0, "lon": -77.02611316666666, "fusion_lon": 0.0, "is_reserved": 0, "fusion_lat": 0.0, "rental_uris": {"android": "https://dc.lft.to/lastmile_qr_scan", "ios": "https://dc.lft.to/lastmile_qr_scan"}, "type": "electric_scooter", "name": "74cdf57ffce2404f494374aea41eca31"}, {"bike_id": "b3c18084605ab8044639f0c05776f362", "lat": 38.9271435, "is_disabled": 0, "lon": -77.053731, "fusion_lon": 0.0, "is_reserved": 0, "fusion_lat": 0.0, "rental_uris": {"android": "https://dc.lft.to/lastmile_qr_scan", "ios": "https://dc.lft.to/lastmile_qr_scan"}, "type": "electric_scooter", "name": "b3c18084605ab8044639f0c05776f362"}, {"bike_id": "797e3cf89db1093826a8b5821b10b06f", "lat": 38.917982333333335, "is_disabled": 0, "lon": -77.04438883333333, "fusion_lon": 0.0, "is_reserved": 0, "fusion_lat": 0.0, "rental_uris": {"android": "https://dc.lft.to/lastmile_qr_scan", "ios": "https://dc.lft.to/lastmile_qr_scan"}, "type": "electric_scooter", "name": "797e3cf89db1093826a8b5821b10b06f"}, {"bike_id": "3d71a8295ff1f87ace94b0a73271f169", "lat": 38.91757716666667, "is_disabled": 0, "lon": -77.0391165, "fusion_lon": 0.0, "is_reserved": 0, "fusion_lat": 0.0, "rental_uris": {"android": "https://dc.lft.to/lastmile_qr_scan", "ios": "https://dc.lft.to/lastmile_qr_scan"}, "type": "electric_scooter", "name": "3d71a8295ff1f87ace94b0a73271f169"}, {"bike_id": "c7fadf35da5e054230381886015144bf", "lat": 38.93394216666667, "is_disabled": 0, "lon": -77.04544183333333, "fusion_lon": 0.0, "is_reserved": 0, "fusion_lat": 0.0, "rental_uris": {"android": "https://dc.lft.to/lastmile_qr_scan", "ios": "https://dc.lft.to/lastmile_qr_scan"}, "type": "electric_scooter", "name": "c7fadf35da5e054230381886015144bf"}, {"bike_id": "29473d480a1fb4221289fa4b5573a3fb", "lat": 38.89750816666667, "is_disabled": 0, "lon": -77.009193, "fusion_lon": 0.0, "is_reserved": 0, "fusion_lat": 0.0, "rental_uris": {"android": "https://dc.lft.to/lastmile_qr_scan", "ios": "https://dc.lft.to/lastmile_qr_scan"}, "type": "electric_scooter", "name": "29473d480a1fb4221289fa4b5573a3fb"}, {"bike_id": "b0e1189e2fbfda7142a7ae47fba580c9", "lat": 38.86370466666666, "is_disabled": 0, "lon": -76.990455, "fusion_lon": 0.0, "is_reserved": 0, "fusion_lat": 0.0, "rental_uris": {"android": "https://dc.lft.to/lastmile_qr_scan", "ios": "https://dc.lft.to/lastmile_qr_scan"}, "type": "electric_scooter", "name": "b0e1189e2fbfda7142a7ae47fba580c9"}, {"bike_id": "982bdba36852889d216bdcd5f231c48f", "lat": 38.947040333333334, "is_disabled": 0, "lon": -77.01938566666666, "fusion_lon": 0.0, "is_reserved": 0, "fusion_lat": 0.0, "rental_uris": {"android": "https://dc.lft.to/lastmile_qr_scan", "ios": "https://dc.lft.to/lastmile_qr_scan"}, "type": "electric_scooter", "name": "982bdba36852889d216bdcd5f231c48f"}, {"bike_id": "3e9136c1361f1f5590baae0784925824", "lat": 38.89888716666667, "is_disabled": 0, "lon": -76.9317535, "fusion_lon": 0.0, "is_reserved": 0, "fusion_lat": 0.0, "rental_uris": {"android": "https://dc.lft.to/lastmile_qr_scan", "ios": "https://dc.lft.to/lastmile_qr_scan"}, "type": "electric_scooter", "name": "3e9136c1361f1f5590baae0784925824"}, {"bike_id": "835a6102d43dc5184d292c97d01fd1a5", "lat": 38.904738333333334, "is_disabled": 0, "lon": -77.03563533333333, "fusion_lon": 0.0, "is_reserved": 0, "fusion_lat": 0.0, "rental_uris": {"android": "https://dc.lft.to/lastmile_qr_scan", "ios": "https://dc.lft.to/lastmile_qr_scan"}, "type": "electric_scooter", "name": "835a6102d43dc5184d292c97d01fd1a5"}, {"bike_id": "f4739d9b305c9d26b7f5819e683e04ed", "lat": 38.87720866666667, "is_disabled": 0, "lon": -77.01760766666666, "fusion_lon": 0.0, "is_reserved": 0, "fusion_lat": 0.0, "rental_uris": {"android": "https://dc.lft.to/lastmile_qr_scan", "ios": "https://dc.lft.to/lastmile_qr_scan"}, "type": "electric_scooter", "name": "f4739d9b305c9d26b7f5819e683e04ed"}, {"bike_id": "bcb08d31e25f13e6cc0974d9ec10b108", "lat": 38.927090666666665, "is_disabled": 0, "lon": -77.02104166666666, "fusion_lon": 0.0, "is_reserved": 0, "fusion_lat": 0.0, "rental_uris": {"android": "https://dc.lft.to/lastmile_qr_scan", "ios": "https://dc.lft.to/lastmile_qr_scan"}, "type": "electric_scooter", "name": "bcb08d31e25f13e6cc0974d9ec10b108"}, {"bike_id": "8dd7c279c8d8d299373a6fa8c169f13e", "lat": 38.8922065, "is_disabled": 0, "lon": -77.02365616666667, "fusion_lon": 0.0, "is_reserved": 0, "fusion_lat": 0.0, "rental_uris": {"android": "https://dc.lft.to/lastmile_qr_scan", "ios": "https://dc.lft.to/lastmile_qr_scan"}, "type": "electric_scooter", "name": "8dd7c279c8d8d299373a6fa8c169f13e"}, {"bike_id": "ba17acb50004b7380a4f460698a81931", "lat": 38.91404383333333, "is_disabled": 0, "lon": -77.06420666666666, "fusion_lon": 0.0, "is_reserved": 0, "fusion_lat": 0.0, "rental_uris": {"android": "https://dc.lft.to/lastmile_qr_scan", "ios": "https://dc.lft.to/lastmile_qr_scan"}, "type": "electric_scooter", "name": "ba17acb50004b7380a4f460698a81931"}, {"bike_id": "380d6b28fba39f392f900a39f9d1160f", "lat": 38.929953166666664, "is_disabled": 0, "lon": -77.02322816666667, "fusion_lon": 0.0, "is_reserved": 0, "fusion_lat": 0.0, "rental_uris": {"android": "https://dc.lft.to/lastmile_qr_scan", "ios": "https://dc.lft.to/lastmile_qr_scan"}, "type": "electric_scooter", "name": "380d6b28fba39f392f900a39f9d1160f"}, {"bike_id": "3665bed967d89bdfa69d1593e01cce3c", "lat": 38.916925666666664, "is_disabled": 0, "lon": -77.035106, "fusion_lon": 0.0, "is_reserved": 0, "fusion_lat": 0.0, "rental_uris": {"android": "https://dc.lft.to/lastmile_qr_scan", "ios": "https://dc.lft.to/lastmile_qr_scan"}, "type": "electric_scooter", "name": "3665bed967d89bdfa69d1593e01cce3c"}, {"bike_id": "859a08d1ab290bdd56f51d89ac3abebc", "lat": 38.9156415, "is_disabled": 0, "lon": -77.032461, "fusion_lon": 0.0, "is_reserved": 0, "fusion_lat": 0.0, "rental_uris": {"android": "https://dc.lft.to/lastmile_qr_scan", "ios": "https://dc.lft.to/lastmile_qr_scan"}, "type": "electric_scooter", "name": "859a08d1ab290bdd56f51d89ac3abebc"}, {"bike_id": "93834164e913460aa594571ce45f1389", "lat": 38.885279, "is_disabled": 0, "lon": -76.98331066666667, "fusion_lon": 0.0, "is_reserved": 0, "fusion_lat": 0.0, "rental_uris": {"android": "https://dc.lft.to/lastmile_qr_scan", "ios": "https://dc.lft.to/lastmile_qr_scan"}, "type": "electric_scooter", "name": "93834164e913460aa594571ce45f1389"}, {"bike_id": "a197bd3141ae05713d913c997cf2ecc3", "lat": 38.918235, "is_disabled": 0, "lon": -77.04525383333333, "fusion_lon": 0.0, "is_reserved": 0, "fusion_lat": 0.0, "rental_uris": {"android": "https://dc.lft.to/lastmile_qr_scan", "ios": "https://dc.lft.to/lastmile_qr_scan"}, "type": "electric_scooter", "name": "a197bd3141ae05713d913c997cf2ecc3"}, {"bike_id": "d25293c562733c9787187fe2c14e6d5c", "lat": 38.93111, "is_disabled": 0, "lon": -77.02069733333333, "fusion_lon": 0.0, "is_reserved": 0, "fusion_lat": 0.0, "rental_uris": {"android": "https://dc.lft.to/lastmile_qr_scan", "ios": "https://dc.lft.to/lastmile_qr_scan"}, "type": "electric_scooter", "name": "d25293c562733c9787187fe2c14e6d5c"}, {"bike_id": "874680e20da4702c1c9bfda98f92f2de", "lat": 38.9083985, "is_disabled": 0, "lon": -77.036516, "fusion_lon": 0.0, "is_reserved": 0, "fusion_lat": 0.0, "rental_uris": {"android": "https://dc.lft.to/lastmile_qr_scan", "ios": "https://dc.lft.to/lastmile_qr_scan"}, "type": "electric_scooter", "name": "874680e20da4702c1c9bfda98f92f2de"}, {"bike_id": "6cfdfe0155c210f8d32cc5b9bdef15a2", "lat": 38.90853583333333, "is_disabled": 0, "lon": -77.04535783333333, "fusion_lon": 0.0, "is_reserved": 0, "fusion_lat": 0.0, "rental_uris": {"android": "https://dc.lft.to/lastmile_qr_scan", "ios": "https://dc.lft.to/lastmile_qr_scan"}, "type": "electric_scooter", "name": "6cfdfe0155c210f8d32cc5b9bdef15a2"}, {"bike_id": "152c3ed5e28e75c6abaa616f98822419", "lat": 38.902694833333335, "is_disabled": 0, "lon": -77.045252, "fusion_lon": 0.0, "is_reserved": 0, "fusion_lat": 0.0, "rental_uris": {"android": "https://dc.lft.to/lastmile_qr_scan", "ios": "https://dc.lft.to/lastmile_qr_scan"}, "type": "electric_scooter", "name": "152c3ed5e28e75c6abaa616f98822419"}, {"bike_id": "8611aa61082ca45012d022988939442b", "lat": 38.89020383333333, "is_disabled": 0, "lon": -76.93698033333334, "fusion_lon": 0.0, "is_reserved": 0, "fusion_lat": 0.0, "rental_uris": {"android": "https://dc.lft.to/lastmile_qr_scan", "ios": "https://dc.lft.to/lastmile_qr_scan"}, "type": "electric_scooter", "name": "8611aa61082ca45012d022988939442b"}, {"bike_id": "c915fdbda50da2383211330c0e01d431", "lat": 38.9430805, "is_disabled": 0, "lon": -77.05933483333334, "fusion_lon": 0.0, "is_reserved": 0, "fusion_lat": 0.0, "rental_uris": {"android": "https://dc.lft.to/lastmile_qr_scan", "ios": "https://dc.lft.to/lastmile_qr_scan"}, "type": "electric_scooter", "name": "c915fdbda50da2383211330c0e01d431"}, {"bike_id": "0474319580d9d29f1b555291fa072047", "lat": 38.92675066666666, "is_disabled": 0, "lon": -76.99500833333333, "fusion_lon": 0.0, "is_reserved": 0, "fusion_lat": 0.0, "rental_uris": {"android": "https://dc.lft.to/lastmile_qr_scan", "ios": "https://dc.lft.to/lastmile_qr_scan"}, "type": "electric_scooter", "name": "0474319580d9d29f1b555291fa072047"}, {"bike_id": "410d1bacdf59c59743687e7fbf2c3f2e", "lat": 38.92416033333333, "is_disabled": 0, "lon": -76.99801633333334, "fusion_lon": 0.0, "is_reserved": 0, "fusion_lat": 0.0, "rental_uris": {"android": "https://dc.lft.to/lastmile_qr_scan", "ios": "https://dc.lft.to/lastmile_qr_scan"}, "type": "electric_scooter", "name": "410d1bacdf59c59743687e7fbf2c3f2e"}, {"bike_id": "f83d5325cb43b016dfe38dca3336006c", "lat": 38.892228, "is_disabled": 0, "lon": -77.027836, "fusion_lon": 0.0, "is_reserved": 0, "fusion_lat": 0.0, "rental_uris": {"android": "https://dc.lft.to/lastmile_qr_scan", "ios": "https://dc.lft.to/lastmile_qr_scan"}, "type": "electric_scooter", "name": "f83d5325cb43b016dfe38dca3336006c"}, {"bike_id": "840f6dccc82a3373a23f790b626b9d79", "lat": 38.911411666666666, "is_disabled": 0, "lon": -77.04668433333333, "fusion_lon": 0.0, "is_reserved": 0, "fusion_lat": 0.0, "rental_uris": {"android": "https://dc.lft.to/lastmile_qr_scan", "ios": "https://dc.lft.to/lastmile_qr_scan"}, "type": "electric_scooter", "name": "840f6dccc82a3373a23f790b626b9d79"}, {"bike_id": "801d3905e378e7daf155924984c646f9", "lat": 38.910029, "is_disabled": 0, "lon": -77.04007733333333, "fusion_lon": 0.0, "is_reserved": 0, "fusion_lat": 0.0, "rental_uris": {"android": "https://dc.lft.to/lastmile_qr_scan", "ios": "https://dc.lft.to/lastmile_qr_scan"}, "type": "electric_scooter", "name": "801d3905e378e7daf155924984c646f9"}, {"bike_id": "1834586ce8133ccff67c8c87dc07db2a", "lat": 38.902461, "is_disabled": 0, "lon": -77.03580883333333, "fusion_lon": 0.0, "is_reserved": 0, "fusion_lat": 0.0, "rental_uris": {"android": "https://dc.lft.to/lastmile_qr_scan", "ios": "https://dc.lft.to/lastmile_qr_scan"}, "type": "electric_scooter", "name": "1834586ce8133ccff67c8c87dc07db2a"}, {"bike_id": "ddbf5f86870394e4bfe10ef9bd32239d", "lat": 38.903349166666665, "is_disabled": 0, "lon": -77.01085933333333, "fusion_lon": 0.0, "is_reserved": 0, "fusion_lat": 0.0, "rental_uris": {"android": "https://dc.lft.to/lastmile_qr_scan", "ios": "https://dc.lft.to/lastmile_qr_scan"}, "type": "electric_scooter", "name": "ddbf5f86870394e4bfe10ef9bd32239d"}, {"bike_id": "90c116e4c4152c88e1f064fa4a1bfcbc", "lat": 38.8925415, "is_disabled": 0, "lon": -77.0450305, "fusion_lon": 0.0, "is_reserved": 0, "fusion_lat": 0.0, "rental_uris": {"android": "https://dc.lft.to/lastmile_qr_scan", "ios": "https://dc.lft.to/lastmile_qr_scan"}, "type": "electric_scooter", "name": "90c116e4c4152c88e1f064fa4a1bfcbc"}, {"bike_id": "463e0af147e08d4453a9d77a353ce05e", "lat": 38.8898765, "is_disabled": 0, "lon": -77.00325966666666, "fusion_lon": 0.0, "is_reserved": 0, "fusion_lat": 0.0, "rental_uris": {"android": "https://dc.lft.to/lastmile_qr_scan", "ios": "https://dc.lft.to/lastmile_qr_scan"}, "type": "electric_scooter", "name": "463e0af147e08d4453a9d77a353ce05e"}, {"bike_id": "b457068828b96febcdb5cb62924548a9", "lat": 38.91053483333334, "is_disabled": 0, "lon": -77.02224033333333, "fusion_lon": 0.0, "is_reserved": 0, "fusion_lat": 0.0, "rental_uris": {"android": "https://dc.lft.to/lastmile_qr_scan", "ios": "https://dc.lft.to/lastmile_qr_scan"}, "type": "electric_scooter", "name": "b457068828b96febcdb5cb62924548a9"}, {"bike_id": "c7edee1058bd3adc8a4ea300cd8b1f8a", "lat": 38.9370335, "is_disabled": 0, "lon": -77.05597566666667, "fusion_lon": 0.0, "is_reserved": 0, "fusion_lat": 0.0, "rental_uris": {"android": "https://dc.lft.to/lastmile_qr_scan", "ios": "https://dc.lft.to/lastmile_qr_scan"}, "type": "electric_scooter", "name": "c7edee1058bd3adc8a4ea300cd8b1f8a"}, {"bike_id": "96d36b9e8b1cfc9d0dd69ad123f29f15", "lat": 38.88779533333334, "is_disabled": 0, "lon": -77.03317516666667, "fusion_lon": 0.0, "is_reserved": 0, "fusion_lat": 0.0, "rental_uris": {"android": "https://dc.lft.to/lastmile_qr_scan", "ios": "https://dc.lft.to/lastmile_qr_scan"}, "type": "electric_scooter", "name": "96d36b9e8b1cfc9d0dd69ad123f29f15"}, {"bike_id": "7c0aef35561bf17fcb5ac33f4b296081", "lat": 38.921706, "is_disabled": 0, "lon": -77.04134666666667, "fusion_lon": 0.0, "is_reserved": 0, "fusion_lat": 0.0, "rental_uris": {"android": "https://dc.lft.to/lastmile_qr_scan", "ios": "https://dc.lft.to/lastmile_qr_scan"}, "type": "electric_scooter", "name": "7c0aef35561bf17fcb5ac33f4b296081"}, {"bike_id": "9228d16c704a40c656b232a15c28325a", "lat": 38.8926905, "is_disabled": 0, "lon": -77.04204733333333, "fusion_lon": 0.0, "is_reserved": 0, "fusion_lat": 0.0, "rental_uris": {"android": "https://dc.lft.to/lastmile_qr_scan", "ios": "https://dc.lft.to/lastmile_qr_scan"}, "type": "electric_scooter", "name": "9228d16c704a40c656b232a15c28325a"}, {"bike_id": "f86ada0dfa13387bba781bc437c4845e", "lat": 38.938535333333334, "is_disabled": 0, "lon": -77.0338935, "fusion_lon": 0.0, "is_reserved": 0, "fusion_lat": 0.0, "rental_uris": {"android": "https://dc.lft.to/lastmile_qr_scan", "ios": "https://dc.lft.to/lastmile_qr_scan"}, "type": "electric_scooter", "name": "f86ada0dfa13387bba781bc437c4845e"}, {"bike_id": "24b9119582a649cbd64d968a865f8cfe", "lat": 38.89762783333333, "is_disabled": 0, "lon": -76.92590483333333, "fusion_lon": 0.0, "is_reserved": 0, "fusion_lat": 0.0, "rental_uris": {"android": "https://dc.lft.to/lastmile_qr_scan", "ios": "https://dc.lft.to/lastmile_qr_scan"}, "type": "electric_scooter", "name": "24b9119582a649cbd64d968a865f8cfe"}, {"bike_id": "5194d8a76692acc9a24b35507f5f9893", "lat": 38.92399483333333, "is_disabled": 0, "lon": -77.04095333333333, "fusion_lon": 0.0, "is_reserved": 0, "fusion_lat": 0.0, "rental_uris": {"android": "https://dc.lft.to/lastmile_qr_scan", "ios": "https://dc.lft.to/lastmile_qr_scan"}, "type": "electric_scooter", "name": "5194d8a76692acc9a24b35507f5f9893"}, {"bike_id": "07c2b6fa36250234c4d887dd8233cefd", "lat": 38.931787166666666, "is_disabled": 0, "lon": -76.99621533333334, "fusion_lon": 0.0, "is_reserved": 0, "fusion_lat": 0.0, "rental_uris": {"android": "https://dc.lft.to/lastmile_qr_scan", "ios": "https://dc.lft.to/lastmile_qr_scan"}, "type": "electric_scooter", "name": "07c2b6fa36250234c4d887dd8233cefd"}, {"bike_id": "5feba1314ff1d128df0177f2ecd1243c", "lat": 38.917851, "is_disabled": 0, "lon": -77.04276583333333, "fusion_lon": 0.0, "is_reserved": 0, "fusion_lat": 0.0, "rental_uris": {"android": "https://dc.lft.to/lastmile_qr_scan", "ios": "https://dc.lft.to/lastmile_qr_scan"}, "type": "electric_scooter", "name": "5feba1314ff1d128df0177f2ecd1243c"}, {"bike_id": "663262c3405a6b37af00925d366ded66", "lat": 38.9073755, "is_disabled": 0, "lon": -76.97981833333333, "fusion_lon": 0.0, "is_reserved": 0, "fusion_lat": 0.0, "rental_uris": {"android": "https://dc.lft.to/lastmile_qr_scan", "ios": "https://dc.lft.to/lastmile_qr_scan"}, "type": "electric_scooter", "name": "663262c3405a6b37af00925d366ded66"}, {"bike_id": "6630fc9c688a941d269953c6108d0099", "lat": 38.9199725, "is_disabled": 0, "lon": -76.95823666666666, "fusion_lon": 0.0, "is_reserved": 0, "fusion_lat": 0.0, "rental_uris": {"android": "https://dc.lft.to/lastmile_qr_scan", "ios": "https://dc.lft.to/lastmile_qr_scan"}, "type": "electric_bike", "name": "6630fc9c688a941d269953c6108d0099"}, {"bike_id": "ffbefdb7fbbf5c1d59179b1005f9b055", "lat": 38.927042, "is_disabled": 0, "lon": -77.021006, "fusion_lon": 0.0, "is_reserved": 0, "fusion_lat": 0.0, "rental_uris": {"android": "https://dc.lft.to/lastmile_qr_scan", "ios": "https://dc.lft.to/lastmile_qr_scan"}, "type": "electric_scooter", "name": "ffbefdb7fbbf5c1d59179b1005f9b055"}, {"bike_id": "1ac6e3429538581e76ca85af6521447f", "lat": 38.91405833333334, "is_disabled": 0, "lon": -77.0391065, "fusion_lon": 0.0, "is_reserved": 0, "fusion_lat": 0.0, "rental_uris": {"android": "https://dc.lft.to/lastmile_qr_scan", "ios": "https://dc.lft.to/lastmile_qr_scan"}, "type": "electric_scooter", "name": "1ac6e3429538581e76ca85af6521447f"}, {"bike_id": "69959c16b4f9ae5811833db3c1825376", "lat": 38.923269, "is_disabled": 0, "lon": -77.03515233333333, "fusion_lon": 0.0, "is_reserved": 0, "fusion_lat": 0.0, "rental_uris": {"android": "https://dc.lft.to/lastmile_qr_scan", "ios": "https://dc.lft.to/lastmile_qr_scan"}, "type": "electric_scooter", "name": "69959c16b4f9ae5811833db3c1825376"}, {"bike_id": "b8046dd442466a831e4dcee117ff9341", "lat": 38.9236715, "is_disabled": 0, "lon": -77.02096333333333, "fusion_lon": 0.0, "is_reserved": 0, "fusion_lat": 0.0, "rental_uris": {"android": "https://dc.lft.to/lastmile_qr_scan", "ios": "https://dc.lft.to/lastmile_qr_scan"}, "type": "electric_scooter", "name": "b8046dd442466a831e4dcee117ff9341"}, {"bike_id": "b8bd7385e1cc50614375e3f4a793dd59", "lat": 38.892641833333336, "is_disabled": 0, "lon": -77.00371183333333, "fusion_lon": 0.0, "is_reserved": 0, "fusion_lat": 0.0, "rental_uris": {"android": "https://dc.lft.to/lastmile_qr_scan", "ios": "https://dc.lft.to/lastmile_qr_scan"}, "type": "electric_scooter", "name": "b8bd7385e1cc50614375e3f4a793dd59"}, {"bike_id": "f09b8afb3198fe00ea604b7754525952", "lat": 38.894858, "is_disabled": 0, "lon": -77.019118, "fusion_lon": 0.0, "is_reserved": 0, "fusion_lat": 0.0, "rental_uris": {"android": "https://dc.lft.to/lastmile_qr_scan", "ios": "https://dc.lft.to/lastmile_qr_scan"}, "type": "electric_scooter", "name": "f09b8afb3198fe00ea604b7754525952"}, {"bike_id": "2fc7bb87d42bc45e2ff5f67163220fff", "lat": 38.9154385, "is_disabled": 0, "lon": -77.02209633333334, "fusion_lon": 0.0, "is_reserved": 0, "fusion_lat": 0.0, "rental_uris": {"android": "https://dc.lft.to/lastmile_qr_scan", "ios": "https://dc.lft.to/lastmile_qr_scan"}, "type": "electric_scooter", "name": "2fc7bb87d42bc45e2ff5f67163220fff"}, {"bike_id": "9b3454e49c8394c3ddb4fadc7f4d32ce", "lat": 38.89507533333333, "is_disabled": 0, "lon": -76.94884733333333, "fusion_lon": 0.0, "is_reserved": 0, "fusion_lat": 0.0, "rental_uris": {"android": "https://dc.lft.to/lastmile_qr_scan", "ios": "https://dc.lft.to/lastmile_qr_scan"}, "type": "electric_scooter", "name": "9b3454e49c8394c3ddb4fadc7f4d32ce"}, {"bike_id": "f3ab6e7f78e914e0e217a8a95a4d445c", "lat": 38.921869, "is_disabled": 0, "lon": -77.02103, "fusion_lon": 0.0, "is_reserved": 0, "fusion_lat": 0.0, "rental_uris": {"android": "https://dc.lft.to/lastmile_qr_scan", "ios": "https://dc.lft.to/lastmile_qr_scan"}, "type": "electric_scooter", "name": "f3ab6e7f78e914e0e217a8a95a4d445c"}, {"bike_id": "89d17a18b7380f664d4b1ddfbc4a4a75", "lat": 38.924745, "is_disabled": 0, "lon": -77.03937466666666, "fusion_lon": 0.0, "is_reserved": 0, "fusion_lat": 0.0, "rental_uris": {"android": "https://dc.lft.to/lastmile_qr_scan", "ios": "https://dc.lft.to/lastmile_qr_scan"}, "type": "electric_scooter", "name": "89d17a18b7380f664d4b1ddfbc4a4a75"}, {"bike_id": "cb8a6018602f54d9f3fa08e2bbaa3161", "lat": 38.921237, "is_disabled": 0, "lon": -77.01860016666667, "fusion_lon": 0.0, "is_reserved": 0, "fusion_lat": 0.0, "rental_uris": {"android": "https://dc.lft.to/lastmile_qr_scan", "ios": "https://dc.lft.to/lastmile_qr_scan"}, "type": "electric_scooter", "name": "cb8a6018602f54d9f3fa08e2bbaa3161"}, {"bike_id": "6b050c7c0db45b50242743634154844a", "lat": 38.924481666666665, "is_disabled": 0, "lon": -77.03290616666666, "fusion_lon": 0.0, "is_reserved": 0, "fusion_lat": 0.0, "rental_uris": {"android": "https://dc.lft.to/lastmile_qr_scan", "ios": "https://dc.lft.to/lastmile_qr_scan"}, "type": "electric_scooter", "name": "6b050c7c0db45b50242743634154844a"}, {"bike_id": "6aeaaa17295e444dd9dfc077302689d9", "lat": 38.932825333333334, "is_disabled": 0, "lon": -77.0370095, "fusion_lon": 0.0, "is_reserved": 0, "fusion_lat": 0.0, "rental_uris": {"android": "https://dc.lft.to/lastmile_qr_scan", "ios": "https://dc.lft.to/lastmile_qr_scan"}, "type": "electric_scooter", "name": "6aeaaa17295e444dd9dfc077302689d9"}, {"bike_id": "7470f51a27cc4762dcf0c2b6250c3241", "lat": 38.92014133333333, "is_disabled": 0, "lon": -77.032014, "fusion_lon": 0.0, "is_reserved": 0, "fusion_lat": 0.0, "rental_uris": {"android": "https://dc.lft.to/lastmile_qr_scan", "ios": "https://dc.lft.to/lastmile_qr_scan"}, "type": "electric_scooter", "name": "7470f51a27cc4762dcf0c2b6250c3241"}, {"bike_id": "c697bcb5261a03f268745aa68fdf86b3", "lat": 38.93345266666667, "is_disabled": 0, "lon": -77.0570825, "fusion_lon": 0.0, "is_reserved": 0, "fusion_lat": 0.0, "rental_uris": {"android": "https://dc.lft.to/lastmile_qr_scan", "ios": "https://dc.lft.to/lastmile_qr_scan"}, "type": "electric_scooter", "name": "c697bcb5261a03f268745aa68fdf86b3"}, {"bike_id": "884315c1031805c72c8f2de89565a25c", "lat": 38.90989183333333, "is_disabled": 0, "lon": -77.03828233333333, "fusion_lon": 0.0, "is_reserved": 0, "fusion_lat": 0.0, "rental_uris": {"android": "https://dc.lft.to/lastmile_qr_scan", "ios": "https://dc.lft.to/lastmile_qr_scan"}, "type": "electric_scooter", "name": "884315c1031805c72c8f2de89565a25c"}, {"bike_id": "79fa2cbd5743187b83f714e33e388447", "lat": 38.909031, "is_disabled": 0, "lon": -77.03186983333333, "fusion_lon": 0.0, "is_reserved": 0, "fusion_lat": 0.0, "rental_uris": {"android": "https://dc.lft.to/lastmile_qr_scan", "ios": "https://dc.lft.to/lastmile_qr_scan"}, "type": "electric_scooter", "name": "79fa2cbd5743187b83f714e33e388447"}, {"bike_id": "d6c70acfc01e6ab4c27f7d910f20035c", "lat": 38.906537166666666, "is_disabled": 0, "lon": -77.03454966666666, "fusion_lon": 0.0, "is_reserved": 0, "fusion_lat": 0.0, "rental_uris": {"android": "https://dc.lft.to/lastmile_qr_scan", "ios": "https://dc.lft.to/lastmile_qr_scan"}, "type": "electric_scooter", "name": "d6c70acfc01e6ab4c27f7d910f20035c"}, {"bike_id": "61254a90907ec7fcfc5aa4c1c94c1df8", "lat": 38.905873, "is_disabled": 0, "lon": -77.06527366666667, "fusion_lon": 0.0, "is_reserved": 0, "fusion_lat": 0.0, "rental_uris": {"android": "https://dc.lft.to/lastmile_qr_scan", "ios": "https://dc.lft.to/lastmile_qr_scan"}, "type": "electric_scooter", "name": "61254a90907ec7fcfc5aa4c1c94c1df8"}, {"bike_id": "11fb75c747de734523f7f7d18a8db4b2", "lat": 38.893016833333334, "is_disabled": 0, "lon": -76.95091066666667, "fusion_lon": 0.0, "is_reserved": 0, "fusion_lat": 0.0, "rental_uris": {"android": "https://dc.lft.to/lastmile_qr_scan", "ios": "https://dc.lft.to/lastmile_qr_scan"}, "type": "electric_scooter", "name": "11fb75c747de734523f7f7d18a8db4b2"}, {"bike_id": "69d228cde728f044147cc7b1d486d96e", "lat": 38.922728166666666, "is_disabled": 0, "lon": -77.01920666666666, "fusion_lon": 0.0, "is_reserved": 0, "fusion_lat": 0.0, "rental_uris": {"android": "https://dc.lft.to/lastmile_qr_scan", "ios": "https://dc.lft.to/lastmile_qr_scan"}, "type": "electric_scooter", "name": "69d228cde728f044147cc7b1d486d96e"}, {"bike_id": "2ae2bbfb7ac7ecbe1e324e98e6f9c548", "lat": 38.928488333333334, "is_disabled": 0, "lon": -77.03280216666667, "fusion_lon": 0.0, "is_reserved": 0, "fusion_lat": 0.0, "rental_uris": {"android": "https://dc.lft.to/lastmile_qr_scan", "ios": "https://dc.lft.to/lastmile_qr_scan"}, "type": "electric_scooter", "name": "2ae2bbfb7ac7ecbe1e324e98e6f9c548"}, {"bike_id": "fed631f88b7e25bbc382bd6d3fdab6de", "lat": 38.90506716666667, "is_disabled": 0, "lon": -77.059303, "fusion_lon": 0.0, "is_reserved": 0, "fusion_lat": 0.0, "rental_uris": {"android": "https://dc.lft.to/lastmile_qr_scan", "ios": "https://dc.lft.to/lastmile_qr_scan"}, "type": "electric_scooter", "name": "fed631f88b7e25bbc382bd6d3fdab6de"}, {"bike_id": "191abcd5c61134c092cf81abadb8bfae", "lat": 38.927907, "is_disabled": 0, "lon": -77.03148866666666, "fusion_lon": 0.0, "is_reserved": 0, "fusion_lat": 0.0, "rental_uris": {"android": "https://dc.lft.to/lastmile_qr_scan", "ios": "https://dc.lft.to/lastmile_qr_scan"}, "type": "electric_scooter", "name": "191abcd5c61134c092cf81abadb8bfae"}, {"bike_id": "52e4620b280b3297f31a8dc5507cec76", "lat": 38.95840833333333, "is_disabled": 0, "lon": -77.0847635, "fusion_lon": 0.0, "is_reserved": 0, "fusion_lat": 0.0, "rental_uris": {"android": "https://dc.lft.to/lastmile_qr_scan", "ios": "https://dc.lft.to/lastmile_qr_scan"}, "type": "electric_scooter", "name": "52e4620b280b3297f31a8dc5507cec76"}, {"bike_id": "3a6a4f7e20f9aad4c5548f8c30d78c34", "lat": 38.90732916666666, "is_disabled": 0, "lon": -77.002749, "fusion_lon": 0.0, "is_reserved": 0, "fusion_lat": 0.0, "rental_uris": {"android": "https://dc.lft.to/lastmile_qr_scan", "ios": "https://dc.lft.to/lastmile_qr_scan"}, "type": "electric_scooter", "name": "3a6a4f7e20f9aad4c5548f8c30d78c34"}, {"bike_id": "5fc2f65369203820689b72fde501bd58", "lat": 38.85448216666666, "is_disabled": 0, "lon": -76.97229466666667, "fusion_lon": 0.0, "is_reserved": 0, "fusion_lat": 0.0, "rental_uris": {"android": "https://dc.lft.to/lastmile_qr_scan", "ios": "https://dc.lft.to/lastmile_qr_scan"}, "type": "electric_scooter", "name": "5fc2f65369203820689b72fde501bd58"},