{"data": {"bikes": [{"fusion_lat": 0.0, "name": "ec655812f1afd45444fc04aeb6da5b4d", "is_disabled": 0, "rental_uris": {"android": "https://dc.lft.to/lastmile_qr_scan", "ios": "https://dc.lft.to/lastmile_qr_scan"}, "fusion_lon": 0.0, "lat": 38.90824833333333, "bike_id": "ec655812f1afd45444fc04aeb6da5b4d", "type": "electric_scooter", "is_reserved": 0, "lon": -77.036723}, {"fusion_lat": 0.0, "name": "4adb38961a04c9cc0bc90e212c5f8e61", "is_disabled": 0, "rental_uris": {"android": "https://dc.lft.to/lastmile_qr_scan", "ios": "https://dc.lft.to/lastmile_qr_scan"}, "fusion_lon": 0.0, "lat": 38.876237, "bike_id": "4adb38961a04c9cc0bc90e212c5f8e61", "type": "electric_scooter", "is_reserved": 0, "lon": -77.0084065}, {"fusion_lat": 0.0, "name": "abab9fad0690d3d171bd035fdcf6665a", "is_disabled": 0, "rental_uris": {"android": "https://dc.lft.to/lastmile_qr_scan", "ios": "https://dc.lft.to/lastmile_qr_scan"}, "fusion_lon": 0.0, "lat": 38.89952316666667, "bike_id": "abab9fad0690d3d171bd035fdcf6665a", "type": "electric_scooter", "is_reserved": 0, "lon": -77.05699333333334}, {"fusion_lat": 0.0, "name": "42bbb1debe1d9dac28d808d91ebc3bd6", "is_disabled": 0, "rental_uris": {"android": "https://dc.lft.to/lastmile_qr_scan", "ios": "https://dc.lft.to/lastmile_qr_scan"}, "fusion_lon": 0.0, "lat": 38.8839865, "bike_id": "42bbb1debe1d9dac28d808d91ebc3bd6", "type": "electric_scooter", "is_reserved": 0, "lon": -77.02577183333334}, {"fusion_lat": 0.0, "name": "31bef569fd1d19584da095cce45536c1", "is_disabled": 0, "rental_uris": {"android": "https://dc.lft.to/lastmile_qr_scan", "ios": "https://dc.lft.to/lastmile_qr_scan"}, "fusion_lon": 0.0, "lat": 38.88988533333333, "bike_id": "31bef569fd1d19584da095cce45536c1", "type": "electric_scooter", "is_reserved": 0, "lon": -77.00336316666667}, {"fusion_lat": 0.0, "name": "9d8eaee9a804080c1d3076358a52bd93", "is_disabled": 0, "rental_uris": {"android": "https://dc.lft.to/lastmile_qr_scan", "ios": "https://dc.lft.to/lastmile_qr_scan"}, "fusion_lon": 0.0, "lat": 38.896668, "bike_id": "9d8eaee9a804080c1d3076358a52bd93", "type": "electric_scooter", "is_reserved": 0, "lon": -77.024743}, {"fusion_lat": 0.0, "name": "ef18e0e59e400689dea90eec0ffece68", "is_disabled": 0, "rental_uris": {"android": "https://dc.lft.to/lastmile_qr_scan", "ios": "https://dc.lft.to/lastmile_qr_scan"}, "fusion_lon": 0.0, "lat": 38.911055166666664, "bike_id": "ef18e0e59e400689dea90eec0ffece68", "type": "electric_scooter", "is_reserved": 0, "lon": -77.07353183333333}, {"fusion_lat": 0.0, "name": "bbe6051f7ceaaa2c3afcd01d7ed7823b", "is_disabled": 0, "rental_uris": {"android": "https://dc.lft.to/lastmile_qr_scan", "ios": "https://dc.lft.to/lastmile_qr_scan"}, "fusion_lon": 0.0, "lat": 38.947447, "bike_id": "bbe6051f7ceaaa2c3afcd01d7ed7823b", "type": "electric_scooter", "is_reserved": 0, "lon": -77.01616683333333}, {"fusion_lat": 0.0, "name": "ae5609d816ac469457fe5dfc13a489ee", "is_disabled": 0, "rental_uris": {"android": "https://dc.lft.to/lastmile_qr_scan", "ios": "https://dc.lft.to/lastmile_qr_scan"}, "fusion_lon": 0.0, "lat": 38.8922525, "bike_id": "ae5609d816ac469457fe5dfc13a489ee", "type": "electric_scooter", "is_reserved": 0, "lon": -77.03216433333333}, {"fusion_lat": 0.0, "name": "80232511f41c2813db443b52da069e06", "is_disabled": 0, "rental_uris": {"android": "https://dc.lft.to/lastmile_qr_scan", "ios": "https://dc.lft.to/lastmile_qr_scan"}, "fusion_lon": 0.0, "lat": 38.92963266666667, "bike_id": "80232511f41c2813db443b52da069e06", "type": "electric_scooter", "is_reserved": 0, "lon": -77.019753}, {"fusion_lat": 0.0, "name": "b4ace758b26c4eb1d3d68ff3b9774ba7", "is_disabled": 0, "rental_uris": {"android": "https://dc.lft.to/lastmile_qr_scan", "ios": "https://dc.lft.to/lastmile_qr_scan"}, "fusion_lon": 0.0, "lat": 38.8246015, "bike_id": "b4ace758b26c4eb1d3d68ff3b9774ba7", "type": "electric_bike", "is_reserved": 0, "lon": -77.007952}, {"fusion_lat": 0.0, "name": "767b4838e2aedbaffb4c976749718b67", "is_disabled": 0, "rental_uris": {"android": "https://dc.lft.to/lastmile_qr_scan", "ios": "https://dc.lft.to/lastmile_qr_scan"}, "fusion_lon": 0.0, "lat": 38.910842, "bike_id": "767b4838e2aedbaffb4c976749718b67", "type": "electric_scooter", "is_reserved": 0, "lon": -77.06501716666666}, {"fusion_lat": 0.0, "name": "5d7d039d3927412b4cd4096eb743dd77", "is_disabled": 0, "rental_uris": {"android": "https://dc.lft.to/lastmile_qr_scan", "ios": "https://dc.lft.to/lastmile_qr_scan"}, "fusion_lon": 0.0, "lat": 38.892254333333334, "bike_id": "5d7d039d3927412b4cd4096eb743dd77", "type": "electric_scooter", "is_reserved": 0, "lon": -77.02408216666667}, {"fusion_lat": 0.0, "name": "2eb9b9ea51fe6cfc8315ddda6f0d6b8d", "is_disabled": 0, "rental_uris": {"android": "https://dc.lft.to/lastmile_qr_scan", "ios": "https://dc.lft.to/lastmile_qr_scan"}, "fusion_lon": 0.0, "lat": 38.91409066666667, "bike_id": "2eb9b9ea51fe6cfc8315ddda6f0d6b8d", "type": "electric_scooter", "is_reserved": 0, "lon": -77.0083985}, {"fusion_lat": 0.0, "name": "a472689c1dab78f5f8ec4ff1a740d07d", "is_disabled": 0, "rental_uris": {"android": "https://dc.lft.to/lastmile_qr_scan", "ios": "https://dc.lft.to/lastmile_qr_scan"}, "fusion_lon": 0.0, "lat": 38.9045975, "bike_id": "a472689c1dab78f5f8ec4ff1a740d07d", "type": "electric_scooter", "is_reserved": 0, "lon": -77.00686383333333}, {"fusion_lat": 0.0, "name": "3fe00c2a30348c5a8bf9b68955784d42", "is_disabled": 0, "rental_uris": {"android": "https://dc.lft.to/lastmile_qr_scan", "ios": "https://dc.lft.to/lastmile_qr_scan"}, "fusion_lon": 0.0, "lat": 38.90727366666667, "bike_id": "3fe00c2a30348c5a8bf9b68955784d42", "type": "electric_scooter", "is_reserved": 0, "lon": -77.03183833333334}, {"fusion_lat": 0.0, "name": "c4a9a13b4f71a1bbfa5ba7961460ec00", "is_disabled": 0, "rental_uris": {"android": "https://dc.lft.to/lastmile_qr_scan", "ios": "https://dc.lft.to/lastmile_qr_scan"}, "fusion_lon": 0.0, "lat": 38.84296466666667, "bike_id": "c4a9a13b4f71a1bbfa5ba7961460ec00", "type": "electric_bike", "is_reserved": 0, "lon": -77.10866783333333}, {"fusion_lat": 0.0, "name": "a4570c6cf524e46490608d914c88be27", "is_disabled": 0, "rental_uris": {"android": "https://dc.lft.to/lastmile_qr_scan", "ios": "https://dc.lft.to/lastmile_qr_scan"}, "fusion_lon": 0.0, "lat": 38.925457333333334, "bike_id": "a4570c6cf524e46490608d914c88be27", "type": "electric_scooter", "is_reserved": 0, "lon": -77.033441}, {"fusion_lat": 0.0, "name": "341a885d32320ab8c5d26bf647980476", "is_disabled": 0, "rental_uris": {"android": "https://dc.lft.to/lastmile_qr_scan", "ios": "https://dc.lft.to/lastmile_qr_scan"}, "fusion_lon": 0.0, "lat": 38.94406216666667, "bike_id": "341a885d32320ab8c5d26bf647980476", "type": "electric_scooter", "is_reserved": 0, "lon": -77.03860633333333}, {"fusion_lat": 0.0, "name": "58ea028b94731d429a964be71c9bdc66", "is_disabled": 0, "rental_uris": {"android": "https://dc.lft.to/lastmile_qr_scan", "ios": "https://dc.lft.to/lastmile_qr_scan"}, "fusion_lon": 0.0, "lat": 38.89901533333333, "bike_id": "58ea028b94731d429a964be71c9bdc66", "type": "electric_scooter", "is_reserved": 0, "lon": -76.94553133333334}, {"fusion_lat": 0.0, "name": "1f6f17b1df11b143326a29522085b934", "is_disabled": 0, "rental_uris": {"android": "https://dc.lft.to/lastmile_qr_scan", "ios": "https://dc.lft.to/lastmile_qr_scan"}, "fusion_lon": 0.0, "lat": 38.880108666666665, "bike_id": "1f6f17b1df11b143326a29522085b934", "type": "electric_scooter", "is_reserved": 0, "lon": -76.93108666666667}, {"fusion_lat": 0.0, "name": "a96337bdbae1d5d8f36b4aef7747343a", "is_disabled": 0, "rental_uris": {"android": "https://dc.lft.to/lastmile_qr_scan", "ios": "https://dc.lft.to/lastmile_qr_scan"}, "fusion_lon": 0.0, "lat": 38.9022995, "bike_id": "a96337bdbae1d5d8f36b4aef7747343a", "type": "electric_scooter", "is_reserved": 0, "lon": -77.03451166666666}, {"fusion_lat": 0.0, "name": "e1f95326ba603d23a80c764c2eb83903", "is_disabled": 0, "rental_uris": {"android": "https://dc.lft.to/lastmile_qr_scan", "ios": "https://dc.lft.to/lastmile_qr_scan"}, "fusion_lon": 0.0, "lat": 38.91836083333333, "bike_id": "e1f95326ba603d23a80c764c2eb83903", "type": "electric_scooter", "is_reserved": 0, "lon": -77.04520083333334}, {"fusion_lat": 0.0, "name": "cf037bf4deb1de03632611da473f5d0d", "is_disabled": 0, "rental_uris": {"android": "https://dc.lft.to/lastmile_qr_scan", "ios": "https://dc.lft.to/lastmile_qr_scan"}, "fusion_lon": 0.0, "lat": 38.87854383333333, "bike_id": "cf037bf4deb1de03632611da473f5d0d", "type": "electric_scooter", "is_reserved": 0, "lon": -77.01759733333333}, {"fusion_lat": 0.0, "name": "a332c88d04cf6b1573b926d79df98d48", "is_disabled": 0, "rental_uris": {"android": "https://dc.lft.to/lastmile_qr_scan", "ios": "https://dc.lft.to/lastmile_qr_scan"}, "fusion_lon": 0.0, "lat": 38.920660833333336, "bike_id": "a332c88d04cf6b1573b926d79df98d48", "type": "electric_scooter", "is_reserved": 0, "lon": -77.023366}, {"fusion_lat": 0.0, "name": "6d6e53444a045040d18e01f14dcf3345", "is_disabled": 0, "rental_uris": {"android": "https://dc.lft.to/lastmile_qr_scan", "ios": "https://dc.lft.to/lastmile_qr_scan"}, "fusion_lon": 0.0, "lat": 38.900242166666665, "bike_id": "6d6e53444a045040d18e01f14dcf3345", "type": "electric_scooter", "is_reserved": 0, "lon": -76.99874833333334}, {"fusion_lat": 0.0, "name": "2b3a9e22a734424c0cfdfbd6f1fd7a54", "is_disabled": 0, "rental_uris": {"android": "https://dc.lft.to/lastmile_qr_scan", "ios": "https://dc.lft.to/lastmile_qr_scan"}, "fusion_lon": 0.0, "lat": 38.895430833333336, "bike_id": "2b3a9e22a734424c0cfdfbd6f1fd7a54", "type": "electric_scooter", "is_reserved": 0, "lon": -76.98335716666666}, {"fusion_lat": 0.0, "name": "c005ea83ba5e634ece2bbabf35d41840", "is_disabled": 0, "rental_uris": {"android": "https://dc.lft.to/lastmile_qr_scan", "ios": "https://dc.lft.to/lastmile_qr_scan"}, "fusion_lon": 0.0, "lat": 38.923726333333335, "bike_id": "c005ea83ba5e634ece2bbabf35d41840", "type": "electric_scooter", "is_reserved": 0, "lon": -77.03127266666667}, {"fusion_lat": 0.0, "name": "c57cce2a36ba96c0248334daf37214bd", "is_disabled": 0, "rental_uris": {"android": "https://dc.lft.to/lastmile_qr_scan", "ios": "https://dc.lft.to/lastmile_qr_scan"}, "fusion_lon": 0.0, "lat": 38.92099283333334, "bike_id": "c57cce2a36ba96c0248334daf37214bd", "type": "electric_scooter", "is_reserved": 0, "lon": -77.02512083333333}, {"fusion_lat": 0.0, "name": "5455377c7c35be9f9e723c5d6ddd36e0", "is_disabled": 0, "rental_uris": {"android": "https://dc.lft.to/lastmile_qr_scan", "ios": "https://dc.lft.to/lastmile_qr_scan"}, "fusion_lon": 0.0, "lat": 38.9068615, "bike_id": "5455377c7c35be9f9e723c5d6ddd36e0", "type": "electric_scooter", "is_reserved": 0, "lon": -77.0101685}, {"fusion_lat": 0.0, "name": "386dc797d893574b8a923a00868f60e4", "is_disabled": 0, "rental_uris": {"android": "https://dc.lft.to/lastmile_qr_scan", "ios": "https://dc.lft.to/lastmile_qr_scan"}, "fusion_lon": 0.0, "lat": 38.897290166666664, "bike_id": "386dc797d893574b8a923a00868f60e4", "type": "electric_scooter", "is_reserved": 0, "lon": -76.99135633333333}, {"fusion_lat": 0.0, "name": "ee907c22f68f70db6b9e8158004b63c5", "is_disabled": 0, "rental_uris": {"android": "https://dc.lft.to/lastmile_qr_scan", "ios": "https://dc.lft.to/lastmile_qr_scan"}, "fusion_lon": 0.0, "lat": 38.8818215, "bike_id": "ee907c22f68f70db6b9e8158004b63c5", "type": "electric_bike", "is_reserved": 0, "lon": -77.08636933333334}, {"fusion_lat": 0.0, "name": "f51e642653f54d93bcff4d74a6f2d993", "is_disabled": 0, "rental_uris": {"android": "https://dc.lft.to/lastmile_qr_scan", "ios": "https://dc.lft.to/lastmile_qr_scan"}, "fusion_lon": 0.0, "lat": 38.9233635, "bike_id": "f51e642653f54d93bcff4d74a6f2d993", "type": "electric_scooter", "is_reserved": 0, "lon": -77.053021}, {"fusion_lat": 0.0, "name": "f876b461a98b75b759c869eeb6269434", "is_disabled": 0, "rental_uris": {"android": "https://dc.lft.to/lastmile_qr_scan", "ios": "https://dc.lft.to/lastmile_qr_scan"}, "fusion_lon": 0.0, "lat": 38.90854233333334, "bike_id": "f876b461a98b75b759c869eeb6269434", "type": "electric_scooter", "is_reserved": 0, "lon": -77.02345166666667}, {"fusion_lat": 0.0, "name": "98e3b5ba26eed7e34d13e11513d0b7dd", "is_disabled": 0, "rental_uris": {"android": "https://dc.lft.to/lastmile_qr_scan", "ios": "https://dc.lft.to/lastmile_qr_scan"}, "fusion_lon": 0.0, "lat": 38.95087083333333, "bike_id": "98e3b5ba26eed7e34d13e11513d0b7dd", "type": "electric_bike", "is_reserved": 0, "lon": -77.01228783333333}, {"fusion_lat": 0.0, "name": "ee60f5658a66f939ab0c55c87211e774", "is_disabled": 0, "rental_uris": {"android": "https://dc.lft.to/lastmile_qr_scan", "ios": "https://dc.lft.to/lastmile_qr_scan"}, "fusion_lon": 0.0, "lat": 38.8442675, "bike_id": "ee60f5658a66f939ab0c55c87211e774", "type": "electric_scooter", "is_reserved": 0, "lon": -76.997819}, {"fusion_lat": 0.0, "name": "713694c11eb55ef2aa5eb2c472048946", "is_disabled": 0, "rental_uris": {"android": "https://dc.lft.to/lastmile_qr_scan", "ios": "https://dc.lft.to/lastmile_qr_scan"}, "fusion_lon": 0.0, "lat": 38.885224666666666, "bike_id": "713694c11eb55ef2aa5eb2c472048946", "type": "electric_scooter", "is_reserved": 0, "lon": -76.9771195}, {"fusion_lat": 0.0, "name": "13420cf985251776c3f36b905e9b4b9e", "is_disabled": 0, "rental_uris": {"android": "https://dc.lft.to/lastmile_qr_scan", "ios": "https://dc.lft.to/lastmile_qr_scan"}, "fusion_lon": 0.0, "lat": 38.827971166666664, "bike_id": "13420cf985251776c3f36b905e9b4b9e", "type": "electric_bike", "is_reserved": 0, "lon": -77.1248285}, {"fusion_lat": 0.0, "name": "1cc3e93d0fc1df4224dd9c652d4dad9c", "is_disabled": 0, "rental_uris": {"android": "https://dc.lft.to/lastmile_qr_scan", "ios": "https://dc.lft.to/lastmile_qr_scan"}, "fusion_lon": 0.0, "lat": 38.93116783333333, "bike_id": "1cc3e93d0fc1df4224dd9c652d4dad9c", "type": "electric_scooter", "is_reserved": 0, "lon": -77.02088416666666}, {"fusion_lat": 0.0, "name": "cfb4eb64c2bd13d11f52333f676ea037", "is_disabled": 0, "rental_uris": {"android": "https://dc.lft.to/lastmile_qr_scan", "ios": "https://dc.lft.to/lastmile_qr_scan"}, "fusion_lon": 0.0, "lat": 38.911206166666666, "bike_id": "cfb4eb64c2bd13d11f52333f676ea037", "type": "electric_scooter", "is_reserved": 0, "lon": -77.0813055}, {"fusion_lat": 0.0, "name": "810870c7b8d5833b54cd7efb4f7086b1", "is_disabled": 0, "rental_uris": {"android": "https://dc.lft.to/lastmile_qr_scan", "ios": "https://dc.lft.to/lastmile_qr_scan"}, "fusion_lon": 0.0, "lat": 38.89977966666667, "bike_id": "810870c7b8d5833b54cd7efb4f7086b1", "type": "electric_scooter", "is_reserved": 0, "lon": -77.02695516666667}, {"fusion_lat": 0.0, "name": "67158a7990a4db05f4e6a76eb89bfe7f", "is_disabled": 0, "rental_uris": {"android": "https://dc.lft.to/lastmile_qr_scan", "ios": "https://dc.lft.to/lastmile_qr_scan"}, "fusion_lon": 0.0, "lat": 38.909697333333334, "bike_id": "67158a7990a4db05f4e6a76eb89bfe7f", "type": "electric_scooter", "is_reserved": 0, "lon": -77.02162783333333}, {"fusion_lat": 0.0, "name": "e892dedc4d3dcfc231bcdfd78546b713", "is_disabled": 0, "rental_uris": {"android": "https://dc.lft.to/lastmile_qr_scan", "ios": "https://dc.lft.to/lastmile_qr_scan"}, "fusion_lon": 0.0, "lat": 38.91750316666667, "bike_id": "e892dedc4d3dcfc231bcdfd78546b713", "type": "electric_scooter", "is_reserved": 0, "lon": -77.01227366666667}, {"fusion_lat": 0.0, "name": "834422952564976132b00303bb13646a", "is_disabled": 0, "rental_uris": {"android": "https://dc.lft.to/lastmile_qr_scan", "ios": "https://dc.lft.to/lastmile_qr_scan"}, "fusion_lon": 0.0, "lat": 38.893238333333336, "bike_id": "834422952564976132b00303bb13646a", "type": "electric_bike", "is_reserved": 0, "lon": -76.95122966666666}, {"fusion_lat": 0.0, "name": "3d0bd6f65d7b25e6b6a7790ecc7c0d1f", "is_disabled": 0, "rental_uris": {"android": "https://dc.lft.to/lastmile_qr_scan", "ios": "https://dc.lft.to/lastmile_qr_scan"}, "fusion_lon": 0.0, "lat": 38.8851445, "bike_id": "3d0bd6f65d7b25e6b6a7790ecc7c0d1f", "type": "electric_scooter", "is_reserved": 0, "lon": -77.01734633333334}, {"fusion_lat": 0.0, "name": "12e25e0aefc843453a3a1ef0e16964c4", "is_disabled": 0, "rental_uris": {"android": "https://dc.lft.to/lastmile_qr_scan", "ios": "https://dc.lft.to/lastmile_qr_scan"}, "fusion_lon": 0.0, "lat": 38.879444666666664, "bike_id": "12e25e0aefc843453a3a1ef0e16964c4", "type": "electric_scooter", "is_reserved": 0, "lon": -77.00834133333333}, {"fusion_lat": 0.0, "name": "1fe8393daf5319fe92da716e04157cb6", "is_disabled": 0, "rental_uris": {"android": "https://dc.lft.to/lastmile_qr_scan", "ios": "https://dc.lft.to/lastmile_qr_scan"}, "fusion_lon": 0.0, "lat": 38.89745766666667, "bike_id": "1fe8393daf5319fe92da716e04157cb6", "type": "electric_scooter", "is_reserved": 0, "lon": -77.02699133333333}, {"fusion_lat": 0.0, "name": "a0181ae166dc2f4a1832f3625e265cda", "is_disabled": 0, "rental_uris": {"android": "https://dc.lft.to/lastmile_qr_scan", "ios": "https://dc.lft.to/lastmile_qr_scan"}, "fusion_lon": 0.0, "lat": 38.907354, "bike_id": "a0181ae166dc2f4a1832f3625e265cda", "type": "electric_scooter", "is_reserved": 0, "lon": -77.02943216666667}, {"fusion_lat": 0.0, "name": "6e614d367536567bb03fbd96725c6f54", "is_disabled": 0, "rental_uris": {"android": "https://dc.lft.to/lastmile_qr_scan", "ios": "https://dc.lft.to/lastmile_qr_scan"}, "fusion_lon": 0.0, "lat": 38.93963316666667, "bike_id": "6e614d367536567bb03fbd96725c6f54", "type": "electric_scooter", "is_reserved": 0, "lon": -77.03282216666666}, {"fusion_lat": 0.0, "name": "725c80fecd105ea25742c267c9b0df36", "is_disabled": 0, "rental_uris": {"android": "https://dc.lft.to/lastmile_qr_scan", "ios": "https://dc.lft.to/lastmile_qr_scan"}, "fusion_lon": 0.0, "lat": 38.900249, "bike_id": "725c80fecd105ea25742c267c9b0df36", "type": "electric_scooter", "is_reserved": 0, "lon": -77.00219783333333}, {"fusion_lat": 0.0, "name": "608e87b5465d5c16723ce672bfb67ca7", "is_disabled": 0, "rental_uris": {"android": "https://dc.lft.to/lastmile_qr_scan", "ios": "https://dc.lft.to/lastmile_qr_scan"}, "fusion_lon": 0.0, "lat": 38.87667733333333, "bike_id": "608e87b5465d5c16723ce672bfb67ca7", "type": "electric_scooter", "is_reserved": 0, "lon": -77.00659366666666}, {"fusion_lat": 0.0, "name": "11b6d95e88d0a812c8e7f07234937beb", "is_disabled": 0, "rental_uris": {"android": "https://dc.lft.to/lastmile_qr_scan", "ios": "https://dc.lft.to/lastmile_qr_scan"}, "fusion_lon": 0.0, "lat": 38.922291666666666, "bike_id": "11b6d95e88d0a812c8e7f07234937beb", "type": "electric_scooter", "is_reserved": 0, "lon": -77.02367383333333}, {"fusion_lat": 0.0, "name": "b4700c2afd48535186da4e360048bf8d", "is_disabled": 0, "rental_uris": {"android": "https://dc.lft.to/lastmile_qr_scan", "ios": "https://dc.lft.to/lastmile_qr_scan"}, "fusion_lon": 0.0, "lat": 38.8795585, "bike_id": "b4700c2afd48535186da4e360048bf8d", "type": "electric_scooter", "is_reserved": 0, "lon": -77.005845}, {"fusion_lat": 0.0, "name": "e4964330e9abcfaddb24eaace51ad23e", "is_disabled": 0, "rental_uris": {"android": "https://dc.lft.to/lastmile_qr_scan", "ios": "https://dc.lft.to/lastmile_qr_scan"}, "fusion_lon": 0.0, "lat": 38.90010816666667, "bike_id": "e4964330e9abcfaddb24eaace51ad23e", "type": "electric_scooter", "is_reserved": 0, "lon": -77.01192016666667}, {"fusion_lat": 0.0, "name": "5870fcbf66f2b0207d3440183c3031aa", "is_disabled": 0, "rental_uris": {"android": "https://dc.lft.to/lastmile_qr_scan", "ios": "https://dc.lft.to/lastmile_qr_scan"}, "fusion_lon": 0.0, "lat": 38.892382833333336, "bike_id": "5870fcbf66f2b0207d3440183c3031aa", "type": "electric_scooter", "is_reserved": 0, "lon": -77.04354566666666}, {"fusion_lat": 0.0, "name": "1d14c20d4c643a49db1cb1ab3195b8ff", "is_disabled": 0, "rental_uris": {"android": "https://dc.lft.to/lastmile_qr_scan", "ios": "https://dc.lft.to/lastmile_qr_scan"}, "fusion_lon": 0.0, "lat": 38.9209775, "bike_id": "1d14c20d4c643a49db1cb1ab3195b8ff", "type": "electric_scooter", "is_reserved": 0, "lon": -77.03175516666667}, {"fusion_lat": 0.0, "name": "13328a2c740b6cc79ddb2251e650fa10", "is_disabled": 0, "rental_uris": {"android": "https://dc.lft.to/lastmile_qr_scan", "ios": "https://dc.lft.to/lastmile_qr_scan"}, "fusion_lon": 0.0, "lat": 38.922897666666664, "bike_id": "13328a2c740b6cc79ddb2251e650fa10", "type": "electric_scooter", "is_reserved": 0, "lon": -77.0366305}, {"fusion_lat": 0.0, "name": "d1de37ea37c1bee4ea576473755e45b4", "is_disabled": 0, "rental_uris": {"android": "https://dc.lft.to/lastmile_qr_scan", "ios": "https://dc.lft.to/lastmile_qr_scan"}, "fusion_lon": 0.0, "lat": 38.927314833333334, "bike_id": "d1de37ea37c1bee4ea576473755e45b4", "type": "electric_scooter", "is_reserved": 0, "lon": -77.052539}, {"fusion_lat": 0.0, "name": "9aecdf2d2174d1c1a28d7ac44c84379d", "is_disabled": 0, "rental_uris": {"android": "https://dc.lft.to/lastmile_qr_scan", "ios": "https://dc.lft.to/lastmile_qr_scan"}, "fusion_lon": 0.0, "lat": 38.904258666666664, "bike_id": "9aecdf2d2174d1c1a28d7ac44c84379d", "type": "electric_scooter", "is_reserved": 0, "lon": -77.05131616666667}, {"fusion_lat": 0.0, "name": "079b2026461856df3b89069350b40dbd", "is_disabled": 0, "rental_uris": {"android": "https://dc.lft.to/lastmile_qr_scan", "ios": "https://dc.lft.to/lastmile_qr_scan"}, "fusion_lon": 0.0, "lat": 38.92377966666667, "bike_id": "079b2026461856df3b89069350b40dbd", "type": "electric_scooter", "is_reserved": 0, "lon": -77.04466533333333}, {"fusion_lat": 0.0, "name": "2c89ea9a0a8db7533f3149dc84c87b4c", "is_disabled": 0, "rental_uris": {"android": "https://dc.lft.to/lastmile_qr_scan", "ios": "https://dc.lft.to/lastmile_qr_scan"}, "fusion_lon": 0.0, "lat": 38.92016566666667, "bike_id": "2c89ea9a0a8db7533f3149dc84c87b4c", "type": "electric_scooter", "is_reserved": 0, "lon": -77.038903}, {"fusion_lat": 0.0, "name": "1ec9bf09cfb91891f346ed37fa25cdc4", "is_disabled": 0, "rental_uris": {"android": "https://dc.lft.to/lastmile_qr_scan", "ios": "https://dc.lft.to/lastmile_qr_scan"}, "fusion_lon": 0.0, "lat": 38.802921833333336, "bike_id": "1ec9bf09cfb91891f346ed37fa25cdc4", "type": "electric_bike", "is_reserved": 0, "lon": -77.05932216666666}, {"fusion_lat": 0.0, "name": "73bb44ebbe47ea3dcdd22b3c5637fb23", "is_disabled": 0, "rental_uris": {"android": "https://dc.lft.to/lastmile_qr_scan", "ios": "https://dc.lft.to/lastmile_qr_scan"}, "fusion_lon": 0.0, "lat": 38.9037875, "bike_id": "73bb44ebbe47ea3dcdd22b3c5637fb23", "type": "electric_scooter", "is_reserved": 0, "lon": -76.97620883333333}, {"fusion_lat": 0.0, "name": "2a8ac3217258ffaffc657ad20e96513e", "is_disabled": 0, "rental_uris": {"android": "https://dc.lft.to/lastmile_qr_scan", "ios": "https://dc.lft.to/lastmile_qr_scan"}, "fusion_lon": 0.0, "lat": 38.963905833333335, "bike_id": "2a8ac3217258ffaffc657ad20e96513e", "type": "electric_scooter", "is_reserved": 0, "lon": -77.02595333333333}, {"fusion_lat": 0.0, "name": "62ce0c56983286e7a6370aa48602bb17", "is_disabled": 0, "rental_uris": {"android": "https://dc.lft.to/lastmile_qr_scan", "ios": "https://dc.lft.to/lastmile_qr_scan"}, "fusion_lon": 0.0, "lat": 38.88187283333333, "bike_id": "62ce0c56983286e7a6370aa48602bb17", "type": "electric_scooter", "is_reserved": 0, "lon": -77.00356083333334}, {"fusion_lat": 0.0, "name": "130cf9d9bd9ababf80e53f811a8f2f0d", "is_disabled": 0, "rental_uris": {"android": "https://dc.lft.to/lastmile_qr_scan", "ios": "https://dc.lft.to/lastmile_qr_scan"}, "fusion_lon": 0.0, "lat": 38.9324895, "bike_id": "130cf9d9bd9ababf80e53f811a8f2f0d", "type": "electric_scooter", "is_reserved": 0, "lon": -77.03275416666666}, {"fusion_lat": 0.0, "name": "ed3c995c9d74c899f1de365c7048989a", "is_disabled": 0, "rental_uris": {"android": "https://dc.lft.to/lastmile_qr_scan", "ios": "https://dc.lft.to/lastmile_qr_scan"}, "fusion_lon": 0.0, "lat": 38.921355, "bike_id": "ed3c995c9d74c899f1de365c7048989a", "type": "electric_scooter", "is_reserved": 0, "lon": -77.01800233333333}, {"fusion_lat": 0.0, "name": "4f6e833f6ded2988c706d4d44e326810", "is_disabled": 0, "rental_uris": {"android": "https://dc.lft.to/lastmile_qr_scan", "ios": "https://dc.lft.to/lastmile_qr_scan"}, "fusion_lon": 0.0, "lat": 38.90984683333333, "bike_id": "4f6e833f6ded2988c706d4d44e326810", "type": "electric_scooter", "is_reserved": 0, "lon": -77.03835266666667}, {"fusion_lat": 0.0, "name": "fef1a1d087f9ba0eae95dce7c99ab82b", "is_disabled": 0, "rental_uris": {"android": "https://dc.lft.to/lastmile_qr_scan", "ios": "https://dc.lft.to/lastmile_qr_scan"}, "fusion_lon": 0.0, "lat": 38.8813795, "bike_id": "fef1a1d087f9ba0eae95dce7c99ab82b", "type": "electric_scooter", "is_reserved": 0, "lon": -77.01667283333333}, {"fusion_lat": 0.0, "name": "58c86759bb0817a423d72057f429f8ea", "is_disabled": 0, "rental_uris": {"android": "https://dc.lft.to/lastmile_qr_scan", "ios": "https://dc.lft.to/lastmile_qr_scan"}, "fusion_lon": 0.0, "lat": 38.931915833333335, "bike_id": "58c86759bb0817a423d72057f429f8ea", "type": "electric_scooter", "is_reserved": 0, "lon": -77.04296816666667}, {"fusion_lat": 0.0, "name": "8e02a90db9b85d66693806a6739ddced", "is_disabled": 0, "rental_uris": {"android": "https://dc.lft.to/lastmile_qr_scan", "ios": "https://dc.lft.to/lastmile_qr_scan"}, "fusion_lon": 0.0, "lat": 38.8872475, "bike_id": "8e02a90db9b85d66693806a6739ddced", "type": "electric_scooter", "is_reserved": 0, "lon": -76.98358133333333}, {"fusion_lat": 0.0, "name": "b8686be20324d4627080c7dd8a1807c6", "is_disabled": 0, "rental_uris": {"android": "https://dc.lft.to/lastmile_qr_scan", "ios": "https://dc.lft.to/lastmile_qr_scan"}, "fusion_lon": 0.0, "lat": 38.883749, "bike_id": "b8686be20324d4627080c7dd8a1807c6", "type": "electric_scooter", "is_reserved": 0, "lon": -77.0052915}, {"fusion_lat": 0.0, "name": "8ecc10a253710b9e9da8920e0d6144fe", "is_disabled": 0, "rental_uris": {"android": "https://dc.lft.to/lastmile_qr_scan", "ios": "https://dc.lft.to/lastmile_qr_scan"}, "fusion_lon": 0.0, "lat": 38.84133683333334, "bike_id": "8ecc10a253710b9e9da8920e0d6144fe", "type": "electric_bike", "is_reserved": 0, "lon": -76.94761766666667}, {"fusion_lat": 0.0, "name": "9e2d400cea3a0f82599a2d037e3a15e6", "is_disabled": 0, "rental_uris": {"android": "https://dc.lft.to/lastmile_qr_scan", "ios": "https://dc.lft.to/lastmile_qr_scan"}, "fusion_lon": 0.0, "lat": 38.914176499999996, "bike_id": "9e2d400cea3a0f82599a2d037e3a15e6", "type": "electric_scooter", "is_reserved": 0, "lon": -77.04078183333333}, {"fusion_lat": 0.0, "name": "fb53d22ee1a852962350b730f0235183", "is_disabled": 0, "rental_uris": {"android": "https://dc.lft.to/lastmile_qr_scan", "ios": "https://dc.lft.to/lastmile_qr_scan"}, "fusion_lon": 0.0, "lat": 38.89219283333333, "bike_id": "fb53d22ee1a852962350b730f0235183", "type": "electric_scooter", "is_reserved": 0, "lon": -77.02218566666667}, {"fusion_lat": 0.0, "name": "029a0218e64282b82cda2cd33c6272f0", "is_disabled": 0, "rental_uris": {"android": "https://dc.lft.to/lastmile_qr_scan", "ios": "https://dc.lft.to/lastmile_qr_scan"}, "fusion_lon": 0.0, "lat": 38.92694683333333, "bike_id": "029a0218e64282b82cda2cd33c6272f0", "type": "electric_scooter", "is_reserved": 0, "lon": -77.02584766666666}, {"fusion_lat": 0.0, "name": "23894331efcea5ff495af1f53055ff88", "is_disabled": 0, "rental_uris": {"android": "https://dc.lft.to/lastmile_qr_scan", "ios": "https://dc.lft.to/lastmile_qr_scan"}, "fusion_lon": 0.0, "lat": 38.904081166666664, "bike_id": "23894331efcea5ff495af1f53055ff88", "type": "electric_scooter", "is_reserved": 0, "lon": -76.97332916666667}, {"fusion_lat": 0.0, "name": "21161549bde98aeed6cac928cb3fec79", "is_disabled": 0, "rental_uris": {"android": "https://dc.lft.to/lastmile_qr_scan", "ios": "https://dc.lft.to/lastmile_qr_scan"}, "fusion_lon": 0.0, "lat": 38.922617, "bike_id": "21161549bde98aeed6cac928cb3fec79", "type": "electric_scooter", "is_reserved": 0, "lon": -77.02965366666666}, {"fusion_lat": 0.0, "name": "bc9f4d8dcb399bcf3709cf57a8860718", "is_disabled": 0, "rental_uris": {"android": "https://dc.lft.to/lastmile_qr_scan", "ios": "https://dc.lft.to/lastmile_qr_scan"}, "fusion_lon": 0.0, "lat": 38.90731916666667, "bike_id": "bc9f4d8dcb399bcf3709cf57a8860718", "type": "electric_scooter", "is_reserved": 0, "lon": -77.03454683333334}, {"fusion_lat": 0.0, "name": "f751433a0241c240c9afe04eeb38f81d", "is_disabled": 0, "rental_uris": {"android": "https://dc.lft.to/lastmile_qr_scan", "ios": "https://dc.lft.to/lastmile_qr_scan"}, "fusion_lon": 0.0, "lat": 38.9312595, "bike_id": "f751433a0241c240c9afe04eeb38f81d", "type": "electric_scooter", "is_reserved": 0, "lon": -77.03600183333333}, {"fusion_lat": 0.0, "name": "e514dd0a62e6c503216f6e1cdcfa1453", "is_disabled": 0, "rental_uris": {"android": "https://dc.lft.to/lastmile_qr_scan", "ios": "https://dc.lft.to/lastmile_qr_scan"}, "fusion_lon": 0.0, "lat": 38.844271666666664, "bike_id": "e514dd0a62e6c503216f6e1cdcfa1453", "type": "electric_scooter", "is_reserved": 0, "lon": -76.99782966666666}, {"fusion_lat": 0.0, "name": "66c098bde55f7d2f527013a342c444ff", "is_disabled": 0, "rental_uris": {"android": "https://dc.lft.to/lastmile_qr_scan", "ios": "https://dc.lft.to/lastmile_qr_scan"}, "fusion_lon": 0.0, "lat": 38.84749816666667, "bike_id": "66c098bde55f7d2f527013a342c444ff", "type": "electric_bike", "is_reserved": 0, "lon": -76.9665015}, {"fusion_lat": 0.0, "name": "7cb444b938968e59aa03d993c3a88ab5", "is_disabled": 0, "rental_uris": {"android": "https://dc.lft.to/lastmile_qr_scan", "ios": "https://dc.lft.to/lastmile_qr_scan"}, "fusion_lon": 0.0, "lat": 38.8899245, "bike_id": "7cb444b938968e59aa03d993c3a88ab5", "type": "electric_scooter", "is_reserved": 0, "lon": -76.99251483333333}, {"fusion_lat": 0.0, "name": "a8cb115a4ca9f80e9b103eefd55f0dcd", "is_disabled": 0, "rental_uris": {"android": "https://dc.lft.to/lastmile_qr_scan", "ios": "https://dc.lft.to/lastmile_qr_scan"}, "fusion_lon": 0.0, "lat": 38.88147083333333, "bike_id": "a8cb115a4ca9f80e9b103eefd55f0dcd", "type": "electric_scooter", "is_reserved": 0, "lon": -76.99507966666667}, {"fusion_lat": 0.0, "name": "1160178807b53d207ba62bd6bb65fd57", "is_disabled": 0, "rental_uris": {"android": "https://dc.lft.to/lastmile_qr_scan", "ios": "https://dc.lft.to/lastmile_qr_scan"}, "fusion_lon": 0.0, "lat": 38.90549866666667, "bike_id": "1160178807b53d207ba62bd6bb65fd57", "type": "electric_scooter", "is_reserved": 0, "lon": -77.04655066666666}, {"fusion_lat": 0.0, "name": "f82dd6b48501e80aa789e35648ce70dd", "is_disabled": 0, "rental_uris": {"android": "https://dc.lft.to/lastmile_qr_scan", "ios": "https://dc.lft.to/lastmile_qr_scan"}, "fusion_lon": 0.0, "lat": 38.90242416666667, "bike_id": "f82dd6b48501e80aa789e35648ce70dd", "type": "electric_scooter", "is_reserved": 0, "lon": -77.0632035}, {"fusion_lat": 0.0, "name": "719a83f152d277735795916dba12394e", "is_disabled": 0, "rental_uris": {"android": "https://dc.lft.to/lastmile_qr_scan", "ios": "https://dc.lft.to/lastmile_qr_scan"}, "fusion_lon": 0.0, "lat": 38.91897616666667, "bike_id": "719a83f152d277735795916dba12394e", "type": "electric_scooter", "is_reserved": 0, "lon": -77.00045883333334}, {"fusion_lat": 0.0, "name": "035dba1dc2ca836e093625b9aefd0bbd", "is_disabled": 0, "rental_uris": {"android": "https://dc.lft.to/lastmile_qr_scan", "ios": "https://dc.lft.to/lastmile_qr_scan"}, "fusion_lon": 0.0, "lat": 38.96666316666666, "bike_id": "035dba1dc2ca836e093625b9aefd0bbd", "type": "electric_scooter", "is_reserved": 0, "lon": -77.025548}, {"fusion_lat": 0.0, "name": "e99f271fc6f5c68d5f45ae318bf6e71d", "is_disabled": 0, "rental_uris": {"android": "https://dc.lft.to/lastmile_qr_scan", "ios": "https://dc.lft.to/lastmile_qr_scan"}, "fusion_lon": 0.0, "lat": 38.898753166666665, "bike_id": "e99f271fc6f5c68d5f45ae318bf6e71d", "type": "electric_scooter", "is_reserved": 0, "lon": -76.93185816666667}, {"fusion_lat": 0.0, "name": "3c9b6cd96cf7665a121b0d67716ae5a1", "is_disabled": 0, "rental_uris": {"android": "https://dc.lft.to/lastmile_qr_scan", "ios": "https://dc.lft.to/lastmile_qr_scan"}, "fusion_lon": 0.0, "lat": 38.915540666666665, "bike_id": "3c9b6cd96cf7665a121b0d67716ae5a1", "type": "electric_scooter", "is_reserved": 0, "lon": -77.03134883333334}, {"fusion_lat": 0.0, "name": "8f122c07268360e0be50ab511c625a68", "is_disabled": 0, "rental_uris": {"android": "https://dc.lft.to/lastmile_qr_scan", "ios": "https://dc.lft.to/lastmile_qr_scan"}, "fusion_lon": 0.0, "lat": 38.9171215, "bike_id": "8f122c07268360e0be50ab511c625a68", "type": "electric_scooter", "is_reserved": 0, "lon": -76.9766225}, {"fusion_lat": 0.0, "name": "6b3c393997013d43a894999c503d8d94", "is_disabled": 0, "rental_uris": {"android": "https://dc.lft.to/lastmile_qr_scan", "ios": "https://dc.lft.to/lastmile_qr_scan"}, "fusion_lon": 0.0, "lat": 38.901485666666666, "bike_id": "6b3c393997013d43a894999c503d8d94", "type": "electric_scooter", "is_reserved": 0, "lon": -77.02288933333334}, {"fusion_lat": 0.0, "name": "b6c563ee3f1b0477a1d99b4e05712594", "is_disabled": 0, "rental_uris": {"android": "https://dc.lft.to/lastmile_qr_scan", "ios": "https://dc.lft.to/lastmile_qr_scan"}, "fusion_lon": 0.0, "lat": 38.96488466666667, "bike_id": "b6c563ee3f1b0477a1d99b4e05712594", "type": "electric_bike", "is_reserved": 0, "lon": -77.0220815}, {"fusion_lat": 0.0, "name": "9504410374c52f61764c2e3a9b8fed69", "is_disabled": 0, "rental_uris": {"android": "https://dc.lft.to/lastmile_qr_scan", "ios": "https://dc.lft.to/lastmile_qr_scan"}, "fusion_lon": 0.0, "lat": 38.922367666666666, "bike_id": "9504410374c52f61764c2e3a9b8fed69", "type": "electric_scooter", "is_reserved": 0, "lon": -77.029085}, {"fusion_lat": 0.0, "name": "269afc14054a1ac91e43df8ed9da3c42", "is_disabled": 0, "rental_uris": {"android": "https://dc.lft.to/lastmile_qr_scan", "ios": "https://dc.lft.to/lastmile_qr_scan"}, "fusion_lon": 0.0, "lat": 38.898824833333336, "bike_id": "269afc14054a1ac91e43df8ed9da3c42", "type": "electric_scooter", "is_reserved": 0, "lon": -77.05357233333334}, {"fusion_lat": 0.0, "name": "33ff0f6f910f4c133b21f6fe1299beb7", "is_disabled": 0, "rental_uris": {"android": "https://dc.lft.to/lastmile_qr_scan", "ios": "https://dc.lft.to/lastmile_qr_scan"}, "fusion_lon": 0.0, "lat": 38.92082933333333, "bike_id": "33ff0f6f910f4c133b21f6fe1299beb7", "type": "electric_scooter", "is_reserved": 0, "lon": -77.023665}, {"fusion_lat": 0.0, "name": "64740fea7d82a970f2fbe6d5c7be2510", "is_disabled": 0, "rental_uris": {"android": "https://dc.lft.to/lastmile_qr_scan", "ios": "https://dc.lft.to/lastmile_qr_scan"}, "fusion_lon": 0.0, "lat": 38.91815716666667, "bike_id": "64740fea7d82a970f2fbe6d5c7be2510", "type": "electric_scooter", "is_reserved": 0, "lon": -77.0452705}, {"fusion_lat": 0.0, "name": "20e9d358c4ffe6eaaa7a7637278ccb83", "is_disabled": 0, "rental_uris": {"android": "https://dc.lft.to/lastmile_qr_scan", "ios": "https://dc.lft.to/lastmile_qr_scan"}, "fusion_lon": 0.0, "lat": 38.924432, "bike_id": "20e9d358c4ffe6eaaa7a7637278ccb83", "type": "electric_scooter", "is_reserved": 0, "lon": -77.02021066666667}, {"fusion_lat": 0.0, "name": "52d65d3d6f04b6d76a37decf0ed7c55b", "is_disabled": 0, "rental_uris": {"android": "https://dc.lft.to/lastmile_qr_scan", "ios": "https://dc.lft.to/lastmile_qr_scan"}, "fusion_lon": 0.0, "lat": 38.93536, "bike_id": "52d65d3d6f04b6d76a37decf0ed7c55b", "type": "electric_scooter", "is_reserved": 0, "lon": -77.0235125}, {"fusion_lat": 0.0, "name": "89c25153caf4c4507951f152fcd0fb56", "is_disabled": 0, "rental_uris": {"android": "https://dc.lft.to/lastmile_qr_scan", "ios": "https://dc.lft.to/lastmile_qr_scan"}, "fusion_lon": 0.0, "lat": 38.911115333333335, "bike_id": "89c25153caf4c4507951f152fcd0fb56", "type": "electric_scooter", "is_reserved": 0, "lon": -77.002521}, {"fusion_lat": 0.0, "name": "3d77babace2f3dff2e506f4261c355cc", "is_disabled": 0, "rental_uris": {"android": "https://dc.lft.to/lastmile_qr_scan", "ios": "https://dc.lft.to/lastmile_qr_scan"}, "fusion_lon": 0.0, "lat": 38.8972665, "bike_id": "3d77babace2f3dff2e506f4261c355cc", "type": "electric_scooter", "is_reserved": 0, "lon": -77.0462125}, {"fusion_lat": 0.0, "name": "f2ad693d60167c173e05fe68995aabf8", "is_disabled": 0, "rental_uris": {"android": "https://dc.lft.to/lastmile_qr_scan", "ios": "https://dc.lft.to/lastmile_qr_scan"}, "fusion_lon": 0.0, "lat": 38.88489033333333, "bike_id": "f2ad693d60167c173e05fe68995aabf8", "type": "electric_scooter", "is_reserved": 0, "lon": -77.00715416666667}, {"fusion_lat": 0.0, "name": "4e966d19d1a515d428c8d4950523fc3d", "is_disabled": 0, "rental_uris": {"android": "https://dc.lft.to/lastmile_qr_scan", "ios": "https://dc.lft.to/lastmile_qr_scan"}, "fusion_lon": 0.0, "lat": 38.918881166666665, "bike_id": "4e966d19d1a515d428c8d4950523fc3d", "type": "electric_scooter", "is_reserved": 0, "lon": -77.023016}, {"fusion_lat": 0.0, "name": "7113734002cc87c8d6681f23fa1159ff", "is_disabled": 0, "rental_uris": {"android": "https://dc.lft.to/lastmile_qr_scan", "ios": "https://dc.lft.to/lastmile_qr_scan"}, "fusion_lon": 0.0, "lat": 38.87812783333333, "bike_id": "7113734002cc87c8d6681f23fa1159ff", "type": "electric_scooter", "is_reserved": 0, "lon": -77.01325316666667}, {"fusion_lat": 0.0, "name": "49344a17f64e0c63c02730963b2fb4d1", "is_disabled": 0, "rental_uris": {"android": "https://dc.lft.to/lastmile_qr_scan", "ios": "https://dc.lft.to/lastmile_qr_scan"}, "fusion_lon": 0.0, "lat": 38.91381766666667, "bike_id": "49344a17f64e0c63c02730963b2fb4d1", "type": "electric_scooter", "is_reserved": 0, "lon": -77.01806583333334}, {"fusion_lat": 0.0, "name": "8e1030e7408c3c22f6b9461ae240a95e", "is_disabled": 0, "rental_uris": {"android": "https://dc.lft.to/lastmile_qr_scan", "ios": "https://dc.lft.to/lastmile_qr_scan"}, "fusion_lon": 0.0, "lat": 38.9524985, "bike_id": "8e1030e7408c3c22f6b9461ae240a95e", "type": "electric_scooter", "is_reserved": 0, "lon": -77.023806}, {"fusion_lat": 0.0, "name": "7709a3b15d19d7bb008bc37f7135cf2d", "is_disabled": 0, "rental_uris": {"android": "https://dc.lft.to/lastmile_qr_scan", "ios": "https://dc.lft.to/lastmile_qr_scan"}, "fusion_lon": 0.0, "lat": 38.921152, "bike_id": "7709a3b15d19d7bb008bc37f7135cf2d", "type": "electric_scooter", "is_reserved": 0, "lon": -77.04401816666666}, {"fusion_lat": 0.0, "name": "80e743db2ab43136d98da0f9a5744c3a", "is_disabled": 0, "rental_uris": {"android": "https://dc.lft.to/lastmile_qr_scan", "ios": "https://dc.lft.to/lastmile_qr_scan"}, "fusion_lon": 0.0, "lat": 38.9059345, "bike_id": "80e743db2ab43136d98da0f9a5744c3a", "type": "electric_scooter", "is_reserved": 0, "lon": -77.00710716666667}, {"fusion_lat": 0.0, "name": "68efcf4eb78703fd179e3b1f7f2fc1b7", "is_disabled": 0, "rental_uris": {"android": "https://dc.lft.to/lastmile_qr_scan", "ios": "https://dc.lft.to/lastmile_qr_scan"}, "fusion_lon": 0.0, "lat": 38.929761, "bike_id": "68efcf4eb78703fd179e3b1f7f2fc1b7", "type": "electric_scooter", "is_reserved": 0, "lon": -77.0418975}, {"fusion_lat": 0.0, "name": "b0ab40f5553b7b923ff820bc5e3d070c", "is_disabled": 0, "rental_uris": {"android": "https://dc.lft.to/lastmile_qr_scan", "ios": "https://dc.lft.to/lastmile_qr_scan"}, "fusion_lon": 0.0, "lat": 38.926789666666664, "bike_id": "b0ab40f5553b7b923ff820bc5e3d070c", "type": "electric_scooter", "is_reserved": 0, "lon": -77.03098816666666}, {"fusion_lat": 0.0, "name": "a9fb8a5e2985130bcfe1190fb0ec368a", "is_disabled": 0, "rental_uris": {"android": "https://dc.lft.to/lastmile_qr_scan", "ios": "https://dc.lft.to/lastmile_qr_scan"}, "fusion_lon": 0.0, "lat": 38.879822833333336, "bike_id": "a9fb8a5e2985130bcfe1190fb0ec368a", "type": "electric_bike", "is_reserved": 0, "lon": -76.98431033333334}, {"fusion_lat": 0.0, "name": "0f14a8f1b86698d079476faa90478c8f", "is_disabled": 0, "rental_uris": {"android": "https://dc.lft.to/lastmile_qr_scan", "ios": "https://dc.lft.to/lastmile_qr_scan"}, "fusion_lon": 0.0, "lat": 38.93070266666667, "bike_id": "0f14a8f1b86698d079476faa90478c8f", "type": "electric_scooter", "is_reserved": 0, "lon": -77.02283683333333}, {"fusion_lat": 0.0, "name": "2ca3e144bc43f01eb29d57a4c5af045d", "is_disabled": 0, "rental_uris": {"android": "https://dc.lft.to/lastmile_qr_scan", "ios": "https://dc.lft.to/lastmile_qr_scan"}, "fusion_lon": 0.0, "lat": 38.89015666666667, "bike_id": "2ca3e144bc43f01eb29d57a4c5af045d", "type": "electric_scooter", "is_reserved": 0, "lon": -76.93738766666667}, {"fusion_lat": 0.0, "name": "cdbb3d81a7fbbffd2aa5763312ad0ff0", "is_disabled": 0, "rental_uris": {"android": "https://dc.lft.to/lastmile_qr_scan", "ios": "https://dc.lft.to/lastmile_qr_scan"}, "fusion_lon": 0.0, "lat": 38.921701666666664, "bike_id": "cdbb3d81a7fbbffd2aa5763312ad0ff0", "type": "electric_scooter", "is_reserved": 0, "lon": -77.04239616666666}, {"fusion_lat": 0.0, "name": "00228e62738e339d45baac486c97b9f7", "is_disabled": 0, "rental_uris": {"android": "https://dc.lft.to/lastmile_qr_scan", "ios": "https://dc.lft.to/lastmile_qr_scan"}, "fusion_lon": 0.0, "lat": 38.91557066666667, "bike_id": "00228e62738e339d45baac486c97b9f7", "type": "electric_scooter", "is_reserved": 0, "lon": -77.02047483333334}, {"fusion_lat": 0.0, "name": "21052e3ae07b529b89872ab9a6853366", "is_disabled": 0, "rental_uris": {"android": "https://dc.lft.to/lastmile_qr_scan", "ios": "https://dc.lft.to/lastmile_qr_scan"}, "fusion_lon": 0.0, "lat": 38.879413, "bike_id": "21052e3ae07b529b89872ab9a6853366", "type": "electric_scooter", "is_reserved": 0, "lon": -77.004186}, {"fusion_lat": 0.0, "name": "3a3ae550360598c1c904b8110f0ed80b", "is_disabled": 0, "rental_uris": {"android": "https://dc.lft.to/lastmile_qr_scan", "ios": "https://dc.lft.to/lastmile_qr_scan"}, "fusion_lon": 0.0, "lat": 38.931908166666666, "bike_id": "3a3ae550360598c1c904b8110f0ed80b", "type": "electric_scooter", "is_reserved": 0, "lon": -77.01963683333334}, {"fusion_lat": 0.0, "name": "94014361df90b018393c7536ea0159cb", "is_disabled": 0, "rental_uris": {"android": "https://dc.lft.to/lastmile_qr_scan", "ios": "https://dc.lft.to/lastmile_qr_scan"}, "fusion_lon": 0.0, "lat": 38.911242333333334, "bike_id": "94014361df90b018393c7536ea0159cb", "type": "electric_scooter", "is_reserved": 0, "lon": -77.021992}, {"fusion_lat": 0.0, "name": "a167e5fde23d6c3f2e819af2f5a5f801", "is_disabled": 0, "rental_uris": {"android": "https://dc.lft.to/lastmile_qr_scan", "ios": "https://dc.lft.to/lastmile_qr_scan"}, "fusion_lon": 0.0, "lat": 38.93122066666667, "bike_id": "a167e5fde23d6c3f2e819af2f5a5f801", "type": "electric_scooter", "is_reserved": 0, "lon": -77.02979283333333}, {"fusion_lat": 0.0, "name": "ef7b272461cd00c19b70aeba24e8d89a", "is_disabled": 0, "rental_uris": {"android": "https://dc.lft.to/lastmile_qr_scan", "ios": "https://dc.lft.to/lastmile_qr_scan"}, "fusion_lon": 0.0, "lat": 38.91323216666667, "bike_id": "ef7b272461cd00c19b70aeba24e8d89a", "type": "electric_scooter", "is_reserved": 0, "lon": -77.01499583333333}, {"fusion_lat": 0.0, "name": "91d1fe479d7c4fb4a86df16ca42c235f", "is_disabled": 0, "rental_uris": {"android": "https://dc.lft.to/lastmile_qr_scan", "ios": "https://dc.lft.to/lastmile_qr_scan"}, "fusion_lon": 0.0, "lat": 38.90103916666666, "bike_id": "91d1fe479d7c4fb4a86df16ca42c235f", "type": "electric_scooter", "is_reserved": 0, "lon": -77.02215683333333}, {"fusion_lat": 0.0, "name": "d69c695218df6ce39f6ba9b9441ce952", "is_disabled": 0, "rental_uris": {"android": "https://dc.lft.to/lastmile_qr_scan", "ios": "https://dc.lft.to/lastmile_qr_scan"}, "fusion_lon": 0.0, "lat": 38.8450645, "bike_id": "d69c695218df6ce39f6ba9b9441ce952", "type": "electric_bike", "is_reserved": 0, "lon": -76.99347233333333}, {"fusion_lat": 0.0, "name": "74a04db6c37c9dc7dfb34f5cb177291c", "is_disabled": 0, "rental_uris": {"android": "https://dc.lft.to/lastmile_qr_scan", "ios": "https://dc.lft.to/lastmile_qr_scan"}, "fusion_lon": 0.0, "lat": 38.94197833333333, "bike_id": "74a04db6c37c9dc7dfb34f5cb177291c", "type": "electric_scooter", "is_reserved": 0, "lon": -77.02591116666666}, {"fusion_lat": 0.0, "name": "f255b24272850c2b0255fd0c2c80d918", "is_disabled": 0, "rental_uris": {"android": "https://dc.lft.to/lastmile_qr_scan", "ios": "https://dc.lft.to/lastmile_qr_scan"}, "fusion_lon": 0.0, "lat": 38.95635216666667, "bike_id": "f255b24272850c2b0255fd0c2c80d918", "type": "electric_scooter", "is_reserved": 0, "lon": -77.03303816666667}, {"fusion_lat": 0.0, "name": "d7ae40f76140c4086c9353a0781a6095", "is_disabled": 0, "rental_uris": {"android": "https://dc.lft.to/lastmile_qr_scan", "ios": "https://dc.lft.to/lastmile_qr_scan"}, "fusion_lon": 0.0, "lat": 38.914146833333334, "bike_id": "d7ae40f76140c4086c9353a0781a6095", "type": "electric_scooter", "is_reserved": 0, "lon": -77.04079183333333}, {"fusion_lat": 0.0, "name": "f99abb64cf8885c64271c30490fc760b", "is_disabled": 0, "rental_uris": {"android": "https://dc.lft.to/lastmile_qr_scan", "ios": "https://dc.lft.to/lastmile_qr_scan"}, "fusion_lon": 0.0, "lat": 38.907299, "bike_id": "f99abb64cf8885c64271c30490fc760b", "type": "electric_scooter", "is_reserved": 0, "lon": -77.02802116666666}, {"fusion_lat": 0.0, "name": "30b6ca4f7a78a79d1949edd14e026fcc", "is_disabled": 0, "rental_uris": {"android": "https://dc.lft.to/lastmile_qr_scan", "ios": "https://dc.lft.to/lastmile_qr_scan"}, "fusion_lon": 0.0, "lat": 38.9096195, "bike_id": "30b6ca4f7a78a79d1949edd14e026fcc", "type": "electric_scooter", "is_reserved": 0, "lon": -77.04608133333333}, {"fusion_lat": 0.0, "name": "8f7715d9d9769a7493da0977e51357cd", "is_disabled": 0, "rental_uris": {"android": "https://dc.lft.to/lastmile_qr_scan", "ios": "https://dc.lft.to/lastmile_qr_scan"}, "fusion_lon": 0.0, "lat": 38.8956615, "bike_id": "8f7715d9d9769a7493da0977e51357cd", "type": "electric_bike", "is_reserved": 0, "lon": -77.12738666666667}, {"fusion_lat": 0.0, "name": "41403420e3117748c481ed429cfee01b", "is_disabled": 0, "rental_uris": {"android": "https://dc.lft.to/lastmile_qr_scan", "ios": "https://dc.lft.to/lastmile_qr_scan"}, "fusion_lon": 0.0, "lat": 38.922475166666665, "bike_id": "41403420e3117748c481ed429cfee01b", "type": "electric_scooter", "is_reserved": 0, "lon": -77.03085833333333}, {"fusion_lat": 0.0, "name": "281d99e0794c7c1b64860a1526f020cc", "is_disabled": 0, "rental_uris": {"android": "https://dc.lft.to/lastmile_qr_scan", "ios": "https://dc.lft.to/lastmile_qr_scan"}, "fusion_lon": 0.0, "lat": 38.930128, "bike_id": "281d99e0794c7c1b64860a1526f020cc", "type": "electric_bike", "is_reserved": 0, "lon": -77.01616016666667}, {"fusion_lat": 0.0, "name": "5d4fbda46d685a4e29bd7d7847eae3ad", "is_disabled": 0, "rental_uris": {"android": "https://dc.lft.to/lastmile_qr_scan", "ios": "https://dc.lft.to/lastmile_qr_scan"}, "fusion_lon": 0.0, "lat": 38.915029833333335, "bike_id": "5d4fbda46d685a4e29bd7d7847eae3ad", "type": "electric_scooter", "is_reserved": 0, "lon": -77.03274783333333}, {"fusion_lat": 0.0, "name": "3feffba3f7b4f80e965be52c8962334c", "is_disabled": 0, "rental_uris": {"android": "https://dc.lft.to/lastmile_qr_scan", "ios": "https://dc.lft.to/lastmile_qr_scan"}, "fusion_lon": 0.0, "lat": 38.905354833333334, "bike_id": "3feffba3f7b4f80e965be52c8962334c", "type": "electric_bike", "is_reserved": 0, "lon": -76.99808133333333}, {"fusion_lat": 0.0, "name": "0a1b61b2c9edfad6ec355569b34cc14e", "is_disabled": 0, "rental_uris": {"android": "https://dc.lft.to/lastmile_qr_scan", "ios": "https://dc.lft.to/lastmile_qr_scan"}, "fusion_lon": 0.0, "lat": 38.895274, "bike_id": "0a1b61b2c9edfad6ec355569b34cc14e", "type": "electric_scooter", "is_reserved": 0, "lon": -76.94892}, {"fusion_lat": 0.0, "name": "7ea211111b0accbb6cfd6baa73899b70", "is_disabled": 0, "rental_uris": {"android": "https://dc.lft.to/lastmile_qr_scan", "ios": "https://dc.lft.to/lastmile_qr_scan"}, "fusion_lon": 0.0, "lat": 38.908956, "bike_id": "7ea211111b0accbb6cfd6baa73899b70", "type": "electric_scooter", "is_reserved": 0, "lon": -77.04292883333333}, {"fusion_lat": 0.0, "name": "942748759f67e264ad8adef6132e2cfa", "is_disabled": 0, "rental_uris": {"android": "https://dc.lft.to/lastmile_qr_scan", "ios": "https://dc.lft.to/lastmile_qr_scan"}, "fusion_lon": 0.0, "lat": 38.9286645, "bike_id": "942748759f67e264ad8adef6132e2cfa", "type": "electric_scooter", "is_reserved": 0, "lon": -77.0340235}, {"fusion_lat": 0.0, "name": "32251d4c43660cd227698379fe1fa842", "is_disabled": 0, "rental_uris": {"android": "https://dc.lft.to/lastmile_qr_scan", "ios": "https://dc.lft.to/lastmile_qr_scan"}, "fusion_lon": 0.0, "lat": 38.934896333333334, "bike_id": "32251d4c43660cd227698379fe1fa842", "type": "electric_scooter", "is_reserved": 0, "lon": -77.0733365}, {"fusion_lat": 0.0, "name": "a600b85ee197e73bf4af7a1be1efb866", "is_disabled": 0, "rental_uris": {"android": "https://dc.lft.to/lastmile_qr_scan", "ios": "https://dc.lft.to/lastmile_qr_scan"}, "fusion_lon": 0.0, "lat": 38.93080366666667, "bike_id": "a600b85ee197e73bf4af7a1be1efb866", "type": "electric_scooter", "is_reserved": 0, "lon": -77.077638}, {"fusion_lat": 0.0, "name": "dddba2c4710ae7672d316470cd42eef7", "is_disabled": 0, "rental_uris": {"android": "https://dc.lft.to/lastmile_qr_scan", "ios": "https://dc.lft.to/lastmile_qr_scan"}, "fusion_lon": 0.0, "lat": 38.91322366666667, "bike_id": "dddba2c4710ae7672d316470cd42eef7", "type": "electric_scooter", "is_reserved": 0, "lon": -77.03169166666666}, {"fusion_lat": 0.0, "name": "80788434afc728c005402942bac2e4b5", "is_disabled": 0, "rental_uris": {"android": "https://dc.lft.to/lastmile_qr_scan", "ios": "https://dc.lft.to/lastmile_qr_scan"}, "fusion_lon": 0.0, "lat": 38.86023316666667, "bike_id": "80788434afc728c005402942bac2e4b5", "type": "electric_bike", "is_reserved": 0, "lon": -77.12806016666667}, {"fusion_lat": 0.0, "name": "bec52a88d9cfcaa0d5d0b161237342fc", "is_disabled": 0, "rental_uris": {"android": "https://dc.lft.to/lastmile_qr_scan", "ios": "https://dc.lft.to/lastmile_qr_scan"}, "fusion_lon": 0.0, "lat": 38.9237925, "bike_id": "bec52a88d9cfcaa0d5d0b161237342fc", "type": "electric_scooter", "is_reserved": 0, "lon": -77.031864}, {"fusion_lat": 0.0, "name": "67569ae12326d254bcc84c52af040ae2", "is_disabled": 0, "rental_uris": {"android": "https://dc.lft.to/lastmile_qr_scan", "ios": "https://dc.lft.to/lastmile_qr_scan"}, "fusion_lon": 0.0, "lat": 38.874593833333336, "bike_id": "67569ae12326d254bcc84c52af040ae2", "type": "electric_scooter", "is_reserved": 0, "lon": -77.0028625}, {"fusion_lat": 0.0, "name": "502d65e152347c33ecf04ba38578c316", "is_disabled": 0, "rental_uris": {"android": "https://dc.lft.to/lastmile_qr_scan", "ios": "https://dc.lft.to/lastmile_qr_scan"}, "fusion_lon": 0.0, "lat": 38.93262583333333, "bike_id": "502d65e152347c33ecf04ba38578c316", "type": "electric_scooter", "is_reserved": 0, "lon": -77.01920583333333}, {"fusion_lat": 0.0, "name": "8d36e61cbdd8f8b8c4c541d891bc1c11", "is_disabled": 0, "rental_uris": {"android": "https://dc.lft.to/lastmile_qr_scan", "ios": "https://dc.lft.to/lastmile_qr_scan"}, "fusion_lon": 0.0, "lat": 38.935961166666665, "bike_id": "8d36e61cbdd8f8b8c4c541d891bc1c11", "type": "electric_scooter", "is_reserved": 0, "lon": -77.0365585}, {"fusion_lat": 0.0, "name": "bb9fb604511b2bb152704ec86f1beee3", "is_disabled": 0, "rental_uris": {"android": "https://dc.lft.to/lastmile_qr_scan", "ios": "https://dc.lft.to/lastmile_qr_scan"}, "fusion_lon": 0.0, "lat": 38.90601066666667, "bike_id": "bb9fb604511b2bb152704ec86f1beee3", "type": "electric_scooter", "is_reserved": 0, "lon": -77.02606}, {"fusion_lat": 0.0, "name": "840c58c152a8b7afbef71dcd9af9676e", "is_disabled": 0, "rental_uris": {"android": "https://dc.lft.to/lastmile_qr_scan", "ios": "https://dc.lft.to/lastmile_qr_scan"}, "fusion_lon": 0.0, "lat": 38.940959166666666, "bike_id": "840c58c152a8b7afbef71dcd9af9676e", "type": "electric_scooter", "is_reserved": 0, "lon": -77.032794}, {"fusion_lat": 0.0, "name": "7be4ff9029f035523df9d72513a2e710", "is_disabled": 0, "rental_uris": {"android": "https://dc.lft.to/lastmile_qr_scan", "ios": "https://dc.lft.to/lastmile_qr_scan"}, "fusion_lon": 0.0, "lat": 38.92017233333333, "bike_id": "7be4ff9029f035523df9d72513a2e710", "type": "electric_scooter", "is_reserved": 0, "lon": -77.02503033333333}, {"fusion_lat": 0.0, "name": "e770aba07e801476aeb4e0a0b12ba414", "is_disabled": 0, "rental_uris": {"android": "https://dc.lft.to/lastmile_qr_scan", "ios": "https://dc.lft.to/lastmile_qr_scan"}, "fusion_lon": 0.0, "lat": 38.916839333333336, "bike_id": "e770aba07e801476aeb4e0a0b12ba414", "type": "electric_scooter", "is_reserved": 0, "lon": -77.01579616666666}, {"fusion_lat": 0.0, "name": "926deb50f2cb30ebd810e702af322d98", "is_disabled": 0, "rental_uris": {"android": "https://dc.lft.to/lastmile_qr_scan", "ios": "https://dc.lft.to/lastmile_qr_scan"}, "fusion_lon": 0.0, "lat": 38.930929166666665, "bike_id": "926deb50f2cb30ebd810e702af322d98", "type": "electric_scooter", "is_reserved": 0, "lon": -77.02002466666667}, {"fusion_lat": 0.0, "name": "088d7fc25a3647a602a0351121382b9d", "is_disabled": 0, "rental_uris": {"android": "https://dc.lft.to/lastmile_qr_scan", "ios": "https://dc.lft.to/lastmile_qr_scan"}, "fusion_lon": 0.0, "lat": 38.95756633333333, "bike_id": "088d7fc25a3647a602a0351121382b9d", "type": "electric_bike", "is_reserved": 0, "lon": -77.02054516666666}, {"fusion_lat": 0.0, "name": "30ed9bafa969ea0cf0e3797106763b47", "is_disabled": 0, "rental_uris": {"android": "https://dc.lft.to/lastmile_qr_scan", "ios": "https://dc.lft.to/lastmile_qr_scan"}, "fusion_lon": 0.0, "lat": 38.90154, "bike_id": "30ed9bafa969ea0cf0e3797106763b47", "type": "electric_scooter", "is_reserved": 0, "lon": -76.93066316666666}, {"fusion_lat": 0.0, "name": "2554e9c8f23b76f88fcf77caf168da68", "is_disabled": 0, "rental_uris": {"android": "https://dc.lft.to/lastmile_qr_scan", "ios": "https://dc.lft.to/lastmile_qr_scan"}, "fusion_lon": 0.0, "lat": 38.9223415, "bike_id": "2554e9c8f23b76f88fcf77caf168da68", "type": "electric_scooter", "is_reserved": 0, "lon": -77.042403}, {"fusion_lat": 0.0, "name": "0a9a6e12850081f297275d100bc94e52", "is_disabled": 0, "rental_uris": {"android": "https://dc.lft.to/lastmile_qr_scan", "ios": "https://dc.lft.to/lastmile_qr_scan"}, "fusion_lon": 0.0, "lat": 38.906809833333334, "bike_id": "0a9a6e12850081f297275d100bc94e52", "type": "electric_bike", "is_reserved": 0, "lon": -76.94492333333334}, {"fusion_lat": 0.0, "name": "e47a9553ba5c6f26b265d95d50b7b669", "is_disabled": 0, "rental_uris": {"android": "https://dc.lft.to/lastmile_qr_scan", "ios": "https://dc.lft.to/lastmile_qr_scan"}, "fusion_lon": 0.0, "lat": 38.961253166666665, "bike_id": "e47a9553ba5c6f26b265d95d50b7b669", "type": "electric_bike", "is_reserved": 0, "lon": -77.03270033333334}, {"fusion_lat": 0.0, "name": "8dc10e2f4349772a46a28e99fb3c3645", "is_disabled": 0, "rental_uris": {"android": "https://dc.lft.to/lastmile_qr_scan", "ios": "https://dc.lft.to/lastmile_qr_scan"}, "fusion_lon": 0.0, "lat": 38.927391166666666, "bike_id": "8dc10e2f4349772a46a28e99fb3c3645", "type": "electric_bike", "is_reserved": 0, "lon": -76.99363266666667}, {"fusion_lat": 0.0, "name": "6b10fc11f3c1c68137e394158b9cd1e6", "is_disabled": 0, "rental_uris": {"android": "https://dc.lft.to/lastmile_qr_scan", "ios": "https://dc.lft.to/lastmile_qr_scan"}, "fusion_lon": 0.0, "lat": 38.9231385, "bike_id": "6b10fc11f3c1c68137e394158b9cd1e6", "type": "electric_scooter", "is_reserved": 0, "lon": -77.04130866666667}, {"fusion_lat": 0.0, "name": "43412f70b3da67f12c5f4c4f97e1e39e", "is_disabled": 0, "rental_uris": {"android": "https://dc.lft.to/lastmile_qr_scan", "ios": "https://dc.lft.to/lastmile_qr_scan"}, "fusion_lon": 0.0, "lat": 38.913352, "bike_id": "43412f70b3da67f12c5f4c4f97e1e39e", "type": "electric_scooter", "is_reserved": 0, "lon": -77.042742}, {"fusion_lat": 0.0, "name": "076682a2bfbae11fb483f2fa663ee3fa", "is_disabled": 0, "rental_uris": {"android": "https://dc.lft.to/lastmile_qr_scan", "ios": "https://dc.lft.to/lastmile_qr_scan"}, "fusion_lon": 0.0, "lat": 38.928100666666666, "bike_id": "076682a2bfbae11fb483f2fa663ee3fa", "type": "electric_scooter", "is_reserved": 0, "lon": -77.04356966666667}, {"fusion_lat": 0.0, "name": "c5548cd0eae3e0f5d77c40aa3c9cb974", "is_disabled": 0, "rental_uris": {"android": "https://dc.lft.to/lastmile_qr_scan", "ios": "https://dc.lft.to/lastmile_qr_scan"}, "fusion_lon": 0.0, "lat": 38.908479666666665, "bike_id": "c5548cd0eae3e0f5d77c40aa3c9cb974", "type": "electric_scooter", "is_reserved": 0, "lon": -76.99768683333333}, {"fusion_lat": 0.0, "name": "ee694adb4f83e9780fef0eb690296ef2", "is_disabled": 0, "rental_uris": {"android": "https://dc.lft.to/lastmile_qr_scan", "ios": "https://dc.lft.to/lastmile_qr_scan"}, "fusion_lon": 0.0, "lat": 38.920756, "bike_id": "ee694adb4f83e9780fef0eb690296ef2", "type": "electric_bike", "is_reserved": 0, "lon": -76.98946633333334}, {"fusion_lat": 0.0, "name": "327d210eb46a1e99c10121db49c9372a", "is_disabled": 0, "rental_uris": {"android": "https://dc.lft.to/lastmile_qr_scan", "ios": "https://dc.lft.to/lastmile_qr_scan"}, "fusion_lon": 0.0, "lat": 38.887336, "bike_id": "327d210eb46a1e99c10121db49c9372a", "type": "electric_scooter", "is_reserved": 0, "lon": -77.03174983333334}, {"fusion_lat": 0.0, "name": "6ec6c88391fbe151c8c92b99c3d9dfd4", "is_disabled": 0, "rental_uris": {"android": "https://dc.lft.to/lastmile_qr_scan", "ios": "https://dc.lft.to/lastmile_qr_scan"}, "fusion_lon": 0.0, "lat": 38.91808733333333, "bike_id": "6ec6c88391fbe151c8c92b99c3d9dfd4", "type": "electric_scooter", "is_reserved": 0, "lon": -77.036881}, {"fusion_lat": 0.0, "name": "8e57df32d33cce05a553830e258fade4", "is_disabled": 0, "rental_uris": {"android": "https://dc.lft.to/lastmile_qr_scan", "ios": "https://dc.lft.to/lastmile_qr_scan"}, "fusion_lon": 0.0, "lat": 38.903876, "bike_id": "8e57df32d33cce05a553830e258fade4", "type": "electric_scooter", "is_reserved": 0, "lon": -77.03824683333333}, {"fusion_lat": 0.0, "name": "da7f76bcb9c6205accb6371572a15e03", "is_disabled": 0, "rental_uris": {"android": "https://dc.lft.to/lastmile_qr_scan", "ios": "https://dc.lft.to/lastmile_qr_scan"}, "fusion_lon": 0.0, "lat": 38.8874275, "bike_id": "da7f76bcb9c6205accb6371572a15e03", "type": "electric_scooter", "is_reserved": 0, "lon": -77.0031855}, {"fusion_lat": 0.0, "name": "897f71c0254200a4f538d8fa6495dcff", "is_disabled": 0, "rental_uris": {"android": "https://dc.lft.to/lastmile_qr_scan", "ios": "https://dc.lft.to/lastmile_qr_scan"}, "fusion_lon": 0.0, "lat": 38.907397833333334, "bike_id": "897f71c0254200a4f538d8fa6495dcff", "type": "electric_scooter", "is_reserved": 0, "lon": -77.02967166666667}, {"fusion_lat": 0.0, "name": "cde9cf42964ed3fddec946a1da628957", "is_disabled": 0, "rental_uris": {"android": "https://dc.lft.to/lastmile_qr_scan", "ios": "https://dc.lft.to/lastmile_qr_scan"}, "fusion_lon": 0.0, "lat": 38.92435566666666, "bike_id": "cde9cf42964ed3fddec946a1da628957", "type": "electric_scooter", "is_reserved": 0, "lon": -77.0006825}, {"fusion_lat": 0.0, "name": "553aba1ce4212ac19ff1262285df8cc8", "is_disabled": 0, "rental_uris": {"android": "https://dc.lft.to/lastmile_qr_scan", "ios": "https://dc.lft.to/lastmile_qr_scan"}, "fusion_lon": 0.0, "lat": 38.94228666666667, "bike_id": "553aba1ce4212ac19ff1262285df8cc8", "type": "electric_scooter", "is_reserved": 0, "lon": -77.0138565}, {"fusion_lat": 0.0, "name": "49da765fdb41d52e88084faad8393159", "is_disabled": 0, "rental_uris": {"android": "https://dc.lft.to/lastmile_qr_scan", "ios": "https://dc.lft.to/lastmile_qr_scan"}, "fusion_lon": 0.0, "lat": 38.903006, "bike_id": "49da765fdb41d52e88084faad8393159", "type": "electric_scooter", "is_reserved": 0, "lon": -77.03953216666666}, {"fusion_lat": 0.0, "name": "e2ba488cace90fdc0c25aba9f6e71d1f", "is_disabled": 0, "rental_uris": {"android": "https://dc.lft.to/lastmile_qr_scan", "ios": "https://dc.lft.to/lastmile_qr_scan"}, "fusion_lon": 0.0, "lat": 38.94464583333333, "bike_id": "e2ba488cace90fdc0c25aba9f6e71d1f", "type": "electric_scooter", "is_reserved": 0, "lon": -77.00659633333333}, {"fusion_lat": 0.0, "name": "77ae4886cbe7a886dd9379082a5457bc", "is_disabled": 0, "rental_uris": {"android": "https://dc.lft.to/lastmile_qr_scan", "ios": "https://dc.lft.to/lastmile_qr_scan"}, "fusion_lon": 0.0, "lat": 38.887258833333334, "bike_id": "77ae4886cbe7a886dd9379082a5457bc", "type": "electric_scooter", "is_reserved": 0, "lon": -76.98358483333334}, {"fusion_lat": 0.0, "name": "1f1b66fffb2e4abb247c0c425d2d16cb", "is_disabled": 0, "rental_uris": {"android": "https://dc.lft.to/lastmile_qr_scan", "ios": "https://dc.lft.to/lastmile_qr_scan"}, "fusion_lon": 0.0, "lat": 38.899638833333334, "bike_id": "1f1b66fffb2e4abb247c0c425d2d16cb", "type": "electric_scooter", "is_reserved": 0, "lon": -76.98714983333333}, {"fusion_lat": 0.0, "name": "b9f4828f39799c7d641021ca47834a63", "is_disabled": 0, "rental_uris": {"android": "https://dc.lft.to/lastmile_qr_scan", "ios": "https://dc.lft.to/lastmile_qr_scan"}, "fusion_lon": 0.0, "lat": 38.90029533333333, "bike_id": "b9f4828f39799c7d641021ca47834a63", "type": "electric_scooter", "is_reserved": 0, "lon": -77.01194433333333}, {"fusion_lat": 0.0, "name": "ec28180ecbfd0bb98465fea5d520e8ff", "is_disabled": 0, "rental_uris": {"android": "https://dc.lft.to/lastmile_qr_scan", "ios": "https://dc.lft.to/lastmile_qr_scan"}, "fusion_lon": 0.0, "lat": 38.90734, "bike_id": "ec28180ecbfd0bb98465fea5d520e8ff", "type": "electric_scooter", "is_reserved": 0, "lon": -77.034504}, {"fusion_lat": 0.0, "name": "a98d9326d624a1d0b16e7e60a1d224c2", "is_disabled": 0, "rental_uris": {"android": "https://dc.lft.to/lastmile_qr_scan", "ios": "https://dc.lft.to/lastmile_qr_scan"}, "fusion_lon": 0.0, "lat": 38.89234533333333, "bike_id": "a98d9326d624a1d0b16e7e60a1d224c2", "type": "electric_scooter", "is_reserved": 0, "lon": -77.04655283333334}, {"fusion_lat": 0.0, "name": "e059cdfe82dab275ef51c70d0ae76178", "is_disabled": 0, "rental_uris": {"android": "https://dc.lft.to/lastmile_qr_scan", "ios": "https://dc.lft.to/lastmile_qr_scan"}, "fusion_lon": 0.0, "lat": 38.922201333333334, "bike_id": "e059cdfe82dab275ef51c70d0ae76178", "type": "electric_scooter", "is_reserved": 0, "lon": -76.996363}, {"fusion_lat": 0.0, "name": "0d8b636e59dbc5c84e800f1a367081b4", "is_disabled": 0, "rental_uris": {"android": "https://dc.lft.to/lastmile_qr_scan", "ios": "https://dc.lft.to/lastmile_qr_scan"}, "fusion_lon": 0.0, "lat": 38.927531333333334, "bike_id": "0d8b636e59dbc5c84e800f1a367081b4", "type": "electric_scooter", "is_reserved": 0, "lon": -77.02446816666667}, {"fusion_lat": 0.0, "name": "80703a57b95bd278ea19c2cfe6d9ef55", "is_disabled": 0, "rental_uris": {"android": "https://dc.lft.to/lastmile_qr_scan", "ios": "https://dc.lft.to/lastmile_qr_scan"}, "fusion_lon": 0.0, "lat": 38.842807, "bike_id": "80703a57b95bd278ea19c2cfe6d9ef55", "type": "electric_bike", "is_reserved": 0, "lon": -77.045051}, {"fusion_lat": 0.0, "name": "dc473222504d61a8691dadb93fb85438", "is_disabled": 0, "rental_uris": {"android": "https://dc.lft.to/lastmile_qr_scan", "ios": "https://dc.lft.to/lastmile_qr_scan"}, "fusion_lon": 0.0, "lat": 38.9080705, "bike_id": "dc473222504d61a8691dadb93fb85438", "type": "electric_scooter", "is_reserved": 0, "lon": -77.04291166666667}, {"fusion_lat": 0.0, "name": "cb19c84042497f3715ab39301744481a", "is_disabled": 0, "rental_uris": {"android": "https://dc.lft.to/lastmile_qr_scan", "ios": "https://dc.lft.to/lastmile_qr_scan"}, "fusion_lon": 0.0, "lat": 38.903316833333335, "bike_id": "cb19c84042497f3715ab39301744481a", "type": "electric_bike", "is_reserved": 0, "lon": -76.97530066666667}, {"fusion_lat": 0.0, "name": "4143797c36cdf3c24d3b20a5c09c9d83", "is_disabled": 0, "rental_uris": {"android": "https://dc.lft.to/lastmile_qr_scan", "ios": "https://dc.lft.to/lastmile_qr_scan"}, "fusion_lon": 0.0, "lat": 38.90450516666667, "bike_id": "4143797c36cdf3c24d3b20a5c09c9d83", "type": "electric_scooter", "is_reserved": 0, "lon": -77.02000733333334}, {"fusion_lat": 0.0, "name": "acc94f29cde1f5fdbcb275ba5ea00698", "is_disabled": 0, "rental_uris": {"android": "https://dc.lft.to/lastmile_qr_scan", "ios": "https://dc.lft.to/lastmile_qr_scan"}, "fusion_lon": 0.0, "lat": 38.935838833333335, "bike_id": "acc94f29cde1f5fdbcb275ba5ea00698", "type": "electric_scooter", "is_reserved": 0, "lon": -77.0284185}, {"fusion_lat": 0.0, "name": "fdc4998a42274635553a1bf3a19e0a64", "is_disabled": 0, "rental_uris": {"android": "https://dc.lft.to/lastmile_qr_scan", "ios": "https://dc.lft.to/lastmile_qr_scan"}, "fusion_lon": 0.0, "lat": 38.93639566666667, "bike_id": "fdc4998a42274635553a1bf3a19e0a64", "type": "electric_scooter", "is_reserved": 0, "lon": -77.03672233333333}, {"fusion_lat": 0.0, "name": "9273d0248752e90e0a20d9d4031dc658", "is_disabled": 0, "rental_uris": {"android": "https://dc.lft.to/lastmile_qr_scan", "ios": "https://dc.lft.to/lastmile_qr_scan"}, "fusion_lon": 0.0, "lat": 38.856904666666665, "bike_id": "9273d0248752e90e0a20d9d4031dc658", "type": "electric_bike", "is_reserved": 0, "lon": -77.053589}, {"fusion_lat": 0.0, "name": "e95db1865d7d2f0a3fa54a382c6c9899", "is_disabled": 0, "rental_uris": {"android": "https://dc.lft.to/lastmile_qr_scan", "ios": "https://dc.lft.to/lastmile_qr_scan"}, "fusion_lon": 0.0, "lat": 38.92814033333333, "bike_id": "e95db1865d7d2f0a3fa54a382c6c9899", "type": "electric_scooter", "is_reserved": 0, "lon": -77.02329683333333}, {"fusion_lat": 0.0, "name": "2b09824a9f853206c90e555e7265f972", "is_disabled": 0, "rental_uris": {"android": "https://dc.lft.to/lastmile_qr_scan", "ios": "https://dc.lft.to/lastmile_qr_scan"}, "fusion_lon": 0.0, "lat": 38.876692, "bike_id": "2b09824a9f853206c90e555e7265f972", "type": "electric_scooter", "is_reserved": 0, "lon": -77.01758616666666}, {"fusion_lat": 0.0, "name": "1dbc11681314e9204b348847d0525c8f", "is_disabled": 0, "rental_uris": {"android": "https://dc.lft.to/lastmile_qr_scan", "ios": "https://dc.lft.to/lastmile_qr_scan"}, "fusion_lon": 0.0, "lat": 38.898702666666665, "bike_id": "1dbc11681314e9204b348847d0525c8f", "type": "electric_bike", "is_reserved": 0, "lon": -77.113369}, {"fusion_lat": 0.0, "name": "ae6b66f5f1baeb650d71fc0c5e6f1cf7", "is_disabled": 0, "rental_uris": {"android": "https://dc.lft.to/lastmile_qr_scan", "ios": "https://dc.lft.to/lastmile_qr_scan"}, "fusion_lon": 0.0, "lat": 38.92380033333333, "bike_id": "ae6b66f5f1baeb650d71fc0c5e6f1cf7", "type": "electric_scooter", "is_reserved": 0, "lon": -77.041112}, {"fusion_lat": 0.0, "name": "de5aaa3767e1b3ccfcf162998d3903bd", "is_disabled": 0, "rental_uris": {"android": "https://dc.lft.to/lastmile_qr_scan", "ios": "https://dc.lft.to/lastmile_qr_scan"}, "fusion_lon": 0.0, "lat": 38.873742166666666, "bike_id": "de5aaa3767e1b3ccfcf162998d3903bd", "type": "electric_bike", "is_reserved": 0, "lon": -77.11798666666667}, {"fusion_lat": 0.0, "name": "7e1dd0c4598aff28449402b3ae8c9087", "is_disabled": 0, "rental_uris": {"android": "https://dc.lft.to/lastmile_qr_scan", "ios": "https://dc.lft.to/lastmile_qr_scan"}, "fusion_lon": 0.0, "lat": 39.01415933333333, "bike_id": "7e1dd0c4598aff28449402b3ae8c9087", "type": "electric_bike", "is_reserved": 0, "lon": -77.04498616666666}, {"fusion_lat": 0.0, "name": "c960bc661eac9374a6b4677eb3b229a6", "is_disabled": 0, "rental_uris": {"android": "https://dc.lft.to/lastmile_qr_scan", "ios": "https://dc.lft.to/lastmile_qr_scan"}, "fusion_lon": 0.0, "lat": 38.911089, "bike_id": "c960bc661eac9374a6b4677eb3b229a6", "type": "electric_scooter", "is_reserved": 0, "lon": -77.02096683333333}, {"fusion_lat": 0.0, "name": "c78cc3e7652cba8edd7143d8fcb32bb6", "is_disabled": 0, "rental_uris": {"android": "https://dc.lft.to/lastmile_qr_scan", "ios": "https://dc.lft.to/lastmile_qr_scan"}, "fusion_lon": 0.0, "lat": 38.88210183333333, "bike_id": "c78cc3e7652cba8edd7143d8fcb32bb6", "type": "electric_bike", "is_reserved": 0, "lon": -76.9927135}, {"fusion_lat": 0.0, "name": "2503a80696df8c486ca10d4e4852e015", "is_disabled": 0, "rental_uris": {"android": "https://dc.lft.to/lastmile_qr_scan", "ios": "https://dc.lft.to/lastmile_qr_scan"}, "fusion_lon": 0.0, "lat": 38.8956125, "bike_id": "2503a80696df8c486ca10d4e4852e015", "type": "electric_scooter", "is_reserved": 0, "lon": -76.99427083333333}, {"fusion_lat": 0.0, "name": "41c1cfe2ab78631bacb52df733eb77bd", "is_disabled": 0, "rental_uris": {"android": "https://dc.lft.to/lastmile_qr_scan", "ios": "https://dc.lft.to/lastmile_qr_scan"}, "fusion_lon": 0.0, "lat": 38.935102666666666, "bike_id": "41c1cfe2ab78631bacb52df733eb77bd", "type": "electric_scooter", "is_reserved": 0, "lon": -77.03290316666667}, {"fusion_lat": 0.0, "name": "daf62895914bf2112ff5678a420798c5", "is_disabled": 0, "rental_uris": {"android": "https://dc.lft.to/lastmile_qr_scan", "ios": "https://dc.lft.to/lastmile_qr_scan"}, "fusion_lon": 0.0, "lat": 38.9218215, "bike_id": "daf62895914bf2112ff5678a420798c5", "type": "electric_scooter", "is_reserved": 0, "lon": -77.026664}, {"fusion_lat": 0.0, "name": "89007c2dd00453000486014dc7877275", "is_disabled": 0, "rental_uris": {"android": "https://dc.lft.to/lastmile_qr_scan", "ios": "https://dc.lft.to/lastmile_qr_scan"}, "fusion_lon": 0.0, "lat": 38.895806, "bike_id": "89007c2dd00453000486014dc7877275", "type": "electric_scooter", "is_reserved": 0, "lon": -77.03170716666666}, {"fusion_lat": 0.0, "name": "c2f0fdbcbaa4c3922917badb63fff4d1", "is_disabled": 0, "rental_uris": {"android": "https://dc.lft.to/lastmile_qr_scan", "ios": "https://dc.lft.to/lastmile_qr_scan"}, "fusion_lon": 0.0, "lat": 38.907311, "bike_id": "c2f0fdbcbaa4c3922917badb63fff4d1", "type": "electric_scooter", "is_reserved": 0, "lon": -77.02954066666666}, {"fusion_lat": 0.0, "name": "4f48b7aeb23025b52462e2333292bd8c", "is_disabled": 0, "rental_uris": {"android": "https://dc.lft.to/lastmile_qr_scan", "ios": "https://dc.lft.to/lastmile_qr_scan"}, "fusion_lon": 0.0, "lat": 38.90971616666667, "bike_id": "4f48b7aeb23025b52462e2333292bd8c", "type": "electric_scooter", "is_reserved": 0, "lon": -77.02160383333333}, {"fusion_lat": 0.0, "name": "519ec568f8a12b3f83fc69015d672dcd", "is_disabled": 0, "rental_uris": {"android": "https://dc.lft.to/lastmile_qr_scan", "ios": "https://dc.lft.to/lastmile_qr_scan"}, "fusion_lon": 0.0, "lat": 38.900120666666666, "bike_id": "519ec568f8a12b3f83fc69015d672dcd", "type": "electric_scooter", "is_reserved": 0, "lon": -77.02400466666667}, {"fusion_lat": 0.0, "name": "711fcfbd7f9f8039782109998a2baa73", "is_disabled": 0, "rental_uris": {"android": "https://dc.lft.to/lastmile_qr_scan", "ios": "https://dc.lft.to/lastmile_qr_scan"}, "fusion_lon": 0.0, "lat": 38.89954316666667, "bike_id": "711fcfbd7f9f8039782109998a2baa73", "type": "electric_scooter", "is_reserved": 0, "lon": -76.98570716666667}, {"fusion_lat": 0.0, "name": "805e27549e015fbebc6ee8d463097fc4", "is_disabled": 0, "rental_uris": {"android": "https://dc.lft.to/lastmile_qr_scan", "ios": "https://dc.lft.to/lastmile_qr_scan"}, "fusion_lon": 0.0, "lat": 38.887992833333335, "bike_id": "805e27549e015fbebc6ee8d463097fc4", "type": "electric_bike", "is_reserved": 0, "lon": -76.9299665}, {"fusion_lat": 0.0, "name": "ab797c7aa1721e123b16c7fcb580981e", "is_disabled": 0, "rental_uris": {"android": "https://dc.lft.to/lastmile_qr_scan", "ios": "https://dc.lft.to/lastmile_qr_scan"}, "fusion_lon": 0.0, "lat": 38.929865, "bike_id": "ab797c7aa1721e123b16c7fcb580981e", "type": "electric_scooter", "is_reserved": 0, "lon": -77.03472033333334}, {"fusion_lat": 0.0, "name": "9e7abac9830b4e9b5e7d9096b469bd81", "is_disabled": 0, "rental_uris": {"android": "https://dc.lft.to/lastmile_qr_scan", "ios": "https://dc.lft.to/lastmile_qr_scan"}, "fusion_lon": 0.0, "lat": 38.907943833333334, "bike_id": "9e7abac9830b4e9b5e7d9096b469bd81", "type": "electric_scooter", "is_reserved": 0, "lon": -77.0435255}, {"fusion_lat": 0.0, "name": "7bd3d58885854c588fe5b22d8db1de10", "is_disabled": 0, "rental_uris": {"android": "https://dc.lft.to/lastmile_qr_scan", "ios": "https://dc.lft.to/lastmile_qr_scan"}, "fusion_lon": 0.0, "lat": 38.921187, "bike_id": "7bd3d58885854c588fe5b22d8db1de10", "type": "electric_scooter", "is_reserved": 0, "lon": -77.04445133333333}, {"fusion_lat": 0.0, "name": "54a289cfa329c49657f1dd4fbe395e61", "is_disabled": 0, "rental_uris": {"android": "https://dc.lft.to/lastmile_qr_scan", "ios": "https://dc.lft.to/lastmile_qr_scan"}, "fusion_lon": 0.0, "lat": 38.93204333333333, "bike_id": "54a289cfa329c49657f1dd4fbe395e61", "type": "electric_scooter", "is_reserved": 0, "lon": -77.0366935}, {"fusion_lat": 0.0, "name": "ff7c080ac3a32995c5451a4a5c8bc9a8", "is_disabled": 0, "rental_uris": {"android": "https://dc.lft.to/lastmile_qr_scan", "ios": "https://dc.lft.to/lastmile_qr_scan"}, "fusion_lon": 0.0, "lat": 38.85422483333333, "bike_id": "ff7c080ac3a32995c5451a4a5c8bc9a8", "type": "electric_bike", "is_reserved": 0, "lon": -77.1207815}, {"fusion_lat": 0.0, "name": "9767a4eaa7cfede025bf36ef7ea4a90a", "is_disabled": 0, "rental_uris": {"android": "https://dc.lft.to/lastmile_qr_scan", "ios": "https://dc.lft.to/lastmile_qr_scan"}, "fusion_lon": 0.0, "lat": 38.883011333333336, "bike_id": "9767a4eaa7cfede025bf36ef7ea4a90a", "type": "electric_scooter", "is_reserved": 0, "lon": -76.94855066666666}, {"fusion_lat": 0.0, "name": "f7fed9540d467098e88a3d52855644c6", "is_disabled": 0, "rental_uris": {"android": "https://dc.lft.to/lastmile_qr_scan", "ios": "https://dc.lft.to/lastmile_qr_scan"}, "fusion_lon": 0.0, "lat": 38.807539, "bike_id": "f7fed9540d467098e88a3d52855644c6", "type": "electric_bike", "is_reserved": 0, "lon": -77.09452333333333}, {"fusion_lat": 0.0, "name": "5c8b4158187354524f2d5f1d0a440d22", "is_disabled": 0, "rental_uris": {"android": "https://dc.lft.to/lastmile_qr_scan", "ios": "https://dc.lft.to/lastmile_qr_scan"}, "fusion_lon": 0.0, "lat": 38.8865045, "bike_id": "5c8b4158187354524f2d5f1d0a440d22", "type": "electric_scooter", "is_reserved": 0, "lon": -77.0199165}, {"fusion_lat": 0.0, "name": "8e4c64e2de0afae5906743b35c4d9a7e", "is_disabled": 0, "rental_uris": {"android": "https://dc.lft.to/lastmile_qr_scan", "ios": "https://dc.lft.to/lastmile_qr_scan"}, "fusion_lon": 0.0, "lat": 38.9055605, "bike_id": "8e4c64e2de0afae5906743b35c4d9a7e", "type": "electric_scooter", "is_reserved": 0, "lon": -77.00558366666667}, {"fusion_lat": 0.0, "name": "1161158d51edd9be1fb127e6e8077057", "is_disabled": 0, "rental_uris": {"android": "https://dc.lft.to/lastmile_qr_scan", "ios": "https://dc.lft.to/lastmile_qr_scan"}, "fusion_lon": 0.0, "lat": 38.9061835, "bike_id": "1161158d51edd9be1fb127e6e8077057", "type": "electric_scooter", "is_reserved": 0, "lon": -77.04129333333333}, {"fusion_lat": 0.0, "name": "380189e75127c63be4a87b065bbff19f", "is_disabled": 0, "rental_uris": {"android": "https://dc.lft.to/lastmile_qr_scan", "ios": "https://dc.lft.to/lastmile_qr_scan"}, "fusion_lon": 0.0, "lat": 38.931493833333334, "bike_id": "380189e75127c63be4a87b065bbff19f", "type": "electric_scooter", "is_reserved": 0, "lon": -77.0395525}, {"fusion_lat": 0.0, "name": "43c7180ebbf8482648de39bea1359789", "is_disabled": 0, "rental_uris": {"android": "https://dc.lft.to/lastmile_qr_scan", "ios": "https://dc.lft.to/lastmile_qr_scan"}, "fusion_lon": 0.0, "lat": 38.9268785, "bike_id": "43c7180ebbf8482648de39bea1359789", "type": "electric_scooter", "is_reserved": 0, "lon": -77.02529916666667}, {"fusion_lat": 0.0, "name": "b20ed891b021cdaedff6e1ed7c4d0e21", "is_disabled": 0, "rental_uris": {"android": "https://dc.lft.to/lastmile_qr_scan", "ios": "https://dc.lft.to/lastmile_qr_scan"}, "fusion_lon": 0.0, "lat": 38.940774833333336, "bike_id": "b20ed891b021cdaedff6e1ed7c4d0e21", "type": "electric_scooter", "is_reserved": 0, "lon": -77.05216183333333}, {"fusion_lat": 0.0, "name": "829eec6ae442d8bd01f470ebe187fe74", "is_disabled": 0, "rental_uris": {"android": "https://dc.lft.to/lastmile_qr_scan", "ios": "https://dc.lft.to/lastmile_qr_scan"}, "fusion_lon": 0.0, "lat": 38.91994716666667, "bike_id": "829eec6ae442d8bd01f470ebe187fe74", "type": "electric_scooter", "is_reserved": 0, "lon": -77.07187466666667}, {"fusion_lat": 0.0, "name": "ebc1da406a8617b148bba1a3f614291b", "is_disabled": 0, "rental_uris": {"android": "https://dc.lft.to/lastmile_qr_scan", "ios": "https://dc.lft.to/lastmile_qr_scan"}, "fusion_lon": 0.0, "lat": 38.8836665, "bike_id": "ebc1da406a8617b148bba1a3f614291b", "type": "electric_scooter", "is_reserved": 0, "lon": -77.01979133333333}, {"fusion_lat": 0.0, "name": "f90d9175c5239f01543f3e060119a52b", "is_disabled": 0, "rental_uris": {"android": "https://dc.lft.to/lastmile_qr_scan", "ios": "https://dc.lft.to/lastmile_qr_scan"}, "fusion_lon": 0.0, "lat": 38.90016633333333, "bike_id": "f90d9175c5239f01543f3e060119a52b", "type": "electric_scooter", "is_reserved": 0, "lon": -77.02391133333333}, {"fusion_lat": 0.0, "name": "ed65987118aa0edbecda3c0de2441dfe", "is_disabled": 0, "rental_uris": {"android": "https://dc.lft.to/lastmile_qr_scan", "ios": "https://dc.lft.to/lastmile_qr_scan"}, "fusion_lon": 0.0, "lat": 38.987853666666666, "bike_id": "ed65987118aa0edbecda3c0de2441dfe", "type": "electric_bike", "is_reserved": 0, "lon": -77.140996}, {"fusion_lat": 0.0, "name": "e72b95521f75fe4f94ec9f1a17ea1d25", "is_disabled": 0, "rental_uris": {"android": "https://dc.lft.to/lastmile_qr_scan", "ios": "https://dc.lft.to/lastmile_qr_scan"}, "fusion_lon": 0.0, "lat": 38.941547, "bike_id": "e72b95521f75fe4f94ec9f1a17ea1d25", "type": "electric_bike", "is_reserved": 0, "lon": -77.0019035}, {"fusion_lat": 0.0, "name": "c0229e0b7165942d58544512f073b4f6", "is_disabled": 0, "rental_uris": {"android": "https://dc.lft.to/lastmile_qr_scan", "ios": "https://dc.lft.to/lastmile_qr_scan"}, "fusion_lon": 0.0, "lat": 38.873683, "bike_id": "c0229e0b7165942d58544512f073b4f6", "type": "electric_scooter", "is_reserved": 0, "lon": -77.00115633333333}, {"fusion_lat": 0.0, "name": "6a56250142dabb52bdada993886fbaaa", "is_disabled": 0, "rental_uris": {"android": "https://dc.lft.to/lastmile_qr_scan", "ios": "https://dc.lft.to/lastmile_qr_scan"}, "fusion_lon": 0.0, "lat": 38.9087095, "bike_id": "6a56250142dabb52bdada993886fbaaa", "type": "electric_scooter", "is_reserved": 0, "lon": -77.023832}, {"fusion_lat": 0.0, "name": "c98654525f2b2b8ecb7564d57930b4a4", "is_disabled": 0, "rental_uris": {"android": "https://dc.lft.to/lastmile_qr_scan", "ios": "https://dc.lft.to/lastmile_qr_scan"}, "fusion_lon": 0.0, "lat": 38.904404, "bike_id": "c98654525f2b2b8ecb7564d57930b4a4", "type": "electric_scooter", "is_reserved": 0, "lon": -77.0586835}, {"fusion_lat": 0.0, "name": "bc5c7d383743b0b3db92e3cf599d302b", "is_disabled": 0, "rental_uris": {"android": "https://dc.lft.to/lastmile_qr_scan", "ios": "https://dc.lft.to/lastmile_qr_scan"}, "fusion_lon": 0.0, "lat": 38.941651, "bike_id": "bc5c7d383743b0b3db92e3cf599d302b", "type": "electric_bike", "is_reserved": 0, "lon": -76.96647266666666}, {"fusion_lat": 0.0, "name": "006efa17dda34820f0101a38dbce1e8b", "is_disabled": 0, "rental_uris": {"android": "https://dc.lft.to/lastmile_qr_scan", "ios": "https://dc.lft.to/lastmile_qr_scan"}, "fusion_lon": 0.0, "lat": 38.88723866666667, "bike_id": "006efa17dda34820f0101a38dbce1e8b", "type": "electric_scooter", "is_reserved": 0, "lon": -77.0257805}, {"fusion_lat": 0.0, "name": "6b77014c7915340a3567a7c32345b708", "is_disabled": 0, "rental_uris": {"android": "https://dc.lft.to/lastmile_qr_scan", "ios": "https://dc.lft.to/lastmile_qr_scan"}, "fusion_lon": 0.0, "lat": 38.92387683333333, "bike_id": "6b77014c7915340a3567a7c32345b708", "type": "electric_scooter", "is_reserved": 0, "lon": -77.035498}, {"fusion_lat": 0.0, "name": "2e21f34cedcdff8bd9d37dd6817c6cac", "is_disabled": 0, "rental_uris": {"android": "https://dc.lft.to/lastmile_qr_scan", "ios": "https://dc.lft.to/lastmile_qr_scan"}, "fusion_lon": 0.0, "lat": 38.89538233333333, "bike_id": "2e21f34cedcdff8bd9d37dd6817c6cac", "type": "electric_scooter", "is_reserved": 0, "lon": -77.0240055}, {"fusion_lat": 0.0, "name": "860228516faaf18d1f836c8381eabf8f", "is_disabled": 0, "rental_uris": {"android": "https://dc.lft.to/lastmile_qr_scan", "ios": "https://dc.lft.to/lastmile_qr_scan"}, "fusion_lon": 0.0, "lat": 38.86256083333333, "bike_id": "860228516faaf18d1f836c8381eabf8f", "type": "electric_bike", "is_reserved": 0, "lon": -76.98332483333333}, {"fusion_lat": 0.0, "name": "2a0e0d881319566ba381e730ca7e5cfb", "is_disabled": 0, "rental_uris": {"android": "https://dc.lft.to/lastmile_qr_scan", "ios": "https://dc.lft.to/lastmile_qr_scan"}, "fusion_lon": 0.0, "lat": 38.923331833333336, "bike_id": "2a0e0d881319566ba381e730ca7e5cfb", "type": "electric_scooter", "is_reserved": 0, "lon": -77.0356205}, {"fusion_lat": 0.0, "name": "15520db0c93c7c9a0fb7a3c4b55be254", "is_disabled": 0, "rental_uris": {"android": "https://dc.lft.to/lastmile_qr_scan", "ios": "https://dc.lft.to/lastmile_qr_scan"}, "fusion_lon": 0.0, "lat": 38.917251, "bike_id": "15520db0c93c7c9a0fb7a3c4b55be254", "type": "electric_scooter", "is_reserved": 0, "lon": -77.00817}, {"fusion_lat": 0.0, "name": "bce04a6cbc6a42a7a74ac81ed6a5e2bd", "is_disabled": 0, "rental_uris": {"android": "https://dc.lft.to/lastmile_qr_scan", "ios": "https://dc.lft.to/lastmile_qr_scan"}, "fusion_lon": 0.0, "lat": 38.86887883333333, "bike_id": "bce04a6cbc6a42a7a74ac81ed6a5e2bd", "type": "electric_bike", "is_reserved": 0, "lon": -76.98315983333333}, {"fusion_lat": 0.0, "name": "43d156abcd9ab10fa27edc997c9634f4", "is_disabled": 0, "rental_uris": {"android": "https://dc.lft.to/lastmile_qr_scan", "ios": "https://dc.lft.to/lastmile_qr_scan"}, "fusion_lon": 0.0, "lat": 38.9250765, "bike_id": "43d156abcd9ab10fa27edc997c9634f4", "type": "electric_scooter", "is_reserved": 0, "lon": -77.019517}, {"fusion_lat": 0.0, "name": "9e1583335311d9222622abb8ee8b308b", "is_disabled": 0, "rental_uris": {"android": "https://dc.lft.to/lastmile_qr_scan", "ios": "https://dc.lft.to/lastmile_qr_scan"}, "fusion_lon": 0.0, "lat": 38.892209, "bike_id": "9e1583335311d9222622abb8ee8b308b", "type": "electric_scooter", "is_reserved": 0, "lon": -77.02220683333333}, {"fusion_lat": 0.0, "name": "d1ce1dad194f659f5ea23249f06d6541", "is_disabled": 0, "rental_uris": {"android": "https://dc.lft.to/lastmile_qr_scan", "ios": "https://dc.lft.to/lastmile_qr_scan"}, "fusion_lon": 0.0, "lat": 38.901011, "bike_id": "d1ce1dad194f659f5ea23249f06d6541", "type": "electric_scooter", "is_reserved": 0, "lon": -77.01972383333333}, {"fusion_lat": 0.0, "name": "7bcc6eeb8b9ffafe20bae72760fd25e8", "is_disabled": 0, "rental_uris": {"android": "https://dc.lft.to/lastmile_qr_scan", "ios": "https://dc.lft.to/lastmile_qr_scan"}, "fusion_lon": 0.0, "lat": 38.93481716666667, "bike_id": "7bcc6eeb8b9ffafe20bae72760fd25e8", "type": "electric_scooter", "is_reserved": 0, "lon": -77.03609883333333}, {"fusion_lat": 0.0, "name": "cfc705863fb92bd01409825b0eddea9d", "is_disabled": 0, "rental_uris": {"android": "https://dc.lft.to/lastmile_qr_scan", "ios": "https://dc.lft.to/lastmile_qr_scan"}, "fusion_lon": 0.0, "lat": 38.94178866666667, "bike_id": "cfc705863fb92bd01409825b0eddea9d", "type": "electric_scooter", "is_reserved": 0, "lon": -77.03652416666667}, {"fusion_lat": 0.0, "name": "24a400e108dcae037e1924ab2369cb16", "is_disabled": 0, "rental_uris": {"android": "https://dc.lft.to/lastmile_qr_scan", "ios": "https://dc.lft.to/lastmile_qr_scan"}, "fusion_lon": 0.0, "lat": 38.888738333333336, "bike_id": "24a400e108dcae037e1924ab2369cb16", "type": "electric_scooter", "is_reserved": 0, "lon": -77.028551}, {"fusion_lat": 0.0, "name": "6bc7c767241dfcc5e71b12e735252730", "is_disabled": 0, "rental_uris": {"android": "https://dc.lft.to/lastmile_qr_scan", "ios": "https://dc.lft.to/lastmile_qr_scan"}, "fusion_lon": 0.0, "lat": 38.911043166666666, "bike_id": "6bc7c767241dfcc5e71b12e735252730", "type": "electric_scooter", "is_reserved": 0, "lon": -77.04203666666666}, {"fusion_lat": 0.0, "name": "aead2e58f4340fda7993d4c88875a925", "is_disabled": 0, "rental_uris": {"android": "https://dc.lft.to/lastmile_qr_scan", "ios": "https://dc.lft.to/lastmile_qr_scan"}, "fusion_lon": 0.0, "lat": 38.85790316666667, "bike_id": "aead2e58f4340fda7993d4c88875a925", "type": "electric_bike", "is_reserved": 0, "lon": -76.987299}, {"fusion_lat": 0.0, "name": "19dd6cfcc5737cfb6d919586c1af0f69", "is_disabled": 0, "rental_uris": {"android": "https://dc.lft.to/lastmile_qr_scan", "ios": "https://dc.lft.to/lastmile_qr_scan"}, "fusion_lon": 0.0, "lat": 38.89228283333333, "bike_id": "19dd6cfcc5737cfb6d919586c1af0f69", "type": "electric_scooter", "is_reserved": 0, "lon": -77.04895}, {"fusion_lat": 0.0, "name": "0d95b0f4605fa0ffd6bdf311d098d0b0", "is_disabled": 0, "rental_uris": {"android": "https://dc.lft.to/lastmile_qr_scan", "ios": "https://dc.lft.to/lastmile_qr_scan"}, "fusion_lon": 0.0, "lat": 38.9197845, "bike_id": "0d95b0f4605fa0ffd6bdf311d098d0b0", "type": "electric_scooter", "is_reserved": 0, "lon": -77.04086233333334}, {"fusion_lat": 0.0, "name": "3ef217a114c6048ff24089c0630d7139", "is_disabled": 0, "rental_uris": {"android": "https://dc.lft.to/lastmile_qr_scan", "ios": "https://dc.lft.to/lastmile_qr_scan"}, "fusion_lon": 0.0, "lat": 38.910297666666665, "bike_id": "3ef217a114c6048ff24089c0630d7139", "type": "electric_scooter", "is_reserved": 0, "lon": -77.00758616666667}, {"fusion_lat": 0.0, "name": "07f798ec4f61bf9e2827eceab4a0d4b0", "is_disabled": 0, "rental_uris": {"android": "https://dc.lft.to/lastmile_qr_scan", "ios": "https://dc.lft.to/lastmile_qr_scan"}, "fusion_lon": 0.0, "lat": 38.92458333333333, "bike_id": "07f798ec4f61bf9e2827eceab4a0d4b0", "type": "electric_scooter", "is_reserved": 0, "lon": -76.99330483333334}, {"fusion_lat": 0.0, "name": "7411c377cc9d057400396266601251ce", "is_disabled": 0, "rental_uris": {"android": "https://dc.lft.to/lastmile_qr_scan", "ios": "https://dc.lft.to/lastmile_qr_scan"}, "fusion_lon": 0.0, "lat": 38.920507, "bike_id": "7411c377cc9d057400396266601251ce", "type": "electric_scooter", "is_reserved": 0, "lon": -76.99866116666666}, {"fusion_lat": 0.0, "name": "a9b6a5b9c6a18111d2ed03380e22c6e1", "is_disabled": 0, "rental_uris": {"android": "https://dc.lft.to/lastmile_qr_scan", "ios": "https://dc.lft.to/lastmile_qr_scan"}, "fusion_lon": 0.0, "lat": 38.92838883333334, "bike_id": "a9b6a5b9c6a18111d2ed03380e22c6e1", "type": "electric_scooter", "is_reserved": 0, "lon": -76.98030666666666}, {"fusion_lat": 0.0, "name": "14992f2b1eabbf8c4da75c8cb0a2da69", "is_disabled": 0, "rental_uris": {"android": "https://dc.lft.to/lastmile_qr_scan", "ios": "https://dc.lft.to/lastmile_qr_scan"}, "fusion_lon": 0.0, "lat": 38.92769966666667, "bike_id": "14992f2b1eabbf8c4da75c8cb0a2da69", "type": "electric_scooter", "is_reserved": 0, "lon": -77.02307866666666}, {"fusion_lat": 0.0, "name": "5673201dca501d1a5b50892f0d1229ec", "is_disabled": 0, "rental_uris": {"android": "https://dc.lft.to/lastmile_qr_scan", "ios": "https://dc.lft.to/lastmile_qr_scan"}, "fusion_lon": 0.0, "lat": 38.91113633333333, "bike_id": "5673201dca501d1a5b50892f0d1229ec", "type": "electric_scooter", "is_reserved": 0, "lon": -77.01157233333333}, {"fusion_lat": 0.0, "name": "3de26a7222686a11598902e08ac4275f", "is_disabled": 0, "rental_uris": {"android": "https://dc.lft.to/lastmile_qr_scan", "ios": "https://dc.lft.to/lastmile_qr_scan"}, "fusion_lon": 0.0, "lat": 38.901159166666666, "bike_id": "3de26a7222686a11598902e08ac4275f", "type": "electric_scooter", "is_reserved": 0, "lon": -77.0416585}, {"fusion_lat": 0.0, "name": "dcf36cd3c5c7bb2cad2b8c4bafa81b83", "is_disabled": 0, "rental_uris": {"android": "https://dc.lft.to/lastmile_qr_scan", "ios": "https://dc.lft.to/lastmile_qr_scan"}, "fusion_lon": 0.0, "lat": 38.904309833333336, "bike_id": "dcf36cd3c5c7bb2cad2b8c4bafa81b83", "type": "electric_scooter", "is_reserved": 0, "lon": -77.02595716666667}, {"fusion_lat": 0.0, "name": "d765360541236fb95bf6f6087f7cb7ac", "is_disabled": 0, "rental_uris": {"android": "https://dc.lft.to/lastmile_qr_scan", "ios": "https://dc.lft.to/lastmile_qr_scan"}, "fusion_lon": 0.0, "lat": 38.89933633333333, "bike_id": "d765360541236fb95bf6f6087f7cb7ac", "type": "electric_scooter", "is_reserved": 0, "lon": -77.04867416666667}, {"fusion_lat": 0.0, "name": "bcf289091a63090159992fbb15fb9a39", "is_disabled": 0, "rental_uris": {"android": "https://dc.lft.to/lastmile_qr_scan", "ios": "https://dc.lft.to/lastmile_qr_scan"}, "fusion_lon": 0.0, "lat": 38.909209, "bike_id": "bcf289091a63090159992fbb15fb9a39", "type": "electric_scooter", "is_reserved": 0, "lon": -77.02304016666666}, {"fusion_lat": 0.0, "name": "a5cd0c6ede8865d183a8b2966c3460b8", "is_disabled": 0, "rental_uris": {"android": "https://dc.lft.to/lastmile_qr_scan", "ios": "https://dc.lft.to/lastmile_qr_scan"}, "fusion_lon": 0.0, "lat": 38.92311133333333, "bike_id": "a5cd0c6ede8865d183a8b2966c3460b8", "type": "electric_scooter", "is_reserved": 0, "lon": -77.041426}, {"fusion_lat": 0.0, "name": "8cfceebabbc0c8417666f0e1ccdde2d0", "is_disabled": 0, "rental_uris": {"android": "https://dc.lft.to/lastmile_qr_scan", "ios": "https://dc.lft.to/lastmile_qr_scan"}, "fusion_lon": 0.0, "lat": 38.910334, "bike_id": "8cfceebabbc0c8417666f0e1ccdde2d0", "type": "electric_scooter", "is_reserved": 0, "lon": -77.03425133333333}, {"fusion_lat": 0.0, "name": "12157c98c5cd2e381a16cc15c008778a", "is_disabled": 0, "rental_uris": {"android": "https://dc.lft.to/lastmile_qr_scan", "ios": "https://dc.lft.to/lastmile_qr_scan"}, "fusion_lon": 0.0, "lat": 38.9191785, "bike_id": "12157c98c5cd2e381a16cc15c008778a", "type": "electric_scooter", "is_reserved": 0, "lon": -77.02419583333334}, {"fusion_lat": 0.0, "name": "30fb36597b0fa3225a5c3c9a7c752e59", "is_disabled": 0, "rental_uris": {"android": "https://dc.lft.to/lastmile_qr_scan", "ios": "https://dc.lft.to/lastmile_qr_scan"}, "fusion_lon": 0.0, "lat": 38.90502333333333, "bike_id": "30fb36597b0fa3225a5c3c9a7c752e59", "type": "electric_scooter", "is_reserved": 0, "lon": -77.02958533333333}, {"fusion_lat": 0.0, "name": "528525024846415bd13ee2ddcb27e067", "is_disabled": 0, "rental_uris": {"android": "https://dc.lft.to/lastmile_qr_scan", "ios": "https://dc.lft.to/lastmile_qr_scan"}, "fusion_lon": 0.0, "lat": 38.91820333333333, "bike_id": "528525024846415bd13ee2ddcb27e067", "type": "electric_scooter", "is_reserved": 0, "lon": -77.02711316666667}, {"fusion_lat": 0.0, "name": "49966d843750025a8b1ed48c2282e5d1", "is_disabled": 0, "rental_uris": {"android": "https://dc.lft.to/lastmile_qr_scan", "ios": "https://dc.lft.to/lastmile_qr_scan"}, "fusion_lon": 0.0, "lat": 38.87378616666667, "bike_id": "49966d843750025a8b1ed48c2282e5d1", "type": "electric_scooter", "is_reserved": 0, "lon": -77.000358}, {"fusion_lat": 0.0, "name": "4239468eed9622d6145b8ad20a5c5147", "is_disabled": 0, "rental_uris": {"android": "https://dc.lft.to/lastmile_qr_scan", "ios": "https://dc.lft.to/lastmile_qr_scan"}, "fusion_lon": 0.0, "lat": 38.8748445, "bike_id": "4239468eed9622d6145b8ad20a5c5147", "type": "electric_scooter", "is_reserved": 0, "lon": -77.00118166666667}, {"fusion_lat": 0.0, "name": "0a787e877dea50ecb7d876f2c2f7c047", "is_disabled": 0, "rental_uris": {"android": "https://dc.lft.to/lastmile_qr_scan", "ios": "https://dc.lft.to/lastmile_qr_scan"}, "fusion_lon": 0.0, "lat": 38.95730666666667, "bike_id": "0a787e877dea50ecb7d876f2c2f7c047", "type": "electric_scooter", "is_reserved": 0, "lon": -77.0240155}, {"fusion_lat": 0.0, "name": "02fa85bbae5053f403d561f7e74aee30", "is_disabled": 0, "rental_uris": {"android": "https://dc.lft.to/lastmile_qr_scan", "ios": "https://dc.lft.to/lastmile_qr_scan"}, "fusion_lon": 0.0, "lat": 38.91587633333333, "bike_id": "02fa85bbae5053f403d561f7e74aee30", "type": "electric_scooter", "is_reserved": 0, "lon": -77.045505}, {"fusion_lat": 0.0, "name": "2993206bb0dc1b99caf4488a31fb89b6", "is_disabled": 0, "rental_uris": {"android": "https://dc.lft.to/lastmile_qr_scan", "ios": "https://dc.lft.to/lastmile_qr_scan"}, "fusion_lon": 0.0, "lat": 38.91486066666667, "bike_id": "2993206bb0dc1b99caf4488a31fb89b6", "type": "electric_scooter", "is_reserved": 0, "lon": -77.042787}, {"fusion_lat": 0.0, "name": "e4c38a8d26f048755ac0c78c5e261b71", "is_disabled": 0, "rental_uris": {"android": "https://dc.lft.to/lastmile_qr_scan", "ios": "https://dc.lft.to/lastmile_qr_scan"}, "fusion_lon": 0.0, "lat": 38.927862, "bike_id": "e4c38a8d26f048755ac0c78c5e261b71", "type": "electric_scooter", "is_reserved": 0, "lon": -77.02252}, {"fusion_lat": 0.0, "name": "db5217d969bbc5f04689af1d07d1ba82", "is_disabled": 0, "rental_uris": {"android": "https://dc.lft.to/lastmile_qr_scan", "ios": "https://dc.lft.to/lastmile_qr_scan"}, "fusion_lon": 0.0, "lat": 38.9060775, "bike_id": "db5217d969bbc5f04689af1d07d1ba82", "type": "electric_scooter", "is_reserved": 0, "lon": -77.0629915}, {"fusion_lat": 0.0, "name": "cea6ea75588e4f1dd7acead73df0f2cb", "is_disabled": 0, "rental_uris": {"android": "https://dc.lft.to/lastmile_qr_scan", "ios": "https://dc.lft.to/lastmile_qr_scan"}, "fusion_lon": 0.0, "lat": 38.92329766666667, "bike_id": "cea6ea75588e4f1dd7acead73df0f2cb", "type": "electric_scooter", "is_reserved": 0, "lon": -77.04412383333333}, {"fusion_lat": 0.0, "name": "9a402503b8e72953ba5849e63928b83e", "is_disabled": 0, "rental_uris": {"android": "https://dc.lft.to/lastmile_qr_scan", "ios": "https://dc.lft.to/lastmile_qr_scan"}, "fusion_lon": 0.0, "lat": 38.87531633333333, "bike_id": "9a402503b8e72953ba5849e63928b83e", "type": "electric_scooter", "is_reserved": 0, "lon": -77.00507566666667}, {"fusion_lat": 0.0, "name": "29f00145a57ecb17604aa3ded4f1a104", "is_disabled": 0, "rental_uris": {"android": "https://dc.lft.to/lastmile_qr_scan", "ios": "https://dc.lft.to/lastmile_qr_scan"}, "fusion_lon": 0.0, "lat": 38.877218166666665, "bike_id": "29f00145a57ecb17604aa3ded4f1a104", "type": "electric_scooter", "is_reserved": 0, "lon": -77.01759666666666}, {"fusion_lat": 0.0, "name": "e32a27d716d1ca2b71f504ec04414dff", "is_disabled": 0, "rental_uris": {"android": "https://dc.lft.to/lastmile_qr_scan", "ios": "https://dc.lft.to/lastmile_qr_scan"}, "fusion_lon": 0.0, "lat": 38.9275435, "bike_id": "e32a27d716d1ca2b71f504ec04414dff", "type": "electric_scooter", "is_reserved": 0, "lon": -77.02426383333334}, {"fusion_lat": 0.0, "name": "e14480862a41ccb4535c70c24805f5d9", "is_disabled": 0, "rental_uris": {"android": "https://dc.lft.to/lastmile_qr_scan", "ios": "https://dc.lft.to/lastmile_qr_scan"}, "fusion_lon": 0.0, "lat": 38.900621666666666, "bike_id": "e14480862a41ccb4535c70c24805f5d9", "type": "electric_scooter", "is_reserved": 0, "lon": -76.92748166666667}, {"fusion_lat": 0.0, "name": "71b8346194b6784d0af25672094b0cc5", "is_disabled": 0, "rental_uris": {"android": "https://dc.lft.to/lastmile_qr_scan", "ios": "https://dc.lft.to/lastmile_qr_scan"}, "fusion_lon": 0.0, "lat": 38.896786166666665, "bike_id": "71b8346194b6784d0af25672094b0cc5", "type": "electric_scooter", "is_reserved": 0, "lon": -77.051463}, {"fusion_lat": 0.0, "name": "f04d931f407c500596c074a1771f2dbc", "is_disabled": 0, "rental_uris": {"android": "https://dc.lft.to/lastmile_qr_scan", "ios": "https://dc.lft.to/lastmile_qr_scan"}, "fusion_lon": 0.0, "lat": 38.876625833333335, "bike_id": "f04d931f407c500596c074a1771f2dbc", "type": "electric_scooter", "is_reserved": 0, "lon": -76.99622616666667}, {"fusion_lat": 0.0, "name": "565319f4087ae600a8dff22487f9a714", "is_disabled": 0, "rental_uris": {"android": "https://dc.lft.to/lastmile_qr_scan", "ios": "https://dc.lft.to/lastmile_qr_scan"}, "fusion_lon": 0.0, "lat": 38.89551133333333, "bike_id": "565319f4087ae600a8dff22487f9a714", "type": "electric_scooter", "is_reserved": 0, "lon": -76.94938983333333}, {"fusion_lat": 0.0, "name": "44e315b2c43a108412a8f5f46c2eacaf", "is_disabled": 0, "rental_uris": {"android": "https://dc.lft.to/lastmile_qr_scan", "ios": "https://dc.lft.to/lastmile_qr_scan"}, "fusion_lon": 0.0, "lat": 38.89015633333333, "bike_id": "44e315b2c43a108412a8f5f46c2eacaf", "type": "electric_scooter", "is_reserved": 0, "lon": -76.937341}, {"fusion_lat": 0.0, "name": "e6913f55ba5f2b528af2a31e3bb68879", "is_disabled": 0, "rental_uris": {"android": "https://dc.lft.to/lastmile_qr_scan", "ios": "https://dc.lft.to/lastmile_qr_scan"}, "fusion_lon": 0.0, "lat": 38.928388, "bike_id": "e6913f55ba5f2b528af2a31e3bb68879", "type": "electric_scooter", "is_reserved": 0, "lon": -76.99345916666667}, {"fusion_lat": 0.0, "name": "edcb80872524c476eca55801bd33f36e", "is_disabled": 0, "rental_uris": {"android": "https://dc.lft.to/lastmile_qr_scan", "ios": "https://dc.lft.to/lastmile_qr_scan"}, "fusion_lon": 0.0, "lat": 38.90513416666667, "bike_id": "edcb80872524c476eca55801bd33f36e", "type": "electric_scooter", "is_reserved": 0, "lon": -77.03171283333333}, {"fusion_lat": 0.0, "name": "5d7e52119a91e20831cdcdc2f7eac642", "is_disabled": 0, "rental_uris": {"android": "https://dc.lft.to/lastmile_qr_scan", "ios": "https://dc.lft.to/lastmile_qr_scan"}, "fusion_lon": 0.0, "lat": 38.932490666666666, "bike_id": "5d7e52119a91e20831cdcdc2f7eac642", "type": "electric_scooter", "is_reserved": 0, "lon": -77.038467}, {"fusion_lat": 0.0, "name": "5d126ca9df0dcde98338eabb579385a8", "is_disabled": 0, "rental_uris": {"android": "https://dc.lft.to/lastmile_qr_scan", "ios": "https://dc.lft.to/lastmile_qr_scan"}, "fusion_lon": 0.0, "lat": 38.90758616666667, "bike_id": "5d126ca9df0dcde98338eabb579385a8", "type": "electric_scooter", "is_reserved": 0, "lon": -77.00032666666667}, {"fusion_lat": 0.0, "name": "e4e7953f2e0b3a099b62d01872fef3d1", "is_disabled": 0, "rental_uris": {"android": "https://dc.lft.to/lastmile_qr_scan", "ios": "https://dc.lft.to/lastmile_qr_scan"}, "fusion_lon": 0.0, "lat": 38.91633433333333, "bike_id": "e4e7953f2e0b3a099b62d01872fef3d1", "type": "electric_scooter", "is_reserved": 0, "lon": -77.0107245}, {"fusion_lat": 0.0, "name": "c74f367f0c7db2e8e8f45c230434dd78", "is_disabled": 0, "rental_uris": {"android": "https://dc.lft.to/lastmile_qr_scan", "ios": "https://dc.lft.to/lastmile_qr_scan"}, "fusion_lon": 0.0, "lat": 38.93760283333334, "bike_id": "c74f367f0c7db2e8e8f45c230434dd78", "type": "electric_bike", "is_reserved": 0, "lon": -76.95822983333333}, {"fusion_lat": 0.0, "name": "78a91412574c86f31e0b7c90f5a329a2", "is_disabled": 0, "rental_uris": {"android": "https://dc.lft.to/lastmile_qr_scan", "ios": "https://dc.lft.to/lastmile_qr_scan"}, "fusion_lon": 0.0, "lat": 38.932759, "bike_id": "78a91412574c86f31e0b7c90f5a329a2", "type": "electric_scooter", "is_reserved": 0, "lon": -77.04082916666667}, {"fusion_lat": 0.0, "name": "3b4df881c779417270120780e3e66eb6", "is_disabled": 0, "rental_uris": {"android": "https://dc.lft.to/lastmile_qr_scan", "ios": "https://dc.lft.to/lastmile_qr_scan"}, "fusion_lon": 0.0, "lat": 38.911084833333334, "bike_id": "3b4df881c779417270120780e3e66eb6", "type": "electric_bike", "is_reserved": 0, "lon": -77.00269016666667}, {"fusion_lat": 0.0, "name": "4e59180e98f9d1de632f11a7e54a6009", "is_disabled": 0, "rental_uris": {"android": "https://dc.lft.to/lastmile_qr_scan", "ios": "https://dc.lft.to/lastmile_qr_scan"}, "fusion_lon": 0.0, "lat": 38.925589, "bike_id": "4e59180e98f9d1de632f11a7e54a6009", "type": "electric_scooter", "is_reserved": 0, "lon": -77.035471}, {"fusion_lat": 0.0, "name": "838b04903e6be956d0205420b2afc675", "is_disabled": 0, "rental_uris": {"android": "https://dc.lft.to/lastmile_qr_scan", "ios": "https://dc.lft.to/lastmile_qr_scan"}, "fusion_lon": 0.0, "lat": 38.9027365, "bike_id": "838b04903e6be956d0205420b2afc675", "type": "electric_scooter", "is_reserved": 0, "lon": -77.0531785}, {"fusion_lat": 0.0, "name": "c39d14bbf89475a557fc7dfbb1d757da", "is_disabled": 0, "rental_uris": {"android": "https://dc.lft.to/lastmile_qr_scan", "ios": "https://dc.lft.to/lastmile_qr_scan"}, "fusion_lon": 0.0, "lat": 38.9550785, "bike_id": "c39d14bbf89475a557fc7dfbb1d757da", "type": "electric_scooter", "is_reserved": 0, "lon": -77.02838633333333}, {"fusion_lat": 0.0, "name": "148cfa528bd0a54e78d16b33b2142d8b", "is_disabled": 0, "rental_uris": {"android": "https://dc.lft.to/lastmile_qr_scan", "ios": "https://dc.lft.to/lastmile_qr_scan"}, "fusion_lon": 0.0, "lat": 38.9166065, "bike_id": "148cfa528bd0a54e78d16b33b2142d8b", "type": "electric_scooter", "is_reserved": 0, "lon": -77.03853983333333}, {"fusion_lat": 0.0, "name": "c4f53d1d9311f2f87b87dc7083a2f583", "is_disabled": 0, "rental_uris": {"android": "https://dc.lft.to/lastmile_qr_scan", "ios": "https://dc.lft.to/lastmile_qr_scan"}, "fusion_lon": 0.0, "lat": 38.87822233333333, "bike_id": "c4f53d1d9311f2f87b87dc7083a2f583", "type": "electric_scooter", "is_reserved": 0, "lon": -77.00127583333334},