{"data": {"bikes": [{"rental_uris": {"ios": "https://dc.lft.to/lastmile_qr_scan", "android": "https://dc.lft.to/lastmile_qr_scan"}, "lon": -77.103404, "type": "electric_bike", "fusion_lat": 0.0, "lat": 38.852269166666666, "name": "b84445427780f3c7f2aaf61711b4320f", "fusion_lon": 0.0, "bike_id": "b84445427780f3c7f2aaf61711b4320f", "is_disabled": 0, "is_reserved": 0}, {"rental_uris": {"ios": "https://dc.lft.to/lastmile_qr_scan", "android": "https://dc.lft.to/lastmile_qr_scan"}, "lon": -76.94792866666667, "type": "electric_scooter", "fusion_lat": 0.0, "lat": 38.89633633333333, "name": "3f5bd4619008f531719cc066ac5f9e8a", "fusion_lon": 0.0, "bike_id": "3f5bd4619008f531719cc066ac5f9e8a", "is_disabled": 0, "is_reserved": 0}, {"rental_uris": {"ios": "https://dc.lft.to/lastmile_qr_scan", "android": "https://dc.lft.to/lastmile_qr_scan"}, "lon": -77.02975433333333, "type": "electric_scooter", "fusion_lat": 0.0, "lat": 38.962299, "name": "6fa155c4bfc5d670884407be0002a286", "fusion_lon": 0.0, "bike_id": "6fa155c4bfc5d670884407be0002a286", "is_disabled": 0, "is_reserved": 0}, {"rental_uris": {"ios": "https://dc.lft.to/lastmile_qr_scan", "android": "https://dc.lft.to/lastmile_qr_scan"}, "lon": -77.00130333333334, "type": "electric_scooter", "fusion_lat": 0.0, "lat": 38.90412516666667, "name": "bbe76cb8bcb648d1230ad75b477af5e3", "fusion_lon": 0.0, "bike_id": "bbe76cb8bcb648d1230ad75b477af5e3", "is_disabled": 0, "is_reserved": 0}, {"rental_uris": {"ios": "https://dc.lft.to/lastmile_qr_scan", "android": "https://dc.lft.to/lastmile_qr_scan"}, "lon": -77.00883616666667, "type": "electric_scooter", "fusion_lat": 0.0, "lat": 38.91404683333333, "name": "ac5efc9b649db0f9859452b8c3564507", "fusion_lon": 0.0, "bike_id": "ac5efc9b649db0f9859452b8c3564507", "is_disabled": 0, "is_reserved": 0}, {"rental_uris": {"ios": "https://dc.lft.to/lastmile_qr_scan", "android": "https://dc.lft.to/lastmile_qr_scan"}, "lon": -77.0400175, "type": "electric_bike", "fusion_lat": 0.0, "lat": 38.89893133333333, "name": "5a6c419eb90298a369c54435f1bf7c17", "fusion_lon": 0.0, "bike_id": "5a6c419eb90298a369c54435f1bf7c17", "is_disabled": 0, "is_reserved": 0}, {"rental_uris": {"ios": "https://dc.lft.to/lastmile_qr_scan", "android": "https://dc.lft.to/lastmile_qr_scan"}, "lon": -77.00869766666666, "type": "electric_scooter", "fusion_lat": 0.0, "lat": 38.91175116666667, "name": "50154c939886b3387f6572f6fdf5e658", "fusion_lon": 0.0, "bike_id": "50154c939886b3387f6572f6fdf5e658", "is_disabled": 0, "is_reserved": 0}, {"rental_uris": {"ios": "https://dc.lft.to/lastmile_qr_scan", "android": "https://dc.lft.to/lastmile_qr_scan"}, "lon": -77.07163266666667, "type": "electric_scooter", "fusion_lat": 0.0, "lat": 38.90742816666667, "name": "217f8ef8df2705b9559a5eaaac53bfc3", "fusion_lon": 0.0, "bike_id": "217f8ef8df2705b9559a5eaaac53bfc3", "is_disabled": 0, "is_reserved": 0}, {"rental_uris": {"ios": "https://dc.lft.to/lastmile_qr_scan", "android": "https://dc.lft.to/lastmile_qr_scan"}, "lon": -77.03135766666666, "type": "electric_scooter", "fusion_lat": 0.0, "lat": 38.89721516666667, "name": "31756a904a2fd821545020e19f39471a", "fusion_lon": 0.0, "bike_id": "31756a904a2fd821545020e19f39471a", "is_disabled": 0, "is_reserved": 0}, {"rental_uris": {"ios": "https://dc.lft.to/lastmile_qr_scan", "android": "https://dc.lft.to/lastmile_qr_scan"}, "lon": -77.0449375, "type": "electric_scooter", "fusion_lat": 0.0, "lat": 38.905760666666666, "name": "f844511ba31400d6ec290e5eda3f5c35", "fusion_lon": 0.0, "bike_id": "f844511ba31400d6ec290e5eda3f5c35", "is_disabled": 0, "is_reserved": 0}, {"rental_uris": {"ios": "https://dc.lft.to/lastmile_qr_scan", "android": "https://dc.lft.to/lastmile_qr_scan"}, "lon": -77.03841933333334, "type": "electric_scooter", "fusion_lat": 0.0, "lat": 38.91335016666667, "name": "57e5f8d1aec6bab6750b309da564a852", "fusion_lon": 0.0, "bike_id": "57e5f8d1aec6bab6750b309da564a852", "is_disabled": 0, "is_reserved": 0}, {"rental_uris": {"ios": "https://dc.lft.to/lastmile_qr_scan", "android": "https://dc.lft.to/lastmile_qr_scan"}, "lon": -77.01966083333333, "type": "electric_scooter", "fusion_lat": 0.0, "lat": 38.87858816666667, "name": "67274266c41a8ae10b57424c82f6231f", "fusion_lon": 0.0, "bike_id": "67274266c41a8ae10b57424c82f6231f", "is_disabled": 0, "is_reserved": 0}, {"rental_uris": {"ios": "https://dc.lft.to/lastmile_qr_scan", "android": "https://dc.lft.to/lastmile_qr_scan"}, "lon": -77.04439133333334, "type": "electric_scooter", "fusion_lat": 0.0, "lat": 38.90577566666666, "name": "722349cedefe7902af66af005a1f5d16", "fusion_lon": 0.0, "bike_id": "722349cedefe7902af66af005a1f5d16", "is_disabled": 0, "is_reserved": 0}, {"rental_uris": {"ios": "https://dc.lft.to/lastmile_qr_scan", "android": "https://dc.lft.to/lastmile_qr_scan"}, "lon": -76.95206133333333, "type": "electric_bike", "fusion_lat": 0.0, "lat": 38.93676133333334, "name": "6e14cbbdff78a240b4062ec9c4c16d83", "fusion_lon": 0.0, "bike_id": "6e14cbbdff78a240b4062ec9c4c16d83", "is_disabled": 0, "is_reserved": 0}, {"rental_uris": {"ios": "https://dc.lft.to/lastmile_qr_scan", "android": "https://dc.lft.to/lastmile_qr_scan"}, "lon": -77.03192466666667, "type": "electric_scooter", "fusion_lat": 0.0, "lat": 38.91354166666667, "name": "f61e80e3eec40143f3f748b7572a8006", "fusion_lon": 0.0, "bike_id": "f61e80e3eec40143f3f748b7572a8006", "is_disabled": 0, "is_reserved": 0}, {"rental_uris": {"ios": "https://dc.lft.to/lastmile_qr_scan", "android": "https://dc.lft.to/lastmile_qr_scan"}, "lon": -77.024656, "type": "electric_scooter", "fusion_lat": 0.0, "lat": 38.897362333333334, "name": "28e309b65b3407324ba6522bc770a2f2", "fusion_lon": 0.0, "bike_id": "28e309b65b3407324ba6522bc770a2f2", "is_disabled": 0, "is_reserved": 0}, {"rental_uris": {"ios": "https://dc.lft.to/lastmile_qr_scan", "android": "https://dc.lft.to/lastmile_qr_scan"}, "lon": -77.0761695, "type": "electric_scooter", "fusion_lat": 0.0, "lat": 38.91257366666667, "name": "834534250990b7793014e0fe8cc536df", "fusion_lon": 0.0, "bike_id": "834534250990b7793014e0fe8cc536df", "is_disabled": 0, "is_reserved": 0}, {"rental_uris": {"ios": "https://dc.lft.to/lastmile_qr_scan", "android": "https://dc.lft.to/lastmile_qr_scan"}, "lon": -77.00127466666666, "type": "electric_scooter", "fusion_lat": 0.0, "lat": 38.90414, "name": "91044f9fe4e40af8756ae7ed5299dc66", "fusion_lon": 0.0, "bike_id": "91044f9fe4e40af8756ae7ed5299dc66", "is_disabled": 0, "is_reserved": 0}, {"rental_uris": {"ios": "https://dc.lft.to/lastmile_qr_scan", "android": "https://dc.lft.to/lastmile_qr_scan"}, "lon": -77.05127, "type": "electric_scooter", "fusion_lat": 0.0, "lat": 38.923643166666665, "name": "604b1c1f41268d33ae0e67327043d2bf", "fusion_lon": 0.0, "bike_id": "604b1c1f41268d33ae0e67327043d2bf", "is_disabled": 0, "is_reserved": 0}, {"rental_uris": {"ios": "https://dc.lft.to/lastmile_qr_scan", "android": "https://dc.lft.to/lastmile_qr_scan"}, "lon": -76.9649045, "type": "electric_bike", "fusion_lat": 0.0, "lat": 38.875568, "name": "1683dea4b67f35a0c2ba42175c2b7e9c", "fusion_lon": 0.0, "bike_id": "1683dea4b67f35a0c2ba42175c2b7e9c", "is_disabled": 0, "is_reserved": 0}, {"rental_uris": {"ios": "https://dc.lft.to/lastmile_qr_scan", "android": "https://dc.lft.to/lastmile_qr_scan"}, "lon": -77.03451666666666, "type": "electric_scooter", "fusion_lat": 0.0, "lat": 38.918436, "name": "67989529a484e235084ad414d55cffbb", "fusion_lon": 0.0, "bike_id": "67989529a484e235084ad414d55cffbb", "is_disabled": 0, "is_reserved": 0}, {"rental_uris": {"ios": "https://dc.lft.to/lastmile_qr_scan", "android": "https://dc.lft.to/lastmile_qr_scan"}, "lon": -77.0495225, "type": "electric_scooter", "fusion_lat": 0.0, "lat": 38.905427, "name": "96b83c358286b08fc3db6180f5de04be", "fusion_lon": 0.0, "bike_id": "96b83c358286b08fc3db6180f5de04be", "is_disabled": 0, "is_reserved": 0}, {"rental_uris": {"ios": "https://dc.lft.to/lastmile_qr_scan", "android": "https://dc.lft.to/lastmile_qr_scan"}, "lon": -76.99160216666667, "type": "electric_scooter", "fusion_lat": 0.0, "lat": 38.8934295, "name": "2ba8fb33f053fddc7b7f7fb711b4f1a9", "fusion_lon": 0.0, "bike_id": "2ba8fb33f053fddc7b7f7fb711b4f1a9", "is_disabled": 0, "is_reserved": 0}, {"rental_uris": {"ios": "https://dc.lft.to/lastmile_qr_scan", "android": "https://dc.lft.to/lastmile_qr_scan"}, "lon": -77.00925516666666, "type": "electric_scooter", "fusion_lat": 0.0, "lat": 38.896103, "name": "510814b5bb5e5b24180d419760cc5e5a", "fusion_lon": 0.0, "bike_id": "510814b5bb5e5b24180d419760cc5e5a", "is_disabled": 0, "is_reserved": 0}, {"rental_uris": {"ios": "https://dc.lft.to/lastmile_qr_scan", "android": "https://dc.lft.to/lastmile_qr_scan"}, "lon": -76.998672, "type": "electric_scooter", "fusion_lat": 0.0, "lat": 38.9001985, "name": "86f547395052794a9a9c31216731ec33", "fusion_lon": 0.0, "bike_id": "86f547395052794a9a9c31216731ec33", "is_disabled": 0, "is_reserved": 0}, {"rental_uris": {"ios": "https://dc.lft.to/lastmile_qr_scan", "android": "https://dc.lft.to/lastmile_qr_scan"}, "lon": -77.01881416666667, "type": "electric_scooter", "fusion_lat": 0.0, "lat": 38.9061425, "name": "7c1274817da45adb4f13d1779566cb33", "fusion_lon": 0.0, "bike_id": "7c1274817da45adb4f13d1779566cb33", "is_disabled": 0, "is_reserved": 0}, {"rental_uris": {"ios": "https://dc.lft.to/lastmile_qr_scan", "android": "https://dc.lft.to/lastmile_qr_scan"}, "lon": -77.03793183333333, "type": "electric_bike", "fusion_lat": 0.0, "lat": 38.996764666666664, "name": "affd0b8b3e32fed8000fea653d7ec935", "fusion_lon": 0.0, "bike_id": "affd0b8b3e32fed8000fea653d7ec935", "is_disabled": 0, "is_reserved": 0}, {"rental_uris": {"ios": "https://dc.lft.to/lastmile_qr_scan", "android": "https://dc.lft.to/lastmile_qr_scan"}, "lon": -77.042788, "type": "electric_scooter", "fusion_lat": 0.0, "lat": 38.90735083333333, "name": "3fe006a859300b64c45df2d248f527bd", "fusion_lon": 0.0, "bike_id": "3fe006a859300b64c45df2d248f527bd", "is_disabled": 0, "is_reserved": 0}, {"rental_uris": {"ios": "https://dc.lft.to/lastmile_qr_scan", "android": "https://dc.lft.to/lastmile_qr_scan"}, "lon": -77.03336783333333, "type": "electric_scooter", "fusion_lat": 0.0, "lat": 38.903218333333335, "name": "d9907793716977e0a6c6fc10da8df102", "fusion_lon": 0.0, "bike_id": "d9907793716977e0a6c6fc10da8df102", "is_disabled": 0, "is_reserved": 0}, {"rental_uris": {"ios": "https://dc.lft.to/lastmile_qr_scan", "android": "https://dc.lft.to/lastmile_qr_scan"}, "lon": -77.04039366666667, "type": "electric_scooter", "fusion_lat": 0.0, "lat": 38.924367333333336, "name": "b61ce2aee266df2c073fa22a1d9505de", "fusion_lon": 0.0, "bike_id": "b61ce2aee266df2c073fa22a1d9505de", "is_disabled": 0, "is_reserved": 0}, {"rental_uris": {"ios": "https://dc.lft.to/lastmile_qr_scan", "android": "https://dc.lft.to/lastmile_qr_scan"}, "lon": -77.05003516666666, "type": "electric_scooter", "fusion_lat": 0.0, "lat": 38.892335, "name": "c0b843a72f7112bdd2259fd391ba5153", "fusion_lon": 0.0, "bike_id": "c0b843a72f7112bdd2259fd391ba5153", "is_disabled": 0, "is_reserved": 0}, {"rental_uris": {"ios": "https://dc.lft.to/lastmile_qr_scan", "android": "https://dc.lft.to/lastmile_qr_scan"}, "lon": -77.02501216666667, "type": "electric_scooter", "fusion_lat": 0.0, "lat": 38.880284333333336, "name": "8ab52d794a658238dc291591f793b859", "fusion_lon": 0.0, "bike_id": "8ab52d794a658238dc291591f793b859", "is_disabled": 0, "is_reserved": 0}, {"rental_uris": {"ios": "https://dc.lft.to/lastmile_qr_scan", "android": "https://dc.lft.to/lastmile_qr_scan"}, "lon": -77.13179333333333, "type": "electric_bike", "fusion_lat": 0.0, "lat": 38.86908116666667, "name": "e813dc8dae1bce31e05158c497b57b6c", "fusion_lon": 0.0, "bike_id": "e813dc8dae1bce31e05158c497b57b6c", "is_disabled": 0, "is_reserved": 0}, {"rental_uris": {"ios": "https://dc.lft.to/lastmile_qr_scan", "android": "https://dc.lft.to/lastmile_qr_scan"}, "lon": -76.974412, "type": "electric_bike", "fusion_lat": 0.0, "lat": 38.86419083333333, "name": "16cdbb176634e010fce7881a54e8e477", "fusion_lon": 0.0, "bike_id": "16cdbb176634e010fce7881a54e8e477", "is_disabled": 0, "is_reserved": 0}, {"rental_uris": {"ios": "https://dc.lft.to/lastmile_qr_scan", "android": "https://dc.lft.to/lastmile_qr_scan"}, "lon": -77.03940683333333, "type": "electric_scooter", "fusion_lat": 0.0, "lat": 38.931495166666664, "name": "d2fd6678658cb9e197f107d71e7c1f95", "fusion_lon": 0.0, "bike_id": "d2fd6678658cb9e197f107d71e7c1f95", "is_disabled": 0, "is_reserved": 0}, {"rental_uris": {"ios": "https://dc.lft.to/lastmile_qr_scan", "android": "https://dc.lft.to/lastmile_qr_scan"}, "lon": -76.9772865, "type": "electric_scooter", "fusion_lat": 0.0, "lat": 38.87293666666667, "name": "32c90b12c752531154d1f44ca4d04bdc", "fusion_lon": 0.0, "bike_id": "32c90b12c752531154d1f44ca4d04bdc", "is_disabled": 0, "is_reserved": 0}, {"rental_uris": {"ios": "https://dc.lft.to/lastmile_qr_scan", "android": "https://dc.lft.to/lastmile_qr_scan"}, "lon": -77.02488166666667, "type": "electric_scooter", "fusion_lat": 0.0, "lat": 38.90177, "name": "1fc5478555034fd9d29e3aaddf4ec781", "fusion_lon": 0.0, "bike_id": "1fc5478555034fd9d29e3aaddf4ec781", "is_disabled": 0, "is_reserved": 0}, {"rental_uris": {"ios": "https://dc.lft.to/lastmile_qr_scan", "android": "https://dc.lft.to/lastmile_qr_scan"}, "lon": -76.94945466666667, "type": "electric_scooter", "fusion_lat": 0.0, "lat": 38.8838175, "name": "8a7083d85968855cdf3d9eb18be56ee8", "fusion_lon": 0.0, "bike_id": "8a7083d85968855cdf3d9eb18be56ee8", "is_disabled": 0, "is_reserved": 0}, {"rental_uris": {"ios": "https://dc.lft.to/lastmile_qr_scan", "android": "https://dc.lft.to/lastmile_qr_scan"}, "lon": -77.04794366666667, "type": "electric_scooter", "fusion_lat": 0.0, "lat": 38.916354166666665, "name": "a605fab10e0e815621936650913c35d2", "fusion_lon": 0.0, "bike_id": "a605fab10e0e815621936650913c35d2", "is_disabled": 0, "is_reserved": 0}, {"rental_uris": {"ios": "https://dc.lft.to/lastmile_qr_scan", "android": "https://dc.lft.to/lastmile_qr_scan"}, "lon": -77.0506025, "type": "electric_scooter", "fusion_lat": 0.0, "lat": 38.90516866666667, "name": "3a3da98ab42cd2150c444e6b35dd713e", "fusion_lon": 0.0, "bike_id": "3a3da98ab42cd2150c444e6b35dd713e", "is_disabled": 0, "is_reserved": 0}, {"rental_uris": {"ios": "https://dc.lft.to/lastmile_qr_scan", "android": "https://dc.lft.to/lastmile_qr_scan"}, "lon": -77.03269333333333, "type": "electric_scooter", "fusion_lat": 0.0, "lat": 38.91987533333333, "name": "7355a3bee21e873e1da11ad9f5a362c7", "fusion_lon": 0.0, "bike_id": "7355a3bee21e873e1da11ad9f5a362c7", "is_disabled": 0, "is_reserved": 0}, {"rental_uris": {"ios": "https://dc.lft.to/lastmile_qr_scan", "android": "https://dc.lft.to/lastmile_qr_scan"}, "lon": -77.038301, "type": "electric_scooter", "fusion_lat": 0.0, "lat": 38.9217215, "name": "2bb435256851ab80266fd1d818bf5008", "fusion_lon": 0.0, "bike_id": "2bb435256851ab80266fd1d818bf5008", "is_disabled": 0, "is_reserved": 0}, {"rental_uris": {"ios": "https://dc.lft.to/lastmile_qr_scan", "android": "https://dc.lft.to/lastmile_qr_scan"}, "lon": -76.95738683333333, "type": "electric_scooter", "fusion_lat": 0.0, "lat": 38.89225866666666, "name": "f0df8a6f09eb1841db2a0f1f3a0ca61f", "fusion_lon": 0.0, "bike_id": "f0df8a6f09eb1841db2a0f1f3a0ca61f", "is_disabled": 0, "is_reserved": 0}, {"rental_uris": {"ios": "https://dc.lft.to/lastmile_qr_scan", "android": "https://dc.lft.to/lastmile_qr_scan"}, "lon": -77.03211133333333, "type": "electric_scooter", "fusion_lat": 0.0, "lat": 38.90382483333333, "name": "35546aac4bc4bab24ac755b38d00a2cd", "fusion_lon": 0.0, "bike_id": "35546aac4bc4bab24ac755b38d00a2cd", "is_disabled": 0, "is_reserved": 0}, {"rental_uris": {"ios": "https://dc.lft.to/lastmile_qr_scan", "android": "https://dc.lft.to/lastmile_qr_scan"}, "lon": -77.03023683333333, "type": "electric_scooter", "fusion_lat": 0.0, "lat": 38.897269666666666, "name": "a5a2d268eb39575377e1ed4d4625f616", "fusion_lon": 0.0, "bike_id": "a5a2d268eb39575377e1ed4d4625f616", "is_disabled": 0, "is_reserved": 0}, {"rental_uris": {"ios": "https://dc.lft.to/lastmile_qr_scan", "android": "https://dc.lft.to/lastmile_qr_scan"}, "lon": -77.044176, "type": "electric_scooter", "fusion_lat": 0.0, "lat": 38.89226466666667, "name": "e376a1ed5c2acc60c556e8ae593dab5f", "fusion_lon": 0.0, "bike_id": "e376a1ed5c2acc60c556e8ae593dab5f", "is_disabled": 0, "is_reserved": 0}, {"rental_uris": {"ios": "https://dc.lft.to/lastmile_qr_scan", "android": "https://dc.lft.to/lastmile_qr_scan"}, "lon": -77.17848233333333, "type": "electric_bike", "fusion_lat": 0.0, "lat": 39.089010333333334, "name": "a54a60234305b8f6d97b4db7ac2c6844", "fusion_lon": 0.0, "bike_id": "a54a60234305b8f6d97b4db7ac2c6844", "is_disabled": 0, "is_reserved": 0}, {"rental_uris": {"ios": "https://dc.lft.to/lastmile_qr_scan", "android": "https://dc.lft.to/lastmile_qr_scan"}, "lon": -77.04106133333333, "type": "electric_scooter", "fusion_lat": 0.0, "lat": 38.91852016666667, "name": "f4058eb69cfcd7271cf23979133fa4dc", "fusion_lon": 0.0, "bike_id": "f4058eb69cfcd7271cf23979133fa4dc", "is_disabled": 0, "is_reserved": 0}, {"rental_uris": {"ios": "https://dc.lft.to/lastmile_qr_scan", "android": "https://dc.lft.to/lastmile_qr_scan"}, "lon": -77.00728433333333, "type": "electric_scooter", "fusion_lat": 0.0, "lat": 38.884929166666666, "name": "931cd4f41a86c2bb354a7a7feb27430c", "fusion_lon": 0.0, "bike_id": "931cd4f41a86c2bb354a7a7feb27430c", "is_disabled": 0, "is_reserved": 0}, {"rental_uris": {"ios": "https://dc.lft.to/lastmile_qr_scan", "android": "https://dc.lft.to/lastmile_qr_scan"}, "lon": -77.085416, "type": "electric_bike", "fusion_lat": 0.0, "lat": 38.8561975, "name": "cdc937365a9831e7645bfb99ea723bf3", "fusion_lon": 0.0, "bike_id": "cdc937365a9831e7645bfb99ea723bf3", "is_disabled": 0, "is_reserved": 0}, {"rental_uris": {"ios": "https://dc.lft.to/lastmile_qr_scan", "android": "https://dc.lft.to/lastmile_qr_scan"}, "lon": -77.0346755, "type": "electric_scooter", "fusion_lat": 0.0, "lat": 38.934401666666666, "name": "0542f1655647bce70dc9e2a58bb11441", "fusion_lon": 0.0, "bike_id": "0542f1655647bce70dc9e2a58bb11441", "is_disabled": 0, "is_reserved": 0}, {"rental_uris": {"ios": "https://dc.lft.to/lastmile_qr_scan", "android": "https://dc.lft.to/lastmile_qr_scan"}, "lon": -77.031933, "type": "electric_scooter", "fusion_lat": 0.0, "lat": 38.93066233333333, "name": "1dbbc442b8487c1d24f34f216f9c62fe", "fusion_lon": 0.0, "bike_id": "1dbbc442b8487c1d24f34f216f9c62fe", "is_disabled": 0, "is_reserved": 0}, {"rental_uris": {"ios": "https://dc.lft.to/lastmile_qr_scan", "android": "https://dc.lft.to/lastmile_qr_scan"}, "lon": -76.99548883333334, "type": "electric_scooter", "fusion_lat": 0.0, "lat": 38.90027466666667, "name": "9f3d41f294d844ce4848f7c3cab60d1f", "fusion_lon": 0.0, "bike_id": "9f3d41f294d844ce4848f7c3cab60d1f", "is_disabled": 0, "is_reserved": 0}, {"rental_uris": {"ios": "https://dc.lft.to/lastmile_qr_scan", "android": "https://dc.lft.to/lastmile_qr_scan"}, "lon": -77.02652333333333, "type": "electric_scooter", "fusion_lat": 0.0, "lat": 38.892198666666665, "name": "b56e01efa194351b4ebc13d24a5698b9", "fusion_lon": 0.0, "bike_id": "b56e01efa194351b4ebc13d24a5698b9", "is_disabled": 0, "is_reserved": 0}, {"rental_uris": {"ios": "https://dc.lft.to/lastmile_qr_scan", "android": "https://dc.lft.to/lastmile_qr_scan"}, "lon": -77.03354, "type": "electric_scooter", "fusion_lat": 0.0, "lat": 38.8851205, "name": "039939135733899c494cdabf20b7fad4", "fusion_lon": 0.0, "bike_id": "039939135733899c494cdabf20b7fad4", "is_disabled": 0, "is_reserved": 0}, {"rental_uris": {"ios": "https://dc.lft.to/lastmile_qr_scan", "android": "https://dc.lft.to/lastmile_qr_scan"}, "lon": -77.00660483333333, "type": "electric_scooter", "fusion_lat": 0.0, "lat": 38.874744166666666, "name": "f9d98bdc6d5c35e027aa7cc31766572b", "fusion_lon": 0.0, "bike_id": "f9d98bdc6d5c35e027aa7cc31766572b", "is_disabled": 0, "is_reserved": 0}, {"rental_uris": {"ios": "https://dc.lft.to/lastmile_qr_scan", "android": "https://dc.lft.to/lastmile_qr_scan"}, "lon": -77.02976916666667, "type": "electric_scooter", "fusion_lat": 0.0, "lat": 38.962292, "name": "3557cc94ab7197d74118aec82bf3a64b", "fusion_lon": 0.0, "bike_id": "3557cc94ab7197d74118aec82bf3a64b", "is_disabled": 0, "is_reserved": 0}, {"rental_uris": {"ios": "https://dc.lft.to/lastmile_qr_scan", "android": "https://dc.lft.to/lastmile_qr_scan"}, "lon": -76.98160933333334, "type": "electric_scooter", "fusion_lat": 0.0, "lat": 38.900179666666666, "name": "444a2f46407a3713e476a8f61e05d632", "fusion_lon": 0.0, "bike_id": "444a2f46407a3713e476a8f61e05d632", "is_disabled": 0, "is_reserved": 0}, {"rental_uris": {"ios": "https://dc.lft.to/lastmile_qr_scan", "android": "https://dc.lft.to/lastmile_qr_scan"}, "lon": -77.03842616666667, "type": "electric_scooter", "fusion_lat": 0.0, "lat": 38.9097455, "name": "de46a3aa41c2a31ff77a925c3d4fcb49", "fusion_lon": 0.0, "bike_id": "de46a3aa41c2a31ff77a925c3d4fcb49", "is_disabled": 0, "is_reserved": 0}, {"rental_uris": {"ios": "https://dc.lft.to/lastmile_qr_scan", "android": "https://dc.lft.to/lastmile_qr_scan"}, "lon": -76.96303766666666, "type": "electric_bike", "fusion_lat": 0.0, "lat": 38.92708916666667, "name": "56539c33b1f54c9f9b4a875bc47bad31", "fusion_lon": 0.0, "bike_id": "56539c33b1f54c9f9b4a875bc47bad31", "is_disabled": 0, "is_reserved": 0}, {"rental_uris": {"ios": "https://dc.lft.to/lastmile_qr_scan", "android": "https://dc.lft.to/lastmile_qr_scan"}, "lon": -77.0118665, "type": "electric_scooter", "fusion_lat": 0.0, "lat": 38.9002765, "name": "6b5699007b74635d3f32346a39164f57", "fusion_lon": 0.0, "bike_id": "6b5699007b74635d3f32346a39164f57", "is_disabled": 0, "is_reserved": 0}, {"rental_uris": {"ios": "https://dc.lft.to/lastmile_qr_scan", "android": "https://dc.lft.to/lastmile_qr_scan"}, "lon": -77.0445645, "type": "electric_scooter", "fusion_lat": 0.0, "lat": 38.911185, "name": "9572098532d85f79b73534c1a0d50a36", "fusion_lon": 0.0, "bike_id": "9572098532d85f79b73534c1a0d50a36", "is_disabled": 0, "is_reserved": 0}, {"rental_uris": {"ios": "https://dc.lft.to/lastmile_qr_scan", "android": "https://dc.lft.to/lastmile_qr_scan"}, "lon": -77.00214316666667, "type": "electric_scooter", "fusion_lat": 0.0, "lat": 38.90033833333333, "name": "21a5def1df3dd081e7a95b2052f1228e", "fusion_lon": 0.0, "bike_id": "21a5def1df3dd081e7a95b2052f1228e", "is_disabled": 0, "is_reserved": 0}, {"rental_uris": {"ios": "https://dc.lft.to/lastmile_qr_scan", "android": "https://dc.lft.to/lastmile_qr_scan"}, "lon": -77.05005683333333, "type": "electric_scooter", "fusion_lat": 0.0, "lat": 38.892299333333334, "name": "8015d1b888927bd26e007b792d70e3b1", "fusion_lon": 0.0, "bike_id": "8015d1b888927bd26e007b792d70e3b1", "is_disabled": 0, "is_reserved": 0}, {"rental_uris": {"ios": "https://dc.lft.to/lastmile_qr_scan", "android": "https://dc.lft.to/lastmile_qr_scan"}, "lon": -77.0337225, "type": "electric_scooter", "fusion_lat": 0.0, "lat": 38.92875566666667, "name": "540e51f0427b1f86a75c63a9681ab101", "fusion_lon": 0.0, "bike_id": "540e51f0427b1f86a75c63a9681ab101", "is_disabled": 0, "is_reserved": 0}, {"rental_uris": {"ios": "https://dc.lft.to/lastmile_qr_scan", "android": "https://dc.lft.to/lastmile_qr_scan"}, "lon": -76.93162066666666, "type": "electric_scooter", "fusion_lat": 0.0, "lat": 38.8988135, "name": "fc2cc67a892bc9d3ec5ee45e6154d79b", "fusion_lon": 0.0, "bike_id": "fc2cc67a892bc9d3ec5ee45e6154d79b", "is_disabled": 0, "is_reserved": 0}, {"rental_uris": {"ios": "https://dc.lft.to/lastmile_qr_scan", "android": "https://dc.lft.to/lastmile_qr_scan"}, "lon": -76.99497933333333, "type": "electric_scooter", "fusion_lat": 0.0, "lat": 38.881796666666666, "name": "b745feb7e87c1f110bfa1ea51bc26bd6", "fusion_lon": 0.0, "bike_id": "b745feb7e87c1f110bfa1ea51bc26bd6", "is_disabled": 0, "is_reserved": 0}, {"rental_uris": {"ios": "https://dc.lft.to/lastmile_qr_scan", "android": "https://dc.lft.to/lastmile_qr_scan"}, "lon": -77.0296985, "type": "electric_scooter", "fusion_lat": 0.0, "lat": 38.90496516666666, "name": "a101a2f199ea071a4f716970d824786c", "fusion_lon": 0.0, "bike_id": "a101a2f199ea071a4f716970d824786c", "is_disabled": 0, "is_reserved": 0}, {"rental_uris": {"ios": "https://dc.lft.to/lastmile_qr_scan", "android": "https://dc.lft.to/lastmile_qr_scan"}, "lon": -77.022245, "type": "electric_scooter", "fusion_lat": 0.0, "lat": 38.897867166666664, "name": "f022b94fd6d516c154c03ca2b5361fa2", "fusion_lon": 0.0, "bike_id": "f022b94fd6d516c154c03ca2b5361fa2", "is_disabled": 0, "is_reserved": 0}, {"rental_uris": {"ios": "https://dc.lft.to/lastmile_qr_scan", "android": "https://dc.lft.to/lastmile_qr_scan"}, "lon": -77.051598, "type": "electric_scooter", "fusion_lat": 0.0, "lat": 38.89768766666667, "name": "7a479e2dd52653f222ea0119f6e45c9c", "fusion_lon": 0.0, "bike_id": "7a479e2dd52653f222ea0119f6e45c9c", "is_disabled": 0, "is_reserved": 0}, {"rental_uris": {"ios": "https://dc.lft.to/lastmile_qr_scan", "android": "https://dc.lft.to/lastmile_qr_scan"}, "lon": -77.0137055, "type": "electric_scooter", "fusion_lat": 0.0, "lat": 38.928424166666666, "name": "a6aa7eb58385c9be8f359c88f4a3e015", "fusion_lon": 0.0, "bike_id": "a6aa7eb58385c9be8f359c88f4a3e015", "is_disabled": 0, "is_reserved": 0}, {"rental_uris": {"ios": "https://dc.lft.to/lastmile_qr_scan", "android": "https://dc.lft.to/lastmile_qr_scan"}, "lon": -76.96556833333334, "type": "electric_bike", "fusion_lat": 0.0, "lat": 38.95103016666667, "name": "51635712eb9d477458c36d0e6a8c3c57", "fusion_lon": 0.0, "bike_id": "51635712eb9d477458c36d0e6a8c3c57", "is_disabled": 0, "is_reserved": 0}, {"rental_uris": {"ios": "https://dc.lft.to/lastmile_qr_scan", "android": "https://dc.lft.to/lastmile_qr_scan"}, "lon": -77.0259485, "type": "electric_scooter", "fusion_lat": 0.0, "lat": 38.91993016666667, "name": "7430d08f4d80acc3b3bd75001806fd32", "fusion_lon": 0.0, "bike_id": "7430d08f4d80acc3b3bd75001806fd32", "is_disabled": 0, "is_reserved": 0}, {"rental_uris": {"ios": "https://dc.lft.to/lastmile_qr_scan", "android": "https://dc.lft.to/lastmile_qr_scan"}, "lon": -76.904413, "type": "electric_bike", "fusion_lat": 0.0, "lat": 38.8977855, "name": "310664a44052b9b10c2d81fdc9d0602e", "fusion_lon": 0.0, "bike_id": "310664a44052b9b10c2d81fdc9d0602e", "is_disabled": 0, "is_reserved": 0}, {"rental_uris": {"ios": "https://dc.lft.to/lastmile_qr_scan", "android": "https://dc.lft.to/lastmile_qr_scan"}, "lon": -77.0357295, "type": "electric_scooter", "fusion_lat": 0.0, "lat": 38.902381166666665, "name": "7453615790c850bdcfa9c49a26b0e92e", "fusion_lon": 0.0, "bike_id": "7453615790c850bdcfa9c49a26b0e92e", "is_disabled": 0, "is_reserved": 0}, {"rental_uris": {"ios": "https://dc.lft.to/lastmile_qr_scan", "android": "https://dc.lft.to/lastmile_qr_scan"}, "lon": -77.02470416666667, "type": "electric_scooter", "fusion_lat": 0.0, "lat": 38.9329965, "name": "fc1d53cc1a633138a33e2e54cbeeeaae", "fusion_lon": 0.0, "bike_id": "fc1d53cc1a633138a33e2e54cbeeeaae", "is_disabled": 0, "is_reserved": 0}, {"rental_uris": {"ios": "https://dc.lft.to/lastmile_qr_scan", "android": "https://dc.lft.to/lastmile_qr_scan"}, "lon": -77.04877783333333, "type": "electric_scooter", "fusion_lat": 0.0, "lat": 38.91240583333333, "name": "2d16a66927362d12a202f283f89dd806", "fusion_lon": 0.0, "bike_id": "2d16a66927362d12a202f283f89dd806", "is_disabled": 0, "is_reserved": 0}, {"rental_uris": {"ios": "https://dc.lft.to/lastmile_qr_scan", "android": "https://dc.lft.to/lastmile_qr_scan"}, "lon": -77.030829, "type": "electric_scooter", "fusion_lat": 0.0, "lat": 38.90990866666667, "name": "0f27e3dd8f7944457ed508e898dc86ae", "fusion_lon": 0.0, "bike_id": "0f27e3dd8f7944457ed508e898dc86ae", "is_disabled": 0, "is_reserved": 0}, {"rental_uris": {"ios": "https://dc.lft.to/lastmile_qr_scan", "android": "https://dc.lft.to/lastmile_qr_scan"}, "lon": -77.01206616666667, "type": "electric_scooter", "fusion_lat": 0.0, "lat": 38.91526016666667, "name": "b5076dddf53ee45f0a6dbcabcf760f8e", "fusion_lon": 0.0, "bike_id": "b5076dddf53ee45f0a6dbcabcf760f8e", "is_disabled": 0, "is_reserved": 0}, {"rental_uris": {"ios": "https://dc.lft.to/lastmile_qr_scan", "android": "https://dc.lft.to/lastmile_qr_scan"}, "lon": -77.03455533333333, "type": "electric_scooter", "fusion_lat": 0.0, "lat": 38.903546666666664, "name": "5c0cf2ca9cfb086866f44f78345cf648", "fusion_lon": 0.0, "bike_id": "5c0cf2ca9cfb086866f44f78345cf648", "is_disabled": 0, "is_reserved": 0}, {"rental_uris": {"ios": "https://dc.lft.to/lastmile_qr_scan", "android": "https://dc.lft.to/lastmile_qr_scan"}, "lon": -77.00728783333334, "type": "electric_scooter", "fusion_lat": 0.0, "lat": 38.884964, "name": "f9e6056d48005d412d1abffbe53cba69", "fusion_lon": 0.0, "bike_id": "f9e6056d48005d412d1abffbe53cba69", "is_disabled": 0, "is_reserved": 0}, {"rental_uris": {"ios": "https://dc.lft.to/lastmile_qr_scan", "android": "https://dc.lft.to/lastmile_qr_scan"}, "lon": -77.04603283333333, "type": "electric_scooter", "fusion_lat": 0.0, "lat": 38.91400383333333, "name": "90324d20da36a9bdc5bea2ab7b3df5ed", "fusion_lon": 0.0, "bike_id": "90324d20da36a9bdc5bea2ab7b3df5ed", "is_disabled": 0, "is_reserved": 0}, {"rental_uris": {"ios": "https://dc.lft.to/lastmile_qr_scan", "android": "https://dc.lft.to/lastmile_qr_scan"}, "lon": -77.032194, "type": "electric_scooter", "fusion_lat": 0.0, "lat": 38.90380966666667, "name": "2445485bf26b2b511331d0c0c80285d2", "fusion_lon": 0.0, "bike_id": "2445485bf26b2b511331d0c0c80285d2", "is_disabled": 0, "is_reserved": 0}, {"rental_uris": {"ios": "https://dc.lft.to/lastmile_qr_scan", "android": "https://dc.lft.to/lastmile_qr_scan"}, "lon": -77.01511533333333, "type": "electric_scooter", "fusion_lat": 0.0, "lat": 38.887334333333335, "name": "8ecc457ff50f2d4e744a7151f9b9e89c", "fusion_lon": 0.0, "bike_id": "8ecc457ff50f2d4e744a7151f9b9e89c", "is_disabled": 0, "is_reserved": 0}, {"rental_uris": {"ios": "https://dc.lft.to/lastmile_qr_scan", "android": "https://dc.lft.to/lastmile_qr_scan"}, "lon": -77.01747216666666, "type": "electric_scooter", "fusion_lat": 0.0, "lat": 38.91711883333333, "name": "d6610ccd258b3309e72c6b060da1182b", "fusion_lon": 0.0, "bike_id": "d6610ccd258b3309e72c6b060da1182b", "is_disabled": 0, "is_reserved": 0}, {"rental_uris": {"ios": "https://dc.lft.to/lastmile_qr_scan", "android": "https://dc.lft.to/lastmile_qr_scan"}, "lon": -77.02515033333333, "type": "electric_scooter", "fusion_lat": 0.0, "lat": 38.936456666666665, "name": "f8c66f67a78bce99ac8d25f005e08c9e", "fusion_lon": 0.0, "bike_id": "f8c66f67a78bce99ac8d25f005e08c9e", "is_disabled": 0, "is_reserved": 0}, {"rental_uris": {"ios": "https://dc.lft.to/lastmile_qr_scan", "android": "https://dc.lft.to/lastmile_qr_scan"}, "lon": -77.04477916666667, "type": "electric_scooter", "fusion_lat": 0.0, "lat": 38.91572683333333, "name": "ed625c4ea0d6a2644f1fe21715c1c1f6", "fusion_lon": 0.0, "bike_id": "ed625c4ea0d6a2644f1fe21715c1c1f6", "is_disabled": 0, "is_reserved": 0}, {"rental_uris": {"ios": "https://dc.lft.to/lastmile_qr_scan", "android": "https://dc.lft.to/lastmile_qr_scan"}, "lon": -77.03063766666666, "type": "electric_scooter", "fusion_lat": 0.0, "lat": 38.90025216666667, "name": "a99b40e93d5e2b29d27ba7b4e9d3f2e1", "fusion_lon": 0.0, "bike_id": "a99b40e93d5e2b29d27ba7b4e9d3f2e1", "is_disabled": 0, "is_reserved": 0}, {"rental_uris": {"ios": "https://dc.lft.to/lastmile_qr_scan", "android": "https://dc.lft.to/lastmile_qr_scan"}, "lon": -77.0322625, "type": "electric_scooter", "fusion_lat": 0.0, "lat": 38.9182185, "name": "6510872d554464d5a2e7cfda4d33e010", "fusion_lon": 0.0, "bike_id": "6510872d554464d5a2e7cfda4d33e010", "is_disabled": 0, "is_reserved": 0}, {"rental_uris": {"ios": "https://dc.lft.to/lastmile_qr_scan", "android": "https://dc.lft.to/lastmile_qr_scan"}, "lon": -77.03288616666667, "type": "electric_scooter", "fusion_lat": 0.0, "lat": 38.90468533333333, "name": "dc46e5fa15fdb07a8da215198853c3c2", "fusion_lon": 0.0, "bike_id": "dc46e5fa15fdb07a8da215198853c3c2", "is_disabled": 0, "is_reserved": 0}, {"rental_uris": {"ios": "https://dc.lft.to/lastmile_qr_scan", "android": "https://dc.lft.to/lastmile_qr_scan"}, "lon": -77.10508383333334, "type": "electric_bike", "fusion_lat": 0.0, "lat": 38.92853, "name": "eebe6e5222873d8364b6769f2e5cf36b", "fusion_lon": 0.0, "bike_id": "eebe6e5222873d8364b6769f2e5cf36b", "is_disabled": 0, "is_reserved": 0}, {"rental_uris": {"ios": "https://dc.lft.to/lastmile_qr_scan", "android": "https://dc.lft.to/lastmile_qr_scan"}, "lon": -77.08945666666666, "type": "electric_bike", "fusion_lat": 0.0, "lat": 38.8411045, "name": "02af2721aeb694307cfac744dc2e7645", "fusion_lon": 0.0, "bike_id": "02af2721aeb694307cfac744dc2e7645", "is_disabled": 0, "is_reserved": 0}, {"rental_uris": {"ios": "https://dc.lft.to/lastmile_qr_scan", "android": "https://dc.lft.to/lastmile_qr_scan"}, "lon": -77.00276166666667, "type": "electric_scooter", "fusion_lat": 0.0, "lat": 38.89740416666667, "name": "afcc1aa34ab5c2a336e7a54d6b464fbf", "fusion_lon": 0.0, "bike_id": "afcc1aa34ab5c2a336e7a54d6b464fbf", "is_disabled": 0, "is_reserved": 0}, {"rental_uris": {"ios": "https://dc.lft.to/lastmile_qr_scan", "android": "https://dc.lft.to/lastmile_qr_scan"}, "lon": -77.05133533333333, "type": "electric_scooter", "fusion_lat": 0.0, "lat": 38.90537233333333, "name": "3fee62c418bd70ed5f1c5fa35937d522", "fusion_lon": 0.0, "bike_id": "3fee62c418bd70ed5f1c5fa35937d522", "is_disabled": 0, "is_reserved": 0}, {"rental_uris": {"ios": "https://dc.lft.to/lastmile_qr_scan", "android": "https://dc.lft.to/lastmile_qr_scan"}, "lon": -77.02961166666667, "type": "electric_scooter", "fusion_lat": 0.0, "lat": 38.915923, "name": "e682cde85944fe34572f1bd77c61c99b", "fusion_lon": 0.0, "bike_id": "e682cde85944fe34572f1bd77c61c99b", "is_disabled": 0, "is_reserved": 0}, {"rental_uris": {"ios": "https://dc.lft.to/lastmile_qr_scan", "android": "https://dc.lft.to/lastmile_qr_scan"}, "lon": -77.022131, "type": "electric_scooter", "fusion_lat": 0.0, "lat": 38.88771633333333, "name": "d2f2a029b930e7660acd087ed81bf15c", "fusion_lon": 0.0, "bike_id": "d2f2a029b930e7660acd087ed81bf15c", "is_disabled": 0, "is_reserved": 0}, {"rental_uris": {"ios": "https://dc.lft.to/lastmile_qr_scan", "android": "https://dc.lft.to/lastmile_qr_scan"}, "lon": -77.00658733333333, "type": "electric_scooter", "fusion_lat": 0.0, "lat": 38.94460433333333, "name": "f7881283ead1c8ed6699fb566b53e71a", "fusion_lon": 0.0, "bike_id": "f7881283ead1c8ed6699fb566b53e71a", "is_disabled": 0, "is_reserved": 0}, {"rental_uris": {"ios": "https://dc.lft.to/lastmile_qr_scan", "android": "https://dc.lft.to/lastmile_qr_scan"}, "lon": -76.98413033333334, "type": "electric_scooter", "fusion_lat": 0.0, "lat": 38.859715, "name": "aef0d1ee9d175a7c925bf583afff7e95", "fusion_lon": 0.0, "bike_id": "aef0d1ee9d175a7c925bf583afff7e95", "is_disabled": 0, "is_reserved": 0}, {"rental_uris": {"ios": "https://dc.lft.to/lastmile_qr_scan", "android": "https://dc.lft.to/lastmile_qr_scan"}, "lon": -77.04892816666667, "type": "electric_scooter", "fusion_lat": 0.0, "lat": 38.90356033333333, "name": "aa0dac1fb9e064ca887768058cfe268c", "fusion_lon": 0.0, "bike_id": "aa0dac1fb9e064ca887768058cfe268c", "is_disabled": 0, "is_reserved": 0}, {"rental_uris": {"ios": "https://dc.lft.to/lastmile_qr_scan", "android": "https://dc.lft.to/lastmile_qr_scan"}, "lon": -77.05341266666667, "type": "electric_scooter", "fusion_lat": 0.0, "lat": 38.902388, "name": "9e64c1c2be8fb8a3aa04da02f08750c5", "fusion_lon": 0.0, "bike_id": "9e64c1c2be8fb8a3aa04da02f08750c5", "is_disabled": 0, "is_reserved": 0}, {"rental_uris": {"ios": "https://dc.lft.to/lastmile_qr_scan", "android": "https://dc.lft.to/lastmile_qr_scan"}, "lon": -77.048663, "type": "electric_scooter", "fusion_lat": 0.0, "lat": 38.892222333333336, "name": "cd0ec2708ed6dd669c6762d667eaa274", "fusion_lon": 0.0, "bike_id": "cd0ec2708ed6dd669c6762d667eaa274", "is_disabled": 0, "is_reserved": 0}, {"rental_uris": {"ios": "https://dc.lft.to/lastmile_qr_scan", "android": "https://dc.lft.to/lastmile_qr_scan"}, "lon": -77.026976, "type": "electric_scooter", "fusion_lat": 0.0, "lat": 38.927838, "name": "5efe7c0874b1ee70d616b89369fbfd4a", "fusion_lon": 0.0, "bike_id": "5efe7c0874b1ee70d616b89369fbfd4a", "is_disabled": 0, "is_reserved": 0}, {"rental_uris": {"ios": "https://dc.lft.to/lastmile_qr_scan", "android": "https://dc.lft.to/lastmile_qr_scan"}, "lon": -77.02994583333333, "type": "electric_scooter", "fusion_lat": 0.0, "lat": 38.900158166666664, "name": "4fb52a588d9bcd5f3fb58d9db18daeb4", "fusion_lon": 0.0, "bike_id": "4fb52a588d9bcd5f3fb58d9db18daeb4", "is_disabled": 0, "is_reserved": 0}, {"rental_uris": {"ios": "https://dc.lft.to/lastmile_qr_scan", "android": "https://dc.lft.to/lastmile_qr_scan"}, "lon": -77.04029066666666, "type": "electric_scooter", "fusion_lat": 0.0, "lat": 38.923483, "name": "e3018d984e5b95f3758c687244bf7656", "fusion_lon": 0.0, "bike_id": "e3018d984e5b95f3758c687244bf7656", "is_disabled": 0, "is_reserved": 0}, {"rental_uris": {"ios": "https://dc.lft.to/lastmile_qr_scan", "android": "https://dc.lft.to/lastmile_qr_scan"}, "lon": -77.00647633333334, "type": "electric_scooter", "fusion_lat": 0.0, "lat": 38.917024833333336, "name": "2433167515deccfaed6ad0ddcef99912", "fusion_lon": 0.0, "bike_id": "2433167515deccfaed6ad0ddcef99912", "is_disabled": 0, "is_reserved": 0}, {"rental_uris": {"ios": "https://dc.lft.to/lastmile_qr_scan", "android": "https://dc.lft.to/lastmile_qr_scan"}, "lon": -77.03398683333333, "type": "electric_scooter", "fusion_lat": 0.0, "lat": 38.90980616666667, "name": "808627192f05a87f0834530ecc133559", "fusion_lon": 0.0, "bike_id": "808627192f05a87f0834530ecc133559", "is_disabled": 0, "is_reserved": 0}, {"rental_uris": {"ios": "https://dc.lft.to/lastmile_qr_scan", "android": "https://dc.lft.to/lastmile_qr_scan"}, "lon": -77.0640215, "type": "electric_bike", "fusion_lat": 0.0, "lat": 38.843464833333336, "name": "f111cee2ba81de98fe99682f02e5e600", "fusion_lon": 0.0, "bike_id": "f111cee2ba81de98fe99682f02e5e600", "is_disabled": 0, "is_reserved": 0}, {"rental_uris": {"ios": "https://dc.lft.to/lastmile_qr_scan", "android": "https://dc.lft.to/lastmile_qr_scan"}, "lon": -77.03936416666667, "type": "electric_scooter", "fusion_lat": 0.0, "lat": 38.90476833333334, "name": "dab189fdff199ada6ba8200cd85d0565", "fusion_lon": 0.0, "bike_id": "dab189fdff199ada6ba8200cd85d0565", "is_disabled": 0, "is_reserved": 0}, {"rental_uris": {"ios": "https://dc.lft.to/lastmile_qr_scan", "android": "https://dc.lft.to/lastmile_qr_scan"}, "lon": -77.02399083333333, "type": "electric_scooter", "fusion_lat": 0.0, "lat": 38.915944333333336, "name": "d3f00e2dd402ffcbd3fcbf7c617996ce", "fusion_lon": 0.0, "bike_id": "d3f00e2dd402ffcbd3fcbf7c617996ce", "is_disabled": 0, "is_reserved": 0}, {"rental_uris": {"ios": "https://dc.lft.to/lastmile_qr_scan", "android": "https://dc.lft.to/lastmile_qr_scan"}, "lon": -76.9466625, "type": "electric_scooter", "fusion_lat": 0.0, "lat": 38.8987155, "name": "7dfbfe0f454e603302c9272fa798c591", "fusion_lon": 0.0, "bike_id": "7dfbfe0f454e603302c9272fa798c591", "is_disabled": 0, "is_reserved": 0}, {"rental_uris": {"ios": "https://dc.lft.to/lastmile_qr_scan", "android": "https://dc.lft.to/lastmile_qr_scan"}, "lon": -77.03206083333333, "type": "electric_scooter", "fusion_lat": 0.0, "lat": 38.916056166666664, "name": "9f8bd4453bfa1096f11e53fe47892e9b", "fusion_lon": 0.0, "bike_id": "9f8bd4453bfa1096f11e53fe47892e9b", "is_disabled": 0, "is_reserved": 0}, {"rental_uris": {"ios": "https://dc.lft.to/lastmile_qr_scan", "android": "https://dc.lft.to/lastmile_qr_scan"}, "lon": -76.99817916666666, "type": "electric_bike", "fusion_lat": 0.0, "lat": 38.844340333333335, "name": "b24cd47e820a306c8f96df3bf46ec439", "fusion_lon": 0.0, "bike_id": "b24cd47e820a306c8f96df3bf46ec439", "is_disabled": 0, "is_reserved": 0}, {"rental_uris": {"ios": "https://dc.lft.to/lastmile_qr_scan", "android": "https://dc.lft.to/lastmile_qr_scan"}, "lon": -77.01188616666667, "type": "electric_scooter", "fusion_lat": 0.0, "lat": 38.91546666666667, "name": "5836345c5ca53d2e890634178745108d", "fusion_lon": 0.0, "bike_id": "5836345c5ca53d2e890634178745108d", "is_disabled": 0, "is_reserved": 0}, {"rental_uris": {"ios": "https://dc.lft.to/lastmile_qr_scan", "android": "https://dc.lft.to/lastmile_qr_scan"}, "lon": -77.00068266666666, "type": "electric_scooter", "fusion_lat": 0.0, "lat": 38.925546833333335, "name": "ffdffde56c3a9ed2ef1113fdc1660ebc", "fusion_lon": 0.0, "bike_id": "ffdffde56c3a9ed2ef1113fdc1660ebc", "is_disabled": 0, "is_reserved": 0}, {"rental_uris": {"ios": "https://dc.lft.to/lastmile_qr_scan", "android": "https://dc.lft.to/lastmile_qr_scan"}, "lon": -76.98940416666667, "type": "electric_bike", "fusion_lat": 0.0, "lat": 38.92859816666667, "name": "ee4be412c06a7f9c6ee4cf51ef29ae8e", "fusion_lon": 0.0, "bike_id": "ee4be412c06a7f9c6ee4cf51ef29ae8e", "is_disabled": 0, "is_reserved": 0}, {"rental_uris": {"ios": "https://dc.lft.to/lastmile_qr_scan", "android": "https://dc.lft.to/lastmile_qr_scan"}, "lon": -77.0481525, "type": "electric_scooter", "fusion_lat": 0.0, "lat": 38.920275, "name": "c32d555e72463de2a56e23af12a4d867", "fusion_lon": 0.0, "bike_id": "c32d555e72463de2a56e23af12a4d867", "is_disabled": 0, "is_reserved": 0}, {"rental_uris": {"ios": "https://dc.lft.to/lastmile_qr_scan", "android": "https://dc.lft.to/lastmile_qr_scan"}, "lon": -77.04705833333334, "type": "electric_scooter", "fusion_lat": 0.0, "lat": 38.917849, "name": "793fd7f8db7e7d2450de7f6db240a404", "fusion_lon": 0.0, "bike_id": "793fd7f8db7e7d2450de7f6db240a404", "is_disabled": 0, "is_reserved": 0}, {"rental_uris": {"ios": "https://dc.lft.to/lastmile_qr_scan", "android": "https://dc.lft.to/lastmile_qr_scan"}, "lon": -76.946527, "type": "electric_scooter", "fusion_lat": 0.0, "lat": 38.898264, "name": "6f685c312909f196cd7bff7a85565f3f", "fusion_lon": 0.0, "bike_id": "6f685c312909f196cd7bff7a85565f3f", "is_disabled": 0, "is_reserved": 0}, {"rental_uris": {"ios": "https://dc.lft.to/lastmile_qr_scan", "android": "https://dc.lft.to/lastmile_qr_scan"}, "lon": -77.05881633333334, "type": "electric_scooter", "fusion_lat": 0.0, "lat": 38.936367833333335, "name": "d1dae7e15d998469ac0c5878ce75905e", "fusion_lon": 0.0, "bike_id": "d1dae7e15d998469ac0c5878ce75905e", "is_disabled": 0, "is_reserved": 0}, {"rental_uris": {"ios": "https://dc.lft.to/lastmile_qr_scan", "android": "https://dc.lft.to/lastmile_qr_scan"}, "lon": -76.97252583333334, "type": "electric_bike", "fusion_lat": 0.0, "lat": 38.957434, "name": "e79dbb40b79270ccbce8de351bd7be6e", "fusion_lon": 0.0, "bike_id": "e79dbb40b79270ccbce8de351bd7be6e", "is_disabled": 0, "is_reserved": 0}, {"rental_uris": {"ios": "https://dc.lft.to/lastmile_qr_scan", "android": "https://dc.lft.to/lastmile_qr_scan"}, "lon": -77.0384235, "type": "electric_scooter", "fusion_lat": 0.0, "lat": 38.910888166666666, "name": "7e90fd4f864024b50fe4167212442f68", "fusion_lon": 0.0, "bike_id": "7e90fd4f864024b50fe4167212442f68", "is_disabled": 0, "is_reserved": 0}, {"rental_uris": {"ios": "https://dc.lft.to/lastmile_qr_scan", "android": "https://dc.lft.to/lastmile_qr_scan"}, "lon": -77.0344715, "type": "electric_scooter", "fusion_lat": 0.0, "lat": 38.9179555, "name": "f2586bbfdfbee4eb4975c016d42765a6", "fusion_lon": 0.0, "bike_id": "f2586bbfdfbee4eb4975c016d42765a6", "is_disabled": 0, "is_reserved": 0}, {"rental_uris": {"ios": "https://dc.lft.to/lastmile_qr_scan", "android": "https://dc.lft.to/lastmile_qr_scan"}, "lon": -77.03050683333333, "type": "electric_scooter", "fusion_lat": 0.0, "lat": 38.926877833333336, "name": "f61e29b7aa0c3c13b1db84fe1c10cc30", "fusion_lon": 0.0, "bike_id": "f61e29b7aa0c3c13b1db84fe1c10cc30", "is_disabled": 0, "is_reserved": 0}, {"rental_uris": {"ios": "https://dc.lft.to/lastmile_qr_scan", "android": "https://dc.lft.to/lastmile_qr_scan"}, "lon": -77.03179033333333, "type": "electric_scooter", "fusion_lat": 0.0, "lat": 38.919249, "name": "15a79f56dad939e462145b4a15e4ea10", "fusion_lon": 0.0, "bike_id": "15a79f56dad939e462145b4a15e4ea10", "is_disabled": 0, "is_reserved": 0}, {"rental_uris": {"ios": "https://dc.lft.to/lastmile_qr_scan", "android": "https://dc.lft.to/lastmile_qr_scan"}, "lon": -77.0295855, "type": "electric_scooter", "fusion_lat": 0.0, "lat": 38.9050105, "name": "6b706da8dbe0091374b5ce1454fff409", "fusion_lon": 0.0, "bike_id": "6b706da8dbe0091374b5ce1454fff409", "is_disabled": 0, "is_reserved": 0}, {"rental_uris": {"ios": "https://dc.lft.to/lastmile_qr_scan", "android": "https://dc.lft.to/lastmile_qr_scan"}, "lon": -77.02397783333333, "type": "electric_scooter", "fusion_lat": 0.0, "lat": 38.916059, "name": "9a4b90d710e738dd93bd3412ae0d832f", "fusion_lon": 0.0, "bike_id": "9a4b90d710e738dd93bd3412ae0d832f", "is_disabled": 0, "is_reserved": 0}, {"rental_uris": {"ios": "https://dc.lft.to/lastmile_qr_scan", "android": "https://dc.lft.to/lastmile_qr_scan"}, "lon": -77.0428935, "type": "electric_scooter", "fusion_lat": 0.0, "lat": 38.91047783333333, "name": "76c7a88a97547cc10c79fde7da97e401", "fusion_lon": 0.0, "bike_id": "76c7a88a97547cc10c79fde7da97e401", "is_disabled": 0, "is_reserved": 0}, {"rental_uris": {"ios": "https://dc.lft.to/lastmile_qr_scan", "android": "https://dc.lft.to/lastmile_qr_scan"}, "lon": -77.03212583333334, "type": "electric_scooter", "fusion_lat": 0.0, "lat": 38.93755216666667, "name": "de73500105e4e4383ba2ffd21872b4f1", "fusion_lon": 0.0, "bike_id": "de73500105e4e4383ba2ffd21872b4f1", "is_disabled": 0, "is_reserved": 0}, {"rental_uris": {"ios": "https://dc.lft.to/lastmile_qr_scan", "android": "https://dc.lft.to/lastmile_qr_scan"}, "lon": -77.01543183333334, "type": "electric_scooter", "fusion_lat": 0.0, "lat": 38.9026975, "name": "032ffa45ada0919f2a9306517d4174fb", "fusion_lon": 0.0, "bike_id": "032ffa45ada0919f2a9306517d4174fb", "is_disabled": 0, "is_reserved": 0}, {"rental_uris": {"ios": "https://dc.lft.to/lastmile_qr_scan", "android": "https://dc.lft.to/lastmile_qr_scan"}, "lon": -77.02057383333333, "type": "electric_scooter", "fusion_lat": 0.0, "lat": 38.9042645, "name": "29d70bfd37893af7931f61a1016e28f5", "fusion_lon": 0.0, "bike_id": "29d70bfd37893af7931f61a1016e28f5", "is_disabled": 0, "is_reserved": 0}, {"rental_uris": {"ios": "https://dc.lft.to/lastmile_qr_scan", "android": "https://dc.lft.to/lastmile_qr_scan"}, "lon": -77.04625916666667, "type": "electric_bike", "fusion_lat": 0.0, "lat": 38.999106, "name": "0748573eed16731ee172b2639b67b182", "fusion_lon": 0.0, "bike_id": "0748573eed16731ee172b2639b67b182", "is_disabled": 0, "is_reserved": 0}, {"rental_uris": {"ios": "https://dc.lft.to/lastmile_qr_scan", "android": "https://dc.lft.to/lastmile_qr_scan"}, "lon": -77.00254666666666, "type": "electric_scooter", "fusion_lat": 0.0, "lat": 38.9012705, "name": "a28bec3e1e151bb0c69f597095ae83ae", "fusion_lon": 0.0, "bike_id": "a28bec3e1e151bb0c69f597095ae83ae", "is_disabled": 0, "is_reserved": 0}, {"rental_uris": {"ios": "https://dc.lft.to/lastmile_qr_scan", "android": "https://dc.lft.to/lastmile_qr_scan"}, "lon": -77.00503316666666, "type": "electric_scooter", "fusion_lat": 0.0, "lat": 38.87535783333333, "name": "9d29f8e00b5feac5e5ddc7b4c242ab67", "fusion_lon": 0.0, "bike_id": "9d29f8e00b5feac5e5ddc7b4c242ab67", "is_disabled": 0, "is_reserved": 0}, {"rental_uris": {"ios": "https://dc.lft.to/lastmile_qr_scan", "android": "https://dc.lft.to/lastmile_qr_scan"}, "lon": -77.02698466666666, "type": "electric_scooter", "fusion_lat": 0.0, "lat": 38.90016416666667, "name": "77f473f02cf8127153b2bf8058b20c6f", "fusion_lon": 0.0, "bike_id": "77f473f02cf8127153b2bf8058b20c6f", "is_disabled": 0, "is_reserved": 0}, {"rental_uris": {"ios": "https://dc.lft.to/lastmile_qr_scan", "android": "https://dc.lft.to/lastmile_qr_scan"}, "lon": -77.02402866666667, "type": "electric_scooter", "fusion_lat": 0.0, "lat": 38.907027666666664, "name": "bbb8964d00feb37444937895e3b21c8e", "fusion_lon": 0.0, "bike_id": "bbb8964d00feb37444937895e3b21c8e", "is_disabled": 0, "is_reserved": 0}, {"rental_uris": {"ios": "https://dc.lft.to/lastmile_qr_scan", "android": "https://dc.lft.to/lastmile_qr_scan"}, "lon": -77.064751, "type": "electric_bike", "fusion_lat": 0.0, "lat": 38.97385416666667, "name": "e44484cf13d687c011de8c572d944c66", "fusion_lon": 0.0, "bike_id": "e44484cf13d687c011de8c572d944c66", "is_disabled": 0, "is_reserved": 0}, {"rental_uris": {"ios": "https://dc.lft.to/lastmile_qr_scan", "android": "https://dc.lft.to/lastmile_qr_scan"}, "lon": -77.0417115, "type": "electric_scooter", "fusion_lat": 0.0, "lat": 38.91027066666667, "name": "51304f00dab570f200d769372d534fd7", "fusion_lon": 0.0, "bike_id": "51304f00dab570f200d769372d534fd7", "is_disabled": 0, "is_reserved": 0}, {"rental_uris": {"ios": "https://dc.lft.to/lastmile_qr_scan", "android": "https://dc.lft.to/lastmile_qr_scan"}, "lon": -76.9907555, "type": "electric_scooter", "fusion_lat": 0.0, "lat": 38.90414533333333, "name": "9e6aaeb7421bc40e0e228be1c5892a15", "fusion_lon": 0.0, "bike_id": "9e6aaeb7421bc40e0e228be1c5892a15", "is_disabled": 0, "is_reserved": 0}, {"rental_uris": {"ios": "https://dc.lft.to/lastmile_qr_scan", "android": "https://dc.lft.to/lastmile_qr_scan"}, "lon": -77.034865, "type": "electric_scooter", "fusion_lat": 0.0, "lat": 38.919259833333335, "name": "de995e01750c1e18573cc904416b9e7b", "fusion_lon": 0.0, "bike_id": "de995e01750c1e18573cc904416b9e7b", "is_disabled": 0, "is_reserved": 0}, {"rental_uris": {"ios": "https://dc.lft.to/lastmile_qr_scan", "android": "https://dc.lft.to/lastmile_qr_scan"}, "lon": -77.00931716666666, "type": "electric_scooter", "fusion_lat": 0.0, "lat": 38.9169735, "name": "27fbb72426d528b9225f7a7ee5c7c679", "fusion_lon": 0.0, "bike_id": "27fbb72426d528b9225f7a7ee5c7c679", "is_disabled": 0, "is_reserved": 0}, {"rental_uris": {"ios": "https://dc.lft.to/lastmile_qr_scan", "android": "https://dc.lft.to/lastmile_qr_scan"}, "lon": -77.03432433333333, "type": "electric_scooter", "fusion_lat": 0.0, "lat": 38.9273305, "name": "7db9f1219107a4a68f3b8c8a76206c06", "fusion_lon": 0.0, "bike_id": "7db9f1219107a4a68f3b8c8a76206c06", "is_disabled": 0, "is_reserved": 0}, {"rental_uris": {"ios": "https://dc.lft.to/lastmile_qr_scan", "android": "https://dc.lft.to/lastmile_qr_scan"}, "lon": -76.99170516666666, "type": "electric_scooter", "fusion_lat": 0.0, "lat": 38.87925083333333, "name": "0a9f8065d00bd7f1f93d410f3d491367", "fusion_lon": 0.0, "bike_id": "0a9f8065d00bd7f1f93d410f3d491367", "is_disabled": 0, "is_reserved": 0}, {"rental_uris": {"ios": "https://dc.lft.to/lastmile_qr_scan", "android": "https://dc.lft.to/lastmile_qr_scan"}, "lon": -77.02494833333333, "type": "electric_scooter", "fusion_lat": 0.0, "lat": 38.942892, "name": "b68bca022d63115fa12018dd506a7d76", "fusion_lon": 0.0, "bike_id": "b68bca022d63115fa12018dd506a7d76", "is_disabled": 0, "is_reserved": 0}, {"rental_uris": {"ios": "https://dc.lft.to/lastmile_qr_scan", "android": "https://dc.lft.to/lastmile_qr_scan"}, "lon": -77.01076683333334, "type": "electric_bike", "fusion_lat": 0.0, "lat": 38.9565815, "name": "65c14c9f1503c1be1a523d709fa5d29b", "fusion_lon": 0.0, "bike_id": "65c14c9f1503c1be1a523d709fa5d29b", "is_disabled": 0, "is_reserved": 0}, {"rental_uris": {"ios": "https://dc.lft.to/lastmile_qr_scan", "android": "https://dc.lft.to/lastmile_qr_scan"}, "lon": -77.03935216666666, "type": "electric_scooter", "fusion_lat": 0.0, "lat": 38.898576166666665, "name": "174f5f6c69624e3cec865f03ee9b4d70", "fusion_lon": 0.0, "bike_id": "174f5f6c69624e3cec865f03ee9b4d70", "is_disabled": 0, "is_reserved": 0}, {"rental_uris": {"ios": "https://dc.lft.to/lastmile_qr_scan", "android": "https://dc.lft.to/lastmile_qr_scan"}, "lon": -77.03265883333333, "type": "electric_scooter", "fusion_lat": 0.0, "lat": 38.91989816666667, "name": "cd08732a7e409b8224895fc4386aa0fd", "fusion_lon": 0.0, "bike_id": "cd08732a7e409b8224895fc4386aa0fd", "is_disabled": 0, "is_reserved": 0}, {"rental_uris": {"ios": "https://dc.lft.to/lastmile_qr_scan", "android": "https://dc.lft.to/lastmile_qr_scan"}, "lon": -76.99855316666667, "type": "electric_scooter", "fusion_lat": 0.0, "lat": 38.894976666666665, "name": "de58ae926cc84c312514a090b33af3bd", "fusion_lon": 0.0, "bike_id": "de58ae926cc84c312514a090b33af3bd", "is_disabled": 0, "is_reserved": 0}, {"rental_uris": {"ios": "https://dc.lft.to/lastmile_qr_scan", "android": "https://dc.lft.to/lastmile_qr_scan"}, "lon": -77.002633, "type": "electric_scooter", "fusion_lat": 0.0, "lat": 38.89901566666666, "name": "c2035f6d344ac5d5bdc0bd3eafb57b8c", "fusion_lon": 0.0, "bike_id": "c2035f6d344ac5d5bdc0bd3eafb57b8c", "is_disabled": 0, "is_reserved": 0}, {"rental_uris": {"ios": "https://dc.lft.to/lastmile_qr_scan", "android": "https://dc.lft.to/lastmile_qr_scan"}, "lon": -77.00663866666666, "type": "electric_scooter", "fusion_lat": 0.0, "lat": 38.90719833333333, "name": "9a645f87bdf2d2a5020402c993a95b92", "fusion_lon": 0.0, "bike_id": "9a645f87bdf2d2a5020402c993a95b92", "is_disabled": 0, "is_reserved": 0}, {"rental_uris": {"ios": "https://dc.lft.to/lastmile_qr_scan", "android": "https://dc.lft.to/lastmile_qr_scan"}, "lon": -77.044846, "type": "electric_scooter", "fusion_lat": 0.0, "lat": 38.903279166666664, "name": "400711b8060a569bde55396eda63f276", "fusion_lon": 0.0, "bike_id": "400711b8060a569bde55396eda63f276", "is_disabled": 0, "is_reserved": 0}, {"rental_uris": {"ios": "https://dc.lft.to/lastmile_qr_scan", "android": "https://dc.lft.to/lastmile_qr_scan"}, "lon": -77.04252333333334, "type": "electric_scooter", "fusion_lat": 0.0, "lat": 38.920662, "name": "4d7b9e104a60b008ccdd6ee1345201aa", "fusion_lon": 0.0, "bike_id": "4d7b9e104a60b008ccdd6ee1345201aa", "is_disabled": 0, "is_reserved": 0}, {"rental_uris": {"ios": "https://dc.lft.to/lastmile_qr_scan", "android": "https://dc.lft.to/lastmile_qr_scan"}, "lon": -77.024122, "type": "electric_scooter", "fusion_lat": 0.0, "lat": 38.9170895, "name": "d5268ca2fd6039a1f5268e92765d3ec5", "fusion_lon": 0.0, "bike_id": "d5268ca2fd6039a1f5268e92765d3ec5", "is_disabled": 0, "is_reserved": 0}, {"rental_uris": {"ios": "https://dc.lft.to/lastmile_qr_scan", "android": "https://dc.lft.to/lastmile_qr_scan"}, "lon": -77.02072833333334, "type": "electric_scooter", "fusion_lat": 0.0, "lat": 38.93530116666667, "name": "a0d3b981fce72f217b456fafd766402b", "fusion_lon": 0.0, "bike_id": "a0d3b981fce72f217b456fafd766402b", "is_disabled": 0, "is_reserved": 0}, {"rental_uris": {"ios": "https://dc.lft.to/lastmile_qr_scan", "android": "https://dc.lft.to/lastmile_qr_scan"}, "lon": -77.04497166666667, "type": "electric_scooter", "fusion_lat": 0.0, "lat": 38.913093, "name": "dc0b5b590b2681dbd6f75d30f3a3cf2b", "fusion_lon": 0.0, "bike_id": "dc0b5b590b2681dbd6f75d30f3a3cf2b", "is_disabled": 0, "is_reserved": 0}, {"rental_uris": {"ios": "https://dc.lft.to/lastmile_qr_scan", "android": "https://dc.lft.to/lastmile_qr_scan"}, "lon": -77.03793066666667, "type": "electric_scooter", "fusion_lat": 0.0, "lat": 38.926346333333335, "name": "2b96c9e037fe6113c4d6622bbcbb9fff", "fusion_lon": 0.0, "bike_id": "2b96c9e037fe6113c4d6622bbcbb9fff", "is_disabled": 0, "is_reserved": 0}, {"rental_uris": {"ios": "https://dc.lft.to/lastmile_qr_scan", "android": "https://dc.lft.to/lastmile_qr_scan"}, "lon": -77.02833266666667, "type": "electric_scooter", "fusion_lat": 0.0, "lat": 38.92474283333333, "name": "2538a52b48f3b2861a141bc497f2de8f", "fusion_lon": 0.0, "bike_id": "2538a52b48f3b2861a141bc497f2de8f", "is_disabled": 0, "is_reserved": 0}, {"rental_uris": {"ios": "https://dc.lft.to/lastmile_qr_scan", "android": "https://dc.lft.to/lastmile_qr_scan"}, "lon": -76.99840416666666, "type": "electric_bike", "fusion_lat": 0.0, "lat": 38.839159, "name": "f75521a5742d0250c3593863a683a0fe", "fusion_lon": 0.0, "bike_id": "f75521a5742d0250c3593863a683a0fe", "is_disabled": 0, "is_reserved": 0}, {"rental_uris": {"ios": "https://dc.lft.to/lastmile_qr_scan", "android": "https://dc.lft.to/lastmile_qr_scan"}, "lon": -77.0321095, "type": "electric_scooter", "fusion_lat": 0.0, "lat": 38.89233816666667, "name": "fd920b3aafd63f6a429c3356c91fe9f1", "fusion_lon": 0.0, "bike_id": "fd920b3aafd63f6a429c3356c91fe9f1", "is_disabled": 0, "is_reserved": 0}, {"rental_uris": {"ios": "https://dc.lft.to/lastmile_qr_scan", "android": "https://dc.lft.to/lastmile_qr_scan"}, "lon": -77.02119383333333, "type": "electric_scooter", "fusion_lat": 0.0, "lat": 38.94409133333333, "name": "62cfdf24d11c953c66b3f82a15d1b88d", "fusion_lon": 0.0, "bike_id": "62cfdf24d11c953c66b3f82a15d1b88d", "is_disabled": 0, "is_reserved": 0}, {"rental_uris": {"ios": "https://dc.lft.to/lastmile_qr_scan", "android": "https://dc.lft.to/lastmile_qr_scan"}, "lon": -76.93570466666667, "type": "electric_bike", "fusion_lat": 0.0, "lat": 38.8852875, "name": "40c64db480abb8d657eea2d25f751b64", "fusion_lon": 0.0, "bike_id": "40c64db480abb8d657eea2d25f751b64", "is_disabled": 0, "is_reserved": 0}, {"rental_uris": {"ios": "https://dc.lft.to/lastmile_qr_scan", "android": "https://dc.lft.to/lastmile_qr_scan"}, "lon": -77.04148666666667, "type": "electric_scooter", "fusion_lat": 0.0, "lat": 38.917897833333335, "name": "b0ea9e26943a765ed4e1e732fe554295", "fusion_lon": 0.0, "bike_id": "b0ea9e26943a765ed4e1e732fe554295", "is_disabled": 0, "is_reserved": 0}, {"rental_uris": {"ios": "https://dc.lft.to/lastmile_qr_scan", "android": "https://dc.lft.to/lastmile_qr_scan"}, "lon": -77.03392616666666, "type": "electric_scooter", "fusion_lat": 0.0, "lat": 38.91913816666667, "name": "0cfe51e7f6a0ffd70e6726b8cfc4ea1f", "fusion_lon": 0.0, "bike_id": "0cfe51e7f6a0ffd70e6726b8cfc4ea1f", "is_disabled": 0, "is_reserved": 0}, {"rental_uris": {"ios": "https://dc.lft.to/lastmile_qr_scan", "android": "https://dc.lft.to/lastmile_qr_scan"}, "lon": -77.01377833333333, "type": "electric_scooter", "fusion_lat": 0.0, "lat": 38.899167166666665, "name": "95c7e17b55b3b10833e36aad361eeaf3", "fusion_lon": 0.0, "bike_id": "95c7e17b55b3b10833e36aad361eeaf3", "is_disabled": 0, "is_reserved": 0}, {"rental_uris": {"ios": "https://dc.lft.to/lastmile_qr_scan", "android": "https://dc.lft.to/lastmile_qr_scan"}, "lon": -76.98022866666666, "type": "electric_scooter", "fusion_lat": 0.0, "lat": 38.903811, "name": "b47f28bdb2a7a526bd23950cc0d2680d", "fusion_lon": 0.0, "bike_id": "b47f28bdb2a7a526bd23950cc0d2680d", "is_disabled": 0, "is_reserved": 0}, {"rental_uris": {"ios": "https://dc.lft.to/lastmile_qr_scan", "android": "https://dc.lft.to/lastmile_qr_scan"}, "lon": -76.94969033333334, "type": "electric_scooter", "fusion_lat": 0.0, "lat": 38.8937425, "name": "1284706a47f576c2efe365f8a33c8c5e", "fusion_lon": 0.0, "bike_id": "1284706a47f576c2efe365f8a33c8c5e", "is_disabled": 0, "is_reserved": 0}, {"rental_uris": {"ios": "https://dc.lft.to/lastmile_qr_scan", "android": "https://dc.lft.to/lastmile_qr_scan"}, "lon": -77.02496083333334, "type": "electric_scooter", "fusion_lat": 0.0, "lat": 38.89739333333333, "name": "dda2bd40c377e96b6cdc5a249017c423", "fusion_lon": 0.0, "bike_id": "dda2bd40c377e96b6cdc5a249017c423", "is_disabled": 0, "is_reserved": 0}, {"rental_uris": {"ios": "https://dc.lft.to/lastmile_qr_scan", "android": "https://dc.lft.to/lastmile_qr_scan"}, "lon": -77.03005066666667, "type": "electric_scooter", "fusion_lat": 0.0, "lat": 38.934589833333334, "name": "7f5d8d6ab772b9c937bceffed11b6ea4", "fusion_lon": 0.0, "bike_id": "7f5d8d6ab772b9c937bceffed11b6ea4", "is_disabled": 0, "is_reserved": 0}, {"rental_uris": {"ios": "https://dc.lft.to/lastmile_qr_scan", "android": "https://dc.lft.to/lastmile_qr_scan"}, "lon": -77.00477283333333, "type": "electric_scooter", "fusion_lat": 0.0, "lat": 38.87892016666667, "name": "d1107253b4151bc7af5e9e4990119497", "fusion_lon": 0.0, "bike_id": "d1107253b4151bc7af5e9e4990119497", "is_disabled": 0, "is_reserved": 0}, {"rental_uris": {"ios": "https://dc.lft.to/lastmile_qr_scan", "android": "https://dc.lft.to/lastmile_qr_scan"}, "lon": -77.02571683333333, "type": "electric_scooter", "fusion_lat": 0.0, "lat": 38.887503, "name": "d153b9100701f4ad952be1767791cbff", "fusion_lon": 0.0, "bike_id": "d153b9100701f4ad952be1767791cbff", "is_disabled": 0, "is_reserved": 0}, {"rental_uris": {"ios": "https://dc.lft.to/lastmile_qr_scan", "android": "https://dc.lft.to/lastmile_qr_scan"}, "lon": -77.05144616666666, "type": "electric_scooter", "fusion_lat": 0.0, "lat": 38.9053645, "name": "6bcb0e7b064651ce800dacebf8691ae5", "fusion_lon": 0.0, "bike_id": "6bcb0e7b064651ce800dacebf8691ae5", "is_disabled": 0, "is_reserved": 0}, {"rental_uris": {"ios": "https://dc.lft.to/lastmile_qr_scan", "android": "https://dc.lft.to/lastmile_qr_scan"}, "lon": -77.03767866666666, "type": "electric_scooter", "fusion_lat": 0.0, "lat": 38.91694183333333, "name": "3cbe26ae4a389f9994992c3c2c2e7ab3", "fusion_lon": 0.0, "bike_id": "3cbe26ae4a389f9994992c3c2c2e7ab3", "is_disabled": 0, "is_reserved": 0}, {"rental_uris": {"ios": "https://dc.lft.to/lastmile_qr_scan", "android": "https://dc.lft.to/lastmile_qr_scan"}, "lon": -77.0320705, "type": "electric_scooter", "fusion_lat": 0.0, "lat": 38.91788583333334, "name": "efe1ee2773a6e5f3935c9e25d82ba5aa", "fusion_lon": 0.0, "bike_id": "efe1ee2773a6e5f3935c9e25d82ba5aa", "is_disabled": 0, "is_reserved": 0}, {"rental_uris": {"ios": "https://dc.lft.to/lastmile_qr_scan", "android": "https://dc.lft.to/lastmile_qr_scan"}, "lon": -77.03999533333334, "type": "electric_scooter", "fusion_lat": 0.0, "lat": 38.914165, "name": "6587710e3f19dc895288d36c99a0de8d", "fusion_lon": 0.0, "bike_id": "6587710e3f19dc895288d36c99a0de8d", "is_disabled": 0, "is_reserved": 0}, {"rental_uris": {"ios": "https://dc.lft.to/lastmile_qr_scan", "android": "https://dc.lft.to/lastmile_qr_scan"}, "lon": -76.94655333333333, "type": "electric_scooter", "fusion_lat": 0.0, "lat": 38.8982785, "name": "f20e55dbb259daa4cfb75ee4419d2e15", "fusion_lon": 0.0, "bike_id": "f20e55dbb259daa4cfb75ee4419d2e15", "is_disabled": 0, "is_reserved": 0}, {"rental_uris": {"ios": "https://dc.lft.to/lastmile_qr_scan", "android": "https://dc.lft.to/lastmile_qr_scan"}, "lon": -77.041842, "type": "electric_scooter", "fusion_lat": 0.0, "lat": 38.923018, "name": "83cafcb173a6753ed9c33fc7e2011fc1", "fusion_lon": 0.0, "bike_id": "83cafcb173a6753ed9c33fc7e2011fc1", "is_disabled": 0, "is_reserved": 0}, {"rental_uris": {"ios": "https://dc.lft.to/lastmile_qr_scan", "android": "https://dc.lft.to/lastmile_qr_scan"}, "lon": -77.0468975, "type": "electric_scooter", "fusion_lat": 0.0, "lat": 38.89226816666667, "name": "28003540533cb070755182d49a71f3d0", "fusion_lon": 0.0, "bike_id": "28003540533cb070755182d49a71f3d0", "is_disabled": 0, "is_reserved": 0}, {"rental_uris": {"ios": "https://dc.lft.to/lastmile_qr_scan", "android": "https://dc.lft.to/lastmile_qr_scan"}, "lon": -76.98573166666667, "type": "electric_scooter", "fusion_lat": 0.0, "lat": 38.898888666666664, "name": "ff2d576ff98f52549b58127692771f2d", "fusion_lon": 0.0, "bike_id": "ff2d576ff98f52549b58127692771f2d", "is_disabled": 0, "is_reserved": 0}, {"rental_uris": {"ios": "https://dc.lft.to/lastmile_qr_scan", "android": "https://dc.lft.to/lastmile_qr_scan"}, "lon": -77.03975766666667, "type": "electric_scooter", "fusion_lat": 0.0, "lat": 38.92452183333333, "name": "fc98676788b9e9669bcb588b67c21aaf", "fusion_lon": 0.0, "bike_id": "fc98676788b9e9669bcb588b67c21aaf", "is_disabled": 0, "is_reserved": 0}, {"rental_uris": {"ios": "https://dc.lft.to/lastmile_qr_scan", "android": "https://dc.lft.to/lastmile_qr_scan"}, "lon": -77.03218233333334, "type": "electric_scooter", "fusion_lat": 0.0, "lat": 38.96241066666666, "name": "ec854419bd6f6f5bcbaf3856d5d03e19", "fusion_lon": 0.0, "bike_id": "ec854419bd6f6f5bcbaf3856d5d03e19", "is_disabled": 0, "is_reserved": 0}, {"rental_uris": {"ios": "https://dc.lft.to/lastmile_qr_scan", "android": "https://dc.lft.to/lastmile_qr_scan"}, "lon": -77.04902733333333, "type": "electric_bike", "fusion_lat": 0.0, "lat": 38.874931333333336, "name": "b312a0c499f8e96f35fec7c5f4a3065f", "fusion_lon": 0.0, "bike_id": "b312a0c499f8e96f35fec7c5f4a3065f", "is_disabled": 0, "is_reserved": 0}, {"rental_uris": {"ios": "https://dc.lft.to/lastmile_qr_scan", "android": "https://dc.lft.to/lastmile_qr_scan"}, "lon": -77.10028583333333, "type": "electric_bike", "fusion_lat": 0.0, "lat": 38.99063833333334, "name": "03a9749ed53bf59d10e1051356a3b9c4", "fusion_lon": 0.0, "bike_id": "03a9749ed53bf59d10e1051356a3b9c4", "is_disabled": 0, "is_reserved": 0}, {"rental_uris": {"ios": "https://dc.lft.to/lastmile_qr_scan", "android": "https://dc.lft.to/lastmile_qr_scan"}, "lon": -77.06274516666667, "type": "electric_scooter", "fusion_lat": 0.0, "lat": 38.90685383333334, "name": "4a2b5f4ff3ae118f5cc62bb0c21620cd", "fusion_lon": 0.0, "bike_id": "4a2b5f4ff3ae118f5cc62bb0c21620cd", "is_disabled": 0, "is_reserved": 0}, {"rental_uris": {"ios": "https://dc.lft.to/lastmile_qr_scan", "android": "https://dc.lft.to/lastmile_qr_scan"}, "lon": -77.023582, "type": "electric_scooter", "fusion_lat": 0.0, "lat": 38.9084825, "name": "db91eb6482386e93bb634f1bf580e2f5", "fusion_lon": 0.0, "bike_id": "db91eb6482386e93bb634f1bf580e2f5", "is_disabled": 0, "is_reserved": 0}, {"rental_uris": {"ios": "https://dc.lft.to/lastmile_qr_scan", "android": "https://dc.lft.to/lastmile_qr_scan"}, "lon": -77.02184866666667, "type": "electric_scooter", "fusion_lat": 0.0, "lat": 38.919969333333334, "name": "4863bc49e0b36424cdea82b4fe54953e", "fusion_lon": 0.0, "bike_id": "4863bc49e0b36424cdea82b4fe54953e", "is_disabled": 0, "is_reserved": 0}, {"rental_uris": {"ios": "https://dc.lft.to/lastmile_qr_scan", "android": "https://dc.lft.to/lastmile_qr_scan"}, "lon": -77.0544625, "type": "electric_scooter", "fusion_lat": 0.0, "lat": 38.896121666666666, "name": "319f3e9ef9fe4d3a2e1d1dbdb8855953", "fusion_lon": 0.0, "bike_id": "319f3e9ef9fe4d3a2e1d1dbdb8855953", "is_disabled": 0, "is_reserved": 0}, {"rental_uris": {"ios": "https://dc.lft.to/lastmile_qr_scan", "android": "https://dc.lft.to/lastmile_qr_scan"}, "lon": -77.0112635, "type": "electric_bike", "fusion_lat": 0.0, "lat": 38.956639833333334, "name": "ccb2b2e95940c005736fef60a1b0e726", "fusion_lon": 0.0, "bike_id": "ccb2b2e95940c005736fef60a1b0e726", "is_disabled": 0, "is_reserved": 0}, {"rental_uris": {"ios": "https://dc.lft.to/lastmile_qr_scan", "android": "https://dc.lft.to/lastmile_qr_scan"}, "lon": -77.01121283333333, "type": "electric_scooter", "fusion_lat": 0.0, "lat": 38.900334666666666, "name": "9187e7b300364d69fe202f844be501b5", "fusion_lon": 0.0, "bike_id": "9187e7b300364d69fe202f844be501b5", "is_disabled": 0, "is_reserved": 0}, {"rental_uris": {"ios": "https://dc.lft.to/lastmile_qr_scan", "android": "https://dc.lft.to/lastmile_qr_scan"}, "lon": -76.99842216666667, "type": "electric_bike", "fusion_lat": 0.0, "lat": 38.8998995, "name": "fd6e2fc182259a2894653bfb80ebcd3a", "fusion_lon": 0.0, "bike_id": "fd6e2fc182259a2894653bfb80ebcd3a", "is_disabled": 0, "is_reserved": 0}, {"rental_uris": {"ios": "https://dc.lft.to/lastmile_qr_scan", "android": "https://dc.lft.to/lastmile_qr_scan"}, "lon": -77.00535483333333, "type": "electric_scooter", "fusion_lat": 0.0, "lat": 38.928975, "name": "02d0b99183708ff7b8cd9dd0e1f15169", "fusion_lon": 0.0, "bike_id": "02d0b99183708ff7b8cd9dd0e1f15169", "is_disabled": 0, "is_reserved": 0}, {"rental_uris": {"ios": "https://dc.lft.to/lastmile_qr_scan", "android": "https://dc.lft.to/lastmile_qr_scan"}, "lon": -76.98265316666667, "type": "electric_scooter", "fusion_lat": 0.0, "lat": 38.863533, "name": "ecfc4170c2169587c22c94bce4fdf5e4", "fusion_lon": 0.0, "bike_id": "ecfc4170c2169587c22c94bce4fdf5e4", "is_disabled": 0, "is_reserved": 0}, {"rental_uris": {"ios": "https://dc.lft.to/lastmile_qr_scan", "android": "https://dc.lft.to/lastmile_qr_scan"}, "lon": -77.00652616666666, "type": "electric_bike", "fusion_lat": 0.0, "lat": 38.90998066666667, "name": "99a6d17bd2515cc925949f3d195ef34d", "fusion_lon": 0.0, "bike_id": "99a6d17bd2515cc925949f3d195ef34d", "is_disabled": 0, "is_reserved": 0}, {"rental_uris": {"ios": "https://dc.lft.to/lastmile_qr_scan", "android": "https://dc.lft.to/lastmile_qr_scan"}, "lon": -77.04407633333334, "type": "electric_scooter", "fusion_lat": 0.0, "lat": 38.9057495, "name": "b20ba87739d015dab2c451e4ad42e715", "fusion_lon": 0.0, "bike_id": "b20ba87739d015dab2c451e4ad42e715", "is_disabled": 0, "is_reserved": 0}, {"rental_uris": {"ios": "https://dc.lft.to/lastmile_qr_scan", "android": "https://dc.lft.to/lastmile_qr_scan"}, "lon": -77.016551, "type": "electric_scooter", "fusion_lat": 0.0, "lat": 38.95331133333333, "name": "a6d3733dcb915dd741fdb473edf6b9d4", "fusion_lon": 0.0, "bike_id": "a6d3733dcb915dd741fdb473edf6b9d4", "is_disabled": 0, "is_reserved": 0}, {"rental_uris": {"ios": "https://dc.lft.to/lastmile_qr_scan", "android": "https://dc.lft.to/lastmile_qr_scan"}, "lon": -77.04795483333334, "type": "electric_scooter", "fusion_lat": 0.0, "lat": 38.89370533333334, "name": "fc32760eba568b04e4b576ba1854ab31", "fusion_lon": 0.0, "bike_id": "fc32760eba568b04e4b576ba1854ab31", "is_disabled": 0, "is_reserved": 0}, {"rental_uris": {"ios": "https://dc.lft.to/lastmile_qr_scan", "android": "https://dc.lft.to/lastmile_qr_scan"}, "lon": -76.99494983333334, "type": "electric_scooter", "fusion_lat": 0.0, "lat": 38.881808, "name": "47b4bae31e3992ff894184f143dd5509", "fusion_lon": 0.0, "bike_id": "47b4bae31e3992ff894184f143dd5509", "is_disabled": 0, "is_reserved": 0}, {"rental_uris": {"ios": "https://dc.lft.to/lastmile_qr_scan", "android": "https://dc.lft.to/lastmile_qr_scan"}, "lon": -77.0202725, "type": "electric_scooter", "fusion_lat": 0.0, "lat": 38.91554216666667, "name": "8271dc392c85976e6115755d4225a37f", "fusion_lon": 0.0, "bike_id": "8271dc392c85976e6115755d4225a37f", "is_disabled": 0, "is_reserved": 0}, {"rental_uris": {"ios": "https://dc.lft.to/lastmile_qr_scan", "android": "https://dc.lft.to/lastmile_qr_scan"}, "lon": -77.02605283333334, "type": "electric_scooter", "fusion_lat": 0.0, "lat": 38.907585833333336, "name": "9c9f276113004be0504c9e13056fa35a", "fusion_lon": 0.0, "bike_id": "9c9f276113004be0504c9e13056fa35a", "is_disabled": 0, "is_reserved": 0}, {"rental_uris": {"ios": "https://dc.lft.to/lastmile_qr_scan", "android": "https://dc.lft.to/lastmile_qr_scan"}, "lon": -77.05517116666667, "type": "electric_scooter", "fusion_lat": 0.0, "lat": 38.92839033333333, "name": "d31da8bfafaa3e36865af1bfb9db10a7", "fusion_lon": 0.0, "bike_id": "d31da8bfafaa3e36865af1bfb9db10a7", "is_disabled": 0, "is_reserved": 0}, {"rental_uris": {"ios": "https://dc.lft.to/lastmile_qr_scan", "android": "https://dc.lft.to/lastmile_qr_scan"}, "lon": -77.0591895, "type": "electric_scooter", "fusion_lat": 0.0, "lat": 38.90085083333334, "name": "97e072d371ea622dc6f410a96a98a6e3", "fusion_lon": 0.0, "bike_id": "97e072d371ea622dc6f410a96a98a6e3", "is_disabled": 0, "is_reserved": 0}, {"rental_uris": {"ios": "https://dc.lft.to/lastmile_qr_scan", "android": "https://dc.lft.to/lastmile_qr_scan"}, "lon": -76.99176866666667, "type": "electric_scooter", "fusion_lat": 0.0, "lat": 38.908402333333335, "name": "15b2a7ef5331aa8d8e4185cbfd95a228", "fusion_lon": 0.0, "bike_id": "15b2a7ef5331aa8d8e4185cbfd95a228", "is_disabled": 0, "is_reserved": 0}, {"rental_uris": {"ios": "https://dc.lft.to/lastmile_qr_scan", "android": "https://dc.lft.to/lastmile_qr_scan"}, "lon": -77.04398616666667, "type": "electric_scooter", "fusion_lat": 0.0, "lat": 38.90573333333333, "name": "33722f41edb76558fc6501baf7992c22", "fusion_lon": 0.0, "bike_id": "33722f41edb76558fc6501baf7992c22", "is_disabled": 0, "is_reserved": 0}, {"rental_uris": {"ios": "https://dc.lft.to/lastmile_qr_scan", "android": "https://dc.lft.to/lastmile_qr_scan"}, "lon": -77.03260316666666, "type": "electric_scooter", "fusion_lat": 0.0, "lat": 38.934453166666664, "name": "f184aec7636bb21208041e6a3c4b56d1", "fusion_lon": 0.0, "bike_id": "f184aec7636bb21208041e6a3c4b56d1", "is_disabled": 0, "is_reserved": 0}, {"rental_uris": {"ios": "https://dc.lft.to/lastmile_qr_scan", "android": "https://dc.lft.to/lastmile_qr_scan"}, "lon": -77.01861966666667, "type": "electric_scooter", "fusion_lat": 0.0, "lat": 38.9026765, "name": "b2063e6f4e8d1d8e8c885edcd87c81c0", "fusion_lon": 0.0, "bike_id": "b2063e6f4e8d1d8e8c885edcd87c81c0", "is_disabled": 0, "is_reserved": 0}, {"rental_uris": {"ios": "https://dc.lft.to/lastmile_qr_scan", "android": "https://dc.lft.to/lastmile_qr_scan"}, "lon": -77.0319235, "type": "electric_scooter", "fusion_lat": 0.0, "lat": 38.91686816666667, "name": "7128b28915510bd2df8a36573a8d1596", "fusion_lon": 0.0, "bike_id": "7128b28915510bd2df8a36573a8d1596", "is_disabled": 0, "is_reserved": 0}, {"rental_uris": {"ios": "https://dc.lft.to/lastmile_qr_scan", "android": "https://dc.lft.to/lastmile_qr_scan"}, "lon": -77.01937483333333, "type": "electric_scooter", "fusion_lat": 0.0, "lat": 38.94925883333333, "name": "9f00e4b1b843538c5a4ec0290efb1a80", "fusion_lon": 0.0, "bike_id": "9f00e4b1b843538c5a4ec0290efb1a80", "is_disabled": 0, "is_reserved": 0}, {"rental_uris": {"ios": "https://dc.lft.to/lastmile_qr_scan", "android": "https://dc.lft.to/lastmile_qr_scan"}, "lon": -77.03819183333333, "type": "electric_scooter", "fusion_lat": 0.0, "lat": 38.906874333333334, "name": "967d2b03da31cadfb6750df5dd9b468d", "fusion_lon": 0.0, "bike_id": "967d2b03da31cadfb6750df5dd9b468d", "is_disabled": 0, "is_reserved": 0}, {"rental_uris": {"ios": "https://dc.lft.to/lastmile_qr_scan", "android": "https://dc.lft.to/lastmile_qr_scan"}, "lon": -77.038085, "type": "electric_scooter", "fusion_lat": 0.0, "lat": 38.91227, "name": "9766074e49ab19c8e0446c7cbe0bbe9e", "fusion_lon": 0.0, "bike_id": "9766074e49ab19c8e0446c7cbe0bbe9e", "is_disabled": 0, "is_reserved": 0}, {"rental_uris": {"ios": "https://dc.lft.to/lastmile_qr_scan", "android": "https://dc.lft.to/lastmile_qr_scan"}, "lon": -77.043467, "type": "electric_scooter", "fusion_lat": 0.0, "lat": 38.896727, "name": "a94996d71caa9288791f9e26496b7376", "fusion_lon": 0.0, "bike_id": "a94996d71caa9288791f9e26496b7376", "is_disabled": 0, "is_reserved": 0}, {"rental_uris": {"ios": "https://dc.lft.to/lastmile_qr_scan", "android": "https://dc.lft.to/lastmile_qr_scan"}, "lon": -77.0020265, "type": "electric_scooter", "fusion_lat": 0.0, "lat": 38.900758, "name": "375c3077cdcbce0a7be7c8f6f85846ae", "fusion_lon": 0.0, "bike_id": "375c3077cdcbce0a7be7c8f6f85846ae", "is_disabled": 0, "is_reserved": 0}, {"rental_uris": {"ios": "https://dc.lft.to/lastmile_qr_scan", "android": "https://dc.lft.to/lastmile_qr_scan"}, "lon": -77.012221, "type": "electric_scooter", "fusion_lat": 0.0, "lat": 38.92034733333333, "name": "68e59cb805f5cd09472092cb81be031c", "fusion_lon": 0.0, "bike_id": "68e59cb805f5cd09472092cb81be031c", "is_disabled": 0, "is_reserved": 0}, {"rental_uris": {"ios": "https://dc.lft.to/lastmile_qr_scan", "android": "https://dc.lft.to/lastmile_qr_scan"}, "lon": -77.04036066666667, "type": "electric_scooter", "fusion_lat": 0.0, "lat": 38.924284, "name": "bbe5686355a8c1c9acda7a729b817ade", "fusion_lon": 0.0, "bike_id": "bbe5686355a8c1c9acda7a729b817ade", "is_disabled": 0, "is_reserved": 0}, {"rental_uris": {"ios": "https://dc.lft.to/lastmile_qr_scan", "android": "https://dc.lft.to/lastmile_qr_scan"}, "lon": -77.06389366666667, "type": "electric_scooter", "fusion_lat": 0.0, "lat": 38.90835416666667, "name": "a04d5b4638fbb1fa9a2fb598b2fcf5de", "fusion_lon": 0.0, "bike_id": "a04d5b4638fbb1fa9a2fb598b2fcf5de", "is_disabled": 0, "is_reserved": 0}, {"rental_uris": {"ios": "https://dc.lft.to/lastmile_qr_scan", "android": "https://dc.lft.to/lastmile_qr_scan"}, "lon": -77.03848133333334, "type": "electric_scooter", "fusion_lat": 0.0, "lat": 38.913370666666665, "name": "7c8b44de8e3d3d566d310ae8f267db0d", "fusion_lon": 0.0, "bike_id": "7c8b44de8e3d3d566d310ae8f267db0d", "is_disabled": 0, "is_reserved": 0}, {"rental_uris": {"ios": "https://dc.lft.to/lastmile_qr_scan", "android": "https://dc.lft.to/lastmile_qr_scan"}, "lon": -77.03959, "type": "electric_scooter", "fusion_lat": 0.0, "lat": 38.892518333333335, "name": "3744f52ad8ed0108512e63830b2d84c9", "fusion_lon": 0.0, "bike_id": "3744f52ad8ed0108512e63830b2d84c9", "is_disabled": 0, "is_reserved": 0}, {"rental_uris": {"ios": "https://dc.lft.to/lastmile_qr_scan", "android": "https://dc.lft.to/lastmile_qr_scan"}, "lon": -77.04027766666667, "type": "electric_scooter", "fusion_lat": 0.0, "lat": 38.9244765, "name": "6422ffee3e04c05fe1f76f2390aec1a7", "fusion_lon": 0.0, "bike_id": "6422ffee3e04c05fe1f76f2390aec1a7", "is_disabled": 0, "is_reserved": 0}, {"rental_uris": {"ios": "https://dc.lft.to/lastmile_qr_scan", "android": "https://dc.lft.to/lastmile_qr_scan"}, "lon": -77.043645, "type": "electric_scooter", "fusion_lat": 0.0, "lat": 38.892228, "name": "9a9d01af852e7f080f635f7e43d520e7", "fusion_lon": 0.0, "bike_id": "9a9d01af852e7f080f635f7e43d520e7", "is_disabled": 0, "is_reserved": 0}, {"rental_uris": {"ios": "https://dc.lft.to/lastmile_qr_scan", "android": "https://dc.lft.to/lastmile_qr_scan"}, "lon": -76.98609016666667, "type": "electric_scooter", "fusion_lat": 0.0, "lat": 38.878349166666666, "name": "afd05e05ffe69d33bd4a0ab2b56be89c", "fusion_lon": 0.0, "bike_id": "afd05e05ffe69d33bd4a0ab2b56be89c", "is_disabled": 0, "is_reserved": 0}, {"rental_uris": {"ios": "https://dc.lft.to/lastmile_qr_scan", "android": "https://dc.lft.to/lastmile_qr_scan"}, "lon": -77.01115583333333, "type": "electric_scooter", "fusion_lat": 0.0, "lat": 38.870816166666664, "name": "4bc30c05287e2bf04ec0ae7c6b09b487", "fusion_lon": 0.0, "bike_id": "4bc30c05287e2bf04ec0ae7c6b09b487", "is_disabled": 0, "is_reserved": 0}, {"rental_uris": {"ios": "https://dc.lft.to/lastmile_qr_scan", "android": "https://dc.lft.to/lastmile_qr_scan"}, "lon": -77.04865933333333, "type": "electric_scooter", "fusion_lat": 0.0, "lat": 38.892203333333335, "name": "c0397a4333fa982f3a9f2a7bc2ee2b1e", "fusion_lon": 0.0, "bike_id": "c0397a4333fa982f3a9f2a7bc2ee2b1e", "is_disabled": 0, "is_reserved": 0}, {"rental_uris": {"ios": "https://dc.lft.to/lastmile_qr_scan", "android": "https://dc.lft.to/lastmile_qr_scan"}, "lon": -76.994612, "type": "electric_scooter", "fusion_lat": 0.0, "lat": 38.85165116666667, "name": "00cfa7e1e217cf7758a2ba2f203b8a08", "fusion_lon": 0.0, "bike_id": "00cfa7e1e217cf7758a2ba2f203b8a08", "is_disabled": 0, "is_reserved": 0}, {"rental_uris": {"ios": "https://dc.lft.to/lastmile_qr_scan", "android": "https://dc.lft.to/lastmile_qr_scan"}, "lon": -76.92878833333333, "type": "electric_scooter", "fusion_lat": 0.0, "lat": 38.88444766666667, "name": "68f331c546b40b271fe1a5015123b8c9", "fusion_lon": 0.0, "bike_id": "68f331c546b40b271fe1a5015123b8c9", "is_disabled": 0, "is_reserved": 0}, {"rental_uris": {"ios": "https://dc.lft.to/lastmile_qr_scan", "android": "https://dc.lft.to/lastmile_qr_scan"}, "lon": -77.00337033333334, "type": "electric_bike", "fusion_lat": 0.0, "lat": 38.876593166666666, "name": "a341d30aac269d17069ba6473a74ac35", "fusion_lon": 0.0, "bike_id": "a341d30aac269d17069ba6473a74ac35", "is_disabled": 0, "is_reserved": 0}, {"rental_uris": {"ios": "https://dc.lft.to/lastmile_qr_scan", "android": "https://dc.lft.to/lastmile_qr_scan"}, "lon": -77.03574283333333, "type": "electric_scooter", "fusion_lat": 0.0, "lat": 38.939800166666664, "name": "52927c6e529a9ec4ed134d9da576483b", "fusion_lon": 0.0, "bike_id": "52927c6e529a9ec4ed134d9da576483b", "is_disabled": 0, "is_reserved": 0}, {"rental_uris": {"ios": "https://dc.lft.to/lastmile_qr_scan", "android": "https://dc.lft.to/lastmile_qr_scan"}, "lon": -76.948231, "type": "electric_scooter", "fusion_lat": 0.0, "lat": 38.8841305, "name": "bd9003a8687db366fdb91f44b7ff3695", "fusion_lon": 0.0, "bike_id": "bd9003a8687db366fdb91f44b7ff3695", "is_disabled": 0, "is_reserved": 0}, {"rental_uris": {"ios": "https://dc.lft.to/lastmile_qr_scan", "android": "https://dc.lft.to/lastmile_qr_scan"}, "lon": -76.9316055, "type": "electric_scooter", "fusion_lat": 0.0, "lat": 38.89879966666667, "name": "de87032900a3e28fc38eb6bdbfc542bc", "fusion_lon": 0.0, "bike_id": "de87032900a3e28fc38eb6bdbfc542bc", "is_disabled": 0, "is_reserved": 0}, {"rental_uris": {"ios": "https://dc.lft.to/lastmile_qr_scan", "android": "https://dc.lft.to/lastmile_qr_scan"}, "lon": -76.92846633333333, "type": "electric_scooter", "fusion_lat": 0.0, "lat": 38.88358566666667, "name": "bec7d711f436bbeffb94f98be6485596", "fusion_lon": 0.0, "bike_id": "bec7d711f436bbeffb94f98be6485596", "is_disabled": 0, "is_reserved": 0}, {"rental_uris": {"ios": "https://dc.lft.to/lastmile_qr_scan", "android": "https://dc.lft.to/lastmile_qr_scan"}, "lon": -77.04822016666667, "type": "electric_scooter", "fusion_lat": 0.0, "lat": 38.909671, "name": "e7a807b80dd257961368ef57369a2181", "fusion_lon": 0.0, "bike_id": "e7a807b80dd257961368ef57369a2181", "is_disabled": 0, "is_reserved": 0}, {"rental_uris": {"ios": "https://dc.lft.to/lastmile_qr_scan", "android": "https://dc.lft.to/lastmile_qr_scan"}, "lon": -76.98749316666667, "type": "electric_scooter", "fusion_lat": 0.0, "lat": 38.910196166666665, "name": "4c7df868173efa89b50b45e7bd58e08f", "fusion_lon": 0.0, "bike_id": "4c7df868173efa89b50b45e7bd58e08f", "is_disabled": 0, "is_reserved": 0}, {"rental_uris": {"ios": "https://dc.lft.to/lastmile_qr_scan", "android": "https://dc.lft.to/lastmile_qr_scan"}, "lon": -77.08479966666667, "type": "electric_bike", "fusion_lat": 0.0, "lat": 38.8905975, "name": "3841074d21c8291e8613e6405e705019", "fusion_lon": 0.0, "bike_id": "3841074d21c8291e8613e6405e705019", "is_disabled": 0, "is_reserved": 0}, {"rental_uris": {"ios": "https://dc.lft.to/lastmile_qr_scan", "android": "https://dc.lft.to/lastmile_qr_scan"}, "lon": -77.03844583333333, "type": "electric_scooter", "fusion_lat": 0.0, "lat": 38.907513, "name": "7ad42d3441d12157fcfd9ee92a4d1667", "fusion_lon": 0.0, "bike_id": "7ad42d3441d12157fcfd9ee92a4d1667", "is_disabled": 0, "is_reserved": 0}, {"rental_uris": {"ios": "https://dc.lft.to/lastmile_qr_scan", "android": "https://dc.lft.to/lastmile_qr_scan"}, "lon": -77.02961, "type": "electric_scooter", "fusion_lat": 0.0, "lat": 38.91723866666667, "name": "5dd7073850147a37f539d1a979a09de3", "fusion_lon": 0.0, "bike_id": "5dd7073850147a37f539d1a979a09de3", "is_disabled": 0, "is_reserved": 0}, {"rental_uris": {"ios": "https://dc.lft.to/lastmile_qr_scan", "android": "https://dc.lft.to/lastmile_qr_scan"}, "lon": -77.03865833333333, "type": "electric_scooter", "fusion_lat": 0.0, "lat": 38.9156115, "name": "5e0ff8c097440f7c445135e393f7edf2", "fusion_lon": 0.0, "bike_id": "5e0ff8c097440f7c445135e393f7edf2", "is_disabled": 0, "is_reserved": 0}, {"rental_uris": {"ios": "https://dc.lft.to/lastmile_qr_scan", "android": "https://dc.lft.to/lastmile_qr_scan"}, "lon": -76.97415533333333, "type": "electric_scooter", "fusion_lat": 0.0, "lat": 38.902374, "name": "023a4ea8e7a00d084f4114681a1d9d53", "fusion_lon": 0.0, "bike_id": "023a4ea8e7a00d084f4114681a1d9d53", "is_disabled": 0, "is_reserved": 0}, {"rental_uris": {"ios": "https://dc.lft.to/lastmile_qr_scan", "android": "https://dc.lft.to/lastmile_qr_scan"}, "lon": -76.9568065, "type": "electric_bike", "fusion_lat": 0.0, "lat": 38.94731983333333, "name": "7751bdf14ea3739f0213fd2623738f2b", "fusion_lon": 0.0, "bike_id": "7751bdf14ea3739f0213fd2623738f2b", "is_disabled": 0, "is_reserved": 0}, {"rental_uris": {"ios": "https://dc.lft.to/lastmile_qr_scan", "android": "https://dc.lft.to/lastmile_qr_scan"}, "lon": -77.03423583333333, "type": "electric_scooter", "fusion_lat": 0.0, "lat": 38.924287, "name": "ee181b4a078f95f212660cbc6af96387", "fusion_lon": 0.0, "bike_id": "ee181b4a078f95f212660cbc6af96387", "is_disabled": 0, "is_reserved": 0}, {"rental_uris": {"ios": "https://dc.lft.to/lastmile_qr_scan", "android": "https://dc.lft.to/lastmile_qr_scan"}, "lon": -77.08054716666666, "type": "electric_bike", "fusion_lat": 0.0, "lat": 38.84848566666667, "name": "4fd39389d87f39978dab887c2234a5b3", "fusion_lon": 0.0, "bike_id": "4fd39389d87f39978dab887c2234a5b3", "is_disabled": 0, "is_reserved": 0}, {"rental_uris": {"ios": "https://dc.lft.to/lastmile_qr_scan", "android": "https://dc.lft.to/lastmile_qr_scan"}, "lon": -77.04708066666667, "type": "electric_scooter", "fusion_lat": 0.0, "lat": 38.902404833333335, "name": "9429e34494c79dc6c7b0625f61f8bbef", "fusion_lon": 0.0, "bike_id": "9429e34494c79dc6c7b0625f61f8bbef", "is_disabled": 0, "is_reserved": 0}, {"rental_uris": {"ios": "https://dc.lft.to/lastmile_qr_scan", "android": "https://dc.lft.to/lastmile_qr_scan"}, "lon": -77.01589266666667, "type": "electric_scooter", "fusion_lat": 0.0, "lat": 38.957093666666665, "name": "b51663a6ad0280684d2f426bff6991ed", "fusion_lon": 0.0, "bike_id": "b51663a6ad0280684d2f426bff6991ed", "is_disabled": 0, "is_reserved": 0}, {"rental_uris": {"ios": "https://dc.lft.to/lastmile_qr_scan", "android": "https://dc.lft.to/lastmile_qr_scan"}, "lon": -77.03267316666667, "type": "electric_scooter", "fusion_lat": 0.0, "lat": 38.93825433333333, "name": "a611daa4c2e11bb04db4b9d4bb5e60ef", "fusion_lon": 0.0, "bike_id": "a611daa4c2e11bb04db4b9d4bb5e60ef", "is_disabled": 0, "is_reserved": 0}, {"rental_uris": {"ios": "https://dc.lft.to/lastmile_qr_scan", "android": "https://dc.lft.to/lastmile_qr_scan"}, "lon": -77.03664283333333, "type": "electric_scooter", "fusion_lat": 0.0, "lat": 38.91726666666667, "name": "fce17c531f400a440a03c05614d90efa", "fusion_lon": 0.0, "bike_id": "fce17c531f400a440a03c05614d90efa", "is_disabled": 0, "is_reserved": 0}, {"rental_uris": {"ios": "https://dc.lft.to/lastmile_qr_scan", "android": "https://dc.lft.to/lastmile_qr_scan"}, "lon": -77.0269235, "type": "electric_scooter", "fusion_lat": 0.0, "lat": 38.906843, "name": "cfe66903f4476af428a092fca4cbf576", "fusion_lon": 0.0, "bike_id": "cfe66903f4476af428a092fca4cbf576", "is_disabled": 0, "is_reserved": 0}, {"rental_uris": {"ios": "https://dc.lft.to/lastmile_qr_scan", "android": "https://dc.lft.to/lastmile_qr_scan"}, "lon": -77.02834716666666, "type": "electric_scooter", "fusion_lat": 0.0, "lat": 38.887721666666664, "name": "1ab4118469eb409ddaa85c335cc5914d", "fusion_lon": 0.0, "bike_id": "1ab4118469eb409ddaa85c335cc5914d", "is_disabled": 0, "is_reserved": 0}, {"rental_uris": {"ios": "https://dc.lft.to/lastmile_qr_scan", "android": "https://dc.lft.to/lastmile_qr_scan"}, "lon": -77.092089, "type": "electric_scooter", "fusion_lat": 0.0, "lat": 38.917136, "name": "e6c97cc7e91dee29446843b8d604bd87", "fusion_lon": 0.0, "bike_id": "e6c97cc7e91dee29446843b8d604bd87", "is_disabled": 0, "is_reserved": 0}, {"rental_uris": {"ios": "https://dc.lft.to/lastmile_qr_scan", "android": "https://dc.lft.to/lastmile_qr_scan"}, "lon": -77.03833433333334, "type": "electric_scooter", "fusion_lat": 0.0, "lat": 38.902563666666666, "name": "9b46b1301f2acd466422afee2a12a849", "fusion_lon": 0.0, "bike_id": "9b46b1301f2acd466422afee2a12a849", "is_disabled": 0, "is_reserved": 0}, {"rental_uris": {"ios": "https://dc.lft.to/lastmile_qr_scan", "android": "https://dc.lft.to/lastmile_qr_scan"}, "lon": -77.014381, "type": "electric_scooter", "fusion_lat": 0.0, "lat": 38.929901, "name": "66b1784fe3c2fc2adb65d5e7d11079ab", "fusion_lon": 0.0, "bike_id": "66b1784fe3c2fc2adb65d5e7d11079ab", "is_disabled": 0, "is_reserved": 0}, {"rental_uris": {"ios": "https://dc.lft.to/lastmile_qr_scan", "android": "https://dc.lft.to/lastmile_qr_scan"}, "lon": -77.06460116666666, "type": "electric_scooter", "fusion_lat": 0.0, "lat": 38.910487, "name": "357b1ef4cf5713275a4c694aac4191bb", "fusion_lon": 0.0, "bike_id": "357b1ef4cf5713275a4c694aac4191bb", "is_disabled": 0, "is_reserved": 0}, {"rental_uris": {"ios": "https://dc.lft.to/lastmile_qr_scan", "android": "https://dc.lft.to/lastmile_qr_scan"}, "lon": -77.03444716666667, "type": "electric_scooter", "fusion_lat": 0.0, "lat": 38.9184385, "name": "2e613798f157f5de5e357e06d30f79b9", "fusion_lon": 0.0, "bike_id": "2e613798f157f5de5e357e06d30f79b9", "is_disabled": 0, "is_reserved": 0}, {"rental_uris": {"ios": "https://dc.lft.to/lastmile_qr_scan", "android": "https://dc.lft.to/lastmile_qr_scan"}, "lon": -77.022233, "type": "electric_scooter", "fusion_lat": 0.0, "lat": 38.89353283333333, "name": "f8002bc9c4c7fb019f3f4523bfdc7671", "fusion_lon": 0.0, "bike_id": "f8002bc9c4c7fb019f3f4523bfdc7671", "is_disabled": 0, "is_reserved": 0}, {"rental_uris": {"ios": "https://dc.lft.to/lastmile_qr_scan", "android": "https://dc.lft.to/lastmile_qr_scan"}, "lon": -77.12815133333334, "type": "electric_bike", "fusion_lat": 0.0, "lat": 38.865339166666665, "name": "ce53e2096cf621a99e82476e75b11b79", "fusion_lon": 0.0, "bike_id": "ce53e2096cf621a99e82476e75b11b79", "is_disabled": 0, "is_reserved": 0}, {"rental_uris": {"ios": "https://dc.lft.to/lastmile_qr_scan", "android": "https://dc.lft.to/lastmile_qr_scan"}, "lon": -77.06392833333334, "type": "electric_scooter", "fusion_lat": 0.0, "lat": 38.9290945, "name": "7829c2a74d0bd9c6d58d6dc22d6fc1ba", "fusion_lon": 0.0, "bike_id": "7829c2a74d0bd9c6d58d6dc22d6fc1ba", "is_disabled": 0, "is_reserved": 0}, {"rental_uris": {"ios": "https://dc.lft.to/lastmile_qr_scan", "android": "https://dc.lft.to/lastmile_qr_scan"}, "lon": -77.046097, "type": "electric_scooter", "fusion_lat": 0.0, "lat": 38.91691183333333, "name": "9515bd749b60f40ed55064685da261e0", "fusion_lon": 0.0, "bike_id": "9515bd749b60f40ed55064685da261e0", "is_disabled": 0, "is_reserved": 0}, {"rental_uris": {"ios": "https://dc.lft.to/lastmile_qr_scan", "android": "https://dc.lft.to/lastmile_qr_scan"}, "lon": -77.02946816666666, "type": "electric_scooter", "fusion_lat": 0.0, "lat": 38.905041833333335, "name": "a16c862d07dcabfc913fe3b868aee203", "fusion_lon": 0.0, "bike_id": "a16c862d07dcabfc913fe3b868aee203", "is_disabled": 0, "is_reserved": 0}, {"rental_uris": {"ios": "https://dc.lft.to/lastmile_qr_scan", "android": "https://dc.lft.to/lastmile_qr_scan"}, "lon": -76.9160065, "type": "electric_bike", "fusion_lat": 0.0, "lat": 38.87981816666667, "name": "52abc5ee3d2a998eff0103af85e7b52c", "fusion_lon": 0.0, "bike_id": "52abc5ee3d2a998eff0103af85e7b52c", "is_disabled": 0, "is_reserved": 0}, {"rental_uris": {"ios": "https://dc.lft.to/lastmile_qr_scan", "android": "https://dc.lft.to/lastmile_qr_scan"}, "lon": -77.0688915, "type": "electric_scooter", "fusion_lat": 0.0, "lat": 38.9402795, "name": "0920a340c0450bc2a41f531ba8188501", "fusion_lon": 0.0, "bike_id": "0920a340c0450bc2a41f531ba8188501", "is_disabled": 0, "is_reserved": 0}, {"rental_uris": {"ios": "https://dc.lft.to/lastmile_qr_scan", "android": "https://dc.lft.to/lastmile_qr_scan"}, "lon": -77.0320755, "type": "electric_scooter", "fusion_lat": 0.0, "lat": 38.91732666666667, "name": "41919fc2f0dc3cfcb9efd8c41159c903", "fusion_lon": 0.0, "bike_id": "41919fc2f0dc3cfcb9efd8c41159c903", "is_disabled": 0, "is_reserved": 0}, {"rental_uris": {"ios": "https://dc.lft.to/lastmile_qr_scan", "android": "https://dc.lft.to/lastmile_qr_scan"}, "lon": -77.12983566666666, "type": "electric_bike", "fusion_lat": 0.0, "lat": 38.79989666666667, "name": "bd595e72a38f96f9fc5bd02c786a0c86", "fusion_lon": 0.0, "bike_id": "bd595e72a38f96f9fc5bd02c786a0c86", "is_disabled": 0, "is_reserved": 0}, {"rental_uris": {"ios": "https://dc.lft.to/lastmile_qr_scan", "android": "https://dc.lft.to/lastmile_qr_scan"}, "lon": -77.03109383333333, "type": "electric_scooter", "fusion_lat": 0.0, "lat": 38.91185183333333, "name": "a37fbb864b8a3348b7a11ad500f12539", "fusion_lon": 0.0, "bike_id": "a37fbb864b8a3348b7a11ad500f12539", "is_disabled": 0, "is_reserved": 0}, {"rental_uris": {"ios": "https://dc.lft.to/lastmile_qr_scan", "android": "https://dc.lft.to/lastmile_qr_scan"}, "lon": -77.02406483333333, "type": "electric_bike", "fusion_lat": 0.0, "lat": 38.99440966666667, "name": "1e000a7817bfe8388b3809f192e49522", "fusion_lon": 0.0, "bike_id": "1e000a7817bfe8388b3809f192e49522", "is_disabled": 0, "is_reserved": 0}, {"rental_uris": {"ios": "https://dc.lft.to/lastmile_qr_scan", "android": "https://dc.lft.to/lastmile_qr_scan"}, "lon": -77.03225433333333, "type": "electric_scooter", "fusion_lat": 0.0, "lat": 38.903905, "name": "5e487ecc2eb3b9ec714bd2bee2ebe650", "fusion_lon": 0.0, "bike_id": "5e487ecc2eb3b9ec714bd2bee2ebe650", "is_disabled": 0, "is_reserved": 0}, {"rental_uris": {"ios": "https://dc.lft.to/lastmile_qr_scan", "android": "https://dc.lft.to/lastmile_qr_scan"}, "lon": -77.041707, "type": "electric_scooter", "fusion_lat": 0.0, "lat": 38.91732233333333, "name": "61437b9c596ce3c4e7d6cf4aab19b953", "fusion_lon": 0.0, "bike_id": "61437b9c596ce3c4e7d6cf4aab19b953", "is_disabled": 0, "is_reserved": 0}, {"rental_uris": {"ios": "https://dc.lft.to/lastmile_qr_scan", "android": "https://dc.lft.to/lastmile_qr_scan"}, "lon": -77.04023416666666, "type": "electric_scooter", "fusion_lat": 0.0, "lat": 38.91793166666667, "name": "42480582a9f574332b7d0d30910da906", "fusion_lon": 0.0, "bike_id": "42480582a9f574332b7d0d30910da906", "is_disabled": 0, "is_reserved": 0}, {"rental_uris": {"ios": "https://dc.lft.to/lastmile_qr_scan", "android": "https://dc.lft.to/lastmile_qr_scan"}, "lon": -77.017489, "type": "electric_scooter", "fusion_lat": 0.0, "lat": 38.877431, "name": "a5ce12a9626bbfbf5aea41bc4bd22567", "fusion_lon": 0.0, "bike_id": "a5ce12a9626bbfbf5aea41bc4bd22567", "is_disabled": 0, "is_reserved": 0}, {"rental_uris": {"ios": "https://dc.lft.to/lastmile_qr_scan", "android": "https://dc.lft.to/lastmile_qr_scan"}, "lon": -77.07046416666667, "type": "electric_bike", "fusion_lat": 0.0, "lat": 38.824496833333335, "name": "0da885e92653df84a4f7d2c4cd544149", "fusion_lon": 0.0, "bike_id": "0da885e92653df84a4f7d2c4cd544149", "is_disabled": 0, "is_reserved": 0}, {"rental_uris": {"ios": "https://dc.lft.to/lastmile_qr_scan", "android": "https://dc.lft.to/lastmile_qr_scan"}, "lon": -77.03967533333334, "type": "electric_scooter", "fusion_lat": 0.0, "lat": 38.902754, "name": "0e0c1fe523a9aa120d2cfcedfeb94c2c", "fusion_lon": 0.0, "bike_id": "0e0c1fe523a9aa120d2cfcedfeb94c2c", "is_disabled": 0, "is_reserved": 0}, {"rental_uris": {"ios": "https://dc.lft.to/lastmile_qr_scan", "android": "https://dc.lft.to/lastmile_qr_scan"}, "lon": -77.02399983333333, "type": "electric_scooter", "fusion_lat": 0.0, "lat": 38.90584233333333, "name": "311c8451077c1e129c24bbb6d20b0982", "fusion_lon": 0.0, "bike_id": "311c8451077c1e129c24bbb6d20b0982", "is_disabled": 0, "is_reserved": 0}, {"rental_uris": {"ios": "https://dc.lft.to/lastmile_qr_scan", "android": "https://dc.lft.to/lastmile_qr_scan"}, "lon": -77.0296065, "type": "electric_scooter", "fusion_lat": 0.0, "lat": 38.916889166666664, "name": "4e6ee49b0981366fba0f50c0ba728357", "fusion_lon": 0.0, "bike_id": "4e6ee49b0981366fba0f50c0ba728357", "is_disabled": 0, "is_reserved": 0}, {"rental_uris": {"ios": "https://dc.lft.to/lastmile_qr_scan", "android": "https://dc.lft.to/lastmile_qr_scan"}, "lon": -77.0356415, "type": "electric_scooter", "fusion_lat": 0.0, "lat": 38.9086475, "name": "0616d9d4af7e6bbcef6c3b989e49f31a", "fusion_lon": 0.0, "bike_id": "0616d9d4af7e6bbcef6c3b989e49f31a", "is_disabled": 0, "is_reserved": 0}, {"rental_uris": {"ios": "https://dc.lft.to/lastmile_qr_scan", "android": "https://dc.lft.to/lastmile_qr_scan"}, "lon": -77.02392316666666, "type": "electric_scooter", "fusion_lat": 0.0, "lat": 38.9529125, "name": "8d2d4ffdff517dfe639140bcc8b5a74d", "fusion_lon": 0.0, "bike_id": "8d2d4ffdff517dfe639140bcc8b5a74d", "is_disabled": 0, "is_reserved": 0}, {"rental_uris": {"ios": "https://dc.lft.to/lastmile_qr_scan", "android": "https://dc.lft.to/lastmile_qr_scan"}, "lon": -77.00981083333333, "type": "electric_scooter", "fusion_lat": 0.0, "lat": 38.91487216666667, "name": "bc8796a7d904c8cf6a1a66e400a0f410", "fusion_lon": 0.0, "bike_id": "bc8796a7d904c8cf6a1a66e400a0f410", "is_disabled": 0, "is_reserved": 0}, {"rental_uris": {"ios": "https://dc.lft.to/lastmile_qr_scan", "android": "https://dc.lft.to/lastmile_qr_scan"}, "lon": -77.03471316666666, "type": "electric_scooter", "fusion_lat": 0.0, "lat": 38.90752583333333, "name": "b063b4281e2f338b4f8c68d385510c64", "fusion_lon": 0.0, "bike_id": "b063b4281e2f338b4f8c68d385510c64", "is_disabled": 0, "is_reserved": 0}, {"rental_uris": {"ios": "https://dc.lft.to/lastmile_qr_scan", "android": "https://dc.lft.to/lastmile_qr_scan"}, "lon": -77.01782783333333, "type": "electric_scooter", "fusion_lat": 0.0, "lat": 38.900421, "name": "c16b5f61fb1bab85389226b8cd66cb8f", "fusion_lon": 0.0, "bike_id": "c16b5f61fb1bab85389226b8cd66cb8f", "is_disabled": 0, "is_reserved": 0}, {"rental_uris": {"ios": "https://dc.lft.to/lastmile_qr_scan", "android": "https://dc.lft.to/lastmile_qr_scan"}, "lon": -77.0105495, "type": "electric_scooter", "fusion_lat": 0.0, "lat": 38.879366, "name": "d86f50215f69883b2dedb7fdcf3aaa00", "fusion_lon": 0.0, "bike_id": "d86f50215f69883b2dedb7fdcf3aaa00", "is_disabled": 0, "is_reserved": 0}, {"rental_uris": {"ios": "https://dc.lft.to/lastmile_qr_scan", "android": "https://dc.lft.to/lastmile_qr_scan"}, "lon": -77.05864233333334, "type": "electric_scooter", "fusion_lat": 0.0, "lat": 38.9360455, "name": "2829951588eed09f31497d5c231ea372", "fusion_lon": 0.0, "bike_id": "2829951588eed09f31497d5c231ea372", "is_disabled": 0, "is_reserved": 0}, {"rental_uris": {"ios": "https://dc.lft.to/lastmile_qr_scan", "android": "https://dc.lft.to/lastmile_qr_scan"}, "lon": -76.96628466666667, "type": "electric_bike", "fusion_lat": 0.0, "lat": 38.94207983333333, "name": "259d91027e0ba7504159258b3d743e14", "fusion_lon": 0.0, "bike_id": "259d91027e0ba7504159258b3d743e14", "is_disabled": 0, "is_reserved": 0}, {"rental_uris": {"ios": "https://dc.lft.to/lastmile_qr_scan", "android": "https://dc.lft.to/lastmile_qr_scan"}, "lon": -77.02104933333334, "type": "electric_scooter", "fusion_lat": 0.0, "lat": 38.91310683333333, "name": "bff9e5c0fd07cc9f30c96542a54485ab", "fusion_lon": 0.0, "bike_id": "bff9e5c0fd07cc9f30c96542a54485ab", "is_disabled": 0, "is_reserved": 0}, {"rental_uris": {"ios": "https://dc.lft.to/lastmile_qr_scan", "android": "https://dc.lft.to/lastmile_qr_scan"}, "lon": -77.02587133333333, "type": "electric_scooter", "fusion_lat": 0.0, "lat": 38.896055833333335, "name": "43ab6e9ed18692d0e31f62cf3b5bd950", "fusion_lon": 0.0, "bike_id": "43ab6e9ed18692d0e31f62cf3b5bd950", "is_disabled": 0, "is_reserved": 0}, {"rental_uris": {"ios": "https://dc.lft.to/lastmile_qr_scan", "android": "https://dc.lft.to/lastmile_qr_scan"}, "lon": -77.0259625, "type": "electric_scooter", "fusion_lat": 0.0, "lat": 38.91494733333333, "name": "bf692898b44509466f0dda78239f333a", "fusion_lon": 0.0, "bike_id": "bf692898b44509466f0dda78239f333a", "is_disabled": 0, "is_reserved": 0}, {"rental_uris": {"ios": "https://dc.lft.to/lastmile_qr_scan", "android": "https://dc.lft.to/lastmile_qr_scan"}, "lon": -76.937507, "type": "electric_scooter", "fusion_lat": 0.0, "lat": 38.890494333333336, "name": "aff97ba9fee94880467b0056b166280b", "fusion_lon": 0.0, "bike_id": "aff97ba9fee94880467b0056b166280b", "is_disabled": 0, "is_reserved": 0}, {"rental_uris": {"ios": "https://dc.lft.to/lastmile_qr_scan", "android": "https://dc.lft.to/lastmile_qr_scan"}, "lon": -77.02297016666667, "type": "electric_scooter", "fusion_lat": 0.0, "lat": 38.93293033333333, "name": "1877b02726b065a37e8e0d230635f239", "fusion_lon": 0.0, "bike_id": "1877b02726b065a37e8e0d230635f239", "is_disabled": 0, "is_reserved": 0}, {"rental_uris": {"ios": "https://dc.lft.to/lastmile_qr_scan", "android": "https://dc.lft.to/lastmile_qr_scan"}, "lon": -77.04682516666666, "type": "electric_scooter", "fusion_lat": 0.0, "lat": 38.892223, "name": "6bc823887b089e714abb72ae1106a77c", "fusion_lon": 0.0, "bike_id": "6bc823887b089e714abb72ae1106a77c", "is_disabled": 0, "is_reserved": 0}, {"rental_uris": {"ios": "https://dc.lft.to/lastmile_qr_scan", "android": "https://dc.lft.to/lastmile_qr_scan"}, "lon": -77.03207933333333, "type": "electric_scooter", "fusion_lat": 0.0, "lat": 38.913278166666665, "name": "ba08fc89188ccb7c4c22bb0a23682321", "fusion_lon": 0.0, "bike_id": "ba08fc89188ccb7c4c22bb0a23682321", "is_disabled": 0, "is_reserved": 0}, {"rental_uris": {"ios": "https://dc.lft.to/lastmile_qr_scan", "android": "https://dc.lft.to/lastmile_qr_scan"}, "lon": -77.04178316666666, "type": "electric_scooter", "fusion_lat": 0.0, "lat": 38.92023183333333, "name": "f8540e84ea866154137159a08422c121", "fusion_lon": 0.0, "bike_id": "f8540e84ea866154137159a08422c121", "is_disabled": 0, "is_reserved": 0}, {"rental_uris": {"ios": "https://dc.lft.to/lastmile_qr_scan", "android": "https://dc.lft.to/lastmile_qr_scan"},