{"data": {"bikes": [{"lon": -77.0292445, "lat": 38.930634833333336, "name": "c96fcec2719da20839c3d87bf9652848", "fusion_lat": 0.0, "fusion_lon": 0.0, "rental_uris": {"android": "https://dc.lft.to/lastmile_qr_scan", "ios": "https://dc.lft.to/lastmile_qr_scan"}, "is_reserved": 0, "is_disabled": 0, "type": "electric_scooter", "bike_id": "c96fcec2719da20839c3d87bf9652848"}, {"lon": -77.03212633333334, "lat": 38.919943, "name": "9cc4732080904e973190275711880858", "fusion_lat": 0.0, "fusion_lon": 0.0, "rental_uris": {"android": "https://dc.lft.to/lastmile_qr_scan", "ios": "https://dc.lft.to/lastmile_qr_scan"}, "is_reserved": 0, "is_disabled": 0, "type": "electric_scooter", "bike_id": "9cc4732080904e973190275711880858"}, {"lon": -77.03660666666667, "lat": 38.922813, "name": "ddc3e7539f12d260beb412a2a855d352", "fusion_lat": 0.0, "fusion_lon": 0.0, "rental_uris": {"android": "https://dc.lft.to/lastmile_qr_scan", "ios": "https://dc.lft.to/lastmile_qr_scan"}, "is_reserved": 0, "is_disabled": 0, "type": "electric_scooter", "bike_id": "ddc3e7539f12d260beb412a2a855d352"}, {"lon": -77.03416266666666, "lat": 38.92949316666667, "name": "02002bbcb9236d2d6d8a2ab07a6299e9", "fusion_lat": 0.0, "fusion_lon": 0.0, "rental_uris": {"android": "https://dc.lft.to/lastmile_qr_scan", "ios": "https://dc.lft.to/lastmile_qr_scan"}, "is_reserved": 0, "is_disabled": 0, "type": "electric_scooter", "bike_id": "02002bbcb9236d2d6d8a2ab07a6299e9"}, {"lon": -77.03658883333334, "lat": 38.903736333333335, "name": "cbc622151ed7d602c846d0c2ac251e64", "fusion_lat": 0.0, "fusion_lon": 0.0, "rental_uris": {"android": "https://dc.lft.to/lastmile_qr_scan", "ios": "https://dc.lft.to/lastmile_qr_scan"}, "is_reserved": 0, "is_disabled": 0, "type": "electric_scooter", "bike_id": "cbc622151ed7d602c846d0c2ac251e64"}, {"lon": -77.03836983333333, "lat": 38.911919833333336, "name": "769906f3c6e6e83a9e5aa3128d5bad37", "fusion_lat": 0.0, "fusion_lon": 0.0, "rental_uris": {"android": "https://dc.lft.to/lastmile_qr_scan", "ios": "https://dc.lft.to/lastmile_qr_scan"}, "is_reserved": 0, "is_disabled": 0, "type": "electric_scooter", "bike_id": "769906f3c6e6e83a9e5aa3128d5bad37"}, {"lon": -77.02953883333333, "lat": 38.9227015, "name": "278a54fe23953f5e459fadaada2be5d0", "fusion_lat": 0.0, "fusion_lon": 0.0, "rental_uris": {"android": "https://dc.lft.to/lastmile_qr_scan", "ios": "https://dc.lft.to/lastmile_qr_scan"}, "is_reserved": 0, "is_disabled": 0, "type": "electric_scooter", "bike_id": "278a54fe23953f5e459fadaada2be5d0"}, {"lon": -77.03671516666667, "lat": 38.908455833333335, "name": "618f4985c99d2caa6697d239bed2cd72", "fusion_lat": 0.0, "fusion_lon": 0.0, "rental_uris": {"android": "https://dc.lft.to/lastmile_qr_scan", "ios": "https://dc.lft.to/lastmile_qr_scan"}, "is_reserved": 0, "is_disabled": 0, "type": "electric_scooter", "bike_id": "618f4985c99d2caa6697d239bed2cd72"}, {"lon": -76.99874233333334, "lat": 38.90027366666666, "name": "4e3de370725e45987fe199f732891701", "fusion_lat": 0.0, "fusion_lon": 0.0, "rental_uris": {"android": "https://dc.lft.to/lastmile_qr_scan", "ios": "https://dc.lft.to/lastmile_qr_scan"}, "is_reserved": 0, "is_disabled": 0, "type": "electric_scooter", "bike_id": "4e3de370725e45987fe199f732891701"}, {"lon": -76.936682, "lat": 38.880272166666664, "name": "10d4685340fe7e76040fdde7434111da", "fusion_lat": 0.0, "fusion_lon": 0.0, "rental_uris": {"android": "https://dc.lft.to/lastmile_qr_scan", "ios": "https://dc.lft.to/lastmile_qr_scan"}, "is_reserved": 0, "is_disabled": 0, "type": "electric_scooter", "bike_id": "10d4685340fe7e76040fdde7434111da"}, {"lon": -77.04674566666667, "lat": 38.91562616666667, "name": "887cf289fe9fda5c6fa19f3b8fddefb8", "fusion_lat": 0.0, "fusion_lon": 0.0, "rental_uris": {"android": "https://dc.lft.to/lastmile_qr_scan", "ios": "https://dc.lft.to/lastmile_qr_scan"}, "is_reserved": 0, "is_disabled": 0, "type": "electric_scooter", "bike_id": "887cf289fe9fda5c6fa19f3b8fddefb8"}, {"lon": -77.13179216666667, "lat": 38.869101666666666, "name": "9fd0ffea8cc8cd203460477c6646bf7b", "fusion_lat": 0.0, "fusion_lon": 0.0, "rental_uris": {"android": "https://dc.lft.to/lastmile_qr_scan", "ios": "https://dc.lft.to/lastmile_qr_scan"}, "is_reserved": 0, "is_disabled": 0, "type": "electric_bike", "bike_id": "9fd0ffea8cc8cd203460477c6646bf7b"}, {"lon": -77.0306865, "lat": 38.880458, "name": "6ec3194d45924ce638b8fee8f0c6b818", "fusion_lat": 0.0, "fusion_lon": 0.0, "rental_uris": {"android": "https://dc.lft.to/lastmile_qr_scan", "ios": "https://dc.lft.to/lastmile_qr_scan"}, "is_reserved": 0, "is_disabled": 0, "type": "electric_scooter", "bike_id": "6ec3194d45924ce638b8fee8f0c6b818"}, {"lon": -77.03771416666666, "lat": 38.996754333333335, "name": "418262f2a9e4f497c5446caab2b19452", "fusion_lat": 0.0, "fusion_lon": 0.0, "rental_uris": {"android": "https://dc.lft.to/lastmile_qr_scan", "ios": "https://dc.lft.to/lastmile_qr_scan"}, "is_reserved": 0, "is_disabled": 0, "type": "electric_bike", "bike_id": "418262f2a9e4f497c5446caab2b19452"}, {"lon": -77.01919, "lat": 38.916569833333334, "name": "30e66d6aa52bda0d09a0ba93a995c260", "fusion_lat": 0.0, "fusion_lon": 0.0, "rental_uris": {"android": "https://dc.lft.to/lastmile_qr_scan", "ios": "https://dc.lft.to/lastmile_qr_scan"}, "is_reserved": 0, "is_disabled": 0, "type": "electric_scooter", "bike_id": "30e66d6aa52bda0d09a0ba93a995c260"}, {"lon": -77.02410683333333, "lat": 38.909602166666666, "name": "ed8e6018f55f234665c0bbd570a00625", "fusion_lat": 0.0, "fusion_lon": 0.0, "rental_uris": {"android": "https://dc.lft.to/lastmile_qr_scan", "ios": "https://dc.lft.to/lastmile_qr_scan"}, "is_reserved": 0, "is_disabled": 0, "type": "electric_scooter", "bike_id": "ed8e6018f55f234665c0bbd570a00625"}, {"lon": -77.02821716666666, "lat": 38.885081666666665, "name": "4c7a0390ef1fe794431e51020b9111c7", "fusion_lat": 0.0, "fusion_lon": 0.0, "rental_uris": {"android": "https://dc.lft.to/lastmile_qr_scan", "ios": "https://dc.lft.to/lastmile_qr_scan"}, "is_reserved": 0, "is_disabled": 0, "type": "electric_scooter", "bike_id": "4c7a0390ef1fe794431e51020b9111c7"}, {"lon": -77.02719683333333, "lat": 38.899795, "name": "63bb21ab90b3ff604033046bfb3346d9", "fusion_lat": 0.0, "fusion_lon": 0.0, "rental_uris": {"android": "https://dc.lft.to/lastmile_qr_scan", "ios": "https://dc.lft.to/lastmile_qr_scan"}, "is_reserved": 0, "is_disabled": 0, "type": "electric_scooter", "bike_id": "63bb21ab90b3ff604033046bfb3346d9"}, {"lon": -77.04295066666667, "lat": 38.90728466666667, "name": "7c0e819c77351ec6c9f1537de121adf6", "fusion_lat": 0.0, "fusion_lon": 0.0, "rental_uris": {"android": "https://dc.lft.to/lastmile_qr_scan", "ios": "https://dc.lft.to/lastmile_qr_scan"}, "is_reserved": 0, "is_disabled": 0, "type": "electric_scooter", "bike_id": "7c0e819c77351ec6c9f1537de121adf6"}, {"lon": -76.993656, "lat": 38.928391833333336, "name": "f06f793dcbb52f0a5e1d3e9ef1463072", "fusion_lat": 0.0, "fusion_lon": 0.0, "rental_uris": {"android": "https://dc.lft.to/lastmile_qr_scan", "ios": "https://dc.lft.to/lastmile_qr_scan"}, "is_reserved": 0, "is_disabled": 0, "type": "electric_scooter", "bike_id": "f06f793dcbb52f0a5e1d3e9ef1463072"}, {"lon": -77.03900766666666, "lat": 38.923276, "name": "e8cefdacf55d23a210eb8ddf15570381", "fusion_lat": 0.0, "fusion_lon": 0.0, "rental_uris": {"android": "https://dc.lft.to/lastmile_qr_scan", "ios": "https://dc.lft.to/lastmile_qr_scan"}, "is_reserved": 0, "is_disabled": 0, "type": "electric_scooter", "bike_id": "e8cefdacf55d23a210eb8ddf15570381"}, {"lon": -77.02506, "lat": 38.9341045, "name": "7418239542b53ff9bff0496d188d9c6e", "fusion_lat": 0.0, "fusion_lon": 0.0, "rental_uris": {"android": "https://dc.lft.to/lastmile_qr_scan", "ios": "https://dc.lft.to/lastmile_qr_scan"}, "is_reserved": 0, "is_disabled": 0, "type": "electric_scooter", "bike_id": "7418239542b53ff9bff0496d188d9c6e"}, {"lon": -76.99006133333333, "lat": 38.86508516666667, "name": "98bed0f2d5ab07ce80b9ad2383c69969", "fusion_lat": 0.0, "fusion_lon": 0.0, "rental_uris": {"android": "https://dc.lft.to/lastmile_qr_scan", "ios": "https://dc.lft.to/lastmile_qr_scan"}, "is_reserved": 0, "is_disabled": 0, "type": "electric_scooter", "bike_id": "98bed0f2d5ab07ce80b9ad2383c69969"}, {"lon": -77.048807, "lat": 38.90169016666667, "name": "248cd40bab35cfc9fbe75fb4f18b901b", "fusion_lat": 0.0, "fusion_lon": 0.0, "rental_uris": {"android": "https://dc.lft.to/lastmile_qr_scan", "ios": "https://dc.lft.to/lastmile_qr_scan"}, "is_reserved": 0, "is_disabled": 0, "type": "electric_scooter", "bike_id": "248cd40bab35cfc9fbe75fb4f18b901b"}, {"lon": -77.0239095, "lat": 38.91671616666667, "name": "4309d3366a0a22db5852b0ead12741c8", "fusion_lat": 0.0, "fusion_lon": 0.0, "rental_uris": {"android": "https://dc.lft.to/lastmile_qr_scan", "ios": "https://dc.lft.to/lastmile_qr_scan"}, "is_reserved": 0, "is_disabled": 0, "type": "electric_scooter", "bike_id": "4309d3366a0a22db5852b0ead12741c8"}, {"lon": -76.99976266666667, "lat": 38.83833883333333, "name": "0f5b377328f0fc1348984ada5c725de3", "fusion_lat": 0.0, "fusion_lon": 0.0, "rental_uris": {"android": "https://dc.lft.to/lastmile_qr_scan", "ios": "https://dc.lft.to/lastmile_qr_scan"}, "is_reserved": 0, "is_disabled": 0, "type": "electric_scooter", "bike_id": "0f5b377328f0fc1348984ada5c725de3"}, {"lon": -76.9907685, "lat": 38.860517, "name": "0b19ba72b7d4c88f3d40f3d2ee677a7e", "fusion_lat": 0.0, "fusion_lon": 0.0, "rental_uris": {"android": "https://dc.lft.to/lastmile_qr_scan", "ios": "https://dc.lft.to/lastmile_qr_scan"}, "is_reserved": 0, "is_disabled": 0, "type": "electric_scooter", "bike_id": "0b19ba72b7d4c88f3d40f3d2ee677a7e"}, {"lon": -77.03760916666667, "lat": 38.91694566666666, "name": "5653e21626969dfa2a1ca000d93af920", "fusion_lat": 0.0, "fusion_lon": 0.0, "rental_uris": {"android": "https://dc.lft.to/lastmile_qr_scan", "ios": "https://dc.lft.to/lastmile_qr_scan"}, "is_reserved": 0, "is_disabled": 0, "type": "electric_scooter", "bike_id": "5653e21626969dfa2a1ca000d93af920"}, {"lon": -77.0384605, "lat": 38.902622666666666, "name": "5556f70471ab76c41814f18ed660d8df", "fusion_lat": 0.0, "fusion_lon": 0.0, "rental_uris": {"android": "https://dc.lft.to/lastmile_qr_scan", "ios": "https://dc.lft.to/lastmile_qr_scan"}, "is_reserved": 0, "is_disabled": 0, "type": "electric_scooter", "bike_id": "5556f70471ab76c41814f18ed660d8df"}, {"lon": -77.04034816666666, "lat": 38.90465716666667, "name": "9f7d28691b3163b1dc82cea99cc3a6eb", "fusion_lat": 0.0, "fusion_lon": 0.0, "rental_uris": {"android": "https://dc.lft.to/lastmile_qr_scan", "ios": "https://dc.lft.to/lastmile_qr_scan"}, "is_reserved": 0, "is_disabled": 0, "type": "electric_scooter", "bike_id": "9f7d28691b3163b1dc82cea99cc3a6eb"}, {"lon": -77.04161483333333, "lat": 38.915450166666666, "name": "ea63765dbe8c035a4bfce54690ca596e", "fusion_lat": 0.0, "fusion_lon": 0.0, "rental_uris": {"android": "https://dc.lft.to/lastmile_qr_scan", "ios": "https://dc.lft.to/lastmile_qr_scan"}, "is_reserved": 0, "is_disabled": 0, "type": "electric_scooter", "bike_id": "ea63765dbe8c035a4bfce54690ca596e"}, {"lon": -77.02953583333333, "lat": 38.905006666666665, "name": "75a1aa885d5703c44968633ecca584e4", "fusion_lat": 0.0, "fusion_lon": 0.0, "rental_uris": {"android": "https://dc.lft.to/lastmile_qr_scan", "ios": "https://dc.lft.to/lastmile_qr_scan"}, "is_reserved": 0, "is_disabled": 0, "type": "electric_scooter", "bike_id": "75a1aa885d5703c44968633ecca584e4"}, {"lon": -77.008596, "lat": 38.869467, "name": "2e9c6a3b74c9fcfe35af97c72fa8f12d", "fusion_lat": 0.0, "fusion_lon": 0.0, "rental_uris": {"android": "https://dc.lft.to/lastmile_qr_scan", "ios": "https://dc.lft.to/lastmile_qr_scan"}, "is_reserved": 0, "is_disabled": 0, "type": "electric_scooter", "bike_id": "2e9c6a3b74c9fcfe35af97c72fa8f12d"}, {"lon": -77.03704083333334, "lat": 38.91659933333333, "name": "8e2f8bc18adc21a15778905108c5c5db", "fusion_lat": 0.0, "fusion_lon": 0.0, "rental_uris": {"android": "https://dc.lft.to/lastmile_qr_scan", "ios": "https://dc.lft.to/lastmile_qr_scan"}, "is_reserved": 0, "is_disabled": 0, "type": "electric_scooter", "bike_id": "8e2f8bc18adc21a15778905108c5c5db"}, {"lon": -77.02911666666667, "lat": 38.884580166666666, "name": "0c0d6aaf2d698af903be8846b3c96f34", "fusion_lat": 0.0, "fusion_lon": 0.0, "rental_uris": {"android": "https://dc.lft.to/lastmile_qr_scan", "ios": "https://dc.lft.to/lastmile_qr_scan"}, "is_reserved": 0, "is_disabled": 0, "type": "electric_scooter", "bike_id": "0c0d6aaf2d698af903be8846b3c96f34"}, {"lon": -77.01357833333333, "lat": 38.914842166666666, "name": "0c4683a6fd07c4cd91db8401d9cb6f10", "fusion_lat": 0.0, "fusion_lon": 0.0, "rental_uris": {"android": "https://dc.lft.to/lastmile_qr_scan", "ios": "https://dc.lft.to/lastmile_qr_scan"}, "is_reserved": 0, "is_disabled": 0, "type": "electric_scooter", "bike_id": "0c4683a6fd07c4cd91db8401d9cb6f10"}, {"lon": -77.015271, "lat": 38.887395833333336, "name": "2fcd8e62cbb4af31fc1aed8ec25cffe4", "fusion_lat": 0.0, "fusion_lon": 0.0, "rental_uris": {"android": "https://dc.lft.to/lastmile_qr_scan", "ios": "https://dc.lft.to/lastmile_qr_scan"}, "is_reserved": 0, "is_disabled": 0, "type": "electric_scooter", "bike_id": "2fcd8e62cbb4af31fc1aed8ec25cffe4"}, {"lon": -77.0250945, "lat": 38.921332, "name": "3351e254ca078dee85802bb7df158404", "fusion_lat": 0.0, "fusion_lon": 0.0, "rental_uris": {"android": "https://dc.lft.to/lastmile_qr_scan", "ios": "https://dc.lft.to/lastmile_qr_scan"}, "is_reserved": 0, "is_disabled": 0, "type": "electric_scooter", "bike_id": "3351e254ca078dee85802bb7df158404"}, {"lon": -77.11429866666667, "lat": 38.84299383333333, "name": "2e5bddbc420c82cc012970239eada017", "fusion_lat": 0.0, "fusion_lon": 0.0, "rental_uris": {"android": "https://dc.lft.to/lastmile_qr_scan", "ios": "https://dc.lft.to/lastmile_qr_scan"}, "is_reserved": 0, "is_disabled": 0, "type": "electric_bike", "bike_id": "2e5bddbc420c82cc012970239eada017"}, {"lon": -77.049934, "lat": 38.901157166666664, "name": "4e471a2cfc1e31edb0d1fbc9f50a3e48", "fusion_lat": 0.0, "fusion_lon": 0.0, "rental_uris": {"android": "https://dc.lft.to/lastmile_qr_scan", "ios": "https://dc.lft.to/lastmile_qr_scan"}, "is_reserved": 0, "is_disabled": 0, "type": "electric_scooter", "bike_id": "4e471a2cfc1e31edb0d1fbc9f50a3e48"}, {"lon": -77.05315383333334, "lat": 38.8205, "name": "ac97a6cfff126734cb82a890fe20106a", "fusion_lat": 0.0, "fusion_lon": 0.0, "rental_uris": {"android": "https://dc.lft.to/lastmile_qr_scan", "ios": "https://dc.lft.to/lastmile_qr_scan"}, "is_reserved": 0, "is_disabled": 0, "type": "electric_bike", "bike_id": "ac97a6cfff126734cb82a890fe20106a"}, {"lon": -77.02186683333333, "lat": 38.91878366666667, "name": "3e6621561d19805c84d95beb29d1335a", "fusion_lat": 0.0, "fusion_lon": 0.0, "rental_uris": {"android": "https://dc.lft.to/lastmile_qr_scan", "ios": "https://dc.lft.to/lastmile_qr_scan"}, "is_reserved": 0, "is_disabled": 0, "type": "electric_scooter", "bike_id": "3e6621561d19805c84d95beb29d1335a"}, {"lon": -77.079036, "lat": 38.8393965, "name": "de4f5eed59402b7a2a3d2cd0ca0c2f59", "fusion_lat": 0.0, "fusion_lon": 0.0, "rental_uris": {"android": "https://dc.lft.to/lastmile_qr_scan", "ios": "https://dc.lft.to/lastmile_qr_scan"}, "is_reserved": 0, "is_disabled": 0, "type": "electric_bike", "bike_id": "de4f5eed59402b7a2a3d2cd0ca0c2f59"}, {"lon": -77.04238116666667, "lat": 38.909298166666666, "name": "fca389b233dbf5ee8922281d03a29727", "fusion_lat": 0.0, "fusion_lon": 0.0, "rental_uris": {"android": "https://dc.lft.to/lastmile_qr_scan", "ios": "https://dc.lft.to/lastmile_qr_scan"}, "is_reserved": 0, "is_disabled": 0, "type": "electric_scooter", "bike_id": "fca389b233dbf5ee8922281d03a29727"}, {"lon": -77.02694866666667, "lat": 38.91268983333333, "name": "bd9080d94e37c0c44fca480dcd01a429", "fusion_lat": 0.0, "fusion_lon": 0.0, "rental_uris": {"android": "https://dc.lft.to/lastmile_qr_scan", "ios": "https://dc.lft.to/lastmile_qr_scan"}, "is_reserved": 0, "is_disabled": 0, "type": "electric_scooter", "bike_id": "bd9080d94e37c0c44fca480dcd01a429"}, {"lon": -77.01700483333333, "lat": 38.9201485, "name": "5f8d2b63bb408b846953ad273df9ffe6", "fusion_lat": 0.0, "fusion_lon": 0.0, "rental_uris": {"android": "https://dc.lft.to/lastmile_qr_scan", "ios": "https://dc.lft.to/lastmile_qr_scan"}, "is_reserved": 0, "is_disabled": 0, "type": "electric_scooter", "bike_id": "5f8d2b63bb408b846953ad273df9ffe6"}, {"lon": -77.02403916666667, "lat": 38.91103616666667, "name": "b5fe4157825b3a021b583becf1bf78c1", "fusion_lat": 0.0, "fusion_lon": 0.0, "rental_uris": {"android": "https://dc.lft.to/lastmile_qr_scan", "ios": "https://dc.lft.to/lastmile_qr_scan"}, "is_reserved": 0, "is_disabled": 0, "type": "electric_scooter", "bike_id": "b5fe4157825b3a021b583becf1bf78c1"}, {"lon": -77.04505266666666, "lat": 38.912774666666664, "name": "45afda968d04cde30a2e93a706552cb6", "fusion_lat": 0.0, "fusion_lon": 0.0, "rental_uris": {"android": "https://dc.lft.to/lastmile_qr_scan", "ios": "https://dc.lft.to/lastmile_qr_scan"}, "is_reserved": 0, "is_disabled": 0, "type": "electric_scooter", "bike_id": "45afda968d04cde30a2e93a706552cb6"}, {"lon": -77.00142533333333, "lat": 38.90011116666667, "name": "461be0b261df9c092a23a5066f071207", "fusion_lat": 0.0, "fusion_lon": 0.0, "rental_uris": {"android": "https://dc.lft.to/lastmile_qr_scan", "ios": "https://dc.lft.to/lastmile_qr_scan"}, "is_reserved": 0, "is_disabled": 0, "type": "electric_scooter", "bike_id": "461be0b261df9c092a23a5066f071207"}, {"lon": -77.038607, "lat": 38.907712, "name": "b310989ab04a245b5f2dbb0afe3d4df5", "fusion_lat": 0.0, "fusion_lon": 0.0, "rental_uris": {"android": "https://dc.lft.to/lastmile_qr_scan", "ios": "https://dc.lft.to/lastmile_qr_scan"}, "is_reserved": 0, "is_disabled": 0, "type": "electric_scooter", "bike_id": "b310989ab04a245b5f2dbb0afe3d4df5"}, {"lon": -77.03660883333333, "lat": 38.91724166666667, "name": "8a752017dcffc5bc074b5e021721b6a6", "fusion_lat": 0.0, "fusion_lon": 0.0, "rental_uris": {"android": "https://dc.lft.to/lastmile_qr_scan", "ios": "https://dc.lft.to/lastmile_qr_scan"}, "is_reserved": 0, "is_disabled": 0, "type": "electric_scooter", "bike_id": "8a752017dcffc5bc074b5e021721b6a6"}, {"lon": -77.03894516666666, "lat": 38.9216765, "name": "508672eb97e458cd14d3885f0cd956c2", "fusion_lat": 0.0, "fusion_lon": 0.0, "rental_uris": {"android": "https://dc.lft.to/lastmile_qr_scan", "ios": "https://dc.lft.to/lastmile_qr_scan"}, "is_reserved": 0, "is_disabled": 0, "type": "electric_scooter", "bike_id": "508672eb97e458cd14d3885f0cd956c2"}, {"lon": -77.01855966666666, "lat": 38.93997733333333, "name": "c9724fec288e2b721a0eed0959cfa121", "fusion_lat": 0.0, "fusion_lon": 0.0, "rental_uris": {"android": "https://dc.lft.to/lastmile_qr_scan", "ios": "https://dc.lft.to/lastmile_qr_scan"}, "is_reserved": 0, "is_disabled": 0, "type": "electric_scooter", "bike_id": "c9724fec288e2b721a0eed0959cfa121"}, {"lon": -77.01376533333334, "lat": 38.9286815, "name": "ff98bfd0505fe89a8e3406db15614270", "fusion_lat": 0.0, "fusion_lon": 0.0, "rental_uris": {"android": "https://dc.lft.to/lastmile_qr_scan", "ios": "https://dc.lft.to/lastmile_qr_scan"}, "is_reserved": 0, "is_disabled": 0, "type": "electric_scooter", "bike_id": "ff98bfd0505fe89a8e3406db15614270"}, {"lon": -77.02834533333333, "lat": 38.887690166666665, "name": "01751750167ab2b7536a0dad905d1cfe", "fusion_lat": 0.0, "fusion_lon": 0.0, "rental_uris": {"android": "https://dc.lft.to/lastmile_qr_scan", "ios": "https://dc.lft.to/lastmile_qr_scan"}, "is_reserved": 0, "is_disabled": 0, "type": "electric_scooter", "bike_id": "01751750167ab2b7536a0dad905d1cfe"}, {"lon": -77.0369935, "lat": 38.92814216666667, "name": "3931bcfafdbdb21764e07a0d45138819", "fusion_lat": 0.0, "fusion_lon": 0.0, "rental_uris": {"android": "https://dc.lft.to/lastmile_qr_scan", "ios": "https://dc.lft.to/lastmile_qr_scan"}, "is_reserved": 0, "is_disabled": 0, "type": "electric_scooter", "bike_id": "3931bcfafdbdb21764e07a0d45138819"}, {"lon": -77.07156216666667, "lat": 38.95834466666667, "name": "818521172559ef04941960dd835c6019", "fusion_lat": 0.0, "fusion_lon": 0.0, "rental_uris": {"android": "https://dc.lft.to/lastmile_qr_scan", "ios": "https://dc.lft.to/lastmile_qr_scan"}, "is_reserved": 0, "is_disabled": 0, "type": "electric_scooter", "bike_id": "818521172559ef04941960dd835c6019"}, {"lon": -77.04674183333333, "lat": 38.90738983333333, "name": "ae409e1d60d8122dac27b02df533f86b", "fusion_lat": 0.0, "fusion_lon": 0.0, "rental_uris": {"android": "https://dc.lft.to/lastmile_qr_scan", "ios": "https://dc.lft.to/lastmile_qr_scan"}, "is_reserved": 0, "is_disabled": 0, "type": "electric_scooter", "bike_id": "ae409e1d60d8122dac27b02df533f86b"}, {"lon": -77.0020125, "lat": 38.902414666666665, "name": "20dfcfda2416944cb8a3ba13ffd3b6fd", "fusion_lat": 0.0, "fusion_lon": 0.0, "rental_uris": {"android": "https://dc.lft.to/lastmile_qr_scan", "ios": "https://dc.lft.to/lastmile_qr_scan"}, "is_reserved": 0, "is_disabled": 0, "type": "electric_scooter", "bike_id": "20dfcfda2416944cb8a3ba13ffd3b6fd"}, {"lon": -77.0271605, "lat": 38.90131933333333, "name": "aea2f0c177a92f02b83df4734f5370ce", "fusion_lat": 0.0, "fusion_lon": 0.0, "rental_uris": {"android": "https://dc.lft.to/lastmile_qr_scan", "ios": "https://dc.lft.to/lastmile_qr_scan"}, "is_reserved": 0, "is_disabled": 0, "type": "electric_scooter", "bike_id": "aea2f0c177a92f02b83df4734f5370ce"}, {"lon": -77.00294566666666, "lat": 38.89196166666667, "name": "99b7b78928c8af09c0f5e7d9b96f558f", "fusion_lat": 0.0, "fusion_lon": 0.0, "rental_uris": {"android": "https://dc.lft.to/lastmile_qr_scan", "ios": "https://dc.lft.to/lastmile_qr_scan"}, "is_reserved": 0, "is_disabled": 0, "type": "electric_scooter", "bike_id": "99b7b78928c8af09c0f5e7d9b96f558f"}, {"lon": -77.12501366666666, "lat": 39.02420733333334, "name": "a0f7311d82306661b0c03d47d085a03d", "fusion_lat": 0.0, "fusion_lon": 0.0, "rental_uris": {"android": "https://dc.lft.to/lastmile_qr_scan", "ios": "https://dc.lft.to/lastmile_qr_scan"}, "is_reserved": 0, "is_disabled": 0, "type": "electric_bike", "bike_id": "a0f7311d82306661b0c03d47d085a03d"}, {"lon": -77.0131285, "lat": 38.8973775, "name": "8de9b664b22eb9327e6113185fe73d8a", "fusion_lat": 0.0, "fusion_lon": 0.0, "rental_uris": {"android": "https://dc.lft.to/lastmile_qr_scan", "ios": "https://dc.lft.to/lastmile_qr_scan"}, "is_reserved": 0, "is_disabled": 0, "type": "electric_scooter", "bike_id": "8de9b664b22eb9327e6113185fe73d8a"}, {"lon": -76.96539866666667, "lat": 38.91840033333333, "name": "fed109dc88e5d2f40e7698efc818e682", "fusion_lat": 0.0, "fusion_lon": 0.0, "rental_uris": {"android": "https://dc.lft.to/lastmile_qr_scan", "ios": "https://dc.lft.to/lastmile_qr_scan"}, "is_reserved": 0, "is_disabled": 0, "type": "electric_scooter", "bike_id": "fed109dc88e5d2f40e7698efc818e682"}, {"lon": -77.03755533333333, "lat": 38.9221255, "name": "79ed51921afc92cb6c34caca13a417d3", "fusion_lat": 0.0, "fusion_lon": 0.0, "rental_uris": {"android": "https://dc.lft.to/lastmile_qr_scan", "ios": "https://dc.lft.to/lastmile_qr_scan"}, "is_reserved": 0, "is_disabled": 0, "type": "electric_scooter", "bike_id": "79ed51921afc92cb6c34caca13a417d3"}, {"lon": -77.033424, "lat": 38.89825666666667, "name": "691bdcfaacadeaca7845acacbb180cad", "fusion_lat": 0.0, "fusion_lon": 0.0, "rental_uris": {"android": "https://dc.lft.to/lastmile_qr_scan", "ios": "https://dc.lft.to/lastmile_qr_scan"}, "is_reserved": 0, "is_disabled": 0, "type": "electric_scooter", "bike_id": "691bdcfaacadeaca7845acacbb180cad"}, {"lon": -77.01898316666667, "lat": 38.939145, "name": "960c034ae55f143bfc292676111de822", "fusion_lat": 0.0, "fusion_lon": 0.0, "rental_uris": {"android": "https://dc.lft.to/lastmile_qr_scan", "ios": "https://dc.lft.to/lastmile_qr_scan"}, "is_reserved": 0, "is_disabled": 0, "type": "electric_scooter", "bike_id": "960c034ae55f143bfc292676111de822"}, {"lon": -77.02828233333334, "lat": 38.887423, "name": "f52a8c61658afbc7ed72fa74d9d60d67", "fusion_lat": 0.0, "fusion_lon": 0.0, "rental_uris": {"android": "https://dc.lft.to/lastmile_qr_scan", "ios": "https://dc.lft.to/lastmile_qr_scan"}, "is_reserved": 0, "is_disabled": 0, "type": "electric_scooter", "bike_id": "f52a8c61658afbc7ed72fa74d9d60d67"}, {"lon": -77.04543233333334, "lat": 38.894817333333336, "name": "3e85c3c31b7c9ab685db6df4436c7195", "fusion_lat": 0.0, "fusion_lon": 0.0, "rental_uris": {"android": "https://dc.lft.to/lastmile_qr_scan", "ios": "https://dc.lft.to/lastmile_qr_scan"}, "is_reserved": 0, "is_disabled": 0, "type": "electric_scooter", "bike_id": "3e85c3c31b7c9ab685db6df4436c7195"}, {"lon": -77.0320525, "lat": 38.907904, "name": "4578624de4e461b7dc948b1d2976e1c5", "fusion_lat": 0.0, "fusion_lon": 0.0, "rental_uris": {"android": "https://dc.lft.to/lastmile_qr_scan", "ios": "https://dc.lft.to/lastmile_qr_scan"}, "is_reserved": 0, "is_disabled": 0, "type": "electric_scooter", "bike_id": "4578624de4e461b7dc948b1d2976e1c5"}, {"lon": -76.9476505, "lat": 38.89634366666667, "name": "2fa1c03990f974ba1e1d7df685cb9924", "fusion_lat": 0.0, "fusion_lon": 0.0, "rental_uris": {"android": "https://dc.lft.to/lastmile_qr_scan", "ios": "https://dc.lft.to/lastmile_qr_scan"}, "is_reserved": 0, "is_disabled": 0, "type": "electric_bike", "bike_id": "2fa1c03990f974ba1e1d7df685cb9924"}, {"lon": -76.99079216666667, "lat": 38.842832, "name": "3553e8cfe6d2addb9e27d44193c9cfba", "fusion_lat": 0.0, "fusion_lon": 0.0, "rental_uris": {"android": "https://dc.lft.to/lastmile_qr_scan", "ios": "https://dc.lft.to/lastmile_qr_scan"}, "is_reserved": 0, "is_disabled": 0, "type": "electric_scooter", "bike_id": "3553e8cfe6d2addb9e27d44193c9cfba"}, {"lon": -77.0500745, "lat": 38.892326, "name": "e0c5f4741a0bba46a1fb7a25b36a6a42", "fusion_lat": 0.0, "fusion_lon": 0.0, "rental_uris": {"android": "https://dc.lft.to/lastmile_qr_scan", "ios": "https://dc.lft.to/lastmile_qr_scan"}, "is_reserved": 0, "is_disabled": 0, "type": "electric_scooter", "bike_id": "e0c5f4741a0bba46a1fb7a25b36a6a42"}, {"lon": -77.0269905, "lat": 38.90936216666667, "name": "1da632fcce74d67127a88964f26c892c", "fusion_lat": 0.0, "fusion_lon": 0.0, "rental_uris": {"android": "https://dc.lft.to/lastmile_qr_scan", "ios": "https://dc.lft.to/lastmile_qr_scan"}, "is_reserved": 0, "is_disabled": 0, "type": "electric_scooter", "bike_id": "1da632fcce74d67127a88964f26c892c"}, {"lon": -77.0296905, "lat": 38.911245, "name": "d3c74e5f71a1509e725d0c899ae338c6", "fusion_lat": 0.0, "fusion_lon": 0.0, "rental_uris": {"android": "https://dc.lft.to/lastmile_qr_scan", "ios": "https://dc.lft.to/lastmile_qr_scan"}, "is_reserved": 0, "is_disabled": 0, "type": "electric_scooter", "bike_id": "d3c74e5f71a1509e725d0c899ae338c6"}, {"lon": -76.97021366666667, "lat": 38.920356, "name": "ab05a07d5d1312d247bfbda3387bdf37", "fusion_lat": 0.0, "fusion_lon": 0.0, "rental_uris": {"android": "https://dc.lft.to/lastmile_qr_scan", "ios": "https://dc.lft.to/lastmile_qr_scan"}, "is_reserved": 0, "is_disabled": 0, "type": "electric_scooter", "bike_id": "ab05a07d5d1312d247bfbda3387bdf37"}, {"lon": -77.00337933333333, "lat": 38.895275833333336, "name": "8dea37b0923d71b4842793ebd2b6eda9", "fusion_lat": 0.0, "fusion_lon": 0.0, "rental_uris": {"android": "https://dc.lft.to/lastmile_qr_scan", "ios": "https://dc.lft.to/lastmile_qr_scan"}, "is_reserved": 0, "is_disabled": 0, "type": "electric_scooter", "bike_id": "8dea37b0923d71b4842793ebd2b6eda9"}, {"lon": -77.02726883333334, "lat": 38.94085533333333, "name": "e8eeaee8f639d17b30a33780e20416a9", "fusion_lat": 0.0, "fusion_lon": 0.0, "rental_uris": {"android": "https://dc.lft.to/lastmile_qr_scan", "ios": "https://dc.lft.to/lastmile_qr_scan"}, "is_reserved": 0, "is_disabled": 0, "type": "electric_scooter", "bike_id": "e8eeaee8f639d17b30a33780e20416a9"}, {"lon": -77.03192466666667, "lat": 38.9002505, "name": "d0898cfd97cc6c0ee518b43efc68ff9e", "fusion_lat": 0.0, "fusion_lon": 0.0, "rental_uris": {"android": "https://dc.lft.to/lastmile_qr_scan", "ios": "https://dc.lft.to/lastmile_qr_scan"}, "is_reserved": 0, "is_disabled": 0, "type": "electric_scooter", "bike_id": "d0898cfd97cc6c0ee518b43efc68ff9e"}, {"lon": -77.0593575, "lat": 38.936683, "name": "249b47af1418d7ae5ca61279403cd5f1", "fusion_lat": 0.0, "fusion_lon": 0.0, "rental_uris": {"android": "https://dc.lft.to/lastmile_qr_scan", "ios": "https://dc.lft.to/lastmile_qr_scan"}, "is_reserved": 0, "is_disabled": 0, "type": "electric_scooter", "bike_id": "249b47af1418d7ae5ca61279403cd5f1"}, {"lon": -77.02577516666666, "lat": 38.92510333333333, "name": "6c35119c7b12ab0c9db08c51e9b728cb", "fusion_lat": 0.0, "fusion_lon": 0.0, "rental_uris": {"android": "https://dc.lft.to/lastmile_qr_scan", "ios": "https://dc.lft.to/lastmile_qr_scan"}, "is_reserved": 0, "is_disabled": 0, "type": "electric_scooter", "bike_id": "6c35119c7b12ab0c9db08c51e9b728cb"}, {"lon": -77.02788183333334, "lat": 38.92766266666667, "name": "6d166598988dc55e40fdf873453831c0", "fusion_lat": 0.0, "fusion_lon": 0.0, "rental_uris": {"android": "https://dc.lft.to/lastmile_qr_scan", "ios": "https://dc.lft.to/lastmile_qr_scan"}, "is_reserved": 0, "is_disabled": 0, "type": "electric_scooter", "bike_id": "6d166598988dc55e40fdf873453831c0"}, {"lon": -77.02723033333334, "lat": 38.95130066666667, "name": "f41acf9e2c1966ca166b3ecec927baac", "fusion_lat": 0.0, "fusion_lon": 0.0, "rental_uris": {"android": "https://dc.lft.to/lastmile_qr_scan", "ios": "https://dc.lft.to/lastmile_qr_scan"}, "is_reserved": 0, "is_disabled": 0, "type": "electric_scooter", "bike_id": "f41acf9e2c1966ca166b3ecec927baac"}, {"lon": -76.99244033333333, "lat": 38.900386166666664, "name": "d4cabdce49560d50f70367b7692b94af", "fusion_lat": 0.0, "fusion_lon": 0.0, "rental_uris": {"android": "https://dc.lft.to/lastmile_qr_scan", "ios": "https://dc.lft.to/lastmile_qr_scan"}, "is_reserved": 0, "is_disabled": 0, "type": "electric_scooter", "bike_id": "d4cabdce49560d50f70367b7692b94af"}, {"lon": -77.024228, "lat": 38.89220366666667, "name": "adf7febb74255ad9ba43c80e02ca5f78", "fusion_lat": 0.0, "fusion_lon": 0.0, "rental_uris": {"android": "https://dc.lft.to/lastmile_qr_scan", "ios": "https://dc.lft.to/lastmile_qr_scan"}, "is_reserved": 0, "is_disabled": 0, "type": "electric_scooter", "bike_id": "adf7febb74255ad9ba43c80e02ca5f78"}, {"lon": -77.0593195, "lat": 38.936658333333334, "name": "9df57761f2f27dc6aeb0ea4c75700271", "fusion_lat": 0.0, "fusion_lon": 0.0, "rental_uris": {"android": "https://dc.lft.to/lastmile_qr_scan", "ios": "https://dc.lft.to/lastmile_qr_scan"}, "is_reserved": 0, "is_disabled": 0, "type": "electric_scooter", "bike_id": "9df57761f2f27dc6aeb0ea4c75700271"}, {"lon": -77.00340383333334, "lat": 38.89355416666667, "name": "dcc669706e4a7a1446796fac465be845", "fusion_lat": 0.0, "fusion_lon": 0.0, "rental_uris": {"android": "https://dc.lft.to/lastmile_qr_scan", "ios": "https://dc.lft.to/lastmile_qr_scan"}, "is_reserved": 0, "is_disabled": 0, "type": "electric_scooter", "bike_id": "dcc669706e4a7a1446796fac465be845"}, {"lon": -77.0337195, "lat": 38.9359035, "name": "3135de44e02aeccf209c8a8a409f4ae8", "fusion_lat": 0.0, "fusion_lon": 0.0, "rental_uris": {"android": "https://dc.lft.to/lastmile_qr_scan", "ios": "https://dc.lft.to/lastmile_qr_scan"}, "is_reserved": 0, "is_disabled": 0, "type": "electric_scooter", "bike_id": "3135de44e02aeccf209c8a8a409f4ae8"}, {"lon": -76.98669833333334, "lat": 38.89998033333333, "name": "8d95c6aecdd7fb0774f4d3a77b6ed014", "fusion_lat": 0.0, "fusion_lon": 0.0, "rental_uris": {"android": "https://dc.lft.to/lastmile_qr_scan", "ios": "https://dc.lft.to/lastmile_qr_scan"}, "is_reserved": 0, "is_disabled": 0, "type": "electric_bike", "bike_id": "8d95c6aecdd7fb0774f4d3a77b6ed014"}, {"lon": -77.03379383333333, "lat": 38.90278633333333, "name": "d774ad944dd2221188e17ab2e01c181c", "fusion_lat": 0.0, "fusion_lon": 0.0, "rental_uris": {"android": "https://dc.lft.to/lastmile_qr_scan", "ios": "https://dc.lft.to/lastmile_qr_scan"}, "is_reserved": 0, "is_disabled": 0, "type": "electric_scooter", "bike_id": "d774ad944dd2221188e17ab2e01c181c"}, {"lon": -77.01630266666666, "lat": 38.89975716666667, "name": "dff40102d6d1bc075fbb9147bb7dfd8b", "fusion_lat": 0.0, "fusion_lon": 0.0, "rental_uris": {"android": "https://dc.lft.to/lastmile_qr_scan", "ios": "https://dc.lft.to/lastmile_qr_scan"}, "is_reserved": 0, "is_disabled": 0, "type": "electric_scooter", "bike_id": "dff40102d6d1bc075fbb9147bb7dfd8b"}, {"lon": -76.98941983333333, "lat": 38.9073325, "name": "002e6c6e0ad74c4b6fbc981609198825", "fusion_lat": 0.0, "fusion_lon": 0.0, "rental_uris": {"android": "https://dc.lft.to/lastmile_qr_scan", "ios": "https://dc.lft.to/lastmile_qr_scan"}, "is_reserved": 0, "is_disabled": 0, "type": "electric_scooter", "bike_id": "002e6c6e0ad74c4b6fbc981609198825"}, {"lon": -77.04994583333334, "lat": 38.90111816666667, "name": "76818a157b7c34ecd89c52e93b7c3f33", "fusion_lat": 0.0, "fusion_lon": 0.0, "rental_uris": {"android": "https://dc.lft.to/lastmile_qr_scan", "ios": "https://dc.lft.to/lastmile_qr_scan"}, "is_reserved": 0, "is_disabled": 0, "type": "electric_scooter", "bike_id": "76818a157b7c34ecd89c52e93b7c3f33"}, {"lon": -77.05722983333334, "lat": 38.9336995, "name": "e98d2562d0e69812f91278bdcc15ff66", "fusion_lat": 0.0, "fusion_lon": 0.0, "rental_uris": {"android": "https://dc.lft.to/lastmile_qr_scan", "ios": "https://dc.lft.to/lastmile_qr_scan"}, "is_reserved": 0, "is_disabled": 0, "type": "electric_scooter", "bike_id": "e98d2562d0e69812f91278bdcc15ff66"}, {"lon": -77.02294266666667, "lat": 38.9096595, "name": "34788d2bb18fe88d0ab379b80962a2ed", "fusion_lat": 0.0, "fusion_lon": 0.0, "rental_uris": {"android": "https://dc.lft.to/lastmile_qr_scan", "ios": "https://dc.lft.to/lastmile_qr_scan"}, "is_reserved": 0, "is_disabled": 0, "type": "electric_scooter", "bike_id": "34788d2bb18fe88d0ab379b80962a2ed"}, {"lon": -77.04060016666666, "lat": 38.91768833333333, "name": "3ef3fd340800a6c42ff657ee3eb96700", "fusion_lat": 0.0, "fusion_lon": 0.0, "rental_uris": {"android": "https://dc.lft.to/lastmile_qr_scan", "ios": "https://dc.lft.to/lastmile_qr_scan"}, "is_reserved": 0, "is_disabled": 0, "type": "electric_scooter", "bike_id": "3ef3fd340800a6c42ff657ee3eb96700"}, {"lon": -77.045056, "lat": 38.912801333333334, "name": "1e097a0ed60b830829801cb0c52b86bd", "fusion_lat": 0.0, "fusion_lon": 0.0, "rental_uris": {"android": "https://dc.lft.to/lastmile_qr_scan", "ios": "https://dc.lft.to/lastmile_qr_scan"}, "is_reserved": 0, "is_disabled": 0, "type": "electric_scooter", "bike_id": "1e097a0ed60b830829801cb0c52b86bd"}, {"lon": -77.1124265, "lat": 38.8560355, "name": "71389fe47bdca6544ed5d626bb5f4e35", "fusion_lat": 0.0, "fusion_lon": 0.0, "rental_uris": {"android": "https://dc.lft.to/lastmile_qr_scan", "ios": "https://dc.lft.to/lastmile_qr_scan"}, "is_reserved": 0, "is_disabled": 0, "type": "electric_bike", "bike_id": "71389fe47bdca6544ed5d626bb5f4e35"}, {"lon": -76.99613633333334, "lat": 38.885544833333334, "name": "f7fce5499921a89f452984797dc9f227", "fusion_lat": 0.0, "fusion_lon": 0.0, "rental_uris": {"android": "https://dc.lft.to/lastmile_qr_scan", "ios": "https://dc.lft.to/lastmile_qr_scan"}, "is_reserved": 0, "is_disabled": 0, "type": "electric_scooter", "bike_id": "f7fce5499921a89f452984797dc9f227"}, {"lon": -77.05383716666667, "lat": 38.910512, "name": "29a56d43bec6ec0f5cbfbc749cb261b2", "fusion_lat": 0.0, "fusion_lon": 0.0, "rental_uris": {"android": "https://dc.lft.to/lastmile_qr_scan", "ios": "https://dc.lft.to/lastmile_qr_scan"}, "is_reserved": 0, "is_disabled": 0, "type": "electric_scooter", "bike_id": "29a56d43bec6ec0f5cbfbc749cb261b2"}, {"lon": -76.98727683333334, "lat": 38.86707583333333, "name": "568567698d1eeee298ad900e474178bb", "fusion_lat": 0.0, "fusion_lon": 0.0, "rental_uris": {"android": "https://dc.lft.to/lastmile_qr_scan", "ios": "https://dc.lft.to/lastmile_qr_scan"}, "is_reserved": 0, "is_disabled": 0, "type": "electric_scooter", "bike_id": "568567698d1eeee298ad900e474178bb"}, {"lon": -76.97561583333334, "lat": 38.90444433333333, "name": "ef04101f7e4cf53bdc766dd6e8e35250", "fusion_lat": 0.0, "fusion_lon": 0.0, "rental_uris": {"android": "https://dc.lft.to/lastmile_qr_scan", "ios": "https://dc.lft.to/lastmile_qr_scan"}, "is_reserved": 0, "is_disabled": 0, "type": "electric_scooter", "bike_id": "ef04101f7e4cf53bdc766dd6e8e35250"}, {"lon": -76.983707, "lat": 38.86030983333333, "name": "57385c4e3599004dc2e5f392432960fc", "fusion_lat": 0.0, "fusion_lon": 0.0, "rental_uris": {"android": "https://dc.lft.to/lastmile_qr_scan", "ios": "https://dc.lft.to/lastmile_qr_scan"}, "is_reserved": 0, "is_disabled": 0, "type": "electric_scooter", "bike_id": "57385c4e3599004dc2e5f392432960fc"}, {"lon": -77.03177983333333, "lat": 38.91915633333333, "name": "53eea8ec260eedef57b2779cecd99ef9", "fusion_lat": 0.0, "fusion_lon": 0.0, "rental_uris": {"android": "https://dc.lft.to/lastmile_qr_scan", "ios": "https://dc.lft.to/lastmile_qr_scan"}, "is_reserved": 0, "is_disabled": 0, "type": "electric_scooter", "bike_id": "53eea8ec260eedef57b2779cecd99ef9"}, {"lon": -77.02972483333333, "lat": 38.91780266666667, "name": "d413bfa2a42814f593aebee90c510e44", "fusion_lat": 0.0, "fusion_lon": 0.0, "rental_uris": {"android": "https://dc.lft.to/lastmile_qr_scan", "ios": "https://dc.lft.to/lastmile_qr_scan"}, "is_reserved": 0, "is_disabled": 0, "type": "electric_scooter", "bike_id": "d413bfa2a42814f593aebee90c510e44"}, {"lon": -77.01749883333333, "lat": 38.9026185, "name": "43474fb299cc7300d9eed8c0b0932259", "fusion_lat": 0.0, "fusion_lon": 0.0, "rental_uris": {"android": "https://dc.lft.to/lastmile_qr_scan", "ios": "https://dc.lft.to/lastmile_qr_scan"}, "is_reserved": 0, "is_disabled": 0, "type": "electric_scooter", "bike_id": "43474fb299cc7300d9eed8c0b0932259"}, {"lon": -76.99609133333334, "lat": 38.886171833333336, "name": "ec427a8a634a6b05f0e32a7092fcc416", "fusion_lat": 0.0, "fusion_lon": 0.0, "rental_uris": {"android": "https://dc.lft.to/lastmile_qr_scan", "ios": "https://dc.lft.to/lastmile_qr_scan"}, "is_reserved": 0, "is_disabled": 0, "type": "electric_scooter", "bike_id": "ec427a8a634a6b05f0e32a7092fcc416"}, {"lon": -77.04633766666667, "lat": 38.89219533333333, "name": "6ce5dcfc293a00a793b45f0017d17134", "fusion_lat": 0.0, "fusion_lon": 0.0, "rental_uris": {"android": "https://dc.lft.to/lastmile_qr_scan", "ios": "https://dc.lft.to/lastmile_qr_scan"}, "is_reserved": 0, "is_disabled": 0, "type": "electric_scooter", "bike_id": "6ce5dcfc293a00a793b45f0017d17134"}, {"lon": -77.04181783333334, "lat": 38.91138933333333, "name": "5cc74d4af837e0187da9171fe3095deb", "fusion_lat": 0.0, "fusion_lon": 0.0, "rental_uris": {"android": "https://dc.lft.to/lastmile_qr_scan", "ios": "https://dc.lft.to/lastmile_qr_scan"}, "is_reserved": 0, "is_disabled": 0, "type": "electric_scooter", "bike_id": "5cc74d4af837e0187da9171fe3095deb"}, {"lon": -76.9750325, "lat": 38.91935333333333, "name": "0e3a7dcea4e6a627c6ff45c93c20b316", "fusion_lat": 0.0, "fusion_lon": 0.0, "rental_uris": {"android": "https://dc.lft.to/lastmile_qr_scan", "ios": "https://dc.lft.to/lastmile_qr_scan"}, "is_reserved": 0, "is_disabled": 0, "type": "electric_bike", "bike_id": "0e3a7dcea4e6a627c6ff45c93c20b316"}, {"lon": -76.985968, "lat": 38.860972833333335, "name": "46847779bfdbb5f345fcb7b72eab9b88", "fusion_lat": 0.0, "fusion_lon": 0.0, "rental_uris": {"android": "https://dc.lft.to/lastmile_qr_scan", "ios": "https://dc.lft.to/lastmile_qr_scan"}, "is_reserved": 0, "is_disabled": 0, "type": "electric_scooter", "bike_id": "46847779bfdbb5f345fcb7b72eab9b88"}, {"lon": -77.04039166666666, "lat": 38.8042665, "name": "6065546629f950d3b0c39975f0620d11", "fusion_lat": 0.0, "fusion_lon": 0.0, "rental_uris": {"android": "https://dc.lft.to/lastmile_qr_scan", "ios": "https://dc.lft.to/lastmile_qr_scan"}, "is_reserved": 0, "is_disabled": 0, "type": "electric_bike", "bike_id": "6065546629f950d3b0c39975f0620d11"}, {"lon": -77.03801983333334, "lat": 38.9097635, "name": "2e0513494fa362038e96455ad66d3c23", "fusion_lat": 0.0, "fusion_lon": 0.0, "rental_uris": {"android": "https://dc.lft.to/lastmile_qr_scan", "ios": "https://dc.lft.to/lastmile_qr_scan"}, "is_reserved": 0, "is_disabled": 0, "type": "electric_scooter", "bike_id": "2e0513494fa362038e96455ad66d3c23"}, {"lon": -76.98228516666667, "lat": 38.916534666666664, "name": "c73c287c2b011dae98f73b322a1a7a3d", "fusion_lat": 0.0, "fusion_lon": 0.0, "rental_uris": {"android": "https://dc.lft.to/lastmile_qr_scan", "ios": "https://dc.lft.to/lastmile_qr_scan"}, "is_reserved": 0, "is_disabled": 0, "type": "electric_scooter", "bike_id": "c73c287c2b011dae98f73b322a1a7a3d"}, {"lon": -77.0277505, "lat": 38.8947845, "name": "84bdb8b01abfccd8f7c8ce9a5374ce28", "fusion_lat": 0.0, "fusion_lon": 0.0, "rental_uris": {"android": "https://dc.lft.to/lastmile_qr_scan", "ios": "https://dc.lft.to/lastmile_qr_scan"}, "is_reserved": 0, "is_disabled": 0, "type": "electric_scooter", "bike_id": "84bdb8b01abfccd8f7c8ce9a5374ce28"}, {"lon": -77.021528, "lat": 38.89217583333333, "name": "07aed957a47dfc82eadb6d1a044e1381", "fusion_lat": 0.0, "fusion_lon": 0.0, "rental_uris": {"android": "https://dc.lft.to/lastmile_qr_scan", "ios": "https://dc.lft.to/lastmile_qr_scan"}, "is_reserved": 0, "is_disabled": 0, "type": "electric_scooter", "bike_id": "07aed957a47dfc82eadb6d1a044e1381"}, {"lon": -77.03726, "lat": 38.9171145, "name": "a4412f9044d4f570ab0040dd68886831", "fusion_lat": 0.0, "fusion_lon": 0.0, "rental_uris": {"android": "https://dc.lft.to/lastmile_qr_scan", "ios": "https://dc.lft.to/lastmile_qr_scan"}, "is_reserved": 0, "is_disabled": 0, "type": "electric_scooter", "bike_id": "a4412f9044d4f570ab0040dd68886831"}, {"lon": -77.02595266666667, "lat": 38.904283, "name": "d3a2e133132f2daff824cc78ec6528f4", "fusion_lat": 0.0, "fusion_lon": 0.0, "rental_uris": {"android": "https://dc.lft.to/lastmile_qr_scan", "ios": "https://dc.lft.to/lastmile_qr_scan"}, "is_reserved": 0, "is_disabled": 0, "type": "electric_scooter", "bike_id": "d3a2e133132f2daff824cc78ec6528f4"}, {"lon": -77.04856116666667, "lat": 38.91970366666666, "name": "ed806ae908775b8bfdd1dc7252c7c77b", "fusion_lat": 0.0, "fusion_lon": 0.0, "rental_uris": {"android": "https://dc.lft.to/lastmile_qr_scan", "ios": "https://dc.lft.to/lastmile_qr_scan"}, "is_reserved": 0, "is_disabled": 0, "type": "electric_scooter", "bike_id": "ed806ae908775b8bfdd1dc7252c7c77b"}, {"lon": -77.02554283333333, "lat": 38.8922455, "name": "615124bd5f46a5ac015f9997f4476684", "fusion_lat": 0.0, "fusion_lon": 0.0, "rental_uris": {"android": "https://dc.lft.to/lastmile_qr_scan", "ios": "https://dc.lft.to/lastmile_qr_scan"}, "is_reserved": 0, "is_disabled": 0, "type": "electric_scooter", "bike_id": "615124bd5f46a5ac015f9997f4476684"}, {"lon": -77.032145, "lat": 38.908949666666665, "name": "61cb8ba69a690edbc58ae3137119951d", "fusion_lat": 0.0, "fusion_lon": 0.0, "rental_uris": {"android": "https://dc.lft.to/lastmile_qr_scan", "ios": "https://dc.lft.to/lastmile_qr_scan"}, "is_reserved": 0, "is_disabled": 0, "type": "electric_scooter", "bike_id": "61cb8ba69a690edbc58ae3137119951d"}, {"lon": -76.99532566666667, "lat": 38.90016716666667, "name": "7fcc68d33ec683010be80189852d0035", "fusion_lat": 0.0, "fusion_lon": 0.0, "rental_uris": {"android": "https://dc.lft.to/lastmile_qr_scan", "ios": "https://dc.lft.to/lastmile_qr_scan"}, "is_reserved": 0, "is_disabled": 0, "type": "electric_scooter", "bike_id": "7fcc68d33ec683010be80189852d0035"}, {"lon": -77.02541616666667, "lat": 38.92067483333334, "name": "aaabc33bd7aa2e31e437eac5201199fe", "fusion_lat": 0.0, "fusion_lon": 0.0, "rental_uris": {"android": "https://dc.lft.to/lastmile_qr_scan", "ios": "https://dc.lft.to/lastmile_qr_scan"}, "is_reserved": 0, "is_disabled": 0, "type": "electric_scooter", "bike_id": "aaabc33bd7aa2e31e437eac5201199fe"}, {"lon": -77.04342683333333, "lat": 38.903430666666665, "name": "4d5a67bfc1c7334240939e1e50fa388d", "fusion_lat": 0.0, "fusion_lon": 0.0, "rental_uris": {"android": "https://dc.lft.to/lastmile_qr_scan", "ios": "https://dc.lft.to/lastmile_qr_scan"}, "is_reserved": 0, "is_disabled": 0, "type": "electric_scooter", "bike_id": "4d5a67bfc1c7334240939e1e50fa388d"}, {"lon": -76.99181, "lat": 38.9050675, "name": "afb47dd36c063d519ab22446427f1469", "fusion_lat": 0.0, "fusion_lon": 0.0, "rental_uris": {"android": "https://dc.lft.to/lastmile_qr_scan", "ios": "https://dc.lft.to/lastmile_qr_scan"}, "is_reserved": 0, "is_disabled": 0, "type": "electric_scooter", "bike_id": "afb47dd36c063d519ab22446427f1469"}, {"lon": -76.99022866666667, "lat": 38.85867833333333, "name": "6e7fce1a82541b0e96b777658899be6e", "fusion_lat": 0.0, "fusion_lon": 0.0, "rental_uris": {"android": "https://dc.lft.to/lastmile_qr_scan", "ios": "https://dc.lft.to/lastmile_qr_scan"}, "is_reserved": 0, "is_disabled": 0, "type": "electric_scooter", "bike_id": "6e7fce1a82541b0e96b777658899be6e"}, {"lon": -77.037741, "lat": 38.903767333333334, "name": "9b8333b1fc018f44b68f3adbcd1b4931", "fusion_lat": 0.0, "fusion_lon": 0.0, "rental_uris": {"android": "https://dc.lft.to/lastmile_qr_scan", "ios": "https://dc.lft.to/lastmile_qr_scan"}, "is_reserved": 0, "is_disabled": 0, "type": "electric_scooter", "bike_id": "9b8333b1fc018f44b68f3adbcd1b4931"}, {"lon": -77.05329516666667, "lat": 38.904965, "name": "fc7af8bb3f16bce700aead44c059a919", "fusion_lat": 0.0, "fusion_lon": 0.0, "rental_uris": {"android": "https://dc.lft.to/lastmile_qr_scan", "ios": "https://dc.lft.to/lastmile_qr_scan"}, "is_reserved": 0, "is_disabled": 0, "type": "electric_scooter", "bike_id": "fc7af8bb3f16bce700aead44c059a919"}, {"lon": -77.017565, "lat": 38.87688766666667, "name": "9d381ec480d16a289f03f369e2614164", "fusion_lat": 0.0, "fusion_lon": 0.0, "rental_uris": {"android": "https://dc.lft.to/lastmile_qr_scan", "ios": "https://dc.lft.to/lastmile_qr_scan"}, "is_reserved": 0, "is_disabled": 0, "type": "electric_scooter", "bike_id": "9d381ec480d16a289f03f369e2614164"}, {"lon": -77.03326216666666, "lat": 38.8983925, "name": "76d893705306e8cc04a6c8d27190908c", "fusion_lat": 0.0, "fusion_lon": 0.0, "rental_uris": {"android": "https://dc.lft.to/lastmile_qr_scan", "ios": "https://dc.lft.to/lastmile_qr_scan"}, "is_reserved": 0, "is_disabled": 0, "type": "electric_scooter", "bike_id": "76d893705306e8cc04a6c8d27190908c"}, {"lon": -77.03276383333333, "lat": 38.93076716666667, "name": "a00bb995215bcb0cab6228f821176e85", "fusion_lat": 0.0, "fusion_lon": 0.0, "rental_uris": {"android": "https://dc.lft.to/lastmile_qr_scan", "ios": "https://dc.lft.to/lastmile_qr_scan"}, "is_reserved": 0, "is_disabled": 0, "type": "electric_scooter", "bike_id": "a00bb995215bcb0cab6228f821176e85"}, {"lon": -77.04748383333333, "lat": 38.90529683333333, "name": "0906f4296a83fd474d66dfa8bd978329", "fusion_lat": 0.0, "fusion_lon": 0.0, "rental_uris": {"android": "https://dc.lft.to/lastmile_qr_scan", "ios": "https://dc.lft.to/lastmile_qr_scan"}, "is_reserved": 0, "is_disabled": 0, "type": "electric_scooter", "bike_id": "0906f4296a83fd474d66dfa8bd978329"}, {"lon": -77.03815133333333, "lat": 38.920719166666665, "name": "793760cd6f97319c9cdab05b2a6e84ef", "fusion_lat": 0.0, "fusion_lon": 0.0, "rental_uris": {"android": "https://dc.lft.to/lastmile_qr_scan", "ios": "https://dc.lft.to/lastmile_qr_scan"}, "is_reserved": 0, "is_disabled": 0, "type": "electric_scooter", "bike_id": "793760cd6f97319c9cdab05b2a6e84ef"}, {"lon": -77.02541283333333, "lat": 38.920679, "name": "4c2599cef5d92f11f7688840cd7f36cf", "fusion_lat": 0.0, "fusion_lon": 0.0, "rental_uris": {"android": "https://dc.lft.to/lastmile_qr_scan", "ios": "https://dc.lft.to/lastmile_qr_scan"}, "is_reserved": 0, "is_disabled": 0, "type": "electric_scooter", "bike_id": "4c2599cef5d92f11f7688840cd7f36cf"}, {"lon": -77.03803183333333, "lat": 38.912221833333334, "name": "bca3b07548902d5fc52c5b1bdb224b6e", "fusion_lat": 0.0, "fusion_lon": 0.0, "rental_uris": {"android": "https://dc.lft.to/lastmile_qr_scan", "ios": "https://dc.lft.to/lastmile_qr_scan"}, "is_reserved": 0, "is_disabled": 0, "type": "electric_scooter", "bike_id": "bca3b07548902d5fc52c5b1bdb224b6e"}, {"lon": -77.028135, "lat": 38.896251666666664, "name": "de37b35f76db6e030431d1bc8c26e2cd", "fusion_lat": 0.0, "fusion_lon": 0.0, "rental_uris": {"android": "https://dc.lft.to/lastmile_qr_scan", "ios": "https://dc.lft.to/lastmile_qr_scan"}, "is_reserved": 0, "is_disabled": 0, "type": "electric_scooter", "bike_id": "de37b35f76db6e030431d1bc8c26e2cd"}, {"lon": -77.04379433333334, "lat": 38.925750666666666, "name": "c6aa6db9fd8f58d579d3b915bcc37c75", "fusion_lat": 0.0, "fusion_lon": 0.0, "rental_uris": {"android": "https://dc.lft.to/lastmile_qr_scan", "ios": "https://dc.lft.to/lastmile_qr_scan"}, "is_reserved": 0, "is_disabled": 0, "type": "electric_scooter", "bike_id": "c6aa6db9fd8f58d579d3b915bcc37c75"}, {"lon": -77.04503566666666, "lat": 38.903779, "name": "3ad86d00f97e16b3e1aebb5a838cccc4", "fusion_lat": 0.0, "fusion_lon": 0.0, "rental_uris": {"android": "https://dc.lft.to/lastmile_qr_scan", "ios": "https://dc.lft.to/lastmile_qr_scan"}, "is_reserved": 0, "is_disabled": 0, "type": "electric_scooter", "bike_id": "3ad86d00f97e16b3e1aebb5a838cccc4"}, {"lon": -77.0193685, "lat": 38.949243, "name": "e29523d797fa39317ce762579bdafb1e", "fusion_lat": 0.0, "fusion_lon": 0.0, "rental_uris": {"android": "https://dc.lft.to/lastmile_qr_scan", "ios": "https://dc.lft.to/lastmile_qr_scan"}, "is_reserved": 0, "is_disabled": 0, "type": "electric_scooter", "bike_id": "e29523d797fa39317ce762579bdafb1e"}, {"lon": -77.00021516666666, "lat": 38.9198255, "name": "fbf2d2bdd19a9cc5eb378f2b44a9db91", "fusion_lat": 0.0, "fusion_lon": 0.0, "rental_uris": {"android": "https://dc.lft.to/lastmile_qr_scan", "ios": "https://dc.lft.to/lastmile_qr_scan"}, "is_reserved": 0, "is_disabled": 0, "type": "electric_scooter", "bike_id": "fbf2d2bdd19a9cc5eb378f2b44a9db91"}, {"lon": -76.9994895, "lat": 38.84290983333333, "name": "91e52aa3a9a0844a5937dca158cb4251", "fusion_lat": 0.0, "fusion_lon": 0.0, "rental_uris": {"android": "https://dc.lft.to/lastmile_qr_scan", "ios": "https://dc.lft.to/lastmile_qr_scan"}, "is_reserved": 0, "is_disabled": 0, "type": "electric_scooter", "bike_id": "91e52aa3a9a0844a5937dca158cb4251"}, {"lon": -77.05851383333334, "lat": 38.93430516666667, "name": "f44847e4077ef32eae3187b9bef810af", "fusion_lat": 0.0, "fusion_lon": 0.0, "rental_uris": {"android": "https://dc.lft.to/lastmile_qr_scan", "ios": "https://dc.lft.to/lastmile_qr_scan"}, "is_reserved": 0, "is_disabled": 0, "type": "electric_scooter", "bike_id": "f44847e4077ef32eae3187b9bef810af"}, {"lon": -77.04519916666666, "lat": 38.90580583333333, "name": "459145b944de3856c8f311533df1f60c", "fusion_lat": 0.0, "fusion_lon": 0.0, "rental_uris": {"android": "https://dc.lft.to/lastmile_qr_scan", "ios": "https://dc.lft.to/lastmile_qr_scan"}, "is_reserved": 0, "is_disabled": 0, "type": "electric_scooter", "bike_id": "459145b944de3856c8f311533df1f60c"}, {"lon": -77.021895, "lat": 38.9054325, "name": "629bf2a49ac9e00b2e7b297032ca6845", "fusion_lat": 0.0, "fusion_lon": 0.0, "rental_uris": {"android": "https://dc.lft.to/lastmile_qr_scan", "ios": "https://dc.lft.to/lastmile_qr_scan"}, "is_reserved": 0, "is_disabled": 0, "type": "electric_scooter", "bike_id": "629bf2a49ac9e00b2e7b297032ca6845"}, {"lon": -77.03865216666667, "lat": 38.9153675, "name": "bd4e10f3574bcb15cb8e96e0c4e8e488", "fusion_lat": 0.0, "fusion_lon": 0.0, "rental_uris": {"android": "https://dc.lft.to/lastmile_qr_scan", "ios": "https://dc.lft.to/lastmile_qr_scan"}, "is_reserved": 0, "is_disabled": 0, "type": "electric_scooter", "bike_id": "bd4e10f3574bcb15cb8e96e0c4e8e488"}, {"lon": -77.04062816666666, "lat": 38.9176645, "name": "8232148de3e3d7b501f87aa5820d1e17", "fusion_lat": 0.0, "fusion_lon": 0.0, "rental_uris": {"android": "https://dc.lft.to/lastmile_qr_scan", "ios": "https://dc.lft.to/lastmile_qr_scan"}, "is_reserved": 0, "is_disabled": 0, "type": "electric_scooter", "bike_id": "8232148de3e3d7b501f87aa5820d1e17"}, {"lon": -77.04493016666666, "lat": 38.899849833333334, "name": "390bd3d79e56921e6ec0a7a332e097dd", "fusion_lat": 0.0, "fusion_lon": 0.0, "rental_uris": {"android": "https://dc.lft.to/lastmile_qr_scan", "ios": "https://dc.lft.to/lastmile_qr_scan"}, "is_reserved": 0, "is_disabled": 0, "type": "electric_scooter", "bike_id": "390bd3d79e56921e6ec0a7a332e097dd"}, {"lon": -77.01411016666667, "lat": 38.9281465, "name": "66f587153f711190803a1c394346d4ee", "fusion_lat": 0.0, "fusion_lon": 0.0, "rental_uris": {"android": "https://dc.lft.to/lastmile_qr_scan", "ios": "https://dc.lft.to/lastmile_qr_scan"}, "is_reserved": 0, "is_disabled": 0, "type": "electric_scooter", "bike_id": "66f587153f711190803a1c394346d4ee"}, {"lon": -76.987152, "lat": 38.8626045, "name": "180aa7e389161011c5383c07b241181d", "fusion_lat": 0.0, "fusion_lon": 0.0, "rental_uris": {"android": "https://dc.lft.to/lastmile_qr_scan", "ios": "https://dc.lft.to/lastmile_qr_scan"}, "is_reserved": 0, "is_disabled": 0, "type": "electric_scooter", "bike_id": "180aa7e389161011c5383c07b241181d"}, {"lon": -77.0333535, "lat": 38.916874, "name": "16123aed0d0fe23c324f6d9f4937204c", "fusion_lat": 0.0, "fusion_lon": 0.0, "rental_uris": {"android": "https://dc.lft.to/lastmile_qr_scan", "ios": "https://dc.lft.to/lastmile_qr_scan"}, "is_reserved": 0, "is_disabled": 0, "type": "electric_scooter", "bike_id": "16123aed0d0fe23c324f6d9f4937204c"}, {"lon": -76.9471925, "lat": 38.897365, "name": "6934c1d5ced70a209ce45183ffbffd97", "fusion_lat": 0.0, "fusion_lon": 0.0, "rental_uris": {"android": "https://dc.lft.to/lastmile_qr_scan", "ios": "https://dc.lft.to/lastmile_qr_scan"}, "is_reserved": 0, "is_disabled": 0, "type": "electric_scooter", "bike_id": "6934c1d5ced70a209ce45183ffbffd97"}, {"lon": -77.02812166666666, "lat": 38.881758, "name": "f32d22f89cb881fca71f2a64148af859", "fusion_lat": 0.0, "fusion_lon": 0.0, "rental_uris": {"android": "https://dc.lft.to/lastmile_qr_scan", "ios": "https://dc.lft.to/lastmile_qr_scan"}, "is_reserved": 0, "is_disabled": 0, "type": "electric_scooter", "bike_id": "f32d22f89cb881fca71f2a64148af859"}, {"lon": -77.034043, "lat": 38.92273316666667, "name": "439226c3fd7e62fa6225eebe929412c5", "fusion_lat": 0.0, "fusion_lon": 0.0, "rental_uris": {"android": "https://dc.lft.to/lastmile_qr_scan", "ios": "https://dc.lft.to/lastmile_qr_scan"}, "is_reserved": 0, "is_disabled": 0, "type": "electric_scooter", "bike_id": "439226c3fd7e62fa6225eebe929412c5"}, {"lon": -77.04613383333333, "lat": 38.9223475, "name": "b33ee8018295a79a4f205e44f3d084cb", "fusion_lat": 0.0, "fusion_lon": 0.0, "rental_uris": {"android": "https://dc.lft.to/lastmile_qr_scan", "ios": "https://dc.lft.to/lastmile_qr_scan"}, "is_reserved": 0, "is_disabled": 0, "type": "electric_scooter", "bike_id": "b33ee8018295a79a4f205e44f3d084cb"}, {"lon": -77.0303735, "lat": 38.884295, "name": "660b5092775234485a68ff9ec81c1daa", "fusion_lat": 0.0, "fusion_lon": 0.0, "rental_uris": {"android": "https://dc.lft.to/lastmile_qr_scan", "ios": "https://dc.lft.to/lastmile_qr_scan"}, "is_reserved": 0, "is_disabled": 0, "type": "electric_scooter", "bike_id": "660b5092775234485a68ff9ec81c1daa"}, {"lon": -77.067666, "lat": 38.903686666666665, "name": "00d2dc1d9a953a8b7d32b8c99a97d9fd", "fusion_lat": 0.0, "fusion_lon": 0.0, "rental_uris": {"android": "https://dc.lft.to/lastmile_qr_scan", "ios": "https://dc.lft.to/lastmile_qr_scan"}, "is_reserved": 0, "is_disabled": 0, "type": "electric_scooter", "bike_id": "00d2dc1d9a953a8b7d32b8c99a97d9fd"}, {"lon": -76.99152416666666, "lat": 38.89548883333333, "name": "ecceac447aaf1ba2786aa568a0ecf881", "fusion_lat": 0.0, "fusion_lon": 0.0, "rental_uris": {"android": "https://dc.lft.to/lastmile_qr_scan", "ios": "https://dc.lft.to/lastmile_qr_scan"}, "is_reserved": 0, "is_disabled": 0, "type": "electric_scooter", "bike_id": "ecceac447aaf1ba2786aa568a0ecf881"}, {"lon": -77.0121145, "lat": 38.91890016666667, "name": "8f15d504d84b08cb86042a30918af619", "fusion_lat": 0.0, "fusion_lon": 0.0, "rental_uris": {"android": "https://dc.lft.to/lastmile_qr_scan", "ios": "https://dc.lft.to/lastmile_qr_scan"}, "is_reserved": 0, "is_disabled": 0, "type": "electric_scooter", "bike_id": "8f15d504d84b08cb86042a30918af619"}, {"lon": -76.98735, "lat": 38.94429016666667, "name": "f29379dee87e9ec2476be080d9d13ebc", "fusion_lat": 0.0, "fusion_lon": 0.0, "rental_uris": {"android": "https://dc.lft.to/lastmile_qr_scan", "ios": "https://dc.lft.to/lastmile_qr_scan"}, "is_reserved": 0, "is_disabled": 0, "type": "electric_bike", "bike_id": "f29379dee87e9ec2476be080d9d13ebc"}, {"lon": -77.047448, "lat": 38.90236483333333, "name": "aba2807bc91ad4fdcf0fd24736e70ea8", "fusion_lat": 0.0, "fusion_lon": 0.0, "rental_uris": {"android": "https://dc.lft.to/lastmile_qr_scan", "ios": "https://dc.lft.to/lastmile_qr_scan"}, "is_reserved": 0, "is_disabled": 0, "type": "electric_scooter", "bike_id": "aba2807bc91ad4fdcf0fd24736e70ea8"}, {"lon": -77.0109425, "lat": 38.905569166666666, "name": "b3cb93e48470dcd065447214bed2a514", "fusion_lat": 0.0, "fusion_lon": 0.0, "rental_uris": {"android": "https://dc.lft.to/lastmile_qr_scan", "ios": "https://dc.lft.to/lastmile_qr_scan"}, "is_reserved": 0, "is_disabled": 0, "type": "electric_scooter", "bike_id": "b3cb93e48470dcd065447214bed2a514"}, {"lon": -77.02403166666667, "lat": 38.901719, "name": "4b5f1cff2d4737e8732daf498cbb0081", "fusion_lat": 0.0, "fusion_lon": 0.0, "rental_uris": {"android": "https://dc.lft.to/lastmile_qr_scan", "ios": "https://dc.lft.to/lastmile_qr_scan"}, "is_reserved": 0, "is_disabled": 0, "type": "electric_scooter", "bike_id": "4b5f1cff2d4737e8732daf498cbb0081"}, {"lon": -77.03629616666667, "lat": 38.955982666666664, "name": "7979dc4032d88743ffcfaa54ac8aa38b", "fusion_lat": 0.0, "fusion_lon": 0.0, "rental_uris": {"android": "https://dc.lft.to/lastmile_qr_scan", "ios": "https://dc.lft.to/lastmile_qr_scan"}, "is_reserved": 0, "is_disabled": 0, "type": "electric_scooter", "bike_id": "7979dc4032d88743ffcfaa54ac8aa38b"}, {"lon": -77.0014445, "lat": 38.9001135, "name": "7559c4c1df014979aa5fd60ff906ce12", "fusion_lat": 0.0, "fusion_lon": 0.0, "rental_uris": {"android": "https://dc.lft.to/lastmile_qr_scan", "ios": "https://dc.lft.to/lastmile_qr_scan"}, "is_reserved": 0, "is_disabled": 0, "type": "electric_scooter", "bike_id": "7559c4c1df014979aa5fd60ff906ce12"}, {"lon": -77.0259675, "lat": 38.920362, "name": "6a6abed8ab312babcc9d130934005524", "fusion_lat": 0.0, "fusion_lon": 0.0, "rental_uris": {"android": "https://dc.lft.to/lastmile_qr_scan", "ios": "https://dc.lft.to/lastmile_qr_scan"}, "is_reserved": 0, "is_disabled": 0, "type": "electric_scooter", "bike_id": "6a6abed8ab312babcc9d130934005524"}, {"lon": -77.11220316666666, "lat": 38.828745, "name": "c529b3b1ea8804239bebaa801aac9a49", "fusion_lat": 0.0, "fusion_lon": 0.0, "rental_uris": {"android": "https://dc.lft.to/lastmile_qr_scan", "ios": "https://dc.lft.to/lastmile_qr_scan"}, "is_reserved": 0, "is_disabled": 0, "type": "electric_bike", "bike_id": "c529b3b1ea8804239bebaa801aac9a49"}, {"lon": -77.05614016666667, "lat": 38.924248, "name": "503063e4464f0d4c368258b28008773f", "fusion_lat": 0.0, "fusion_lon": 0.0, "rental_uris": {"android": "https://dc.lft.to/lastmile_qr_scan", "ios": "https://dc.lft.to/lastmile_qr_scan"}, "is_reserved": 0, "is_disabled": 0, "type": "electric_scooter", "bike_id": "503063e4464f0d4c368258b28008773f"}, {"lon": -77.07682716666666, "lat": 38.83192566666666, "name": "a7243ee72348ec183fd4dad2b56c50e3", "fusion_lat": 0.0, "fusion_lon": 0.0, "rental_uris": {"android": "https://dc.lft.to/lastmile_qr_scan", "ios": "https://dc.lft.to/lastmile_qr_scan"}, "is_reserved": 0, "is_disabled": 0, "type": "electric_bike", "bike_id": "a7243ee72348ec183fd4dad2b56c50e3"}, {"lon": -77.04868016666667, "lat": 38.901126833333336, "name": "d0eddcf74c9508204a1851f8353617f7", "fusion_lat": 0.0, "fusion_lon": 0.0, "rental_uris": {"android": "https://dc.lft.to/lastmile_qr_scan", "ios": "https://dc.lft.to/lastmile_qr_scan"}, "is_reserved": 0, "is_disabled": 0, "type": "electric_scooter", "bike_id": "d0eddcf74c9508204a1851f8353617f7"}, {"lon": -77.0735565, "lat": 38.933535166666665, "name": "65053dab5df383d7609244708253fe70", "fusion_lat": 0.0, "fusion_lon": 0.0, "rental_uris": {"android": "https://dc.lft.to/lastmile_qr_scan", "ios": "https://dc.lft.to/lastmile_qr_scan"}, "is_reserved": 0, "is_disabled": 0, "type": "electric_scooter", "bike_id": "65053dab5df383d7609244708253fe70"}, {"lon": -77.12260716666667, "lat": 38.89191616666667, "name": "482bdf932e34aa9068052e0ede04b081", "fusion_lat": 0.0, "fusion_lon": 0.0, "rental_uris": {"android": "https://dc.lft.to/lastmile_qr_scan", "ios": "https://dc.lft.to/lastmile_qr_scan"}, "is_reserved": 0, "is_disabled": 0, "type": "electric_bike", "bike_id": "482bdf932e34aa9068052e0ede04b081"}, {"lon": -77.0475115, "lat": 38.9021265, "name": "e2f6f15ebd7d9412f5fab63bf894fc57", "fusion_lat": 0.0, "fusion_lon": 0.0, "rental_uris": {"android": "https://dc.lft.to/lastmile_qr_scan", "ios": "https://dc.lft.to/lastmile_qr_scan"}, "is_reserved": 0, "is_disabled": 0, "type": "electric_scooter", "bike_id": "e2f6f15ebd7d9412f5fab63bf894fc57"}, {"lon": -77.03570066666667, "lat": 38.95723616666667, "name": "1581ce29873483c784f95bad6412aa21", "fusion_lat": 0.0, "fusion_lon": 0.0, "rental_uris": {"android": "https://dc.lft.to/lastmile_qr_scan", "ios": "https://dc.lft.to/lastmile_qr_scan"}, "is_reserved": 0, "is_disabled": 0, "type": "electric_scooter", "bike_id": "1581ce29873483c784f95bad6412aa21"}, {"lon": -76.935432, "lat": 38.955538, "name": "6fc9cf00d56bf122ecdd6e20068a7bf0", "fusion_lat": 0.0, "fusion_lon": 0.0, "rental_uris": {"android": "https://dc.lft.to/lastmile_qr_scan", "ios": "https://dc.lft.to/lastmile_qr_scan"}, "is_reserved": 0, "is_disabled": 0, "type": "electric_bike", "bike_id": "6fc9cf00d56bf122ecdd6e20068a7bf0"}, {"lon": -77.03445733333334, "lat": 38.90288116666667, "name": "175d2e79ff62ae6a8c66364c8cd3383c", "fusion_lat": 0.0, "fusion_lon": 0.0, "rental_uris": {"android": "https://dc.lft.to/lastmile_qr_scan", "ios": "https://dc.lft.to/lastmile_qr_scan"}, "is_reserved": 0, "is_disabled": 0, "type": "electric_scooter", "bike_id": "175d2e79ff62ae6a8c66364c8cd3383c"}, {"lon": -77.03837966666667, "lat": 38.9314395, "name": "5fe39790245d12c2bfa2705b1234a3a6", "fusion_lat": 0.0, "fusion_lon": 0.0, "rental_uris": {"android": "https://dc.lft.to/lastmile_qr_scan", "ios": "https://dc.lft.to/lastmile_qr_scan"}, "is_reserved": 0, "is_disabled": 0, "type": "electric_scooter", "bike_id": "5fe39790245d12c2bfa2705b1234a3a6"}, {"lon": -77.00835533333333, "lat": 38.913732, "name": "e6d94fb1bbbc0695e873a930ad16a56f", "fusion_lat": 0.0, "fusion_lon": 0.0, "rental_uris": {"android": "https://dc.lft.to/lastmile_qr_scan", "ios": "https://dc.lft.to/lastmile_qr_scan"}, "is_reserved": 0, "is_disabled": 0, "type": "electric_scooter", "bike_id": "e6d94fb1bbbc0695e873a930ad16a56f"}, {"lon": -77.009264, "lat": 38.89611983333333, "name": "51f80c0ce7938043ab9ea6dc71459d0e", "fusion_lat": 0.0, "fusion_lon": 0.0, "rental_uris": {"android": "https://dc.lft.to/lastmile_qr_scan", "ios": "https://dc.lft.to/lastmile_qr_scan"}, "is_reserved": 0, "is_disabled": 0, "type": "electric_scooter", "bike_id": "51f80c0ce7938043ab9ea6dc71459d0e"}, {"lon": -77.02726566666666, "lat": 38.951290166666666, "name": "9193b70a993b270b8badb21ef1f2bc5e", "fusion_lat": 0.0, "fusion_lon": 0.0, "rental_uris": {"android": "https://dc.lft.to/lastmile_qr_scan", "ios": "https://dc.lft.to/lastmile_qr_scan"}, "is_reserved": 0, "is_disabled": 0, "type": "electric_scooter", "bike_id": "9193b70a993b270b8badb21ef1f2bc5e"}, {"lon": -77.3530965, "lat": 38.950003833333334, "name": "be048c81379189e9f0057a14c940704f", "fusion_lat": 0.0, "fusion_lon": 0.0, "rental_uris": {"android": "https://dc.lft.to/lastmile_qr_scan", "ios": "https://dc.lft.to/lastmile_qr_scan"}, "is_reserved": 0, "is_disabled": 0, "type": "electric_bike", "bike_id": "be048c81379189e9f0057a14c940704f"}, {"lon": -76.98862283333334, "lat": 38.90027583333333, "name": "9df4798f115d5da925faddd1725a233b", "fusion_lat": 0.0, "fusion_lon": 0.0, "rental_uris": {"android": "https://dc.lft.to/lastmile_qr_scan", "ios": "https://dc.lft.to/lastmile_qr_scan"}, "is_reserved": 0, "is_disabled": 0, "type": "electric_scooter", "bike_id": "9df4798f115d5da925faddd1725a233b"}, {"lon": -77.03436983333333, "lat": 38.9027335, "name": "dc6993bd56422e3245e50ad11435daa6", "fusion_lat": 0.0, "fusion_lon": 0.0, "rental_uris": {"android": "https://dc.lft.to/lastmile_qr_scan", "ios": "https://dc.lft.to/lastmile_qr_scan"}, "is_reserved": 0, "is_disabled": 0, "type": "electric_scooter", "bike_id": "dc6993bd56422e3245e50ad11435daa6"}, {"lon": -77.00755383333333, "lat": 38.87122383333333, "name": "96e51ad6d8243dd1fdabe35bd37d26ab", "fusion_lat": 0.0, "fusion_lon": 0.0, "rental_uris": {"android": "https://dc.lft.to/lastmile_qr_scan", "ios": "https://dc.lft.to/lastmile_qr_scan"}, "is_reserved": 0, "is_disabled": 0, "type": "electric_scooter", "bike_id": "96e51ad6d8243dd1fdabe35bd37d26ab"}, {"lon": -76.98123566666666, "lat": 38.89195566666667, "name": "43f2b310c6c09044006dc921cebfdf22", "fusion_lat": 0.0, "fusion_lon": 0.0, "rental_uris": {"android": "https://dc.lft.to/lastmile_qr_scan", "ios": "https://dc.lft.to/lastmile_qr_scan"}, "is_reserved": 0, "is_disabled": 0, "type": "electric_scooter", "bike_id": "43f2b310c6c09044006dc921cebfdf22"}, {"lon": -77.02196783333333, "lat": 38.91688466666667, "name": "803006af4cb1794493755a0ee526baee", "fusion_lat": 0.0, "fusion_lon": 0.0, "rental_uris": {"android": "https://dc.lft.to/lastmile_qr_scan", "ios": "https://dc.lft.to/lastmile_qr_scan"}, "is_reserved": 0, "is_disabled": 0, "type": "electric_scooter", "bike_id": "803006af4cb1794493755a0ee526baee"}, {"lon": -76.9855735, "lat": 38.868910166666666, "name": "e1913df1f7b7dfc9fbafe9173cba9741", "fusion_lat": 0.0, "fusion_lon": 0.0, "rental_uris": {"android": "https://dc.lft.to/lastmile_qr_scan", "ios": "https://dc.lft.to/lastmile_qr_scan"}, "is_reserved": 0, "is_disabled": 0, "type": "electric_bike", "bike_id": "e1913df1f7b7dfc9fbafe9173cba9741"}, {"lon": -76.95517266666667, "lat": 38.89052133333333, "name": "f10eadce4a4a64e61fe2ca5640b01a48", "fusion_lat": 0.0, "fusion_lon": 0.0, "rental_uris": {"android": "https://dc.lft.to/lastmile_qr_scan", "ios": "https://dc.lft.to/lastmile_qr_scan"}, "is_reserved": 0, "is_disabled": 0, "type": "electric_scooter", "bike_id": "f10eadce4a4a64e61fe2ca5640b01a48"}, {"lon": -77.06289516666666, "lat": 38.904583, "name": "1c532fdfff0f9e8e5ba5ddaba0cfd760", "fusion_lat": 0.0, "fusion_lon": 0.0, "rental_uris": {"android": "https://dc.lft.to/lastmile_qr_scan", "ios": "https://dc.lft.to/lastmile_qr_scan"}, "is_reserved": 0, "is_disabled": 0, "type": "electric_scooter", "bike_id": "1c532fdfff0f9e8e5ba5ddaba0cfd760"}, {"lon": -77.04515533333333, "lat": 38.892209, "name": "747cea7ad03df5f5af5e1103fd19900b", "fusion_lat": 0.0, "fusion_lon": 0.0, "rental_uris": {"android": "https://dc.lft.to/lastmile_qr_scan", "ios": "https://dc.lft.to/lastmile_qr_scan"}, "is_reserved": 0, "is_disabled": 0, "type": "electric_scooter", "bike_id": "747cea7ad03df5f5af5e1103fd19900b"}, {"lon": -77.0219415, "lat": 38.91132133333333, "name": "3820707ed96b45e89740f212f6649fbe", "fusion_lat": 0.0, "fusion_lon": 0.0, "rental_uris": {"android": "https://dc.lft.to/lastmile_qr_scan", "ios": "https://dc.lft.to/lastmile_qr_scan"}, "is_reserved": 0, "is_disabled": 0, "type": "electric_scooter", "bike_id": "3820707ed96b45e89740f212f6649fbe"}, {"lon": -77.02698483333333, "lat": 38.9093865, "name": "898e97adc485009313632911a298cdf7", "fusion_lat": 0.0, "fusion_lon": 0.0, "rental_uris": {"android": "https://dc.lft.to/lastmile_qr_scan", "ios": "https://dc.lft.to/lastmile_qr_scan"}, "is_reserved": 0, "is_disabled": 0, "type": "electric_scooter", "bike_id": "898e97adc485009313632911a298cdf7"}, {"lon": -77.0765905, "lat": 38.906218833333334, "name": "185459a5b58eb767d1eb9a239383cd6d", "fusion_lat": 0.0, "fusion_lon": 0.0, "rental_uris": {"android": "https://dc.lft.to/lastmile_qr_scan", "ios": "https://dc.lft.to/lastmile_qr_scan"}, "is_reserved": 0, "is_disabled": 0, "type": "electric_scooter", "bike_id": "185459a5b58eb767d1eb9a239383cd6d"}, {"lon": -77.03453966666666, "lat": 38.907321833333334, "name": "6b3969227372dbbd232aade5f9591aca", "fusion_lat": 0.0, "fusion_lon": 0.0, "rental_uris": {"android": "https://dc.lft.to/lastmile_qr_scan", "ios": "https://dc.lft.to/lastmile_qr_scan"}, "is_reserved": 0, "is_disabled": 0, "type": "electric_scooter", "bike_id": "6b3969227372dbbd232aade5f9591aca"}, {"lon": -76.93915783333334, "lat": 38.95519616666667, "name": "5fcc488c64384b3fe7e5eecb468b16f8", "fusion_lat": 0.0, "fusion_lon": 0.0, "rental_uris": {"android": "https://dc.lft.to/lastmile_qr_scan", "ios": "https://dc.lft.to/lastmile_qr_scan"}, "is_reserved": 0, "is_disabled": 0, "type": "electric_bike", "bike_id": "5fcc488c64384b3fe7e5eecb468b16f8"}, {"lon": -77.03671283333334, "lat": 38.91253566666666, "name": "5fe1ab8c072059b8b2b0617fb1f1e8e0", "fusion_lat": 0.0, "fusion_lon": 0.0, "rental_uris": {"android": "https://dc.lft.to/lastmile_qr_scan", "ios": "https://dc.lft.to/lastmile_qr_scan"}, "is_reserved": 0, "is_disabled": 0, "type": "electric_scooter", "bike_id": "5fe1ab8c072059b8b2b0617fb1f1e8e0"}, {"lon": -77.04235216666666, "lat": 38.9110635, "name": "097cec2a3a3175295b7aed814ac44499", "fusion_lat": 0.0, "fusion_lon": 0.0, "rental_uris": {"android": "https://dc.lft.to/lastmile_qr_scan", "ios": "https://dc.lft.to/lastmile_qr_scan"}, "is_reserved": 0, "is_disabled": 0, "type": "electric_scooter", "bike_id": "097cec2a3a3175295b7aed814ac44499"}, {"lon": -77.0319225, "lat": 38.8936925, "name": "119229f5fd73ea02104a91a47f8187da", "fusion_lat": 0.0, "fusion_lon": 0.0, "rental_uris": {"android": "https://dc.lft.to/lastmile_qr_scan", "ios": "https://dc.lft.to/lastmile_qr_scan"}, "is_reserved": 0, "is_disabled": 0, "type": "electric_scooter", "bike_id": "119229f5fd73ea02104a91a47f8187da"}, {"lon": -77.001928, "lat": 38.9006955, "name": "b1a3d1a79881ac4244578d4694bc2a16", "fusion_lat": 0.0, "fusion_lon": 0.0, "rental_uris": {"android": "https://dc.lft.to/lastmile_qr_scan", "ios": "https://dc.lft.to/lastmile_qr_scan"}, "is_reserved": 0, "is_disabled": 0, "type": "electric_scooter", "bike_id": "b1a3d1a79881ac4244578d4694bc2a16"}, {"lon": -77.04155433333334, "lat": 38.9148325, "name": "e9a4f18c8b0c560bb18d18526c7d436e", "fusion_lat": 0.0, "fusion_lon": 0.0, "rental_uris": {"android": "https://dc.lft.to/lastmile_qr_scan", "ios": "https://dc.lft.to/lastmile_qr_scan"}, "is_reserved": 0, "is_disabled": 0, "type": "electric_scooter", "bike_id": "e9a4f18c8b0c560bb18d18526c7d436e"}, {"lon": -77.03263533333333, "lat": 38.93521416666667, "name": "1470a436113f475b8c5de39208ecc7dc", "fusion_lat": 0.0, "fusion_lon": 0.0, "rental_uris": {"android": "https://dc.lft.to/lastmile_qr_scan", "ios": "https://dc.lft.to/lastmile_qr_scan"}, "is_reserved": 0, "is_disabled": 0, "type": "electric_scooter", "bike_id": "1470a436113f475b8c5de39208ecc7dc"}, {"lon": -77.01836116666666, "lat": 38.91341116666667, "name": "e9aeb45b96db7d0af5337bb5eee03129", "fusion_lat": 0.0, "fusion_lon": 0.0, "rental_uris": {"android": "https://dc.lft.to/lastmile_qr_scan", "ios": "https://dc.lft.to/lastmile_qr_scan"}, "is_reserved": 0, "is_disabled": 0, "type": "electric_scooter", "bike_id": "e9aeb45b96db7d0af5337bb5eee03129"}, {"lon": -76.9906315, "lat": 38.904046666666666, "name": "ac47401a81011d37c19be7d07db5b97b", "fusion_lat": 0.0, "fusion_lon": 0.0, "rental_uris": {"android": "https://dc.lft.to/lastmile_qr_scan", "ios": "https://dc.lft.to/lastmile_qr_scan"}, "is_reserved": 0, "is_disabled": 0, "type": "electric_scooter", "bike_id": "ac47401a81011d37c19be7d07db5b97b"}, {"lon": -77.06902983333333, "lat": 38.90751233333334, "name": "0d066f4089c56f0506c396b0bbcea002", "fusion_lat": 0.0, "fusion_lon": 0.0, "rental_uris": {"android": "https://dc.lft.to/lastmile_qr_scan", "ios": "https://dc.lft.to/lastmile_qr_scan"}, "is_reserved": 0, "is_disabled": 0, "type": "electric_scooter", "bike_id": "0d066f4089c56f0506c396b0bbcea002"}, {"lon": -77.032726, "lat": 38.93211516666667, "name": "54d58d4c6f4022a16c8c2393905a5b19", "fusion_lat": 0.0, "fusion_lon": 0.0, "rental_uris": {"android": "https://dc.lft.to/lastmile_qr_scan", "ios": "https://dc.lft.to/lastmile_qr_scan"}, "is_reserved": 0, "is_disabled": 0, "type": "electric_scooter", "bike_id": "54d58d4c6f4022a16c8c2393905a5b19"}, {"lon": -77.021319, "lat": 38.8971985, "name": "2639cc8fc81c0c921cc64538364aa02a", "fusion_lat": 0.0, "fusion_lon": 0.0, "rental_uris": {"android": "https://dc.lft.to/lastmile_qr_scan", "ios": "https://dc.lft.to/lastmile_qr_scan"}, "is_reserved": 0, "is_disabled": 0, "type": "electric_scooter", "bike_id": "2639cc8fc81c0c921cc64538364aa02a"}, {"lon": -77.04871266666666, "lat": 38.89221766666667, "name": "53a16a3b7082a6105d0c6f58a041895c", "fusion_lat": 0.0, "fusion_lon": 0.0, "rental_uris": {"android": "https://dc.lft.to/lastmile_qr_scan", "ios": "https://dc.lft.to/lastmile_qr_scan"}, "is_reserved": 0, "is_disabled": 0, "type": "electric_scooter", "bike_id": "53a16a3b7082a6105d0c6f58a041895c"}, {"lon": -77.1070925, "lat": 38.85541883333333, "name": "10a52650bac5dea82d055beffe4b83ff", "fusion_lat": 0.0, "fusion_lon": 0.0, "rental_uris": {"android": "https://dc.lft.to/lastmile_qr_scan", "ios": "https://dc.lft.to/lastmile_qr_scan"}, "is_reserved": 0, "is_disabled": 0, "type": "electric_bike", "bike_id": "10a52650bac5dea82d055beffe4b83ff"}, {"lon": -77.02720416666666, "lat": 38.8997785, "name": "6f4bc985dbd9f94765d0e3da3da913fd", "fusion_lat": 0.0, "fusion_lon": 0.0, "rental_uris": {"android": "https://dc.lft.to/lastmile_qr_scan", "ios": "https://dc.lft.to/lastmile_qr_scan"}, "is_reserved": 0, "is_disabled": 0, "type": "electric_scooter", "bike_id": "6f4bc985dbd9f94765d0e3da3da913fd"}, {"lon": -77.03467316666666, "lat": 38.90463833333333, "name": "e308ea83770a4b330e953dafca59904b", "fusion_lat": 0.0, "fusion_lon": 0.0, "rental_uris": {"android": "https://dc.lft.to/lastmile_qr_scan", "ios": "https://dc.lft.to/lastmile_qr_scan"}, "is_reserved": 0, "is_disabled": 0, "type": "electric_scooter", "bike_id": "e308ea83770a4b330e953dafca59904b"}, {"lon": -77.0486825, "lat": 38.904458, "name": "e4940094ebb670fd496efabd7796e80b", "fusion_lat": 0.0, "fusion_lon": 0.0, "rental_uris": {"android": "https://dc.lft.to/lastmile_qr_scan", "ios": "https://dc.lft.to/lastmile_qr_scan"}, "is_reserved": 0, "is_disabled": 0, "type": "electric_scooter", "bike_id": "e4940094ebb670fd496efabd7796e80b"}, {"lon": -77.043518, "lat": 38.911166333333334, "name": "19b8c2f0cf34fa9cd5d7238bf78ad99e", "fusion_lat": 0.0, "fusion_lon": 0.0, "rental_uris": {"android": "https://dc.lft.to/lastmile_qr_scan", "ios": "https://dc.lft.to/lastmile_qr_scan"}, "is_reserved": 0, "is_disabled": 0, "type": "electric_scooter", "bike_id": "19b8c2f0cf34fa9cd5d7238bf78ad99e"}, {"lon": -77.02787233333333, "lat": 38.92774816666667, "name": "b0aa5a8ccdfcf2d7d1ed8f6f517c07ee", "fusion_lat": 0.0, "fusion_lon": 0.0, "rental_uris": {"android": "https://dc.lft.to/lastmile_qr_scan", "ios": "https://dc.lft.to/lastmile_qr_scan"}, "is_reserved": 0, "is_disabled": 0, "type": "electric_scooter", "bike_id": "b0aa5a8ccdfcf2d7d1ed8f6f517c07ee"}, {"lon": -77.0320555, "lat": 38.919877666666665, "name": "95017061cae9dedda69b09f46315387a", "fusion_lat": 0.0, "fusion_lon": 0.0, "rental_uris": {"android": "https://dc.lft.to/lastmile_qr_scan", "ios": "https://dc.lft.to/lastmile_qr_scan"}, "is_reserved": 0, "is_disabled": 0, "type": "electric_scooter", "bike_id": "95017061cae9dedda69b09f46315387a"}, {"lon": -77.01222916666667, "lat": 38.91520416666667, "name": "8f467b790213451cadf76a3ae490611a", "fusion_lat": 0.0, "fusion_lon": 0.0, "rental_uris": {"android": "https://dc.lft.to/lastmile_qr_scan", "ios": "https://dc.lft.to/lastmile_qr_scan"}, "is_reserved": 0, "is_disabled": 0, "type": "electric_scooter", "bike_id": "8f467b790213451cadf76a3ae490611a"}, {"lon": -77.02933516666667, "lat": 38.895176666666664, "name": "f4b03d9f9e44f16cb7dcbcb0f4402789", "fusion_lat": 0.0, "fusion_lon": 0.0, "rental_uris": {"android": "https://dc.lft.to/lastmile_qr_scan", "ios": "https://dc.lft.to/lastmile_qr_scan"}, "is_reserved": 0, "is_disabled": 0, "type": "electric_scooter", "bike_id": "f4b03d9f9e44f16cb7dcbcb0f4402789"}, {"lon": -77.06766666666667, "lat": 38.90516083333333, "name": "67be187be05ab1c7e75cbfe9219a3f6b", "fusion_lat": 0.0, "fusion_lon": 0.0, "rental_uris": {"android": "https://dc.lft.to/lastmile_qr_scan", "ios": "https://dc.lft.to/lastmile_qr_scan"}, "is_reserved": 0, "is_disabled": 0, "type": "electric_scooter", "bike_id": "67be187be05ab1c7e75cbfe9219a3f6b"}, {"lon": -77.01523266666666, "lat": 38.886243666666665, "name": "dd784c6661441b04010ca42c88e232bf", "fusion_lat": 0.0, "fusion_lon": 0.0, "rental_uris": {"android": "https://dc.lft.to/lastmile_qr_scan", "ios": "https://dc.lft.to/lastmile_qr_scan"}, "is_reserved": 0, "is_disabled": 0, "type": "electric_scooter", "bike_id": "dd784c6661441b04010ca42c88e232bf"}, {"lon": -76.9318385, "lat": 38.8987515, "name": "19cfbec0288029d4e44aa32bf236bbd9", "fusion_lat": 0.0, "fusion_lon": 0.0, "rental_uris": {"android": "https://dc.lft.to/lastmile_qr_scan", "ios": "https://dc.lft.to/lastmile_qr_scan"}, "is_reserved": 0, "is_disabled": 0, "type": "electric_scooter", "bike_id": "19cfbec0288029d4e44aa32bf236bbd9"}, {"lon": -77.0013025, "lat": 38.90411233333333, "name": "3271704312889cb024c4e11385e07c6a", "fusion_lat": 0.0, "fusion_lon": 0.0, "rental_uris": {"android": "https://dc.lft.to/lastmile_qr_scan", "ios": "https://dc.lft.to/lastmile_qr_scan"}, "is_reserved": 0, "is_disabled": 0, "type": "electric_scooter", "bike_id": "3271704312889cb024c4e11385e07c6a"}, {"lon": -76.96490266666666, "lat": 38.8754865, "name": "4c22c00ef856151162778e05074d68c4", "fusion_lat": 0.0, "fusion_lon": 0.0, "rental_uris": {"android": "https://dc.lft.to/lastmile_qr_scan", "ios": "https://dc.lft.to/lastmile_qr_scan"}, "is_reserved": 0, "is_disabled": 0, "type": "electric_bike", "bike_id": "4c22c00ef856151162778e05074d68c4"}, {"lon": -76.99064566666667, "lat": 38.9002805, "name": "a333629e46a23b959be11b6ac9533f7b", "fusion_lat": 0.0, "fusion_lon": 0.0, "rental_uris": {"android": "https://dc.lft.to/lastmile_qr_scan", "ios": "https://dc.lft.to/lastmile_qr_scan"}, "is_reserved": 0, "is_disabled": 0, "type": "electric_scooter", "bike_id": "a333629e46a23b959be11b6ac9533f7b"}, {"lon": -76.95210783333333, "lat": 38.93669916666666, "name": "c6b5a6ac3d0e93f9a599c5c6c821d5a2", "fusion_lat": 0.0, "fusion_lon": 0.0, "rental_uris": {"android": "https://dc.lft.to/lastmile_qr_scan", "ios": "https://dc.lft.to/lastmile_qr_scan"}, "is_reserved": 0, "is_disabled": 0, "type": "electric_bike", "bike_id": "c6b5a6ac3d0e93f9a599c5c6c821d5a2"}, {"lon": -77.02828916666667, "lat": 38.917142, "name": "96aa267b29cd037aa41db897a01777f1", "fusion_lat": 0.0, "fusion_lon": 0.0, "rental_uris": {"android": "https://dc.lft.to/lastmile_qr_scan", "ios": "https://dc.lft.to/lastmile_qr_scan"}, "is_reserved": 0, "is_disabled": 0, "type": "electric_scooter", "bike_id": "96aa267b29cd037aa41db897a01777f1"}, {"lon": -76.99935566666667, "lat": 38.8961345, "name": "8b018ab6e85a9fa3d8bd9807c425a741", "fusion_lat": 0.0, "fusion_lon": 0.0, "rental_uris": {"android": "https://dc.lft.to/lastmile_qr_scan", "ios": "https://dc.lft.to/lastmile_qr_scan"}, "is_reserved": 0, "is_disabled": 0, "type": "electric_scooter", "bike_id": "8b018ab6e85a9fa3d8bd9807c425a741"}, {"lon": -77.01843383333333, "lat": 38.949954166666664, "name": "6232c3d6af934469e045b06726ff575d", "fusion_lat": 0.0, "fusion_lon": 0.0, "rental_uris": {"android": "https://dc.lft.to/lastmile_qr_scan", "ios": "https://dc.lft.to/lastmile_qr_scan"}, "is_reserved": 0, "is_disabled": 0, "type": "electric_scooter", "bike_id": "6232c3d6af934469e045b06726ff575d"}, {"lon": -77.00734316666667, "lat": 38.955230666666665, "name": "3ec0ea27a9b2fe9662fde73c8b011284", "fusion_lat": 0.0, "fusion_lon": 0.0, "rental_uris": {"android": "https://dc.lft.to/lastmile_qr_scan", "ios": "https://dc.lft.to/lastmile_qr_scan"}, "is_reserved": 0, "is_disabled": 0, "type": "electric_scooter", "bike_id": "3ec0ea27a9b2fe9662fde73c8b011284"}, {"lon": -77.0328765, "lat": 38.930380666666665, "name": "efae9835dbd6b8476fb5d5ea7faa0db2", "fusion_lat": 0.0, "fusion_lon": 0.0, "rental_uris": {"android": "https://dc.lft.to/lastmile_qr_scan", "ios": "https://dc.lft.to/lastmile_qr_scan"}, "is_reserved": 0, "is_disabled": 0, "type": "electric_scooter", "bike_id": "efae9835dbd6b8476fb5d5ea7faa0db2"}, {"lon": -77.03188866666666, "lat": 38.919137166666665, "name": "2c40a756c776bed41dafb97f7945f012", "fusion_lat": 0.0, "fusion_lon": 0.0, "rental_uris": {"android": "https://dc.lft.to/lastmile_qr_scan", "ios": "https://dc.lft.to/lastmile_qr_scan"}, "is_reserved": 0, "is_disabled": 0, "type": "electric_scooter", "bike_id": "2c40a756c776bed41dafb97f7945f012"}, {"lon": -77.02489566666667, "lat": 38.939685, "name": "da633cc1e2741aeff5567b21841ffbe0", "fusion_lat": 0.0, "fusion_lon": 0.0, "rental_uris": {"android": "https://dc.lft.to/lastmile_qr_scan", "ios": "https://dc.lft.to/lastmile_qr_scan"}, "is_reserved": 0, "is_disabled": 0, "type": "electric_scooter", "bike_id": "da633cc1e2741aeff5567b21841ffbe0"}, {"lon": -77.00186183333334, "lat": 38.90558583333333, "name": "0089ce14c80fe6ee77ad2228808507e0", "fusion_lat": 0.0, "fusion_lon": 0.0, "rental_uris": {"android": "https://dc.lft.to/lastmile_qr_scan", "ios": "https://dc.lft.to/lastmile_qr_scan"}, "is_reserved": 0, "is_disabled": 0, "type": "electric_scooter", "bike_id": "0089ce14c80fe6ee77ad2228808507e0"}, {"lon": -77.03206333333333, "lat": 38.91989233333334, "name": "cc94489b338e5212ca766b2b89f70221", "fusion_lat": 0.0, "fusion_lon": 0.0, "rental_uris": {"android": "https://dc.lft.to/lastmile_qr_scan", "ios": "https://dc.lft.to/lastmile_qr_scan"}, "is_reserved": 0, "is_disabled": 0, "type": "electric_scooter", "bike_id": "cc94489b338e5212ca766b2b89f70221"}, {"lon": -77.067798, "lat": 38.95208616666667, "name": "c339a4afec916a658d8cbc9346e194c6", "fusion_lat": 0.0, "fusion_lon": 0.0, "rental_uris": {"android": "https://dc.lft.to/lastmile_qr_scan", "ios": "https://dc.lft.to/lastmile_qr_scan"}, "is_reserved": 0, "is_disabled": 0, "type": "electric_scooter", "bike_id": "c339a4afec916a658d8cbc9346e194c6"}, {"lon": -77.02817383333333, "lat": 38.92873783333334, "name": "feca177e5371f906b245e48b63f47feb", "fusion_lat": 0.0, "fusion_lon": 0.0, "rental_uris": {"android": "https://dc.lft.to/lastmile_qr_scan", "ios": "https://dc.lft.to/lastmile_qr_scan"}, "is_reserved": 0, "is_disabled": 0, "type": "electric_scooter", "bike_id": "feca177e5371f906b245e48b63f47feb"}, {"lon": -77.00204383333333, "lat": 38.90218433333333, "name": "bead2551f0c86bbbc898d2d7f7977c30", "fusion_lat": 0.0, "fusion_lon": 0.0, "rental_uris": {"android": "https://dc.lft.to/lastmile_qr_scan", "ios": "https://dc.lft.to/lastmile_qr_scan"}, "is_reserved": 0, "is_disabled": 0, "type": "electric_scooter", "bike_id": "bead2551f0c86bbbc898d2d7f7977c30"}, {"lon": -77.02351433333334, "lat": 38.92276866666667, "name": "d135edc28993aada09d152553946472b", "fusion_lat": 0.0, "fusion_lon": 0.0, "rental_uris": {"android": "https://dc.lft.to/lastmile_qr_scan", "ios": "https://dc.lft.to/lastmile_qr_scan"}, "is_reserved": 0, "is_disabled": 0, "type": "electric_scooter", "bike_id": "d135edc28993aada09d152553946472b"}, {"lon": -77.00335216666667, "lat": 38.893567, "name": "78462d8b7b5b9d8f80686b7ae3222a91", "fusion_lat": 0.0, "fusion_lon": 0.0, "rental_uris": {"android": "https://dc.lft.to/lastmile_qr_scan", "ios": "https://dc.lft.to/lastmile_qr_scan"}, "is_reserved": 0, "is_disabled": 0, "type": "electric_scooter", "bike_id": "78462d8b7b5b9d8f80686b7ae3222a91"}, {"lon": -76.932314, "lat": 38.86596016666667, "name": "1512666dca24622917f3e7406a777e1a", "fusion_lat": 0.0, "fusion_lon": 0.0, "rental_uris": {"android": "https://dc.lft.to/lastmile_qr_scan", "ios": "https://dc.lft.to/lastmile_qr_scan"}, "is_reserved": 0, "is_disabled": 0, "type": "electric_bike", "bike_id": "1512666dca24622917f3e7406a777e1a"}, {"lon": -77.03655416666666, "lat": 38.9029015, "name": "892e92be55141f7723a253a2889e999f", "fusion_lat": 0.0, "fusion_lon": 0.0, "rental_uris": {"android": "https://dc.lft.to/lastmile_qr_scan", "ios": "https://dc.lft.to/lastmile_qr_scan"}, "is_reserved": 0, "is_disabled": 0, "type": "electric_scooter", "bike_id": "892e92be55141f7723a253a2889e999f"}, {"lon": -77.01198933333333, "lat": 38.900081, "name": "2fc4734d2926e772a0944e8cd2d4bf61", "fusion_lat": 0.0, "fusion_lon": 0.0, "rental_uris": {"android": "https://dc.lft.to/lastmile_qr_scan", "ios": "https://dc.lft.to/lastmile_qr_scan"}, "is_reserved": 0, "is_disabled": 0, "type": "electric_scooter", "bike_id": "2fc4734d2926e772a0944e8cd2d4bf61"}, {"lon": -77.01411566666667, "lat": 38.913212333333334, "name": "e5503537c3b27fbe1d6b7a952b27d4a1", "fusion_lat": 0.0, "fusion_lon": 0.0, "rental_uris": {"android": "https://dc.lft.to/lastmile_qr_scan", "ios": "https://dc.lft.to/lastmile_qr_scan"}, "is_reserved": 0, "is_disabled": 0, "type": "electric_scooter", "bike_id": "e5503537c3b27fbe1d6b7a952b27d4a1"}, {"lon": -77.04637033333333, "lat": 38.89221666666667, "name": "b117c284783cb73e75babc2923703749", "fusion_lat": 0.0, "fusion_lon": 0.0, "rental_uris": {"android": "https://dc.lft.to/lastmile_qr_scan", "ios": "https://dc.lft.to/lastmile_qr_scan"}, "is_reserved": 0, "is_disabled": 0, "type": "electric_scooter", "bike_id": "b117c284783cb73e75babc2923703749"}, {"lon": -77.04144066666667, "lat": 38.89231266666667, "name": "fd08b43c8ee4a614d44bf62f62570a0e", "fusion_lat": 0.0, "fusion_lon": 0.0, "rental_uris": {"android": "https://dc.lft.to/lastmile_qr_scan", "ios": "https://dc.lft.to/lastmile_qr_scan"}, "is_reserved": 0, "is_disabled": 0, "type": "electric_scooter", "bike_id": "fd08b43c8ee4a614d44bf62f62570a0e"}, {"lon": -77.02225133333333, "lat": 38.912541166666664, "name": "3a1e28e44ad6763af4e86cce763fc3fe", "fusion_lat": 0.0, "fusion_lon": 0.0, "rental_uris": {"android": "https://dc.lft.to/lastmile_qr_scan", "ios": "https://dc.lft.to/lastmile_qr_scan"}, "is_reserved": 0, "is_disabled": 0, "type": "electric_scooter", "bike_id": "3a1e28e44ad6763af4e86cce763fc3fe"}, {"lon": -77.12959266666667, "lat": 38.852176166666666, "name": "d10e1f13769dd934043417cd6fd39cff", "fusion_lat": 0.0, "fusion_lon": 0.0, "rental_uris": {"android": "https://dc.lft.to/lastmile_qr_scan", "ios": "https://dc.lft.to/lastmile_qr_scan"}, "is_reserved": 0, "is_disabled": 0, "type": "electric_bike", "bike_id": "d10e1f13769dd934043417cd6fd39cff"}, {"lon": -77.04068716666667, "lat": 38.904992666666665, "name": "2d71219b80b7a05818da119ef60f382f", "fusion_lat": 0.0, "fusion_lon": 0.0, "rental_uris": {"android": "https://dc.lft.to/lastmile_qr_scan", "ios": "https://dc.lft.to/lastmile_qr_scan"}, "is_reserved": 0, "is_disabled": 0, "type": "electric_scooter", "bike_id": "2d71219b80b7a05818da119ef60f382f"}, {"lon": -77.024904, "lat": 38.91756916666667, "name": "38dd5fe28903709d8f4dcd3c498871af", "fusion_lat": 0.0, "fusion_lon": 0.0, "rental_uris": {"android": "https://dc.lft.to/lastmile_qr_scan", "ios": "https://dc.lft.to/lastmile_qr_scan"}, "is_reserved": 0, "is_disabled": 0, "type": "electric_scooter", "bike_id": "38dd5fe28903709d8f4dcd3c498871af"}, {"lon": -76.94218633333334, "lat": 38.89685033333333, "name": "afbd27b44b186cfc652754770530d987", "fusion_lat": 0.0, "fusion_lon": 0.0, "rental_uris": {"android": "https://dc.lft.to/lastmile_qr_scan", "ios": "https://dc.lft.to/lastmile_qr_scan"}, "is_reserved": 0, "is_disabled": 0, "type": "electric_scooter", "bike_id": "afbd27b44b186cfc652754770530d987"}, {"lon": -77.00635816666667, "lat": 38.95566916666667, "name": "b0e81adc3699855b86423d530e6aab74", "fusion_lat": 0.0, "fusion_lon": 0.0, "rental_uris": {"android": "https://dc.lft.to/lastmile_qr_scan", "ios": "https://dc.lft.to/lastmile_qr_scan"}, "is_reserved": 0, "is_disabled": 0, "type": "electric_scooter", "bike_id": "b0e81adc3699855b86423d530e6aab74"}, {"lon": -77.0091685, "lat": 38.91068933333333, "name": "5914d9025f989f6fef5bdd2866b1c832", "fusion_lat": 0.0, "fusion_lon": 0.0, "rental_uris": {"android": "https://dc.lft.to/lastmile_qr_scan", "ios": "https://dc.lft.to/lastmile_qr_scan"}, "is_reserved": 0, "is_disabled": 0, "type": "electric_scooter", "bike_id": "5914d9025f989f6fef5bdd2866b1c832"}, {"lon": -77.09204983333333, "lat": 38.941326833333335, "name": "f5b4140460d4cc7daf91860987678957", "fusion_lat": 0.0, "fusion_lon": 0.0, "rental_uris": {"android": "https://dc.lft.to/lastmile_qr_scan", "ios": "https://dc.lft.to/lastmile_qr_scan"}, "is_reserved": 0, "is_disabled": 0, "type": "electric_scooter", "bike_id": "f5b4140460d4cc7daf91860987678957"}, {"lon": -76.99514516666666, "lat": 38.894824, "name": "ca12b9a7b2f1ac5c2711d77d170d0607", "fusion_lat": 0.0, "fusion_lon": 0.0, "rental_uris": {"android": "https://dc.lft.to/lastmile_qr_scan", "ios": "https://dc.lft.to/lastmile_qr_scan"}, "is_reserved": 0, "is_disabled": 0, "type": "electric_scooter", "bike_id": "ca12b9a7b2f1ac5c2711d77d170d0607"}, {"lon": -77.04513333333334, "lat": 38.892228333333335, "name": "3ec9bcb5f9efc150c39e894aba4e4288", "fusion_lat": 0.0, "fusion_lon": 0.0, "rental_uris": {"android": "https://dc.lft.to/lastmile_qr_scan", "ios": "https://dc.lft.to/lastmile_qr_scan"}, "is_reserved": 0, "is_disabled": 0, "type": "electric_scooter", "bike_id": "3ec9bcb5f9efc150c39e894aba4e4288"}, {"lon": -77.00582233333333, "lat": 38.90578433333334, "name": "df63a9946c7a4f24a6b4d94e1d9a6a5d", "fusion_lat": 0.0, "fusion_lon": 0.0, "rental_uris": {"android": "https://dc.lft.to/lastmile_qr_scan", "ios": "https://dc.lft.to/lastmile_qr_scan"}, "is_reserved": 0, "is_disabled": 0, "type": "electric_scooter", "bike_id": "df63a9946c7a4f24a6b4d94e1d9a6a5d"}, {"lon": -77.02700966666667, "lat": 38.88141566666667, "name": "b0b13ab0dd58f37af9fa5c1bcdd721a8", "fusion_lat": 0.0, "fusion_lon": 0.0, "rental_uris": {"android": "https://dc.lft.to/lastmile_qr_scan", "ios": "https://dc.lft.to/lastmile_qr_scan"}, "is_reserved": 0, "is_disabled": 0, "type": "electric_bike", "bike_id": "b0b13ab0dd58f37af9fa5c1bcdd721a8"}, {"lon": -77.03264016666667, "lat": 38.933275, "name": "af29103b767edc1978ab982e0fe9bf1e", "fusion_lat": 0.0, "fusion_lon": 0.0, "rental_uris": {"android": "https://dc.lft.to/lastmile_qr_scan", "ios": "https://dc.lft.to/lastmile_qr_scan"}, "is_reserved": 0, "is_disabled": 0, "type": "electric_scooter", "bike_id": "af29103b767edc1978ab982e0fe9bf1e"}, {"lon": -77.076528, "lat": 38.91081333333333, "name": "0675b83e408b89b0da651dcf19b37a93", "fusion_lat": 0.0, "fusion_lon": 0.0, "rental_uris": {"android": "https://dc.lft.to/lastmile_qr_scan", "ios": "https://dc.lft.to/lastmile_qr_scan"}, "is_reserved": 0, "is_disabled": 0, "type": "electric_scooter", "bike_id": "0675b83e408b89b0da651dcf19b37a93"}, {"lon": -77.14986566666667, "lat": 39.09458816666667, "name": "24c0868836376001e278670c5141a253", "fusion_lat": 0.0, "fusion_lon": 0.0, "rental_uris": {"android": "https://dc.lft.to/lastmile_qr_scan", "ios": "https://dc.lft.to/lastmile_qr_scan"}, "is_reserved": 0, "is_disabled": 0, "type": "electric_bike", "bike_id": "24c0868836376001e278670c5141a253"}, {"lon": -77.06829816666666, "lat": 38.91175, "name": "64c356e10e790c1ce4bfc026d8d1854b", "fusion_lat": 0.0, "fusion_lon": 0.0, "rental_uris": {"android": "https://dc.lft.to/lastmile_qr_scan", "ios": "https://dc.lft.to/lastmile_qr_scan"}, "is_reserved": 0, "is_disabled": 0, "type": "electric_scooter", "bike_id": "64c356e10e790c1ce4bfc026d8d1854b"}, {"lon": -77.09021666666666, "lat": 38.8411665, "name": "2f9418e28a7849bd9fe761df8179dd7d", "fusion_lat": 0.0, "fusion_lon": 0.0, "rental_uris": {"android": "https://dc.lft.to/lastmile_qr_scan", "ios": "https://dc.lft.to/lastmile_qr_scan"}, "is_reserved": 0, "is_disabled": 0, "type": "electric_bike", "bike_id": "2f9418e28a7849bd9fe761df8179dd7d"}, {"lon": -77.03628216666667, "lat": 38.949112166666666, "name": "417b10a46c57f1618e321218b494876e", "fusion_lat": 0.0, "fusion_lon": 0.0, "rental_uris": {"android": "https://dc.lft.to/lastmile_qr_scan", "ios": "https://dc.lft.to/lastmile_qr_scan"}, "is_reserved": 0, "is_disabled": 0, "type": "electric_scooter", "bike_id": "417b10a46c57f1618e321218b494876e"}, {"lon": -77.05376116666666, "lat": 38.92332116666667, "name": "ee1be18ed7b6f5641d74dab1bad8ac9e", "fusion_lat": 0.0, "fusion_lon": 0.0, "rental_uris": {"android": "https://dc.lft.to/lastmile_qr_scan", "ios": "https://dc.lft.to/lastmile_qr_scan"}, "is_reserved": 0, "is_disabled": 0, "type": "electric_scooter", "bike_id": "ee1be18ed7b6f5641d74dab1bad8ac9e"}, {"lon": -77.19911416666666, "lat": 38.875298, "name": "3adb18ae61fc14aaf7975b57cd4aa59e", "fusion_lat": 0.0, "fusion_lon": 0.0, "rental_uris": {"android": "https://dc.lft.to/lastmile_qr_scan", "ios": "https://dc.lft.to/lastmile_qr_scan"}, "is_reserved": 0, "is_disabled": 0, "type": "electric_bike", "bike_id": "3adb18ae61fc14aaf7975b57cd4aa59e"}, {"lon": -77.026722, "lat": 38.932152333333335, "name": "4aeb39965881c1a01a2f54e04d223c44", "fusion_lat": 0.0, "fusion_lon": 0.0, "rental_uris": {"android": "https://dc.lft.to/lastmile_qr_scan", "ios": "https://dc.lft.to/lastmile_qr_scan"}, "is_reserved": 0, "is_disabled": 0, "type": "electric_scooter", "bike_id": "4aeb39965881c1a01a2f54e04d223c44"}, {"lon": -77.003466, "lat": 38.89161633333333, "name": "b6c7b9910584dfbe09f6334a19ec6dbe", "fusion_lat": 0.0, "fusion_lon": 0.0, "rental_uris": {"android": "https://dc.lft.to/lastmile_qr_scan", "ios": "https://dc.lft.to/lastmile_qr_scan"}, "is_reserved": 0, "is_disabled": 0, "type": "electric_scooter", "bike_id": "b6c7b9910584dfbe09f6334a19ec6dbe"}, {"lon": -77.038594, "lat": 38.93210783333333, "name": "bb36fc3a5b0496746113fdf1a4442757", "fusion_lat": 0.0, "fusion_lon": 0.0, "rental_uris": {"android": "https://dc.lft.to/lastmile_qr_scan", "ios": "https://dc.lft.to/lastmile_qr_scan"}, "is_reserved": 0, "is_disabled": 0, "type": "electric_scooter", "bike_id": "bb36fc3a5b0496746113fdf1a4442757"}, {"lon": -77.00652066666666, "lat": 38.90862666666666, "name": "bc2ffba41facef63d1a0d6b2047ad30b", "fusion_lat": 0.0, "fusion_lon": 0.0, "rental_uris": {"android": "https://dc.lft.to/lastmile_qr_scan", "ios": "https://dc.lft.to/lastmile_qr_scan"}, "is_reserved": 0, "is_disabled": 0, "type": "electric_scooter", "bike_id": "bc2ffba41facef63d1a0d6b2047ad30b"}, {"lon": -76.97743866666667, "lat": 38.90008816666667, "name": "d69f869fa1ac9c7e4615501577334fde", "fusion_lat": 0.0, "fusion_lon": 0.0, "rental_uris": {"android": "https://dc.lft.to/lastmile_qr_scan", "ios": "https://dc.lft.to/lastmile_qr_scan"}, "is_reserved": 0, "is_disabled": 0, "type": "electric_scooter", "bike_id": "d69f869fa1ac9c7e4615501577334fde"}, {"lon": -77.020076, "lat": 38.899496166666665, "name": "36dfbac30c65a7f310a51fa0bb3285c4", "fusion_lat": 0.0, "fusion_lon": 0.0, "rental_uris": {"android": "https://dc.lft.to/lastmile_qr_scan", "ios": "https://dc.lft.to/lastmile_qr_scan"}, "is_reserved": 0, "is_disabled": 0, "type": "electric_scooter", "bike_id": "36dfbac30c65a7f310a51fa0bb3285c4"}, {"lon": -76.87817283333334, "lat": 38.992328666666666, "name": "5aec6065e02a88b03c87a9f934b49cfb", "fusion_lat": 0.0, "fusion_lon": 0.0, "rental_uris": {"android": "https://dc.lft.to/lastmile_qr_scan", "ios": "https://dc.lft.to/lastmile_qr_scan"}, "is_reserved": 0, "is_disabled": 0, "type": "electric_bike", "bike_id": "5aec6065e02a88b03c87a9f934b49cfb"}, {"lon": -76.9823105, "lat": 38.925045833333336, "name": "4263ba80f63d307d8a1b10dc994ea7ec", "fusion_lat": 0.0, "fusion_lon": 0.0, "rental_uris": {"android": "https://dc.lft.to/lastmile_qr_scan", "ios": "https://dc.lft.to/lastmile_qr_scan"}, "is_reserved": 0, "is_disabled": 0, "type": "electric_bike", "bike_id": "4263ba80f63d307d8a1b10dc994ea7ec"}, {"lon": -77.0551205, "lat": 38.899338666666665, "name": "639dc81d242b6e4dc9cd87751e6d7d40", "fusion_lat": 0.0, "fusion_lon": 0.0, "rental_uris": {"android": "https://dc.lft.to/lastmile_qr_scan", "ios": "https://dc.lft.to/lastmile_qr_scan"}, "is_reserved": 0, "is_disabled": 0, "type": "electric_scooter", "bike_id": "639dc81d242b6e4dc9cd87751e6d7d40"}, {"lon": -76.98175833333333, "lat": 38.90039066666667, "name": "0e26c107bbc123d5e854750efc2c5c00", "fusion_lat": 0.0, "fusion_lon": 0.0, "rental_uris": {"android": "https://dc.lft.to/lastmile_qr_scan", "ios": "https://dc.lft.to/lastmile_qr_scan"}, "is_reserved": 0, "is_disabled": 0, "type": "electric_scooter", "bike_id": "0e26c107bbc123d5e854750efc2c5c00"}, {"lon": -77.037898, "lat": 38.9262885, "name": "6763effd4a5925d8ce32729ec6affe34", "fusion_lat": 0.0, "fusion_lon": 0.0, "rental_uris": {"android": "https://dc.lft.to/lastmile_qr_scan", "ios": "https://dc.lft.to/lastmile_qr_scan"}, "is_reserved": 0, "is_disabled": 0, "type": "electric_scooter", "bike_id": "6763effd4a5925d8ce32729ec6affe34"}, {"lon": -77.10717433333333, "lat": 38.8554825, "name": "165614e720791a08a91046260400ea62", "fusion_lat": 0.0, "fusion_lon": 0.0, "rental_uris": {"android": "https://dc.lft.to/lastmile_qr_scan", "ios": "https://dc.lft.to/lastmile_qr_scan"}, "is_reserved": 0, "is_disabled": 0, "type": "electric_bike", "bike_id": "165614e720791a08a91046260400ea62"}, {"lon": -76.94878783333333, "lat": 38.889581166666666, "name": "ef930fae5733b61fcee1d8b685990d30", "fusion_lat": 0.0, "fusion_lon": 0.0, "rental_uris": {"android": "https://dc.lft.to/lastmile_qr_scan", "ios": "https://dc.lft.to/lastmile_qr_scan"}, "is_reserved": 0, "is_disabled": 0, "type": "electric_bike", "bike_id": "ef930fae5733b61fcee1d8b685990d30"}, {"lon": -77.0432, "lat": 38.9087365, "name": "66efd0eee5b027a61acce66b95f8af2f", "fusion_lat": 0.0, "fusion_lon": 0.0, "rental_uris": {"android": "https://dc.lft.to/lastmile_qr_scan", "ios": "https://dc.lft.to/lastmile_qr_scan"}, "is_reserved": 0, "is_disabled": 0, "type": "electric_bike", "bike_id": "66efd0eee5b027a61acce66b95f8af2f"}, {"lon": -77.02696183333333, "lat": 38.896531833333334, "name": "9a4bf6aa98d1d297397c9c223b087df8", "fusion_lat": 0.0, "fusion_lon": 0.0, "rental_uris": {"android": "https://dc.lft.to/lastmile_qr_scan", "ios": "https://dc.lft.to/lastmile_qr_scan"}, "is_reserved": 0, "is_disabled": 0, "type": "electric_scooter", "bike_id": "9a4bf6aa98d1d297397c9c223b087df8"}, {"lon": -77.0249455, "lat": 38.9180725, "name": "b3ce489315d8c9d32578bfe84027a855", "fusion_lat": 0.0, "fusion_lon": 0.0, "rental_uris": {"android": "https://dc.lft.to/lastmile_qr_scan", "ios": "https://dc.lft.to/lastmile_qr_scan"}, "is_reserved": 0, "is_disabled": 0, "type": "electric_scooter", "bike_id": "b3ce489315d8c9d32578bfe84027a855"}, {"lon": -77.0319835, "lat": 38.9173735, "name": "014601c9c8b3d5756fa17f531dfb474f", "fusion_lat": 0.0, "fusion_lon": 0.0, "rental_uris": {"android": "https://dc.lft.to/lastmile_qr_scan", "ios": "https://dc.lft.to/lastmile_qr_scan"}, "is_reserved": 0, "is_disabled": 0, "type": "electric_scooter", "bike_id": "014601c9c8b3d5756fa17f531dfb474f"}, {"lon": -76.968783, "lat": 38.92448666666667, "name": "996a4b26b548a36a4bbe39c9a31bb148", "fusion_lat": 0.0, "fusion_lon": 0.0, "rental_uris": {"android": "https://dc.lft.to/lastmile_qr_scan", "ios": "https://dc.lft.to/lastmile_qr_scan"}, "is_reserved": 0, "is_disabled": 0, "type": "electric_scooter", "bike_id": "996a4b26b548a36a4bbe39c9a31bb148"}, {"lon": -77.18799433333334, "lat": 39.099429666666666, "name": "cfa2fc834739e6362ed7af728c82ef05", "fusion_lat": 0.0, "fusion_lon": 0.0, "rental_uris": {"android": "https://dc.lft.to/lastmile_qr_scan", "ios": "https://dc.lft.to/lastmile_qr_scan"}, "is_reserved": 0, "is_disabled": 0, "type": "electric_bike", "bike_id": "cfa2fc834739e6362ed7af728c82ef05"}, {"lon": -77.04159183333333, "lat": 38.915466333333335, "name": "e460122221673144652db241e3819cb6", "fusion_lat": 0.0, "fusion_lon": 0.0, "rental_uris": {"android": "https://dc.lft.to/lastmile_qr_scan", "ios": "https://dc.lft.to/lastmile_qr_scan"}, "is_reserved": 0, "is_disabled": 0, "type": "electric_scooter", "bike_id": "e460122221673144652db241e3819cb6"},