{"data": {"bikes": [{"is_disabled": 0, "is_reserved": 0, "fusion_lat": 0.0, "lat": 38.903717, "fusion_lon": 0.0, "rental_uris": {"ios": "https://dc.lft.to/lastmile_qr_scan", "android": "https://dc.lft.to/lastmile_qr_scan"}, "lon": -77.048356, "bike_id": "86a8cdfc74a3432e431173747227edb9", "type": "electric_scooter", "name": "86a8cdfc74a3432e431173747227edb9"}, {"is_disabled": 0, "is_reserved": 0, "fusion_lat": 0.0, "lat": 38.95615383333333, "fusion_lon": 0.0, "rental_uris": {"ios": "https://dc.lft.to/lastmile_qr_scan", "android": "https://dc.lft.to/lastmile_qr_scan"}, "lon": -77.03310983333333, "bike_id": "c5fcb5516546333c8ca525da1c25e314", "type": "electric_scooter", "name": "c5fcb5516546333c8ca525da1c25e314"}, {"is_disabled": 0, "is_reserved": 0, "fusion_lat": 0.0, "lat": 38.9287105, "fusion_lon": 0.0, "rental_uris": {"ios": "https://dc.lft.to/lastmile_qr_scan", "android": "https://dc.lft.to/lastmile_qr_scan"}, "lon": -77.0399105, "bike_id": "8f3de753b0cd12210d5a0b9a0b58fcb5", "type": "electric_scooter", "name": "8f3de753b0cd12210d5a0b9a0b58fcb5"}, {"is_disabled": 0, "is_reserved": 0, "fusion_lat": 0.0, "lat": 38.895037333333335, "fusion_lon": 0.0, "rental_uris": {"ios": "https://dc.lft.to/lastmile_qr_scan", "android": "https://dc.lft.to/lastmile_qr_scan"}, "lon": -77.02209383333333, "bike_id": "54c9e357be8d033b2c11dfa1e0dbf900", "type": "electric_scooter", "name": "54c9e357be8d033b2c11dfa1e0dbf900"}, {"is_disabled": 0, "is_reserved": 0, "fusion_lat": 0.0, "lat": 38.91953516666667, "fusion_lon": 0.0, "rental_uris": {"ios": "https://dc.lft.to/lastmile_qr_scan", "android": "https://dc.lft.to/lastmile_qr_scan"}, "lon": -77.02311466666667, "bike_id": "4c8e38ee8da31a171ad770657d78aad5", "type": "electric_scooter", "name": "4c8e38ee8da31a171ad770657d78aad5"}, {"is_disabled": 0, "is_reserved": 0, "fusion_lat": 0.0, "lat": 38.90398833333333, "fusion_lon": 0.0, "rental_uris": {"ios": "https://dc.lft.to/lastmile_qr_scan", "android": "https://dc.lft.to/lastmile_qr_scan"}, "lon": -77.06297983333333, "bike_id": "0adbffc63c64320394e3c7be30c6d622", "type": "electric_scooter", "name": "0adbffc63c64320394e3c7be30c6d622"}, {"is_disabled": 0, "is_reserved": 0, "fusion_lat": 0.0, "lat": 38.930834, "fusion_lon": 0.0, "rental_uris": {"ios": "https://dc.lft.to/lastmile_qr_scan", "android": "https://dc.lft.to/lastmile_qr_scan"}, "lon": -77.02803183333333, "bike_id": "664b144a10d614cf895831fb78bf1b5c", "type": "electric_scooter", "name": "664b144a10d614cf895831fb78bf1b5c"}, {"is_disabled": 0, "is_reserved": 0, "fusion_lat": 0.0, "lat": 38.914163, "fusion_lon": 0.0, "rental_uris": {"ios": "https://dc.lft.to/lastmile_qr_scan", "android": "https://dc.lft.to/lastmile_qr_scan"}, "lon": -77.0295175, "bike_id": "589c09e2b8e00f6a287a145c7a6ebe3c", "type": "electric_scooter", "name": "589c09e2b8e00f6a287a145c7a6ebe3c"}, {"is_disabled": 0, "is_reserved": 0, "fusion_lat": 0.0, "lat": 38.9065335, "fusion_lon": 0.0, "rental_uris": {"ios": "https://dc.lft.to/lastmile_qr_scan", "android": "https://dc.lft.to/lastmile_qr_scan"}, "lon": -76.9794025, "bike_id": "2fc96c46bd22a7a8f438fe96e4a8943c", "type": "electric_scooter", "name": "2fc96c46bd22a7a8f438fe96e4a8943c"}, {"is_disabled": 0, "is_reserved": 0, "fusion_lat": 0.0, "lat": 38.905089333333336, "fusion_lon": 0.0, "rental_uris": {"ios": "https://dc.lft.to/lastmile_qr_scan", "android": "https://dc.lft.to/lastmile_qr_scan"}, "lon": -77.0089675, "bike_id": "cbc7fef20facbe15f4f859f9c8b42635", "type": "electric_scooter", "name": "cbc7fef20facbe15f4f859f9c8b42635"}, {"is_disabled": 0, "is_reserved": 0, "fusion_lat": 0.0, "lat": 38.905256333333334, "fusion_lon": 0.0, "rental_uris": {"ios": "https://dc.lft.to/lastmile_qr_scan", "android": "https://dc.lft.to/lastmile_qr_scan"}, "lon": -77.0581, "bike_id": "de1bdc1fd1b6a39b2690456efb835204", "type": "electric_scooter", "name": "de1bdc1fd1b6a39b2690456efb835204"}, {"is_disabled": 0, "is_reserved": 0, "fusion_lat": 0.0, "lat": 38.8941195, "fusion_lon": 0.0, "rental_uris": {"ios": "https://dc.lft.to/lastmile_qr_scan", "android": "https://dc.lft.to/lastmile_qr_scan"}, "lon": -77.02422066666666, "bike_id": "bd8e460dad53620233f1fba424e7a06d", "type": "electric_scooter", "name": "bd8e460dad53620233f1fba424e7a06d"}, {"is_disabled": 0, "is_reserved": 0, "fusion_lat": 0.0, "lat": 38.904122, "fusion_lon": 0.0, "rental_uris": {"ios": "https://dc.lft.to/lastmile_qr_scan", "android": "https://dc.lft.to/lastmile_qr_scan"}, "lon": -77.06125216666666, "bike_id": "2ce19c502dcde2668bb18169a5dd1492", "type": "electric_scooter", "name": "2ce19c502dcde2668bb18169a5dd1492"}, {"is_disabled": 0, "is_reserved": 0, "fusion_lat": 0.0, "lat": 38.916934, "fusion_lon": 0.0, "rental_uris": {"ios": "https://dc.lft.to/lastmile_qr_scan", "android": "https://dc.lft.to/lastmile_qr_scan"}, "lon": -77.03770466666667, "bike_id": "eee1bcddbb5e8a167d856748da09d2f4", "type": "electric_scooter", "name": "eee1bcddbb5e8a167d856748da09d2f4"}, {"is_disabled": 0, "is_reserved": 0, "fusion_lat": 0.0, "lat": 38.944474166666666, "fusion_lon": 0.0, "rental_uris": {"ios": "https://dc.lft.to/lastmile_qr_scan", "android": "https://dc.lft.to/lastmile_qr_scan"}, "lon": -77.03278766666666, "bike_id": "3b3d4bd122a75dd12a1182d89d13c1e1", "type": "electric_scooter", "name": "3b3d4bd122a75dd12a1182d89d13c1e1"}, {"is_disabled": 0, "is_reserved": 0, "fusion_lat": 0.0, "lat": 38.882704, "fusion_lon": 0.0, "rental_uris": {"ios": "https://dc.lft.to/lastmile_qr_scan", "android": "https://dc.lft.to/lastmile_qr_scan"}, "lon": -76.9901495, "bike_id": "2a7205300d5baeab572b8b0d1739dd37", "type": "electric_scooter", "name": "2a7205300d5baeab572b8b0d1739dd37"}, {"is_disabled": 0, "is_reserved": 0, "fusion_lat": 0.0, "lat": 38.897182, "fusion_lon": 0.0, "rental_uris": {"ios": "https://dc.lft.to/lastmile_qr_scan", "android": "https://dc.lft.to/lastmile_qr_scan"}, "lon": -77.03190516666666, "bike_id": "4bf058f7986b35490232eff83848018e", "type": "electric_scooter", "name": "4bf058f7986b35490232eff83848018e"}, {"is_disabled": 0, "is_reserved": 0, "fusion_lat": 0.0, "lat": 38.90366916666667, "fusion_lon": 0.0, "rental_uris": {"ios": "https://dc.lft.to/lastmile_qr_scan", "android": "https://dc.lft.to/lastmile_qr_scan"}, "lon": -77.05077116666666, "bike_id": "1ebfc6d5a44421abdb6f4948b0134dbb", "type": "electric_bike", "name": "1ebfc6d5a44421abdb6f4948b0134dbb"}, {"is_disabled": 0, "is_reserved": 0, "fusion_lat": 0.0, "lat": 38.855115833333336, "fusion_lon": 0.0, "rental_uris": {"ios": "https://dc.lft.to/lastmile_qr_scan", "android": "https://dc.lft.to/lastmile_qr_scan"}, "lon": -77.12045083333334, "bike_id": "174b7b22f350db346f8b3bc76d1729ae", "type": "electric_bike", "name": "174b7b22f350db346f8b3bc76d1729ae"}, {"is_disabled": 0, "is_reserved": 0, "fusion_lat": 0.0, "lat": 38.92340816666667, "fusion_lon": 0.0, "rental_uris": {"ios": "https://dc.lft.to/lastmile_qr_scan", "android": "https://dc.lft.to/lastmile_qr_scan"}, "lon": -76.99872483333333, "bike_id": "b986fedbd3372c2fb48aa2df9deed55e", "type": "electric_scooter", "name": "b986fedbd3372c2fb48aa2df9deed55e"}, {"is_disabled": 0, "is_reserved": 0, "fusion_lat": 0.0, "lat": 38.92225783333333, "fusion_lon": 0.0, "rental_uris": {"ios": "https://dc.lft.to/lastmile_qr_scan", "android": "https://dc.lft.to/lastmile_qr_scan"}, "lon": -77.01873316666666, "bike_id": "105f524d5912968dbbe7c052e7dd9d92", "type": "electric_scooter", "name": "105f524d5912968dbbe7c052e7dd9d92"}, {"is_disabled": 0, "is_reserved": 0, "fusion_lat": 0.0, "lat": 38.90833166666667, "fusion_lon": 0.0, "rental_uris": {"ios": "https://dc.lft.to/lastmile_qr_scan", "android": "https://dc.lft.to/lastmile_qr_scan"}, "lon": -76.99695266666667, "bike_id": "aa6d8ad460a7187fad6ed9c596d56ac0", "type": "electric_scooter", "name": "aa6d8ad460a7187fad6ed9c596d56ac0"}, {"is_disabled": 0, "is_reserved": 0, "fusion_lat": 0.0, "lat": 38.919170333333334, "fusion_lon": 0.0, "rental_uris": {"ios": "https://dc.lft.to/lastmile_qr_scan", "android": "https://dc.lft.to/lastmile_qr_scan"}, "lon": -77.0599735, "bike_id": "eac22528168edab4976da402c73943bb", "type": "electric_bike", "name": "eac22528168edab4976da402c73943bb"}, {"is_disabled": 0, "is_reserved": 0, "fusion_lat": 0.0, "lat": 38.91411183333334, "fusion_lon": 0.0, "rental_uris": {"ios": "https://dc.lft.to/lastmile_qr_scan", "android": "https://dc.lft.to/lastmile_qr_scan"}, "lon": -77.011461, "bike_id": "48f173829424b684fd63c155e673b433", "type": "electric_scooter", "name": "48f173829424b684fd63c155e673b433"}, {"is_disabled": 0, "is_reserved": 0, "fusion_lat": 0.0, "lat": 38.8098195, "fusion_lon": 0.0, "rental_uris": {"ios": "https://dc.lft.to/lastmile_qr_scan", "android": "https://dc.lft.to/lastmile_qr_scan"}, "lon": -77.07657133333333, "bike_id": "a27ef03c9f8c08d82b0758789fe2f731", "type": "electric_bike", "name": "a27ef03c9f8c08d82b0758789fe2f731"}, {"is_disabled": 0, "is_reserved": 0, "fusion_lat": 0.0, "lat": 38.940957166666664, "fusion_lon": 0.0, "rental_uris": {"ios": "https://dc.lft.to/lastmile_qr_scan", "android": "https://dc.lft.to/lastmile_qr_scan"}, "lon": -77.025077, "bike_id": "ce680ba1eb57eaf7543a9a48be86357b", "type": "electric_scooter", "name": "ce680ba1eb57eaf7543a9a48be86357b"}, {"is_disabled": 0, "is_reserved": 0, "fusion_lat": 0.0, "lat": 38.898145666666665, "fusion_lon": 0.0, "rental_uris": {"ios": "https://dc.lft.to/lastmile_qr_scan", "android": "https://dc.lft.to/lastmile_qr_scan"}, "lon": -77.0279675, "bike_id": "c1e13599dff079fe93c0bc6bbbd73c16", "type": "electric_scooter", "name": "c1e13599dff079fe93c0bc6bbbd73c16"}, {"is_disabled": 0, "is_reserved": 0, "fusion_lat": 0.0, "lat": 38.95621966666667, "fusion_lon": 0.0, "rental_uris": {"ios": "https://dc.lft.to/lastmile_qr_scan", "android": "https://dc.lft.to/lastmile_qr_scan"}, "lon": -76.96178333333333, "bike_id": "bc3144f010ea737705fd7041db6002b3", "type": "electric_bike", "name": "bc3144f010ea737705fd7041db6002b3"}, {"is_disabled": 0, "is_reserved": 0, "fusion_lat": 0.0, "lat": 38.931729833333335, "fusion_lon": 0.0, "rental_uris": {"ios": "https://dc.lft.to/lastmile_qr_scan", "android": "https://dc.lft.to/lastmile_qr_scan"}, "lon": -77.02814983333333, "bike_id": "0cfc1e5189106153806bb0bc02621b2e", "type": "electric_scooter", "name": "0cfc1e5189106153806bb0bc02621b2e"}, {"is_disabled": 0, "is_reserved": 0, "fusion_lat": 0.0, "lat": 38.889904333333334, "fusion_lon": 0.0, "rental_uris": {"ios": "https://dc.lft.to/lastmile_qr_scan", "android": "https://dc.lft.to/lastmile_qr_scan"}, "lon": -77.03532516666667, "bike_id": "976312fe1be70b576b4766b723a57acc", "type": "electric_scooter", "name": "976312fe1be70b576b4766b723a57acc"}, {"is_disabled": 0, "is_reserved": 0, "fusion_lat": 0.0, "lat": 38.89865866666667, "fusion_lon": 0.0, "rental_uris": {"ios": "https://dc.lft.to/lastmile_qr_scan", "android": "https://dc.lft.to/lastmile_qr_scan"}, "lon": -77.05022916666667, "bike_id": "f8e32a749f385d03db2b6988f60d33e5", "type": "electric_scooter", "name": "f8e32a749f385d03db2b6988f60d33e5"}, {"is_disabled": 0, "is_reserved": 0, "fusion_lat": 0.0, "lat": 38.910734166666664, "fusion_lon": 0.0, "rental_uris": {"ios": "https://dc.lft.to/lastmile_qr_scan", "android": "https://dc.lft.to/lastmile_qr_scan"}, "lon": -77.06546333333333, "bike_id": "f70fc0df071a3f107f9694648b8de5af", "type": "electric_scooter", "name": "f70fc0df071a3f107f9694648b8de5af"}, {"is_disabled": 0, "is_reserved": 0, "fusion_lat": 0.0, "lat": 38.887669333333335, "fusion_lon": 0.0, "rental_uris": {"ios": "https://dc.lft.to/lastmile_qr_scan", "android": "https://dc.lft.to/lastmile_qr_scan"}, "lon": -77.01463516666666, "bike_id": "1b16435464b283c30c534e1b7453ed9d", "type": "electric_scooter", "name": "1b16435464b283c30c534e1b7453ed9d"}, {"is_disabled": 0, "is_reserved": 0, "fusion_lat": 0.0, "lat": 38.862391, "fusion_lon": 0.0, "rental_uris": {"ios": "https://dc.lft.to/lastmile_qr_scan", "android": "https://dc.lft.to/lastmile_qr_scan"}, "lon": -76.99516583333333, "bike_id": "00208ad69a4b7129dfb6a1b3f73ab4d9", "type": "electric_scooter", "name": "00208ad69a4b7129dfb6a1b3f73ab4d9"}, {"is_disabled": 0, "is_reserved": 0, "fusion_lat": 0.0, "lat": 38.91807466666667, "fusion_lon": 0.0, "rental_uris": {"ios": "https://dc.lft.to/lastmile_qr_scan", "android": "https://dc.lft.to/lastmile_qr_scan"}, "lon": -77.034358, "bike_id": "591e28342f029cf8b8bbe7a4392ccf32", "type": "electric_scooter", "name": "591e28342f029cf8b8bbe7a4392ccf32"}, {"is_disabled": 0, "is_reserved": 0, "fusion_lat": 0.0, "lat": 38.922412666666666, "fusion_lon": 0.0, "rental_uris": {"ios": "https://dc.lft.to/lastmile_qr_scan", "android": "https://dc.lft.to/lastmile_qr_scan"}, "lon": -77.03903933333333, "bike_id": "b3d3388daeb10851247338df506e947d", "type": "electric_scooter", "name": "b3d3388daeb10851247338df506e947d"}, {"is_disabled": 0, "is_reserved": 0, "fusion_lat": 0.0, "lat": 38.9214175, "fusion_lon": 0.0, "rental_uris": {"ios": "https://dc.lft.to/lastmile_qr_scan", "android": "https://dc.lft.to/lastmile_qr_scan"}, "lon": -77.035086, "bike_id": "8b93647d6a4dc87de44c734a3c0f937f", "type": "electric_scooter", "name": "8b93647d6a4dc87de44c734a3c0f937f"}, {"is_disabled": 0, "is_reserved": 0, "fusion_lat": 0.0, "lat": 38.9533345, "fusion_lon": 0.0, "rental_uris": {"ios": "https://dc.lft.to/lastmile_qr_scan", "android": "https://dc.lft.to/lastmile_qr_scan"}, "lon": -76.98251083333334, "bike_id": "627d42e9776648e4b5bee31672fcee31", "type": "electric_bike", "name": "627d42e9776648e4b5bee31672fcee31"}, {"is_disabled": 0, "is_reserved": 0, "fusion_lat": 0.0, "lat": 38.87515333333333, "fusion_lon": 0.0, "rental_uris": {"ios": "https://dc.lft.to/lastmile_qr_scan", "android": "https://dc.lft.to/lastmile_qr_scan"}, "lon": -77.0018325, "bike_id": "e703d9dd68249787913ee3994971854c", "type": "electric_scooter", "name": "e703d9dd68249787913ee3994971854c"}, {"is_disabled": 0, "is_reserved": 0, "fusion_lat": 0.0, "lat": 38.89752816666667, "fusion_lon": 0.0, "rental_uris": {"ios": "https://dc.lft.to/lastmile_qr_scan", "android": "https://dc.lft.to/lastmile_qr_scan"}, "lon": -77.05485416666667, "bike_id": "99d49172a556e30ff4c4d4cbc032848f", "type": "electric_scooter", "name": "99d49172a556e30ff4c4d4cbc032848f"}, {"is_disabled": 0, "is_reserved": 0, "fusion_lat": 0.0, "lat": 38.91824583333333, "fusion_lon": 0.0, "rental_uris": {"ios": "https://dc.lft.to/lastmile_qr_scan", "android": "https://dc.lft.to/lastmile_qr_scan"}, "lon": -77.027059, "bike_id": "e794942acb1b13cbdbd932faad154c63", "type": "electric_scooter", "name": "e794942acb1b13cbdbd932faad154c63"}, {"is_disabled": 0, "is_reserved": 0, "fusion_lat": 0.0, "lat": 38.9036695, "fusion_lon": 0.0, "rental_uris": {"ios": "https://dc.lft.to/lastmile_qr_scan", "android": "https://dc.lft.to/lastmile_qr_scan"}, "lon": -77.06023, "bike_id": "cfd1fc7ab1ea85725c68f778a73f2604", "type": "electric_scooter", "name": "cfd1fc7ab1ea85725c68f778a73f2604"}, {"is_disabled": 0, "is_reserved": 0, "fusion_lat": 0.0, "lat": 38.91428483333333, "fusion_lon": 0.0, "rental_uris": {"ios": "https://dc.lft.to/lastmile_qr_scan", "android": "https://dc.lft.to/lastmile_qr_scan"}, "lon": -77.028096, "bike_id": "5ca2f42abfaa13661178ce32fece9b19", "type": "electric_scooter", "name": "5ca2f42abfaa13661178ce32fece9b19"}, {"is_disabled": 0, "is_reserved": 0, "fusion_lat": 0.0, "lat": 38.89685866666667, "fusion_lon": 0.0, "rental_uris": {"ios": "https://dc.lft.to/lastmile_qr_scan", "android": "https://dc.lft.to/lastmile_qr_scan"}, "lon": -76.93908283333333, "bike_id": "3a97d16d6ae59e640e7b2bf548cc9161", "type": "electric_scooter", "name": "3a97d16d6ae59e640e7b2bf548cc9161"}, {"is_disabled": 0, "is_reserved": 0, "fusion_lat": 0.0, "lat": 38.917007166666664, "fusion_lon": 0.0, "rental_uris": {"ios": "https://dc.lft.to/lastmile_qr_scan", "android": "https://dc.lft.to/lastmile_qr_scan"}, "lon": -77.034835, "bike_id": "1f045f302e17f3f61fa1e10a129ac5ff", "type": "electric_scooter", "name": "1f045f302e17f3f61fa1e10a129ac5ff"}, {"is_disabled": 0, "is_reserved": 0, "fusion_lat": 0.0, "lat": 38.9145085, "fusion_lon": 0.0, "rental_uris": {"ios": "https://dc.lft.to/lastmile_qr_scan", "android": "https://dc.lft.to/lastmile_qr_scan"}, "lon": -77.00882633333333, "bike_id": "da2d5da5ae162a4022f4505909e4e7db", "type": "electric_scooter", "name": "da2d5da5ae162a4022f4505909e4e7db"}, {"is_disabled": 0, "is_reserved": 0, "fusion_lat": 0.0, "lat": 38.92617283333333, "fusion_lon": 0.0, "rental_uris": {"ios": "https://dc.lft.to/lastmile_qr_scan", "android": "https://dc.lft.to/lastmile_qr_scan"}, "lon": -77.0065185, "bike_id": "118bcad893678d976ffabe7841d6dad0", "type": "electric_scooter", "name": "118bcad893678d976ffabe7841d6dad0"}, {"is_disabled": 0, "is_reserved": 0, "fusion_lat": 0.0, "lat": 38.9052935, "fusion_lon": 0.0, "rental_uris": {"ios": "https://dc.lft.to/lastmile_qr_scan", "android": "https://dc.lft.to/lastmile_qr_scan"}, "lon": -77.02701066666667, "bike_id": "0f61c27aa1b0a4b9f89e354d35ff158d", "type": "electric_scooter", "name": "0f61c27aa1b0a4b9f89e354d35ff158d"}, {"is_disabled": 0, "is_reserved": 0, "fusion_lat": 0.0, "lat": 38.93606483333333, "fusion_lon": 0.0, "rental_uris": {"ios": "https://dc.lft.to/lastmile_qr_scan", "android": "https://dc.lft.to/lastmile_qr_scan"}, "lon": -77.055924, "bike_id": "a013be371f9c02c0e19714376c4022e2", "type": "electric_scooter", "name": "a013be371f9c02c0e19714376c4022e2"}, {"is_disabled": 0, "is_reserved": 0, "fusion_lat": 0.0, "lat": 38.930569166666665, "fusion_lon": 0.0, "rental_uris": {"ios": "https://dc.lft.to/lastmile_qr_scan", "android": "https://dc.lft.to/lastmile_qr_scan"}, "lon": -77.023217, "bike_id": "8225f63a356d73b2e3ff076767539107", "type": "electric_scooter", "name": "8225f63a356d73b2e3ff076767539107"}, {"is_disabled": 0, "is_reserved": 0, "fusion_lat": 0.0, "lat": 38.92139133333333, "fusion_lon": 0.0, "rental_uris": {"ios": "https://dc.lft.to/lastmile_qr_scan", "android": "https://dc.lft.to/lastmile_qr_scan"}, "lon": -77.03665616666666, "bike_id": "5466b4c47e792f45595078c860dd31aa", "type": "electric_scooter", "name": "5466b4c47e792f45595078c860dd31aa"}, {"is_disabled": 0, "is_reserved": 0, "fusion_lat": 0.0, "lat": 38.982077833333335, "fusion_lon": 0.0, "rental_uris": {"ios": "https://dc.lft.to/lastmile_qr_scan", "android": "https://dc.lft.to/lastmile_qr_scan"}, "lon": -76.97817683333334, "bike_id": "095e195a85cac4adcac0c303214ccb21", "type": "electric_bike", "name": "095e195a85cac4adcac0c303214ccb21"}, {"is_disabled": 0, "is_reserved": 0, "fusion_lat": 0.0, "lat": 38.92785883333333, "fusion_lon": 0.0, "rental_uris": {"ios": "https://dc.lft.to/lastmile_qr_scan", "android": "https://dc.lft.to/lastmile_qr_scan"}, "lon": -77.05262166666667, "bike_id": "a23a890468487c0863ac1518a9f3ac60", "type": "electric_scooter", "name": "a23a890468487c0863ac1518a9f3ac60"}, {"is_disabled": 0, "is_reserved": 0, "fusion_lat": 0.0, "lat": 38.87849533333333, "fusion_lon": 0.0, "rental_uris": {"ios": "https://dc.lft.to/lastmile_qr_scan", "android": "https://dc.lft.to/lastmile_qr_scan"}, "lon": -76.98609116666667, "bike_id": "f3eb0650f7981d689689e03c18467909", "type": "electric_scooter", "name": "f3eb0650f7981d689689e03c18467909"}, {"is_disabled": 0, "is_reserved": 0, "fusion_lat": 0.0, "lat": 38.89366316666667, "fusion_lon": 0.0, "rental_uris": {"ios": "https://dc.lft.to/lastmile_qr_scan", "android": "https://dc.lft.to/lastmile_qr_scan"}, "lon": -77.04291166666667, "bike_id": "a16642d5fbb93b9ab16bade512a88ef3", "type": "electric_scooter", "name": "a16642d5fbb93b9ab16bade512a88ef3"}, {"is_disabled": 0, "is_reserved": 0, "fusion_lat": 0.0, "lat": 38.951077, "fusion_lon": 0.0, "rental_uris": {"ios": "https://dc.lft.to/lastmile_qr_scan", "android": "https://dc.lft.to/lastmile_qr_scan"}, "lon": -77.01890566666667, "bike_id": "504bf2819542f235902fc1165ea40927", "type": "electric_scooter", "name": "504bf2819542f235902fc1165ea40927"}, {"is_disabled": 0, "is_reserved": 0, "fusion_lat": 0.0, "lat": 38.93348066666667, "fusion_lon": 0.0, "rental_uris": {"ios": "https://dc.lft.to/lastmile_qr_scan", "android": "https://dc.lft.to/lastmile_qr_scan"}, "lon": -77.0193715, "bike_id": "257e6c6814eda7eb73e1ecff6f557991", "type": "electric_scooter", "name": "257e6c6814eda7eb73e1ecff6f557991"}, {"is_disabled": 0, "is_reserved": 0, "fusion_lat": 0.0, "lat": 38.93057616666667, "fusion_lon": 0.0, "rental_uris": {"ios": "https://dc.lft.to/lastmile_qr_scan", "android": "https://dc.lft.to/lastmile_qr_scan"}, "lon": -76.973281, "bike_id": "d5a415faeecbe1f2d0e18790291aac31", "type": "electric_scooter", "name": "d5a415faeecbe1f2d0e18790291aac31"}, {"is_disabled": 0, "is_reserved": 0, "fusion_lat": 0.0, "lat": 38.92549616666667, "fusion_lon": 0.0, "rental_uris": {"ios": "https://dc.lft.to/lastmile_qr_scan", "android": "https://dc.lft.to/lastmile_qr_scan"}, "lon": -77.02702266666667, "bike_id": "32daa9ab5ba934b98a51f0cd76e3780a", "type": "electric_scooter", "name": "32daa9ab5ba934b98a51f0cd76e3780a"}, {"is_disabled": 0, "is_reserved": 0, "fusion_lat": 0.0, "lat": 38.956380333333335, "fusion_lon": 0.0, "rental_uris": {"ios": "https://dc.lft.to/lastmile_qr_scan", "android": "https://dc.lft.to/lastmile_qr_scan"}, "lon": -77.03631083333333, "bike_id": "fb9df82b0c7b49353884745a58eb5b55", "type": "electric_scooter", "name": "fb9df82b0c7b49353884745a58eb5b55"}, {"is_disabled": 0, "is_reserved": 0, "fusion_lat": 0.0, "lat": 38.8908205, "fusion_lon": 0.0, "rental_uris": {"ios": "https://dc.lft.to/lastmile_qr_scan", "android": "https://dc.lft.to/lastmile_qr_scan"}, "lon": -76.9547085, "bike_id": "95ee75221cdea72e17425124ca3a7e92", "type": "electric_bike", "name": "95ee75221cdea72e17425124ca3a7e92"}, {"is_disabled": 0, "is_reserved": 0, "fusion_lat": 0.0, "lat": 38.93239716666667, "fusion_lon": 0.0, "rental_uris": {"ios": "https://dc.lft.to/lastmile_qr_scan", "android": "https://dc.lft.to/lastmile_qr_scan"}, "lon": -77.02032516666667, "bike_id": "f3f42db9060e2bfdfaa6fa3be80e27d2", "type": "electric_scooter", "name": "f3f42db9060e2bfdfaa6fa3be80e27d2"}, {"is_disabled": 0, "is_reserved": 0, "fusion_lat": 0.0, "lat": 38.91840333333333, "fusion_lon": 0.0, "rental_uris": {"ios": "https://dc.lft.to/lastmile_qr_scan", "android": "https://dc.lft.to/lastmile_qr_scan"}, "lon": -77.024561, "bike_id": "7e541fb16868723da2d243c2860df0fb", "type": "electric_scooter", "name": "7e541fb16868723da2d243c2860df0fb"}, {"is_disabled": 0, "is_reserved": 0, "fusion_lat": 0.0, "lat": 38.93536133333333, "fusion_lon": 0.0, "rental_uris": {"ios": "https://dc.lft.to/lastmile_qr_scan", "android": "https://dc.lft.to/lastmile_qr_scan"}, "lon": -76.98357366666667, "bike_id": "cf1dd27fb2d72c9915787ebba91a7025", "type": "electric_bike", "name": "cf1dd27fb2d72c9915787ebba91a7025"}, {"is_disabled": 0, "is_reserved": 0, "fusion_lat": 0.0, "lat": 38.941455500000004, "fusion_lon": 0.0, "rental_uris": {"ios": "https://dc.lft.to/lastmile_qr_scan", "android": "https://dc.lft.to/lastmile_qr_scan"}, "lon": -77.02328183333333, "bike_id": "27752e707b3abeae27cb0aebad2cdd31", "type": "electric_scooter", "name": "27752e707b3abeae27cb0aebad2cdd31"}, {"is_disabled": 0, "is_reserved": 0, "fusion_lat": 0.0, "lat": 38.9474955, "fusion_lon": 0.0, "rental_uris": {"ios": "https://dc.lft.to/lastmile_qr_scan", "android": "https://dc.lft.to/lastmile_qr_scan"}, "lon": -77.02357, "bike_id": "a997a97bfb65a5d34539bc4380921175", "type": "electric_scooter", "name": "a997a97bfb65a5d34539bc4380921175"}, {"is_disabled": 0, "is_reserved": 0, "fusion_lat": 0.0, "lat": 38.8560365, "fusion_lon": 0.0, "rental_uris": {"ios": "https://dc.lft.to/lastmile_qr_scan", "android": "https://dc.lft.to/lastmile_qr_scan"}, "lon": -76.972829, "bike_id": "d62f15f153dc50ddbdb6777414e4feda", "type": "electric_bike", "name": "d62f15f153dc50ddbdb6777414e4feda"}, {"is_disabled": 0, "is_reserved": 0, "fusion_lat": 0.0, "lat": 38.91099066666666, "fusion_lon": 0.0, "rental_uris": {"ios": "https://dc.lft.to/lastmile_qr_scan", "android": "https://dc.lft.to/lastmile_qr_scan"}, "lon": -77.028023, "bike_id": "7bfca8e24382b233e66b47202e4b6db4", "type": "electric_scooter", "name": "7bfca8e24382b233e66b47202e4b6db4"}, {"is_disabled": 0, "is_reserved": 0, "fusion_lat": 0.0, "lat": 38.918211666666664, "fusion_lon": 0.0, "rental_uris": {"ios": "https://dc.lft.to/lastmile_qr_scan", "android": "https://dc.lft.to/lastmile_qr_scan"}, "lon": -77.02525683333333, "bike_id": "26725c5cb492570affe9039ab163ee68", "type": "electric_scooter", "name": "26725c5cb492570affe9039ab163ee68"}, {"is_disabled": 0, "is_reserved": 0, "fusion_lat": 0.0, "lat": 38.804082, "fusion_lon": 0.0, "rental_uris": {"ios": "https://dc.lft.to/lastmile_qr_scan", "android": "https://dc.lft.to/lastmile_qr_scan"}, "lon": -77.11331883333334, "bike_id": "19ec7ca4073e1cc897c9961f2e3b597a", "type": "electric_bike", "name": "19ec7ca4073e1cc897c9961f2e3b597a"}, {"is_disabled": 0, "is_reserved": 0, "fusion_lat": 0.0, "lat": 39.074488833333334, "fusion_lon": 0.0, "rental_uris": {"ios": "https://dc.lft.to/lastmile_qr_scan", "android": "https://dc.lft.to/lastmile_qr_scan"}, "lon": -77.11535866666667, "bike_id": "fafb25d0f7d512a47715ce4952206c7e", "type": "electric_bike", "name": "fafb25d0f7d512a47715ce4952206c7e"}, {"is_disabled": 0, "is_reserved": 0, "fusion_lat": 0.0, "lat": 38.903670166666664, "fusion_lon": 0.0, "rental_uris": {"ios": "https://dc.lft.to/lastmile_qr_scan", "android": "https://dc.lft.to/lastmile_qr_scan"}, "lon": -77.06024033333334, "bike_id": "842b0f021ff4ab21b1746b55dd219d32", "type": "electric_scooter", "name": "842b0f021ff4ab21b1746b55dd219d32"}, {"is_disabled": 0, "is_reserved": 0, "fusion_lat": 0.0, "lat": 38.89862333333333, "fusion_lon": 0.0, "rental_uris": {"ios": "https://dc.lft.to/lastmile_qr_scan", "android": "https://dc.lft.to/lastmile_qr_scan"}, "lon": -77.0395625, "bike_id": "690f694bb63df6b892d7cc9af0736e69", "type": "electric_scooter", "name": "690f694bb63df6b892d7cc9af0736e69"}, {"is_disabled": 0, "is_reserved": 0, "fusion_lat": 0.0, "lat": 38.916047166666665, "fusion_lon": 0.0, "rental_uris": {"ios": "https://dc.lft.to/lastmile_qr_scan", "android": "https://dc.lft.to/lastmile_qr_scan"}, "lon": -77.032144, "bike_id": "26a4f178dc0281485baaec3aa5b74029", "type": "electric_scooter", "name": "26a4f178dc0281485baaec3aa5b74029"}, {"is_disabled": 0, "is_reserved": 0, "fusion_lat": 0.0, "lat": 38.88398866666667, "fusion_lon": 0.0, "rental_uris": {"ios": "https://dc.lft.to/lastmile_qr_scan", "android": "https://dc.lft.to/lastmile_qr_scan"}, "lon": -77.0251035, "bike_id": "58d52160e6d04a8bb6d7d655bf61effa", "type": "electric_scooter", "name": "58d52160e6d04a8bb6d7d655bf61effa"}, {"is_disabled": 0, "is_reserved": 0, "fusion_lat": 0.0, "lat": 38.91133116666666, "fusion_lon": 0.0, "rental_uris": {"ios": "https://dc.lft.to/lastmile_qr_scan", "android": "https://dc.lft.to/lastmile_qr_scan"}, "lon": -77.0218955, "bike_id": "15d6f0fd0cdae4420efadfcf9ce09741", "type": "electric_scooter", "name": "15d6f0fd0cdae4420efadfcf9ce09741"}, {"is_disabled": 0, "is_reserved": 0, "fusion_lat": 0.0, "lat": 38.92144116666667, "fusion_lon": 0.0, "rental_uris": {"ios": "https://dc.lft.to/lastmile_qr_scan", "android": "https://dc.lft.to/lastmile_qr_scan"}, "lon": -77.045663, "bike_id": "298d397dd2e867893a288ef1d9a0210e", "type": "electric_scooter", "name": "298d397dd2e867893a288ef1d9a0210e"}, {"is_disabled": 0, "is_reserved": 0, "fusion_lat": 0.0, "lat": 38.905046666666664, "fusion_lon": 0.0, "rental_uris": {"ios": "https://dc.lft.to/lastmile_qr_scan", "android": "https://dc.lft.to/lastmile_qr_scan"}, "lon": -77.06020633333333, "bike_id": "6db158aaed41b6117ded05c15a079e62", "type": "electric_scooter", "name": "6db158aaed41b6117ded05c15a079e62"}, {"is_disabled": 0, "is_reserved": 0, "fusion_lat": 0.0, "lat": 38.904555, "fusion_lon": 0.0, "rental_uris": {"ios": "https://dc.lft.to/lastmile_qr_scan", "android": "https://dc.lft.to/lastmile_qr_scan"}, "lon": -77.031089, "bike_id": "68dc1833cfca2a3626de9a493bfed625", "type": "electric_scooter", "name": "68dc1833cfca2a3626de9a493bfed625"}, {"is_disabled": 0, "is_reserved": 0, "fusion_lat": 0.0, "lat": 38.921926166666665, "fusion_lon": 0.0, "rental_uris": {"ios": "https://dc.lft.to/lastmile_qr_scan", "android": "https://dc.lft.to/lastmile_qr_scan"}, "lon": -77.04248716666666, "bike_id": "16104562643bd854680be0b897c1bdc6", "type": "electric_scooter", "name": "16104562643bd854680be0b897c1bdc6"}, {"is_disabled": 0, "is_reserved": 0, "fusion_lat": 0.0, "lat": 38.94725533333333, "fusion_lon": 0.0, "rental_uris": {"ios": "https://dc.lft.to/lastmile_qr_scan", "android": "https://dc.lft.to/lastmile_qr_scan"}, "lon": -77.02355283333333, "bike_id": "9934c04edf33c8b51b0ef821922fce0d", "type": "electric_scooter", "name": "9934c04edf33c8b51b0ef821922fce0d"}, {"is_disabled": 0, "is_reserved": 0, "fusion_lat": 0.0, "lat": 38.91337216666667, "fusion_lon": 0.0, "rental_uris": {"ios": "https://dc.lft.to/lastmile_qr_scan", "android": "https://dc.lft.to/lastmile_qr_scan"}, "lon": -77.03125516666667, "bike_id": "514914d3a91ed0bf7a8174731bad9699", "type": "electric_scooter", "name": "514914d3a91ed0bf7a8174731bad9699"}, {"is_disabled": 0, "is_reserved": 0, "fusion_lat": 0.0, "lat": 38.92549733333333, "fusion_lon": 0.0, "rental_uris": {"ios": "https://dc.lft.to/lastmile_qr_scan", "android": "https://dc.lft.to/lastmile_qr_scan"}, "lon": -77.02281233333333, "bike_id": "1c4806e50fb73616010bad7d3db0004b", "type": "electric_scooter", "name": "1c4806e50fb73616010bad7d3db0004b"}, {"is_disabled": 0, "is_reserved": 0, "fusion_lat": 0.0, "lat": 38.91817733333333, "fusion_lon": 0.0, "rental_uris": {"ios": "https://dc.lft.to/lastmile_qr_scan", "android": "https://dc.lft.to/lastmile_qr_scan"}, "lon": -77.0252505, "bike_id": "4ca7c6d25eeef7b71112fd3a85c687ea", "type": "electric_scooter", "name": "4ca7c6d25eeef7b71112fd3a85c687ea"}, {"is_disabled": 0, "is_reserved": 0, "fusion_lat": 0.0, "lat": 38.917878333333334, "fusion_lon": 0.0, "rental_uris": {"ios": "https://dc.lft.to/lastmile_qr_scan", "android": "https://dc.lft.to/lastmile_qr_scan"}, "lon": -77.02468783333333, "bike_id": "91d1714b5d44e7aca7114b2517ffe8d0", "type": "electric_scooter", "name": "91d1714b5d44e7aca7114b2517ffe8d0"}, {"is_disabled": 0, "is_reserved": 0, "fusion_lat": 0.0, "lat": 38.91579216666667, "fusion_lon": 0.0, "rental_uris": {"ios": "https://dc.lft.to/lastmile_qr_scan", "android": "https://dc.lft.to/lastmile_qr_scan"}, "lon": -77.067794, "bike_id": "a6d925e2ab01407556aff499878cf730", "type": "electric_scooter", "name": "a6d925e2ab01407556aff499878cf730"}, {"is_disabled": 0, "is_reserved": 0, "fusion_lat": 0.0, "lat": 38.902268, "fusion_lon": 0.0, "rental_uris": {"ios": "https://dc.lft.to/lastmile_qr_scan", "android": "https://dc.lft.to/lastmile_qr_scan"}, "lon": -77.03202833333333, "bike_id": "a181505e7ab10ba5bedf03399502549a", "type": "electric_scooter", "name": "a181505e7ab10ba5bedf03399502549a"}, {"is_disabled": 0, "is_reserved": 0, "fusion_lat": 0.0, "lat": 38.926532333333334, "fusion_lon": 0.0, "rental_uris": {"ios": "https://dc.lft.to/lastmile_qr_scan", "android": "https://dc.lft.to/lastmile_qr_scan"}, "lon": -77.024335, "bike_id": "f5847b3bc65e63f7f2284a7683e93d7c", "type": "electric_scooter", "name": "f5847b3bc65e63f7f2284a7683e93d7c"}, {"is_disabled": 0, "is_reserved": 0, "fusion_lat": 0.0, "lat": 38.9238295, "fusion_lon": 0.0, "rental_uris": {"ios": "https://dc.lft.to/lastmile_qr_scan", "android": "https://dc.lft.to/lastmile_qr_scan"}, "lon": -77.02678016666667, "bike_id": "e5201e7cc1fec0c6d21df58239c0a63b", "type": "electric_scooter", "name": "e5201e7cc1fec0c6d21df58239c0a63b"}, {"is_disabled": 0, "is_reserved": 0, "fusion_lat": 0.0, "lat": 38.901729833333334, "fusion_lon": 0.0, "rental_uris": {"ios": "https://dc.lft.to/lastmile_qr_scan", "android": "https://dc.lft.to/lastmile_qr_scan"}, "lon": -77.0506875, "bike_id": "e4e8f0d3ea5a3070aa31cd844d0c13fb", "type": "electric_scooter", "name": "e4e8f0d3ea5a3070aa31cd844d0c13fb"}, {"is_disabled": 0, "is_reserved": 0, "fusion_lat": 0.0, "lat": 38.842745, "fusion_lon": 0.0, "rental_uris": {"ios": "https://dc.lft.to/lastmile_qr_scan", "android": "https://dc.lft.to/lastmile_qr_scan"}, "lon": -76.98841416666667, "bike_id": "c308880ee152dbdb8a1b05d1b6eee61e", "type": "electric_scooter", "name": "c308880ee152dbdb8a1b05d1b6eee61e"}, {"is_disabled": 0, "is_reserved": 0, "fusion_lat": 0.0, "lat": 38.952155, "fusion_lon": 0.0, "rental_uris": {"ios": "https://dc.lft.to/lastmile_qr_scan", "android": "https://dc.lft.to/lastmile_qr_scan"}, "lon": -77.088658, "bike_id": "4f6141e81ea3d8c09f77e5ceb13f1a1b", "type": "electric_scooter", "name": "4f6141e81ea3d8c09f77e5ceb13f1a1b"}, {"is_disabled": 0, "is_reserved": 0, "fusion_lat": 0.0, "lat": 38.92310533333333, "fusion_lon": 0.0, "rental_uris": {"ios": "https://dc.lft.to/lastmile_qr_scan", "android": "https://dc.lft.to/lastmile_qr_scan"}, "lon": -77.02897133333333, "bike_id": "e57e92959abe5caf1e4bcf4d0490d432", "type": "electric_scooter", "name": "e57e92959abe5caf1e4bcf4d0490d432"}, {"is_disabled": 0, "is_reserved": 0, "fusion_lat": 0.0, "lat": 38.91661366666666, "fusion_lon": 0.0, "rental_uris": {"ios": "https://dc.lft.to/lastmile_qr_scan", "android": "https://dc.lft.to/lastmile_qr_scan"}, "lon": -77.03182066666666, "bike_id": "1bdce17b21c98cd54eb1b52dfdd04636", "type": "electric_scooter", "name": "1bdce17b21c98cd54eb1b52dfdd04636"}, {"is_disabled": 0, "is_reserved": 0, "fusion_lat": 0.0, "lat": 38.899109833333334, "fusion_lon": 0.0, "rental_uris": {"ios": "https://dc.lft.to/lastmile_qr_scan", "android": "https://dc.lft.to/lastmile_qr_scan"}, "lon": -77.03967516666667, "bike_id": "f9886861fca2af4dcad8a8cfd8d4e1bd", "type": "electric_scooter", "name": "f9886861fca2af4dcad8a8cfd8d4e1bd"}, {"is_disabled": 0, "is_reserved": 0, "fusion_lat": 0.0, "lat": 38.852478, "fusion_lon": 0.0, "rental_uris": {"ios": "https://dc.lft.to/lastmile_qr_scan", "android": "https://dc.lft.to/lastmile_qr_scan"}, "lon": -77.114105, "bike_id": "db380bfa94b90ac8031342be9a0e8588", "type": "electric_bike", "name": "db380bfa94b90ac8031342be9a0e8588"}, {"is_disabled": 0, "is_reserved": 0, "fusion_lat": 0.0, "lat": 38.88296183333333, "fusion_lon": 0.0, "rental_uris": {"ios": "https://dc.lft.to/lastmile_qr_scan", "android": "https://dc.lft.to/lastmile_qr_scan"}, "lon": -76.9349015, "bike_id": "7c0c94340069673a05daef43d99d74ab", "type": "electric_scooter", "name": "7c0c94340069673a05daef43d99d74ab"}, {"is_disabled": 0, "is_reserved": 0, "fusion_lat": 0.0, "lat": 38.910559166666665, "fusion_lon": 0.0, "rental_uris": {"ios": "https://dc.lft.to/lastmile_qr_scan", "android": "https://dc.lft.to/lastmile_qr_scan"}, "lon": -77.03848983333333, "bike_id": "3027181853cb94d36ac879aa90ccc87a", "type": "electric_scooter", "name": "3027181853cb94d36ac879aa90ccc87a"}, {"is_disabled": 0, "is_reserved": 0, "fusion_lat": 0.0, "lat": 38.901434, "fusion_lon": 0.0, "rental_uris": {"ios": "https://dc.lft.to/lastmile_qr_scan", "android": "https://dc.lft.to/lastmile_qr_scan"}, "lon": -76.92984583333333, "bike_id": "aa78399d62c63346d11b3f6423c38953", "type": "electric_scooter", "name": "aa78399d62c63346d11b3f6423c38953"}, {"is_disabled": 0, "is_reserved": 0, "fusion_lat": 0.0, "lat": 38.906846, "fusion_lon": 0.0, "rental_uris": {"ios": "https://dc.lft.to/lastmile_qr_scan", "android": "https://dc.lft.to/lastmile_qr_scan"}, "lon": -77.04553866666667, "bike_id": "03daf926d0b7c784a43393516776e877", "type": "electric_scooter", "name": "03daf926d0b7c784a43393516776e877"}, {"is_disabled": 0, "is_reserved": 0, "fusion_lat": 0.0, "lat": 38.89668183333333, "fusion_lon": 0.0, "rental_uris": {"ios": "https://dc.lft.to/lastmile_qr_scan", "android": "https://dc.lft.to/lastmile_qr_scan"}, "lon": -77.04881266666666, "bike_id": "6596562ae1c66583eee62bdf7ff616b9", "type": "electric_scooter", "name": "6596562ae1c66583eee62bdf7ff616b9"}, {"is_disabled": 0, "is_reserved": 0, "fusion_lat": 0.0, "lat": 38.902738, "fusion_lon": 0.0, "rental_uris": {"ios": "https://dc.lft.to/lastmile_qr_scan", "android": "https://dc.lft.to/lastmile_qr_scan"}, "lon": -77.00326716666666, "bike_id": "eda022bf32f12454ea1c8f27fd594caf", "type": "electric_scooter", "name": "eda022bf32f12454ea1c8f27fd594caf"}, {"is_disabled": 0, "is_reserved": 0, "fusion_lat": 0.0, "lat": 38.91106333333333, "fusion_lon": 0.0, "rental_uris": {"ios": "https://dc.lft.to/lastmile_qr_scan", "android": "https://dc.lft.to/lastmile_qr_scan"}, "lon": -77.0382865, "bike_id": "7d273a140b04a73651965626428cb1b5", "type": "electric_scooter", "name": "7d273a140b04a73651965626428cb1b5"}, {"is_disabled": 0, "is_reserved": 0, "fusion_lat": 0.0, "lat": 38.8865945, "fusion_lon": 0.0, "rental_uris": {"ios": "https://dc.lft.to/lastmile_qr_scan", "android": "https://dc.lft.to/lastmile_qr_scan"}, "lon": -77.1622825, "bike_id": "dc3ceb9275f98e8cdb3a66d2f78c342f", "type": "electric_bike", "name": "dc3ceb9275f98e8cdb3a66d2f78c342f"}, {"is_disabled": 0, "is_reserved": 0, "fusion_lat": 0.0, "lat": 38.907757333333336, "fusion_lon": 0.0, "rental_uris": {"ios": "https://dc.lft.to/lastmile_qr_scan", "android": "https://dc.lft.to/lastmile_qr_scan"}, "lon": -77.03548583333334, "bike_id": "748fd94c89e89f1fec6b218f7740aa1f", "type": "electric_scooter", "name": "748fd94c89e89f1fec6b218f7740aa1f"}, {"is_disabled": 0, "is_reserved": 0, "fusion_lat": 0.0, "lat": 38.9065495, "fusion_lon": 0.0, "rental_uris": {"ios": "https://dc.lft.to/lastmile_qr_scan", "android": "https://dc.lft.to/lastmile_qr_scan"}, "lon": -77.05317633333334, "bike_id": "c775c335ef5710802851374723a9a007", "type": "electric_scooter", "name": "c775c335ef5710802851374723a9a007"}, {"is_disabled": 0, "is_reserved": 0, "fusion_lat": 0.0, "lat": 38.902713166666665, "fusion_lon": 0.0, "rental_uris": {"ios": "https://dc.lft.to/lastmile_qr_scan", "android": "https://dc.lft.to/lastmile_qr_scan"}, "lon": -77.0264885, "bike_id": "45e35b8cb77e72775a5592543888c650", "type": "electric_scooter", "name": "45e35b8cb77e72775a5592543888c650"}, {"is_disabled": 0, "is_reserved": 0, "fusion_lat": 0.0, "lat": 38.925154, "fusion_lon": 0.0, "rental_uris": {"ios": "https://dc.lft.to/lastmile_qr_scan", "android": "https://dc.lft.to/lastmile_qr_scan"}, "lon": -77.02128983333333, "bike_id": "7e72139426881279203464083984a4b0", "type": "electric_scooter", "name": "7e72139426881279203464083984a4b0"}, {"is_disabled": 0, "is_reserved": 0, "fusion_lat": 0.0, "lat": 38.967638666666666, "fusion_lon": 0.0, "rental_uris": {"ios": "https://dc.lft.to/lastmile_qr_scan", "android": "https://dc.lft.to/lastmile_qr_scan"}, "lon": -77.0342265, "bike_id": "4c26065d110cd3dd18a55a6ce4ea47cd", "type": "electric_scooter", "name": "4c26065d110cd3dd18a55a6ce4ea47cd"}, {"is_disabled": 0, "is_reserved": 0, "fusion_lat": 0.0, "lat": 38.905279, "fusion_lon": 0.0, "rental_uris": {"ios": "https://dc.lft.to/lastmile_qr_scan", "android": "https://dc.lft.to/lastmile_qr_scan"}, "lon": -77.02710066666667, "bike_id": "9ac4e177ed9b7f7c7ebee97d49e3886a", "type": "electric_scooter", "name": "9ac4e177ed9b7f7c7ebee97d49e3886a"}, {"is_disabled": 0, "is_reserved": 0, "fusion_lat": 0.0, "lat": 38.92171333333334, "fusion_lon": 0.0, "rental_uris": {"ios": "https://dc.lft.to/lastmile_qr_scan", "android": "https://dc.lft.to/lastmile_qr_scan"}, "lon": -77.03382516666667, "bike_id": "a78819d4b9a4ae4b1375eeed9d2b221f", "type": "electric_scooter", "name": "a78819d4b9a4ae4b1375eeed9d2b221f"}, {"is_disabled": 0, "is_reserved": 0, "fusion_lat": 0.0, "lat": 38.924434166666664, "fusion_lon": 0.0, "rental_uris": {"ios": "https://dc.lft.to/lastmile_qr_scan", "android": "https://dc.lft.to/lastmile_qr_scan"}, "lon": -77.04028966666667, "bike_id": "31996a1b455fe7c11c48245005a22491", "type": "electric_scooter", "name": "31996a1b455fe7c11c48245005a22491"}, {"is_disabled": 0, "is_reserved": 0, "fusion_lat": 0.0, "lat": 38.92790766666667, "fusion_lon": 0.0, "rental_uris": {"ios": "https://dc.lft.to/lastmile_qr_scan", "android": "https://dc.lft.to/lastmile_qr_scan"}, "lon": -77.05262866666666, "bike_id": "28d5c9f3cfb35d0374ad1c29bf9ee23f", "type": "electric_scooter", "name": "28d5c9f3cfb35d0374ad1c29bf9ee23f"}, {"is_disabled": 0, "is_reserved": 0, "fusion_lat": 0.0, "lat": 38.9429035, "fusion_lon": 0.0, "rental_uris": {"ios": "https://dc.lft.to/lastmile_qr_scan", "android": "https://dc.lft.to/lastmile_qr_scan"}, "lon": -77.077116, "bike_id": "cefeee7b8ac665c95b944b429362cdbf", "type": "electric_scooter", "name": "cefeee7b8ac665c95b944b429362cdbf"}, {"is_disabled": 0, "is_reserved": 0, "fusion_lat": 0.0, "lat": 38.94097816666667, "fusion_lon": 0.0, "rental_uris": {"ios": "https://dc.lft.to/lastmile_qr_scan", "android": "https://dc.lft.to/lastmile_qr_scan"}, "lon": -76.9562765, "bike_id": "10ed5d02f7624011333a6cbd9c0bcb7a", "type": "electric_bike", "name": "10ed5d02f7624011333a6cbd9c0bcb7a"}, {"is_disabled": 0, "is_reserved": 0, "fusion_lat": 0.0, "lat": 38.910154, "fusion_lon": 0.0, "rental_uris": {"ios": "https://dc.lft.to/lastmile_qr_scan", "android": "https://dc.lft.to/lastmile_qr_scan"}, "lon": -77.04879666666666, "bike_id": "731c90e9b319dff63e3428bfd92ba2cf", "type": "electric_scooter", "name": "731c90e9b319dff63e3428bfd92ba2cf"}, {"is_disabled": 0, "is_reserved": 0, "fusion_lat": 0.0, "lat": 38.890357, "fusion_lon": 0.0, "rental_uris": {"ios": "https://dc.lft.to/lastmile_qr_scan", "android": "https://dc.lft.to/lastmile_qr_scan"}, "lon": -76.93749166666667, "bike_id": "b302e61829b9b2cd530fd91132339b77", "type": "electric_scooter", "name": "b302e61829b9b2cd530fd91132339b77"}, {"is_disabled": 0, "is_reserved": 0, "fusion_lat": 0.0, "lat": 38.9243565, "fusion_lon": 0.0, "rental_uris": {"ios": "https://dc.lft.to/lastmile_qr_scan", "android": "https://dc.lft.to/lastmile_qr_scan"}, "lon": -77.02019383333334, "bike_id": "73486e5e6cb86850a959d9df9824d7ff", "type": "electric_scooter", "name": "73486e5e6cb86850a959d9df9824d7ff"}, {"is_disabled": 0, "is_reserved": 0, "fusion_lat": 0.0, "lat": 38.892290833333334, "fusion_lon": 0.0, "rental_uris": {"ios": "https://dc.lft.to/lastmile_qr_scan", "android": "https://dc.lft.to/lastmile_qr_scan"}, "lon": -77.04356533333333, "bike_id": "25d2b414a9a7666ca382abbd836825a0", "type": "electric_scooter", "name": "25d2b414a9a7666ca382abbd836825a0"}, {"is_disabled": 0, "is_reserved": 0, "fusion_lat": 0.0, "lat": 38.896400166666666, "fusion_lon": 0.0, "rental_uris": {"ios": "https://dc.lft.to/lastmile_qr_scan", "android": "https://dc.lft.to/lastmile_qr_scan"}, "lon": -77.00752583333333, "bike_id": "482bfb1607a72ec6adf431c723f81eee", "type": "electric_scooter", "name": "482bfb1607a72ec6adf431c723f81eee"}, {"is_disabled": 0, "is_reserved": 0, "fusion_lat": 0.0, "lat": 38.9000585, "fusion_lon": 0.0, "rental_uris": {"ios": "https://dc.lft.to/lastmile_qr_scan", "android": "https://dc.lft.to/lastmile_qr_scan"}, "lon": -76.9944975, "bike_id": "528af75ad09f4fcde86b89fc56579475", "type": "electric_scooter", "name": "528af75ad09f4fcde86b89fc56579475"}, {"is_disabled": 0, "is_reserved": 0, "fusion_lat": 0.0, "lat": 39.025178833333335, "fusion_lon": 0.0, "rental_uris": {"ios": "https://dc.lft.to/lastmile_qr_scan", "android": "https://dc.lft.to/lastmile_qr_scan"}, "lon": -77.019695, "bike_id": "498f915634674c3755add51082b7b5c0", "type": "electric_bike", "name": "498f915634674c3755add51082b7b5c0"}, {"is_disabled": 0, "is_reserved": 0, "fusion_lat": 0.0, "lat": 38.91697383333333, "fusion_lon": 0.0, "rental_uris": {"ios": "https://dc.lft.to/lastmile_qr_scan", "android": "https://dc.lft.to/lastmile_qr_scan"}, "lon": -77.022923, "bike_id": "6584bf5830d8526360d1bfe7ebb958b1", "type": "electric_scooter", "name": "6584bf5830d8526360d1bfe7ebb958b1"}, {"is_disabled": 0, "is_reserved": 0, "fusion_lat": 0.0, "lat": 38.89941533333333, "fusion_lon": 0.0, "rental_uris": {"ios": "https://dc.lft.to/lastmile_qr_scan", "android": "https://dc.lft.to/lastmile_qr_scan"}, "lon": -77.01444133333334, "bike_id": "6c3cbe034550b04268ad39a052d9b255", "type": "electric_scooter", "name": "6c3cbe034550b04268ad39a052d9b255"}, {"is_disabled": 0, "is_reserved": 0, "fusion_lat": 0.0, "lat": 38.903491833333334, "fusion_lon": 0.0, "rental_uris": {"ios": "https://dc.lft.to/lastmile_qr_scan", "android": "https://dc.lft.to/lastmile_qr_scan"}, "lon": -77.03211516666667, "bike_id": "5588449091c37828cee4f424b9c2df01", "type": "electric_scooter", "name": "5588449091c37828cee4f424b9c2df01"}, {"is_disabled": 0, "is_reserved": 0, "fusion_lat": 0.0, "lat": 38.8996945, "fusion_lon": 0.0, "rental_uris": {"ios": "https://dc.lft.to/lastmile_qr_scan", "android": "https://dc.lft.to/lastmile_qr_scan"}, "lon": -76.9263445, "bike_id": "ad203fa78e88c27594e778a025a7bf26", "type": "electric_scooter", "name": "ad203fa78e88c27594e778a025a7bf26"}, {"is_disabled": 0, "is_reserved": 0, "fusion_lat": 0.0, "lat": 38.90954883333333, "fusion_lon": 0.0, "rental_uris": {"ios": "https://dc.lft.to/lastmile_qr_scan", "android": "https://dc.lft.to/lastmile_qr_scan"}, "lon": -77.0240285, "bike_id": "f5b116025de881026b96d3a20fcf263e", "type": "electric_scooter", "name": "f5b116025de881026b96d3a20fcf263e"}, {"is_disabled": 0, "is_reserved": 0, "fusion_lat": 0.0, "lat": 38.95340516666667, "fusion_lon": 0.0, "rental_uris": {"ios": "https://dc.lft.to/lastmile_qr_scan", "android": "https://dc.lft.to/lastmile_qr_scan"}, "lon": -77.08143166666666, "bike_id": "a672ea018b788677fb3c08968b4e2538", "type": "electric_scooter", "name": "a672ea018b788677fb3c08968b4e2538"}, {"is_disabled": 0, "is_reserved": 0, "fusion_lat": 0.0, "lat": 38.921683, "fusion_lon": 0.0, "rental_uris": {"ios": "https://dc.lft.to/lastmile_qr_scan", "android": "https://dc.lft.to/lastmile_qr_scan"}, "lon": -77.04021933333334, "bike_id": "f6eb9b184db0a318bb10b5144fdf16f4", "type": "electric_scooter", "name": "f6eb9b184db0a318bb10b5144fdf16f4"}, {"is_disabled": 0, "is_reserved": 0, "fusion_lat": 0.0, "lat": 38.90557716666667, "fusion_lon": 0.0, "rental_uris": {"ios": "https://dc.lft.to/lastmile_qr_scan", "android": "https://dc.lft.to/lastmile_qr_scan"}, "lon": -77.03270383333333, "bike_id": "9519c9cc5b24cb5be0d4f2bbed36da1d", "type": "electric_scooter", "name": "9519c9cc5b24cb5be0d4f2bbed36da1d"}, {"is_disabled": 0, "is_reserved": 0, "fusion_lat": 0.0, "lat": 38.923520333333336, "fusion_lon": 0.0, "rental_uris": {"ios": "https://dc.lft.to/lastmile_qr_scan", "android": "https://dc.lft.to/lastmile_qr_scan"}, "lon": -76.97206983333334, "bike_id": "f7ac4a9739b854ce65ecdbb1edc8c663", "type": "electric_scooter", "name": "f7ac4a9739b854ce65ecdbb1edc8c663"}, {"is_disabled": 0, "is_reserved": 0, "fusion_lat": 0.0, "lat": 38.9141825, "fusion_lon": 0.0, "rental_uris": {"ios": "https://dc.lft.to/lastmile_qr_scan", "android": "https://dc.lft.to/lastmile_qr_scan"}, "lon": -77.02232866666667, "bike_id": "9c21eb0066f14b66279605a4f6beb71f", "type": "electric_scooter", "name": "9c21eb0066f14b66279605a4f6beb71f"}, {"is_disabled": 0, "is_reserved": 0, "fusion_lat": 0.0, "lat": 39.08470416666667, "fusion_lon": 0.0, "rental_uris": {"ios": "https://dc.lft.to/lastmile_qr_scan", "android": "https://dc.lft.to/lastmile_qr_scan"}, "lon": -76.950648, "bike_id": "6ce27962b0857d27ffa1829e825ecf3f", "type": "electric_bike", "name": "6ce27962b0857d27ffa1829e825ecf3f"}, {"is_disabled": 0, "is_reserved": 0, "fusion_lat": 0.0, "lat": 38.92429116666667, "fusion_lon": 0.0, "rental_uris": {"ios": "https://dc.lft.to/lastmile_qr_scan", "android": "https://dc.lft.to/lastmile_qr_scan"}, "lon": -77.04242116666667, "bike_id": "2180bef70846a5d700b4fcca0a912b86", "type": "electric_scooter", "name": "2180bef70846a5d700b4fcca0a912b86"}, {"is_disabled": 0, "is_reserved": 0, "fusion_lat": 0.0, "lat": 38.902517833333334, "fusion_lon": 0.0, "rental_uris": {"ios": "https://dc.lft.to/lastmile_qr_scan", "android": "https://dc.lft.to/lastmile_qr_scan"}, "lon": -77.0625835, "bike_id": "1831432f4709915098ec50f16c9938d0", "type": "electric_scooter", "name": "1831432f4709915098ec50f16c9938d0"}, {"is_disabled": 0, "is_reserved": 0, "fusion_lat": 0.0, "lat": 38.91279683333333, "fusion_lon": 0.0, "rental_uris": {"ios": "https://dc.lft.to/lastmile_qr_scan", "android": "https://dc.lft.to/lastmile_qr_scan"}, "lon": -77.0296275, "bike_id": "4d0e7d073b9c1e7c3ad2025d3ea3e4a5", "type": "electric_scooter", "name": "4d0e7d073b9c1e7c3ad2025d3ea3e4a5"}, {"is_disabled": 0, "is_reserved": 0, "fusion_lat": 0.0, "lat": 38.87955566666667, "fusion_lon": 0.0, "rental_uris": {"ios": "https://dc.lft.to/lastmile_qr_scan", "android": "https://dc.lft.to/lastmile_qr_scan"}, "lon": -77.00590516666666, "bike_id": "4080d7f8f9769c120a11b500bd642bd2", "type": "electric_scooter", "name": "4080d7f8f9769c120a11b500bd642bd2"}, {"is_disabled": 0, "is_reserved": 0, "fusion_lat": 0.0, "lat": 38.902578166666665, "fusion_lon": 0.0, "rental_uris": {"ios": "https://dc.lft.to/lastmile_qr_scan", "android": "https://dc.lft.to/lastmile_qr_scan"}, "lon": -77.035922, "bike_id": "b262d24ed75cfdbd7ee78786fab1866b", "type": "electric_scooter", "name": "b262d24ed75cfdbd7ee78786fab1866b"}, {"is_disabled": 0, "is_reserved": 0, "fusion_lat": 0.0, "lat": 38.93593533333333, "fusion_lon": 0.0, "rental_uris": {"ios": "https://dc.lft.to/lastmile_qr_scan", "android": "https://dc.lft.to/lastmile_qr_scan"}, "lon": -77.02854633333334, "bike_id": "a02af56de723c44fa17a578ecad14713", "type": "electric_scooter", "name": "a02af56de723c44fa17a578ecad14713"}, {"is_disabled": 0, "is_reserved": 0, "fusion_lat": 0.0, "lat": 38.92840616666667, "fusion_lon": 0.0, "rental_uris": {"ios": "https://dc.lft.to/lastmile_qr_scan", "android": "https://dc.lft.to/lastmile_qr_scan"}, "lon": -77.03726666666667, "bike_id": "7ec4bed819101dbe554501d2bf593e14", "type": "electric_scooter", "name": "7ec4bed819101dbe554501d2bf593e14"}, {"is_disabled": 0, "is_reserved": 0, "fusion_lat": 0.0, "lat": 38.907319, "fusion_lon": 0.0, "rental_uris": {"ios": "https://dc.lft.to/lastmile_qr_scan", "android": "https://dc.lft.to/lastmile_qr_scan"}, "lon": -77.03214666666666, "bike_id": "94985b0d2399d9cd4c3615c7a8f8fccb", "type": "electric_scooter", "name": "94985b0d2399d9cd4c3615c7a8f8fccb"}, {"is_disabled": 0, "is_reserved": 0, "fusion_lat": 0.0, "lat": 38.848607, "fusion_lon": 0.0, "rental_uris": {"ios": "https://dc.lft.to/lastmile_qr_scan", "android": "https://dc.lft.to/lastmile_qr_scan"}, "lon": -77.068287, "bike_id": "d6bae1c8d0b51442f8cf9d1fe8178a6f", "type": "electric_bike", "name": "d6bae1c8d0b51442f8cf9d1fe8178a6f"}, {"is_disabled": 0, "is_reserved": 0, "fusion_lat": 0.0, "lat": 38.900983, "fusion_lon": 0.0, "rental_uris": {"ios": "https://dc.lft.to/lastmile_qr_scan", "android": "https://dc.lft.to/lastmile_qr_scan"}, "lon": -77.050636, "bike_id": "26e263c07938765cb7afdb1634d1a73d", "type": "electric_scooter", "name": "26e263c07938765cb7afdb1634d1a73d"}, {"is_disabled": 0, "is_reserved": 0, "fusion_lat": 0.0, "lat": 38.956197, "fusion_lon": 0.0, "rental_uris": {"ios": "https://dc.lft.to/lastmile_qr_scan", "android": "https://dc.lft.to/lastmile_qr_scan"}, "lon": -77.01009716666667, "bike_id": "e6197ec47b6fbfe9ef9173a0e35df6e0", "type": "electric_bike", "name": "e6197ec47b6fbfe9ef9173a0e35df6e0"}, {"is_disabled": 0, "is_reserved": 0, "fusion_lat": 0.0, "lat": 38.879226833333334, "fusion_lon": 0.0, "rental_uris": {"ios": "https://dc.lft.to/lastmile_qr_scan", "android": "https://dc.lft.to/lastmile_qr_scan"}, "lon": -77.00763683333334, "bike_id": "a10743e6c165abbb24f9c1a6fb1aef58", "type": "electric_scooter", "name": "a10743e6c165abbb24f9c1a6fb1aef58"}, {"is_disabled": 0, "is_reserved": 0, "fusion_lat": 0.0, "lat": 38.9195675, "fusion_lon": 0.0, "rental_uris": {"ios": "https://dc.lft.to/lastmile_qr_scan", "android": "https://dc.lft.to/lastmile_qr_scan"}, "lon": -77.07874516666666, "bike_id": "393cbf2ae9de84d20f7dc7afd64c0fd8", "type": "electric_scooter", "name": "393cbf2ae9de84d20f7dc7afd64c0fd8"}, {"is_disabled": 0, "is_reserved": 0, "fusion_lat": 0.0, "lat": 38.90720233333333, "fusion_lon": 0.0, "rental_uris": {"ios": "https://dc.lft.to/lastmile_qr_scan", "android": "https://dc.lft.to/lastmile_qr_scan"}, "lon": -76.98657216666666, "bike_id": "09bdbfc389e62dfa3f951734195a806e", "type": "electric_scooter", "name": "09bdbfc389e62dfa3f951734195a806e"}, {"is_disabled": 0, "is_reserved": 0, "fusion_lat": 0.0, "lat": 38.9137125, "fusion_lon": 0.0, "rental_uris": {"ios": "https://dc.lft.to/lastmile_qr_scan", "android": "https://dc.lft.to/lastmile_qr_scan"}, "lon": -77.02966416666666, "bike_id": "d8a564e9124c469021083a0fd3ad14d0", "type": "electric_scooter", "name": "d8a564e9124c469021083a0fd3ad14d0"}, {"is_disabled": 0, "is_reserved": 0, "fusion_lat": 0.0, "lat": 38.88526566666667, "fusion_lon": 0.0, "rental_uris": {"ios": "https://dc.lft.to/lastmile_qr_scan", "android": "https://dc.lft.to/lastmile_qr_scan"}, "lon": -76.98051033333333, "bike_id": "5d03f0410924b9e1d9645f535f8d0a5b", "type": "electric_scooter", "name": "5d03f0410924b9e1d9645f535f8d0a5b"}, {"is_disabled": 0, "is_reserved": 0, "fusion_lat": 0.0, "lat": 38.91683033333333, "fusion_lon": 0.0, "rental_uris": {"ios": "https://dc.lft.to/lastmile_qr_scan", "android": "https://dc.lft.to/lastmile_qr_scan"}, "lon": -77.02970766666667, "bike_id": "d69bbe085f10157c48e8352222b93573", "type": "electric_scooter", "name": "d69bbe085f10157c48e8352222b93573"}, {"is_disabled": 0, "is_reserved": 0, "fusion_lat": 0.0, "lat": 38.916457, "fusion_lon": 0.0, "rental_uris": {"ios": "https://dc.lft.to/lastmile_qr_scan", "android": "https://dc.lft.to/lastmile_qr_scan"}, "lon": -77.02394266666667, "bike_id": "4f18f21fab7cddfecf49358284111cd7", "type": "electric_scooter", "name": "4f18f21fab7cddfecf49358284111cd7"}, {"is_disabled": 0, "is_reserved": 0, "fusion_lat": 0.0, "lat": 38.910934, "fusion_lon": 0.0, "rental_uris": {"ios": "https://dc.lft.to/lastmile_qr_scan", "android": "https://dc.lft.to/lastmile_qr_scan"}, "lon": -77.03842033333333, "bike_id": "c614c6c1e566e1aff1b849ef7ffe5eb8", "type": "electric_scooter", "name": "c614c6c1e566e1aff1b849ef7ffe5eb8"}, {"is_disabled": 0, "is_reserved": 0, "fusion_lat": 0.0, "lat": 38.9569245, "fusion_lon": 0.0, "rental_uris": {"ios": "https://dc.lft.to/lastmile_qr_scan", "android": "https://dc.lft.to/lastmile_qr_scan"}, "lon": -77.02228716666667, "bike_id": "164a77a658ad520f54db011e54e53af3", "type": "electric_scooter", "name": "164a77a658ad520f54db011e54e53af3"}, {"is_disabled": 0, "is_reserved": 0, "fusion_lat": 0.0, "lat": 38.89622333333333, "fusion_lon": 0.0, "rental_uris": {"ios": "https://dc.lft.to/lastmile_qr_scan", "android": "https://dc.lft.to/lastmile_qr_scan"}, "lon": -76.90751766666666, "bike_id": "c6f4534e071fdcee3ad535322d2e54bd", "type": "electric_bike", "name": "c6f4534e071fdcee3ad535322d2e54bd"}, {"is_disabled": 0, "is_reserved": 0, "fusion_lat": 0.0, "lat": 38.92300766666666, "fusion_lon": 0.0, "rental_uris": {"ios": "https://dc.lft.to/lastmile_qr_scan", "android": "https://dc.lft.to/lastmile_qr_scan"}, "lon": -77.02978116666667, "bike_id": "da1edf4b8fff969f5307fa8317dfc4d8", "type": "electric_scooter", "name": "da1edf4b8fff969f5307fa8317dfc4d8"}, {"is_disabled": 0, "is_reserved": 0, "fusion_lat": 0.0, "lat": 38.9026615, "fusion_lon": 0.0, "rental_uris": {"ios": "https://dc.lft.to/lastmile_qr_scan", "android": "https://dc.lft.to/lastmile_qr_scan"}, "lon": -77.03962633333333, "bike_id": "aae3b6895140af2a299512c85ff5c357", "type": "electric_scooter", "name": "aae3b6895140af2a299512c85ff5c357"}, {"is_disabled": 0, "is_reserved": 0, "fusion_lat": 0.0, "lat": 38.87663466666667, "fusion_lon": 0.0, "rental_uris": {"ios": "https://dc.lft.to/lastmile_qr_scan", "android": "https://dc.lft.to/lastmile_qr_scan"}, "lon": -76.996234, "bike_id": "85addda46d72893a00d33df9e3b4bd8b", "type": "electric_scooter", "name": "85addda46d72893a00d33df9e3b4bd8b"}, {"is_disabled": 0, "is_reserved": 0, "fusion_lat": 0.0, "lat": 38.84101883333334, "fusion_lon": 0.0, "rental_uris": {"ios": "https://dc.lft.to/lastmile_qr_scan", "android": "https://dc.lft.to/lastmile_qr_scan"}, "lon": -76.98706816666666, "bike_id": "eae3060f05ff884358a6761d6eeea43c", "type": "electric_bike", "name": "eae3060f05ff884358a6761d6eeea43c"}, {"is_disabled": 0, "is_reserved": 0, "fusion_lat": 0.0, "lat": 38.87634516666667, "fusion_lon": 0.0, "rental_uris": {"ios": "https://dc.lft.to/lastmile_qr_scan", "android": "https://dc.lft.to/lastmile_qr_scan"}, "lon": -77.005848, "bike_id": "cb7ad140af856ad574d7e448b5486698", "type": "electric_scooter", "name": "cb7ad140af856ad574d7e448b5486698"}, {"is_disabled": 0, "is_reserved": 0, "fusion_lat": 0.0, "lat": 38.8922355, "fusion_lon": 0.0, "rental_uris": {"ios": "https://dc.lft.to/lastmile_qr_scan", "android": "https://dc.lft.to/lastmile_qr_scan"}, "lon": -77.0319275, "bike_id": "3363e71bcaa3fd51a1660157a3cb389b", "type": "electric_scooter", "name": "3363e71bcaa3fd51a1660157a3cb389b"}, {"is_disabled": 0, "is_reserved": 0, "fusion_lat": 0.0, "lat": 38.93039666666667, "fusion_lon": 0.0, "rental_uris": {"ios": "https://dc.lft.to/lastmile_qr_scan", "android": "https://dc.lft.to/lastmile_qr_scan"}, "lon": -77.055694, "bike_id": "aa843ae5df636cc5406b1d2b19b7af93", "type": "electric_scooter", "name": "aa843ae5df636cc5406b1d2b19b7af93"}, {"is_disabled": 0, "is_reserved": 0, "fusion_lat": 0.0, "lat": 38.9282145, "fusion_lon": 0.0, "rental_uris": {"ios": "https://dc.lft.to/lastmile_qr_scan", "android": "https://dc.lft.to/lastmile_qr_scan"}, "lon": -77.02256316666667, "bike_id": "30ae50d1a5c6242b64ff111c275b9861", "type": "electric_scooter", "name": "30ae50d1a5c6242b64ff111c275b9861"}, {"is_disabled": 0, "is_reserved": 0, "fusion_lat": 0.0, "lat": 38.9077875, "fusion_lon": 0.0, "rental_uris": {"ios": "https://dc.lft.to/lastmile_qr_scan", "android": "https://dc.lft.to/lastmile_qr_scan"}, "lon": -77.04226383333334, "bike_id": "70dcb70aece94cf529efef2e28720511", "type": "electric_scooter", "name": "70dcb70aece94cf529efef2e28720511"}, {"is_disabled": 0, "is_reserved": 0, "fusion_lat": 0.0, "lat": 38.918345333333335, "fusion_lon": 0.0, "rental_uris": {"ios": "https://dc.lft.to/lastmile_qr_scan", "android": "https://dc.lft.to/lastmile_qr_scan"}, "lon": -77.05315933333333, "bike_id": "42316fed2a8caaa0a7896dff7ed06e92", "type": "electric_scooter", "name": "42316fed2a8caaa0a7896dff7ed06e92"}, {"is_disabled": 0, "is_reserved": 0, "fusion_lat": 0.0, "lat": 38.93466633333333, "fusion_lon": 0.0, "rental_uris": {"ios": "https://dc.lft.to/lastmile_qr_scan", "android": "https://dc.lft.to/lastmile_qr_scan"}, "lon": -77.02400483333334, "bike_id": "6322b30142c87d12430073e15ba2044a", "type": "electric_scooter", "name": "6322b30142c87d12430073e15ba2044a"}, {"is_disabled": 0, "is_reserved": 0, "fusion_lat": 0.0, "lat": 38.92608533333333, "fusion_lon": 0.0, "rental_uris": {"ios": "https://dc.lft.to/lastmile_qr_scan", "android": "https://dc.lft.to/lastmile_qr_scan"}, "lon": -77.036672, "bike_id": "2b73c8cef4d5da10446f573f07c50178", "type": "electric_scooter", "name": "2b73c8cef4d5da10446f573f07c50178"}, {"is_disabled": 0, "is_reserved": 0, "fusion_lat": 0.0, "lat": 38.9098315, "fusion_lon": 0.0, "rental_uris": {"ios": "https://dc.lft.to/lastmile_qr_scan", "android": "https://dc.lft.to/lastmile_qr_scan"}, "lon": -77.03252633333334, "bike_id": "5dcc5ac3da8d8352fa593202b8eb624b", "type": "electric_scooter", "name": "5dcc5ac3da8d8352fa593202b8eb624b"}, {"is_disabled": 0, "is_reserved": 0, "fusion_lat": 0.0, "lat": 38.95150183333333, "fusion_lon": 0.0, "rental_uris": {"ios": "https://dc.lft.to/lastmile_qr_scan", "android": "https://dc.lft.to/lastmile_qr_scan"}, "lon": -77.018671, "bike_id": "79638eadc96f99c0e4a29e7137a16be4", "type": "electric_scooter", "name": "79638eadc96f99c0e4a29e7137a16be4"}, {"is_disabled": 0, "is_reserved": 0, "fusion_lat": 0.0, "lat": 38.916594333333336, "fusion_lon": 0.0, "rental_uris": {"ios": "https://dc.lft.to/lastmile_qr_scan", "android": "https://dc.lft.to/lastmile_qr_scan"}, "lon": -77.0239385, "bike_id": "a9c51ec60877878b075e4989719ccac9", "type": "electric_scooter", "name": "a9c51ec60877878b075e4989719ccac9"}, {"is_disabled": 0, "is_reserved": 0, "fusion_lat": 0.0, "lat": 38.91808833333333, "fusion_lon": 0.0, "rental_uris": {"ios": "https://dc.lft.to/lastmile_qr_scan", "android": "https://dc.lft.to/lastmile_qr_scan"}, "lon": -77.03511116666667, "bike_id": "3a4f4004e7ec5da1d8a6a87f896da1fd", "type": "electric_scooter", "name": "3a4f4004e7ec5da1d8a6a87f896da1fd"}, {"is_disabled": 0, "is_reserved": 0, "fusion_lat": 0.0, "lat": 38.899471166666665, "fusion_lon": 0.0, "rental_uris": {"ios": "https://dc.lft.to/lastmile_qr_scan", "android": "https://dc.lft.to/lastmile_qr_scan"}, "lon": -77.0323445, "bike_id": "8025c93c71ca9e5f49ebd81663757fb7", "type": "electric_scooter", "name": "8025c93c71ca9e5f49ebd81663757fb7"}, {"is_disabled": 0, "is_reserved": 0, "fusion_lat": 0.0, "lat": 38.9003605, "fusion_lon": 0.0, "rental_uris": {"ios": "https://dc.lft.to/lastmile_qr_scan", "android": "https://dc.lft.to/lastmile_qr_scan"}, "lon": -77.04886116666667, "bike_id": "491c63c8a7bb2e30293bcaeebf79efcc", "type": "electric_scooter", "name": "491c63c8a7bb2e30293bcaeebf79efcc"}, {"is_disabled": 0, "is_reserved": 0, "fusion_lat": 0.0, "lat": 38.920637666666664, "fusion_lon": 0.0, "rental_uris": {"ios": "https://dc.lft.to/lastmile_qr_scan", "android": "https://dc.lft.to/lastmile_qr_scan"}, "lon": -77.02475116666666, "bike_id": "2f8951d894b1953fc6da0496d120c258", "type": "electric_scooter", "name": "2f8951d894b1953fc6da0496d120c258"}, {"is_disabled": 0, "is_reserved": 0, "fusion_lat": 0.0, "lat": 38.82765583333333, "fusion_lon": 0.0, "rental_uris": {"ios": "https://dc.lft.to/lastmile_qr_scan", "android": "https://dc.lft.to/lastmile_qr_scan"}, "lon": -77.06009783333333, "bike_id": "8bada54b890f6401d5b49374ab5a711f", "type": "electric_bike", "name": "8bada54b890f6401d5b49374ab5a711f"}, {"is_disabled": 0, "is_reserved": 0, "fusion_lat": 0.0, "lat": 38.909729666666664, "fusion_lon": 0.0, "rental_uris": {"ios": "https://dc.lft.to/lastmile_qr_scan", "android": "https://dc.lft.to/lastmile_qr_scan"}, "lon": -77.03301816666666, "bike_id": "d72d6e3a457a7f9fa373b144d13e71bf", "type": "electric_scooter", "name": "d72d6e3a457a7f9fa373b144d13e71bf"}, {"is_disabled": 0, "is_reserved": 0, "fusion_lat": 0.0, "lat": 38.9573175, "fusion_lon": 0.0, "rental_uris": {"ios": "https://dc.lft.to/lastmile_qr_scan", "android": "https://dc.lft.to/lastmile_qr_scan"}, "lon": -77.024032, "bike_id": "dc4d312bac607bbc66679a63b3045a74", "type": "electric_scooter", "name": "dc4d312bac607bbc66679a63b3045a74"}, {"is_disabled": 0, "is_reserved": 0, "fusion_lat": 0.0, "lat": 38.93356583333333, "fusion_lon": 0.0, "rental_uris": {"ios": "https://dc.lft.to/lastmile_qr_scan", "android": "https://dc.lft.to/lastmile_qr_scan"}, "lon": -77.06041633333334, "bike_id": "fbe336a74857fb8048c2e42e19bcb8a9", "type": "electric_scooter", "name": "fbe336a74857fb8048c2e42e19bcb8a9"}, {"is_disabled": 0, "is_reserved": 0, "fusion_lat": 0.0, "lat": 38.92911933333333, "fusion_lon": 0.0, "rental_uris": {"ios": "https://dc.lft.to/lastmile_qr_scan", "android": "https://dc.lft.to/lastmile_qr_scan"}, "lon": -77.054905, "bike_id": "2eeac3f40acd875f280a035296c32f2b", "type": "electric_scooter", "name": "2eeac3f40acd875f280a035296c32f2b"}, {"is_disabled": 0, "is_reserved": 0, "fusion_lat": 0.0, "lat": 38.91800683333334, "fusion_lon": 0.0, "rental_uris": {"ios": "https://dc.lft.to/lastmile_qr_scan", "android": "https://dc.lft.to/lastmile_qr_scan"}, "lon": -77.03437083333333, "bike_id": "fe61b3cdbb4f9df07d976dd921c1cf88", "type": "electric_scooter", "name": "fe61b3cdbb4f9df07d976dd921c1cf88"}, {"is_disabled": 0, "is_reserved": 0, "fusion_lat": 0.0, "lat": 38.9026575, "fusion_lon": 0.0, "rental_uris": {"ios": "https://dc.lft.to/lastmile_qr_scan", "android": "https://dc.lft.to/lastmile_qr_scan"}, "lon": -77.0264255, "bike_id": "04fb52ba013a17196222d70c3630f1fa", "type": "electric_scooter", "name": "04fb52ba013a17196222d70c3630f1fa"}, {"is_disabled": 0, "is_reserved": 0, "fusion_lat": 0.0, "lat": 38.878428, "fusion_lon": 0.0, "rental_uris": {"ios": "https://dc.lft.to/lastmile_qr_scan", "android": "https://dc.lft.to/lastmile_qr_scan"}, "lon": -76.93135766666667, "bike_id": "a1da516b7a4a7a18a064289715d57552", "type": "electric_scooter", "name": "a1da516b7a4a7a18a064289715d57552"}, {"is_disabled": 0, "is_reserved": 0, "fusion_lat": 0.0, "lat": 38.93637316666667, "fusion_lon": 0.0, "rental_uris": {"ios": "https://dc.lft.to/lastmile_qr_scan", "android": "https://dc.lft.to/lastmile_qr_scan"}, "lon": -77.03265816666666, "bike_id": "a5867369066a6940e765b2368b57b8eb", "type": "electric_scooter", "name": "a5867369066a6940e765b2368b57b8eb"}, {"is_disabled": 0, "is_reserved": 0, "fusion_lat": 0.0, "lat": 38.92035516666667, "fusion_lon": 0.0, "rental_uris": {"ios": "https://dc.lft.to/lastmile_qr_scan", "android": "https://dc.lft.to/lastmile_qr_scan"}, "lon": -77.02600983333333, "bike_id": "d23ac56343ccfb10f94c0f194a1227c8", "type": "electric_scooter", "name": "d23ac56343ccfb10f94c0f194a1227c8"}, {"is_disabled": 0, "is_reserved": 0, "fusion_lat": 0.0, "lat": 38.912661166666666, "fusion_lon": 0.0, "rental_uris": {"ios": "https://dc.lft.to/lastmile_qr_scan", "android": "https://dc.lft.to/lastmile_qr_scan"}, "lon": -77.03178216666667, "bike_id": "422d9883812e716e13d50fb757b056ff", "type": "electric_scooter", "name": "422d9883812e716e13d50fb757b056ff"}, {"is_disabled": 0, "is_reserved": 0, "fusion_lat": 0.0, "lat": 38.8830945, "fusion_lon": 0.0, "rental_uris": {"ios": "https://dc.lft.to/lastmile_qr_scan", "android": "https://dc.lft.to/lastmile_qr_scan"}, "lon": -77.02558883333333, "bike_id": "9b3faec4145c393ef169b0bd2f76a385", "type": "electric_scooter", "name": "9b3faec4145c393ef169b0bd2f76a385"}, {"is_disabled": 0, "is_reserved": 0, "fusion_lat": 0.0, "lat": 39.01066383333333, "fusion_lon": 0.0, "rental_uris": {"ios": "https://dc.lft.to/lastmile_qr_scan", "android": "https://dc.lft.to/lastmile_qr_scan"}, "lon": -76.9224355, "bike_id": "f14d4b251d8291caecc547e81423b91f", "type": "electric_bike", "name": "f14d4b251d8291caecc547e81423b91f"}, {"is_disabled": 0, "is_reserved": 0, "fusion_lat": 0.0, "lat": 38.91760816666667, "fusion_lon": 0.0, "rental_uris": {"ios": "https://dc.lft.to/lastmile_qr_scan", "android": "https://dc.lft.to/lastmile_qr_scan"}, "lon": -77.01522316666667, "bike_id": "abb30cd907d0502336f139775297d903", "type": "electric_scooter", "name": "abb30cd907d0502336f139775297d903"}, {"is_disabled": 0, "is_reserved": 0, "fusion_lat": 0.0, "lat": 38.920708833333336, "fusion_lon": 0.0, "rental_uris": {"ios": "https://dc.lft.to/lastmile_qr_scan", "android": "https://dc.lft.to/lastmile_qr_scan"}, "lon": -77.03993166666666, "bike_id": "e0f5ff18a8ec49956c32a8adf13cd269", "type": "electric_scooter", "name": "e0f5ff18a8ec49956c32a8adf13cd269"}, {"is_disabled": 0, "is_reserved": 0, "fusion_lat": 0.0, "lat": 38.920410333333336, "fusion_lon": 0.0, "rental_uris": {"ios": "https://dc.lft.to/lastmile_qr_scan", "android": "https://dc.lft.to/lastmile_qr_scan"}, "lon": -77.041965, "bike_id": "56861809b973b11dbb0864946bed46bc", "type": "electric_scooter", "name": "56861809b973b11dbb0864946bed46bc"}, {"is_disabled": 0, "is_reserved": 0, "fusion_lat": 0.0, "lat": 38.892377833333335, "fusion_lon": 0.0, "rental_uris": {"ios": "https://dc.lft.to/lastmile_qr_scan", "android": "https://dc.lft.to/lastmile_qr_scan"}, "lon": -77.02638033333334, "bike_id": "bfe7306e38288b006c81c1d514492e0e", "type": "electric_scooter", "name": "bfe7306e38288b006c81c1d514492e0e"}, {"is_disabled": 0, "is_reserved": 0, "fusion_lat": 0.0, "lat": 38.8837605, "fusion_lon": 0.0, "rental_uris": {"ios": "https://dc.lft.to/lastmile_qr_scan", "android": "https://dc.lft.to/lastmile_qr_scan"}, "lon": -76.99515033333333, "bike_id": "22bc0efadaf1042b8b1b9982840952d1", "type": "electric_scooter", "name": "22bc0efadaf1042b8b1b9982840952d1"}, {"is_disabled": 0, "is_reserved": 0, "fusion_lat": 0.0, "lat": 38.9146995, "fusion_lon": 0.0, "rental_uris": {"ios": "https://dc.lft.to/lastmile_qr_scan", "android": "https://dc.lft.to/lastmile_qr_scan"}, "lon": -77.03882033333333, "bike_id": "ca5eb2519a146e71de7abdca8991e8d3", "type": "electric_scooter", "name": "ca5eb2519a146e71de7abdca8991e8d3"}, {"is_disabled": 0, "is_reserved": 0, "fusion_lat": 0.0, "lat": 38.91794766666667, "fusion_lon": 0.0, "rental_uris": {"ios": "https://dc.lft.to/lastmile_qr_scan", "android": "https://dc.lft.to/lastmile_qr_scan"}, "lon": -77.046654, "bike_id": "3d231793aadbab5f94e8df92d04a56bb", "type": "electric_scooter", "name": "3d231793aadbab5f94e8df92d04a56bb"}, {"is_disabled": 0, "is_reserved": 0, "fusion_lat": 0.0, "lat": 38.90002833333333, "fusion_lon": 0.0, "rental_uris": {"ios": "https://dc.lft.to/lastmile_qr_scan", "android": "https://dc.lft.to/lastmile_qr_scan"}, "lon": -76.9977395, "bike_id": "e48c5914d9849ed821713a26ee58571a", "type": "electric_bike", "name": "e48c5914d9849ed821713a26ee58571a"}, {"is_disabled": 0, "is_reserved": 0, "fusion_lat": 0.0, "lat": 38.9048005, "fusion_lon": 0.0, "rental_uris": {"ios": "https://dc.lft.to/lastmile_qr_scan", "android": "https://dc.lft.to/lastmile_qr_scan"}, "lon": -77.00901683333333, "bike_id": "3ba6e74d5b7d0db8567e16149bd81651", "type": "electric_scooter", "name": "3ba6e74d5b7d0db8567e16149bd81651"}, {"is_disabled": 0, "is_reserved": 0, "fusion_lat": 0.0, "lat": 38.83046983333333, "fusion_lon": 0.0, "rental_uris": {"ios": "https://dc.lft.to/lastmile_qr_scan", "android": "https://dc.lft.to/lastmile_qr_scan"}, "lon": -77.0082215, "bike_id": "0fa6d9398d7957d9a2e4b18af5ca62a7", "type": "electric_bike", "name": "0fa6d9398d7957d9a2e4b18af5ca62a7"}, {"is_disabled": 0, "is_reserved": 0, "fusion_lat": 0.0, "lat": 38.92366966666667, "fusion_lon": 0.0, "rental_uris": {"ios": "https://dc.lft.to/lastmile_qr_scan", "android": "https://dc.lft.to/lastmile_qr_scan"}, "lon": -77.01907166666666, "bike_id": "81eaf66e3aa9e681e6c169c477b73850", "type": "electric_scooter", "name": "81eaf66e3aa9e681e6c169c477b73850"}, {"is_disabled": 0, "is_reserved": 0, "fusion_lat": 0.0, "lat": 38.8923555, "fusion_lon": 0.0, "rental_uris": {"ios": "https://dc.lft.to/lastmile_qr_scan", "android": "https://dc.lft.to/lastmile_qr_scan"}, "lon": -77.02802283333334, "bike_id": "84d58827b474ef6cf07c8e615b2889f2", "type": "electric_scooter", "name": "84d58827b474ef6cf07c8e615b2889f2"}, {"is_disabled": 0, "is_reserved": 0, "fusion_lat": 0.0, "lat": 38.89274266666666, "fusion_lon": 0.0, "rental_uris": {"ios": "https://dc.lft.to/lastmile_qr_scan", "android": "https://dc.lft.to/lastmile_qr_scan"}, "lon": -77.05038416666666, "bike_id": "83afe7b75ecc17f5d856f14e676346ee", "type": "electric_scooter", "name": "83afe7b75ecc17f5d856f14e676346ee"}, {"is_disabled": 0, "is_reserved": 0, "fusion_lat": 0.0, "lat": 38.908944, "fusion_lon": 0.0, "rental_uris": {"ios": "https://dc.lft.to/lastmile_qr_scan", "android": "https://dc.lft.to/lastmile_qr_scan"}, "lon": -77.03390816666666, "bike_id": "42342d603486972d7a645c37fa112d9f", "type": "electric_scooter", "name": "42342d603486972d7a645c37fa112d9f"}, {"is_disabled": 0, "is_reserved": 0, "fusion_lat": 0.0, "lat": 38.889852166666664, "fusion_lon": 0.0, "rental_uris": {"ios": "https://dc.lft.to/lastmile_qr_scan", "android": "https://dc.lft.to/lastmile_qr_scan"}, "lon": -77.0034485, "bike_id": "da0d521d8923d5d869f9608f185714cd", "type": "electric_scooter", "name": "da0d521d8923d5d869f9608f185714cd"}, {"is_disabled": 0, "is_reserved": 0, "fusion_lat": 0.0, "lat": 38.899731333333335, "fusion_lon": 0.0, "rental_uris": {"ios": "https://dc.lft.to/lastmile_qr_scan", "android": "https://dc.lft.to/lastmile_qr_scan"}, "lon": -76.9376315, "bike_id": "1796b2bbd64c3115dd6a39617a7bbed8", "type": "electric_scooter", "name": "1796b2bbd64c3115dd6a39617a7bbed8"}, {"is_disabled": 0, "is_reserved": 0, "fusion_lat": 0.0, "lat": 38.93970366666667, "fusion_lon": 0.0, "rental_uris": {"ios": "https://dc.lft.to/lastmile_qr_scan", "android": "https://dc.lft.to/lastmile_qr_scan"}, "lon": -77.0343095, "bike_id": "c47e72c8ef2a90a355e902542d8a0f79", "type": "electric_scooter", "name": "c47e72c8ef2a90a355e902542d8a0f79"}, {"is_disabled": 0, "is_reserved": 0, "fusion_lat": 0.0, "lat": 38.918055, "fusion_lon": 0.0, "rental_uris": {"ios": "https://dc.lft.to/lastmile_qr_scan", "android": "https://dc.lft.to/lastmile_qr_scan"}, "lon": -77.03433416666667, "bike_id": "17f3c3ce72e550fc615015eb87e61036", "type": "electric_scooter", "name": "17f3c3ce72e550fc615015eb87e61036"}, {"is_disabled": 0, "is_reserved": 0, "fusion_lat": 0.0, "lat": 39.00371033333333, "fusion_lon": 0.0, "rental_uris": {"ios": "https://dc.lft.to/lastmile_qr_scan", "android": "https://dc.lft.to/lastmile_qr_scan"}, "lon": -77.01294166666666, "bike_id": "009289bbb7323b0edffd844cdd2708c3", "type": "electric_bike", "name": "009289bbb7323b0edffd844cdd2708c3"}, {"is_disabled": 0, "is_reserved": 0, "fusion_lat": 0.0, "lat": 38.91553366666667, "fusion_lon": 0.0, "rental_uris": {"ios": "https://dc.lft.to/lastmile_qr_scan", "android": "https://dc.lft.to/lastmile_qr_scan"}, "lon": -77.03473833333334, "bike_id": "922378bfa03ded0f53400e071d640f21", "type": "electric_scooter", "name": "922378bfa03ded0f53400e071d640f21"}, {"is_disabled": 0, "is_reserved": 0, "fusion_lat": 0.0, "lat": 38.93561283333333, "fusion_lon": 0.0, "rental_uris": {"ios": "https://dc.lft.to/lastmile_qr_scan", "android": "https://dc.lft.to/lastmile_qr_scan"}, "lon": -76.99104116666666, "bike_id": "54449de257e4b584f8f41717a0cad677", "type": "electric_scooter", "name": "54449de257e4b584f8f41717a0cad677"}, {"is_disabled": 0, "is_reserved": 0, "fusion_lat": 0.0, "lat": 38.95363616666667, "fusion_lon": 0.0, "rental_uris": {"ios": "https://dc.lft.to/lastmile_qr_scan", "android": "https://dc.lft.to/lastmile_qr_scan"}, "lon": -76.942949, "bike_id": "f03163a7849ec557fc77bf13058c6e29", "type": "electric_bike", "name": "f03163a7849ec557fc77bf13058c6e29"}, {"is_disabled": 0, "is_reserved": 0, "fusion_lat": 0.0, "lat": 38.93072933333333, "fusion_lon": 0.0, "rental_uris": {"ios": "https://dc.lft.to/lastmile_qr_scan", "android": "https://dc.lft.to/lastmile_qr_scan"}, "lon": -77.0776665, "bike_id": "e7cb4faf242ba0813e30b8c7ffc1d6ce", "type": "electric_scooter", "name": "e7cb4faf242ba0813e30b8c7ffc1d6ce"}, {"is_disabled": 0, "is_reserved": 0, "fusion_lat": 0.0, "lat": 38.89229816666667, "fusion_lon": 0.0, "rental_uris": {"ios": "https://dc.lft.to/lastmile_qr_scan", "android": "https://dc.lft.to/lastmile_qr_scan"}, "lon": -77.0500685, "bike_id": "fb1c9be0c64bb95e88652a5089ac07f1", "type": "electric_scooter", "name": "fb1c9be0c64bb95e88652a5089ac07f1"}, {"is_disabled": 0, "is_reserved": 0, "fusion_lat": 0.0, "lat": 38.91266383333333, "fusion_lon": 0.0, "rental_uris": {"ios": "https://dc.lft.to/lastmile_qr_scan", "android": "https://dc.lft.to/lastmile_qr_scan"}, "lon": -77.0225615, "bike_id": "cebf7dda75151efaa6f993d540fefc24", "type": "electric_scooter", "name": "cebf7dda75151efaa6f993d540fefc24"}, {"is_disabled": 0, "is_reserved": 0, "fusion_lat": 0.0, "lat": 38.87101583333333, "fusion_lon": 0.0, "rental_uris": {"ios": "https://dc.lft.to/lastmile_qr_scan", "android": "https://dc.lft.to/lastmile_qr_scan"}, "lon": -77.0122545, "bike_id": "e76090da591ba89c22df7fd7eebe788f", "type": "electric_scooter", "name": "e76090da591ba89c22df7fd7eebe788f"}, {"is_disabled": 0, "is_reserved": 0, "fusion_lat": 0.0, "lat": 38.899614666666665, "fusion_lon": 0.0, "rental_uris": {"ios": "https://dc.lft.to/lastmile_qr_scan", "android": "https://dc.lft.to/lastmile_qr_scan"}, "lon": -77.0323895, "bike_id": "9a7f436b3977a9a8db0ffc7eb3959291", "type": "electric_scooter", "name": "9a7f436b3977a9a8db0ffc7eb3959291"}, {"is_disabled": 0, "is_reserved": 0, "fusion_lat": 0.0, "lat": 38.884374333333334, "fusion_lon": 0.0, "rental_uris": {"ios": "https://dc.lft.to/lastmile_qr_scan", "android": "https://dc.lft.to/lastmile_qr_scan"}, "lon": -77.028987, "bike_id": "6e20132dab8e2606a335dca31563d64c", "type": "electric_scooter", "name": "6e20132dab8e2606a335dca31563d64c"}, {"is_disabled": 0, "is_reserved": 0, "fusion_lat": 0.0, "lat": 38.921069, "fusion_lon": 0.0, "rental_uris": {"ios": "https://dc.lft.to/lastmile_qr_scan", "android": "https://dc.lft.to/lastmile_qr_scan"}, "lon": -77.0176085, "bike_id": "16600de1a513815f660e885c10ab399c", "type": "electric_scooter", "name": "16600de1a513815f660e885c10ab399c"}, {"is_disabled": 0, "is_reserved": 0, "fusion_lat": 0.0, "lat": 38.91608266666667, "fusion_lon": 0.0, "rental_uris": {"ios": "https://dc.lft.to/lastmile_qr_scan", "android": "https://dc.lft.to/lastmile_qr_scan"}, "lon": -77.02134766666667, "bike_id": "7f4bd830f4e36337716aa280942e5e73", "type": "electric_scooter", "name": "7f4bd830f4e36337716aa280942e5e73"}, {"is_disabled": 0, "is_reserved": 0, "fusion_lat": 0.0, "lat": 38.888730333333335, "fusion_lon": 0.0, "rental_uris": {"ios": "https://dc.lft.to/lastmile_qr_scan", "android": "https://dc.lft.to/lastmile_qr_scan"}, "lon": -76.95699016666667, "bike_id": "241b72ad4d45a7f8c97bd53aba03b73e", "type": "electric_bike", "name": "241b72ad4d45a7f8c97bd53aba03b73e"}, {"is_disabled": 0, "is_reserved": 0, "fusion_lat": 0.0, "lat": 38.90392216666667, "fusion_lon": 0.0, "rental_uris": {"ios": "https://dc.lft.to/lastmile_qr_scan", "android": "https://dc.lft.to/lastmile_qr_scan"}, "lon": -77.01616883333334, "bike_id": "180a8f114ee3e47514f6c3a0631011bd", "type": "electric_scooter", "name": "180a8f114ee3e47514f6c3a0631011bd"}, {"is_disabled": 0, "is_reserved": 0, "fusion_lat": 0.0, "lat": 38.910264166666664, "fusion_lon": 0.0, "rental_uris": {"ios": "https://dc.lft.to/lastmile_qr_scan", "android": "https://dc.lft.to/lastmile_qr_scan"}, "lon": -77.040609, "bike_id": "86656eebe0f735385a2aca07178a7dd4", "type": "electric_scooter", "name": "86656eebe0f735385a2aca07178a7dd4"}, {"is_disabled": 0, "is_reserved": 0, "fusion_lat": 0.0, "lat": 38.9027035, "fusion_lon": 0.0, "rental_uris": {"ios": "https://dc.lft.to/lastmile_qr_scan", "android": "https://dc.lft.to/lastmile_qr_scan"}, "lon": -77.0089305, "bike_id": "a2f57d059ecaf65a9b16562a11734efb", "type": "electric_scooter", "name": "a2f57d059ecaf65a9b16562a11734efb"}, {"is_disabled": 0, "is_reserved": 0, "fusion_lat": 0.0, "lat": 38.90815166666667, "fusion_lon": 0.0, "rental_uris": {"ios": "https://dc.lft.to/lastmile_qr_scan", "android": "https://dc.lft.to/lastmile_qr_scan"}, "lon": -77.00609566666667, "bike_id": "1d36a6c5ad7d4ccfc5e9f483a486e462", "type": "electric_scooter", "name": "1d36a6c5ad7d4ccfc5e9f483a486e462"}, {"is_disabled": 0, "is_reserved": 0, "fusion_lat": 0.0, "lat": 38.90769933333333, "fusion_lon": 0.0, "rental_uris": {"ios": "https://dc.lft.to/lastmile_qr_scan", "android": "https://dc.lft.to/lastmile_qr_scan"}, "lon": -77.02390916666667, "bike_id": "7eeb631560902ead8fefdf6bd6a5fddf", "type": "electric_scooter", "name": "7eeb631560902ead8fefdf6bd6a5fddf"}, {"is_disabled": 0, "is_reserved": 0, "fusion_lat": 0.0, "lat": 38.9012865, "fusion_lon": 0.0, "rental_uris": {"ios": "https://dc.lft.to/lastmile_qr_scan", "android": "https://dc.lft.to/lastmile_qr_scan"}, "lon": -77.039201, "bike_id": "62068cc0fc39742f84199e57dab12597", "type": "electric_scooter", "name": "62068cc0fc39742f84199e57dab12597"}, {"is_disabled": 0, "is_reserved": 0, "fusion_lat": 0.0, "lat": 38.910999, "fusion_lon": 0.0, "rental_uris": {"ios": "https://dc.lft.to/lastmile_qr_scan", "android": "https://dc.lft.to/lastmile_qr_scan"}, "lon": -77.02222033333334, "bike_id": "4414a81ad65de3c6757b73f37ba14ae7", "type": "electric_scooter", "name": "4414a81ad65de3c6757b73f37ba14ae7"}, {"is_disabled": 0, "is_reserved": 0, "fusion_lat": 0.0, "lat": 38.906404, "fusion_lon": 0.0, "rental_uris": {"ios": "https://dc.lft.to/lastmile_qr_scan", "android": "https://dc.lft.to/lastmile_qr_scan"}, "lon": -77.0689885, "bike_id": "0dec80bde190ef49e5a3a3d31da6ff4a", "type": "electric_scooter", "name": "0dec80bde190ef49e5a3a3d31da6ff4a"}, {"is_disabled": 0, "is_reserved": 0, "fusion_lat": 0.0, "lat": 38.896180666666666, "fusion_lon": 0.0, "rental_uris": {"ios": "https://dc.lft.to/lastmile_qr_scan", "android": "https://dc.lft.to/lastmile_qr_scan"}, "lon": -77.03170416666667, "bike_id": "43d1879233585600ee041c25db64cdff", "type": "electric_scooter", "name": "43d1879233585600ee041c25db64cdff"}, {"is_disabled": 0, "is_reserved": 0, "fusion_lat": 0.0, "lat": 38.9578675, "fusion_lon": 0.0, "rental_uris": {"ios": "https://dc.lft.to/lastmile_qr_scan", "android": "https://dc.lft.to/lastmile_qr_scan"}, "lon": -77.02413766666666, "bike_id": "16257a2c9551f4aa4b99c7269d7392c1", "type": "electric_scooter", "name": "16257a2c9551f4aa4b99c7269d7392c1"}, {"is_disabled": 0, "is_reserved": 0, "fusion_lat": 0.0, "lat": 38.912667166666665, "fusion_lon": 0.0, "rental_uris": {"ios": "https://dc.lft.to/lastmile_qr_scan", "android": "https://dc.lft.to/lastmile_qr_scan"}, "lon": -77.03143333333334, "bike_id": "cdd5500a68567f78e3174cf1e0713f86", "type": "electric_scooter", "name": "cdd5500a68567f78e3174cf1e0713f86"}, {"is_disabled": 0, "is_reserved": 0, "fusion_lat": 0.0, "lat": 38.9052685, "fusion_lon": 0.0, "rental_uris": {"ios": "https://dc.lft.to/lastmile_qr_scan", "android": "https://dc.lft.to/lastmile_qr_scan"}, "lon": -77.06528466666667, "bike_id": "b57222d561825f82d07c84c1f60a4470", "type": "electric_scooter", "name": "b57222d561825f82d07c84c1f60a4470"}, {"is_disabled": 0, "is_reserved": 0, "fusion_lat": 0.0, "lat": 38.916744666666666, "fusion_lon": 0.0, "rental_uris": {"ios": "https://dc.lft.to/lastmile_qr_scan", "android": "https://dc.lft.to/lastmile_qr_scan"}, "lon": -77.04593666666666, "bike_id": "077784becabacafd23d563c66345ec13", "type": "electric_scooter", "name": "077784becabacafd23d563c66345ec13"}, {"is_disabled": 0, "is_reserved": 0, "fusion_lat": 0.0, "lat": 38.91117533333333, "fusion_lon": 0.0, "rental_uris": {"ios": "https://dc.lft.to/lastmile_qr_scan", "android": "https://dc.lft.to/lastmile_qr_scan"}, "lon": -77.0383075, "bike_id": "7273a4d33ac4bcf4767c632fa19d2cbd", "type": "electric_scooter", "name": "7273a4d33ac4bcf4767c632fa19d2cbd"}, {"is_disabled": 0, "is_reserved": 0, "fusion_lat": 0.0, "lat": 38.9100675, "fusion_lon": 0.0, "rental_uris": {"ios": "https://dc.lft.to/lastmile_qr_scan", "android": "https://dc.lft.to/lastmile_qr_scan"}, "lon": -77.01214916666666, "bike_id": "be03da4778856d7f15ee7049ebe6b00f", "type": "electric_scooter", "name": "be03da4778856d7f15ee7049ebe6b00f"}, {"is_disabled": 0, "is_reserved": 0, "fusion_lat": 0.0, "lat": 38.9524505, "fusion_lon": 0.0, "rental_uris": {"ios": "https://dc.lft.to/lastmile_qr_scan", "android": "https://dc.lft.to/lastmile_qr_scan"}, "lon": -76.97953666666666, "bike_id": "05160ccc09ada240bae863b16c13e9c5", "type": "electric_bike", "name": "05160ccc09ada240bae863b16c13e9c5"}, {"is_disabled": 0, "is_reserved": 0, "fusion_lat": 0.0, "lat": 38.95240366666667, "fusion_lon": 0.0, "rental_uris": {"ios": "https://dc.lft.to/lastmile_qr_scan", "android": "https://dc.lft.to/lastmile_qr_scan"}, "lon": -76.98243883333333, "bike_id": "136f3bc0f4738dab24f7625f80e553f1", "type": "electric_bike", "name": "136f3bc0f4738dab24f7625f80e553f1"}, {"is_disabled": 0, "is_reserved": 0, "fusion_lat": 0.0, "lat": 38.90240883333333, "fusion_lon": 0.0, "rental_uris": {"ios": "https://dc.lft.to/lastmile_qr_scan", "android": "https://dc.lft.to/lastmile_qr_scan"}, "lon": -77.03483216666666, "bike_id": "16d7e62597d29744ccd29d0ed7c4cb6d", "type": "electric_scooter", "name": "16d7e62597d29744ccd29d0ed7c4cb6d"}, {"is_disabled": 0, "is_reserved": 0, "fusion_lat": 0.0, "lat": 38.921354666666666, "fusion_lon": 0.0, "rental_uris": {"ios": "https://dc.lft.to/lastmile_qr_scan", "android": "https://dc.lft.to/lastmile_qr_scan"}, "lon": -76.993574, "bike_id": "eb359d94cf85282117821c521ae48a64", "type": "electric_scooter", "name": "eb359d94cf85282117821c521ae48a64"}, {"is_disabled": 0, "is_reserved": 0, "fusion_lat": 0.0, "lat": 38.88564016666667, "fusion_lon": 0.0, "rental_uris": {"ios": "https://dc.lft.to/lastmile_qr_scan", "android": "https://dc.lft.to/lastmile_qr_scan"}, "lon": -77.01178883333333, "bike_id": "82bea330553966519898d660baaf6144", "type": "electric_scooter", "name": "82bea330553966519898d660baaf6144"}, {"is_disabled": 0, "is_reserved": 0, "fusion_lat": 0.0, "lat": 38.92507166666667, "fusion_lon": 0.0, "rental_uris": {"ios": "https://dc.lft.to/lastmile_qr_scan", "android": "https://dc.lft.to/lastmile_qr_scan"}, "lon": -77.02444166666666, "bike_id": "ad594371485a185849035cb554f57227", "type": "electric_scooter", "name": "ad594371485a185849035cb554f57227"}, {"is_disabled": 0, "is_reserved": 0, "fusion_lat": 0.0, "lat": 38.8717065, "fusion_lon": 0.0, "rental_uris": {"ios": "https://dc.lft.to/lastmile_qr_scan", "android": "https://dc.lft.to/lastmile_qr_scan"}, "lon": -77.0076575, "bike_id": "e39bb43e79b0e60e61386b62ef5ef9e9", "type": "electric_bike", "name": "e39bb43e79b0e60e61386b62ef5ef9e9"}, {"is_disabled": 0, "is_reserved": 0, "fusion_lat": 0.0, "lat": 38.930614, "fusion_lon": 0.0, "rental_uris": {"ios": "https://dc.lft.to/lastmile_qr_scan", "android": "https://dc.lft.to/lastmile_qr_scan"}, "lon": -77.0394, "bike_id": "99aa7e55b81fd9cf3495d4cf541d14ee", "type": "electric_scooter", "name": "99aa7e55b81fd9cf3495d4cf541d14ee"}, {"is_disabled": 0, "is_reserved": 0, "fusion_lat": 0.0, "lat": 38.9005885, "fusion_lon": 0.0, "rental_uris": {"ios": "https://dc.lft.to/lastmile_qr_scan", "android": "https://dc.lft.to/lastmile_qr_scan"}, "lon": -76.949853, "bike_id": "a8b9afac56755e1d0d01bc1924e3ead8", "type": "electric_scooter", "name": "a8b9afac56755e1d0d01bc1924e3ead8"}, {"is_disabled": 0, "is_reserved": 0, "fusion_lat": 0.0, "lat": 38.915605, "fusion_lon": 0.0, "rental_uris": {"ios": "https://dc.lft.to/lastmile_qr_scan", "android": "https://dc.lft.to/lastmile_qr_scan"}, "lon": -77.00757466666667, "bike_id": "335985bb962cd6fa070bfe4546e1385b", "type": "electric_scooter", "name": "335985bb962cd6fa070bfe4546e1385b"}, {"is_disabled": 0, "is_reserved": 0, "fusion_lat": 0.0, "lat": 38.92174466666667, "fusion_lon": 0.0, "rental_uris": {"ios": "https://dc.lft.to/lastmile_qr_scan", "android": "https://dc.lft.to/lastmile_qr_scan"}, "lon": -77.04348083333333, "bike_id": "86a6fdca97eb9fe7ae3d2b9e41ddfa12", "type": "electric_scooter", "name": "86a6fdca97eb9fe7ae3d2b9e41ddfa12"}, {"is_disabled": 0, "is_reserved": 0, "fusion_lat": 0.0, "lat": 38.89554433333333, "fusion_lon": 0.0, "rental_uris": {"ios": "https://dc.lft.to/lastmile_qr_scan", "android": "https://dc.lft.to/lastmile_qr_scan"}, "lon": -77.01653583333334, "bike_id": "ca97ea3856e40aefb95e23f91589b57d", "type": "electric_scooter", "name": "ca97ea3856e40aefb95e23f91589b57d"}, {"is_disabled": 0, "is_reserved": 0, "fusion_lat": 0.0, "lat": 38.92059016666666, "fusion_lon": 0.0, "rental_uris": {"ios": "https://dc.lft.to/lastmile_qr_scan", "android": "https://dc.lft.to/lastmile_qr_scan"}, "lon": -77.029372, "bike_id": "fab059536cfc6026c865db2282ff74f4", "type": "electric_scooter", "name": "fab059536cfc6026c865db2282ff74f4"}, {"is_disabled": 0, "is_reserved": 0, "fusion_lat": 0.0, "lat": 38.89882383333333, "fusion_lon": 0.0, "rental_uris": {"ios": "https://dc.lft.to/lastmile_qr_scan", "android": "https://dc.lft.to/lastmile_qr_scan"}, "lon": -77.03930233333334, "bike_id": "0f6913ca982667c41b8db66a0aecd988", "type": "electric_scooter", "name": "0f6913ca982667c41b8db66a0aecd988"}, {"is_disabled": 0, "is_reserved": 0, "fusion_lat": 0.0, "lat": 38.91980933333333, "fusion_lon": 0.0, "rental_uris": {"ios": "https://dc.lft.to/lastmile_qr_scan", "android": "https://dc.lft.to/lastmile_qr_scan"}, "lon": -77.04130233333333, "bike_id": "b5e61524100e9b0c7e028a58bdb868fd", "type": "electric_scooter", "name": "b5e61524100e9b0c7e028a58bdb868fd"}, {"is_disabled": 0, "is_reserved": 0, "fusion_lat": 0.0, "lat": 38.90760083333333, "fusion_lon": 0.0, "rental_uris": {"ios": "https://dc.lft.to/lastmile_qr_scan", "android": "https://dc.lft.to/lastmile_qr_scan"}, "lon": -76.999282, "bike_id": "7d196ee96881435aa4832b2dbfa8a139", "type": "electric_scooter", "name": "7d196ee96881435aa4832b2dbfa8a139"}, {"is_disabled": 0, "is_reserved": 0, "fusion_lat": 0.0, "lat": 38.8918215, "fusion_lon": 0.0, "rental_uris": {"ios": "https://dc.lft.to/lastmile_qr_scan", "android": "https://dc.lft.to/lastmile_qr_scan"}, "lon": -77.01503433333333, "bike_id": "97b8a4e8e0fa87069f8ce543bcf38531", "type": "electric_scooter", "name": "97b8a4e8e0fa87069f8ce543bcf38531"}, {"is_disabled": 0, "is_reserved": 0, "fusion_lat": 0.0, "lat": 38.88577433333333, "fusion_lon": 0.0, "rental_uris": {"ios": "https://dc.lft.to/lastmile_qr_scan", "android": "https://dc.lft.to/lastmile_qr_scan"}, "lon": -76.99505283333333, "bike_id": "fdc040b4f6fe0f821177f6f511341037", "type": "electric_scooter", "name": "fdc040b4f6fe0f821177f6f511341037"}, {"is_disabled": 0, "is_reserved": 0, "fusion_lat": 0.0, "lat": 38.92055383333334, "fusion_lon": 0.0, "rental_uris": {"ios": "https://dc.lft.to/lastmile_qr_scan", "android": "https://dc.lft.to/lastmile_qr_scan"}, "lon": -77.03334833333334, "bike_id": "48968bc65d274fd703209734715a0b49", "type": "electric_scooter", "name": "48968bc65d274fd703209734715a0b49"}, {"is_disabled": 0, "is_reserved": 0, "fusion_lat": 0.0, "lat": 38.9370485, "fusion_lon": 0.0, "rental_uris": {"ios": "https://dc.lft.to/lastmile_qr_scan", "android": "https://dc.lft.to/lastmile_qr_scan"}, "lon": -77.05598433333333, "bike_id": "0c95612d06d8606d32b7049714bfa06a", "type": "electric_scooter", "name": "0c95612d06d8606d32b7049714bfa06a"}, {"is_disabled": 0, "is_reserved": 0, "fusion_lat": 0.0, "lat": 38.926623, "fusion_lon": 0.0, "rental_uris": {"ios": "https://dc.lft.to/lastmile_qr_scan", "android": "https://dc.lft.to/lastmile_qr_scan"}, "lon": -77.0244765, "bike_id": "4503902c26a96b29eb77fb713e641ae6", "type": "electric_scooter", "name": "4503902c26a96b29eb77fb713e641ae6"}, {"is_disabled": 0, "is_reserved": 0, "fusion_lat": 0.0, "lat": 38.9265375, "fusion_lon": 0.0, "rental_uris": {"ios": "https://dc.lft.to/lastmile_qr_scan", "android": "https://dc.lft.to/lastmile_qr_scan"}, "lon": -77.02424216666667, "bike_id": "4b99ff56cb22204801480080dd2c8b33", "type": "electric_scooter", "name": "4b99ff56cb22204801480080dd2c8b33"}, {"is_disabled": 0, "is_reserved": 0, "fusion_lat": 0.0, "lat": 38.91705966666667, "fusion_lon": 0.0, "rental_uris": {"ios": "https://dc.lft.to/lastmile_qr_scan", "android": "https://dc.lft.to/lastmile_qr_scan"}, "lon": -77.03483133333333, "bike_id": "c3a83418f0b0d5467d15d6c8c560d89c", "type": "electric_scooter", "name": "c3a83418f0b0d5467d15d6c8c560d89c"}, {"is_disabled": 0, "is_reserved": 0, "fusion_lat": 0.0, "lat": 38.91844483333333, "fusion_lon": 0.0, "rental_uris": {"ios": "https://dc.lft.to/lastmile_qr_scan", "android": "https://dc.lft.to/lastmile_qr_scan"}, "lon": -77.04463766666667, "bike_id": "7ac02bfcf6057df39cad003cd900fd67", "type": "electric_scooter", "name": "7ac02bfcf6057df39cad003cd900fd67"}, {"is_disabled": 0, "is_reserved": 0, "fusion_lat": 0.0, "lat": 38.892949, "fusion_lon": 0.0, "rental_uris": {"ios": "https://dc.lft.to/lastmile_qr_scan", "android": "https://dc.lft.to/lastmile_qr_scan"}, "lon": -76.976161, "bike_id": "a12a037207859318280426a94e0f4d49", "type": "electric_bike", "name": "a12a037207859318280426a94e0f4d49"}, {"is_disabled": 0, "is_reserved": 0, "fusion_lat": 0.0, "lat": 38.93125466666667, "fusion_lon": 0.0, "rental_uris": {"ios": "https://dc.lft.to/lastmile_qr_scan", "android": "https://dc.lft.to/lastmile_qr_scan"}, "lon": -77.02071233333334, "bike_id": "cb46ce476a6dc5c0e6de8e3017c30e9f", "type": "electric_scooter", "name": "cb46ce476a6dc5c0e6de8e3017c30e9f"}, {"is_disabled": 0, "is_reserved": 0, "fusion_lat": 0.0, "lat": 38.89993066666667, "fusion_lon": 0.0, "rental_uris": {"ios": "https://dc.lft.to/lastmile_qr_scan", "android": "https://dc.lft.to/lastmile_qr_scan"}, "lon": -77.010188, "bike_id": "0fa8c34c51d357ee5629ff032d90262b", "type": "electric_scooter", "name": "0fa8c34c51d357ee5629ff032d90262b"}, {"is_disabled": 0, "is_reserved": 0, "fusion_lat": 0.0, "lat": 38.92363983333333, "fusion_lon": 0.0, "rental_uris": {"ios": "https://dc.lft.to/lastmile_qr_scan", "android": "https://dc.lft.to/lastmile_qr_scan"}, "lon": -77.0731195, "bike_id": "4668ccc399b291ae33d855733394f1be", "type": "electric_scooter", "name": "4668ccc399b291ae33d855733394f1be"}, {"is_disabled": 0, "is_reserved": 0, "fusion_lat": 0.0, "lat": 38.908021166666664, "fusion_lon": 0.0, "rental_uris": {"ios": "https://dc.lft.to/lastmile_qr_scan", "android": "https://dc.lft.to/lastmile_qr_scan"}, "lon": -77.04984883333333, "bike_id": "38e9d64a1dae9bc3955b753c704a04d8", "type": "electric_scooter", "name": "38e9d64a1dae9bc3955b753c704a04d8"}, {"is_disabled": 0, "is_reserved": 0, "fusion_lat": 0.0, "lat": 38.93241783333333, "fusion_lon": 0.0, "rental_uris": {"ios": "https://dc.lft.to/lastmile_qr_scan", "android": "https://dc.lft.to/lastmile_qr_scan"}, "lon": -76.9909225, "bike_id": "905d5cfee98c8fa07564555749998f30", "type": "electric_scooter", "name": "905d5cfee98c8fa07564555749998f30"}, {"is_disabled": 0, "is_reserved": 0, "fusion_lat": 0.0, "lat": 38.917155666666666, "fusion_lon": 0.0, "rental_uris": {"ios": "https://dc.lft.to/lastmile_qr_scan", "android": "https://dc.lft.to/lastmile_qr_scan"}, "lon": -77.04170033333334, "bike_id": "f8a9aac9cdc57cea071c05b1f5a771c9", "type": "electric_scooter", "name": "f8a9aac9cdc57cea071c05b1f5a771c9"}, {"is_disabled": 0, "is_reserved": 0, "fusion_lat": 0.0, "lat": 38.846312833333336, "fusion_lon": 0.0, "rental_uris": {"ios": "https://dc.lft.to/lastmile_qr_scan", "android": "https://dc.lft.to/lastmile_qr_scan"}, "lon": -76.96905016666666, "bike_id": "34182b4580f820a976c9c14003ee0e48", "type": "electric_bike", "name": "34182b4580f820a976c9c14003ee0e48"}, {"is_disabled": 0, "is_reserved": 0, "fusion_lat": 0.0, "lat": 38.9025455, "fusion_lon": 0.0, "rental_uris": {"ios": "https://dc.lft.to/lastmile_qr_scan", "android": "https://dc.lft.to/lastmile_qr_scan"}, "lon": -77.02651566666667, "bike_id": "cafabf0e8bccb4d7a352800240647bce", "type": "electric_scooter", "name": "cafabf0e8bccb4d7a352800240647bce"}, {"is_disabled": 0, "is_reserved": 0, "fusion_lat": 0.0, "lat": 38.83494666666667, "fusion_lon": 0.0, "rental_uris": {"ios": "https://dc.lft.to/lastmile_qr_scan", "android": "https://dc.lft.to/lastmile_qr_scan"}, "lon": -77.00435916666666, "bike_id": "82cb7407212ebcb52ee65fabd3aed7da", "type": "electric_bike", "name": "82cb7407212ebcb52ee65fabd3aed7da"}, {"is_disabled": 0, "is_reserved": 0, "fusion_lat": 0.0, "lat": 39.022977833333336, "fusion_lon": 0.0, "rental_uris": {"ios": "https://dc.lft.to/lastmile_qr_scan", "android": "https://dc.lft.to/lastmile_qr_scan"}, "lon": -77.02103483333333, "bike_id": "b256fc265f9491ce3bf4d6a9cb05b4b3", "type": "electric_bike", "name": "b256fc265f9491ce3bf4d6a9cb05b4b3"}, {"is_disabled": 0, "is_reserved": 0, "fusion_lat": 0.0, "lat": 38.88715283333333, "fusion_lon": 0.0, "rental_uris": {"ios": "https://dc.lft.to/lastmile_qr_scan", "android": "https://dc.lft.to/lastmile_qr_scan"}, "lon": -76.996091, "bike_id": "c8a7872e19b99dd0bb1e1bb6a50a4e82", "type": "electric_scooter", "name": "c8a7872e19b99dd0bb1e1bb6a50a4e82"}, {"is_disabled": 0, "is_reserved": 0, "fusion_lat": 0.0, "lat": 38.8991105, "fusion_lon": 0.0, "rental_uris": {"ios": "https://dc.lft.to/lastmile_qr_scan", "android": "https://dc.lft.to/lastmile_qr_scan"}, "lon": -77.03970266666667, "bike_id": "e7927026a8fd7aab911b195534117a93", "type": "electric_scooter", "name": "e7927026a8fd7aab911b195534117a93"}, {"is_disabled": 0, "is_reserved": 0, "fusion_lat": 0.0, "lat": 38.908508, "fusion_lon": 0.0, "rental_uris": {"ios": "https://dc.lft.to/lastmile_qr_scan", "android": "https://dc.lft.to/lastmile_qr_scan"}, "lon": -76.9979655, "bike_id": "089df14cfdb22c12fd1d39e701f99caa", "type": "electric_scooter", "name": "089df14cfdb22c12fd1d39e701f99caa"}, {"is_disabled": 0, "is_reserved": 0, "fusion_lat": 0.0, "lat": 38.927332, "fusion_lon": 0.0, "rental_uris": {"ios": "https://dc.lft.to/lastmile_qr_scan", "android": "https://dc.lft.to/lastmile_qr_scan"}, "lon": -77.07336616666667, "bike_id": "e211f9df66249bfe8f07a10c1ec99ddc", "type": "electric_bike", "name": "e211f9df66249bfe8f07a10c1ec99ddc"}, {"is_disabled": 0, "is_reserved": 0, "fusion_lat": 0.0, "lat": 38.97479333333333, "fusion_lon": 0.0, "rental_uris": {"ios": "https://dc.lft.to/lastmile_qr_scan", "android": "https://dc.lft.to/lastmile_qr_scan"}, "lon": -76.98665533333333, "bike_id": "a7cc27a3dc8d84a22e37f7f287927fa9", "type": "electric_bike", "name": "a7cc27a3dc8d84a22e37f7f287927fa9"}, {"is_disabled": 0, "is_reserved": 0, "fusion_lat": 0.0, "lat": 38.916803333333334, "fusion_lon": 0.0, "rental_uris": {"ios": "https://dc.lft.to/lastmile_qr_scan", "android": "https://dc.lft.to/lastmile_qr_scan"}, "lon": -77.03204183333334, "bike_id": "cc9a44d4045bf897301680859e054647", "type": "electric_scooter", "name": "cc9a44d4045bf897301680859e054647"}, {"is_disabled": 0, "is_reserved": 0, "fusion_lat": 0.0, "lat": 38.87312716666667, "fusion_lon": 0.0, "rental_uris": {"ios": "https://dc.lft.to/lastmile_qr_scan", "android": "https://dc.lft.to/lastmile_qr_scan"}, "lon": -77.01074616666666, "bike_id": "ab59afd901c4677de25eb541da9568e0", "type": "electric_scooter", "name": "ab59afd901c4677de25eb541da9568e0"}, {"is_disabled": 0, "is_reserved": 0, "fusion_lat": 0.0, "lat": 38.8242935, "fusion_lon": 0.0, "rental_uris": {"ios": "https://dc.lft.to/lastmile_qr_scan", "android": "https://dc.lft.to/lastmile_qr_scan"}, "lon": -77.12039116666666, "bike_id": "9f31117bbd7c0e5b7e4f5a944a74ef5d", "type": "electric_bike", "name": "9f31117bbd7c0e5b7e4f5a944a74ef5d"}, {"is_disabled": 0, "is_reserved": 0, "fusion_lat": 0.0, "lat": 38.897501166666665, "fusion_lon": 0.0, "rental_uris": {"ios": "https://dc.lft.to/lastmile_qr_scan", "android": "https://dc.lft.to/lastmile_qr_scan"}, "lon": -77.02732283333333, "bike_id": "ae099958f38df85fb83dbc9f7abb9161", "type": "electric_scooter", "name": "ae099958f38df85fb83dbc9f7abb9161"}, {"is_disabled": 0, "is_reserved": 0, "fusion_lat": 0.0, "lat": 38.88218033333333, "fusion_lon": 0.0, "rental_uris": {"ios": "https://dc.lft.to/lastmile_qr_scan", "android": "https://dc.lft.to/lastmile_qr_scan"}, "lon": -76.99732983333334, "bike_id": "38769514651032fbda2648fdec30697d", "type": "electric_scooter", "name": "38769514651032fbda2648fdec30697d"}, {"is_disabled": 0, "is_reserved": 0, "fusion_lat": 0.0, "lat": 38.856411333333334, "fusion_lon": 0.0, "rental_uris": {"ios": "https://dc.lft.to/lastmile_qr_scan", "android": "https://dc.lft.to/lastmile_qr_scan"}, "lon": -77.06831283333334, "bike_id": "859741d0b474998d2d76d5644d5a64d6", "type": "electric_bike", "name": "859741d0b474998d2d76d5644d5a64d6"}, {"is_disabled": 0, "is_reserved": 0, "fusion_lat": 0.0, "lat": 38.91703233333333, "fusion_lon": 0.0, "rental_uris": {"ios": "https://dc.lft.to/lastmile_qr_scan", "android": "https://dc.lft.to/lastmile_qr_scan"}, "lon": -77.02851933333334, "bike_id": "9abdccf17ca9559dfee5b79d8f216997", "type": "electric_scooter", "name": "9abdccf17ca9559dfee5b79d8f216997"}, {"is_disabled": 0, "is_reserved": 0, "fusion_lat": 0.0, "lat": 38.89229383333333, "fusion_lon": 0.0, "rental_uris": {"ios": "https://dc.lft.to/lastmile_qr_scan", "android": "https://dc.lft.to/lastmile_qr_scan"}, "lon": -77.0217295, "bike_id": "37875118b34c24f98f7cae1772178759", "type": "electric_scooter", "name": "37875118b34c24f98f7cae1772178759"}, {"is_disabled": 0, "is_reserved": 0, "fusion_lat": 0.0, "lat": 38.865601166666664, "fusion_lon": 0.0, "rental_uris": {"ios": "https://dc.lft.to/lastmile_qr_scan", "android": "https://dc.lft.to/lastmile_qr_scan"}, "lon": -76.97473116666667, "bike_id": "c7e856aeb30a1579a5807004b995e14f", "type": "electric_bike", "name": "c7e856aeb30a1579a5807004b995e14f"}, {"is_disabled": 0, "is_reserved": 0, "fusion_lat": 0.0, "lat": 38.900629333333335, "fusion_lon": 0.0, "rental_uris": {"ios": "https://dc.lft.to/lastmile_qr_scan", "android": "https://dc.lft.to/lastmile_qr_scan"}, "lon": -77.038178, "bike_id": "49264e80ec025e82f37d9ad87077e4d1", "type": "electric_scooter", "name": "49264e80ec025e82f37d9ad87077e4d1"}, {"is_disabled": 0, "is_reserved": 0, "fusion_lat": 0.0, "lat": 38.94634633333333, "fusion_lon": 0.0, "rental_uris": {"ios": "https://dc.lft.to/lastmile_qr_scan", "android": "https://dc.lft.to/lastmile_qr_scan"},