{"data": {"bikes": [{"is_reserved": 0, "fusion_lat": 0.0, "name": "033c874f9264d693fc78d2547e5cf8ba", "is_disabled": 0, "lat": 38.927157, "rental_uris": {"ios": "https://dc.lft.to/lastmile_qr_scan", "android": "https://dc.lft.to/lastmile_qr_scan"}, "type": "electric_scooter", "lon": -77.02294833333333, "bike_id": "033c874f9264d693fc78d2547e5cf8ba", "fusion_lon": 0.0}, {"is_reserved": 0, "fusion_lat": 0.0, "name": "fe1a16306b7e5d0dc7ce1e8cb10eb4ef", "is_disabled": 0, "lat": 38.86006, "rental_uris": {"ios": "https://dc.lft.to/lastmile_qr_scan", "android": "https://dc.lft.to/lastmile_qr_scan"}, "type": "electric_scooter", "lon": -76.98517833333334, "bike_id": "fe1a16306b7e5d0dc7ce1e8cb10eb4ef", "fusion_lon": 0.0}, {"is_reserved": 0, "fusion_lat": 0.0, "name": "bef80c9bc3b3a38ca68255888c48c4ac", "is_disabled": 0, "lat": 38.923505166666665, "rental_uris": {"ios": "https://dc.lft.to/lastmile_qr_scan", "android": "https://dc.lft.to/lastmile_qr_scan"}, "type": "electric_scooter", "lon": -77.0244275, "bike_id": "bef80c9bc3b3a38ca68255888c48c4ac", "fusion_lon": 0.0}, {"is_reserved": 0, "fusion_lat": 0.0, "name": "7a2ba7c0b115ea8a3c555a17cbbf512f", "is_disabled": 0, "lat": 38.873835666666665, "rental_uris": {"ios": "https://dc.lft.to/lastmile_qr_scan", "android": "https://dc.lft.to/lastmile_qr_scan"}, "type": "electric_scooter", "lon": -77.00128883333333, "bike_id": "7a2ba7c0b115ea8a3c555a17cbbf512f", "fusion_lon": 0.0}, {"is_reserved": 0, "fusion_lat": 0.0, "name": "d824d131c589700cd3f5daa08ca28015", "is_disabled": 0, "lat": 38.89785416666667, "rental_uris": {"ios": "https://dc.lft.to/lastmile_qr_scan", "android": "https://dc.lft.to/lastmile_qr_scan"}, "type": "electric_scooter", "lon": -77.02703883333334, "bike_id": "d824d131c589700cd3f5daa08ca28015", "fusion_lon": 0.0}, {"is_reserved": 0, "fusion_lat": 0.0, "name": "b4559146b13b57eaa55621341baf49e9", "is_disabled": 0, "lat": 38.898296333333334, "rental_uris": {"ios": "https://dc.lft.to/lastmile_qr_scan", "android": "https://dc.lft.to/lastmile_qr_scan"}, "type": "electric_scooter", "lon": -77.02214516666666, "bike_id": "b4559146b13b57eaa55621341baf49e9", "fusion_lon": 0.0}, {"is_reserved": 0, "fusion_lat": 0.0, "name": "93cc59a0f41dde25637750e4bc12210e", "is_disabled": 0, "lat": 38.91045483333333, "rental_uris": {"ios": "https://dc.lft.to/lastmile_qr_scan", "android": "https://dc.lft.to/lastmile_qr_scan"}, "type": "electric_scooter", "lon": -77.03450633333334, "bike_id": "93cc59a0f41dde25637750e4bc12210e", "fusion_lon": 0.0}, {"is_reserved": 0, "fusion_lat": 0.0, "name": "e444d788417793621f534e1faeb10669", "is_disabled": 0, "lat": 38.9247825, "rental_uris": {"ios": "https://dc.lft.to/lastmile_qr_scan", "android": "https://dc.lft.to/lastmile_qr_scan"}, "type": "electric_scooter", "lon": -76.99578683333333, "bike_id": "e444d788417793621f534e1faeb10669", "fusion_lon": 0.0}, {"is_reserved": 0, "fusion_lat": 0.0, "name": "39ff39f348a98424a2948ae6de5cf4de", "is_disabled": 0, "lat": 38.90038833333333, "rental_uris": {"ios": "https://dc.lft.to/lastmile_qr_scan", "android": "https://dc.lft.to/lastmile_qr_scan"}, "type": "electric_scooter", "lon": -77.0019005, "bike_id": "39ff39f348a98424a2948ae6de5cf4de", "fusion_lon": 0.0}, {"is_reserved": 0, "fusion_lat": 0.0, "name": "f5faee8cd7349a9958948d1e13410b1f", "is_disabled": 0, "lat": 38.906907333333336, "rental_uris": {"ios": "https://dc.lft.to/lastmile_qr_scan", "android": "https://dc.lft.to/lastmile_qr_scan"}, "type": "electric_scooter", "lon": -77.02715833333333, "bike_id": "f5faee8cd7349a9958948d1e13410b1f", "fusion_lon": 0.0}, {"is_reserved": 0, "fusion_lat": 0.0, "name": "c2a878358901a01e8bf857ccf58ac8ea", "is_disabled": 0, "lat": 38.923566666666666, "rental_uris": {"ios": "https://dc.lft.to/lastmile_qr_scan", "android": "https://dc.lft.to/lastmile_qr_scan"}, "type": "electric_scooter", "lon": -77.02054783333334, "bike_id": "c2a878358901a01e8bf857ccf58ac8ea", "fusion_lon": 0.0}, {"is_reserved": 0, "fusion_lat": 0.0, "name": "e4799529b02e3ac93504100531c1e25a", "is_disabled": 0, "lat": 38.93754283333333, "rental_uris": {"ios": "https://dc.lft.to/lastmile_qr_scan", "android": "https://dc.lft.to/lastmile_qr_scan"}, "type": "electric_scooter", "lon": -77.03262366666667, "bike_id": "e4799529b02e3ac93504100531c1e25a", "fusion_lon": 0.0}, {"is_reserved": 0, "fusion_lat": 0.0, "name": "b7f3479c7d4aa3c459dd3f53d590d0fe", "is_disabled": 0, "lat": 38.90091533333333, "rental_uris": {"ios": "https://dc.lft.to/lastmile_qr_scan", "android": "https://dc.lft.to/lastmile_qr_scan"}, "type": "electric_scooter", "lon": -77.02691066666667, "bike_id": "b7f3479c7d4aa3c459dd3f53d590d0fe", "fusion_lon": 0.0}, {"is_reserved": 0, "fusion_lat": 0.0, "name": "4b93d41d46889773cca135de068e08bf", "is_disabled": 0, "lat": 38.911819, "rental_uris": {"ios": "https://dc.lft.to/lastmile_qr_scan", "android": "https://dc.lft.to/lastmile_qr_scan"}, "type": "electric_scooter", "lon": -77.01205966666667, "bike_id": "4b93d41d46889773cca135de068e08bf", "fusion_lon": 0.0}, {"is_reserved": 0, "fusion_lat": 0.0, "name": "20e31769f0c5ac989913dfaeb2e27924", "is_disabled": 0, "lat": 38.903951166666666, "rental_uris": {"ios": "https://dc.lft.to/lastmile_qr_scan", "android": "https://dc.lft.to/lastmile_qr_scan"}, "type": "electric_scooter", "lon": -77.03284783333334, "bike_id": "20e31769f0c5ac989913dfaeb2e27924", "fusion_lon": 0.0}, {"is_reserved": 0, "fusion_lat": 0.0, "name": "58653078e5f90e47ef49a4fa786d25b2", "is_disabled": 0, "lat": 38.924076166666666, "rental_uris": {"ios": "https://dc.lft.to/lastmile_qr_scan", "android": "https://dc.lft.to/lastmile_qr_scan"}, "type": "electric_scooter", "lon": -77.02716416666667, "bike_id": "58653078e5f90e47ef49a4fa786d25b2", "fusion_lon": 0.0}, {"is_reserved": 0, "fusion_lat": 0.0, "name": "9b984c5703b72dfe33befe2136ca2e44", "is_disabled": 0, "lat": 38.919740166666664, "rental_uris": {"ios": "https://dc.lft.to/lastmile_qr_scan", "android": "https://dc.lft.to/lastmile_qr_scan"}, "type": "electric_scooter", "lon": -77.02384633333334, "bike_id": "9b984c5703b72dfe33befe2136ca2e44", "fusion_lon": 0.0}, {"is_reserved": 0, "fusion_lat": 0.0, "name": "cfe7fa8489b71c5c15b8607d37b9555c", "is_disabled": 0, "lat": 38.896049, "rental_uris": {"ios": "https://dc.lft.to/lastmile_qr_scan", "android": "https://dc.lft.to/lastmile_qr_scan"}, "type": "electric_scooter", "lon": -77.02535883333333, "bike_id": "cfe7fa8489b71c5c15b8607d37b9555c", "fusion_lon": 0.0}, {"is_reserved": 0, "fusion_lat": 0.0, "name": "b409dd5f8250bb2ae6571199761cae34", "is_disabled": 0, "lat": 38.910093833333335, "rental_uris": {"ios": "https://dc.lft.to/lastmile_qr_scan", "android": "https://dc.lft.to/lastmile_qr_scan"}, "type": "electric_scooter", "lon": -76.993882, "bike_id": "b409dd5f8250bb2ae6571199761cae34", "fusion_lon": 0.0}, {"is_reserved": 0, "fusion_lat": 0.0, "name": "c64203f75759858d62ed5bd0a5b946ea", "is_disabled": 0, "lat": 38.900307166666664, "rental_uris": {"ios": "https://dc.lft.to/lastmile_qr_scan", "android": "https://dc.lft.to/lastmile_qr_scan"}, "type": "electric_scooter", "lon": -76.9953545, "bike_id": "c64203f75759858d62ed5bd0a5b946ea", "fusion_lon": 0.0}, {"is_reserved": 0, "fusion_lat": 0.0, "name": "b3e759b3502af7ae66960afe7efaf00c", "is_disabled": 0, "lat": 38.97441166666667, "rental_uris": {"ios": "https://dc.lft.to/lastmile_qr_scan", "android": "https://dc.lft.to/lastmile_qr_scan"}, "type": "electric_bike", "lon": -77.09615283333333, "bike_id": "b3e759b3502af7ae66960afe7efaf00c", "fusion_lon": 0.0}, {"is_reserved": 0, "fusion_lat": 0.0, "name": "291ccffb932089629b18ebb990dbba45", "is_disabled": 0, "lat": 38.91922, "rental_uris": {"ios": "https://dc.lft.to/lastmile_qr_scan", "android": "https://dc.lft.to/lastmile_qr_scan"}, "type": "electric_scooter", "lon": -77.034236, "bike_id": "291ccffb932089629b18ebb990dbba45", "fusion_lon": 0.0}, {"is_reserved": 0, "fusion_lat": 0.0, "name": "b8d6d785a66fa5ccc183ddbb8555bb96", "is_disabled": 0, "lat": 38.93288016666666, "rental_uris": {"ios": "https://dc.lft.to/lastmile_qr_scan", "android": "https://dc.lft.to/lastmile_qr_scan"}, "type": "electric_scooter", "lon": -76.98643533333333, "bike_id": "b8d6d785a66fa5ccc183ddbb8555bb96", "fusion_lon": 0.0}, {"is_reserved": 0, "fusion_lat": 0.0, "name": "0a1c2011e28b3cb9747bea9f5d580080", "is_disabled": 0, "lat": 38.9241885, "rental_uris": {"ios": "https://dc.lft.to/lastmile_qr_scan", "android": "https://dc.lft.to/lastmile_qr_scan"}, "type": "electric_scooter", "lon": -77.020073, "bike_id": "0a1c2011e28b3cb9747bea9f5d580080", "fusion_lon": 0.0}, {"is_reserved": 0, "fusion_lat": 0.0, "name": "ac924cbe83d03eb87c389b481ac8f311", "is_disabled": 0, "lat": 38.854584, "rental_uris": {"ios": "https://dc.lft.to/lastmile_qr_scan", "android": "https://dc.lft.to/lastmile_qr_scan"}, "type": "electric_scooter", "lon": -76.98605833333333, "bike_id": "ac924cbe83d03eb87c389b481ac8f311", "fusion_lon": 0.0}, {"is_reserved": 0, "fusion_lat": 0.0, "name": "b3b787c803fce6e06294358c6212b2ee", "is_disabled": 0, "lat": 38.902045666666666, "rental_uris": {"ios": "https://dc.lft.to/lastmile_qr_scan", "android": "https://dc.lft.to/lastmile_qr_scan"}, "type": "electric_scooter", "lon": -77.02359633333333, "bike_id": "b3b787c803fce6e06294358c6212b2ee", "fusion_lon": 0.0}, {"is_reserved": 0, "fusion_lat": 0.0, "name": "b134003705317641a3afd8c89d27e0df", "is_disabled": 0, "lat": 38.93212833333333, "rental_uris": {"ios": "https://dc.lft.to/lastmile_qr_scan", "android": "https://dc.lft.to/lastmile_qr_scan"}, "type": "electric_scooter", "lon": -77.03861433333333, "bike_id": "b134003705317641a3afd8c89d27e0df", "fusion_lon": 0.0}, {"is_reserved": 0, "fusion_lat": 0.0, "name": "9f5bcee61be07ee12e9f60d18fecdb04", "is_disabled": 0, "lat": 38.90127733333333, "rental_uris": {"ios": "https://dc.lft.to/lastmile_qr_scan", "android": "https://dc.lft.to/lastmile_qr_scan"}, "type": "electric_scooter", "lon": -77.03824766666666, "bike_id": "9f5bcee61be07ee12e9f60d18fecdb04", "fusion_lon": 0.0}, {"is_reserved": 0, "fusion_lat": 0.0, "name": "ec340ef35716addd59eb828aac3b3132", "is_disabled": 0, "lat": 38.900264166666666, "rental_uris": {"ios": "https://dc.lft.to/lastmile_qr_scan", "android": "https://dc.lft.to/lastmile_qr_scan"}, "type": "electric_scooter", "lon": -76.98848516666666, "bike_id": "ec340ef35716addd59eb828aac3b3132", "fusion_lon": 0.0}, {"is_reserved": 0, "fusion_lat": 0.0, "name": "d1515b66857c226aaa65bb5ededf0192", "is_disabled": 0, "lat": 38.92359416666667, "rental_uris": {"ios": "https://dc.lft.to/lastmile_qr_scan", "android": "https://dc.lft.to/lastmile_qr_scan"}, "type": "electric_scooter", "lon": -77.0213565, "bike_id": "d1515b66857c226aaa65bb5ededf0192", "fusion_lon": 0.0}, {"is_reserved": 0, "fusion_lat": 0.0, "name": "886be5ead1ec45889c6a9b48282301c5", "is_disabled": 0, "lat": 38.900278166666666, "rental_uris": {"ios": "https://dc.lft.to/lastmile_qr_scan", "android": "https://dc.lft.to/lastmile_qr_scan"}, "type": "electric_scooter", "lon": -76.98846433333334, "bike_id": "886be5ead1ec45889c6a9b48282301c5", "fusion_lon": 0.0}, {"is_reserved": 0, "fusion_lat": 0.0, "name": "7e42686c9c23463247f91fecceb3c478", "is_disabled": 0, "lat": 38.91266266666667, "rental_uris": {"ios": "https://dc.lft.to/lastmile_qr_scan", "android": "https://dc.lft.to/lastmile_qr_scan"}, "type": "electric_scooter", "lon": -77.0222635, "bike_id": "7e42686c9c23463247f91fecceb3c478", "fusion_lon": 0.0}, {"is_reserved": 0, "fusion_lat": 0.0, "name": "4ee2b4cf19152e0fac952b482b457e87", "is_disabled": 0, "lat": 38.93385383333333, "rental_uris": {"ios": "https://dc.lft.to/lastmile_qr_scan", "android": "https://dc.lft.to/lastmile_qr_scan"}, "type": "electric_scooter", "lon": -77.0576435, "bike_id": "4ee2b4cf19152e0fac952b482b457e87", "fusion_lon": 0.0}, {"is_reserved": 0, "fusion_lat": 0.0, "name": "093f26143ac6e5d88c6a64704f6cbee7", "is_disabled": 0, "lat": 38.899337333333335, "rental_uris": {"ios": "https://dc.lft.to/lastmile_qr_scan", "android": "https://dc.lft.to/lastmile_qr_scan"}, "type": "electric_scooter", "lon": -76.93761916666666, "bike_id": "093f26143ac6e5d88c6a64704f6cbee7", "fusion_lon": 0.0}, {"is_reserved": 0, "fusion_lat": 0.0, "name": "3b99b069b291cee1a80b344e41429a5a", "is_disabled": 0, "lat": 38.92316, "rental_uris": {"ios": "https://dc.lft.to/lastmile_qr_scan", "android": "https://dc.lft.to/lastmile_qr_scan"}, "type": "electric_scooter", "lon": -77.02898533333334, "bike_id": "3b99b069b291cee1a80b344e41429a5a", "fusion_lon": 0.0}, {"is_reserved": 0, "fusion_lat": 0.0, "name": "5a785da5271e9fe55a028d7069d0da59", "is_disabled": 0, "lat": 38.882932333333336, "rental_uris": {"ios": "https://dc.lft.to/lastmile_qr_scan", "android": "https://dc.lft.to/lastmile_qr_scan"}, "type": "electric_scooter", "lon": -76.9855715, "bike_id": "5a785da5271e9fe55a028d7069d0da59", "fusion_lon": 0.0}, {"is_reserved": 0, "fusion_lat": 0.0, "name": "b7e754b074c221f23e2542e14c043217", "is_disabled": 0, "lat": 38.92238183333333, "rental_uris": {"ios": "https://dc.lft.to/lastmile_qr_scan", "android": "https://dc.lft.to/lastmile_qr_scan"}, "type": "electric_scooter", "lon": -77.02816583333333, "bike_id": "b7e754b074c221f23e2542e14c043217", "fusion_lon": 0.0}, {"is_reserved": 0, "fusion_lat": 0.0, "name": "7e4ff50d87da5ed0ede96ba6071ffde5", "is_disabled": 0, "lat": 38.89334566666667, "rental_uris": {"ios": "https://dc.lft.to/lastmile_qr_scan", "android": "https://dc.lft.to/lastmile_qr_scan"}, "type": "electric_scooter", "lon": -76.99378583333333, "bike_id": "7e4ff50d87da5ed0ede96ba6071ffde5", "fusion_lon": 0.0}, {"is_reserved": 0, "fusion_lat": 0.0, "name": "49c83d2f4edc95887586619946e56f29", "is_disabled": 0, "lat": 38.930163666666665, "rental_uris": {"ios": "https://dc.lft.to/lastmile_qr_scan", "android": "https://dc.lft.to/lastmile_qr_scan"}, "type": "electric_scooter", "lon": -77.01253916666667, "bike_id": "49c83d2f4edc95887586619946e56f29", "fusion_lon": 0.0}, {"is_reserved": 0, "fusion_lat": 0.0, "name": "70097294b00d0e23051995dccc6b02db", "is_disabled": 0, "lat": 38.872862, "rental_uris": {"ios": "https://dc.lft.to/lastmile_qr_scan", "android": "https://dc.lft.to/lastmile_qr_scan"}, "type": "electric_scooter", "lon": -77.00988033333333, "bike_id": "70097294b00d0e23051995dccc6b02db", "fusion_lon": 0.0}, {"is_reserved": 0, "fusion_lat": 0.0, "name": "5afab6a9e6957a48eb94e70931bae465", "is_disabled": 0, "lat": 38.8800645, "rental_uris": {"ios": "https://dc.lft.to/lastmile_qr_scan", "android": "https://dc.lft.to/lastmile_qr_scan"}, "type": "electric_scooter", "lon": -76.998335, "bike_id": "5afab6a9e6957a48eb94e70931bae465", "fusion_lon": 0.0}, {"is_reserved": 0, "fusion_lat": 0.0, "name": "ffe72928a73df2cf7c229e6651f1b5dc", "is_disabled": 0, "lat": 38.90189066666667, "rental_uris": {"ios": "https://dc.lft.to/lastmile_qr_scan", "android": "https://dc.lft.to/lastmile_qr_scan"}, "type": "electric_scooter", "lon": -76.97669966666666, "bike_id": "ffe72928a73df2cf7c229e6651f1b5dc", "fusion_lon": 0.0}, {"is_reserved": 0, "fusion_lat": 0.0, "name": "e9e335ac435d1218157d6a39c34221f7", "is_disabled": 0, "lat": 38.909940666666664, "rental_uris": {"ios": "https://dc.lft.to/lastmile_qr_scan", "android": "https://dc.lft.to/lastmile_qr_scan"}, "type": "electric_scooter", "lon": -77.03835, "bike_id": "e9e335ac435d1218157d6a39c34221f7", "fusion_lon": 0.0}, {"is_reserved": 0, "fusion_lat": 0.0, "name": "555d973d0c739bc6d00430045337cfdc", "is_disabled": 0, "lat": 38.926718, "rental_uris": {"ios": "https://dc.lft.to/lastmile_qr_scan", "android": "https://dc.lft.to/lastmile_qr_scan"}, "type": "electric_scooter", "lon": -77.01511383333333, "bike_id": "555d973d0c739bc6d00430045337cfdc", "fusion_lon": 0.0}, {"is_reserved": 0, "fusion_lat": 0.0, "name": "4d9300ff90f506866973f94a3217ade1", "is_disabled": 0, "lat": 38.933281666666666, "rental_uris": {"ios": "https://dc.lft.to/lastmile_qr_scan", "android": "https://dc.lft.to/lastmile_qr_scan"}, "type": "electric_bike", "lon": -77.0619055, "bike_id": "4d9300ff90f506866973f94a3217ade1", "fusion_lon": 0.0}, {"is_reserved": 0, "fusion_lat": 0.0, "name": "9d3d062f3fc2e5c687181f8c02235997", "is_disabled": 0, "lat": 38.927381, "rental_uris": {"ios": "https://dc.lft.to/lastmile_qr_scan", "android": "https://dc.lft.to/lastmile_qr_scan"}, "type": "electric_scooter", "lon": -77.03560183333333, "bike_id": "9d3d062f3fc2e5c687181f8c02235997", "fusion_lon": 0.0}, {"is_reserved": 0, "fusion_lat": 0.0, "name": "090f7d388619cabaabf37b944d382e59", "is_disabled": 0, "lat": 38.895091, "rental_uris": {"ios": "https://dc.lft.to/lastmile_qr_scan", "android": "https://dc.lft.to/lastmile_qr_scan"}, "type": "electric_scooter", "lon": -76.94884366666666, "bike_id": "090f7d388619cabaabf37b944d382e59", "fusion_lon": 0.0}, {"is_reserved": 0, "fusion_lat": 0.0, "name": "4f93c2f04142dc38c0bab45ad2d9ae61", "is_disabled": 0, "lat": 38.92855683333333, "rental_uris": {"ios": "https://dc.lft.to/lastmile_qr_scan", "android": "https://dc.lft.to/lastmile_qr_scan"}, "type": "electric_scooter", "lon": -77.01393983333334, "bike_id": "4f93c2f04142dc38c0bab45ad2d9ae61", "fusion_lon": 0.0}, {"is_reserved": 0, "fusion_lat": 0.0, "name": "4aaea3e1413f3cde3e9a9c5f665d9637", "is_disabled": 0, "lat": 38.933456, "rental_uris": {"ios": "https://dc.lft.to/lastmile_qr_scan", "android": "https://dc.lft.to/lastmile_qr_scan"}, "type": "electric_scooter", "lon": -77.05713833333333, "bike_id": "4aaea3e1413f3cde3e9a9c5f665d9637", "fusion_lon": 0.0}, {"is_reserved": 0, "fusion_lat": 0.0, "name": "8693336a1724c4ee60c8f8b2bb5d3cfa", "is_disabled": 0, "lat": 38.878825, "rental_uris": {"ios": "https://dc.lft.to/lastmile_qr_scan", "android": "https://dc.lft.to/lastmile_qr_scan"}, "type": "electric_scooter", "lon": -77.02317683333334, "bike_id": "8693336a1724c4ee60c8f8b2bb5d3cfa", "fusion_lon": 0.0}, {"is_reserved": 0, "fusion_lat": 0.0, "name": "0ed6c4c954117e7e4ce37ea729dc5596", "is_disabled": 0, "lat": 38.9238665, "rental_uris": {"ios": "https://dc.lft.to/lastmile_qr_scan", "android": "https://dc.lft.to/lastmile_qr_scan"}, "type": "electric_scooter", "lon": -77.04300266666667, "bike_id": "0ed6c4c954117e7e4ce37ea729dc5596", "fusion_lon": 0.0}, {"is_reserved": 0, "fusion_lat": 0.0, "name": "37757402e27e26789e2896fedf8eed94", "is_disabled": 0, "lat": 38.89623916666667, "rental_uris": {"ios": "https://dc.lft.to/lastmile_qr_scan", "android": "https://dc.lft.to/lastmile_qr_scan"}, "type": "electric_scooter", "lon": -77.0262095, "bike_id": "37757402e27e26789e2896fedf8eed94", "fusion_lon": 0.0}, {"is_reserved": 0, "fusion_lat": 0.0, "name": "68f97a82f2fc148d3376ecf669eb3b43", "is_disabled": 0, "lat": 38.893351333333335, "rental_uris": {"ios": "https://dc.lft.to/lastmile_qr_scan", "android": "https://dc.lft.to/lastmile_qr_scan"}, "type": "electric_scooter", "lon": -76.93931466666666, "bike_id": "68f97a82f2fc148d3376ecf669eb3b43", "fusion_lon": 0.0}, {"is_reserved": 0, "fusion_lat": 0.0, "name": "58c3f4841477975b309a295a0ee91ce5", "is_disabled": 0, "lat": 38.875433666666666, "rental_uris": {"ios": "https://dc.lft.to/lastmile_qr_scan", "android": "https://dc.lft.to/lastmile_qr_scan"}, "type": "electric_scooter", "lon": -77.005392, "bike_id": "58c3f4841477975b309a295a0ee91ce5", "fusion_lon": 0.0}, {"is_reserved": 0, "fusion_lat": 0.0, "name": "da8bba36c0b2ca4f4166d445fb366e2b", "is_disabled": 0, "lat": 38.924393, "rental_uris": {"ios": "https://dc.lft.to/lastmile_qr_scan", "android": "https://dc.lft.to/lastmile_qr_scan"}, "type": "electric_scooter", "lon": -77.04241416666666, "bike_id": "da8bba36c0b2ca4f4166d445fb366e2b", "fusion_lon": 0.0}, {"is_reserved": 0, "fusion_lat": 0.0, "name": "2aad10dd6402655eea6332a540a89127", "is_disabled": 0, "lat": 38.89975833333333, "rental_uris": {"ios": "https://dc.lft.to/lastmile_qr_scan", "android": "https://dc.lft.to/lastmile_qr_scan"}, "type": "electric_scooter", "lon": -77.02156366666667, "bike_id": "2aad10dd6402655eea6332a540a89127", "fusion_lon": 0.0}, {"is_reserved": 0, "fusion_lat": 0.0, "name": "b2a3a2335abdb6fb025c2bea8eea0949", "is_disabled": 0, "lat": 38.8757715, "rental_uris": {"ios": "https://dc.lft.to/lastmile_qr_scan", "android": "https://dc.lft.to/lastmile_qr_scan"}, "type": "electric_bike", "lon": -77.23408216666667, "bike_id": "b2a3a2335abdb6fb025c2bea8eea0949", "fusion_lon": 0.0}, {"is_reserved": 0, "fusion_lat": 0.0, "name": "2a4a8a635a4121acc153435e904cf051", "is_disabled": 0, "lat": 38.9020235, "rental_uris": {"ios": "https://dc.lft.to/lastmile_qr_scan", "android": "https://dc.lft.to/lastmile_qr_scan"}, "type": "electric_scooter", "lon": -77.02353816666667, "bike_id": "2a4a8a635a4121acc153435e904cf051", "fusion_lon": 0.0}, {"is_reserved": 0, "fusion_lat": 0.0, "name": "9153ba9508e3617988d0fef195cf41a4", "is_disabled": 0, "lat": 38.920593, "rental_uris": {"ios": "https://dc.lft.to/lastmile_qr_scan", "android": "https://dc.lft.to/lastmile_qr_scan"}, "type": "electric_scooter", "lon": -77.0230025, "bike_id": "9153ba9508e3617988d0fef195cf41a4", "fusion_lon": 0.0}, {"is_reserved": 0, "fusion_lat": 0.0, "name": "9147c0dc8086f7dd073fbbc0611ca921", "is_disabled": 0, "lat": 38.9563665, "rental_uris": {"ios": "https://dc.lft.to/lastmile_qr_scan", "android": "https://dc.lft.to/lastmile_qr_scan"}, "type": "electric_scooter", "lon": -77.03629083333334, "bike_id": "9147c0dc8086f7dd073fbbc0611ca921", "fusion_lon": 0.0}, {"is_reserved": 0, "fusion_lat": 0.0, "name": "e33b8fe740b674d3620665a74d4bf046", "is_disabled": 0, "lat": 38.91554583333333, "rental_uris": {"ios": "https://dc.lft.to/lastmile_qr_scan", "android": "https://dc.lft.to/lastmile_qr_scan"}, "type": "electric_scooter", "lon": -77.02425966666667, "bike_id": "e33b8fe740b674d3620665a74d4bf046", "fusion_lon": 0.0}, {"is_reserved": 0, "fusion_lat": 0.0, "name": "7ea34f07e46b22b2bcfe0edc478c8a8a", "is_disabled": 0, "lat": 38.91783133333333, "rental_uris": {"ios": "https://dc.lft.to/lastmile_qr_scan", "android": "https://dc.lft.to/lastmile_qr_scan"}, "type": "electric_scooter", "lon": -77.02327983333333, "bike_id": "7ea34f07e46b22b2bcfe0edc478c8a8a", "fusion_lon": 0.0}, {"is_reserved": 0, "fusion_lat": 0.0, "name": "3100bc9c4b68631121845ef2a457bbbb", "is_disabled": 0, "lat": 38.900592833333334, "rental_uris": {"ios": "https://dc.lft.to/lastmile_qr_scan", "android": "https://dc.lft.to/lastmile_qr_scan"}, "type": "electric_scooter", "lon": -77.04548816666667, "bike_id": "3100bc9c4b68631121845ef2a457bbbb", "fusion_lon": 0.0}, {"is_reserved": 0, "fusion_lat": 0.0, "name": "7025d7ab47f1326ea4e181428c7c8299", "is_disabled": 0, "lat": 38.89954133333333, "rental_uris": {"ios": "https://dc.lft.to/lastmile_qr_scan", "android": "https://dc.lft.to/lastmile_qr_scan"}, "type": "electric_scooter", "lon": -77.01511333333333, "bike_id": "7025d7ab47f1326ea4e181428c7c8299", "fusion_lon": 0.0}, {"is_reserved": 0, "fusion_lat": 0.0, "name": "07f35c85db80cebf2e82994d71c0d575", "is_disabled": 0, "lat": 38.9035615, "rental_uris": {"ios": "https://dc.lft.to/lastmile_qr_scan", "android": "https://dc.lft.to/lastmile_qr_scan"}, "type": "electric_scooter", "lon": -77.02617466666666, "bike_id": "07f35c85db80cebf2e82994d71c0d575", "fusion_lon": 0.0}, {"is_reserved": 0, "fusion_lat": 0.0, "name": "175a41964bfae8dd563db3f51992197c", "is_disabled": 0, "lat": 38.9302755, "rental_uris": {"ios": "https://dc.lft.to/lastmile_qr_scan", "android": "https://dc.lft.to/lastmile_qr_scan"}, "type": "electric_scooter", "lon": -77.03804016666666, "bike_id": "175a41964bfae8dd563db3f51992197c", "fusion_lon": 0.0}, {"is_reserved": 0, "fusion_lat": 0.0, "name": "197789ef32398e8f09d8bc373a7bbec6", "is_disabled": 0, "lat": 38.93061383333333, "rental_uris": {"ios": "https://dc.lft.to/lastmile_qr_scan", "android": "https://dc.lft.to/lastmile_qr_scan"}, "type": "electric_scooter", "lon": -77.02323083333333, "bike_id": "197789ef32398e8f09d8bc373a7bbec6", "fusion_lon": 0.0}, {"is_reserved": 0, "fusion_lat": 0.0, "name": "e20abd4196a4bb857186b431afddee8d", "is_disabled": 0, "lat": 38.89738716666667, "rental_uris": {"ios": "https://dc.lft.to/lastmile_qr_scan", "android": "https://dc.lft.to/lastmile_qr_scan"}, "type": "electric_scooter", "lon": -77.027066, "bike_id": "e20abd4196a4bb857186b431afddee8d", "fusion_lon": 0.0}, {"is_reserved": 0, "fusion_lat": 0.0, "name": "5b6005fc694d1bedf68314dc2ae7f034", "is_disabled": 0, "lat": 38.92080633333333, "rental_uris": {"ios": "https://dc.lft.to/lastmile_qr_scan", "android": "https://dc.lft.to/lastmile_qr_scan"}, "type": "electric_scooter", "lon": -77.03888483333333, "bike_id": "5b6005fc694d1bedf68314dc2ae7f034", "fusion_lon": 0.0}, {"is_reserved": 0, "fusion_lat": 0.0, "name": "93f4174d322a044d0d1f3054166ff203", "is_disabled": 0, "lat": 38.904085333333335, "rental_uris": {"ios": "https://dc.lft.to/lastmile_qr_scan", "android": "https://dc.lft.to/lastmile_qr_scan"}, "type": "electric_scooter", "lon": -77.02059083333333, "bike_id": "93f4174d322a044d0d1f3054166ff203", "fusion_lon": 0.0}, {"is_reserved": 0, "fusion_lat": 0.0, "name": "cbb59b8dde970f899b9a1c5e5cf88b2d", "is_disabled": 0, "lat": 38.8978725, "rental_uris": {"ios": "https://dc.lft.to/lastmile_qr_scan", "android": "https://dc.lft.to/lastmile_qr_scan"}, "type": "electric_scooter", "lon": -77.049692, "bike_id": "cbb59b8dde970f899b9a1c5e5cf88b2d", "fusion_lon": 0.0}, {"is_reserved": 0, "fusion_lat": 0.0, "name": "8a722f4d700318c58b3a395ad182b63e", "is_disabled": 0, "lat": 38.91364083333333, "rental_uris": {"ios": "https://dc.lft.to/lastmile_qr_scan", "android": "https://dc.lft.to/lastmile_qr_scan"}, "type": "electric_scooter", "lon": -77.044924, "bike_id": "8a722f4d700318c58b3a395ad182b63e", "fusion_lon": 0.0}, {"is_reserved": 0, "fusion_lat": 0.0, "name": "8c8f44d4be0273836ff88005895506a1", "is_disabled": 0, "lat": 38.924240166666664, "rental_uris": {"ios": "https://dc.lft.to/lastmile_qr_scan", "android": "https://dc.lft.to/lastmile_qr_scan"}, "type": "electric_scooter", "lon": -77.02259816666667, "bike_id": "8c8f44d4be0273836ff88005895506a1", "fusion_lon": 0.0}, {"is_reserved": 0, "fusion_lat": 0.0, "name": "e2f90184b3b5285427f071c9c15614d3", "is_disabled": 0, "lat": 38.905781166666664, "rental_uris": {"ios": "https://dc.lft.to/lastmile_qr_scan", "android": "https://dc.lft.to/lastmile_qr_scan"}, "type": "electric_scooter", "lon": -76.99096066666667, "bike_id": "e2f90184b3b5285427f071c9c15614d3", "fusion_lon": 0.0}, {"is_reserved": 0, "fusion_lat": 0.0, "name": "eeafbab592182ec3fa721b7e8066e75a", "is_disabled": 0, "lat": 38.911872833333334, "rental_uris": {"ios": "https://dc.lft.to/lastmile_qr_scan", "android": "https://dc.lft.to/lastmile_qr_scan"}, "type": "electric_scooter", "lon": -77.06616083333333, "bike_id": "eeafbab592182ec3fa721b7e8066e75a", "fusion_lon": 0.0}, {"is_reserved": 0, "fusion_lat": 0.0, "name": "e56815aee43e6381bcb9671d422507d0", "is_disabled": 0, "lat": 38.885553333333334, "rental_uris": {"ios": "https://dc.lft.to/lastmile_qr_scan", "android": "https://dc.lft.to/lastmile_qr_scan"}, "type": "electric_scooter", "lon": -77.0198555, "bike_id": "e56815aee43e6381bcb9671d422507d0", "fusion_lon": 0.0}, {"is_reserved": 0, "fusion_lat": 0.0, "name": "af5e00a97625675a98c6d2783781d030", "is_disabled": 0, "lat": 38.915398, "rental_uris": {"ios": "https://dc.lft.to/lastmile_qr_scan", "android": "https://dc.lft.to/lastmile_qr_scan"}, "type": "electric_scooter", "lon": -77.07543883333334, "bike_id": "af5e00a97625675a98c6d2783781d030", "fusion_lon": 0.0}, {"is_reserved": 0, "fusion_lat": 0.0, "name": "64130c95477d115dd4fb09e34a2f1f45", "is_disabled": 0, "lat": 38.94152666666667, "rental_uris": {"ios": "https://dc.lft.to/lastmile_qr_scan", "android": "https://dc.lft.to/lastmile_qr_scan"}, "type": "electric_bike", "lon": -77.00193633333333, "bike_id": "64130c95477d115dd4fb09e34a2f1f45", "fusion_lon": 0.0}, {"is_reserved": 0, "fusion_lat": 0.0, "name": "28ef3f6744d8a5580f3243ca64c2dc3b", "is_disabled": 0, "lat": 38.9155775, "rental_uris": {"ios": "https://dc.lft.to/lastmile_qr_scan", "android": "https://dc.lft.to/lastmile_qr_scan"}, "type": "electric_scooter", "lon": -77.0675805, "bike_id": "28ef3f6744d8a5580f3243ca64c2dc3b", "fusion_lon": 0.0}, {"is_reserved": 0, "fusion_lat": 0.0, "name": "23ca33ff2c429d54c5b2ad2da1d63fb1", "is_disabled": 0, "lat": 38.95688333333333, "rental_uris": {"ios": "https://dc.lft.to/lastmile_qr_scan", "android": "https://dc.lft.to/lastmile_qr_scan"}, "type": "electric_scooter", "lon": -77.011459, "bike_id": "23ca33ff2c429d54c5b2ad2da1d63fb1", "fusion_lon": 0.0}, {"is_reserved": 0, "fusion_lat": 0.0, "name": "4fa85d93ff3fee80e186e7ab393b6ddb", "is_disabled": 0, "lat": 38.90033116666667, "rental_uris": {"ios": "https://dc.lft.to/lastmile_qr_scan", "android": "https://dc.lft.to/lastmile_qr_scan"}, "type": "electric_bike", "lon": -76.972241, "bike_id": "4fa85d93ff3fee80e186e7ab393b6ddb", "fusion_lon": 0.0}, {"is_reserved": 0, "fusion_lat": 0.0, "name": "c0fabe9c530bcae2300410ba95cbd8ec", "is_disabled": 0, "lat": 38.99881933333333, "rental_uris": {"ios": "https://dc.lft.to/lastmile_qr_scan", "android": "https://dc.lft.to/lastmile_qr_scan"}, "type": "electric_bike", "lon": -76.91078283333333, "bike_id": "c0fabe9c530bcae2300410ba95cbd8ec", "fusion_lon": 0.0}, {"is_reserved": 0, "fusion_lat": 0.0, "name": "6293e45b415794979183a2792863aefc", "is_disabled": 0, "lat": 38.8662355, "rental_uris": {"ios": "https://dc.lft.to/lastmile_qr_scan", "android": "https://dc.lft.to/lastmile_qr_scan"}, "type": "electric_bike", "lon": -76.9457075, "bike_id": "6293e45b415794979183a2792863aefc", "fusion_lon": 0.0}, {"is_reserved": 0, "fusion_lat": 0.0, "name": "f1e6eacbe9b059d9163379dcb8c9e24c", "is_disabled": 0, "lat": 38.9027945, "rental_uris": {"ios": "https://dc.lft.to/lastmile_qr_scan", "android": "https://dc.lft.to/lastmile_qr_scan"}, "type": "electric_scooter", "lon": -77.0231265, "bike_id": "f1e6eacbe9b059d9163379dcb8c9e24c", "fusion_lon": 0.0}, {"is_reserved": 0, "fusion_lat": 0.0, "name": "69a7b5f75cb08a17db222debe728c54f", "is_disabled": 0, "lat": 38.91569333333333, "rental_uris": {"ios": "https://dc.lft.to/lastmile_qr_scan", "android": "https://dc.lft.to/lastmile_qr_scan"}, "type": "electric_scooter", "lon": -77.04633116666666, "bike_id": "69a7b5f75cb08a17db222debe728c54f", "fusion_lon": 0.0}, {"is_reserved": 0, "fusion_lat": 0.0, "name": "3b160e5b3b780e25ad4e5df504181975", "is_disabled": 0, "lat": 38.8876665, "rental_uris": {"ios": "https://dc.lft.to/lastmile_qr_scan", "android": "https://dc.lft.to/lastmile_qr_scan"}, "type": "electric_scooter", "lon": -76.97730083333333, "bike_id": "3b160e5b3b780e25ad4e5df504181975", "fusion_lon": 0.0}, {"is_reserved": 0, "fusion_lat": 0.0, "name": "0f0d4df14fc2d306516bb1fc9ac55f36", "is_disabled": 0, "lat": 38.9126435, "rental_uris": {"ios": "https://dc.lft.to/lastmile_qr_scan", "android": "https://dc.lft.to/lastmile_qr_scan"}, "type": "electric_scooter", "lon": -77.04761416666666, "bike_id": "0f0d4df14fc2d306516bb1fc9ac55f36", "fusion_lon": 0.0}, {"is_reserved": 0, "fusion_lat": 0.0, "name": "8eccbaa8967d08ec9d05b944dd78194c", "is_disabled": 0, "lat": 38.88769966666667, "rental_uris": {"ios": "https://dc.lft.to/lastmile_qr_scan", "android": "https://dc.lft.to/lastmile_qr_scan"}, "type": "electric_scooter", "lon": -76.9773235, "bike_id": "8eccbaa8967d08ec9d05b944dd78194c", "fusion_lon": 0.0}, {"is_reserved": 0, "fusion_lat": 0.0, "name": "4ad4234009a3541f1b76dc98bab2570c", "is_disabled": 0, "lat": 38.8986745, "rental_uris": {"ios": "https://dc.lft.to/lastmile_qr_scan", "android": "https://dc.lft.to/lastmile_qr_scan"}, "type": "electric_scooter", "lon": -76.94663133333333, "bike_id": "4ad4234009a3541f1b76dc98bab2570c", "fusion_lon": 0.0}, {"is_reserved": 0, "fusion_lat": 0.0, "name": "dfce70b689508eb514b66a4aa2db9533", "is_disabled": 0, "lat": 38.91775, "rental_uris": {"ios": "https://dc.lft.to/lastmile_qr_scan", "android": "https://dc.lft.to/lastmile_qr_scan"}, "type": "electric_scooter", "lon": -77.023335, "bike_id": "dfce70b689508eb514b66a4aa2db9533", "fusion_lon": 0.0}, {"is_reserved": 0, "fusion_lat": 0.0, "name": "1f69f57156d4c7085d1aee1aa4332901", "is_disabled": 0, "lat": 38.876257, "rental_uris": {"ios": "https://dc.lft.to/lastmile_qr_scan", "android": "https://dc.lft.to/lastmile_qr_scan"}, "type": "electric_scooter", "lon": -77.00212466666666, "bike_id": "1f69f57156d4c7085d1aee1aa4332901", "fusion_lon": 0.0}, {"is_reserved": 0, "fusion_lat": 0.0, "name": "a49a552e58653d1a891f42017d690702", "is_disabled": 0, "lat": 38.92463, "rental_uris": {"ios": "https://dc.lft.to/lastmile_qr_scan", "android": "https://dc.lft.to/lastmile_qr_scan"}, "type": "electric_scooter", "lon": -77.02187966666666, "bike_id": "a49a552e58653d1a891f42017d690702", "fusion_lon": 0.0}, {"is_reserved": 0, "fusion_lat": 0.0, "name": "47f37b22a22f39911dacc7e7c5c5a865", "is_disabled": 0, "lat": 38.91808283333334, "rental_uris": {"ios": "https://dc.lft.to/lastmile_qr_scan", "android": "https://dc.lft.to/lastmile_qr_scan"}, "type": "electric_scooter", "lon": -77.026829, "bike_id": "47f37b22a22f39911dacc7e7c5c5a865", "fusion_lon": 0.0}, {"is_reserved": 0, "fusion_lat": 0.0, "name": "eb28019426871524189f621bcf185376", "is_disabled": 0, "lat": 38.903861166666665, "rental_uris": {"ios": "https://dc.lft.to/lastmile_qr_scan", "android": "https://dc.lft.to/lastmile_qr_scan"}, "type": "electric_scooter", "lon": -77.06102383333334, "bike_id": "eb28019426871524189f621bcf185376", "fusion_lon": 0.0}, {"is_reserved": 0, "fusion_lat": 0.0, "name": "fd16057ee72c7f2b61e352e4928829c1", "is_disabled": 0, "lat": 38.907443, "rental_uris": {"ios": "https://dc.lft.to/lastmile_qr_scan", "android": "https://dc.lft.to/lastmile_qr_scan"}, "type": "electric_scooter", "lon": -77.04155066666667, "bike_id": "fd16057ee72c7f2b61e352e4928829c1", "fusion_lon": 0.0}, {"is_reserved": 0, "fusion_lat": 0.0, "name": "46933fc785c1999981f6b593489d4a53", "is_disabled": 0, "lat": 38.94454666666667, "rental_uris": {"ios": "https://dc.lft.to/lastmile_qr_scan", "android": "https://dc.lft.to/lastmile_qr_scan"}, "type": "electric_scooter", "lon": -77.02803816666666, "bike_id": "46933fc785c1999981f6b593489d4a53", "fusion_lon": 0.0}, {"is_reserved": 0, "fusion_lat": 0.0, "name": "4b8832b9376acfb58dc4606d3b408d30", "is_disabled": 0, "lat": 38.9012675, "rental_uris": {"ios": "https://dc.lft.to/lastmile_qr_scan", "android": "https://dc.lft.to/lastmile_qr_scan"}, "type": "electric_scooter", "lon": -77.04337866666667, "bike_id": "4b8832b9376acfb58dc4606d3b408d30", "fusion_lon": 0.0}, {"is_reserved": 0, "fusion_lat": 0.0, "name": "753105e71bf94dcad0bee2e5aefbea8e", "is_disabled": 0, "lat": 38.900612, "rental_uris": {"ios": "https://dc.lft.to/lastmile_qr_scan", "android": "https://dc.lft.to/lastmile_qr_scan"}, "type": "electric_scooter", "lon": -77.047352, "bike_id": "753105e71bf94dcad0bee2e5aefbea8e", "fusion_lon": 0.0}, {"is_reserved": 0, "fusion_lat": 0.0, "name": "11b23a4cedd600a52434c75d4a313031", "is_disabled": 0, "lat": 38.9128515, "rental_uris": {"ios": "https://dc.lft.to/lastmile_qr_scan", "android": "https://dc.lft.to/lastmile_qr_scan"}, "type": "electric_scooter", "lon": -77.067908, "bike_id": "11b23a4cedd600a52434c75d4a313031", "fusion_lon": 0.0}, {"is_reserved": 0, "fusion_lat": 0.0, "name": "4601f5a8582f52541791c5b6f686c169", "is_disabled": 0, "lat": 38.884751666666666, "rental_uris": {"ios": "https://dc.lft.to/lastmile_qr_scan", "android": "https://dc.lft.to/lastmile_qr_scan"}, "type": "electric_scooter", "lon": -77.03344933333334, "bike_id": "4601f5a8582f52541791c5b6f686c169", "fusion_lon": 0.0}, {"is_reserved": 0, "fusion_lat": 0.0, "name": "b7358ef81d404f571185db83e2fdf86d", "is_disabled": 0, "lat": 38.933460833333335, "rental_uris": {"ios": "https://dc.lft.to/lastmile_qr_scan", "android": "https://dc.lft.to/lastmile_qr_scan"}, "type": "electric_scooter", "lon": -77.02741933333333, "bike_id": "b7358ef81d404f571185db83e2fdf86d", "fusion_lon": 0.0}, {"is_reserved": 0, "fusion_lat": 0.0, "name": "5537df47d61fb5c190a7917e990dcd0a", "is_disabled": 0, "lat": 38.901701833333334, "rental_uris": {"ios": "https://dc.lft.to/lastmile_qr_scan", "android": "https://dc.lft.to/lastmile_qr_scan"}, "type": "electric_scooter", "lon": -77.02215466666667, "bike_id": "5537df47d61fb5c190a7917e990dcd0a", "fusion_lon": 0.0}, {"is_reserved": 0, "fusion_lat": 0.0, "name": "43000e65a0b99fbe073787266166040d", "is_disabled": 0, "lat": 38.871664833333334, "rental_uris": {"ios": "https://dc.lft.to/lastmile_qr_scan", "android": "https://dc.lft.to/lastmile_qr_scan"}, "type": "electric_scooter", "lon": -77.00634216666667, "bike_id": "43000e65a0b99fbe073787266166040d", "fusion_lon": 0.0}, {"is_reserved": 0, "fusion_lat": 0.0, "name": "23478fb60a30d1c9cad1465d5210d7ea", "is_disabled": 0, "lat": 38.91379283333333, "rental_uris": {"ios": "https://dc.lft.to/lastmile_qr_scan", "android": "https://dc.lft.to/lastmile_qr_scan"}, "type": "electric_scooter", "lon": -77.03838483333334, "bike_id": "23478fb60a30d1c9cad1465d5210d7ea", "fusion_lon": 0.0}, {"is_reserved": 0, "fusion_lat": 0.0, "name": "306356afa982201cbecc5be212c1ecd5", "is_disabled": 0, "lat": 38.924814833333336, "rental_uris": {"ios": "https://dc.lft.to/lastmile_qr_scan", "android": "https://dc.lft.to/lastmile_qr_scan"}, "type": "electric_scooter", "lon": -77.027116, "bike_id": "306356afa982201cbecc5be212c1ecd5", "fusion_lon": 0.0}, {"is_reserved": 0, "fusion_lat": 0.0, "name": "9e8c391ae5e914e220da1bc3b8460ae4", "is_disabled": 0, "lat": 38.89884133333334, "rental_uris": {"ios": "https://dc.lft.to/lastmile_qr_scan", "android": "https://dc.lft.to/lastmile_qr_scan"}, "type": "electric_scooter", "lon": -77.0401575, "bike_id": "9e8c391ae5e914e220da1bc3b8460ae4", "fusion_lon": 0.0}, {"is_reserved": 0, "fusion_lat": 0.0, "name": "61ee3e3d2fc9dc0ce8e8fd962a741f73", "is_disabled": 0, "lat": 38.90034883333333, "rental_uris": {"ios": "https://dc.lft.to/lastmile_qr_scan", "android": "https://dc.lft.to/lastmile_qr_scan"}, "type": "electric_scooter", "lon": -77.01225833333334, "bike_id": "61ee3e3d2fc9dc0ce8e8fd962a741f73", "fusion_lon": 0.0}, {"is_reserved": 0, "fusion_lat": 0.0, "name": "ff8b4efe0be9e9a4f55d92cd78d2523c", "is_disabled": 0, "lat": 38.902414, "rental_uris": {"ios": "https://dc.lft.to/lastmile_qr_scan", "android": "https://dc.lft.to/lastmile_qr_scan"}, "type": "electric_scooter", "lon": -77.05160233333334, "bike_id": "ff8b4efe0be9e9a4f55d92cd78d2523c", "fusion_lon": 0.0}, {"is_reserved": 0, "fusion_lat": 0.0, "name": "f21d78edf8a1f4f19dd228cd1db626d5", "is_disabled": 0, "lat": 38.92468216666666, "rental_uris": {"ios": "https://dc.lft.to/lastmile_qr_scan", "android": "https://dc.lft.to/lastmile_qr_scan"}, "type": "electric_scooter", "lon": -77.03549783333334, "bike_id": "f21d78edf8a1f4f19dd228cd1db626d5", "fusion_lon": 0.0}, {"is_reserved": 0, "fusion_lat": 0.0, "name": "9e39b67682d0174beee67e7e0e4afa6d", "is_disabled": 0, "lat": 38.923538, "rental_uris": {"ios": "https://dc.lft.to/lastmile_qr_scan", "android": "https://dc.lft.to/lastmile_qr_scan"}, "type": "electric_scooter", "lon": -77.02057183333334, "bike_id": "9e39b67682d0174beee67e7e0e4afa6d", "fusion_lon": 0.0}, {"is_reserved": 0, "fusion_lat": 0.0, "name": "ccdff20a9b33d7ec127832f29a84e734", "is_disabled": 0, "lat": 38.88722116666667, "rental_uris": {"ios": "https://dc.lft.to/lastmile_qr_scan", "android": "https://dc.lft.to/lastmile_qr_scan"}, "type": "electric_scooter", "lon": -76.99610083333333, "bike_id": "ccdff20a9b33d7ec127832f29a84e734", "fusion_lon": 0.0}, {"is_reserved": 0, "fusion_lat": 0.0, "name": "964670e21d923869d09a46276ed631c7", "is_disabled": 0, "lat": 38.87671816666667, "rental_uris": {"ios": "https://dc.lft.to/lastmile_qr_scan", "android": "https://dc.lft.to/lastmile_qr_scan"}, "type": "electric_scooter", "lon": -77.007517, "bike_id": "964670e21d923869d09a46276ed631c7", "fusion_lon": 0.0}, {"is_reserved": 0, "fusion_lat": 0.0, "name": "3150e31f3dc79c001f4fa34f77a734e5", "is_disabled": 0, "lat": 38.93603783333333, "rental_uris": {"ios": "https://dc.lft.to/lastmile_qr_scan", "android": "https://dc.lft.to/lastmile_qr_scan"}, "type": "electric_scooter", "lon": -77.07429383333333, "bike_id": "3150e31f3dc79c001f4fa34f77a734e5", "fusion_lon": 0.0}, {"is_reserved": 0, "fusion_lat": 0.0, "name": "751e0c288adb40c6d9dbf758ac9f9983", "is_disabled": 0, "lat": 38.902095333333335, "rental_uris": {"ios": "https://dc.lft.to/lastmile_qr_scan", "android": "https://dc.lft.to/lastmile_qr_scan"}, "type": "electric_scooter", "lon": -77.0465475, "bike_id": "751e0c288adb40c6d9dbf758ac9f9983", "fusion_lon": 0.0}, {"is_reserved": 0, "fusion_lat": 0.0, "name": "7b74af49707885771c6cad17fd2f5042", "is_disabled": 0, "lat": 38.9248015, "rental_uris": {"ios": "https://dc.lft.to/lastmile_qr_scan", "android": "https://dc.lft.to/lastmile_qr_scan"}, "type": "electric_scooter", "lon": -77.02572466666666, "bike_id": "7b74af49707885771c6cad17fd2f5042", "fusion_lon": 0.0}, {"is_reserved": 0, "fusion_lat": 0.0, "name": "e6a71fbc62179d2d3c4b476a47105d68", "is_disabled": 0, "lat": 38.8996355, "rental_uris": {"ios": "https://dc.lft.to/lastmile_qr_scan", "android": "https://dc.lft.to/lastmile_qr_scan"}, "type": "electric_bike", "lon": -76.98669366666667, "bike_id": "e6a71fbc62179d2d3c4b476a47105d68", "fusion_lon": 0.0}, {"is_reserved": 0, "fusion_lat": 0.0, "name": "06d65b67c1ff2574061fc95a8e905aeb", "is_disabled": 0, "lat": 38.921612, "rental_uris": {"ios": "https://dc.lft.to/lastmile_qr_scan", "android": "https://dc.lft.to/lastmile_qr_scan"}, "type": "electric_scooter", "lon": -77.0209265, "bike_id": "06d65b67c1ff2574061fc95a8e905aeb", "fusion_lon": 0.0}, {"is_reserved": 0, "fusion_lat": 0.0, "name": "e75ff9ca3d60581d1deed88d59cfec25", "is_disabled": 0, "lat": 38.90756616666667, "rental_uris": {"ios": "https://dc.lft.to/lastmile_qr_scan", "android": "https://dc.lft.to/lastmile_qr_scan"}, "type": "electric_scooter", "lon": -77.04524116666667, "bike_id": "e75ff9ca3d60581d1deed88d59cfec25", "fusion_lon": 0.0}, {"is_reserved": 0, "fusion_lat": 0.0, "name": "4db19bd898de015ff739b38fcad722ff", "is_disabled": 0, "lat": 38.95843883333333, "rental_uris": {"ios": "https://dc.lft.to/lastmile_qr_scan", "android": "https://dc.lft.to/lastmile_qr_scan"}, "type": "electric_scooter", "lon": -77.07160333333333, "bike_id": "4db19bd898de015ff739b38fcad722ff", "fusion_lon": 0.0}, {"is_reserved": 0, "fusion_lat": 0.0, "name": "a05d05e4b4b230a86950610b62885bb8", "is_disabled": 0, "lat": 38.900182666666666, "rental_uris": {"ios": "https://dc.lft.to/lastmile_qr_scan", "android": "https://dc.lft.to/lastmile_qr_scan"}, "type": "electric_scooter", "lon": -77.04502333333333, "bike_id": "a05d05e4b4b230a86950610b62885bb8", "fusion_lon": 0.0}, {"is_reserved": 0, "fusion_lat": 0.0, "name": "5c1025cca45510542e1c1148ad99bb5e", "is_disabled": 0, "lat": 38.905148833333335, "rental_uris": {"ios": "https://dc.lft.to/lastmile_qr_scan", "android": "https://dc.lft.to/lastmile_qr_scan"}, "type": "electric_scooter", "lon": -76.98393333333334, "bike_id": "5c1025cca45510542e1c1148ad99bb5e", "fusion_lon": 0.0}, {"is_reserved": 0, "fusion_lat": 0.0, "name": "5251e863e0f56d5133d8009c857de661", "is_disabled": 0, "lat": 38.9012575, "rental_uris": {"ios": "https://dc.lft.to/lastmile_qr_scan", "android": "https://dc.lft.to/lastmile_qr_scan"}, "type": "electric_scooter", "lon": -77.02180166666666, "bike_id": "5251e863e0f56d5133d8009c857de661", "fusion_lon": 0.0}, {"is_reserved": 0, "fusion_lat": 0.0, "name": "fc1f36dbdbc47c98d2e158381831591e", "is_disabled": 0, "lat": 38.9175345, "rental_uris": {"ios": "https://dc.lft.to/lastmile_qr_scan", "android": "https://dc.lft.to/lastmile_qr_scan"}, "type": "electric_scooter", "lon": -77.02386816666667, "bike_id": "fc1f36dbdbc47c98d2e158381831591e", "fusion_lon": 0.0}, {"is_reserved": 0, "fusion_lat": 0.0, "name": "227a1ce5ec79534e4bc58767b9c0b277", "is_disabled": 0, "lat": 38.82207533333333, "rental_uris": {"ios": "https://dc.lft.to/lastmile_qr_scan", "android": "https://dc.lft.to/lastmile_qr_scan"}, "type": "electric_bike", "lon": -76.97697233333334, "bike_id": "227a1ce5ec79534e4bc58767b9c0b277", "fusion_lon": 0.0}, {"is_reserved": 0, "fusion_lat": 0.0, "name": "0366abdc8be9682c469763fcb0ba62b1", "is_disabled": 0, "lat": 38.90680566666666, "rental_uris": {"ios": "https://dc.lft.to/lastmile_qr_scan", "android": "https://dc.lft.to/lastmile_qr_scan"}, "type": "electric_scooter", "lon": -77.027004, "bike_id": "0366abdc8be9682c469763fcb0ba62b1", "fusion_lon": 0.0}, {"is_reserved": 0, "fusion_lat": 0.0, "name": "6211d0f6e471f7e76ac1d78f99d42b23", "is_disabled": 0, "lat": 38.923674166666665, "rental_uris": {"ios": "https://dc.lft.to/lastmile_qr_scan", "android": "https://dc.lft.to/lastmile_qr_scan"}, "type": "electric_scooter", "lon": -77.01953733333333, "bike_id": "6211d0f6e471f7e76ac1d78f99d42b23", "fusion_lon": 0.0}, {"is_reserved": 0, "fusion_lat": 0.0, "name": "56e2f78f26f63d51b4dfacdc4d3bb555", "is_disabled": 0, "lat": 38.91109566666667, "rental_uris": {"ios": "https://dc.lft.to/lastmile_qr_scan", "android": "https://dc.lft.to/lastmile_qr_scan"}, "type": "electric_scooter", "lon": -77.02232, "bike_id": "56e2f78f26f63d51b4dfacdc4d3bb555", "fusion_lon": 0.0}, {"is_reserved": 0, "fusion_lat": 0.0, "name": "6c0ae5f8bd5ceffb59ff1874f20af672", "is_disabled": 0, "lat": 38.91923283333333, "rental_uris": {"ios": "https://dc.lft.to/lastmile_qr_scan", "android": "https://dc.lft.to/lastmile_qr_scan"}, "type": "electric_scooter", "lon": -77.03421433333334, "bike_id": "6c0ae5f8bd5ceffb59ff1874f20af672", "fusion_lon": 0.0}, {"is_reserved": 0, "fusion_lat": 0.0, "name": "820581ead9c49b201b2e1e3b94979a18", "is_disabled": 0, "lat": 38.917753, "rental_uris": {"ios": "https://dc.lft.to/lastmile_qr_scan", "android": "https://dc.lft.to/lastmile_qr_scan"}, "type": "electric_scooter", "lon": -77.04749816666667, "bike_id": "820581ead9c49b201b2e1e3b94979a18", "fusion_lon": 0.0}, {"is_reserved": 0, "fusion_lat": 0.0, "name": "d3ee3b5892e136dd5d10bf1bd3062c85", "is_disabled": 0, "lat": 38.92337083333334, "rental_uris": {"ios": "https://dc.lft.to/lastmile_qr_scan", "android": "https://dc.lft.to/lastmile_qr_scan"}, "type": "electric_scooter", "lon": -77.02133233333333, "bike_id": "d3ee3b5892e136dd5d10bf1bd3062c85", "fusion_lon": 0.0}, {"is_reserved": 0, "fusion_lat": 0.0, "name": "608c22fff435b6e99a1728833cb09fb7", "is_disabled": 0, "lat": 38.80455833333333, "rental_uris": {"ios": "https://dc.lft.to/lastmile_qr_scan", "android": "https://dc.lft.to/lastmile_qr_scan"}, "type": "electric_bike", "lon": -77.0607465, "bike_id": "608c22fff435b6e99a1728833cb09fb7", "fusion_lon": 0.0}, {"is_reserved": 0, "fusion_lat": 0.0, "name": "eb03033503826c44addda7df9b92a7dd", "is_disabled": 0, "lat": 38.920098833333334, "rental_uris": {"ios": "https://dc.lft.to/lastmile_qr_scan", "android": "https://dc.lft.to/lastmile_qr_scan"}, "type": "electric_scooter", "lon": -77.0417025, "bike_id": "eb03033503826c44addda7df9b92a7dd", "fusion_lon": 0.0}, {"is_reserved": 0, "fusion_lat": 0.0, "name": "8304f3c7187a5fc4505bdb2ffb7c9ba5", "is_disabled": 0, "lat": 38.92482483333333, "rental_uris": {"ios": "https://dc.lft.to/lastmile_qr_scan", "android": "https://dc.lft.to/lastmile_qr_scan"}, "type": "electric_scooter", "lon": -77.0207645, "bike_id": "8304f3c7187a5fc4505bdb2ffb7c9ba5", "fusion_lon": 0.0}, {"is_reserved": 0, "fusion_lat": 0.0, "name": "aea15c47347e60aea7d7ca63626dc915", "is_disabled": 0, "lat": 38.913656333333336, "rental_uris": {"ios": "https://dc.lft.to/lastmile_qr_scan", "android": "https://dc.lft.to/lastmile_qr_scan"}, "type": "electric_scooter", "lon": -77.02052183333333, "bike_id": "aea15c47347e60aea7d7ca63626dc915", "fusion_lon": 0.0}, {"is_reserved": 0, "fusion_lat": 0.0, "name": "5302ac216b5211780bec8636d15dd6f2", "is_disabled": 0, "lat": 38.8925395, "rental_uris": {"ios": "https://dc.lft.to/lastmile_qr_scan", "android": "https://dc.lft.to/lastmile_qr_scan"}, "type": "electric_scooter", "lon": -77.04503333333334, "bike_id": "5302ac216b5211780bec8636d15dd6f2", "fusion_lon": 0.0}, {"is_reserved": 0, "fusion_lat": 0.0, "name": "ab08a39722026a5be6f00cc22da208fe", "is_disabled": 0, "lat": 38.89958466666667, "rental_uris": {"ios": "https://dc.lft.to/lastmile_qr_scan", "android": "https://dc.lft.to/lastmile_qr_scan"}, "type": "electric_scooter", "lon": -77.04502066666667, "bike_id": "ab08a39722026a5be6f00cc22da208fe", "fusion_lon": 0.0}, {"is_reserved": 0, "fusion_lat": 0.0, "name": "ac291187810193b59977245bf58b9a04", "is_disabled": 0, "lat": 38.96779216666667, "rental_uris": {"ios": "https://dc.lft.to/lastmile_qr_scan", "android": "https://dc.lft.to/lastmile_qr_scan"}, "type": "electric_bike", "lon": -76.99645116666667, "bike_id": "ac291187810193b59977245bf58b9a04", "fusion_lon": 0.0}, {"is_reserved": 0, "fusion_lat": 0.0, "name": "74690c1798c109645db5b92aa373e732", "is_disabled": 0, "lat": 38.928527833333334, "rental_uris": {"ios": "https://dc.lft.to/lastmile_qr_scan", "android": "https://dc.lft.to/lastmile_qr_scan"}, "type": "electric_scooter", "lon": -77.05426183333333, "bike_id": "74690c1798c109645db5b92aa373e732", "fusion_lon": 0.0}, {"is_reserved": 0, "fusion_lat": 0.0, "name": "7b37f09c8074698eb2ff07b2a61106a7", "is_disabled": 0, "lat": 38.87787383333333, "rental_uris": {"ios": "https://dc.lft.to/lastmile_qr_scan", "android": "https://dc.lft.to/lastmile_qr_scan"}, "type": "electric_scooter", "lon": -77.01894133333333, "bike_id": "7b37f09c8074698eb2ff07b2a61106a7", "fusion_lon": 0.0}, {"is_reserved": 0, "fusion_lat": 0.0, "name": "e404441fe4103f260252ff61bdd79d88", "is_disabled": 0, "lat": 38.96692433333333, "rental_uris": {"ios": "https://dc.lft.to/lastmile_qr_scan", "android": "https://dc.lft.to/lastmile_qr_scan"}, "type": "electric_scooter", "lon": -77.034056, "bike_id": "e404441fe4103f260252ff61bdd79d88", "fusion_lon": 0.0}, {"is_reserved": 0, "fusion_lat": 0.0, "name": "18f48fe4afbbab061d820c2303ec912f", "is_disabled": 0, "lat": 38.88173183333333, "rental_uris": {"ios": "https://dc.lft.to/lastmile_qr_scan", "android": "https://dc.lft.to/lastmile_qr_scan"}, "type": "electric_scooter", "lon": -77.01743533333334, "bike_id": "18f48fe4afbbab061d820c2303ec912f", "fusion_lon": 0.0}, {"is_reserved": 0, "fusion_lat": 0.0, "name": "bf52e26a6ea05a0edaa3ac807a3bafb7", "is_disabled": 0, "lat": 38.911073, "rental_uris": {"ios": "https://dc.lft.to/lastmile_qr_scan", "android": "https://dc.lft.to/lastmile_qr_scan"}, "type": "electric_scooter", "lon": -77.01149516666666, "bike_id": "bf52e26a6ea05a0edaa3ac807a3bafb7", "fusion_lon": 0.0}, {"is_reserved": 0, "fusion_lat": 0.0, "name": "372cd6ec85f7d901a143d8b2610ba814", "is_disabled": 0, "lat": 38.905246, "rental_uris": {"ios": "https://dc.lft.to/lastmile_qr_scan", "android": "https://dc.lft.to/lastmile_qr_scan"}, "type": "electric_scooter", "lon": -77.06258933333334, "bike_id": "372cd6ec85f7d901a143d8b2610ba814", "fusion_lon": 0.0}, {"is_reserved": 0, "fusion_lat": 0.0, "name": "6da45596840ae443930fd4c9daddc2cc", "is_disabled": 0, "lat": 38.907334, "rental_uris": {"ios": "https://dc.lft.to/lastmile_qr_scan", "android": "https://dc.lft.to/lastmile_qr_scan"}, "type": "electric_bike", "lon": -77.00313266666667, "bike_id": "6da45596840ae443930fd4c9daddc2cc", "fusion_lon": 0.0}, {"is_reserved": 0, "fusion_lat": 0.0, "name": "1be13a493c1172e1edd4ce030601f166", "is_disabled": 0, "lat": 38.918063333333336, "rental_uris": {"ios": "https://dc.lft.to/lastmile_qr_scan", "android": "https://dc.lft.to/lastmile_qr_scan"}, "type": "electric_scooter", "lon": -77.02678516666667, "bike_id": "1be13a493c1172e1edd4ce030601f166", "fusion_lon": 0.0}, {"is_reserved": 0, "fusion_lat": 0.0, "name": "29798171216bf2a3227987eda9394702", "is_disabled": 0, "lat": 38.91106583333333, "rental_uris": {"ios": "https://dc.lft.to/lastmile_qr_scan", "android": "https://dc.lft.to/lastmile_qr_scan"}, "type": "electric_scooter", "lon": -77.03831066666666, "bike_id": "29798171216bf2a3227987eda9394702", "fusion_lon": 0.0}, {"is_reserved": 0, "fusion_lat": 0.0, "name": "2fdc2ddb30195ce88ed40569b1f641df", "is_disabled": 0, "lat": 38.8997665, "rental_uris": {"ios": "https://dc.lft.to/lastmile_qr_scan", "android": "https://dc.lft.to/lastmile_qr_scan"}, "type": "electric_scooter", "lon": -76.99482866666666, "bike_id": "2fdc2ddb30195ce88ed40569b1f641df", "fusion_lon": 0.0}, {"is_reserved": 0, "fusion_lat": 0.0, "name": "b38cb6a532ad526293d10ef9d8d6ecca", "is_disabled": 0, "lat": 38.8936515, "rental_uris": {"ios": "https://dc.lft.to/lastmile_qr_scan", "android": "https://dc.lft.to/lastmile_qr_scan"}, "type": "electric_bike", "lon": -77.04787816666666, "bike_id": "b38cb6a532ad526293d10ef9d8d6ecca", "fusion_lon": 0.0}, {"is_reserved": 0, "fusion_lat": 0.0, "name": "18721c6f1b4d3c20059016b0875e81a1", "is_disabled": 0, "lat": 38.910198333333334, "rental_uris": {"ios": "https://dc.lft.to/lastmile_qr_scan", "android": "https://dc.lft.to/lastmile_qr_scan"}, "type": "electric_scooter", "lon": -77.04271216666666, "bike_id": "18721c6f1b4d3c20059016b0875e81a1", "fusion_lon": 0.0}, {"is_reserved": 0, "fusion_lat": 0.0, "name": "036a384cdee9b3d9503e1b0a69cc21ee", "is_disabled": 0, "lat": 38.91540066666666, "rental_uris": {"ios": "https://dc.lft.to/lastmile_qr_scan", "android": "https://dc.lft.to/lastmile_qr_scan"}, "type": "electric_scooter", "lon": -77.0442425, "bike_id": "036a384cdee9b3d9503e1b0a69cc21ee", "fusion_lon": 0.0}, {"is_reserved": 0, "fusion_lat": 0.0, "name": "d20d2dacbf49a0b1d5ab688fb5916536", "is_disabled": 0, "lat": 38.924479, "rental_uris": {"ios": "https://dc.lft.to/lastmile_qr_scan", "android": "https://dc.lft.to/lastmile_qr_scan"}, "type": "electric_scooter", "lon": -77.020371, "bike_id": "d20d2dacbf49a0b1d5ab688fb5916536", "fusion_lon": 0.0}, {"is_reserved": 0, "fusion_lat": 0.0, "name": "d88a60eaf2ff698819856d64d01556f0", "is_disabled": 0, "lat": 38.9320075, "rental_uris": {"ios": "https://dc.lft.to/lastmile_qr_scan", "android": "https://dc.lft.to/lastmile_qr_scan"}, "type": "electric_scooter", "lon": -77.01874166666667, "bike_id": "d88a60eaf2ff698819856d64d01556f0", "fusion_lon": 0.0}, {"is_reserved": 0, "fusion_lat": 0.0, "name": "2aa6d30ab6a3ca7f479a8b4ee2ceb37d", "is_disabled": 0, "lat": 38.9020475, "rental_uris": {"ios": "https://dc.lft.to/lastmile_qr_scan", "android": "https://dc.lft.to/lastmile_qr_scan"}, "type": "electric_scooter", "lon": -77.04803833333334, "bike_id": "2aa6d30ab6a3ca7f479a8b4ee2ceb37d", "fusion_lon": 0.0}, {"is_reserved": 0, "fusion_lat": 0.0, "name": "474cc239195ebc052769c9460578ac5b", "is_disabled": 0, "lat": 38.89029566666667, "rental_uris": {"ios": "https://dc.lft.to/lastmile_qr_scan", "android": "https://dc.lft.to/lastmile_qr_scan"}, "type": "electric_scooter", "lon": -76.94463833333333, "bike_id": "474cc239195ebc052769c9460578ac5b", "fusion_lon": 0.0}, {"is_reserved": 0, "fusion_lat": 0.0, "name": "fd646d5664759e9bb649a774169515b6", "is_disabled": 0, "lat": 38.88723, "rental_uris": {"ios": "https://dc.lft.to/lastmile_qr_scan", "android": "https://dc.lft.to/lastmile_qr_scan"}, "type": "electric_scooter", "lon": -76.9960905, "bike_id": "fd646d5664759e9bb649a774169515b6", "fusion_lon": 0.0}, {"is_reserved": 0, "fusion_lat": 0.0, "name": "bffb3a32ca2fd865bb4003377665abe7", "is_disabled": 0, "lat": 38.9074365, "rental_uris": {"ios": "https://dc.lft.to/lastmile_qr_scan", "android": "https://dc.lft.to/lastmile_qr_scan"}, "type": "electric_scooter", "lon": -77.00350966666667, "bike_id": "bffb3a32ca2fd865bb4003377665abe7", "fusion_lon": 0.0}, {"is_reserved": 0, "fusion_lat": 0.0, "name": "e640be48869c076c13fa94b86a2d8a21", "is_disabled": 0, "lat": 38.92373, "rental_uris": {"ios": "https://dc.lft.to/lastmile_qr_scan", "android": "https://dc.lft.to/lastmile_qr_scan"}, "type": "electric_scooter", "lon": -77.0213415, "bike_id": "e640be48869c076c13fa94b86a2d8a21", "fusion_lon": 0.0}, {"is_reserved": 0, "fusion_lat": 0.0, "name": "62052909f14c64bc6e4e5b88cb9b69b3", "is_disabled": 0, "lat": 38.8766845, "rental_uris": {"ios": "https://dc.lft.to/lastmile_qr_scan", "android": "https://dc.lft.to/lastmile_qr_scan"}, "type": "electric_scooter", "lon": -77.00423183333334, "bike_id": "62052909f14c64bc6e4e5b88cb9b69b3", "fusion_lon": 0.0}, {"is_reserved": 0, "fusion_lat": 0.0, "name": "5f8ad5079565bccc3e8dc151f51bf675", "is_disabled": 0, "lat": 38.897129, "rental_uris": {"ios": "https://dc.lft.to/lastmile_qr_scan", "android": "https://dc.lft.to/lastmile_qr_scan"}, "type": "electric_scooter", "lon": -77.01314466666666, "bike_id": "5f8ad5079565bccc3e8dc151f51bf675", "fusion_lon": 0.0}, {"is_reserved": 0, "fusion_lat": 0.0, "name": "06cac9055cc23430957478cfd6ee8dec", "is_disabled": 0, "lat": 38.91977083333333, "rental_uris": {"ios": "https://dc.lft.to/lastmile_qr_scan", "android": "https://dc.lft.to/lastmile_qr_scan"}, "type": "electric_scooter", "lon": -77.02204, "bike_id": "06cac9055cc23430957478cfd6ee8dec", "fusion_lon": 0.0}, {"is_reserved": 0, "fusion_lat": 0.0, "name": "89fbb9f86667afcfa83a25eae47d4f8e", "is_disabled": 0, "lat": 38.928855666666664, "rental_uris": {"ios": "https://dc.lft.to/lastmile_qr_scan", "android": "https://dc.lft.to/lastmile_qr_scan"}, "type": "electric_scooter", "lon": -77.01357583333333, "bike_id": "89fbb9f86667afcfa83a25eae47d4f8e", "fusion_lon": 0.0}, {"is_reserved": 0, "fusion_lat": 0.0, "name": "8e5257f75a210d278dce10de598c2d96", "is_disabled": 0, "lat": 38.8997515, "rental_uris": {"ios": "https://dc.lft.to/lastmile_qr_scan", "android": "https://dc.lft.to/lastmile_qr_scan"}, "type": "electric_scooter", "lon": -77.02629983333334, "bike_id": "8e5257f75a210d278dce10de598c2d96", "fusion_lon": 0.0}, {"is_reserved": 0, "fusion_lat": 0.0, "name": "7d90d3d21103ec2646cb6c1348999065", "is_disabled": 0, "lat": 38.89606216666667, "rental_uris": {"ios": "https://dc.lft.to/lastmile_qr_scan", "android": "https://dc.lft.to/lastmile_qr_scan"}, "type": "electric_scooter", "lon": -77.01088366666667, "bike_id": "7d90d3d21103ec2646cb6c1348999065", "fusion_lon": 0.0}, {"is_reserved": 0, "fusion_lat": 0.0, "name": "307a9e5a521f2142d1a37cd70bce2ae7", "is_disabled": 0, "lat": 38.905228666666666, "rental_uris": {"ios": "https://dc.lft.to/lastmile_qr_scan", "android": "https://dc.lft.to/lastmile_qr_scan"}, "type": "electric_scooter", "lon": -77.017034, "bike_id": "307a9e5a521f2142d1a37cd70bce2ae7", "fusion_lon": 0.0}, {"is_reserved": 0, "fusion_lat": 0.0, "name": "dd659e9934c51abac5c3337ee72ad7ff", "is_disabled": 0, "lat": 38.92700516666667, "rental_uris": {"ios": "https://dc.lft.to/lastmile_qr_scan", "android": "https://dc.lft.to/lastmile_qr_scan"}, "type": "electric_scooter", "lon": -76.99501783333334, "bike_id": "dd659e9934c51abac5c3337ee72ad7ff", "fusion_lon": 0.0}, {"is_reserved": 0, "fusion_lat": 0.0, "name": "41940a39bbc24413ffb7fd9f421d1745", "is_disabled": 0, "lat": 38.9039945, "rental_uris": {"ios": "https://dc.lft.to/lastmile_qr_scan", "android": "https://dc.lft.to/lastmile_qr_scan"}, "type": "electric_scooter", "lon": -77.0043145, "bike_id": "41940a39bbc24413ffb7fd9f421d1745", "fusion_lon": 0.0}, {"is_reserved": 0, "fusion_lat": 0.0, "name": "46dcf1191d9ee0f3e2139de197b8097a", "is_disabled": 0, "lat": 38.89608166666667, "rental_uris": {"ios": "https://dc.lft.to/lastmile_qr_scan", "android": "https://dc.lft.to/lastmile_qr_scan"}, "type": "electric_scooter", "lon": -76.99957333333333, "bike_id": "46dcf1191d9ee0f3e2139de197b8097a", "fusion_lon": 0.0}, {"is_reserved": 0, "fusion_lat": 0.0, "name": "457389bd48799ace1de2ea06ac5cd20f", "is_disabled": 0, "lat": 38.874761666666664, "rental_uris": {"ios": "https://dc.lft.to/lastmile_qr_scan", "android": "https://dc.lft.to/lastmile_qr_scan"}, "type": "electric_scooter", "lon": -77.00239166666667, "bike_id": "457389bd48799ace1de2ea06ac5cd20f", "fusion_lon": 0.0}, {"is_reserved": 0, "fusion_lat": 0.0, "name": "0b4ac66bb4ee883de88052c73d0f6fd9", "is_disabled": 0, "lat": 38.88723533333334, "rental_uris": {"ios": "https://dc.lft.to/lastmile_qr_scan", "android": "https://dc.lft.to/lastmile_qr_scan"}, "type": "electric_scooter", "lon": -76.99610516666667, "bike_id": "0b4ac66bb4ee883de88052c73d0f6fd9", "fusion_lon": 0.0}, {"is_reserved": 0, "fusion_lat": 0.0, "name": "eee77aea12505026a7b69c97b4813b0d", "is_disabled": 0, "lat": 38.883009, "rental_uris": {"ios": "https://dc.lft.to/lastmile_qr_scan", "android": "https://dc.lft.to/lastmile_qr_scan"}, "type": "electric_scooter", "lon": -76.93484133333334, "bike_id": "eee77aea12505026a7b69c97b4813b0d", "fusion_lon": 0.0}, {"is_reserved": 0, "fusion_lat": 0.0, "name": "293c0d6219e490b7b9304b7ff5483d47", "is_disabled": 0, "lat": 38.936252, "rental_uris": {"ios": "https://dc.lft.to/lastmile_qr_scan", "android": "https://dc.lft.to/lastmile_qr_scan"}, "type": "electric_scooter", "lon": -77.032876, "bike_id": "293c0d6219e490b7b9304b7ff5483d47", "fusion_lon": 0.0}, {"is_reserved": 0, "fusion_lat": 0.0, "name": "07daf60bdea07a6023c3f6b60a929b78", "is_disabled": 0, "lat": 38.908333999999996, "rental_uris": {"ios": "https://dc.lft.to/lastmile_qr_scan", "android": "https://dc.lft.to/lastmile_qr_scan"}, "type": "electric_scooter", "lon": -76.93467533333333, "bike_id": "07daf60bdea07a6023c3f6b60a929b78", "fusion_lon": 0.0}, {"is_reserved": 0, "fusion_lat": 0.0, "name": "f7e1618c563ebef48da31ae755b8c8d1", "is_disabled": 0, "lat": 38.901228, "rental_uris": {"ios": "https://dc.lft.to/lastmile_qr_scan", "android": "https://dc.lft.to/lastmile_qr_scan"}, "type": "electric_scooter", "lon": -77.00249533333333, "bike_id": "f7e1618c563ebef48da31ae755b8c8d1", "fusion_lon": 0.0}, {"is_reserved": 0, "fusion_lat": 0.0, "name": "29299dbfbb05325b749614ea325685d8", "is_disabled": 0, "lat": 39.0064815, "rental_uris": {"ios": "https://dc.lft.to/lastmile_qr_scan", "android": "https://dc.lft.to/lastmile_qr_scan"}, "type": "electric_bike", "lon": -76.9001865, "bike_id": "29299dbfbb05325b749614ea325685d8", "fusion_lon": 0.0}, {"is_reserved": 0, "fusion_lat": 0.0, "name": "c1630ac4317ff4bc0ceaa6f802ab90aa", "is_disabled": 0, "lat": 38.924135166666666, "rental_uris": {"ios": "https://dc.lft.to/lastmile_qr_scan", "android": "https://dc.lft.to/lastmile_qr_scan"}, "type": "electric_scooter", "lon": -77.021296, "bike_id": "c1630ac4317ff4bc0ceaa6f802ab90aa", "fusion_lon": 0.0}, {"is_reserved": 0, "fusion_lat": 0.0, "name": "2efe6ac7e4fb9bcf7974760f97ff2e1d", "is_disabled": 0, "lat": 38.917399, "rental_uris": {"ios": "https://dc.lft.to/lastmile_qr_scan", "android": "https://dc.lft.to/lastmile_qr_scan"}, "type": "electric_scooter", "lon": -77.02113433333334, "bike_id": "2efe6ac7e4fb9bcf7974760f97ff2e1d", "fusion_lon": 0.0}, {"is_reserved": 0, "fusion_lat": 0.0, "name": "75ed03b7aa3d2098f3d52094e4c22c07", "is_disabled": 0, "lat": 38.92721016666667, "rental_uris": {"ios": "https://dc.lft.to/lastmile_qr_scan", "android": "https://dc.lft.to/lastmile_qr_scan"}, "type": "electric_scooter", "lon": -77.02284166666666, "bike_id": "75ed03b7aa3d2098f3d52094e4c22c07", "fusion_lon": 0.0}, {"is_reserved": 0, "fusion_lat": 0.0, "name": "493fe1eb96907cf7f7cdbf9119036612", "is_disabled": 0, "lat": 38.91653683333333, "rental_uris": {"ios": "https://dc.lft.to/lastmile_qr_scan", "android": "https://dc.lft.to/lastmile_qr_scan"}, "type": "electric_scooter", "lon": -77.03203, "bike_id": "493fe1eb96907cf7f7cdbf9119036612", "fusion_lon": 0.0}, {"is_reserved": 0, "fusion_lat": 0.0, "name": "4b7b9fd6bc5e6ff801f817d8119d3f6d", "is_disabled": 0, "lat": 38.91269033333333, "rental_uris": {"ios": "https://dc.lft.to/lastmile_qr_scan", "android": "https://dc.lft.to/lastmile_qr_scan"}, "type": "electric_scooter", "lon": -77.02225583333333, "bike_id": "4b7b9fd6bc5e6ff801f817d8119d3f6d", "fusion_lon": 0.0}, {"is_reserved": 0, "fusion_lat": 0.0, "name": "0c2c9c0f4f94d13a7db4db807ba38329", "is_disabled": 0, "lat": 38.922405166666664, "rental_uris": {"ios": "https://dc.lft.to/lastmile_qr_scan", "android": "https://dc.lft.to/lastmile_qr_scan"}, "type": "electric_scooter", "lon": -77.03663933333333, "bike_id": "0c2c9c0f4f94d13a7db4db807ba38329", "fusion_lon": 0.0}, {"is_reserved": 0, "fusion_lat": 0.0, "name": "98652a12c1e3ab426c870396e10b7dde", "is_disabled": 0, "lat": 38.852435, "rental_uris": {"ios": "https://dc.lft.to/lastmile_qr_scan", "android": "https://dc.lft.to/lastmile_qr_scan"}, "type": "electric_bike", "lon": -77.11405966666666, "bike_id": "98652a12c1e3ab426c870396e10b7dde", "fusion_lon": 0.0}, {"is_reserved": 0, "fusion_lat": 0.0, "name": "4352e5e4b1e46be496fa5df8a6a9f7b9", "is_disabled": 0, "lat": 38.8800645, "rental_uris": {"ios": "https://dc.lft.to/lastmile_qr_scan", "android": "https://dc.lft.to/lastmile_qr_scan"}, "type": "electric_scooter", "lon": -76.99834783333333, "bike_id": "4352e5e4b1e46be496fa5df8a6a9f7b9", "fusion_lon": 0.0}, {"is_reserved": 0, "fusion_lat": 0.0, "name": "b8068bcdbd4d33cb05f849d1e15cf724", "is_disabled": 0, "lat": 38.9274, "rental_uris": {"ios": "https://dc.lft.to/lastmile_qr_scan", "android": "https://dc.lft.to/lastmile_qr_scan"}, "type": "electric_scooter", "lon": -77.035552, "bike_id": "b8068bcdbd4d33cb05f849d1e15cf724", "fusion_lon": 0.0}, {"is_reserved": 0, "fusion_lat": 0.0, "name": "fefceddefc5bc87fa9a1ff2e58db8b02", "is_disabled": 0, "lat": 38.907095166666664, "rental_uris": {"ios": "https://dc.lft.to/lastmile_qr_scan", "android": "https://dc.lft.to/lastmile_qr_scan"}, "type": "electric_scooter", "lon": -77.03199216666667, "bike_id": "fefceddefc5bc87fa9a1ff2e58db8b02", "fusion_lon": 0.0}, {"is_reserved": 0, "fusion_lat": 0.0, "name": "893a7c45ec6b4fa2915460b733e412f4", "is_disabled": 0, "lat": 38.893524166666666, "rental_uris": {"ios": "https://dc.lft.to/lastmile_qr_scan", "android": "https://dc.lft.to/lastmile_qr_scan"}, "type": "electric_scooter", "lon": -77.003337, "bike_id": "893a7c45ec6b4fa2915460b733e412f4", "fusion_lon": 0.0}, {"is_reserved": 0, "fusion_lat": 0.0, "name": "717b27821fa6768ab5c2505e01e683c2", "is_disabled": 0, "lat": 38.912530333333336, "rental_uris": {"ios": "https://dc.lft.to/lastmile_qr_scan", "android": "https://dc.lft.to/lastmile_qr_scan"}, "type": "electric_scooter", "lon": -77.04788166666667, "bike_id": "717b27821fa6768ab5c2505e01e683c2", "fusion_lon": 0.0}, {"is_reserved": 0, "fusion_lat": 0.0, "name": "4a664c458132a1eceb3c41ddf51a6594", "is_disabled": 0, "lat": 38.9231755, "rental_uris": {"ios": "https://dc.lft.to/lastmile_qr_scan", "android": "https://dc.lft.to/lastmile_qr_scan"}, "type": "electric_scooter", "lon": -77.0195185, "bike_id": "4a664c458132a1eceb3c41ddf51a6594", "fusion_lon": 0.0}, {"is_reserved": 0, "fusion_lat": 0.0, "name": "6dee883accd864a9cb3d0c7e2b9f5f87", "is_disabled": 0, "lat": 38.91642366666667, "rental_uris": {"ios": "https://dc.lft.to/lastmile_qr_scan", "android": "https://dc.lft.to/lastmile_qr_scan"}, "type": "electric_scooter", "lon": -77.02175583333333, "bike_id": "6dee883accd864a9cb3d0c7e2b9f5f87", "fusion_lon": 0.0}, {"is_reserved": 0, "fusion_lat": 0.0, "name": "7e8645078cc12ae011d9e5f0be046ca1", "is_disabled": 0, "lat": 38.90658616666666, "rental_uris": {"ios": "https://dc.lft.to/lastmile_qr_scan", "android": "https://dc.lft.to/lastmile_qr_scan"}, "type": "electric_scooter", "lon": -77.04346483333333, "bike_id": "7e8645078cc12ae011d9e5f0be046ca1", "fusion_lon": 0.0}, {"is_reserved": 0, "fusion_lat": 0.0, "name": "55c8979f80abe4b0a5cc1ff41d1b9561", "is_disabled": 0, "lat": 38.9497755, "rental_uris": {"ios": "https://dc.lft.to/lastmile_qr_scan", "android": "https://dc.lft.to/lastmile_qr_scan"}, "type": "electric_scooter", "lon": -77.0244455, "bike_id": "55c8979f80abe4b0a5cc1ff41d1b9561", "fusion_lon": 0.0}, {"is_reserved": 0, "fusion_lat": 0.0, "name": "40ac3c826380c8871609ea8272ec770a", "is_disabled": 0, "lat": 38.898892000000004, "rental_uris": {"ios": "https://dc.lft.to/lastmile_qr_scan", "android": "https://dc.lft.to/lastmile_qr_scan"}, "type": "electric_scooter", "lon": -77.032807, "bike_id": "40ac3c826380c8871609ea8272ec770a", "fusion_lon": 0.0}, {"is_reserved": 0, "fusion_lat": 0.0, "name": "6022069d569eeb10c5f619c17c2f0eba", "is_disabled": 0, "lat": 38.91446666666667, "rental_uris": {"ios": "https://dc.lft.to/lastmile_qr_scan", "android": "https://dc.lft.to/lastmile_qr_scan"}, "type": "electric_scooter", "lon": -77.00458666666667, "bike_id": "6022069d569eeb10c5f619c17c2f0eba", "fusion_lon": 0.0}, {"is_reserved": 0, "fusion_lat": 0.0, "name": "4f8cffa57fe4bd927880430b098ba3f8", "is_disabled": 0, "lat": 38.89730333333333, "rental_uris": {"ios": "https://dc.lft.to/lastmile_qr_scan", "android": "https://dc.lft.to/lastmile_qr_scan"}, "type": "electric_scooter", "lon": -76.925847, "bike_id": "4f8cffa57fe4bd927880430b098ba3f8", "fusion_lon": 0.0}, {"is_reserved": 0, "fusion_lat": 0.0, "name": "d084c47e27b341e13884179288c1b300", "is_disabled": 0, "lat": 38.918185333333334, "rental_uris": {"ios": "https://dc.lft.to/lastmile_qr_scan", "android": "https://dc.lft.to/lastmile_qr_scan"}, "type": "electric_scooter", "lon": -77.02532766666667, "bike_id": "d084c47e27b341e13884179288c1b300", "fusion_lon": 0.0}, {"is_reserved": 0, "fusion_lat": 0.0, "name": "7e79841c79f3f7a58707899f2ee36b0f", "is_disabled": 0, "lat": 38.902494, "rental_uris": {"ios": "https://dc.lft.to/lastmile_qr_scan", "android": "https://dc.lft.to/lastmile_qr_scan"}, "type": "electric_scooter", "lon": -77.0325555, "bike_id": "7e79841c79f3f7a58707899f2ee36b0f", "fusion_lon": 0.0}, {"is_reserved": 0, "fusion_lat": 0.0, "name": "b7ca4540cf3ffb00661daddcee7e1a51", "is_disabled": 0, "lat": 38.9159785, "rental_uris": {"ios": "https://dc.lft.to/lastmile_qr_scan", "android": "https://dc.lft.to/lastmile_qr_scan"}, "type": "electric_scooter", "lon": -77.01229466666666, "bike_id": "b7ca4540cf3ffb00661daddcee7e1a51", "fusion_lon": 0.0}, {"is_reserved": 0, "fusion_lat": 0.0, "name": "cee278fec5b26cd521948ff094d64fc6", "is_disabled": 0, "lat": 38.92941183333333, "rental_uris": {"ios": "https://dc.lft.to/lastmile_qr_scan", "android": "https://dc.lft.to/lastmile_qr_scan"}, "type": "electric_scooter", "lon": -77.03281366666667, "bike_id": "cee278fec5b26cd521948ff094d64fc6", "fusion_lon": 0.0}, {"is_reserved": 0, "fusion_lat": 0.0, "name": "90820d98bfe8276f56a94836f2165da8", "is_disabled": 0, "lat": 38.980120666666664, "rental_uris": {"ios": "https://dc.lft.to/lastmile_qr_scan", "android": "https://dc.lft.to/lastmile_qr_scan"}, "type": "electric_bike", "lon": -77.06408916666666, "bike_id": "90820d98bfe8276f56a94836f2165da8", "fusion_lon": 0.0}, {"is_reserved": 0, "fusion_lat": 0.0, "name": "230da2411892ec166a227efe2e5566bd", "is_disabled": 0, "lat": 38.896536833333336, "rental_uris": {"ios": "https://dc.lft.to/lastmile_qr_scan", "android": "https://dc.lft.to/lastmile_qr_scan"}, "type": "electric_scooter", "lon": -77.0337415, "bike_id": "230da2411892ec166a227efe2e5566bd", "fusion_lon": 0.0}, {"is_reserved": 0, "fusion_lat": 0.0, "name": "e364a06da485add10f66fa3a00a91a03", "is_disabled": 0, "lat": 38.904103166666665, "rental_uris": {"ios": "https://dc.lft.to/lastmile_qr_scan", "android": "https://dc.lft.to/lastmile_qr_scan"}, "type": "electric_scooter", "lon": -77.0345545, "bike_id": "e364a06da485add10f66fa3a00a91a03", "fusion_lon": 0.0}, {"is_reserved": 0, "fusion_lat": 0.0, "name": "50eee804591981b13d2d262424df1a5f", "is_disabled": 0, "lat": 38.8578375, "rental_uris": {"ios": "https://dc.lft.to/lastmile_qr_scan", "android": "https://dc.lft.to/lastmile_qr_scan"}, "type": "electric_bike", "lon": -76.98754966666667, "bike_id": "50eee804591981b13d2d262424df1a5f", "fusion_lon": 0.0}, {"is_reserved": 0, "fusion_lat": 0.0, "name": "9c828c99b83f300374bc9cfbd14f5633", "is_disabled": 0, "lat": 38.947202833333336, "rental_uris": {"ios": "https://dc.lft.to/lastmile_qr_scan", "android": "https://dc.lft.to/lastmile_qr_scan"}, "type": "electric_bike", "lon": -77.09876716666666, "bike_id": "9c828c99b83f300374bc9cfbd14f5633", "fusion_lon": 0.0}, {"is_reserved": 0, "fusion_lat": 0.0, "name": "6de3f835d5670d6d74544d35c7bccd52", "is_disabled": 0, "lat": 38.92632583333334, "rental_uris": {"ios": "https://dc.lft.to/lastmile_qr_scan", "android": "https://dc.lft.to/lastmile_qr_scan"}, "type": "electric_scooter", "lon": -77.02717783333334, "bike_id": "6de3f835d5670d6d74544d35c7bccd52", "fusion_lon": 0.0}, {"is_reserved": 0, "fusion_lat": 0.0, "name": "3f53117c34d2130fbeb6974a80a0fe8c", "is_disabled": 0, "lat": 38.9275405, "rental_uris": {"ios": "https://dc.lft.to/lastmile_qr_scan", "android": "https://dc.lft.to/lastmile_qr_scan"}, "type": "electric_scooter", "lon": -77.0335465, "bike_id": "3f53117c34d2130fbeb6974a80a0fe8c", "fusion_lon": 0.0}, {"is_reserved": 0, "fusion_lat": 0.0, "name": "bf45de09538b6fc054914fdd6722a4c4", "is_disabled": 0, "lat": 38.900359333333334, "rental_uris": {"ios": "https://dc.lft.to/lastmile_qr_scan", "android": "https://dc.lft.to/lastmile_qr_scan"}, "type": "electric_scooter", "lon": -77.0115515, "bike_id": "bf45de09538b6fc054914fdd6722a4c4", "fusion_lon": 0.0}, {"is_reserved": 0, "fusion_lat": 0.0, "name": "0ff53f040984bcc8d15cbfff38a34a3c", "is_disabled": 0, "lat": 38.88987916666667, "rental_uris": {"ios": "https://dc.lft.to/lastmile_qr_scan", "android": "https://dc.lft.to/lastmile_qr_scan"}, "type": "electric_scooter", "lon": -76.9881485, "bike_id": "0ff53f040984bcc8d15cbfff38a34a3c", "fusion_lon": 0.0}, {"is_reserved": 0, "fusion_lat": 0.0, "name": "52fbfa8e12a45d356b8d00c6074f4d51", "is_disabled": 0, "lat": 38.896481, "rental_uris": {"ios": "https://dc.lft.to/lastmile_qr_scan", "android": "https://dc.lft.to/lastmile_qr_scan"}, "type": "electric_scooter", "lon": -77.0091955, "bike_id": "52fbfa8e12a45d356b8d00c6074f4d51", "fusion_lon": 0.0}, {"is_reserved": 0, "fusion_lat": 0.0, "name": "64d7c23bc70db2c2214a6d2fa4b1b561", "is_disabled": 0, "lat": 38.921007333333336, "rental_uris": {"ios": "https://dc.lft.to/lastmile_qr_scan", "android": "https://dc.lft.to/lastmile_qr_scan"}, "type": "electric_scooter", "lon": -77.04701583333333, "bike_id": "64d7c23bc70db2c2214a6d2fa4b1b561", "fusion_lon": 0.0}, {"is_reserved": 0, "fusion_lat": 0.0, "name": "6cbd1f7b2f14990dbfecfedac6a279a1", "is_disabled": 0, "lat": 38.92369216666667, "rental_uris": {"ios": "https://dc.lft.to/lastmile_qr_scan", "android": "https://dc.lft.to/lastmile_qr_scan"}, "type": "electric_scooter", "lon": -77.01956066666666, "bike_id": "6cbd1f7b2f14990dbfecfedac6a279a1", "fusion_lon": 0.0}, {"is_reserved": 0, "fusion_lat": 0.0, "name": "b22ed40a713462f7e2f995a4684c7491", "is_disabled": 0, "lat": 38.93271283333333, "rental_uris": {"ios": "https://dc.lft.to/lastmile_qr_scan", "android": "https://dc.lft.to/lastmile_qr_scan"}, "type": "electric_scooter", "lon": -77.03950366666666, "bike_id": "b22ed40a713462f7e2f995a4684c7491", "fusion_lon": 0.0}, {"is_reserved": 0, "fusion_lat": 0.0, "name": "46f40a05bbdf37d5ddcb98ba96b523cc", "is_disabled": 0, "lat": 38.93062333333334, "rental_uris": {"ios": "https://dc.lft.to/lastmile_qr_scan", "android": "https://dc.lft.to/lastmile_qr_scan"}, "type": "electric_scooter", "lon": -77.03216133333333, "bike_id": "46f40a05bbdf37d5ddcb98ba96b523cc", "fusion_lon": 0.0}, {"is_reserved": 0, "fusion_lat": 0.0, "name": "dfcfd313d0217ba305f8ba37855cad6c", "is_disabled": 0, "lat": 38.86436466666667, "rental_uris": {"ios": "https://dc.lft.to/lastmile_qr_scan", "android": "https://dc.lft.to/lastmile_qr_scan"}, "type": "electric_bike", "lon": -76.96988216666666, "bike_id": "dfcfd313d0217ba305f8ba37855cad6c", "fusion_lon": 0.0}, {"is_reserved": 0, "fusion_lat": 0.0, "name": "e23012d9a68847ab273b15e441f711cd", "is_disabled": 0, "lat": 38.90509983333333, "rental_uris": {"ios": "https://dc.lft.to/lastmile_qr_scan", "android": "https://dc.lft.to/lastmile_qr_scan"}, "type": "electric_scooter", "lon": -76.98481, "bike_id": "e23012d9a68847ab273b15e441f711cd", "fusion_lon": 0.0}, {"is_reserved": 0, "fusion_lat": 0.0, "name": "863c1a55769982f209497e99a9ed33a7", "is_disabled": 0, "lat": 38.9056205, "rental_uris": {"ios": "https://dc.lft.to/lastmile_qr_scan", "android": "https://dc.lft.to/lastmile_qr_scan"}, "type": "electric_scooter", "lon": -77.05000783333334, "bike_id": "863c1a55769982f209497e99a9ed33a7", "fusion_lon": 0.0}, {"is_reserved": 0, "fusion_lat": 0.0, "name": "b3e26eeb23c72badf9a5b1cd9c6126f1", "is_disabled": 0, "lat": 38.898077, "rental_uris": {"ios": "https://dc.lft.to/lastmile_qr_scan", "android": "https://dc.lft.to/lastmile_qr_scan"}, "type": "electric_scooter", "lon": -77.0317235, "bike_id": "b3e26eeb23c72badf9a5b1cd9c6126f1", "fusion_lon": 0.0}, {"is_reserved": 0, "fusion_lat": 0.0, "name": "3eb4b9e36d480b2595ec771eff0cfd34", "is_disabled": 0, "lat": 38.9097655, "rental_uris": {"ios": "https://dc.lft.to/lastmile_qr_scan", "android": "https://dc.lft.to/lastmile_qr_scan"}, "type": "electric_scooter", "lon": -77.03342516666666, "bike_id": "3eb4b9e36d480b2595ec771eff0cfd34", "fusion_lon": 0.0}, {"is_reserved": 0, "fusion_lat": 0.0, "name": "1a93ed0542e42f2336309002ab3e8c94", "is_disabled": 0, "lat": 38.918237833333336, "rental_uris": {"ios": "https://dc.lft.to/lastmile_qr_scan", "android": "https://dc.lft.to/lastmile_qr_scan"}, "type": "electric_scooter", "lon": -77.04518383333334, "bike_id": "1a93ed0542e42f2336309002ab3e8c94", "fusion_lon": 0.0}, {"is_reserved": 0, "fusion_lat": 0.0, "name": "33ee0c2c44367ce18d3df851a1a263de", "is_disabled": 0, "lat": 38.87855533333333, "rental_uris": {"ios": "https://dc.lft.to/lastmile_qr_scan", "android": "https://dc.lft.to/lastmile_qr_scan"}, "type": "electric_scooter", "lon": -77.00707133333333, "bike_id": "33ee0c2c44367ce18d3df851a1a263de", "fusion_lon": 0.0}, {"is_reserved": 0, "fusion_lat": 0.0, "name": "89f5f8996ee5a0fd9158880176e5282e", "is_disabled": 0, "lat": 38.89748616666667, "rental_uris": {"ios": "https://dc.lft.to/lastmile_qr_scan", "android": "https://dc.lft.to/lastmile_qr_scan"}, "type": "electric_scooter", "lon": -77.0501015, "bike_id": "89f5f8996ee5a0fd9158880176e5282e", "fusion_lon": 0.0}, {"is_reserved": 0, "fusion_lat": 0.0, "name": "f6fab0024c1540258e73ad525ea66103", "is_disabled": 0, "lat": 38.90218633333333, "rental_uris": {"ios": "https://dc.lft.to/lastmile_qr_scan", "android": "https://dc.lft.to/lastmile_qr_scan"}, "type": "electric_scooter", "lon": -77.045638, "bike_id": "f6fab0024c1540258e73ad525ea66103", "fusion_lon": 0.0}, {"is_reserved": 0, "fusion_lat": 0.0, "name": "1867866cf360e0a907bbbcdcfbd763c6", "is_disabled": 0, "lat": 38.903043333333336, "rental_uris": {"ios": "https://dc.lft.to/lastmile_qr_scan", "android": "https://dc.lft.to/lastmile_qr_scan"}, "type": "electric_scooter", "lon": -77.04684266666666, "bike_id": "1867866cf360e0a907bbbcdcfbd763c6", "fusion_lon": 0.0}, {"is_reserved": 0, "fusion_lat": 0.0, "name": "1e1df7176e2e08d85eacf8bd83beab4a", "is_disabled": 0, "lat": 38.921617, "rental_uris": {"ios": "https://dc.lft.to/lastmile_qr_scan", "android": "https://dc.lft.to/lastmile_qr_scan"}, "type": "electric_scooter", "lon": -77.0383125, "bike_id": "1e1df7176e2e08d85eacf8bd83beab4a", "fusion_lon": 0.0}, {"is_reserved": 0, "fusion_lat": 0.0, "name": "0df80dfe224c5d36a8f5f88228272732", "is_disabled": 0, "lat": 38.90861616666667, "rental_uris": {"ios": "https://dc.lft.to/lastmile_qr_scan", "android": "https://dc.lft.to/lastmile_qr_scan"}, "type": "electric_scooter", "lon": -77.01836433333334, "bike_id": "0df80dfe224c5d36a8f5f88228272732", "fusion_lon": 0.0}, {"is_reserved": 0, "fusion_lat": 0.0, "name": "1d6de6be8c692f87921963202c088c83", "is_disabled": 0, "lat": 38.89489066666667, "rental_uris": {"ios": "https://dc.lft.to/lastmile_qr_scan", "android": "https://dc.lft.to/lastmile_qr_scan"}, "type": "electric_scooter", "lon": -77.055056, "bike_id": "1d6de6be8c692f87921963202c088c83", "fusion_lon": 0.0}, {"is_reserved": 0, "fusion_lat": 0.0, "name": "4ac823546cf1902f580c67433e42d257", "is_disabled": 0, "lat": 38.89168816666667, "rental_uris": {"ios": "https://dc.lft.to/lastmile_qr_scan", "android": "https://dc.lft.to/lastmile_qr_scan"}, "type": "electric_scooter", "lon": -76.991498, "bike_id": "4ac823546cf1902f580c67433e42d257", "fusion_lon": 0.0}, {"is_reserved": 0, "fusion_lat": 0.0, "name": "9948ed08ef40e75a6c86151228345501", "is_disabled": 0, "lat": 38.881462666666664, "rental_uris": {"ios": "https://dc.lft.to/lastmile_qr_scan", "android": "https://dc.lft.to/lastmile_qr_scan"}, "type": "electric_bike", "lon": -77.01298133333333, "bike_id": "9948ed08ef40e75a6c86151228345501", "fusion_lon": 0.0}, {"is_reserved": 0, "fusion_lat": 0.0, "name": "17637cda50af6630f49e14ee026ddefa", "is_disabled": 0, "lat": 38.920422, "rental_uris": {"ios": "https://dc.lft.to/lastmile_qr_scan", "android": "https://dc.lft.to/lastmile_qr_scan"}, "type": "electric_bike", "lon": -77.0634495, "bike_id": "17637cda50af6630f49e14ee026ddefa", "fusion_lon": 0.0}, {"is_reserved": 0, "fusion_lat": 0.0, "name": "03049815d1eeb16a8f4389b1f52eeb48", "is_disabled": 0, "lat": 38.90676583333333, "rental_uris": {"ios": "https://dc.lft.to/lastmile_qr_scan", "android": "https://dc.lft.to/lastmile_qr_scan"}, "type": "electric_scooter", "lon": -77.02707333333333, "bike_id": "03049815d1eeb16a8f4389b1f52eeb48", "fusion_lon": 0.0}, {"is_reserved": 0, "fusion_lat": 0.0, "name": "42d9076e3e736ebc747e05a5f5169b97", "is_disabled": 0, "lat": 38.89242566666667, "rental_uris": {"ios": "https://dc.lft.to/lastmile_qr_scan", "android": "https://dc.lft.to/lastmile_qr_scan"}, "type": "electric_scooter", "lon": -77.03185066666667, "bike_id": "42d9076e3e736ebc747e05a5f5169b97", "fusion_lon": 0.0}, {"is_reserved": 0, "fusion_lat": 0.0, "name": "c00504b44b0fb986934ae64eb63d584d", "is_disabled": 0, "lat": 38.92243766666667, "rental_uris": {"ios": "https://dc.lft.to/lastmile_qr_scan", "android": "https://dc.lft.to/lastmile_qr_scan"}, "type": "electric_scooter", "lon": -77.00829116666667, "bike_id": "c00504b44b0fb986934ae64eb63d584d", "fusion_lon": 0.0}, {"is_reserved": 0, "fusion_lat": 0.0, "name": "1bed779bd9d39c172d815606fe05d23a", "is_disabled": 0, "lat": 38.91708033333333, "rental_uris": {"ios": "https://dc.lft.to/lastmile_qr_scan", "android": "https://dc.lft.to/lastmile_qr_scan"}, "type": "electric_scooter", "lon": -77.09204066666666, "bike_id": "1bed779bd9d39c172d815606fe05d23a", "fusion_lon": 0.0}, {"is_reserved": 0, "fusion_lat": 0.0, "name": "85335da0d61ea27f3766414da632d789", "is_disabled": 0, "lat": 38.881868, "rental_uris": {"ios": "https://dc.lft.to/lastmile_qr_scan", "android": "https://dc.lft.to/lastmile_qr_scan"}, "type": "electric_scooter", "lon": -77.02095833333334, "bike_id": "85335da0d61ea27f3766414da632d789", "fusion_lon": 0.0}, {"is_reserved": 0, "fusion_lat": 0.0, "name": "96eb616d2e3398412af5547351e1d361", "is_disabled": 0, "lat": 38.91995416666666, "rental_uris": {"ios": "https://dc.lft.to/lastmile_qr_scan", "android": "https://dc.lft.to/lastmile_qr_scan"}, "type": "electric_scooter", "lon": -77.02171483333333, "bike_id": "96eb616d2e3398412af5547351e1d361", "fusion_lon": 0.0}, {"is_reserved": 0, "fusion_lat": 0.0, "name": "292e817a5758c8ad99e1ca3d934c8a86", "is_disabled": 0, "lat": 38.922263, "rental_uris": {"ios": "https://dc.lft.to/lastmile_qr_scan", "android": "https://dc.lft.to/lastmile_qr_scan"}, "type": "electric_scooter", "lon": -77.02824516666666, "bike_id": "292e817a5758c8ad99e1ca3d934c8a86", "fusion_lon": 0.0}, {"is_reserved": 0, "fusion_lat": 0.0, "name": "0ae93a9a6edd6621c035f24a41475851", "is_disabled": 0, "lat": 38.912685833333335, "rental_uris": {"ios": "https://dc.lft.to/lastmile_qr_scan", "android": "https://dc.lft.to/lastmile_qr_scan"}, "type": "electric_scooter", "lon": -77.02223966666666, "bike_id": "0ae93a9a6edd6621c035f24a41475851", "fusion_lon": 0.0}, {"is_reserved": 0, "fusion_lat": 0.0, "name": "b5e82f090023a2359834ce49594c73e5", "is_disabled": 0, "lat": 38.91690883333333, "rental_uris": {"ios": "https://dc.lft.to/lastmile_qr_scan", "android": "https://dc.lft.to/lastmile_qr_scan"}, "type": "electric_scooter", "lon": -77.02592616666666, "bike_id": "b5e82f090023a2359834ce49594c73e5", "fusion_lon": 0.0}, {"is_reserved": 0, "fusion_lat": 0.0, "name": "78607485c7ca0bb0df5479a9f41d3e34", "is_disabled": 0, "lat": 38.9096055, "rental_uris": {"ios": "https://dc.lft.to/lastmile_qr_scan", "android": "https://dc.lft.to/lastmile_qr_scan"}, "type": "electric_scooter", "lon": -77.03346683333334, "bike_id": "78607485c7ca0bb0df5479a9f41d3e34", "fusion_lon": 0.0}, {"is_reserved": 0, "fusion_lat": 0.0, "name": "f7229f029af23495459a2873a0a9d87f", "is_disabled": 0, "lat": 38.92222666666667, "rental_uris": {"ios": "https://dc.lft.to/lastmile_qr_scan", "android": "https://dc.lft.to/lastmile_qr_scan"}, "type": "electric_scooter", "lon": -77.02125183333334, "bike_id": "f7229f029af23495459a2873a0a9d87f", "fusion_lon": 0.0}, {"is_reserved": 0, "fusion_lat": 0.0, "name": "b024db725f8b0781064fe8a33abfeca5", "is_disabled": 0, "lat": 38.88146316666667, "rental_uris": {"ios": "https://dc.lft.to/lastmile_qr_scan", "android": "https://dc.lft.to/lastmile_qr_scan"}, "type": "electric_scooter", "lon": -77.027064, "bike_id": "b024db725f8b0781064fe8a33abfeca5", "fusion_lon": 0.0}, {"is_reserved": 0, "fusion_lat": 0.0, "name": "4423098c7af2985dc0c6dcc6a50bee98", "is_disabled": 0, "lat": 38.923257666666665, "rental_uris": {"ios": "https://dc.lft.to/lastmile_qr_scan", "android": "https://dc.lft.to/lastmile_qr_scan"}, "type": "electric_scooter", "lon": -77.01952733333333, "bike_id": "4423098c7af2985dc0c6dcc6a50bee98", "fusion_lon": 0.0}, {"is_reserved": 0, "fusion_lat": 0.0, "name": "a0fe650ef5811329b711545d18c66414", "is_disabled": 0, "lat": 38.92465633333333, "rental_uris": {"ios": "https://dc.lft.to/lastmile_qr_scan", "android": "https://dc.lft.to/lastmile_qr_scan"}, "type": "electric_scooter", "lon": -77.0223805, "bike_id": "a0fe650ef5811329b711545d18c66414", "fusion_lon": 0.0}, {"is_reserved": 0, "fusion_lat": 0.0, "name": "1ace27ea40de1e69eaeb06aa4a1aa447", "is_disabled": 0, "lat": 38.9427905, "rental_uris": {"ios": "https://dc.lft.to/lastmile_qr_scan", "android": "https://dc.lft.to/lastmile_qr_scan"}, "type": "electric_scooter", "lon": -77.02929433333334, "bike_id": "1ace27ea40de1e69eaeb06aa4a1aa447", "fusion_lon": 0.0}, {"is_reserved": 0, "fusion_lat": 0.0, "name": "ba0b30ff8e420313a5696370eedd54b0", "is_disabled": 0, "lat": 38.943432666666666, "rental_uris": {"ios": "https://dc.lft.to/lastmile_qr_scan", "android": "https://dc.lft.to/lastmile_qr_scan"}, "type": "electric_scooter", "lon": -77.02591066666666, "bike_id": "ba0b30ff8e420313a5696370eedd54b0", "fusion_lon": 0.0}, {"is_reserved": 0, "fusion_lat": 0.0, "name": "8163f3b9309d1b2fe893dd149f350286", "is_disabled": 0, "lat": 38.898839833333334, "rental_uris": {"ios": "https://dc.lft.to/lastmile_qr_scan", "android": "https://dc.lft.to/lastmile_qr_scan"}, "type": "electric_scooter", "lon": -77.0402365, "bike_id": "8163f3b9309d1b2fe893dd149f350286", "fusion_lon": 0.0}, {"is_reserved": 0, "fusion_lat": 0.0, "name": "653e7a7873c73a58873f83cdfde08390", "is_disabled": 0, "lat": 38.897344333333336, "rental_uris": {"ios": "https://dc.lft.to/lastmile_qr_scan", "android": "https://dc.lft.to/lastmile_qr_scan"}, "type": "electric_scooter", "lon": -77.02708716666666, "bike_id": "653e7a7873c73a58873f83cdfde08390", "fusion_lon": 0.0}, {"is_reserved": 0, "fusion_lat": 0.0, "name": "90c61131d344eea60b479c258c8b60a7", "is_disabled": 0, "lat": 38.922335333333336, "rental_uris": {"ios": "https://dc.lft.to/lastmile_qr_scan", "android": "https://dc.lft.to/lastmile_qr_scan"}, "type": "electric_scooter", "lon": -77.04251183333334, "bike_id": "90c61131d344eea60b479c258c8b60a7", "fusion_lon": 0.0}, {"is_reserved": 0, "fusion_lat": 0.0, "name": "0472c817bfdc1d7bf788c5aadf5da819", "is_disabled": 0, "lat": 38.9068955, "rental_uris": {"ios": "https://dc.lft.to/lastmile_qr_scan", "android": "https://dc.lft.to/lastmile_qr_scan"}, "type": "electric_scooter", "lon": -77.0271425, "bike_id": "0472c817bfdc1d7bf788c5aadf5da819", "fusion_lon": 0.0}, {"is_reserved": 0, "fusion_lat": 0.0, "name": "875ab646b59f27eda17e4bc794cc13cc", "is_disabled": 0, "lat": 38.902133666666664, "rental_uris": {"ios": "https://dc.lft.to/lastmile_qr_scan", "android": "https://dc.lft.to/lastmile_qr_scan"}, "type": "electric_scooter", "lon": -77.04181816666667, "bike_id": "875ab646b59f27eda17e4bc794cc13cc", "fusion_lon": 0.0}, {"is_reserved": 0, "fusion_lat": 0.0, "name": "8d16fb479c95326fe7d15dc4be8e24bc", "is_disabled": 0, "lat": 38.935406, "rental_uris": {"ios": "https://dc.lft.to/lastmile_qr_scan", "android": "https://dc.lft.to/lastmile_qr_scan"}, "type": "electric_scooter", "lon": -77.03262533333333, "bike_id": "8d16fb479c95326fe7d15dc4be8e24bc", "fusion_lon": 0.0}, {"is_reserved": 0, "fusion_lat": 0.0, "name": "51648e85e3b7e998e1f1a816fbd4467e", "is_disabled": 0, "lat": 38.91249916666666, "rental_uris": {"ios": "https://dc.lft.to/lastmile_qr_scan", "android": "https://dc.lft.to/lastmile_qr_scan"}, "type": "electric_scooter", "lon": -77.02806033333333, "bike_id": "51648e85e3b7e998e1f1a816fbd4467e", "fusion_lon": 0.0}, {"is_reserved": 0, "fusion_lat": 0.0, "name": "bc6b4e00e4323b87761f184e1d0eddbf", "is_disabled": 0, "lat": 38.9525005, "rental_uris": {"ios": "https://dc.lft.to/lastmile_qr_scan", "android": "https://dc.lft.to/lastmile_qr_scan"}, "type": "electric_scooter", "lon": -77.02074166666667, "bike_id": "bc6b4e00e4323b87761f184e1d0eddbf", "fusion_lon": 0.0}, {"is_reserved": 0, "fusion_lat": 0.0, "name": "48c65a4fb7ac198e9d9c6375008d4578", "is_disabled": 0, "lat": 38.93065983333334, "rental_uris": {"ios": "https://dc.lft.to/lastmile_qr_scan", "android": "https://dc.lft.to/lastmile_qr_scan"}, "type": "electric_scooter", "lon": -77.03940033333333, "bike_id": "48c65a4fb7ac198e9d9c6375008d4578", "fusion_lon": 0.0}, {"is_reserved": 0, "fusion_lat": 0.0, "name": "7408e5d833d6791f28cadaf4410051ac", "is_disabled": 0, "lat": 38.917527, "rental_uris": {"ios": "https://dc.lft.to/lastmile_qr_scan", "android": "https://dc.lft.to/lastmile_qr_scan"}, "type": "electric_scooter", "lon": -77.0211705, "bike_id": "7408e5d833d6791f28cadaf4410051ac", "fusion_lon": 0.0}, {"is_reserved": 0, "fusion_lat": 0.0, "name": "308c4fc7bd1cc87b19f4cc59579670b3", "is_disabled": 0, "lat": 38.89911583333333, "rental_uris": {"ios": "https://dc.lft.to/lastmile_qr_scan", "android": "https://dc.lft.to/lastmile_qr_scan"}, "type": "electric_scooter", "lon": -77.02293, "bike_id": "308c4fc7bd1cc87b19f4cc59579670b3", "fusion_lon": 0.0}, {"is_reserved": 0, "fusion_lat": 0.0, "name": "83c4be42bad87c88cdca457e6d57cf01", "is_disabled": 0, "lat": 38.89824383333333, "rental_uris": {"ios": "https://dc.lft.to/lastmile_qr_scan", "android": "https://dc.lft.to/lastmile_qr_scan"}, "type": "electric_scooter", "lon": -77.04611666666666, "bike_id": "83c4be42bad87c88cdca457e6d57cf01", "fusion_lon": 0.0}, {"is_reserved": 0, "fusion_lat": 0.0, "name": "df106ef7440c74c4f5d54e3aff760837", "is_disabled": 0, "lat": 38.89327633333333, "rental_uris": {"ios": "https://dc.lft.to/lastmile_qr_scan", "android": "https://dc.lft.to/lastmile_qr_scan"}, "type": "electric_scooter", "lon": -76.93929133333333, "bike_id": "df106ef7440c74c4f5d54e3aff760837", "fusion_lon": 0.0}, {"is_reserved": 0, "fusion_lat": 0.0, "name": "38a9a5ad5bab36ebfd4e4280a1dbc10e", "is_disabled": 0, "lat": 38.875423833333336, "rental_uris": {"ios": "https://dc.lft.to/lastmile_qr_scan", "android": "https://dc.lft.to/lastmile_qr_scan"}, "type": "electric_scooter", "lon": -77.00479783333333, "bike_id": "38a9a5ad5bab36ebfd4e4280a1dbc10e", "fusion_lon": 0.0}, {"is_reserved": 0, "fusion_lat": 0.0, "name": "ef36b67956b4509f7ca876bfab9415d1", "is_disabled": 0, "lat": 38.91285716666667, "rental_uris": {"ios": "https://dc.lft.to/lastmile_qr_scan", "android": "https://dc.lft.to/lastmile_qr_scan"}, "type": "electric_scooter", "lon": -77.03206066666667, "bike_id": "ef36b67956b4509f7ca876bfab9415d1", "fusion_lon": 0.0}, {"is_reserved": 0, "fusion_lat": 0.0, "name": "5d78aafd2332addcbec6a2582bf659ef", "is_disabled": 0, "lat": 38.94116866666667, "rental_uris": {"ios": "https://dc.lft.to/lastmile_qr_scan", "android": "https://dc.lft.to/lastmile_qr_scan"}, "type": "electric_scooter", "lon": -77.02343083333334, "bike_id": "5d78aafd2332addcbec6a2582bf659ef", "fusion_lon": 0.0}, {"is_reserved": 0, "fusion_lat": 0.0, "name": "841bd99d54c372a629750a81247393bb", "is_disabled": 0, "lat": 38.9436865, "rental_uris": {"ios": "https://dc.lft.to/lastmile_qr_scan", "android": "https://dc.lft.to/lastmile_qr_scan"}, "type": "electric_scooter", "lon": -77.02589966666666, "bike_id": "841bd99d54c372a629750a81247393bb", "fusion_lon": 0.0}, {"is_reserved": 0, "fusion_lat": 0.0, "name": "ce933b50dc71e99b39ee980b708b8712", "is_disabled": 0, "lat": 38.9060635, "rental_uris": {"ios": "https://dc.lft.to/lastmile_qr_scan", "android": "https://dc.lft.to/lastmile_qr_scan"}, "type": "electric_scooter", "lon": -77.032441, "bike_id": "ce933b50dc71e99b39ee980b708b8712", "fusion_lon": 0.0}, {"is_reserved": 0, "fusion_lat": 0.0, "name": "10bbe7f8d4dc74d3bd17425147fde3b0", "is_disabled": 0, "lat": 38.9278965, "rental_uris": {"ios": "https://dc.lft.to/lastmile_qr_scan", "android": "https://dc.lft.to/lastmile_qr_scan"}, "type": "electric_scooter", "lon": -77.03624133333334, "bike_id": "10bbe7f8d4dc74d3bd17425147fde3b0", "fusion_lon": 0.0}, {"is_reserved": 0, "fusion_lat": 0.0, "name": "e2f8b792fa8124ac4f0defb614b47281", "is_disabled": 0, "lat": 38.8746955, "rental_uris": {"ios": "https://dc.lft.to/lastmile_qr_scan", "android": "https://dc.lft.to/lastmile_qr_scan"}, "type": "electric_scooter", "lon": -77.00532516666667, "bike_id": "e2f8b792fa8124ac4f0defb614b47281", "fusion_lon": 0.0}, {"is_reserved": 0, "fusion_lat": 0.0, "name": "0a92c7c202eb537e575e1ac46a209ea0", "is_disabled": 0, "lat": 38.902611, "rental_uris": {"ios": "https://dc.lft.to/lastmile_qr_scan", "android": "https://dc.lft.to/lastmile_qr_scan"}, "type": "electric_scooter", "lon": -77.05168016666667, "bike_id": "0a92c7c202eb537e575e1ac46a209ea0", "fusion_lon": 0.0}, {"is_reserved": 0, "fusion_lat": 0.0, "name": "bdb770530682a254d8ac5b37cf58a46f", "is_disabled": 0, "lat": 38.92339833333333, "rental_uris": {"ios": "https://dc.lft.to/lastmile_qr_scan", "android": "https://dc.lft.to/lastmile_qr_scan"}, "type": "electric_scooter", "lon": -77.00914283333333, "bike_id": "bdb770530682a254d8ac5b37cf58a46f", "fusion_lon": 0.0}, {"is_reserved": 0, "fusion_lat": 0.0, "name": "6b377d484d340d649257411aeede72eb", "is_disabled": 0, "lat": 38.88435533333333, "rental_uris": {"ios": "https://dc.lft.to/lastmile_qr_scan", "android": "https://dc.lft.to/lastmile_qr_scan"}, "type": "electric_scooter", "lon": -77.03029566666666, "bike_id": "6b377d484d340d649257411aeede72eb", "fusion_lon": 0.0}, {"is_reserved": 0, "fusion_lat": 0.0, "name": "52e8a22e59e56a1412ec8b32bd0fbaf4", "is_disabled": 0, "lat": 38.940320166666666, "rental_uris": {"ios": "https://dc.lft.to/lastmile_qr_scan", "android": "https://dc.lft.to/lastmile_qr_scan"}, "type": "electric_scooter", "lon": -77.08391466666667, "bike_id": "52e8a22e59e56a1412ec8b32bd0fbaf4", "fusion_lon": 0.0}, {"is_reserved": 0, "fusion_lat": 0.0, "name": "ce978aaebe4bf6e59520061f18985b49", "is_disabled": 0, "lat": 38.9006205, "rental_uris": {"ios": "https://dc.lft.to/lastmile_qr_scan", "android": "https://dc.lft.to/lastmile_qr_scan"}, "type": "electric_scooter", "lon": -77.03463233333333, "bike_id": "ce978aaebe4bf6e59520061f18985b49", "fusion_lon": 0.0}, {"is_reserved": 0, "fusion_lat": 0.0, "name": "1556078c7ddb49b7ac2092cf62bd0d71", "is_disabled": 0, "lat": 38.9074545, "rental_uris": {"ios": "https://dc.lft.to/lastmile_qr_scan", "android": "https://dc.lft.to/lastmile_qr_scan"}, "type": "electric_scooter", "lon": -77.04160733333333, "bike_id": "1556078c7ddb49b7ac2092cf62bd0d71", "fusion_lon": 0.0}, {"is_reserved": 0, "fusion_lat": 0.0, "name": "624180d5ec9ce27b05610cc041661b91", "is_disabled": 0, "lat": 38.83915233333333, "rental_uris": {"ios": "https://dc.lft.to/lastmile_qr_scan", "android": "https://dc.lft.to/lastmile_qr_scan"}, "type": "electric_bike", "lon": -76.99840066666667, "bike_id": "624180d5ec9ce27b05610cc041661b91", "fusion_lon": 0.0}, {"is_reserved": 0, "fusion_lat": 0.0, "name": "4c77213f193fdd779cd35b92c6159b3f", "is_disabled": 0, "lat": 38.908736833333336, "rental_uris": {"ios": "https://dc.lft.to/lastmile_qr_scan", "android": "https://dc.lft.to/lastmile_qr_scan"}, "type": "electric_scooter", "lon": -77.02277433333333, "bike_id": "4c77213f193fdd779cd35b92c6159b3f", "fusion_lon": 0.0}, {"is_reserved": 0, "fusion_lat": 0.0, "name": "406f0b8e3596f068a1bc35a0c666127c", "is_disabled": 0, "lat": 38.8848945, "rental_uris": {"ios": "https://dc.lft.to/lastmile_qr_scan", "android": "https://dc.lft.to/lastmile_qr_scan"}, "type": "electric_scooter", "lon": -77.00712733333333, "bike_id": "406f0b8e3596f068a1bc35a0c666127c", "fusion_lon": 0.0}, {"is_reserved": 0, "fusion_lat": 0.0, "name": "2d887c8030774de76b1703c4b47fdd96", "is_disabled": 0, "lat": 38.90348316666667, "rental_uris": {"ios": "https://dc.lft.to/lastmile_qr_scan", "android": "https://dc.lft.to/lastmile_qr_scan"}, "type": "electric_scooter", "lon": -77.05008283333333, "bike_id": "2d887c8030774de76b1703c4b47fdd96", "fusion_lon": 0.0}, {"is_reserved": 0, "fusion_lat": 0.0, "name": "43a9370fec9842b766ba4c8df1fc352d", "is_disabled": 0, "lat": 38.92052533333333, "rental_uris": {"ios": "https://dc.lft.to/lastmile_qr_scan", "android": "https://dc.lft.to/lastmile_qr_scan"}, "type": "electric_scooter", "lon": -77.0419095, "bike_id": "43a9370fec9842b766ba4c8df1fc352d", "fusion_lon": 0.0}, {"is_reserved": 0, "fusion_lat": 0.0, "name": "ab7cb5575d34a1e98e95876eed103a36", "is_disabled": 0, "lat": 38.87666633333333, "rental_uris": {"ios": "https://dc.lft.to/lastmile_qr_scan", "android": "https://dc.lft.to/lastmile_qr_scan"}, "type": "electric_scooter", "lon": -77.00427766666667, "bike_id": "ab7cb5575d34a1e98e95876eed103a36", "fusion_lon": 0.0}, {"is_reserved": 0, "fusion_lat": 0.0, "name": "e91074d3b12522959c8b11e550c6c380", "is_disabled": 0, "lat": 38.92284433333333, "rental_uris": {"ios": "https://dc.lft.to/lastmile_qr_scan", "android": "https://dc.lft.to/lastmile_qr_scan"}, "type": "electric_scooter", "lon": -77.03657866666667, "bike_id": "e91074d3b12522959c8b11e550c6c380", "fusion_lon": 0.0}, {"is_reserved": 0, "fusion_lat": 0.0, "name": "066fc6c033846ef2af39c2ec4dbbdcea", "is_disabled": 0, "lat": 38.904430166666664, "rental_uris": {"ios": "https://dc.lft.to/lastmile_qr_scan", "android": "https://dc.lft.to/lastmile_qr_scan"}, "type": "electric_scooter", "lon": -77.0482115, "bike_id": "066fc6c033846ef2af39c2ec4dbbdcea", "fusion_lon": 0.0}, {"is_reserved": 0, "fusion_lat": 0.0, "name": "3ff6e3c5f3206eac2d1f883f8e5fd63e", "is_disabled": 0, "lat": 38.949199166666666, "rental_uris": {"ios": "https://dc.lft.to/lastmile_qr_scan", "android": "https://dc.lft.to/lastmile_qr_scan"}, "type": "electric_scooter", "lon": -77.018553, "bike_id": "3ff6e3c5f3206eac2d1f883f8e5fd63e", "fusion_lon": 0.0}, {"is_reserved": 0, "fusion_lat": 0.0, "name": "95586fa6055e3821282c89dfd8d86d55", "is_disabled": 0, "lat": 38.898313, "rental_uris": {"ios": "https://dc.lft.to/lastmile_qr_scan", "android": "https://dc.lft.to/lastmile_qr_scan"}, "type": "electric_scooter", "lon": -76.94648633333334, "bike_id": "95586fa6055e3821282c89dfd8d86d55", "fusion_lon": 0.0}, {"is_reserved": 0, "fusion_lat": 0.0, "name": "0f2a02c33a54f0c63b9b599635b26799", "is_disabled": 0, "lat": 38.902324, "rental_uris": {"ios": "https://dc.lft.to/lastmile_qr_scan", "android": "https://dc.lft.to/lastmile_qr_scan"}, "type": "electric_scooter", "lon": -77.053364, "bike_id": "0f2a02c33a54f0c63b9b599635b26799", "fusion_lon": 0.0}, {"is_reserved": 0, "fusion_lat": 0.0, "name": "d72de001c27a399ce3226c4d379507f1", "is_disabled": 0, "lat": 38.91331733333333, "rental_uris": {"ios": "https://dc.lft.to/lastmile_qr_scan", "android": "https://dc.lft.to/lastmile_qr_scan"}, "type": "electric_scooter", "lon": -77.02188633333333, "bike_id": "d72de001c27a399ce3226c4d379507f1", "fusion_lon": 0.0}, {"is_reserved": 0, "fusion_lat": 0.0, "name": "315a09897f38bf00f30fcbfc59d6ae5d", "is_disabled": 0, "lat": 38.929474, "rental_uris": {"ios": "https://dc.lft.to/lastmile_qr_scan", "android": "https://dc.lft.to/lastmile_qr_scan"}, "type": "electric_scooter", "lon": -77.0550815, "bike_id": "315a09897f38bf00f30fcbfc59d6ae5d", "fusion_lon": 0.0},