{"data": {"bikes": [{"name": "7cd057107ba04d0a7351656b8e5fed9d", "fusion_lat": 0.0, "type": "electric_scooter", "lat": 38.90623033333333, "is_reserved": 0, "is_disabled": 0, "fusion_lon": 0.0, "bike_id": "7cd057107ba04d0a7351656b8e5fed9d", "lon": -77.024099, "rental_uris": {"ios": "https://dc.lft.to/lastmile_qr_scan", "android": "https://dc.lft.to/lastmile_qr_scan"}}, {"name": "a3b60ba1f657c92cf2febb13b325483a", "fusion_lat": 0.0, "type": "electric_scooter", "lat": 38.903783, "is_reserved": 0, "is_disabled": 0, "fusion_lon": 0.0, "bike_id": "a3b60ba1f657c92cf2febb13b325483a", "lon": -77.01086966666666, "rental_uris": {"ios": "https://dc.lft.to/lastmile_qr_scan", "android": "https://dc.lft.to/lastmile_qr_scan"}}, {"name": "31366e77cb89a74bc6c1f9b424bfe0c1", "fusion_lat": 0.0, "type": "electric_scooter", "lat": 38.8984855, "is_reserved": 0, "is_disabled": 0, "fusion_lon": 0.0, "bike_id": "31366e77cb89a74bc6c1f9b424bfe0c1", "lon": -76.99027983333333, "rental_uris": {"ios": "https://dc.lft.to/lastmile_qr_scan", "android": "https://dc.lft.to/lastmile_qr_scan"}}, {"name": "8ff5877c2b5fb7011b894eb694cad562", "fusion_lat": 0.0, "type": "electric_bike", "lat": 38.90688333333333, "is_reserved": 0, "is_disabled": 0, "fusion_lon": 0.0, "bike_id": "8ff5877c2b5fb7011b894eb694cad562", "lon": -76.95185066666667, "rental_uris": {"ios": "https://dc.lft.to/lastmile_qr_scan", "android": "https://dc.lft.to/lastmile_qr_scan"}}, {"name": "e86a8622157363466654b378b1d94887", "fusion_lat": 0.0, "type": "electric_scooter", "lat": 38.91412866666667, "is_reserved": 0, "is_disabled": 0, "fusion_lon": 0.0, "bike_id": "e86a8622157363466654b378b1d94887", "lon": -77.02408916666667, "rental_uris": {"ios": "https://dc.lft.to/lastmile_qr_scan", "android": "https://dc.lft.to/lastmile_qr_scan"}}, {"name": "ca3b746c977b26c8d1ce998c98a2a615", "fusion_lat": 0.0, "type": "electric_scooter", "lat": 38.898341333333335, "is_reserved": 0, "is_disabled": 0, "fusion_lon": 0.0, "bike_id": "ca3b746c977b26c8d1ce998c98a2a615", "lon": -76.9457025, "rental_uris": {"ios": "https://dc.lft.to/lastmile_qr_scan", "android": "https://dc.lft.to/lastmile_qr_scan"}}, {"name": "5ba64605dd6919e0cee956818196f9b8", "fusion_lat": 0.0, "type": "electric_scooter", "lat": 38.93197633333333, "is_reserved": 0, "is_disabled": 0, "fusion_lon": 0.0, "bike_id": "5ba64605dd6919e0cee956818196f9b8", "lon": -77.02782683333334, "rental_uris": {"ios": "https://dc.lft.to/lastmile_qr_scan", "android": "https://dc.lft.to/lastmile_qr_scan"}}, {"name": "620f83cbcc2df3ba024399c8be7c9ed4", "fusion_lat": 0.0, "type": "electric_scooter", "lat": 38.9203585, "is_reserved": 0, "is_disabled": 0, "fusion_lon": 0.0, "bike_id": "620f83cbcc2df3ba024399c8be7c9ed4", "lon": -76.977999, "rental_uris": {"ios": "https://dc.lft.to/lastmile_qr_scan", "android": "https://dc.lft.to/lastmile_qr_scan"}}, {"name": "dce3668691f7c1f9b3dcb08c5cc0ab74", "fusion_lat": 0.0, "type": "electric_scooter", "lat": 38.88652866666666, "is_reserved": 0, "is_disabled": 0, "fusion_lon": 0.0, "bike_id": "dce3668691f7c1f9b3dcb08c5cc0ab74", "lon": -77.01369583333333, "rental_uris": {"ios": "https://dc.lft.to/lastmile_qr_scan", "android": "https://dc.lft.to/lastmile_qr_scan"}}, {"name": "5aff0b36430e597eb5e546d0c80e0a64", "fusion_lat": 0.0, "type": "electric_bike", "lat": 38.802285833333336, "is_reserved": 0, "is_disabled": 0, "fusion_lon": 0.0, "bike_id": "5aff0b36430e597eb5e546d0c80e0a64", "lon": -77.0791275, "rental_uris": {"ios": "https://dc.lft.to/lastmile_qr_scan", "android": "https://dc.lft.to/lastmile_qr_scan"}}, {"name": "cc31ec9b774cd8b2a37e5f96fd8b4f98", "fusion_lat": 0.0, "type": "electric_scooter", "lat": 38.895277, "is_reserved": 0, "is_disabled": 0, "fusion_lon": 0.0, "bike_id": "cc31ec9b774cd8b2a37e5f96fd8b4f98", "lon": -77.04288066666666, "rental_uris": {"ios": "https://dc.lft.to/lastmile_qr_scan", "android": "https://dc.lft.to/lastmile_qr_scan"}}, {"name": "bcd6fae1d26b2305455667d3acafaeab", "fusion_lat": 0.0, "type": "electric_scooter", "lat": 38.9125075, "is_reserved": 0, "is_disabled": 0, "fusion_lon": 0.0, "bike_id": "bcd6fae1d26b2305455667d3acafaeab", "lon": -77.03836283333334, "rental_uris": {"ios": "https://dc.lft.to/lastmile_qr_scan", "android": "https://dc.lft.to/lastmile_qr_scan"}}, {"name": "7f2cc5e8e089baa74677ebe513f547ea", "fusion_lat": 0.0, "type": "electric_scooter", "lat": 38.9170695, "is_reserved": 0, "is_disabled": 0, "fusion_lon": 0.0, "bike_id": "7f2cc5e8e089baa74677ebe513f547ea", "lon": -77.0372755, "rental_uris": {"ios": "https://dc.lft.to/lastmile_qr_scan", "android": "https://dc.lft.to/lastmile_qr_scan"}}, {"name": "39af849775735b77d95166415a9bf154", "fusion_lat": 0.0, "type": "electric_scooter", "lat": 38.91189716666667, "is_reserved": 0, "is_disabled": 0, "fusion_lon": 0.0, "bike_id": "39af849775735b77d95166415a9bf154", "lon": -77.00728716666667, "rental_uris": {"ios": "https://dc.lft.to/lastmile_qr_scan", "android": "https://dc.lft.to/lastmile_qr_scan"}}, {"name": "354caa5444cbcaaaee760a6d25e1e567", "fusion_lat": 0.0, "type": "electric_scooter", "lat": 38.903165333333334, "is_reserved": 0, "is_disabled": 0, "fusion_lon": 0.0, "bike_id": "354caa5444cbcaaaee760a6d25e1e567", "lon": -76.9825315, "rental_uris": {"ios": "https://dc.lft.to/lastmile_qr_scan", "android": "https://dc.lft.to/lastmile_qr_scan"}}, {"name": "d4fdef0d883aacf0a7749ec411af507d", "fusion_lat": 0.0, "type": "electric_scooter", "lat": 38.939413333333334, "is_reserved": 0, "is_disabled": 0, "fusion_lon": 0.0, "bike_id": "d4fdef0d883aacf0a7749ec411af507d", "lon": -77.03618516666667, "rental_uris": {"ios": "https://dc.lft.to/lastmile_qr_scan", "android": "https://dc.lft.to/lastmile_qr_scan"}}, {"name": "ea4348a67021b0d2fa4d29035d8abe6b", "fusion_lat": 0.0, "type": "electric_scooter", "lat": 38.917786666666665, "is_reserved": 0, "is_disabled": 0, "fusion_lon": 0.0, "bike_id": "ea4348a67021b0d2fa4d29035d8abe6b", "lon": -77.02342566666667, "rental_uris": {"ios": "https://dc.lft.to/lastmile_qr_scan", "android": "https://dc.lft.to/lastmile_qr_scan"}}, {"name": "89775661d550bfe25c9afc1230f51153", "fusion_lat": 0.0, "type": "electric_scooter", "lat": 38.90285633333333, "is_reserved": 0, "is_disabled": 0, "fusion_lon": 0.0, "bike_id": "89775661d550bfe25c9afc1230f51153", "lon": -77.06263366666667, "rental_uris": {"ios": "https://dc.lft.to/lastmile_qr_scan", "android": "https://dc.lft.to/lastmile_qr_scan"}}, {"name": "7144f91f3e0c37508f284504c2c9af0f", "fusion_lat": 0.0, "type": "electric_scooter", "lat": 38.907343833333336, "is_reserved": 0, "is_disabled": 0, "fusion_lon": 0.0, "bike_id": "7144f91f3e0c37508f284504c2c9af0f", "lon": -77.04665416666667, "rental_uris": {"ios": "https://dc.lft.to/lastmile_qr_scan", "android": "https://dc.lft.to/lastmile_qr_scan"}}, {"name": "f6ff730f93ace310c964634150210acc", "fusion_lat": 0.0, "type": "electric_scooter", "lat": 38.905135666666666, "is_reserved": 0, "is_disabled": 0, "fusion_lon": 0.0, "bike_id": "f6ff730f93ace310c964634150210acc", "lon": -77.0693795, "rental_uris": {"ios": "https://dc.lft.to/lastmile_qr_scan", "android": "https://dc.lft.to/lastmile_qr_scan"}}, {"name": "e0da110ac617d658f3517ec78f4d347d", "fusion_lat": 0.0, "type": "electric_scooter", "lat": 38.911023666666665, "is_reserved": 0, "is_disabled": 0, "fusion_lon": 0.0, "bike_id": "e0da110ac617d658f3517ec78f4d347d", "lon": -77.0105565, "rental_uris": {"ios": "https://dc.lft.to/lastmile_qr_scan", "android": "https://dc.lft.to/lastmile_qr_scan"}}, {"name": "b3fb0cfab994b6ad8ded9ad258adaee9", "fusion_lat": 0.0, "type": "electric_scooter", "lat": 38.89856133333333, "is_reserved": 0, "is_disabled": 0, "fusion_lon": 0.0, "bike_id": "b3fb0cfab994b6ad8ded9ad258adaee9", "lon": -77.03317183333333, "rental_uris": {"ios": "https://dc.lft.to/lastmile_qr_scan", "android": "https://dc.lft.to/lastmile_qr_scan"}}, {"name": "bec88bd82580172585247ee281ce6fe9", "fusion_lat": 0.0, "type": "electric_scooter", "lat": 38.931091333333335, "is_reserved": 0, "is_disabled": 0, "fusion_lon": 0.0, "bike_id": "bec88bd82580172585247ee281ce6fe9", "lon": -77.03838316666666, "rental_uris": {"ios": "https://dc.lft.to/lastmile_qr_scan", "android": "https://dc.lft.to/lastmile_qr_scan"}}, {"name": "fe5870037eaab54f366ab52497a9fc53", "fusion_lat": 0.0, "type": "electric_scooter", "lat": 38.866888333333335, "is_reserved": 0, "is_disabled": 0, "fusion_lon": 0.0, "bike_id": "fe5870037eaab54f366ab52497a9fc53", "lon": -76.98912033333333, "rental_uris": {"ios": "https://dc.lft.to/lastmile_qr_scan", "android": "https://dc.lft.to/lastmile_qr_scan"}}, {"name": "888dfef490fcc7e4cf77fb282b563758", "fusion_lat": 0.0, "type": "electric_bike", "lat": 38.92856833333333, "is_reserved": 0, "is_disabled": 0, "fusion_lon": 0.0, "bike_id": "888dfef490fcc7e4cf77fb282b563758", "lon": -77.2222155, "rental_uris": {"ios": "https://dc.lft.to/lastmile_qr_scan", "android": "https://dc.lft.to/lastmile_qr_scan"}}, {"name": "ab1257dbbe80840f93b17afe79e45261", "fusion_lat": 0.0, "type": "electric_scooter", "lat": 38.87662433333333, "is_reserved": 0, "is_disabled": 0, "fusion_lon": 0.0, "bike_id": "ab1257dbbe80840f93b17afe79e45261", "lon": -77.00070516666666, "rental_uris": {"ios": "https://dc.lft.to/lastmile_qr_scan", "android": "https://dc.lft.to/lastmile_qr_scan"}}, {"name": "7c5208c45c6c5b8750e3d99fce7c5908", "fusion_lat": 0.0, "type": "electric_scooter", "lat": 38.90519416666667, "is_reserved": 0, "is_disabled": 0, "fusion_lon": 0.0, "bike_id": "7c5208c45c6c5b8750e3d99fce7c5908", "lon": -77.04351833333334, "rental_uris": {"ios": "https://dc.lft.to/lastmile_qr_scan", "android": "https://dc.lft.to/lastmile_qr_scan"}}, {"name": "bf8025b75abfd4f8fd50fa2f5c3151f1", "fusion_lat": 0.0, "type": "electric_bike", "lat": 39.053197833333336, "is_reserved": 0, "is_disabled": 0, "fusion_lon": 0.0, "bike_id": "bf8025b75abfd4f8fd50fa2f5c3151f1", "lon": -77.0477565, "rental_uris": {"ios": "https://dc.lft.to/lastmile_qr_scan", "android": "https://dc.lft.to/lastmile_qr_scan"}}, {"name": "635ee1f607fd966c8bac7bb41ca30ecf", "fusion_lat": 0.0, "type": "electric_scooter", "lat": 38.902708833333335, "is_reserved": 0, "is_disabled": 0, "fusion_lon": 0.0, "bike_id": "635ee1f607fd966c8bac7bb41ca30ecf", "lon": -76.98711583333333, "rental_uris": {"ios": "https://dc.lft.to/lastmile_qr_scan", "android": "https://dc.lft.to/lastmile_qr_scan"}}, {"name": "74eed3cc32d6477a1c50d25109cdacfc", "fusion_lat": 0.0, "type": "electric_scooter", "lat": 38.91102333333333, "is_reserved": 0, "is_disabled": 0, "fusion_lon": 0.0, "bike_id": "74eed3cc32d6477a1c50d25109cdacfc", "lon": -77.00358716666666, "rental_uris": {"ios": "https://dc.lft.to/lastmile_qr_scan", "android": "https://dc.lft.to/lastmile_qr_scan"}}, {"name": "1b4f33c7f0c308402ce2daf7c84b92b3", "fusion_lat": 0.0, "type": "electric_scooter", "lat": 38.86536566666667, "is_reserved": 0, "is_disabled": 0, "fusion_lon": 0.0, "bike_id": "1b4f33c7f0c308402ce2daf7c84b92b3", "lon": -76.98703866666666, "rental_uris": {"ios": "https://dc.lft.to/lastmile_qr_scan", "android": "https://dc.lft.to/lastmile_qr_scan"}}, {"name": "09c414b77ee9683e09cdf877576f2b2d", "fusion_lat": 0.0, "type": "electric_bike", "lat": 39.08856266666667, "is_reserved": 0, "is_disabled": 0, "fusion_lon": 0.0, "bike_id": "09c414b77ee9683e09cdf877576f2b2d", "lon": -77.1784085, "rental_uris": {"ios": "https://dc.lft.to/lastmile_qr_scan", "android": "https://dc.lft.to/lastmile_qr_scan"}}, {"name": "6035b712464b92129040d31310cbb018", "fusion_lat": 0.0, "type": "electric_bike", "lat": 38.93519116666667, "is_reserved": 0, "is_disabled": 0, "fusion_lon": 0.0, "bike_id": "6035b712464b92129040d31310cbb018", "lon": -76.95061133333333, "rental_uris": {"ios": "https://dc.lft.to/lastmile_qr_scan", "android": "https://dc.lft.to/lastmile_qr_scan"}}, {"name": "039535d0c626af52dd8c07a4646d6017", "fusion_lat": 0.0, "type": "electric_scooter", "lat": 38.905648166666666, "is_reserved": 0, "is_disabled": 0, "fusion_lon": 0.0, "bike_id": "039535d0c626af52dd8c07a4646d6017", "lon": -77.02427766666666, "rental_uris": {"ios": "https://dc.lft.to/lastmile_qr_scan", "android": "https://dc.lft.to/lastmile_qr_scan"}}, {"name": "56ae380370f84d5054f3c4ab66dacf43", "fusion_lat": 0.0, "type": "electric_scooter", "lat": 38.902836666666666, "is_reserved": 0, "is_disabled": 0, "fusion_lon": 0.0, "bike_id": "56ae380370f84d5054f3c4ab66dacf43", "lon": -77.03670633333333, "rental_uris": {"ios": "https://dc.lft.to/lastmile_qr_scan", "android": "https://dc.lft.to/lastmile_qr_scan"}}, {"name": "6a1de7472a9bcd68e5a9583e3b04c12d", "fusion_lat": 0.0, "type": "electric_scooter", "lat": 38.90574933333333, "is_reserved": 0, "is_disabled": 0, "fusion_lon": 0.0, "bike_id": "6a1de7472a9bcd68e5a9583e3b04c12d", "lon": -77.02103983333333, "rental_uris": {"ios": "https://dc.lft.to/lastmile_qr_scan", "android": "https://dc.lft.to/lastmile_qr_scan"}}, {"name": "fd2b82246ed8979970f5248a0de4d605", "fusion_lat": 0.0, "type": "electric_scooter", "lat": 38.904789, "is_reserved": 0, "is_disabled": 0, "fusion_lon": 0.0, "bike_id": "fd2b82246ed8979970f5248a0de4d605", "lon": -77.02803433333334, "rental_uris": {"ios": "https://dc.lft.to/lastmile_qr_scan", "android": "https://dc.lft.to/lastmile_qr_scan"}}, {"name": "bd7277b58e1852d34d654d11dcb5abab", "fusion_lat": 0.0, "type": "electric_scooter", "lat": 38.965617, "is_reserved": 0, "is_disabled": 0, "fusion_lon": 0.0, "bike_id": "bd7277b58e1852d34d654d11dcb5abab", "lon": -77.016231, "rental_uris": {"ios": "https://dc.lft.to/lastmile_qr_scan", "android": "https://dc.lft.to/lastmile_qr_scan"}}, {"name": "411f1a0416251bb287d7df4b68e720f4", "fusion_lat": 0.0, "type": "electric_scooter", "lat": 38.92322516666667, "is_reserved": 0, "is_disabled": 0, "fusion_lon": 0.0, "bike_id": "411f1a0416251bb287d7df4b68e720f4", "lon": -77.05466916666667, "rental_uris": {"ios": "https://dc.lft.to/lastmile_qr_scan", "android": "https://dc.lft.to/lastmile_qr_scan"}}, {"name": "844bc03ef707b03e286464e95e2644fe", "fusion_lat": 0.0, "type": "electric_scooter", "lat": 38.940420833333334, "is_reserved": 0, "is_disabled": 0, "fusion_lon": 0.0, "bike_id": "844bc03ef707b03e286464e95e2644fe", "lon": -77.029771, "rental_uris": {"ios": "https://dc.lft.to/lastmile_qr_scan", "android": "https://dc.lft.to/lastmile_qr_scan"}}, {"name": "b7b59b6ff2f6e121b7a8bb016d6e17ff", "fusion_lat": 0.0, "type": "electric_scooter", "lat": 38.90647116666667, "is_reserved": 0, "is_disabled": 0, "fusion_lon": 0.0, "bike_id": "b7b59b6ff2f6e121b7a8bb016d6e17ff", "lon": -77.039004, "rental_uris": {"ios": "https://dc.lft.to/lastmile_qr_scan", "android": "https://dc.lft.to/lastmile_qr_scan"}}, {"name": "6903809d9b93cbc08d1ccbf2f928bf0f", "fusion_lat": 0.0, "type": "electric_scooter", "lat": 38.93106566666667, "is_reserved": 0, "is_disabled": 0, "fusion_lon": 0.0, "bike_id": "6903809d9b93cbc08d1ccbf2f928bf0f", "lon": -77.03717833333333, "rental_uris": {"ios": "https://dc.lft.to/lastmile_qr_scan", "android": "https://dc.lft.to/lastmile_qr_scan"}}, {"name": "38b624bc711920e2d4041867bde0f31e", "fusion_lat": 0.0, "type": "electric_scooter", "lat": 38.9056995, "is_reserved": 0, "is_disabled": 0, "fusion_lon": 0.0, "bike_id": "38b624bc711920e2d4041867bde0f31e", "lon": -77.0486175, "rental_uris": {"ios": "https://dc.lft.to/lastmile_qr_scan", "android": "https://dc.lft.to/lastmile_qr_scan"}}, {"name": "7f00df6404cd0477f0d888187520905d", "fusion_lat": 0.0, "type": "electric_scooter", "lat": 38.93013833333333, "is_reserved": 0, "is_disabled": 0, "fusion_lon": 0.0, "bike_id": "7f00df6404cd0477f0d888187520905d", "lon": -77.037861, "rental_uris": {"ios": "https://dc.lft.to/lastmile_qr_scan", "android": "https://dc.lft.to/lastmile_qr_scan"}}, {"name": "553bd4c9a06a60546fa9d5d188f7e26a", "fusion_lat": 0.0, "type": "electric_bike", "lat": 38.9286795, "is_reserved": 0, "is_disabled": 0, "fusion_lon": 0.0, "bike_id": "553bd4c9a06a60546fa9d5d188f7e26a", "lon": -76.96107983333333, "rental_uris": {"ios": "https://dc.lft.to/lastmile_qr_scan", "android": "https://dc.lft.to/lastmile_qr_scan"}}, {"name": "0f74998396458031df22679c15b5b685", "fusion_lat": 0.0, "type": "electric_scooter", "lat": 38.90852266666667, "is_reserved": 0, "is_disabled": 0, "fusion_lon": 0.0, "bike_id": "0f74998396458031df22679c15b5b685", "lon": -77.04338466666667, "rental_uris": {"ios": "https://dc.lft.to/lastmile_qr_scan", "android": "https://dc.lft.to/lastmile_qr_scan"}}, {"name": "952c2bda7c820d2807628f82bf305549", "fusion_lat": 0.0, "type": "electric_scooter", "lat": 38.9076675, "is_reserved": 0, "is_disabled": 0, "fusion_lon": 0.0, "bike_id": "952c2bda7c820d2807628f82bf305549", "lon": -77.038572, "rental_uris": {"ios": "https://dc.lft.to/lastmile_qr_scan", "android": "https://dc.lft.to/lastmile_qr_scan"}}, {"name": "e6d73441faec8e1d3383cb09c94f8869", "fusion_lat": 0.0, "type": "electric_scooter", "lat": 38.89526016666667, "is_reserved": 0, "is_disabled": 0, "fusion_lon": 0.0, "bike_id": "e6d73441faec8e1d3383cb09c94f8869", "lon": -77.02418283333333, "rental_uris": {"ios": "https://dc.lft.to/lastmile_qr_scan", "android": "https://dc.lft.to/lastmile_qr_scan"}}, {"name": "8cc4a61bec37437a9aa35722d4809257", "fusion_lat": 0.0, "type": "electric_scooter", "lat": 38.938987, "is_reserved": 0, "is_disabled": 0, "fusion_lon": 0.0, "bike_id": "8cc4a61bec37437a9aa35722d4809257", "lon": -77.03285016666666, "rental_uris": {"ios": "https://dc.lft.to/lastmile_qr_scan", "android": "https://dc.lft.to/lastmile_qr_scan"}}, {"name": "c812570ec784412432ead28bb201bbc7", "fusion_lat": 0.0, "type": "electric_scooter", "lat": 38.9310805, "is_reserved": 0, "is_disabled": 0, "fusion_lon": 0.0, "bike_id": "c812570ec784412432ead28bb201bbc7", "lon": -77.02399816666667, "rental_uris": {"ios": "https://dc.lft.to/lastmile_qr_scan", "android": "https://dc.lft.to/lastmile_qr_scan"}}, {"name": "f3c44c2013d50fde49e6ca5e1059b819", "fusion_lat": 0.0, "type": "electric_bike", "lat": 38.8976645, "is_reserved": 0, "is_disabled": 0, "fusion_lon": 0.0, "bike_id": "f3c44c2013d50fde49e6ca5e1059b819", "lon": -76.90432583333333, "rental_uris": {"ios": "https://dc.lft.to/lastmile_qr_scan", "android": "https://dc.lft.to/lastmile_qr_scan"}}, {"name": "6cd6dac20e1d82a5ca9fe5836f814180", "fusion_lat": 0.0, "type": "electric_scooter", "lat": 38.935642, "is_reserved": 0, "is_disabled": 0, "fusion_lon": 0.0, "bike_id": "6cd6dac20e1d82a5ca9fe5836f814180", "lon": -77.02112516666666, "rental_uris": {"ios": "https://dc.lft.to/lastmile_qr_scan", "android": "https://dc.lft.to/lastmile_qr_scan"}}, {"name": "431eb34126a2940d00180130a6d6aabb", "fusion_lat": 0.0, "type": "electric_scooter", "lat": 38.902458333333335, "is_reserved": 0, "is_disabled": 0, "fusion_lon": 0.0, "bike_id": "431eb34126a2940d00180130a6d6aabb", "lon": -76.99936233333334, "rental_uris": {"ios": "https://dc.lft.to/lastmile_qr_scan", "android": "https://dc.lft.to/lastmile_qr_scan"}}, {"name": "f192651d5568ec4516acd28f56cc1bf7", "fusion_lat": 0.0, "type": "electric_scooter", "lat": 38.90356533333333, "is_reserved": 0, "is_disabled": 0, "fusion_lon": 0.0, "bike_id": "f192651d5568ec4516acd28f56cc1bf7", "lon": -77.039981, "rental_uris": {"ios": "https://dc.lft.to/lastmile_qr_scan", "android": "https://dc.lft.to/lastmile_qr_scan"}}, {"name": "58d85051772a4c918806c8fa7383c676", "fusion_lat": 0.0, "type": "electric_scooter", "lat": 38.91856416666667, "is_reserved": 0, "is_disabled": 0, "fusion_lon": 0.0, "bike_id": "58d85051772a4c918806c8fa7383c676", "lon": -77.014996, "rental_uris": {"ios": "https://dc.lft.to/lastmile_qr_scan", "android": "https://dc.lft.to/lastmile_qr_scan"}}, {"name": "5c8decdfac7ee24c24ca5790bf9e52b2", "fusion_lat": 0.0, "type": "electric_scooter", "lat": 38.90587133333333, "is_reserved": 0, "is_disabled": 0, "fusion_lon": 0.0, "bike_id": "5c8decdfac7ee24c24ca5790bf9e52b2", "lon": -77.00581866666667, "rental_uris": {"ios": "https://dc.lft.to/lastmile_qr_scan", "android": "https://dc.lft.to/lastmile_qr_scan"}}, {"name": "e659f2fd565e1378c93632858fc3b0bf", "fusion_lat": 0.0, "type": "electric_scooter", "lat": 38.8984695, "is_reserved": 0, "is_disabled": 0, "fusion_lon": 0.0, "bike_id": "e659f2fd565e1378c93632858fc3b0bf", "lon": -77.00733683333333, "rental_uris": {"ios": "https://dc.lft.to/lastmile_qr_scan", "android": "https://dc.lft.to/lastmile_qr_scan"}}, {"name": "970ef958798d5d38f5878a65280c587d", "fusion_lat": 0.0, "type": "electric_scooter", "lat": 38.907301833333335, "is_reserved": 0, "is_disabled": 0, "fusion_lon": 0.0, "bike_id": "970ef958798d5d38f5878a65280c587d", "lon": -77.04325666666666, "rental_uris": {"ios": "https://dc.lft.to/lastmile_qr_scan", "android": "https://dc.lft.to/lastmile_qr_scan"}}, {"name": "529a4d6d78cd4d229ede5dab22be71e1", "fusion_lat": 0.0, "type": "electric_scooter", "lat": 38.92677066666667, "is_reserved": 0, "is_disabled": 0, "fusion_lon": 0.0, "bike_id": "529a4d6d78cd4d229ede5dab22be71e1", "lon": -77.0152065, "rental_uris": {"ios": "https://dc.lft.to/lastmile_qr_scan", "android": "https://dc.lft.to/lastmile_qr_scan"}}, {"name": "4f2c46a19c3551cc4c3cb6a072884ba5", "fusion_lat": 0.0, "type": "electric_scooter", "lat": 38.91541133333333, "is_reserved": 0, "is_disabled": 0, "fusion_lon": 0.0, "bike_id": "4f2c46a19c3551cc4c3cb6a072884ba5", "lon": -77.0320235, "rental_uris": {"ios": "https://dc.lft.to/lastmile_qr_scan", "android": "https://dc.lft.to/lastmile_qr_scan"}}, {"name": "fb8191a2d3d7c6f96876d095757f611d", "fusion_lat": 0.0, "type": "electric_scooter", "lat": 38.930976333333334, "is_reserved": 0, "is_disabled": 0, "fusion_lon": 0.0, "bike_id": "fb8191a2d3d7c6f96876d095757f611d", "lon": -77.02653866666667, "rental_uris": {"ios": "https://dc.lft.to/lastmile_qr_scan", "android": "https://dc.lft.to/lastmile_qr_scan"}}, {"name": "adebe279d770f4567e9996ef44ae5022", "fusion_lat": 0.0, "type": "electric_scooter", "lat": 38.89226766666667, "is_reserved": 0, "is_disabled": 0, "fusion_lon": 0.0, "bike_id": "adebe279d770f4567e9996ef44ae5022", "lon": -77.03371883333334, "rental_uris": {"ios": "https://dc.lft.to/lastmile_qr_scan", "android": "https://dc.lft.to/lastmile_qr_scan"}}, {"name": "fe032a23502f0fe9537cae6ffff5b164", "fusion_lat": 0.0, "type": "electric_scooter", "lat": 38.921799166666666, "is_reserved": 0, "is_disabled": 0, "fusion_lon": 0.0, "bike_id": "fe032a23502f0fe9537cae6ffff5b164", "lon": -77.042837, "rental_uris": {"ios": "https://dc.lft.to/lastmile_qr_scan", "android": "https://dc.lft.to/lastmile_qr_scan"}}, {"name": "ffd39955a3f2e9a4c0fbf4707986addd", "fusion_lat": 0.0, "type": "electric_scooter", "lat": 38.90561483333333, "is_reserved": 0, "is_disabled": 0, "fusion_lon": 0.0, "bike_id": "ffd39955a3f2e9a4c0fbf4707986addd", "lon": -77.0458025, "rental_uris": {"ios": "https://dc.lft.to/lastmile_qr_scan", "android": "https://dc.lft.to/lastmile_qr_scan"}}, {"name": "fe0c832cd032d527777f2b64e47fe659", "fusion_lat": 0.0, "type": "electric_scooter", "lat": 38.91813883333333, "is_reserved": 0, "is_disabled": 0, "fusion_lon": 0.0, "bike_id": "fe0c832cd032d527777f2b64e47fe659", "lon": -77.0462765, "rental_uris": {"ios": "https://dc.lft.to/lastmile_qr_scan", "android": "https://dc.lft.to/lastmile_qr_scan"}}, {"name": "a2ee8d0925900713785fbd35c339af09", "fusion_lat": 0.0, "type": "electric_scooter", "lat": 38.9318565, "is_reserved": 0, "is_disabled": 0, "fusion_lon": 0.0, "bike_id": "a2ee8d0925900713785fbd35c339af09", "lon": -77.03455266666667, "rental_uris": {"ios": "https://dc.lft.to/lastmile_qr_scan", "android": "https://dc.lft.to/lastmile_qr_scan"}}, {"name": "76f90c120b239af4238f3b292bc27a61", "fusion_lat": 0.0, "type": "electric_scooter", "lat": 38.9021905, "is_reserved": 0, "is_disabled": 0, "fusion_lon": 0.0, "bike_id": "76f90c120b239af4238f3b292bc27a61", "lon": -77.02336183333334, "rental_uris": {"ios": "https://dc.lft.to/lastmile_qr_scan", "android": "https://dc.lft.to/lastmile_qr_scan"}}, {"name": "ad4309e4482cba56abb66c0c3186e6c9", "fusion_lat": 0.0, "type": "electric_scooter", "lat": 38.91943933333334, "is_reserved": 0, "is_disabled": 0, "fusion_lon": 0.0, "bike_id": "ad4309e4482cba56abb66c0c3186e6c9", "lon": -77.02374016666667, "rental_uris": {"ios": "https://dc.lft.to/lastmile_qr_scan", "android": "https://dc.lft.to/lastmile_qr_scan"}}, {"name": "4c449549bf95fb190f079e20397a1285", "fusion_lat": 0.0, "type": "electric_scooter", "lat": 38.907391833333335, "is_reserved": 0, "is_disabled": 0, "fusion_lon": 0.0, "bike_id": "4c449549bf95fb190f079e20397a1285", "lon": -77.02687533333334, "rental_uris": {"ios": "https://dc.lft.to/lastmile_qr_scan", "android": "https://dc.lft.to/lastmile_qr_scan"}}, {"name": "83864e98168f67c59d7522945c54c978", "fusion_lat": 0.0, "type": "electric_scooter", "lat": 38.905983, "is_reserved": 0, "is_disabled": 0, "fusion_lon": 0.0, "bike_id": "83864e98168f67c59d7522945c54c978", "lon": -77.04649666666667, "rental_uris": {"ios": "https://dc.lft.to/lastmile_qr_scan", "android": "https://dc.lft.to/lastmile_qr_scan"}}, {"name": "6f5675b54c6bd0e031c293fc47f620bf", "fusion_lat": 0.0, "type": "electric_bike", "lat": 39.09461016666667, "is_reserved": 0, "is_disabled": 0, "fusion_lon": 0.0, "bike_id": "6f5675b54c6bd0e031c293fc47f620bf", "lon": -77.14994983333334, "rental_uris": {"ios": "https://dc.lft.to/lastmile_qr_scan", "android": "https://dc.lft.to/lastmile_qr_scan"}}, {"name": "6583563843463b46c38468ddf72a11a2", "fusion_lat": 0.0, "type": "electric_scooter", "lat": 38.92372483333333, "is_reserved": 0, "is_disabled": 0, "fusion_lon": 0.0, "bike_id": "6583563843463b46c38468ddf72a11a2", "lon": -77.0298955, "rental_uris": {"ios": "https://dc.lft.to/lastmile_qr_scan", "android": "https://dc.lft.to/lastmile_qr_scan"}}, {"name": "bcf77b92a6e8673d51bc3a1e0a89e75d", "fusion_lat": 0.0, "type": "electric_scooter", "lat": 38.89228166666667, "is_reserved": 0, "is_disabled": 0, "fusion_lon": 0.0, "bike_id": "bcf77b92a6e8673d51bc3a1e0a89e75d", "lon": -77.031839, "rental_uris": {"ios": "https://dc.lft.to/lastmile_qr_scan", "android": "https://dc.lft.to/lastmile_qr_scan"}}, {"name": "8678262a25b540c9b2cf4026310cea8d", "fusion_lat": 0.0, "type": "electric_scooter", "lat": 38.89907083333333, "is_reserved": 0, "is_disabled": 0, "fusion_lon": 0.0, "bike_id": "8678262a25b540c9b2cf4026310cea8d", "lon": -76.93372916666667, "rental_uris": {"ios": "https://dc.lft.to/lastmile_qr_scan", "android": "https://dc.lft.to/lastmile_qr_scan"}}, {"name": "2ae121dc8535a62804b5d0a211f02adb", "fusion_lat": 0.0, "type": "electric_scooter", "lat": 38.91819983333333, "is_reserved": 0, "is_disabled": 0, "fusion_lon": 0.0, "bike_id": "2ae121dc8535a62804b5d0a211f02adb", "lon": -77.027951, "rental_uris": {"ios": "https://dc.lft.to/lastmile_qr_scan", "android": "https://dc.lft.to/lastmile_qr_scan"}}, {"name": "3a76da83a15ee12c10e721dae9a00563", "fusion_lat": 0.0, "type": "electric_scooter", "lat": 38.912660833333334, "is_reserved": 0, "is_disabled": 0, "fusion_lon": 0.0, "bike_id": "3a76da83a15ee12c10e721dae9a00563", "lon": -77.03803733333334, "rental_uris": {"ios": "https://dc.lft.to/lastmile_qr_scan", "android": "https://dc.lft.to/lastmile_qr_scan"}}, {"name": "728cb8517ef332d06509a7c519b66bda", "fusion_lat": 0.0, "type": "electric_bike", "lat": 38.8708635, "is_reserved": 0, "is_disabled": 0, "fusion_lon": 0.0, "bike_id": "728cb8517ef332d06509a7c519b66bda", "lon": -77.01204883333334, "rental_uris": {"ios": "https://dc.lft.to/lastmile_qr_scan", "android": "https://dc.lft.to/lastmile_qr_scan"}}, {"name": "59d31155bd3f7f746df890324e746db8", "fusion_lat": 0.0, "type": "electric_scooter", "lat": 38.90808083333334, "is_reserved": 0, "is_disabled": 0, "fusion_lon": 0.0, "bike_id": "59d31155bd3f7f746df890324e746db8", "lon": -77.03395616666667, "rental_uris": {"ios": "https://dc.lft.to/lastmile_qr_scan", "android": "https://dc.lft.to/lastmile_qr_scan"}}, {"name": "c2346d283110dce75ddc4a74314915ca", "fusion_lat": 0.0, "type": "electric_scooter", "lat": 38.92722583333333, "is_reserved": 0, "is_disabled": 0, "fusion_lon": 0.0, "bike_id": "c2346d283110dce75ddc4a74314915ca", "lon": -77.00561316666666, "rental_uris": {"ios": "https://dc.lft.to/lastmile_qr_scan", "android": "https://dc.lft.to/lastmile_qr_scan"}}, {"name": "f10b641f92319939f034798252649383", "fusion_lat": 0.0, "type": "electric_bike", "lat": 38.875325333333336, "is_reserved": 0, "is_disabled": 0, "fusion_lon": 0.0, "bike_id": "f10b641f92319939f034798252649383", "lon": -77.19906116666667, "rental_uris": {"ios": "https://dc.lft.to/lastmile_qr_scan", "android": "https://dc.lft.to/lastmile_qr_scan"}}, {"name": "01eb02697c43c571888a925f74ac50a0", "fusion_lat": 0.0, "type": "electric_scooter", "lat": 38.91761483333333, "is_reserved": 0, "is_disabled": 0, "fusion_lon": 0.0, "bike_id": "01eb02697c43c571888a925f74ac50a0", "lon": -77.02512233333333, "rental_uris": {"ios": "https://dc.lft.to/lastmile_qr_scan", "android": "https://dc.lft.to/lastmile_qr_scan"}}, {"name": "538152822b253a8f5628bb3668674820", "fusion_lat": 0.0, "type": "electric_scooter", "lat": 38.957810333333335, "is_reserved": 0, "is_disabled": 0, "fusion_lon": 0.0, "bike_id": "538152822b253a8f5628bb3668674820", "lon": -77.02750566666667, "rental_uris": {"ios": "https://dc.lft.to/lastmile_qr_scan", "android": "https://dc.lft.to/lastmile_qr_scan"}}, {"name": "dde39a6bdb99685a048d5e1e715df1c6", "fusion_lat": 0.0, "type": "electric_scooter", "lat": 38.9020425, "is_reserved": 0, "is_disabled": 0, "fusion_lon": 0.0, "bike_id": "dde39a6bdb99685a048d5e1e715df1c6", "lon": -77.05060516666667, "rental_uris": {"ios": "https://dc.lft.to/lastmile_qr_scan", "android": "https://dc.lft.to/lastmile_qr_scan"}}, {"name": "a9b3927ec701ea49e38f653ecee7e915", "fusion_lat": 0.0, "type": "electric_scooter", "lat": 38.91246366666667, "is_reserved": 0, "is_disabled": 0, "fusion_lon": 0.0, "bike_id": "a9b3927ec701ea49e38f653ecee7e915", "lon": -77.03843266666667, "rental_uris": {"ios": "https://dc.lft.to/lastmile_qr_scan", "android": "https://dc.lft.to/lastmile_qr_scan"}}, {"name": "5f03e0878a3cbb4b7146b29897478e43", "fusion_lat": 0.0, "type": "electric_scooter", "lat": 38.918302, "is_reserved": 0, "is_disabled": 0, "fusion_lon": 0.0, "bike_id": "5f03e0878a3cbb4b7146b29897478e43", "lon": -77.045582, "rental_uris": {"ios": "https://dc.lft.to/lastmile_qr_scan", "android": "https://dc.lft.to/lastmile_qr_scan"}}, {"name": "d5504df149f921e39105d52472730948", "fusion_lat": 0.0, "type": "electric_scooter", "lat": 38.890018, "is_reserved": 0, "is_disabled": 0, "fusion_lon": 0.0, "bike_id": "d5504df149f921e39105d52472730948", "lon": -77.04897516666666, "rental_uris": {"ios": "https://dc.lft.to/lastmile_qr_scan", "android": "https://dc.lft.to/lastmile_qr_scan"}}, {"name": "29d0a954292c11de76e4158974eaacbe", "fusion_lat": 0.0, "type": "electric_bike", "lat": 38.844791666666666, "is_reserved": 0, "is_disabled": 0, "fusion_lon": 0.0, "bike_id": "29d0a954292c11de76e4158974eaacbe", "lon": -76.972129, "rental_uris": {"ios": "https://dc.lft.to/lastmile_qr_scan", "android": "https://dc.lft.to/lastmile_qr_scan"}}, {"name": "359aa7db2610d1b426be2b3a84e4d489", "fusion_lat": 0.0, "type": "electric_scooter", "lat": 38.91720816666667, "is_reserved": 0, "is_disabled": 0, "fusion_lon": 0.0, "bike_id": "359aa7db2610d1b426be2b3a84e4d489", "lon": -77.01865833333333, "rental_uris": {"ios": "https://dc.lft.to/lastmile_qr_scan", "android": "https://dc.lft.to/lastmile_qr_scan"}}, {"name": "3e472cdd54920adaa81420e517b94da5", "fusion_lat": 0.0, "type": "electric_scooter", "lat": 38.903737666666665, "is_reserved": 0, "is_disabled": 0, "fusion_lon": 0.0, "bike_id": "3e472cdd54920adaa81420e517b94da5", "lon": -77.042557, "rental_uris": {"ios": "https://dc.lft.to/lastmile_qr_scan", "android": "https://dc.lft.to/lastmile_qr_scan"}}, {"name": "d71223cc6d88724f37db494100ceabe8", "fusion_lat": 0.0, "type": "electric_bike", "lat": 38.92331316666667, "is_reserved": 0, "is_disabled": 0, "fusion_lon": 0.0, "bike_id": "d71223cc6d88724f37db494100ceabe8", "lon": -77.02287016666666, "rental_uris": {"ios": "https://dc.lft.to/lastmile_qr_scan", "android": "https://dc.lft.to/lastmile_qr_scan"}}, {"name": "db6d62cc8fa1e297ad700e914606a661", "fusion_lat": 0.0, "type": "electric_bike", "lat": 38.946235, "is_reserved": 0, "is_disabled": 0, "fusion_lon": 0.0, "bike_id": "db6d62cc8fa1e297ad700e914606a661", "lon": -77.08048583333333, "rental_uris": {"ios": "https://dc.lft.to/lastmile_qr_scan", "android": "https://dc.lft.to/lastmile_qr_scan"}}, {"name": "bd19d4247e4453f071dbc6bbfa1f131d", "fusion_lat": 0.0, "type": "electric_scooter", "lat": 38.897314333333334, "is_reserved": 0, "is_disabled": 0, "fusion_lon": 0.0, "bike_id": "bd19d4247e4453f071dbc6bbfa1f131d", "lon": -77.04643816666666, "rental_uris": {"ios": "https://dc.lft.to/lastmile_qr_scan", "android": "https://dc.lft.to/lastmile_qr_scan"}}, {"name": "c5cedd33ea5fa04e6fdc8ea33d24716d", "fusion_lat": 0.0, "type": "electric_scooter", "lat": 38.943436166666665, "is_reserved": 0, "is_disabled": 0, "fusion_lon": 0.0, "bike_id": "c5cedd33ea5fa04e6fdc8ea33d24716d", "lon": -77.06054166666667, "rental_uris": {"ios": "https://dc.lft.to/lastmile_qr_scan", "android": "https://dc.lft.to/lastmile_qr_scan"}}, {"name": "ef20cc9d0b60df169c5c00cd4e0253cf", "fusion_lat": 0.0, "type": "electric_scooter", "lat": 38.895582, "is_reserved": 0, "is_disabled": 0, "fusion_lon": 0.0, "bike_id": "ef20cc9d0b60df169c5c00cd4e0253cf", "lon": -77.04678033333333, "rental_uris": {"ios": "https://dc.lft.to/lastmile_qr_scan", "android": "https://dc.lft.to/lastmile_qr_scan"}}, {"name": "5e549dd775228e7d91ba144c742ce9d0", "fusion_lat": 0.0, "type": "electric_scooter", "lat": 38.87087, "is_reserved": 0, "is_disabled": 0, "fusion_lon": 0.0, "bike_id": "5e549dd775228e7d91ba144c742ce9d0", "lon": -77.011221, "rental_uris": {"ios": "https://dc.lft.to/lastmile_qr_scan", "android": "https://dc.lft.to/lastmile_qr_scan"}}, {"name": "6c31321a294fe11a9041064e28f41163", "fusion_lat": 0.0, "type": "electric_scooter", "lat": 38.88778933333333, "is_reserved": 0, "is_disabled": 0, "fusion_lon": 0.0, "bike_id": "6c31321a294fe11a9041064e28f41163", "lon": -76.95529966666666, "rental_uris": {"ios": "https://dc.lft.to/lastmile_qr_scan", "android": "https://dc.lft.to/lastmile_qr_scan"}}, {"name": "e33c7c23ac3ad86f38406e3f908a34e9", "fusion_lat": 0.0, "type": "electric_scooter", "lat": 38.934650166666664, "is_reserved": 0, "is_disabled": 0, "fusion_lon": 0.0, "bike_id": "e33c7c23ac3ad86f38406e3f908a34e9", "lon": -77.08638883333333, "rental_uris": {"ios": "https://dc.lft.to/lastmile_qr_scan", "android": "https://dc.lft.to/lastmile_qr_scan"}}, {"name": "2762eadb13b850262ea56d30b5c7e3ff", "fusion_lat": 0.0, "type": "electric_scooter", "lat": 38.90572216666666, "is_reserved": 0, "is_disabled": 0, "fusion_lon": 0.0, "bike_id": "2762eadb13b850262ea56d30b5c7e3ff", "lon": -77.056998, "rental_uris": {"ios": "https://dc.lft.to/lastmile_qr_scan", "android": "https://dc.lft.to/lastmile_qr_scan"}}, {"name": "f40ad14634489f14d3eb73b75e9e1316", "fusion_lat": 0.0, "type": "electric_scooter", "lat": 38.8691245, "is_reserved": 0, "is_disabled": 0, "fusion_lon": 0.0, "bike_id": "f40ad14634489f14d3eb73b75e9e1316", "lon": -76.97499716666667, "rental_uris": {"ios": "https://dc.lft.to/lastmile_qr_scan", "android": "https://dc.lft.to/lastmile_qr_scan"}}, {"name": "f758b178f25223d6599bcef388fa570b", "fusion_lat": 0.0, "type": "electric_scooter", "lat": 38.92097666666667, "is_reserved": 0, "is_disabled": 0, "fusion_lon": 0.0, "bike_id": "f758b178f25223d6599bcef388fa570b", "lon": -77.026946, "rental_uris": {"ios": "https://dc.lft.to/lastmile_qr_scan", "android": "https://dc.lft.to/lastmile_qr_scan"}}, {"name": "3689c61337b3f10da08256936b15ab9f", "fusion_lat": 0.0, "type": "electric_scooter", "lat": 38.923583, "is_reserved": 0, "is_disabled": 0, "fusion_lon": 0.0, "bike_id": "3689c61337b3f10da08256936b15ab9f", "lon": -77.05060983333334, "rental_uris": {"ios": "https://dc.lft.to/lastmile_qr_scan", "android": "https://dc.lft.to/lastmile_qr_scan"}}, {"name": "cad102287d94fea80f325092f4092720", "fusion_lat": 0.0, "type": "electric_bike", "lat": 38.868699, "is_reserved": 0, "is_disabled": 0, "fusion_lon": 0.0, "bike_id": "cad102287d94fea80f325092f4092720", "lon": -76.91662916666667, "rental_uris": {"ios": "https://dc.lft.to/lastmile_qr_scan", "android": "https://dc.lft.to/lastmile_qr_scan"}}, {"name": "d3c154f946e2a9e7cc27c37409018407", "fusion_lat": 0.0, "type": "electric_scooter", "lat": 38.914191333333335, "is_reserved": 0, "is_disabled": 0, "fusion_lon": 0.0, "bike_id": "d3c154f946e2a9e7cc27c37409018407", "lon": -77.00976083333333, "rental_uris": {"ios": "https://dc.lft.to/lastmile_qr_scan", "android": "https://dc.lft.to/lastmile_qr_scan"}}, {"name": "58d299e31bee3821a7ad8c6884bdfdab", "fusion_lat": 0.0, "type": "electric_bike", "lat": 38.89647166666666, "is_reserved": 0, "is_disabled": 0, "fusion_lon": 0.0, "bike_id": "58d299e31bee3821a7ad8c6884bdfdab", "lon": -77.10450366666667, "rental_uris": {"ios": "https://dc.lft.to/lastmile_qr_scan", "android": "https://dc.lft.to/lastmile_qr_scan"}}, {"name": "a6d10bf8e0fdc883aa3d3073e32653f0", "fusion_lat": 0.0, "type": "electric_scooter", "lat": 38.896739833333335, "is_reserved": 0, "is_disabled": 0, "fusion_lon": 0.0, "bike_id": "a6d10bf8e0fdc883aa3d3073e32653f0", "lon": -76.9472375, "rental_uris": {"ios": "https://dc.lft.to/lastmile_qr_scan", "android": "https://dc.lft.to/lastmile_qr_scan"}}, {"name": "05b0e879797bc7a58b5050e16c5b6e62", "fusion_lat": 0.0, "type": "electric_scooter", "lat": 38.87476133333333, "is_reserved": 0, "is_disabled": 0, "fusion_lon": 0.0, "bike_id": "05b0e879797bc7a58b5050e16c5b6e62", "lon": -77.01068033333334, "rental_uris": {"ios": "https://dc.lft.to/lastmile_qr_scan", "android": "https://dc.lft.to/lastmile_qr_scan"}}, {"name": "281d5b39c3c826e15919986024b18117", "fusion_lat": 0.0, "type": "electric_scooter", "lat": 38.903946166666664, "is_reserved": 0, "is_disabled": 0, "fusion_lon": 0.0, "bike_id": "281d5b39c3c826e15919986024b18117", "lon": -76.9894115, "rental_uris": {"ios": "https://dc.lft.to/lastmile_qr_scan", "android": "https://dc.lft.to/lastmile_qr_scan"}}, {"name": "0558ddaa0ed622c7eeadc93c194c842b", "fusion_lat": 0.0, "type": "electric_scooter", "lat": 38.91110283333333, "is_reserved": 0, "is_disabled": 0, "fusion_lon": 0.0, "bike_id": "0558ddaa0ed622c7eeadc93c194c842b", "lon": -77.0449915, "rental_uris": {"ios": "https://dc.lft.to/lastmile_qr_scan", "android": "https://dc.lft.to/lastmile_qr_scan"}}, {"name": "2e37727502e369fd0090c623f998149e", "fusion_lat": 0.0, "type": "electric_scooter", "lat": 38.90326983333333, "is_reserved": 0, "is_disabled": 0, "fusion_lon": 0.0, "bike_id": "2e37727502e369fd0090c623f998149e", "lon": -77.02898033333334, "rental_uris": {"ios": "https://dc.lft.to/lastmile_qr_scan", "android": "https://dc.lft.to/lastmile_qr_scan"}}, {"name": "5964c3e10e5810410ee395a066ba5949", "fusion_lat": 0.0, "type": "electric_scooter", "lat": 38.92231116666667, "is_reserved": 0, "is_disabled": 0, "fusion_lon": 0.0, "bike_id": "5964c3e10e5810410ee395a066ba5949", "lon": -77.02335083333334, "rental_uris": {"ios": "https://dc.lft.to/lastmile_qr_scan", "android": "https://dc.lft.to/lastmile_qr_scan"}}, {"name": "65a701a116c123cde2053ea8028830b4", "fusion_lat": 0.0, "type": "electric_bike", "lat": 38.940933333333334, "is_reserved": 0, "is_disabled": 0, "fusion_lon": 0.0, "bike_id": "65a701a116c123cde2053ea8028830b4", "lon": -77.0326235, "rental_uris": {"ios": "https://dc.lft.to/lastmile_qr_scan", "android": "https://dc.lft.to/lastmile_qr_scan"}}, {"name": "cc53bf1d6b0f5be04e28617880630a37", "fusion_lat": 0.0, "type": "electric_scooter", "lat": 38.89714566666667, "is_reserved": 0, "is_disabled": 0, "fusion_lon": 0.0, "bike_id": "cc53bf1d6b0f5be04e28617880630a37", "lon": -77.02657433333333, "rental_uris": {"ios": "https://dc.lft.to/lastmile_qr_scan", "android": "https://dc.lft.to/lastmile_qr_scan"}}, {"name": "a8cec4faea59c9fb40894e02a23b9d4c", "fusion_lat": 0.0, "type": "electric_scooter", "lat": 38.90322416666667, "is_reserved": 0, "is_disabled": 0, "fusion_lon": 0.0, "bike_id": "a8cec4faea59c9fb40894e02a23b9d4c", "lon": -77.01630083333333, "rental_uris": {"ios": "https://dc.lft.to/lastmile_qr_scan", "android": "https://dc.lft.to/lastmile_qr_scan"}}, {"name": "7266ebe31d96529edaa0d5cb3436ba2d", "fusion_lat": 0.0, "type": "electric_scooter", "lat": 38.8838155, "is_reserved": 0, "is_disabled": 0, "fusion_lon": 0.0, "bike_id": "7266ebe31d96529edaa0d5cb3436ba2d", "lon": -76.99523766666667, "rental_uris": {"ios": "https://dc.lft.to/lastmile_qr_scan", "android": "https://dc.lft.to/lastmile_qr_scan"}}, {"name": "f8fda410b656c09bb12b58c20085371e", "fusion_lat": 0.0, "type": "electric_scooter", "lat": 38.9014395, "is_reserved": 0, "is_disabled": 0, "fusion_lon": 0.0, "bike_id": "f8fda410b656c09bb12b58c20085371e", "lon": -77.02900566666666, "rental_uris": {"ios": "https://dc.lft.to/lastmile_qr_scan", "android": "https://dc.lft.to/lastmile_qr_scan"}}, {"name": "66bca5366ad497df6780b741cab990a0", "fusion_lat": 0.0, "type": "electric_scooter", "lat": 38.894133833333335, "is_reserved": 0, "is_disabled": 0, "fusion_lon": 0.0, "bike_id": "66bca5366ad497df6780b741cab990a0", "lon": -76.93961983333334, "rental_uris": {"ios": "https://dc.lft.to/lastmile_qr_scan", "android": "https://dc.lft.to/lastmile_qr_scan"}}, {"name": "aa60ccdd499147b7a3d78a4f862d9471", "fusion_lat": 0.0, "type": "electric_scooter", "lat": 38.896158666666665, "is_reserved": 0, "is_disabled": 0, "fusion_lon": 0.0, "bike_id": "aa60ccdd499147b7a3d78a4f862d9471", "lon": -77.0231005, "rental_uris": {"ios": "https://dc.lft.to/lastmile_qr_scan", "android": "https://dc.lft.to/lastmile_qr_scan"}}, {"name": "bce6ef6b0d93a8b887718277ef048716", "fusion_lat": 0.0, "type": "electric_bike", "lat": 38.93671, "is_reserved": 0, "is_disabled": 0, "fusion_lon": 0.0, "bike_id": "bce6ef6b0d93a8b887718277ef048716", "lon": -76.952075, "rental_uris": {"ios": "https://dc.lft.to/lastmile_qr_scan", "android": "https://dc.lft.to/lastmile_qr_scan"}}, {"name": "5e5346dbd3f089f4f3b3091f6378f768", "fusion_lat": 0.0, "type": "electric_scooter", "lat": 38.907986333333334, "is_reserved": 0, "is_disabled": 0, "fusion_lon": 0.0, "bike_id": "5e5346dbd3f089f4f3b3091f6378f768", "lon": -77.0482275, "rental_uris": {"ios": "https://dc.lft.to/lastmile_qr_scan", "android": "https://dc.lft.to/lastmile_qr_scan"}}, {"name": "22504d6b690a694832646c247bb5dbfe", "fusion_lat": 0.0, "type": "electric_bike", "lat": 38.9198785, "is_reserved": 0, "is_disabled": 0, "fusion_lon": 0.0, "bike_id": "22504d6b690a694832646c247bb5dbfe", "lon": -77.03790916666667, "rental_uris": {"ios": "https://dc.lft.to/lastmile_qr_scan", "android": "https://dc.lft.to/lastmile_qr_scan"}}, {"name": "f297bf456b8e249812fab70a3ec2d78d", "fusion_lat": 0.0, "type": "electric_scooter", "lat": 38.930038, "is_reserved": 0, "is_disabled": 0, "fusion_lon": 0.0, "bike_id": "f297bf456b8e249812fab70a3ec2d78d", "lon": -77.02305, "rental_uris": {"ios": "https://dc.lft.to/lastmile_qr_scan", "android": "https://dc.lft.to/lastmile_qr_scan"}}, {"name": "2dcdfa0bbd380e876506757f2381a2fb", "fusion_lat": 0.0, "type": "electric_scooter", "lat": 38.91987733333333, "is_reserved": 0, "is_disabled": 0, "fusion_lon": 0.0, "bike_id": "2dcdfa0bbd380e876506757f2381a2fb", "lon": -76.9730435, "rental_uris": {"ios": "https://dc.lft.to/lastmile_qr_scan", "android": "https://dc.lft.to/lastmile_qr_scan"}}, {"name": "1d070527c4975d8cae8ae7b4c4563b6d", "fusion_lat": 0.0, "type": "electric_bike", "lat": 38.9288285, "is_reserved": 0, "is_disabled": 0, "fusion_lon": 0.0, "bike_id": "1d070527c4975d8cae8ae7b4c4563b6d", "lon": -77.03277416666667, "rental_uris": {"ios": "https://dc.lft.to/lastmile_qr_scan", "android": "https://dc.lft.to/lastmile_qr_scan"}}, {"name": "5f0f59f1bf0763ae2c71a2307181454f", "fusion_lat": 0.0, "type": "electric_scooter", "lat": 38.942941, "is_reserved": 0, "is_disabled": 0, "fusion_lon": 0.0, "bike_id": "5f0f59f1bf0763ae2c71a2307181454f", "lon": -77.021743, "rental_uris": {"ios": "https://dc.lft.to/lastmile_qr_scan", "android": "https://dc.lft.to/lastmile_qr_scan"}}, {"name": "e62db5d7ff9a74092a69392b0cade3ff", "fusion_lat": 0.0, "type": "electric_scooter", "lat": 38.91262733333333, "is_reserved": 0, "is_disabled": 0, "fusion_lon": 0.0, "bike_id": "e62db5d7ff9a74092a69392b0cade3ff", "lon": -77.02229383333334, "rental_uris": {"ios": "https://dc.lft.to/lastmile_qr_scan", "android": "https://dc.lft.to/lastmile_qr_scan"}}, {"name": "db60bf71962a2a7b01e93c34fa708fab", "fusion_lat": 0.0, "type": "electric_bike", "lat": 38.921093166666665, "is_reserved": 0, "is_disabled": 0, "fusion_lon": 0.0, "bike_id": "db60bf71962a2a7b01e93c34fa708fab", "lon": -77.06330483333333, "rental_uris": {"ios": "https://dc.lft.to/lastmile_qr_scan", "android": "https://dc.lft.to/lastmile_qr_scan"}}, {"name": "938ab3918c7cd6295d1f208bb4f07b61", "fusion_lat": 0.0, "type": "electric_scooter", "lat": 38.932375, "is_reserved": 0, "is_disabled": 0, "fusion_lon": 0.0, "bike_id": "938ab3918c7cd6295d1f208bb4f07b61", "lon": -77.03588316666666, "rental_uris": {"ios": "https://dc.lft.to/lastmile_qr_scan", "android": "https://dc.lft.to/lastmile_qr_scan"}}, {"name": "53a5ed2301383dee80e6bf85187db9b3", "fusion_lat": 0.0, "type": "electric_scooter", "lat": 38.863688, "is_reserved": 0, "is_disabled": 0, "fusion_lon": 0.0, "bike_id": "53a5ed2301383dee80e6bf85187db9b3", "lon": -77.0136835, "rental_uris": {"ios": "https://dc.lft.to/lastmile_qr_scan", "android": "https://dc.lft.to/lastmile_qr_scan"}}, {"name": "4e31d26535090e972929855641fe367a", "fusion_lat": 0.0, "type": "electric_scooter", "lat": 38.8973925, "is_reserved": 0, "is_disabled": 0, "fusion_lon": 0.0, "bike_id": "4e31d26535090e972929855641fe367a", "lon": -76.94254766666667, "rental_uris": {"ios": "https://dc.lft.to/lastmile_qr_scan", "android": "https://dc.lft.to/lastmile_qr_scan"}}, {"name": "e1461f7a3b4c736f2ef70e6878cc7141", "fusion_lat": 0.0, "type": "electric_scooter", "lat": 38.902649833333335, "is_reserved": 0, "is_disabled": 0, "fusion_lon": 0.0, "bike_id": "e1461f7a3b4c736f2ef70e6878cc7141", "lon": -77.01759866666667, "rental_uris": {"ios": "https://dc.lft.to/lastmile_qr_scan", "android": "https://dc.lft.to/lastmile_qr_scan"}}, {"name": "2ce101cdfd8c411521611f6bff72a86a", "fusion_lat": 0.0, "type": "electric_scooter", "lat": 38.883987, "is_reserved": 0, "is_disabled": 0, "fusion_lon": 0.0, "bike_id": "2ce101cdfd8c411521611f6bff72a86a", "lon": -76.930407, "rental_uris": {"ios": "https://dc.lft.to/lastmile_qr_scan", "android": "https://dc.lft.to/lastmile_qr_scan"}}, {"name": "e12ef51b4595b74077617dacef1d9718", "fusion_lat": 0.0, "type": "electric_scooter", "lat": 38.87572516666667, "is_reserved": 0, "is_disabled": 0, "fusion_lon": 0.0, "bike_id": "e12ef51b4595b74077617dacef1d9718", "lon": -77.0060325, "rental_uris": {"ios": "https://dc.lft.to/lastmile_qr_scan", "android": "https://dc.lft.to/lastmile_qr_scan"}}, {"name": "d8b3ee97e084aecf12c9acafdb913f7e", "fusion_lat": 0.0, "type": "electric_scooter", "lat": 38.93874816666667, "is_reserved": 0, "is_disabled": 0, "fusion_lon": 0.0, "bike_id": "d8b3ee97e084aecf12c9acafdb913f7e", "lon": -77.029176, "rental_uris": {"ios": "https://dc.lft.to/lastmile_qr_scan", "android": "https://dc.lft.to/lastmile_qr_scan"}}, {"name": "0f885fdc00fa39d14918b316404a42ed", "fusion_lat": 0.0, "type": "electric_scooter", "lat": 38.9071255, "is_reserved": 0, "is_disabled": 0, "fusion_lon": 0.0, "bike_id": "0f885fdc00fa39d14918b316404a42ed", "lon": -77.01512233333334, "rental_uris": {"ios": "https://dc.lft.to/lastmile_qr_scan", "android": "https://dc.lft.to/lastmile_qr_scan"}}, {"name": "18a924bd951662463d64968f0cc65917", "fusion_lat": 0.0, "type": "electric_scooter", "lat": 38.92876416666667, "is_reserved": 0, "is_disabled": 0, "fusion_lon": 0.0, "bike_id": "18a924bd951662463d64968f0cc65917", "lon": -77.013795, "rental_uris": {"ios": "https://dc.lft.to/lastmile_qr_scan", "android": "https://dc.lft.to/lastmile_qr_scan"}}, {"name": "8915334b7d90c1d35e5cd6e9438842e8", "fusion_lat": 0.0, "type": "electric_scooter", "lat": 38.926088166666666, "is_reserved": 0, "is_disabled": 0, "fusion_lon": 0.0, "bike_id": "8915334b7d90c1d35e5cd6e9438842e8", "lon": -77.02161033333333, "rental_uris": {"ios": "https://dc.lft.to/lastmile_qr_scan", "android": "https://dc.lft.to/lastmile_qr_scan"}}, {"name": "43518db4126da99f90622db68a8411f2", "fusion_lat": 0.0, "type": "electric_scooter", "lat": 38.90236616666667, "is_reserved": 0, "is_disabled": 0, "fusion_lon": 0.0, "bike_id": "43518db4126da99f90622db68a8411f2", "lon": -77.0435565, "rental_uris": {"ios": "https://dc.lft.to/lastmile_qr_scan", "android": "https://dc.lft.to/lastmile_qr_scan"}}, {"name": "3fef23693f79ef75ba77338c7a4fc918", "fusion_lat": 0.0, "type": "electric_scooter", "lat": 38.929722166666664, "is_reserved": 0, "is_disabled": 0, "fusion_lon": 0.0, "bike_id": "3fef23693f79ef75ba77338c7a4fc918", "lon": -77.02957566666667, "rental_uris": {"ios": "https://dc.lft.to/lastmile_qr_scan", "android": "https://dc.lft.to/lastmile_qr_scan"}}, {"name": "315a0576348c7c39733c4d3cd4ca3360", "fusion_lat": 0.0, "type": "electric_scooter", "lat": 38.93124783333333, "is_reserved": 0, "is_disabled": 0, "fusion_lon": 0.0, "bike_id": "315a0576348c7c39733c4d3cd4ca3360", "lon": -77.036061, "rental_uris": {"ios": "https://dc.lft.to/lastmile_qr_scan", "android": "https://dc.lft.to/lastmile_qr_scan"}}, {"name": "30201cdd1834aefaf08d3e43ef63e06b", "fusion_lat": 0.0, "type": "electric_bike", "lat": 38.97329716666667, "is_reserved": 0, "is_disabled": 0, "fusion_lon": 0.0, "bike_id": "30201cdd1834aefaf08d3e43ef63e06b", "lon": -77.02146866666666, "rental_uris": {"ios": "https://dc.lft.to/lastmile_qr_scan", "android": "https://dc.lft.to/lastmile_qr_scan"}}, {"name": "d7c838944c9df646e91c6def2f61a0cb", "fusion_lat": 0.0, "type": "electric_scooter", "lat": 38.89647183333334, "is_reserved": 0, "is_disabled": 0, "fusion_lon": 0.0, "bike_id": "d7c838944c9df646e91c6def2f61a0cb", "lon": -77.00915283333333, "rental_uris": {"ios": "https://dc.lft.to/lastmile_qr_scan", "android": "https://dc.lft.to/lastmile_qr_scan"}}, {"name": "4a81c783ea96f839c8fb3d2f388b4ae5", "fusion_lat": 0.0, "type": "electric_scooter", "lat": 38.914084333333335, "is_reserved": 0, "is_disabled": 0, "fusion_lon": 0.0, "bike_id": "4a81c783ea96f839c8fb3d2f388b4ae5", "lon": -77.045691, "rental_uris": {"ios": "https://dc.lft.to/lastmile_qr_scan", "android": "https://dc.lft.to/lastmile_qr_scan"}}, {"name": "1f51aa7f3ac3ec56be62023e970893d6", "fusion_lat": 0.0, "type": "electric_scooter", "lat": 38.90023133333333, "is_reserved": 0, "is_disabled": 0, "fusion_lon": 0.0, "bike_id": "1f51aa7f3ac3ec56be62023e970893d6", "lon": -76.99563016666667, "rental_uris": {"ios": "https://dc.lft.to/lastmile_qr_scan", "android": "https://dc.lft.to/lastmile_qr_scan"}}, {"name": "328d473027042b85a7c8f886b7768ff9", "fusion_lat": 0.0, "type": "electric_scooter", "lat": 38.89732516666667, "is_reserved": 0, "is_disabled": 0, "fusion_lon": 0.0, "bike_id": "328d473027042b85a7c8f886b7768ff9", "lon": -77.02166616666666, "rental_uris": {"ios": "https://dc.lft.to/lastmile_qr_scan", "android": "https://dc.lft.to/lastmile_qr_scan"}}, {"name": "1a0a3d8fb425730f83b122b2d53ab5c9", "fusion_lat": 0.0, "type": "electric_scooter", "lat": 38.894826, "is_reserved": 0, "is_disabled": 0, "fusion_lon": 0.0, "bike_id": "1a0a3d8fb425730f83b122b2d53ab5c9", "lon": -76.94872133333334, "rental_uris": {"ios": "https://dc.lft.to/lastmile_qr_scan", "android": "https://dc.lft.to/lastmile_qr_scan"}}, {"name": "d9d1dab1d177adb170d7c620ddc2d443", "fusion_lat": 0.0, "type": "electric_scooter", "lat": 38.90098066666667, "is_reserved": 0, "is_disabled": 0, "fusion_lon": 0.0, "bike_id": "d9d1dab1d177adb170d7c620ddc2d443", "lon": -77.0467015, "rental_uris": {"ios": "https://dc.lft.to/lastmile_qr_scan", "android": "https://dc.lft.to/lastmile_qr_scan"}}, {"name": "9fe9dff0e67453a3b7d052e5f1762ca0", "fusion_lat": 0.0, "type": "electric_scooter", "lat": 38.89302283333333, "is_reserved": 0, "is_disabled": 0, "fusion_lon": 0.0, "bike_id": "9fe9dff0e67453a3b7d052e5f1762ca0", "lon": -77.03168266666667, "rental_uris": {"ios": "https://dc.lft.to/lastmile_qr_scan", "android": "https://dc.lft.to/lastmile_qr_scan"}}, {"name": "db01733d70342a95678df465750acfbe", "fusion_lat": 0.0, "type": "electric_bike", "lat": 38.9455085, "is_reserved": 0, "is_disabled": 0, "fusion_lon": 0.0, "bike_id": "db01733d70342a95678df465750acfbe", "lon": -76.89533633333333, "rental_uris": {"ios": "https://dc.lft.to/lastmile_qr_scan", "android": "https://dc.lft.to/lastmile_qr_scan"}}, {"name": "26d1a1bd7447b8f464172810d59b44fb", "fusion_lat": 0.0, "type": "electric_scooter", "lat": 38.93711883333334, "is_reserved": 0, "is_disabled": 0, "fusion_lon": 0.0, "bike_id": "26d1a1bd7447b8f464172810d59b44fb", "lon": -77.02457116666666, "rental_uris": {"ios": "https://dc.lft.to/lastmile_qr_scan", "android": "https://dc.lft.to/lastmile_qr_scan"}}, {"name": "31700d3490732e7019f1e32cf46b94d1", "fusion_lat": 0.0, "type": "electric_scooter", "lat": 38.9215365, "is_reserved": 0, "is_disabled": 0, "fusion_lon": 0.0, "bike_id": "31700d3490732e7019f1e32cf46b94d1", "lon": -77.03868566666667, "rental_uris": {"ios": "https://dc.lft.to/lastmile_qr_scan", "android": "https://dc.lft.to/lastmile_qr_scan"}}, {"name": "ea748bf297a9b0ef011774d7b3da5b15", "fusion_lat": 0.0, "type": "electric_scooter", "lat": 38.9013285, "is_reserved": 0, "is_disabled": 0, "fusion_lon": 0.0, "bike_id": "ea748bf297a9b0ef011774d7b3da5b15", "lon": -77.04234833333334, "rental_uris": {"ios": "https://dc.lft.to/lastmile_qr_scan", "android": "https://dc.lft.to/lastmile_qr_scan"}}, {"name": "949e993544f98923385455a092957b3e", "fusion_lat": 0.0, "type": "electric_scooter", "lat": 38.897215833333334, "is_reserved": 0, "is_disabled": 0, "fusion_lon": 0.0, "bike_id": "949e993544f98923385455a092957b3e", "lon": -77.02066433333333, "rental_uris": {"ios": "https://dc.lft.to/lastmile_qr_scan", "android": "https://dc.lft.to/lastmile_qr_scan"}}, {"name": "e8b96175c5d309a781e046da5856479f", "fusion_lat": 0.0, "type": "electric_scooter", "lat": 38.907377833333335, "is_reserved": 0, "is_disabled": 0, "fusion_lon": 0.0, "bike_id": "e8b96175c5d309a781e046da5856479f", "lon": -76.99791716666667, "rental_uris": {"ios": "https://dc.lft.to/lastmile_qr_scan", "android": "https://dc.lft.to/lastmile_qr_scan"}}, {"name": "3c3538e179effd642dc0df3a810dbf5f", "fusion_lat": 0.0, "type": "electric_scooter", "lat": 38.92164483333333, "is_reserved": 0, "is_disabled": 0, "fusion_lon": 0.0, "bike_id": "3c3538e179effd642dc0df3a810dbf5f", "lon": -77.03386516666667, "rental_uris": {"ios": "https://dc.lft.to/lastmile_qr_scan", "android": "https://dc.lft.to/lastmile_qr_scan"}}, {"name": "c308ec11109ef23742ef5eedf9cdb548", "fusion_lat": 0.0, "type": "electric_scooter", "lat": 38.92161516666667, "is_reserved": 0, "is_disabled": 0, "fusion_lon": 0.0, "bike_id": "c308ec11109ef23742ef5eedf9cdb548", "lon": -77.03390466666667, "rental_uris": {"ios": "https://dc.lft.to/lastmile_qr_scan", "android": "https://dc.lft.to/lastmile_qr_scan"}}, {"name": "95c576e363f4849e6bc6a109cbc3d391", "fusion_lat": 0.0, "type": "electric_scooter", "lat": 38.9085445, "is_reserved": 0, "is_disabled": 0, "fusion_lon": 0.0, "bike_id": "95c576e363f4849e6bc6a109cbc3d391", "lon": -77.010971, "rental_uris": {"ios": "https://dc.lft.to/lastmile_qr_scan", "android": "https://dc.lft.to/lastmile_qr_scan"}}, {"name": "0760a848ba25702c758fd365381b56b2", "fusion_lat": 0.0, "type": "electric_scooter", "lat": 38.90017483333333, "is_reserved": 0, "is_disabled": 0, "fusion_lon": 0.0, "bike_id": "0760a848ba25702c758fd365381b56b2", "lon": -77.040614, "rental_uris": {"ios": "https://dc.lft.to/lastmile_qr_scan", "android": "https://dc.lft.to/lastmile_qr_scan"}}, {"name": "41f72b63eca931d10f9e80d527a76c22", "fusion_lat": 0.0, "type": "electric_scooter", "lat": 38.8899685, "is_reserved": 0, "is_disabled": 0, "fusion_lon": 0.0, "bike_id": "41f72b63eca931d10f9e80d527a76c22", "lon": -76.95409866666667, "rental_uris": {"ios": "https://dc.lft.to/lastmile_qr_scan", "android": "https://dc.lft.to/lastmile_qr_scan"}}, {"name": "47f30b57e7b8b65fc4dff44dc3d6c170", "fusion_lat": 0.0, "type": "electric_scooter", "lat": 38.8966485, "is_reserved": 0, "is_disabled": 0, "fusion_lon": 0.0, "bike_id": "47f30b57e7b8b65fc4dff44dc3d6c170", "lon": -77.02602, "rental_uris": {"ios": "https://dc.lft.to/lastmile_qr_scan", "android": "https://dc.lft.to/lastmile_qr_scan"}}, {"name": "28f3007fd76e4565c0e112ed7b616daf", "fusion_lat": 0.0, "type": "electric_scooter", "lat": 38.9233955, "is_reserved": 0, "is_disabled": 0, "fusion_lon": 0.0, "bike_id": "28f3007fd76e4565c0e112ed7b616daf", "lon": -77.05013016666666, "rental_uris": {"ios": "https://dc.lft.to/lastmile_qr_scan", "android": "https://dc.lft.to/lastmile_qr_scan"}}, {"name": "55430681629b9c189c719922432a605b", "fusion_lat": 0.0, "type": "electric_scooter", "lat": 38.90144183333334, "is_reserved": 0, "is_disabled": 0, "fusion_lon": 0.0, "bike_id": "55430681629b9c189c719922432a605b", "lon": -77.0397535, "rental_uris": {"ios": "https://dc.lft.to/lastmile_qr_scan", "android": "https://dc.lft.to/lastmile_qr_scan"}}, {"name": "de05c37b742383aa67fd4216a0041feb", "fusion_lat": 0.0, "type": "electric_scooter", "lat": 38.912142333333335, "is_reserved": 0, "is_disabled": 0, "fusion_lon": 0.0, "bike_id": "de05c37b742383aa67fd4216a0041feb", "lon": -77.07583766666667, "rental_uris": {"ios": "https://dc.lft.to/lastmile_qr_scan", "android": "https://dc.lft.to/lastmile_qr_scan"}}, {"name": "42c626611f1a9c4316492d38e0a7e5c0", "fusion_lat": 0.0, "type": "electric_scooter", "lat": 38.9024085, "is_reserved": 0, "is_disabled": 0, "fusion_lon": 0.0, "bike_id": "42c626611f1a9c4316492d38e0a7e5c0", "lon": -77.04368883333333, "rental_uris": {"ios": "https://dc.lft.to/lastmile_qr_scan", "android": "https://dc.lft.to/lastmile_qr_scan"}}, {"name": "9499546b044c868e1864956a1be5daed", "fusion_lat": 0.0, "type": "electric_scooter", "lat": 38.91192133333333, "is_reserved": 0, "is_disabled": 0, "fusion_lon": 0.0, "bike_id": "9499546b044c868e1864956a1be5daed", "lon": -77.06098483333334, "rental_uris": {"ios": "https://dc.lft.to/lastmile_qr_scan", "android": "https://dc.lft.to/lastmile_qr_scan"}}, {"name": "9390ee1525ca81ffb9339c182b2dab3f", "fusion_lat": 0.0, "type": "electric_scooter", "lat": 38.894824166666666, "is_reserved": 0, "is_disabled": 0, "fusion_lon": 0.0, "bike_id": "9390ee1525ca81ffb9339c182b2dab3f", "lon": -76.94867833333333, "rental_uris": {"ios": "https://dc.lft.to/lastmile_qr_scan", "android": "https://dc.lft.to/lastmile_qr_scan"}}, {"name": "5b19e7e006f4b992a834231e86619035", "fusion_lat": 0.0, "type": "electric_scooter", "lat": 38.914924166666665, "is_reserved": 0, "is_disabled": 0, "fusion_lon": 0.0, "bike_id": "5b19e7e006f4b992a834231e86619035", "lon": -77.01856266666667, "rental_uris": {"ios": "https://dc.lft.to/lastmile_qr_scan", "android": "https://dc.lft.to/lastmile_qr_scan"}}, {"name": "a047429b60c1d43d738425fea1e654be", "fusion_lat": 0.0, "type": "electric_scooter", "lat": 38.92159683333333, "is_reserved": 0, "is_disabled": 0, "fusion_lon": 0.0, "bike_id": "a047429b60c1d43d738425fea1e654be", "lon": -77.0203635, "rental_uris": {"ios": "https://dc.lft.to/lastmile_qr_scan", "android": "https://dc.lft.to/lastmile_qr_scan"}}, {"name": "1e117ec333ff5b9f248dc21cd98e5ca0", "fusion_lat": 0.0, "type": "electric_scooter", "lat": 38.8743075, "is_reserved": 0, "is_disabled": 0, "fusion_lon": 0.0, "bike_id": "1e117ec333ff5b9f248dc21cd98e5ca0", "lon": -77.02061983333333, "rental_uris": {"ios": "https://dc.lft.to/lastmile_qr_scan", "android": "https://dc.lft.to/lastmile_qr_scan"}}, {"name": "5f9957067c99901bd4f0e9a4be66895c", "fusion_lat": 0.0, "type": "electric_scooter", "lat": 38.91856216666667, "is_reserved": 0, "is_disabled": 0, "fusion_lon": 0.0, "bike_id": "5f9957067c99901bd4f0e9a4be66895c", "lon": -77.04594283333333, "rental_uris": {"ios": "https://dc.lft.to/lastmile_qr_scan", "android": "https://dc.lft.to/lastmile_qr_scan"}}, {"name": "362f3d52f51412420ad8e2c84ee1dc64", "fusion_lat": 0.0, "type": "electric_scooter", "lat": 38.89629333333333, "is_reserved": 0, "is_disabled": 0, "fusion_lon": 0.0, "bike_id": "362f3d52f51412420ad8e2c84ee1dc64", "lon": -77.02842833333334, "rental_uris": {"ios": "https://dc.lft.to/lastmile_qr_scan", "android": "https://dc.lft.to/lastmile_qr_scan"}}, {"name": "dd8a9975b0dc99e656b47adba714b20f", "fusion_lat": 0.0, "type": "electric_scooter", "lat": 38.90171566666667, "is_reserved": 0, "is_disabled": 0, "fusion_lon": 0.0, "bike_id": "dd8a9975b0dc99e656b47adba714b20f", "lon": -77.03376166666666, "rental_uris": {"ios": "https://dc.lft.to/lastmile_qr_scan", "android": "https://dc.lft.to/lastmile_qr_scan"}}, {"name": "6d214ca706b2fff4e305b5cb15a9404c", "fusion_lat": 0.0, "type": "electric_scooter", "lat": 38.92336366666667, "is_reserved": 0, "is_disabled": 0, "fusion_lon": 0.0, "bike_id": "6d214ca706b2fff4e305b5cb15a9404c", "lon": -77.02043866666666, "rental_uris": {"ios": "https://dc.lft.to/lastmile_qr_scan", "android": "https://dc.lft.to/lastmile_qr_scan"}}, {"name": "124060340b1254d507472e5b493ca436", "fusion_lat": 0.0, "type": "electric_scooter", "lat": 38.90136866666667, "is_reserved": 0, "is_disabled": 0, "fusion_lon": 0.0, "bike_id": "124060340b1254d507472e5b493ca436", "lon": -76.99749116666666, "rental_uris": {"ios": "https://dc.lft.to/lastmile_qr_scan", "android": "https://dc.lft.to/lastmile_qr_scan"}}, {"name": "edbdc49f064d6c7375cddd41cc92382c", "fusion_lat": 0.0, "type": "electric_scooter", "lat": 38.8933155, "is_reserved": 0, "is_disabled": 0, "fusion_lon": 0.0, "bike_id": "edbdc49f064d6c7375cddd41cc92382c", "lon": -76.92889633333333, "rental_uris": {"ios": "https://dc.lft.to/lastmile_qr_scan", "android": "https://dc.lft.to/lastmile_qr_scan"}}, {"name": "38c8f6ae771f159ca669571773ce0cdb", "fusion_lat": 0.0, "type": "electric_scooter", "lat": 38.863728, "is_reserved": 0, "is_disabled": 0, "fusion_lon": 0.0, "bike_id": "38c8f6ae771f159ca669571773ce0cdb", "lon": -77.01361, "rental_uris": {"ios": "https://dc.lft.to/lastmile_qr_scan", "android": "https://dc.lft.to/lastmile_qr_scan"}}, {"name": "546e1517d5505c106e3ed0a8331ffe64", "fusion_lat": 0.0, "type": "electric_scooter", "lat": 38.885257833333334, "is_reserved": 0, "is_disabled": 0, "fusion_lon": 0.0, "bike_id": "546e1517d5505c106e3ed0a8331ffe64", "lon": -77.03347316666667, "rental_uris": {"ios": "https://dc.lft.to/lastmile_qr_scan", "android": "https://dc.lft.to/lastmile_qr_scan"}}, {"name": "bd7e6876b976349df5ed165e4a2df0f6", "fusion_lat": 0.0, "type": "electric_bike", "lat": 38.9305985, "is_reserved": 0, "is_disabled": 0, "fusion_lon": 0.0, "bike_id": "bd7e6876b976349df5ed165e4a2df0f6", "lon": -76.97323883333334, "rental_uris": {"ios": "https://dc.lft.to/lastmile_qr_scan", "android": "https://dc.lft.to/lastmile_qr_scan"}}, {"name": "af27169e4ee74e7c8aa8a9d21e911eb9", "fusion_lat": 0.0, "type": "electric_scooter", "lat": 38.892056833333335, "is_reserved": 0, "is_disabled": 0, "fusion_lon": 0.0, "bike_id": "af27169e4ee74e7c8aa8a9d21e911eb9", "lon": -77.00290083333333, "rental_uris": {"ios": "https://dc.lft.to/lastmile_qr_scan", "android": "https://dc.lft.to/lastmile_qr_scan"}}, {"name": "7de230d6987036613975248a7b2c412a", "fusion_lat": 0.0, "type": "electric_scooter", "lat": 38.932559166666664, "is_reserved": 0, "is_disabled": 0, "fusion_lon": 0.0, "bike_id": "7de230d6987036613975248a7b2c412a", "lon": -77.03269116666667, "rental_uris": {"ios": "https://dc.lft.to/lastmile_qr_scan", "android": "https://dc.lft.to/lastmile_qr_scan"}}, {"name": "af8bb40824e09335ddb22bfc6c12f078", "fusion_lat": 0.0, "type": "electric_scooter", "lat": 38.88738216666667, "is_reserved": 0, "is_disabled": 0, "fusion_lon": 0.0, "bike_id": "af8bb40824e09335ddb22bfc6c12f078", "lon": -77.01531433333334, "rental_uris": {"ios": "https://dc.lft.to/lastmile_qr_scan", "android": "https://dc.lft.to/lastmile_qr_scan"}}, {"name": "7adc8f818621458d96d3d53479c57f2e", "fusion_lat": 0.0, "type": "electric_bike", "lat": 38.898347, "is_reserved": 0, "is_disabled": 0, "fusion_lon": 0.0, "bike_id": "7adc8f818621458d96d3d53479c57f2e", "lon": -77.11800316666667, "rental_uris": {"ios": "https://dc.lft.to/lastmile_qr_scan", "android": "https://dc.lft.to/lastmile_qr_scan"}}, {"name": "aa980cc111bc26c4f794b388b7664c82", "fusion_lat": 0.0, "type": "electric_scooter", "lat": 38.918425166666665, "is_reserved": 0, "is_disabled": 0, "fusion_lon": 0.0, "bike_id": "aa980cc111bc26c4f794b388b7664c82", "lon": -77.00166483333334, "rental_uris": {"ios": "https://dc.lft.to/lastmile_qr_scan", "android": "https://dc.lft.to/lastmile_qr_scan"}}, {"name": "c0e87fc14aaeacac254f1156f64d893c", "fusion_lat": 0.0, "type": "electric_scooter", "lat": 38.90532366666667, "is_reserved": 0, "is_disabled": 0, "fusion_lon": 0.0, "bike_id": "c0e87fc14aaeacac254f1156f64d893c", "lon": -77.06275683333334, "rental_uris": {"ios": "https://dc.lft.to/lastmile_qr_scan", "android": "https://dc.lft.to/lastmile_qr_scan"}}, {"name": "4f0199fb015b6c8fe59101cd55ff3d54", "fusion_lat": 0.0, "type": "electric_scooter", "lat": 38.93545433333333, "is_reserved": 0, "is_disabled": 0, "fusion_lon": 0.0, "bike_id": "4f0199fb015b6c8fe59101cd55ff3d54", "lon": -77.05982083333333, "rental_uris": {"ios": "https://dc.lft.to/lastmile_qr_scan", "android": "https://dc.lft.to/lastmile_qr_scan"}}, {"name": "130e060d8812a8969e52217d5f0a927f", "fusion_lat": 0.0, "type": "electric_scooter", "lat": 38.936429333333336, "is_reserved": 0, "is_disabled": 0, "fusion_lon": 0.0, "bike_id": "130e060d8812a8969e52217d5f0a927f", "lon": -77.034566, "rental_uris": {"ios": "https://dc.lft.to/lastmile_qr_scan", "android": "https://dc.lft.to/lastmile_qr_scan"}}, {"name": "d8f8b458e8c43f73e4f57ffced5683f7", "fusion_lat": 0.0, "type": "electric_scooter", "lat": 38.8990155, "is_reserved": 0, "is_disabled": 0, "fusion_lon": 0.0, "bike_id": "d8f8b458e8c43f73e4f57ffced5683f7", "lon": -77.0034855, "rental_uris": {"ios": "https://dc.lft.to/lastmile_qr_scan", "android": "https://dc.lft.to/lastmile_qr_scan"}}, {"name": "ff2e28bdbda99e175adbe5cd6fea3471", "fusion_lat": 0.0, "type": "electric_scooter", "lat": 38.975032, "is_reserved": 0, "is_disabled": 0, "fusion_lon": 0.0, "bike_id": "ff2e28bdbda99e175adbe5cd6fea3471", "lon": -77.01719916666667, "rental_uris": {"ios": "https://dc.lft.to/lastmile_qr_scan", "android": "https://dc.lft.to/lastmile_qr_scan"}}, {"name": "a927f36bf288738b55702b1852cfb12f", "fusion_lat": 0.0, "type": "electric_bike", "lat": 38.932807, "is_reserved": 0, "is_disabled": 0, "fusion_lon": 0.0, "bike_id": "a927f36bf288738b55702b1852cfb12f", "lon": -76.995052, "rental_uris": {"ios": "https://dc.lft.to/lastmile_qr_scan", "android": "https://dc.lft.to/lastmile_qr_scan"}}, {"name": "4cfd419aaccc9baa32120043345a1e93", "fusion_lat": 0.0, "type": "electric_scooter", "lat": 38.93193383333333, "is_reserved": 0, "is_disabled": 0, "fusion_lon": 0.0, "bike_id": "4cfd419aaccc9baa32120043345a1e93", "lon": -77.027681, "rental_uris": {"ios": "https://dc.lft.to/lastmile_qr_scan", "android": "https://dc.lft.to/lastmile_qr_scan"}}, {"name": "e7aa33e1ee14c30773979748a7f7b511", "fusion_lat": 0.0, "type": "electric_scooter", "lat": 38.9127415, "is_reserved": 0, "is_disabled": 0, "fusion_lon": 0.0, "bike_id": "e7aa33e1ee14c30773979748a7f7b511", "lon": -77.03578366666666, "rental_uris": {"ios": "https://dc.lft.to/lastmile_qr_scan", "android": "https://dc.lft.to/lastmile_qr_scan"}}, {"name": "925d50087002cc6e264997727c0bc6a3", "fusion_lat": 0.0, "type": "electric_scooter", "lat": 38.886146333333336, "is_reserved": 0, "is_disabled": 0, "fusion_lon": 0.0, "bike_id": "925d50087002cc6e264997727c0bc6a3", "lon": -76.9781595, "rental_uris": {"ios": "https://dc.lft.to/lastmile_qr_scan", "android": "https://dc.lft.to/lastmile_qr_scan"}}, {"name": "82ffa2a24a244082a91f3c8cdb905319", "fusion_lat": 0.0, "type": "electric_scooter", "lat": 38.903928666666665, "is_reserved": 0, "is_disabled": 0, "fusion_lon": 0.0, "bike_id": "82ffa2a24a244082a91f3c8cdb905319", "lon": -77.0175395, "rental_uris": {"ios": "https://dc.lft.to/lastmile_qr_scan", "android": "https://dc.lft.to/lastmile_qr_scan"}}, {"name": "4946dc2ee8b96152d736f977b082794f", "fusion_lat": 0.0, "type": "electric_bike", "lat": 38.88633433333333, "is_reserved": 0, "is_disabled": 0, "fusion_lon": 0.0, "bike_id": "4946dc2ee8b96152d736f977b082794f", "lon": -76.95454883333333, "rental_uris": {"ios": "https://dc.lft.to/lastmile_qr_scan", "android": "https://dc.lft.to/lastmile_qr_scan"}}, {"name": "30d29df6b73a8cd591cc5fb06c33fee5", "fusion_lat": 0.0, "type": "electric_scooter", "lat": 38.9256685, "is_reserved": 0, "is_disabled": 0, "fusion_lon": 0.0, "bike_id": "30d29df6b73a8cd591cc5fb06c33fee5", "lon": -77.02961116666667, "rental_uris": {"ios": "https://dc.lft.to/lastmile_qr_scan", "android": "https://dc.lft.to/lastmile_qr_scan"}}, {"name": "f095db62ee4278dccb4eef309d08d1b7", "fusion_lat": 0.0, "type": "electric_scooter", "lat": 38.89527066666667, "is_reserved": 0, "is_disabled": 0, "fusion_lon": 0.0, "bike_id": "f095db62ee4278dccb4eef309d08d1b7", "lon": -77.00342016666667, "rental_uris": {"ios": "https://dc.lft.to/lastmile_qr_scan", "android": "https://dc.lft.to/lastmile_qr_scan"}}, {"name": "f2decdc51849fa3dc2a57367692d0551", "fusion_lat": 0.0, "type": "electric_scooter", "lat": 38.91875866666667, "is_reserved": 0, "is_disabled": 0, "fusion_lon": 0.0, "bike_id": "f2decdc51849fa3dc2a57367692d0551", "lon": -77.043253, "rental_uris": {"ios": "https://dc.lft.to/lastmile_qr_scan", "android": "https://dc.lft.to/lastmile_qr_scan"}}, {"name": "002a8542df5c80abd4f5744533652179", "fusion_lat": 0.0, "type": "electric_scooter", "lat": 38.893466833333335, "is_reserved": 0, "is_disabled": 0, "fusion_lon": 0.0, "bike_id": "002a8542df5c80abd4f5744533652179", "lon": -77.046621, "rental_uris": {"ios": "https://dc.lft.to/lastmile_qr_scan", "android": "https://dc.lft.to/lastmile_qr_scan"}}, {"name": "c5fdd718337678bf0f17dca592f50a9b", "fusion_lat": 0.0, "type": "electric_scooter", "lat": 38.8850875, "is_reserved": 0, "is_disabled": 0, "fusion_lon": 0.0, "bike_id": "c5fdd718337678bf0f17dca592f50a9b", "lon": -77.033496, "rental_uris": {"ios": "https://dc.lft.to/lastmile_qr_scan", "android": "https://dc.lft.to/lastmile_qr_scan"}}, {"name": "358108eac61aa7b9cd89e97d8eff0e32", "fusion_lat": 0.0, "type": "electric_scooter", "lat": 38.902331, "is_reserved": 0, "is_disabled": 0, "fusion_lon": 0.0, "bike_id": "358108eac61aa7b9cd89e97d8eff0e32", "lon": -77.02307583333334, "rental_uris": {"ios": "https://dc.lft.to/lastmile_qr_scan", "android": "https://dc.lft.to/lastmile_qr_scan"}}, {"name": "4d0f20cb281b04a230d330ac6ebaaeab", "fusion_lat": 0.0, "type": "electric_bike", "lat": 38.87892566666667, "is_reserved": 0, "is_disabled": 0, "fusion_lon": 0.0, "bike_id": "4d0f20cb281b04a230d330ac6ebaaeab", "lon": -77.0230485, "rental_uris": {"ios": "https://dc.lft.to/lastmile_qr_scan", "android": "https://dc.lft.to/lastmile_qr_scan"}}, {"name": "a5205a7c039b8533298f19cb03c2e372", "fusion_lat": 0.0, "type": "electric_scooter", "lat": 38.90336766666667, "is_reserved": 0, "is_disabled": 0, "fusion_lon": 0.0, "bike_id": "a5205a7c039b8533298f19cb03c2e372", "lon": -77.020723, "rental_uris": {"ios": "https://dc.lft.to/lastmile_qr_scan", "android": "https://dc.lft.to/lastmile_qr_scan"}}, {"name": "b80ca353bb81fac0dadab7b1941bd43f", "fusion_lat": 0.0, "type": "electric_scooter", "lat": 38.873838, "is_reserved": 0, "is_disabled": 0, "fusion_lon": 0.0, "bike_id": "b80ca353bb81fac0dadab7b1941bd43f", "lon": -77.00033966666666, "rental_uris": {"ios": "https://dc.lft.to/lastmile_qr_scan", "android": "https://dc.lft.to/lastmile_qr_scan"}}, {"name": "b08c71c799b77664db9bd7689a5270ad", "fusion_lat": 0.0, "type": "electric_bike", "lat": 38.93533983333333, "is_reserved": 0, "is_disabled": 0, "fusion_lon": 0.0, "bike_id": "b08c71c799b77664db9bd7689a5270ad", "lon": -77.05692616666667, "rental_uris": {"ios": "https://dc.lft.to/lastmile_qr_scan", "android": "https://dc.lft.to/lastmile_qr_scan"}}, {"name": "2ce687e5495cafdb8e4285d9800ebf0f", "fusion_lat": 0.0, "type": "electric_scooter", "lat": 38.91907066666667, "is_reserved": 0, "is_disabled": 0, "fusion_lon": 0.0, "bike_id": "2ce687e5495cafdb8e4285d9800ebf0f", "lon": -77.021287, "rental_uris": {"ios": "https://dc.lft.to/lastmile_qr_scan", "android": "https://dc.lft.to/lastmile_qr_scan"}}, {"name": "5f8fe89b26f7bc470399f492ffcbb6ae", "fusion_lat": 0.0, "type": "electric_scooter", "lat": 38.91055733333334, "is_reserved": 0, "is_disabled": 0, "fusion_lon": 0.0, "bike_id": "5f8fe89b26f7bc470399f492ffcbb6ae", "lon": -77.04584483333333, "rental_uris": {"ios": "https://dc.lft.to/lastmile_qr_scan", "android": "https://dc.lft.to/lastmile_qr_scan"}}, {"name": "8a8ceaa2743718d6ea2a2b7509e8b7f6", "fusion_lat": 0.0, "type": "electric_scooter", "lat": 38.89219333333333, "is_reserved": 0, "is_disabled": 0, "fusion_lon": 0.0, "bike_id": "8a8ceaa2743718d6ea2a2b7509e8b7f6", "lon": -77.01372916666666, "rental_uris": {"ios": "https://dc.lft.to/lastmile_qr_scan", "android": "https://dc.lft.to/lastmile_qr_scan"}}, {"name": "a3142d6022343e5988a1c5782f8b8b32", "fusion_lat": 0.0, "type": "electric_scooter", "lat": 38.893622, "is_reserved": 0, "is_disabled": 0, "fusion_lon": 0.0, "bike_id": "a3142d6022343e5988a1c5782f8b8b32", "lon": -76.94983516666667, "rental_uris": {"ios": "https://dc.lft.to/lastmile_qr_scan", "android": "https://dc.lft.to/lastmile_qr_scan"}}, {"name": "c1c9542c56325fa2bfd5bd187429082e", "fusion_lat": 0.0, "type": "electric_scooter", "lat": 38.91112533333333, "is_reserved": 0, "is_disabled": 0, "fusion_lon": 0.0, "bike_id": "c1c9542c56325fa2bfd5bd187429082e", "lon": -77.03921, "rental_uris": {"ios": "https://dc.lft.to/lastmile_qr_scan", "android": "https://dc.lft.to/lastmile_qr_scan"}}, {"name": "869240c3b290b1f1c2c3d2062ef4d8ba", "fusion_lat": 0.0, "type": "electric_scooter", "lat": 38.9003765, "is_reserved": 0, "is_disabled": 0, "fusion_lon": 0.0, "bike_id": "869240c3b290b1f1c2c3d2062ef4d8ba", "lon": -76.98819166666667, "rental_uris": {"ios": "https://dc.lft.to/lastmile_qr_scan", "android": "https://dc.lft.to/lastmile_qr_scan"}}, {"name": "c1e3ad032bdc75fc0ceb68d57fb221cf", "fusion_lat": 0.0, "type": "electric_bike", "lat": 38.869158166666665, "is_reserved": 0, "is_disabled": 0, "fusion_lon": 0.0, "bike_id": "c1e3ad032bdc75fc0ceb68d57fb221cf", "lon": -77.13177866666666, "rental_uris": {"ios": "https://dc.lft.to/lastmile_qr_scan", "android": "https://dc.lft.to/lastmile_qr_scan"}}, {"name": "6c0c499c8ea7cd7332a1adad71ccc0a6", "fusion_lat": 0.0, "type": "electric_scooter", "lat": 38.906966833333335, "is_reserved": 0, "is_disabled": 0, "fusion_lon": 0.0, "bike_id": "6c0c499c8ea7cd7332a1adad71ccc0a6", "lon": -77.0239265, "rental_uris": {"ios": "https://dc.lft.to/lastmile_qr_scan", "android": "https://dc.lft.to/lastmile_qr_scan"}}, {"name": "503a08da39859f76316422bbaac40428", "fusion_lat": 0.0, "type": "electric_scooter", "lat": 38.91024266666667, "is_reserved": 0, "is_disabled": 0, "fusion_lon": 0.0, "bike_id": "503a08da39859f76316422bbaac40428", "lon": -77.007568, "rental_uris": {"ios": "https://dc.lft.to/lastmile_qr_scan", "android": "https://dc.lft.to/lastmile_qr_scan"}}, {"name": "bcd89f7eedea1da6224a79cb99b0c2b6", "fusion_lat": 0.0, "type": "electric_bike", "lat": 38.894871, "is_reserved": 0, "is_disabled": 0, "fusion_lon": 0.0, "bike_id": "bcd89f7eedea1da6224a79cb99b0c2b6", "lon": -77.0233015, "rental_uris": {"ios": "https://dc.lft.to/lastmile_qr_scan", "android": "https://dc.lft.to/lastmile_qr_scan"}}, {"name": "56c6181c1151ba3495df5fe94b9f6131", "fusion_lat": 0.0, "type": "electric_scooter", "lat": 38.903665833333335, "is_reserved": 0, "is_disabled": 0, "fusion_lon": 0.0, "bike_id": "56c6181c1151ba3495df5fe94b9f6131", "lon": -77.03206183333333, "rental_uris": {"ios": "https://dc.lft.to/lastmile_qr_scan", "android": "https://dc.lft.to/lastmile_qr_scan"}}, {"name": "6785b0a353ba86f1be0c70ed9ba55d31", "fusion_lat": 0.0, "type": "electric_scooter", "lat": 38.909681, "is_reserved": 0, "is_disabled": 0, "fusion_lon": 0.0, "bike_id": "6785b0a353ba86f1be0c70ed9ba55d31", "lon": -77.02176366666667, "rental_uris": {"ios": "https://dc.lft.to/lastmile_qr_scan", "android": "https://dc.lft.to/lastmile_qr_scan"}}, {"name": "b5002e148cf0cdd8e7446cd22295b22b", "fusion_lat": 0.0, "type": "electric_scooter", "lat": 38.91055583333333, "is_reserved": 0, "is_disabled": 0, "fusion_lon": 0.0, "bike_id": "b5002e148cf0cdd8e7446cd22295b22b", "lon": -77.0426575, "rental_uris": {"ios": "https://dc.lft.to/lastmile_qr_scan", "android": "https://dc.lft.to/lastmile_qr_scan"}}, {"name": "45e661f8917f99982c0c118f2681d15b", "fusion_lat": 0.0, "type": "electric_scooter", "lat": 38.905674, "is_reserved": 0, "is_disabled": 0, "fusion_lon": 0.0, "bike_id": "45e661f8917f99982c0c118f2681d15b", "lon": -77.022203, "rental_uris": {"ios": "https://dc.lft.to/lastmile_qr_scan", "android": "https://dc.lft.to/lastmile_qr_scan"}}, {"name": "ddabbc2ef17193749120548d2aa45fd4", "fusion_lat": 0.0, "type": "electric_bike", "lat": 38.834385833333336, "is_reserved": 0, "is_disabled": 0, "fusion_lon": 0.0, "bike_id": "ddabbc2ef17193749120548d2aa45fd4", "lon": -77.00820133333333, "rental_uris": {"ios": "https://dc.lft.to/lastmile_qr_scan", "android": "https://dc.lft.to/lastmile_qr_scan"}}, {"name": "afa045cbc3b84e1e6c2a73d633ae330f", "fusion_lat": 0.0, "type": "electric_scooter", "lat": 38.84425366666667, "is_reserved": 0, "is_disabled": 0, "fusion_lon": 0.0, "bike_id": "afa045cbc3b84e1e6c2a73d633ae330f", "lon": -76.99780866666667, "rental_uris": {"ios": "https://dc.lft.to/lastmile_qr_scan", "android": "https://dc.lft.to/lastmile_qr_scan"}}, {"name": "d49fff30579b58afc11d2db1323d65fe", "fusion_lat": 0.0, "type": "electric_scooter", "lat": 38.903736333333335, "is_reserved": 0, "is_disabled": 0, "fusion_lon": 0.0, "bike_id": "d49fff30579b58afc11d2db1323d65fe", "lon": -77.04660433333333, "rental_uris": {"ios": "https://dc.lft.to/lastmile_qr_scan", "android": "https://dc.lft.to/lastmile_qr_scan"}}, {"name": "38c5b807dac3f42bfc948ef0541d8f2d", "fusion_lat": 0.0, "type": "electric_scooter", "lat": 38.93146466666666, "is_reserved": 0, "is_disabled": 0, "fusion_lon": 0.0, "bike_id": "38c5b807dac3f42bfc948ef0541d8f2d", "lon": -77.029694, "rental_uris": {"ios": "https://dc.lft.to/lastmile_qr_scan", "android": "https://dc.lft.to/lastmile_qr_scan"}}, {"name": "b8a6d56bc171e4f6eba75185dcc2ecc6", "fusion_lat": 0.0, "type": "electric_scooter", "lat": 38.927014, "is_reserved": 0, "is_disabled": 0, "fusion_lon": 0.0, "bike_id": "b8a6d56bc171e4f6eba75185dcc2ecc6", "lon": -77.02069966666667, "rental_uris": {"ios": "https://dc.lft.to/lastmile_qr_scan", "android": "https://dc.lft.to/lastmile_qr_scan"}}, {"name": "a4229cb31fb68716364fdacf3926d391", "fusion_lat": 0.0, "type": "electric_scooter", "lat": 38.89708483333333, "is_reserved": 0, "is_disabled": 0, "fusion_lon": 0.0, "bike_id": "a4229cb31fb68716364fdacf3926d391", "lon": -77.008379, "rental_uris": {"ios": "https://dc.lft.to/lastmile_qr_scan", "android": "https://dc.lft.to/lastmile_qr_scan"}}, {"name": "058e38d6705a33d3cdd8ec12aeea50fe", "fusion_lat": 0.0, "type": "electric_scooter", "lat": 38.9177195, "is_reserved": 0, "is_disabled": 0, "fusion_lon": 0.0, "bike_id": "058e38d6705a33d3cdd8ec12aeea50fe", "lon": -77.04055533333333, "rental_uris": {"ios": "https://dc.lft.to/lastmile_qr_scan", "android": "https://dc.lft.to/lastmile_qr_scan"}}, {"name": "44c54f62aa2f1ce98b8fd6c6c40597a0", "fusion_lat": 0.0, "type": "electric_scooter", "lat": 38.900324166666664, "is_reserved": 0, "is_disabled": 0, "fusion_lon": 0.0, "bike_id": "44c54f62aa2f1ce98b8fd6c6c40597a0", "lon": -77.04866933333334, "rental_uris": {"ios": "https://dc.lft.to/lastmile_qr_scan", "android": "https://dc.lft.to/lastmile_qr_scan"}}, {"name": "2e929efff702d6043dfd7d7c751b2b50", "fusion_lat": 0.0, "type": "electric_scooter", "lat": 38.903952333333336, "is_reserved": 0, "is_disabled": 0, "fusion_lon": 0.0, "bike_id": "2e929efff702d6043dfd7d7c751b2b50", "lon": -77.03020733333334, "rental_uris": {"ios": "https://dc.lft.to/lastmile_qr_scan", "android": "https://dc.lft.to/lastmile_qr_scan"}}, {"name": "390bfa1b5d36bdc3feb927f49db856f7", "fusion_lat": 0.0, "type": "electric_scooter", "lat": 38.899701666666665, "is_reserved": 0, "is_disabled": 0, "fusion_lon": 0.0, "bike_id": "390bfa1b5d36bdc3feb927f49db856f7", "lon": -77.057009, "rental_uris": {"ios": "https://dc.lft.to/lastmile_qr_scan", "android": "https://dc.lft.to/lastmile_qr_scan"}}, {"name": "838a987643894e1a49b27c9c524784b7", "fusion_lat": 0.0, "type": "electric_scooter", "lat": 38.88741983333333, "is_reserved": 0, "is_disabled": 0, "fusion_lon": 0.0, "bike_id": "838a987643894e1a49b27c9c524784b7", "lon": -77.0234755, "rental_uris": {"ios": "https://dc.lft.to/lastmile_qr_scan", "android": "https://dc.lft.to/lastmile_qr_scan"}}, {"name": "7dce23b00675d6da65e2088e489b1ed0", "fusion_lat": 0.0, "type": "electric_bike", "lat": 38.9909025, "is_reserved": 0, "is_disabled": 0, "fusion_lon": 0.0, "bike_id": "7dce23b00675d6da65e2088e489b1ed0", "lon": -76.87492966666667, "rental_uris": {"ios": "https://dc.lft.to/lastmile_qr_scan", "android": "https://dc.lft.to/lastmile_qr_scan"}}, {"name": "82c2506bac399f0576dae382b51c79c6", "fusion_lat": 0.0, "type": "electric_scooter", "lat": 38.904907, "is_reserved": 0, "is_disabled": 0, "fusion_lon": 0.0, "bike_id": "82c2506bac399f0576dae382b51c79c6", "lon": -77.0404015, "rental_uris": {"ios": "https://dc.lft.to/lastmile_qr_scan", "android": "https://dc.lft.to/lastmile_qr_scan"}}, {"name": "b41e912e5295c1d579265c783ac24e7a", "fusion_lat": 0.0, "type": "electric_bike", "lat": 38.828690333333334, "is_reserved": 0, "is_disabled": 0, "fusion_lon": 0.0, "bike_id": "b41e912e5295c1d579265c783ac24e7a", "lon": -77.112233, "rental_uris": {"ios": "https://dc.lft.to/lastmile_qr_scan", "android": "https://dc.lft.to/lastmile_qr_scan"}}, {"name": "e4c5dd00207e3777165c1228aca4cdb6", "fusion_lat": 0.0, "type": "electric_scooter", "lat": 38.87816383333333, "is_reserved": 0, "is_disabled": 0, "fusion_lon": 0.0, "bike_id": "e4c5dd00207e3777165c1228aca4cdb6", "lon": -77.00345383333334, "rental_uris": {"ios": "https://dc.lft.to/lastmile_qr_scan", "android": "https://dc.lft.to/lastmile_qr_scan"}}, {"name": "ab0690f27d18172e3164630eeb7817d2", "fusion_lat": 0.0, "type": "electric_scooter", "lat": 38.90641433333333, "is_reserved": 0, "is_disabled": 0, "fusion_lon": 0.0, "bike_id": "ab0690f27d18172e3164630eeb7817d2", "lon": -77.00601366666666, "rental_uris": {"ios": "https://dc.lft.to/lastmile_qr_scan", "android": "https://dc.lft.to/lastmile_qr_scan"}}, {"name": "e31060a63ce796861f3ca0a212859361", "fusion_lat": 0.0, "type": "electric_scooter", "lat": 38.932506833333335, "is_reserved": 0, "is_disabled": 0, "fusion_lon": 0.0, "bike_id": "e31060a63ce796861f3ca0a212859361", "lon": -77.027213, "rental_uris": {"ios": "https://dc.lft.to/lastmile_qr_scan", "android": "https://dc.lft.to/lastmile_qr_scan"}}, {"name": "60c75636f4a2e8449fb67461014dc5fe", "fusion_lat": 0.0, "type": "electric_scooter", "lat": 38.892392666666666, "is_reserved": 0, "is_disabled": 0, "fusion_lon": 0.0, "bike_id": "60c75636f4a2e8449fb67461014dc5fe", "lon": -77.01352616666667, "rental_uris": {"ios": "https://dc.lft.to/lastmile_qr_scan", "android": "https://dc.lft.to/lastmile_qr_scan"}}, {"name": "93609fae004db73fb08af4559946c9d7", "fusion_lat": 0.0, "type": "electric_scooter", "lat": 38.905706333333335, "is_reserved": 0, "is_disabled": 0, "fusion_lon": 0.0, "bike_id": "93609fae004db73fb08af4559946c9d7", "lon": -77.02527033333334, "rental_uris": {"ios": "https://dc.lft.to/lastmile_qr_scan", "android": "https://dc.lft.to/lastmile_qr_scan"}}, {"name": "f9e9ea43a2a82f75ffac70ab1cc2c81e", "fusion_lat": 0.0, "type": "electric_bike", "lat": 38.8868645, "is_reserved": 0, "is_disabled": 0, "fusion_lon": 0.0, "bike_id": "f9e9ea43a2a82f75ffac70ab1cc2c81e", "lon": -77.09684583333333, "rental_uris": {"ios": "https://dc.lft.to/lastmile_qr_scan", "android": "https://dc.lft.to/lastmile_qr_scan"}}, {"name": "59da76843f06c31be46a0394f152e319", "fusion_lat": 0.0, "type": "electric_scooter", "lat": 38.917001666666664, "is_reserved": 0, "is_disabled": 0, "fusion_lon": 0.0, "bike_id": "59da76843f06c31be46a0394f152e319", "lon": -77.02899183333334, "rental_uris": {"ios": "https://dc.lft.to/lastmile_qr_scan", "android": "https://dc.lft.to/lastmile_qr_scan"}}, {"name": "d32835262b9599bb959a7f47a9ffcbf9", "fusion_lat": 0.0, "type": "electric_scooter", "lat": 38.929119166666666, "is_reserved": 0, "is_disabled": 0, "fusion_lon": 0.0, "bike_id": "d32835262b9599bb959a7f47a9ffcbf9", "lon": -77.01950433333333, "rental_uris": {"ios": "https://dc.lft.to/lastmile_qr_scan", "android": "https://dc.lft.to/lastmile_qr_scan"}}, {"name": "84b32fc945bec68ac3d030655ccf46b7", "fusion_lat": 0.0, "type": "electric_scooter", "lat": 38.917125, "is_reserved": 0, "is_disabled": 0, "fusion_lon": 0.0, "bike_id": "84b32fc945bec68ac3d030655ccf46b7", "lon": -77.0354605, "rental_uris": {"ios": "https://dc.lft.to/lastmile_qr_scan", "android": "https://dc.lft.to/lastmile_qr_scan"}}, {"name": "131df97b2bf3021fe91e0864f0268fd3", "fusion_lat": 0.0, "type": "electric_scooter", "lat": 38.917674833333336, "is_reserved": 0, "is_disabled": 0, "fusion_lon": 0.0, "bike_id": "131df97b2bf3021fe91e0864f0268fd3", "lon": -77.04744866666667, "rental_uris": {"ios": "https://dc.lft.to/lastmile_qr_scan", "android": "https://dc.lft.to/lastmile_qr_scan"}}, {"name": "f6988158069bb7388d7e72e268289a08", "fusion_lat": 0.0, "type": "electric_scooter", "lat": 38.90682116666667, "is_reserved": 0, "is_disabled": 0, "fusion_lon": 0.0, "bike_id": "f6988158069bb7388d7e72e268289a08", "lon": -77.04876433333334, "rental_uris": {"ios": "https://dc.lft.to/lastmile_qr_scan", "android": "https://dc.lft.to/lastmile_qr_scan"}}, {"name": "9a849fa6b031a40cd369b5db0dde6a0f", "fusion_lat": 0.0, "type": "electric_scooter", "lat": 38.90736416666667, "is_reserved": 0, "is_disabled": 0, "fusion_lon": 0.0, "bike_id": "9a849fa6b031a40cd369b5db0dde6a0f", "lon": -77.046597, "rental_uris": {"ios": "https://dc.lft.to/lastmile_qr_scan", "android": "https://dc.lft.to/lastmile_qr_scan"}}, {"name": "309bbb91cbf8cdc029c42aa411bcb537", "fusion_lat": 0.0, "type": "electric_scooter", "lat": 38.896146333333334, "is_reserved": 0, "is_disabled": 0, "fusion_lon": 0.0, "bike_id": "309bbb91cbf8cdc029c42aa411bcb537", "lon": -77.04464316666666, "rental_uris": {"ios": "https://dc.lft.to/lastmile_qr_scan", "android": "https://dc.lft.to/lastmile_qr_scan"}}, {"name": "fe462bbe2e39a601fc0d6461116f664b", "fusion_lat": 0.0, "type": "electric_scooter", "lat": 38.90797366666666, "is_reserved": 0, "is_disabled": 0, "fusion_lon": 0.0, "bike_id": "fe462bbe2e39a601fc0d6461116f664b", "lon": -77.01814266666666, "rental_uris": {"ios": "https://dc.lft.to/lastmile_qr_scan", "android": "https://dc.lft.to/lastmile_qr_scan"}}, {"name": "bf2d13f30e239519fc86af434ba7cc9a", "fusion_lat": 0.0, "type": "electric_scooter", "lat": 38.87578516666667, "is_reserved": 0, "is_disabled": 0, "fusion_lon": 0.0, "bike_id": "bf2d13f30e239519fc86af434ba7cc9a", "lon": -77.01062483333334, "rental_uris": {"ios": "https://dc.lft.to/lastmile_qr_scan", "android": "https://dc.lft.to/lastmile_qr_scan"}}, {"name": "9ab2f8c11af59f9ec365cfdc7b7c36cf", "fusion_lat": 0.0, "type": "electric_scooter", "lat": 38.909850666666664, "is_reserved": 0, "is_disabled": 0, "fusion_lon": 0.0, "bike_id": "9ab2f8c11af59f9ec365cfdc7b7c36cf", "lon": -77.04260716666667, "rental_uris": {"ios": "https://dc.lft.to/lastmile_qr_scan", "android": "https://dc.lft.to/lastmile_qr_scan"}}, {"name": "134dcc54680b59d5fa3cb8374a937280", "fusion_lat": 0.0, "type": "electric_scooter", "lat": 38.902543666666666, "is_reserved": 0, "is_disabled": 0, "fusion_lon": 0.0, "bike_id": "134dcc54680b59d5fa3cb8374a937280", "lon": -76.9770105, "rental_uris": {"ios": "https://dc.lft.to/lastmile_qr_scan", "android": "https://dc.lft.to/lastmile_qr_scan"}}, {"name": "0fe884708ab57f66462111e5b213a309", "fusion_lat": 0.0, "type": "electric_scooter", "lat": 38.912912166666665, "is_reserved": 0, "is_disabled": 0, "fusion_lon": 0.0, "bike_id": "0fe884708ab57f66462111e5b213a309", "lon": -76.93741416666667, "rental_uris": {"ios": "https://dc.lft.to/lastmile_qr_scan", "android": "https://dc.lft.to/lastmile_qr_scan"}}, {"name": "633b90b3495a46ea03416ae7b407e35c", "fusion_lat": 0.0, "type": "electric_scooter", "lat": 38.895102333333334, "is_reserved": 0, "is_disabled": 0, "fusion_lon": 0.0, "bike_id": "633b90b3495a46ea03416ae7b407e35c", "lon": -77.01095116666667, "rental_uris": {"ios": "https://dc.lft.to/lastmile_qr_scan", "android": "https://dc.lft.to/lastmile_qr_scan"}}, {"name": "d550130030e4790c484cf8c86da263b5", "fusion_lat": 0.0, "type": "electric_scooter", "lat": 38.9251395, "is_reserved": 0, "is_disabled": 0, "fusion_lon": 0.0, "bike_id": "d550130030e4790c484cf8c86da263b5", "lon": -77.00174016666666, "rental_uris": {"ios": "https://dc.lft.to/lastmile_qr_scan", "android": "https://dc.lft.to/lastmile_qr_scan"}}, {"name": "9b1095583580b9225a62c6dfd8fa35c3", "fusion_lat": 0.0, "type": "electric_scooter", "lat": 38.91691083333333, "is_reserved": 0, "is_disabled": 0, "fusion_lon": 0.0, "bike_id": "9b1095583580b9225a62c6dfd8fa35c3", "lon": -77.01873733333333, "rental_uris": {"ios": "https://dc.lft.to/lastmile_qr_scan", "android": "https://dc.lft.to/lastmile_qr_scan"}}, {"name": "f98d4e4d944fcd8d5416a5af1c8c45aa", "fusion_lat": 0.0, "type": "electric_scooter", "lat": 38.92484316666667, "is_reserved": 0, "is_disabled": 0, "fusion_lon": 0.0, "bike_id": "f98d4e4d944fcd8d5416a5af1c8c45aa", "lon": -77.02708833333334, "rental_uris": {"ios": "https://dc.lft.to/lastmile_qr_scan", "android": "https://dc.lft.to/lastmile_qr_scan"}}, {"name": "e936cd7d37b3b1e42fae388b4790dd64", "fusion_lat": 0.0, "type": "electric_scooter", "lat": 38.9295955, "is_reserved": 0, "is_disabled": 0, "fusion_lon": 0.0, "bike_id": "e936cd7d37b3b1e42fae388b4790dd64", "lon": -77.041109, "rental_uris": {"ios": "https://dc.lft.to/lastmile_qr_scan", "android": "https://dc.lft.to/lastmile_qr_scan"}}, {"name": "b32e5abdaa74e72fd8fd51ebfba492bc", "fusion_lat": 0.0, "type": "electric_scooter", "lat": 38.917685, "is_reserved": 0, "is_disabled": 0, "fusion_lon": 0.0, "bike_id": "b32e5abdaa74e72fd8fd51ebfba492bc", "lon": -77.09670483333333, "rental_uris": {"ios": "https://dc.lft.to/lastmile_qr_scan", "android": "https://dc.lft.to/lastmile_qr_scan"}}, {"name": "7d6687ce6eb7833ecadf581c8019824d", "fusion_lat": 0.0, "type": "electric_scooter", "lat": 38.9324285, "is_reserved": 0, "is_disabled": 0, "fusion_lon": 0.0, "bike_id": "7d6687ce6eb7833ecadf581c8019824d", "lon": -77.0385055, "rental_uris": {"ios": "https://dc.lft.to/lastmile_qr_scan", "android": "https://dc.lft.to/lastmile_qr_scan"}}, {"name": "2e79e4c08d5381f9cce294ff29b163e8", "fusion_lat": 0.0, "type": "electric_scooter", "lat": 38.895538, "is_reserved": 0, "is_disabled": 0, "fusion_lon": 0.0, "bike_id": "2e79e4c08d5381f9cce294ff29b163e8", "lon": -76.948777, "rental_uris": {"ios": "https://dc.lft.to/lastmile_qr_scan", "android": "https://dc.lft.to/lastmile_qr_scan"}}, {"name": "b25d941208920cb44c9213f55bc5f5fa", "fusion_lat": 0.0, "type": "electric_scooter", "lat": 38.86660066666666, "is_reserved": 0, "is_disabled": 0, "fusion_lon": 0.0, "bike_id": "b25d941208920cb44c9213f55bc5f5fa", "lon": -76.98884066666666, "rental_uris": {"ios": "https://dc.lft.to/lastmile_qr_scan", "android": "https://dc.lft.to/lastmile_qr_scan"}}, {"name": "12e727e270fa7cdd26f3870173dfe261", "fusion_lat": 0.0, "type": "electric_scooter", "lat": 38.9198005, "is_reserved": 0, "is_disabled": 0, "fusion_lon": 0.0, "bike_id": "12e727e270fa7cdd26f3870173dfe261", "lon": -77.02492733333334, "rental_uris": {"ios": "https://dc.lft.to/lastmile_qr_scan", "android": "https://dc.lft.to/lastmile_qr_scan"}}, {"name": "0e1f3ae00294149989a79c71414eb2ee", "fusion_lat": 0.0, "type": "electric_scooter", "lat": 38.911108666666664, "is_reserved": 0, "is_disabled": 0, "fusion_lon": 0.0, "bike_id": "0e1f3ae00294149989a79c71414eb2ee", "lon": -77.024628, "rental_uris": {"ios": "https://dc.lft.to/lastmile_qr_scan", "android": "https://dc.lft.to/lastmile_qr_scan"}}, {"name": "a2e86c428afa2420c7146649fcbf45f6", "fusion_lat": 0.0, "type": "electric_bike", "lat": 38.951830333333334, "is_reserved": 0, "is_disabled": 0, "fusion_lon": 0.0, "bike_id": "a2e86c428afa2420c7146649fcbf45f6", "lon": -76.93543566666666, "rental_uris": {"ios": "https://dc.lft.to/lastmile_qr_scan", "android": "https://dc.lft.to/lastmile_qr_scan"}}, {"name": "8d43b7095f5e88520ccae24816eec94e", "fusion_lat": 0.0, "type": "electric_scooter", "lat": 38.90024983333333, "is_reserved": 0, "is_disabled": 0, "fusion_lon": 0.0, "bike_id": "8d43b7095f5e88520ccae24816eec94e", "lon": -76.99814083333334, "rental_uris": {"ios": "https://dc.lft.to/lastmile_qr_scan", "android": "https://dc.lft.to/lastmile_qr_scan"}}, {"name": "5f09f1c8a74cfd2cd7432981a52d6c07", "fusion_lat": 0.0, "type": "electric_scooter", "lat": 38.90957983333333, "is_reserved": 0, "is_disabled": 0, "fusion_lon": 0.0, "bike_id": "5f09f1c8a74cfd2cd7432981a52d6c07", "lon": -77.048643, "rental_uris": {"ios": "https://dc.lft.to/lastmile_qr_scan", "android": "https://dc.lft.to/lastmile_qr_scan"}}, {"name": "ae36b06e16fe04612215827ef10569c8", "fusion_lat": 0.0, "type": "electric_scooter", "lat": 38.87323666666666, "is_reserved": 0, "is_disabled": 0, "fusion_lon": 0.0, "bike_id": "ae36b06e16fe04612215827ef10569c8", "lon": -77.00115633333333, "rental_uris": {"ios": "https://dc.lft.to/lastmile_qr_scan", "android": "https://dc.lft.to/lastmile_qr_scan"}}, {"name": "1db81f6d1a2e0f7da167e75882afa731", "fusion_lat": 0.0, "type": "electric_scooter", "lat": 38.90384816666667, "is_reserved": 0, "is_disabled": 0, "fusion_lon": 0.0, "bike_id": "1db81f6d1a2e0f7da167e75882afa731", "lon": -77.04822733333333, "rental_uris": {"ios": "https://dc.lft.to/lastmile_qr_scan", "android": "https://dc.lft.to/lastmile_qr_scan"}}, {"name": "ec2952fe823d6c65ba8fb77ae39420b3", "fusion_lat": 0.0, "type": "electric_scooter", "lat": 38.89899, "is_reserved": 0, "is_disabled": 0, "fusion_lon": 0.0, "bike_id": "ec2952fe823d6c65ba8fb77ae39420b3", "lon": -77.02163966666667, "rental_uris": {"ios": "https://dc.lft.to/lastmile_qr_scan", "android": "https://dc.lft.to/lastmile_qr_scan"}}, {"name": "e077f31bb0df3fdcd0a9e430600d1ed4", "fusion_lat": 0.0, "type": "electric_scooter", "lat": 38.90477933333333, "is_reserved": 0, "is_disabled": 0, "fusion_lon": 0.0, "bike_id": "e077f31bb0df3fdcd0a9e430600d1ed4", "lon": -76.97322583333333, "rental_uris": {"ios": "https://dc.lft.to/lastmile_qr_scan", "android": "https://dc.lft.to/lastmile_qr_scan"}}, {"name": "69c3370f4af07fb02168816b88320076", "fusion_lat": 0.0, "type": "electric_scooter", "lat": 38.89850366666667, "is_reserved": 0, "is_disabled": 0, "fusion_lon": 0.0, "bike_id": "69c3370f4af07fb02168816b88320076", "lon": -77.040796, "rental_uris": {"ios": "https://dc.lft.to/lastmile_qr_scan", "android": "https://dc.lft.to/lastmile_qr_scan"}}, {"name": "61befabd45a89fd228da7787f43c48ff", "fusion_lat": 0.0, "type": "electric_scooter", "lat": 38.906726166666665, "is_reserved": 0, "is_disabled": 0, "fusion_lon": 0.0, "bike_id": "61befabd45a89fd228da7787f43c48ff", "lon": -77.0433015, "rental_uris": {"ios": "https://dc.lft.to/lastmile_qr_scan", "android": "https://dc.lft.to/lastmile_qr_scan"}}, {"name": "38107146806e2ce8f09ae44637867d46", "fusion_lat": 0.0, "type": "electric_scooter", "lat": 38.91058016666667, "is_reserved": 0, "is_disabled": 0, "fusion_lon": 0.0, "bike_id": "38107146806e2ce8f09ae44637867d46", "lon": -77.04581683333333, "rental_uris": {"ios": "https://dc.lft.to/lastmile_qr_scan", "android": "https://dc.lft.to/lastmile_qr_scan"}}, {"name": "93f8aad23b4ff0731d4d457bce3f82cd", "fusion_lat": 0.0, "type": "electric_scooter", "lat": 38.952158833333336, "is_reserved": 0, "is_disabled": 0, "fusion_lon": 0.0, "bike_id": "93f8aad23b4ff0731d4d457bce3f82cd", "lon": -77.0707015, "rental_uris": {"ios": "https://dc.lft.to/lastmile_qr_scan", "android": "https://dc.lft.to/lastmile_qr_scan"}}, {"name": "dda46c8ff541f1174739c36a34a469f2", "fusion_lat": 0.0, "type": "electric_scooter", "lat": 38.8949735, "is_reserved": 0, "is_disabled": 0, "fusion_lon": 0.0, "bike_id": "dda46c8ff541f1174739c36a34a469f2", "lon": -77.0239065, "rental_uris": {"ios": "https://dc.lft.to/lastmile_qr_scan", "android": "https://dc.lft.to/lastmile_qr_scan"}}, {"name": "46a880c8ed5d303c80b87b54695fa7c0", "fusion_lat": 0.0, "type": "electric_scooter", "lat": 38.932303, "is_reserved": 0, "is_disabled": 0, "fusion_lon": 0.0, "bike_id": "46a880c8ed5d303c80b87b54695fa7c0", "lon": -77.03093166666666, "rental_uris": {"ios": "https://dc.lft.to/lastmile_qr_scan", "android": "https://dc.lft.to/lastmile_qr_scan"}}, {"name": "929a0193901f04090df26136edf22421", "fusion_lat": 0.0, "type": "electric_scooter", "lat": 38.86511766666667, "is_reserved": 0, "is_disabled": 0, "fusion_lon": 0.0, "bike_id": "929a0193901f04090df26136edf22421", "lon": -76.99006883333334, "rental_uris": {"ios": "https://dc.lft.to/lastmile_qr_scan", "android": "https://dc.lft.to/lastmile_qr_scan"}}, {"name": "73839992b5ad615d7a72ab35033950e8", "fusion_lat": 0.0, "type": "electric_scooter", "lat": 38.91894166666667, "is_reserved": 0, "is_disabled": 0, "fusion_lon": 0.0, "bike_id": "73839992b5ad615d7a72ab35033950e8", "lon": -77.052878, "rental_uris": {"ios": "https://dc.lft.to/lastmile_qr_scan", "android": "https://dc.lft.to/lastmile_qr_scan"}}, {"name": "beecd72fd32b5cba369233b65e4b6593", "fusion_lat": 0.0, "type": "electric_scooter", "lat": 38.89032666666667, "is_reserved": 0, "is_disabled": 0, "fusion_lon": 0.0, "bike_id": "beecd72fd32b5cba369233b65e4b6593", "lon": -76.93756566666667, "rental_uris": {"ios": "https://dc.lft.to/lastmile_qr_scan", "android": "https://dc.lft.to/lastmile_qr_scan"}}, {"name": "af750ea13565c4955d12cdc9aa8d3f46", "fusion_lat": 0.0, "type": "electric_scooter", "lat": 38.89896516666667, "is_reserved": 0, "is_disabled": 0, "fusion_lon": 0.0, "bike_id": "af750ea13565c4955d12cdc9aa8d3f46", "lon": -77.03270566666667, "rental_uris": {"ios": "https://dc.lft.to/lastmile_qr_scan", "android": "https://dc.lft.to/lastmile_qr_scan"}}, {"name": "74ed55a4bb55a24733d231d437044e45", "fusion_lat": 0.0, "type": "electric_scooter", "lat": 38.909192833333336, "is_reserved": 0, "is_disabled": 0, "fusion_lon": 0.0, "bike_id": "74ed55a4bb55a24733d231d437044e45", "lon": -77.018928, "rental_uris": {"ios": "https://dc.lft.to/lastmile_qr_scan", "android": "https://dc.lft.to/lastmile_qr_scan"}}, {"name": "25b114aa357eb5b6d43313dadaf53f33", "fusion_lat": 0.0, "type": "electric_scooter", "lat": 38.88380216666667, "is_reserved": 0, "is_disabled": 0, "fusion_lon": 0.0, "bike_id": "25b114aa357eb5b6d43313dadaf53f33", "lon": -76.99520166666667, "rental_uris": {"ios": "https://dc.lft.to/lastmile_qr_scan", "android": "https://dc.lft.to/lastmile_qr_scan"}}, {"name": "3f4cce65ed021df93b647708265395cc", "fusion_lat": 0.0, "type": "electric_scooter", "lat": 38.9258465, "is_reserved": 0, "is_disabled": 0, "fusion_lon": 0.0, "bike_id": "3f4cce65ed021df93b647708265395cc", "lon": -77.05268883333333, "rental_uris": {"ios": "https://dc.lft.to/lastmile_qr_scan", "android": "https://dc.lft.to/lastmile_qr_scan"}}, {"name": "c9d68d0eae4cf0d4f78b583cee36e20d", "fusion_lat": 0.0, "type": "electric_bike", "lat": 38.879472, "is_reserved": 0, "is_disabled": 0, "fusion_lon": 0.0, "bike_id": "c9d68d0eae4cf0d4f78b583cee36e20d", "lon": -77.02374183333333, "rental_uris": {"ios": "https://dc.lft.to/lastmile_qr_scan", "android": "https://dc.lft.to/lastmile_qr_scan"}}, {"name": "07045a8ac20141e3d3f65d8b7c641574", "fusion_lat": 0.0, "type": "electric_scooter", "lat": 38.8948265, "is_reserved": 0, "is_disabled": 0, "fusion_lon": 0.0, "bike_id": "07045a8ac20141e3d3f65d8b7c641574", "lon": -76.94872166666667, "rental_uris": {"ios": "https://dc.lft.to/lastmile_qr_scan", "android": "https://dc.lft.to/lastmile_qr_scan"}},