{"data": {"bikes": [{"is_disabled": 0, "fusion_lon": 0.0, "fusion_lat": 0.0, "lat": 38.9527505, "type": "electric_scooter", "lon": -77.06873216666666, "bike_id": "6970d6ca1453e00914de1e029a8802e1", "rental_uris": {"android": "https://dc.lft.to/lastmile_qr_scan", "ios": "https://dc.lft.to/lastmile_qr_scan"}, "name": "6970d6ca1453e00914de1e029a8802e1", "is_reserved": 0}, {"is_disabled": 0, "fusion_lon": 0.0, "fusion_lat": 0.0, "lat": 38.95681016666666, "type": "electric_scooter", "lon": -77.02407966666667, "bike_id": "2de146ec6a50c233c39c5d27cedcb90d", "rental_uris": {"android": "https://dc.lft.to/lastmile_qr_scan", "ios": "https://dc.lft.to/lastmile_qr_scan"}, "name": "2de146ec6a50c233c39c5d27cedcb90d", "is_reserved": 0}, {"is_disabled": 0, "fusion_lon": 0.0, "fusion_lat": 0.0, "lat": 38.93460483333333, "type": "electric_scooter", "lon": -77.03060216666667, "bike_id": "113515ee625ae109b11625a4c9fdca69", "rental_uris": {"android": "https://dc.lft.to/lastmile_qr_scan", "ios": "https://dc.lft.to/lastmile_qr_scan"}, "name": "113515ee625ae109b11625a4c9fdca69", "is_reserved": 0}, {"is_disabled": 0, "fusion_lon": 0.0, "fusion_lat": 0.0, "lat": 38.9181155, "type": "electric_scooter", "lon": -77.0380415, "bike_id": "c7a4f0c9eefd615c69b36e1d7e51f017", "rental_uris": {"android": "https://dc.lft.to/lastmile_qr_scan", "ios": "https://dc.lft.to/lastmile_qr_scan"}, "name": "c7a4f0c9eefd615c69b36e1d7e51f017", "is_reserved": 0}, {"is_disabled": 0, "fusion_lon": 0.0, "fusion_lat": 0.0, "lat": 38.92909866666667, "type": "electric_scooter", "lon": -77.0319475, "bike_id": "8093a00fa50708855c785f8787433fb3", "rental_uris": {"android": "https://dc.lft.to/lastmile_qr_scan", "ios": "https://dc.lft.to/lastmile_qr_scan"}, "name": "8093a00fa50708855c785f8787433fb3", "is_reserved": 0}, {"is_disabled": 0, "fusion_lon": 0.0, "fusion_lat": 0.0, "lat": 38.86695916666667, "type": "electric_scooter", "lon": -76.98711683333333, "bike_id": "c391233bb7246a337531840d1717772b", "rental_uris": {"android": "https://dc.lft.to/lastmile_qr_scan", "ios": "https://dc.lft.to/lastmile_qr_scan"}, "name": "c391233bb7246a337531840d1717772b", "is_reserved": 0}, {"is_disabled": 0, "fusion_lon": 0.0, "fusion_lat": 0.0, "lat": 38.911394666666666, "type": "electric_scooter", "lon": -77.021942, "bike_id": "c5f77c75eae75a0ff258333873024251", "rental_uris": {"android": "https://dc.lft.to/lastmile_qr_scan", "ios": "https://dc.lft.to/lastmile_qr_scan"}, "name": "c5f77c75eae75a0ff258333873024251", "is_reserved": 0}, {"is_disabled": 0, "fusion_lon": 0.0, "fusion_lat": 0.0, "lat": 38.9397745, "type": "electric_scooter", "lon": -77.02791983333333, "bike_id": "6e452d973ef7b046b14641916e9f0079", "rental_uris": {"android": "https://dc.lft.to/lastmile_qr_scan", "ios": "https://dc.lft.to/lastmile_qr_scan"}, "name": "6e452d973ef7b046b14641916e9f0079", "is_reserved": 0}, {"is_disabled": 0, "fusion_lon": 0.0, "fusion_lat": 0.0, "lat": 38.90514666666667, "type": "electric_scooter", "lon": -77.04356366666667, "bike_id": "be4ad6ee4a0a918d185efd25b59cc5e5", "rental_uris": {"android": "https://dc.lft.to/lastmile_qr_scan", "ios": "https://dc.lft.to/lastmile_qr_scan"}, "name": "be4ad6ee4a0a918d185efd25b59cc5e5", "is_reserved": 0}, {"is_disabled": 0, "fusion_lon": 0.0, "fusion_lat": 0.0, "lat": 38.89790983333333, "type": "electric_scooter", "lon": -77.02480516666667, "bike_id": "3879dcc567162baee80a563d3f3b6695", "rental_uris": {"android": "https://dc.lft.to/lastmile_qr_scan", "ios": "https://dc.lft.to/lastmile_qr_scan"}, "name": "3879dcc567162baee80a563d3f3b6695", "is_reserved": 0}, {"is_disabled": 0, "fusion_lon": 0.0, "fusion_lat": 0.0, "lat": 38.8945155, "type": "electric_scooter", "lon": -77.02203383333334, "bike_id": "b318837eb538c3986e2dd8df78231da3", "rental_uris": {"android": "https://dc.lft.to/lastmile_qr_scan", "ios": "https://dc.lft.to/lastmile_qr_scan"}, "name": "b318837eb538c3986e2dd8df78231da3", "is_reserved": 0}, {"is_disabled": 0, "fusion_lon": 0.0, "fusion_lat": 0.0, "lat": 38.897173333333335, "type": "electric_scooter", "lon": -77.03952716666667, "bike_id": "acfc1c7c5f0bf582f9ac7db14ab405bb", "rental_uris": {"android": "https://dc.lft.to/lastmile_qr_scan", "ios": "https://dc.lft.to/lastmile_qr_scan"}, "name": "acfc1c7c5f0bf582f9ac7db14ab405bb", "is_reserved": 0}, {"is_disabled": 0, "fusion_lon": 0.0, "fusion_lat": 0.0, "lat": 38.918057166666664, "type": "electric_bike", "lon": -77.10187216666667, "bike_id": "02b6c5b01f875f81d019201fbe5f6d4d", "rental_uris": {"android": "https://dc.lft.to/lastmile_qr_scan", "ios": "https://dc.lft.to/lastmile_qr_scan"}, "name": "02b6c5b01f875f81d019201fbe5f6d4d", "is_reserved": 0}, {"is_disabled": 0, "fusion_lon": 0.0, "fusion_lat": 0.0, "lat": 38.9114695, "type": "electric_scooter", "lon": -77.01084233333333, "bike_id": "f3a0c02a45231360583844c61629d09e", "rental_uris": {"android": "https://dc.lft.to/lastmile_qr_scan", "ios": "https://dc.lft.to/lastmile_qr_scan"}, "name": "f3a0c02a45231360583844c61629d09e", "is_reserved": 0}, {"is_disabled": 0, "fusion_lon": 0.0, "fusion_lat": 0.0, "lat": 38.910089, "type": "electric_scooter", "lon": -77.020888, "bike_id": "0bd140742a2ba24132c3b3e26901369c", "rental_uris": {"android": "https://dc.lft.to/lastmile_qr_scan", "ios": "https://dc.lft.to/lastmile_qr_scan"}, "name": "0bd140742a2ba24132c3b3e26901369c", "is_reserved": 0}, {"is_disabled": 0, "fusion_lon": 0.0, "fusion_lat": 0.0, "lat": 38.92082883333333, "type": "electric_scooter", "lon": -77.02602216666666, "bike_id": "7b6617a26ea14d97cfe38f4ac7e65129", "rental_uris": {"android": "https://dc.lft.to/lastmile_qr_scan", "ios": "https://dc.lft.to/lastmile_qr_scan"}, "name": "7b6617a26ea14d97cfe38f4ac7e65129", "is_reserved": 0}, {"is_disabled": 0, "fusion_lon": 0.0, "fusion_lat": 0.0, "lat": 38.884464666666666, "type": "electric_scooter", "lon": -76.9509685, "bike_id": "597db4428fb46f2d479cf0fb1c916d00", "rental_uris": {"android": "https://dc.lft.to/lastmile_qr_scan", "ios": "https://dc.lft.to/lastmile_qr_scan"}, "name": "597db4428fb46f2d479cf0fb1c916d00", "is_reserved": 0}, {"is_disabled": 0, "fusion_lon": 0.0, "fusion_lat": 0.0, "lat": 38.897906, "type": "electric_scooter", "lon": -77.0474895, "bike_id": "d8508e41b153b29e9a427a5b4a8ab1a0", "rental_uris": {"android": "https://dc.lft.to/lastmile_qr_scan", "ios": "https://dc.lft.to/lastmile_qr_scan"}, "name": "d8508e41b153b29e9a427a5b4a8ab1a0", "is_reserved": 0}, {"is_disabled": 0, "fusion_lon": 0.0, "fusion_lat": 0.0, "lat": 38.84428666666667, "type": "electric_scooter", "lon": -76.99811716666666, "bike_id": "0e7e087c3dacd5d317b5bb14054221fe", "rental_uris": {"android": "https://dc.lft.to/lastmile_qr_scan", "ios": "https://dc.lft.to/lastmile_qr_scan"}, "name": "0e7e087c3dacd5d317b5bb14054221fe", "is_reserved": 0}, {"is_disabled": 0, "fusion_lon": 0.0, "fusion_lat": 0.0, "lat": 38.93407766666667, "type": "electric_scooter", "lon": -77.04267516666667, "bike_id": "7695ef99de14657619601a834764c30a", "rental_uris": {"android": "https://dc.lft.to/lastmile_qr_scan", "ios": "https://dc.lft.to/lastmile_qr_scan"}, "name": "7695ef99de14657619601a834764c30a", "is_reserved": 0}, {"is_disabled": 0, "fusion_lon": 0.0, "fusion_lat": 0.0, "lat": 38.90316633333333, "type": "electric_scooter", "lon": -77.02161666666667, "bike_id": "5a391910dc78e63ff625c0194dbcfee2", "rental_uris": {"android": "https://dc.lft.to/lastmile_qr_scan", "ios": "https://dc.lft.to/lastmile_qr_scan"}, "name": "5a391910dc78e63ff625c0194dbcfee2", "is_reserved": 0}, {"is_disabled": 0, "fusion_lon": 0.0, "fusion_lat": 0.0, "lat": 38.904739166666666, "type": "electric_bike", "lon": -76.92945166666667, "bike_id": "aefe1b4e2f38b7f7892c2f3d7d9cf6ea", "rental_uris": {"android": "https://dc.lft.to/lastmile_qr_scan", "ios": "https://dc.lft.to/lastmile_qr_scan"}, "name": "aefe1b4e2f38b7f7892c2f3d7d9cf6ea", "is_reserved": 0}, {"is_disabled": 0, "fusion_lon": 0.0, "fusion_lat": 0.0, "lat": 38.934078, "type": "electric_scooter", "lon": -77.03890366666667, "bike_id": "badb64642104b5fed41c6b925e743be5", "rental_uris": {"android": "https://dc.lft.to/lastmile_qr_scan", "ios": "https://dc.lft.to/lastmile_qr_scan"}, "name": "badb64642104b5fed41c6b925e743be5", "is_reserved": 0}, {"is_disabled": 0, "fusion_lon": 0.0, "fusion_lat": 0.0, "lat": 38.9028265, "type": "electric_scooter", "lon": -77.06278066666667, "bike_id": "bd0da4919b291fc693e049f1376c4659", "rental_uris": {"android": "https://dc.lft.to/lastmile_qr_scan", "ios": "https://dc.lft.to/lastmile_qr_scan"}, "name": "bd0da4919b291fc693e049f1376c4659", "is_reserved": 0}, {"is_disabled": 0, "fusion_lon": 0.0, "fusion_lat": 0.0, "lat": 38.90424866666667, "type": "electric_scooter", "lon": -77.024131, "bike_id": "9f92ea9e3023082f1956d07cc9a7c14d", "rental_uris": {"android": "https://dc.lft.to/lastmile_qr_scan", "ios": "https://dc.lft.to/lastmile_qr_scan"}, "name": "9f92ea9e3023082f1956d07cc9a7c14d", "is_reserved": 0}, {"is_disabled": 0, "fusion_lon": 0.0, "fusion_lat": 0.0, "lat": 38.92867433333333, "type": "electric_scooter", "lon": -76.99767233333333, "bike_id": "120cfea9b9e536f41b3bad58d5400af1", "rental_uris": {"android": "https://dc.lft.to/lastmile_qr_scan", "ios": "https://dc.lft.to/lastmile_qr_scan"}, "name": "120cfea9b9e536f41b3bad58d5400af1", "is_reserved": 0}, {"is_disabled": 0, "fusion_lon": 0.0, "fusion_lat": 0.0, "lat": 38.85283366666667, "type": "electric_bike", "lon": -76.981609, "bike_id": "794a826452e2e6aa827e3bc1cbb90820", "rental_uris": {"android": "https://dc.lft.to/lastmile_qr_scan", "ios": "https://dc.lft.to/lastmile_qr_scan"}, "name": "794a826452e2e6aa827e3bc1cbb90820", "is_reserved": 0}, {"is_disabled": 0, "fusion_lon": 0.0, "fusion_lat": 0.0, "lat": 38.916355833333334, "type": "electric_scooter", "lon": -77.044997, "bike_id": "c20160587c22777d5e5ab65af253a93f", "rental_uris": {"android": "https://dc.lft.to/lastmile_qr_scan", "ios": "https://dc.lft.to/lastmile_qr_scan"}, "name": "c20160587c22777d5e5ab65af253a93f", "is_reserved": 0}, {"is_disabled": 0, "fusion_lon": 0.0, "fusion_lat": 0.0, "lat": 38.921525833333334, "type": "electric_scooter", "lon": -77.038516, "bike_id": "e405fa2d855eff947def886717e0b47f", "rental_uris": {"android": "https://dc.lft.to/lastmile_qr_scan", "ios": "https://dc.lft.to/lastmile_qr_scan"}, "name": "e405fa2d855eff947def886717e0b47f", "is_reserved": 0}, {"is_disabled": 0, "fusion_lon": 0.0, "fusion_lat": 0.0, "lat": 38.9133635, "type": "electric_scooter", "lon": -77.0416775, "bike_id": "a120307bc0fc37604a1bd79563f26712", "rental_uris": {"android": "https://dc.lft.to/lastmile_qr_scan", "ios": "https://dc.lft.to/lastmile_qr_scan"}, "name": "a120307bc0fc37604a1bd79563f26712", "is_reserved": 0}, {"is_disabled": 0, "fusion_lon": 0.0, "fusion_lat": 0.0, "lat": 38.905346, "type": "electric_scooter", "lon": -77.0019805, "bike_id": "f6497cd9bcdda2bba51de2b360cb4361", "rental_uris": {"android": "https://dc.lft.to/lastmile_qr_scan", "ios": "https://dc.lft.to/lastmile_qr_scan"}, "name": "f6497cd9bcdda2bba51de2b360cb4361", "is_reserved": 0}, {"is_disabled": 0, "fusion_lon": 0.0, "fusion_lat": 0.0, "lat": 38.884492, "type": "electric_bike", "lon": -76.91640933333333, "bike_id": "93297b2e9aedb5c6f8d8af03ee254f07", "rental_uris": {"android": "https://dc.lft.to/lastmile_qr_scan", "ios": "https://dc.lft.to/lastmile_qr_scan"}, "name": "93297b2e9aedb5c6f8d8af03ee254f07", "is_reserved": 0}, {"is_disabled": 0, "fusion_lon": 0.0, "fusion_lat": 0.0, "lat": 38.94891583333333, "type": "electric_bike", "lon": -76.96370033333334, "bike_id": "89bd05ef381a77cbeca561e4d4cd6a07", "rental_uris": {"android": "https://dc.lft.to/lastmile_qr_scan", "ios": "https://dc.lft.to/lastmile_qr_scan"}, "name": "89bd05ef381a77cbeca561e4d4cd6a07", "is_reserved": 0}, {"is_disabled": 0, "fusion_lon": 0.0, "fusion_lat": 0.0, "lat": 38.911892, "type": "electric_scooter", "lon": -77.03219683333333, "bike_id": "5edb14972a5279d7578822fb7856308d", "rental_uris": {"android": "https://dc.lft.to/lastmile_qr_scan", "ios": "https://dc.lft.to/lastmile_qr_scan"}, "name": "5edb14972a5279d7578822fb7856308d", "is_reserved": 0}, {"is_disabled": 0, "fusion_lon": 0.0, "fusion_lat": 0.0, "lat": 39.052629833333334, "type": "electric_bike", "lon": -77.0438525, "bike_id": "7040b6ed7fdd6650e58e17edd89609f2", "rental_uris": {"android": "https://dc.lft.to/lastmile_qr_scan", "ios": "https://dc.lft.to/lastmile_qr_scan"}, "name": "7040b6ed7fdd6650e58e17edd89609f2", "is_reserved": 0}, {"is_disabled": 0, "fusion_lon": 0.0, "fusion_lat": 0.0, "lat": 38.89694316666667, "type": "electric_bike", "lon": -77.05019983333334, "bike_id": "9728675bbdfb127a7e3ee2ee49f163c5", "rental_uris": {"android": "https://dc.lft.to/lastmile_qr_scan", "ios": "https://dc.lft.to/lastmile_qr_scan"}, "name": "9728675bbdfb127a7e3ee2ee49f163c5", "is_reserved": 0}, {"is_disabled": 0, "fusion_lon": 0.0, "fusion_lat": 0.0, "lat": 38.917012, "type": "electric_scooter", "lon": -77.0011755, "bike_id": "e24bf62e94c8a79fc0eaed67efc426aa", "rental_uris": {"android": "https://dc.lft.to/lastmile_qr_scan", "ios": "https://dc.lft.to/lastmile_qr_scan"}, "name": "e24bf62e94c8a79fc0eaed67efc426aa", "is_reserved": 0}, {"is_disabled": 0, "fusion_lon": 0.0, "fusion_lat": 0.0, "lat": 38.93691333333334, "type": "electric_scooter", "lon": -77.05599966666666, "bike_id": "eef733cbd31a0c62d53abf338ce0023d", "rental_uris": {"android": "https://dc.lft.to/lastmile_qr_scan", "ios": "https://dc.lft.to/lastmile_qr_scan"}, "name": "eef733cbd31a0c62d53abf338ce0023d", "is_reserved": 0}, {"is_disabled": 0, "fusion_lon": 0.0, "fusion_lat": 0.0, "lat": 38.88794816666667, "type": "electric_bike", "lon": -76.92998366666667, "bike_id": "31e6c08ba36537bfc41c2eb57a2e7bb3", "rental_uris": {"android": "https://dc.lft.to/lastmile_qr_scan", "ios": "https://dc.lft.to/lastmile_qr_scan"}, "name": "31e6c08ba36537bfc41c2eb57a2e7bb3", "is_reserved": 0}, {"is_disabled": 0, "fusion_lon": 0.0, "fusion_lat": 0.0, "lat": 38.92244633333333, "type": "electric_scooter", "lon": -77.02983466666667, "bike_id": "38afe6d70805a74d3ade9fe6186f7541", "rental_uris": {"android": "https://dc.lft.to/lastmile_qr_scan", "ios": "https://dc.lft.to/lastmile_qr_scan"}, "name": "38afe6d70805a74d3ade9fe6186f7541", "is_reserved": 0}, {"is_disabled": 0, "fusion_lon": 0.0, "fusion_lat": 0.0, "lat": 38.90575316666666, "type": "electric_scooter", "lon": -76.98753766666667, "bike_id": "7384f0a711834d3886c42ea523fdbcf5", "rental_uris": {"android": "https://dc.lft.to/lastmile_qr_scan", "ios": "https://dc.lft.to/lastmile_qr_scan"}, "name": "7384f0a711834d3886c42ea523fdbcf5", "is_reserved": 0}, {"is_disabled": 0, "fusion_lon": 0.0, "fusion_lat": 0.0, "lat": 38.91028433333334, "type": "electric_scooter", "lon": -77.04804816666666, "bike_id": "9650c49f8c55a80fd5a00823b233fb71", "rental_uris": {"android": "https://dc.lft.to/lastmile_qr_scan", "ios": "https://dc.lft.to/lastmile_qr_scan"}, "name": "9650c49f8c55a80fd5a00823b233fb71", "is_reserved": 0}, {"is_disabled": 0, "fusion_lon": 0.0, "fusion_lat": 0.0, "lat": 38.82740666666667, "type": "electric_bike", "lon": -77.00859783333334, "bike_id": "8854140de834ad6a50491f21629c6196", "rental_uris": {"android": "https://dc.lft.to/lastmile_qr_scan", "ios": "https://dc.lft.to/lastmile_qr_scan"}, "name": "8854140de834ad6a50491f21629c6196", "is_reserved": 0}, {"is_disabled": 0, "fusion_lon": 0.0, "fusion_lat": 0.0, "lat": 38.893718166666666, "type": "electric_scooter", "lon": -76.94997066666667, "bike_id": "cd8407d6b2c6be2a7124a4cbb1a028f5", "rental_uris": {"android": "https://dc.lft.to/lastmile_qr_scan", "ios": "https://dc.lft.to/lastmile_qr_scan"}, "name": "cd8407d6b2c6be2a7124a4cbb1a028f5", "is_reserved": 0}, {"is_disabled": 0, "fusion_lon": 0.0, "fusion_lat": 0.0, "lat": 38.898297166666666, "type": "electric_scooter", "lon": -76.980748, "bike_id": "bbe78d57d6ba4754803d227ae691021b", "rental_uris": {"android": "https://dc.lft.to/lastmile_qr_scan", "ios": "https://dc.lft.to/lastmile_qr_scan"}, "name": "bbe78d57d6ba4754803d227ae691021b", "is_reserved": 0}, {"is_disabled": 0, "fusion_lon": 0.0, "fusion_lat": 0.0, "lat": 38.9448505, "type": "electric_scooter", "lon": -77.06396566666666, "bike_id": "e1625fa1ce6ecb90f824fdecd22221ef", "rental_uris": {"android": "https://dc.lft.to/lastmile_qr_scan", "ios": "https://dc.lft.to/lastmile_qr_scan"}, "name": "e1625fa1ce6ecb90f824fdecd22221ef", "is_reserved": 0}, {"is_disabled": 0, "fusion_lon": 0.0, "fusion_lat": 0.0, "lat": 38.8931195, "type": "electric_scooter", "lon": -77.022097, "bike_id": "4df7940f4ef118da2f02526902b6c3b4", "rental_uris": {"android": "https://dc.lft.to/lastmile_qr_scan", "ios": "https://dc.lft.to/lastmile_qr_scan"}, "name": "4df7940f4ef118da2f02526902b6c3b4", "is_reserved": 0}, {"is_disabled": 0, "fusion_lon": 0.0, "fusion_lat": 0.0, "lat": 38.940389833333334, "type": "electric_scooter", "lon": -77.02906016666667, "bike_id": "03c49c86e8b8952d6dcde0e39bc3e957", "rental_uris": {"android": "https://dc.lft.to/lastmile_qr_scan", "ios": "https://dc.lft.to/lastmile_qr_scan"}, "name": "03c49c86e8b8952d6dcde0e39bc3e957", "is_reserved": 0}, {"is_disabled": 0, "fusion_lon": 0.0, "fusion_lat": 0.0, "lat": 38.902396333333336, "type": "electric_scooter", "lon": -76.989642, "bike_id": "0ed6a86f38641d3f569cc623ee995099", "rental_uris": {"android": "https://dc.lft.to/lastmile_qr_scan", "ios": "https://dc.lft.to/lastmile_qr_scan"}, "name": "0ed6a86f38641d3f569cc623ee995099", "is_reserved": 0}, {"is_disabled": 0, "fusion_lon": 0.0, "fusion_lat": 0.0, "lat": 38.99078733333333, "type": "electric_bike", "lon": -77.00177333333333, "bike_id": "402a4992df24af486b450c3c31739095", "rental_uris": {"android": "https://dc.lft.to/lastmile_qr_scan", "ios": "https://dc.lft.to/lastmile_qr_scan"}, "name": "402a4992df24af486b450c3c31739095", "is_reserved": 0}, {"is_disabled": 0, "fusion_lon": 0.0, "fusion_lat": 0.0, "lat": 38.857163666666665, "type": "electric_bike", "lon": -76.98113166666667, "bike_id": "696ae17495f5e57633351977467006ef", "rental_uris": {"android": "https://dc.lft.to/lastmile_qr_scan", "ios": "https://dc.lft.to/lastmile_qr_scan"}, "name": "696ae17495f5e57633351977467006ef", "is_reserved": 0}, {"is_disabled": 0, "fusion_lon": 0.0, "fusion_lat": 0.0, "lat": 38.9304435, "type": "electric_scooter", "lon": -77.00416183333333, "bike_id": "74aa4740188ffd7cea985260f4f53308", "rental_uris": {"android": "https://dc.lft.to/lastmile_qr_scan", "ios": "https://dc.lft.to/lastmile_qr_scan"}, "name": "74aa4740188ffd7cea985260f4f53308", "is_reserved": 0}, {"is_disabled": 0, "fusion_lon": 0.0, "fusion_lat": 0.0, "lat": 38.938671, "type": "electric_scooter", "lon": -77.03337483333334, "bike_id": "c4d80514b2c4775426be227bf8f03309", "rental_uris": {"android": "https://dc.lft.to/lastmile_qr_scan", "ios": "https://dc.lft.to/lastmile_qr_scan"}, "name": "c4d80514b2c4775426be227bf8f03309", "is_reserved": 0}, {"is_disabled": 0, "fusion_lon": 0.0, "fusion_lat": 0.0, "lat": 38.920959333333336, "type": "electric_scooter", "lon": -77.03123783333334, "bike_id": "46e5e4a75c44df16b589a915099f7535", "rental_uris": {"android": "https://dc.lft.to/lastmile_qr_scan", "ios": "https://dc.lft.to/lastmile_qr_scan"}, "name": "46e5e4a75c44df16b589a915099f7535", "is_reserved": 0}, {"is_disabled": 0, "fusion_lon": 0.0, "fusion_lat": 0.0, "lat": 38.943023833333335, "type": "electric_scooter", "lon": -77.02353433333333, "bike_id": "1534a9faf71c18178dd519ac81aaeb22", "rental_uris": {"android": "https://dc.lft.to/lastmile_qr_scan", "ios": "https://dc.lft.to/lastmile_qr_scan"}, "name": "1534a9faf71c18178dd519ac81aaeb22", "is_reserved": 0}, {"is_disabled": 0, "fusion_lon": 0.0, "fusion_lat": 0.0, "lat": 38.831154166666664, "type": "electric_bike", "lon": -77.0432815, "bike_id": "8053d3ca99b1d511654f0f9941382c17", "rental_uris": {"android": "https://dc.lft.to/lastmile_qr_scan", "ios": "https://dc.lft.to/lastmile_qr_scan"}, "name": "8053d3ca99b1d511654f0f9941382c17", "is_reserved": 0}, {"is_disabled": 0, "fusion_lon": 0.0, "fusion_lat": 0.0, "lat": 38.838105, "type": "electric_scooter", "lon": -77.00433, "bike_id": "e32cacaa5935dcc19194bb41eb5d4596", "rental_uris": {"android": "https://dc.lft.to/lastmile_qr_scan", "ios": "https://dc.lft.to/lastmile_qr_scan"}, "name": "e32cacaa5935dcc19194bb41eb5d4596", "is_reserved": 0}, {"is_disabled": 0, "fusion_lon": 0.0, "fusion_lat": 0.0, "lat": 39.115095333333336, "type": "electric_bike", "lon": -77.19550016666666, "bike_id": "62949b411a9f5163b0610a1947a45099", "rental_uris": {"android": "https://dc.lft.to/lastmile_qr_scan", "ios": "https://dc.lft.to/lastmile_qr_scan"}, "name": "62949b411a9f5163b0610a1947a45099", "is_reserved": 0}, {"is_disabled": 0, "fusion_lon": 0.0, "fusion_lat": 0.0, "lat": 38.992495, "type": "electric_bike", "lon": -77.05001883333334, "bike_id": "0162d2879c20145c2abde82de8668f48", "rental_uris": {"android": "https://dc.lft.to/lastmile_qr_scan", "ios": "https://dc.lft.to/lastmile_qr_scan"}, "name": "0162d2879c20145c2abde82de8668f48", "is_reserved": 0}, {"is_disabled": 0, "fusion_lon": 0.0, "fusion_lat": 0.0, "lat": 38.917624833333335, "type": "electric_scooter", "lon": -77.0405975, "bike_id": "20ede2ebee459219d09990f7d3adea15", "rental_uris": {"android": "https://dc.lft.to/lastmile_qr_scan", "ios": "https://dc.lft.to/lastmile_qr_scan"}, "name": "20ede2ebee459219d09990f7d3adea15", "is_reserved": 0}, {"is_disabled": 0, "fusion_lon": 0.0, "fusion_lat": 0.0, "lat": 38.898305666666666, "type": "electric_scooter", "lon": -77.04337916666667, "bike_id": "d29cf0268560d6eb3fad2d5da3899c38", "rental_uris": {"android": "https://dc.lft.to/lastmile_qr_scan", "ios": "https://dc.lft.to/lastmile_qr_scan"}, "name": "d29cf0268560d6eb3fad2d5da3899c38", "is_reserved": 0}, {"is_disabled": 0, "fusion_lon": 0.0, "fusion_lat": 0.0, "lat": 38.9260055, "type": "electric_scooter", "lon": -77.04201333333333, "bike_id": "d552d1606980979a26f7ef57efcbb1fc", "rental_uris": {"android": "https://dc.lft.to/lastmile_qr_scan", "ios": "https://dc.lft.to/lastmile_qr_scan"}, "name": "d552d1606980979a26f7ef57efcbb1fc", "is_reserved": 0}, {"is_disabled": 0, "fusion_lon": 0.0, "fusion_lat": 0.0, "lat": 38.92050966666667, "type": "electric_scooter", "lon": -77.03486516666666, "bike_id": "5b6a8a14a174285f64e2c249e0cd4657", "rental_uris": {"android": "https://dc.lft.to/lastmile_qr_scan", "ios": "https://dc.lft.to/lastmile_qr_scan"}, "name": "5b6a8a14a174285f64e2c249e0cd4657", "is_reserved": 0}, {"is_disabled": 0, "fusion_lon": 0.0, "fusion_lat": 0.0, "lat": 38.9441775, "type": "electric_scooter", "lon": -77.0605115, "bike_id": "32d0323b99e1847e2f419fcd0bfd3e1a", "rental_uris": {"android": "https://dc.lft.to/lastmile_qr_scan", "ios": "https://dc.lft.to/lastmile_qr_scan"}, "name": "32d0323b99e1847e2f419fcd0bfd3e1a", "is_reserved": 0}, {"is_disabled": 0, "fusion_lon": 0.0, "fusion_lat": 0.0, "lat": 38.996644, "type": "electric_bike", "lon": -76.99145783333333, "bike_id": "bc0d8d06457800959f513e5764625477", "rental_uris": {"android": "https://dc.lft.to/lastmile_qr_scan", "ios": "https://dc.lft.to/lastmile_qr_scan"}, "name": "bc0d8d06457800959f513e5764625477", "is_reserved": 0}, {"is_disabled": 0, "fusion_lon": 0.0, "fusion_lat": 0.0, "lat": 38.92162183333333, "type": "electric_scooter", "lon": -77.03263, "bike_id": "f6672e164d8c110a067c76e539097ccb", "rental_uris": {"android": "https://dc.lft.to/lastmile_qr_scan", "ios": "https://dc.lft.to/lastmile_qr_scan"}, "name": "f6672e164d8c110a067c76e539097ccb", "is_reserved": 0}, {"is_disabled": 0, "fusion_lon": 0.0, "fusion_lat": 0.0, "lat": 38.89519766666667, "type": "electric_scooter", "lon": -77.00922116666666, "bike_id": "e43fc130a8d6c37d69e64ec9d2e0270c", "rental_uris": {"android": "https://dc.lft.to/lastmile_qr_scan", "ios": "https://dc.lft.to/lastmile_qr_scan"}, "name": "e43fc130a8d6c37d69e64ec9d2e0270c", "is_reserved": 0}, {"is_disabled": 0, "fusion_lon": 0.0, "fusion_lat": 0.0, "lat": 38.9115425, "type": "electric_scooter", "lon": -77.02381616666666, "bike_id": "2b46a6e5b78cb44d9edf7965c0be0159", "rental_uris": {"android": "https://dc.lft.to/lastmile_qr_scan", "ios": "https://dc.lft.to/lastmile_qr_scan"}, "name": "2b46a6e5b78cb44d9edf7965c0be0159", "is_reserved": 0}, {"is_disabled": 0, "fusion_lon": 0.0, "fusion_lat": 0.0, "lat": 38.86498366666667, "type": "electric_scooter", "lon": -76.98979716666666, "bike_id": "7542bcce0f630cea8d9db81204c9a468", "rental_uris": {"android": "https://dc.lft.to/lastmile_qr_scan", "ios": "https://dc.lft.to/lastmile_qr_scan"}, "name": "7542bcce0f630cea8d9db81204c9a468", "is_reserved": 0}, {"is_disabled": 0, "fusion_lon": 0.0, "fusion_lat": 0.0, "lat": 38.933546166666666, "type": "electric_scooter", "lon": -77.05738266666667, "bike_id": "dc73b10d8b2b353a0f6e561dd4bccd55", "rental_uris": {"android": "https://dc.lft.to/lastmile_qr_scan", "ios": "https://dc.lft.to/lastmile_qr_scan"}, "name": "dc73b10d8b2b353a0f6e561dd4bccd55", "is_reserved": 0}, {"is_disabled": 0, "fusion_lon": 0.0, "fusion_lat": 0.0, "lat": 38.91817866666667, "type": "electric_scooter", "lon": -77.0319635, "bike_id": "4ab85ea8fba56e87bc080255b0c3f40f", "rental_uris": {"android": "https://dc.lft.to/lastmile_qr_scan", "ios": "https://dc.lft.to/lastmile_qr_scan"}, "name": "4ab85ea8fba56e87bc080255b0c3f40f", "is_reserved": 0}, {"is_disabled": 0, "fusion_lon": 0.0, "fusion_lat": 0.0, "lat": 38.852029333333334, "type": "electric_bike", "lon": -77.127597, "bike_id": "c8ea2a38d798f0b02f5f02b45c3e1770", "rental_uris": {"android": "https://dc.lft.to/lastmile_qr_scan", "ios": "https://dc.lft.to/lastmile_qr_scan"}, "name": "c8ea2a38d798f0b02f5f02b45c3e1770", "is_reserved": 0}, {"is_disabled": 0, "fusion_lon": 0.0, "fusion_lat": 0.0, "lat": 38.916576166666665, "type": "electric_scooter", "lon": -77.019164, "bike_id": "def1f2f30e60501fb8ba0cd843851ff2", "rental_uris": {"android": "https://dc.lft.to/lastmile_qr_scan", "ios": "https://dc.lft.to/lastmile_qr_scan"}, "name": "def1f2f30e60501fb8ba0cd843851ff2", "is_reserved": 0}, {"is_disabled": 0, "fusion_lon": 0.0, "fusion_lat": 0.0, "lat": 38.92632833333333, "type": "electric_scooter", "lon": -77.03372333333333, "bike_id": "9a8132bdc4f7a14472f4b9743e72c867", "rental_uris": {"android": "https://dc.lft.to/lastmile_qr_scan", "ios": "https://dc.lft.to/lastmile_qr_scan"}, "name": "9a8132bdc4f7a14472f4b9743e72c867", "is_reserved": 0}, {"is_disabled": 0, "fusion_lon": 0.0, "fusion_lat": 0.0, "lat": 38.949119833333334, "type": "electric_bike", "lon": -77.00795266666667, "bike_id": "71eaf11af95e1a417c9ea1e82c8ce6b8", "rental_uris": {"android": "https://dc.lft.to/lastmile_qr_scan", "ios": "https://dc.lft.to/lastmile_qr_scan"}, "name": "71eaf11af95e1a417c9ea1e82c8ce6b8", "is_reserved": 0}, {"is_disabled": 0, "fusion_lon": 0.0, "fusion_lat": 0.0, "lat": 38.8748925, "type": "electric_scooter", "lon": -77.0033375, "bike_id": "38adab84bf632c7f40162026c48f18bf", "rental_uris": {"android": "https://dc.lft.to/lastmile_qr_scan", "ios": "https://dc.lft.to/lastmile_qr_scan"}, "name": "38adab84bf632c7f40162026c48f18bf", "is_reserved": 0}, {"is_disabled": 0, "fusion_lon": 0.0, "fusion_lat": 0.0, "lat": 38.89220316666667, "type": "electric_scooter", "lon": -77.0433455, "bike_id": "ef0214a4d11304cc79600627eb2b781a", "rental_uris": {"android": "https://dc.lft.to/lastmile_qr_scan", "ios": "https://dc.lft.to/lastmile_qr_scan"}, "name": "ef0214a4d11304cc79600627eb2b781a", "is_reserved": 0}, {"is_disabled": 0, "fusion_lon": 0.0, "fusion_lat": 0.0, "lat": 38.89743766666667, "type": "electric_scooter", "lon": -77.05159316666666, "bike_id": "97f71644b85e375acf67ce255508136f", "rental_uris": {"android": "https://dc.lft.to/lastmile_qr_scan", "ios": "https://dc.lft.to/lastmile_qr_scan"}, "name": "97f71644b85e375acf67ce255508136f", "is_reserved": 0}, {"is_disabled": 0, "fusion_lon": 0.0, "fusion_lat": 0.0, "lat": 38.90251766666667, "type": "electric_scooter", "lon": -77.06131516666666, "bike_id": "aaf86a8bcae78bc776aa980026b14a71", "rental_uris": {"android": "https://dc.lft.to/lastmile_qr_scan", "ios": "https://dc.lft.to/lastmile_qr_scan"}, "name": "aaf86a8bcae78bc776aa980026b14a71", "is_reserved": 0}, {"is_disabled": 0, "fusion_lon": 0.0, "fusion_lat": 0.0, "lat": 38.9141465, "type": "electric_scooter", "lon": -77.01426483333333, "bike_id": "2cc4966041345247507727dd6723dd25", "rental_uris": {"android": "https://dc.lft.to/lastmile_qr_scan", "ios": "https://dc.lft.to/lastmile_qr_scan"}, "name": "2cc4966041345247507727dd6723dd25", "is_reserved": 0}, {"is_disabled": 0, "fusion_lon": 0.0, "fusion_lat": 0.0, "lat": 38.9163785, "type": "electric_scooter", "lon": -77.03211283333333, "bike_id": "8c193ea7c8e677d1a1afa3d724fd7d11", "rental_uris": {"android": "https://dc.lft.to/lastmile_qr_scan", "ios": "https://dc.lft.to/lastmile_qr_scan"}, "name": "8c193ea7c8e677d1a1afa3d724fd7d11", "is_reserved": 0}, {"is_disabled": 0, "fusion_lon": 0.0, "fusion_lat": 0.0, "lat": 38.88485983333333, "type": "electric_scooter", "lon": -77.0072785, "bike_id": "643393e141c45e61b88ab8973ec19478", "rental_uris": {"android": "https://dc.lft.to/lastmile_qr_scan", "ios": "https://dc.lft.to/lastmile_qr_scan"}, "name": "643393e141c45e61b88ab8973ec19478", "is_reserved": 0}, {"is_disabled": 0, "fusion_lon": 0.0, "fusion_lat": 0.0, "lat": 38.919726, "type": "electric_scooter", "lon": -77.03878066666667, "bike_id": "04d5401f140d6172eb6686043e134b0b", "rental_uris": {"android": "https://dc.lft.to/lastmile_qr_scan", "ios": "https://dc.lft.to/lastmile_qr_scan"}, "name": "04d5401f140d6172eb6686043e134b0b", "is_reserved": 0}, {"is_disabled": 0, "fusion_lon": 0.0, "fusion_lat": 0.0, "lat": 38.9205335, "type": "electric_scooter", "lon": -77.043408, "bike_id": "5ce29315b071f1aba2694d7df24dea61", "rental_uris": {"android": "https://dc.lft.to/lastmile_qr_scan", "ios": "https://dc.lft.to/lastmile_qr_scan"}, "name": "5ce29315b071f1aba2694d7df24dea61", "is_reserved": 0}, {"is_disabled": 0, "fusion_lon": 0.0, "fusion_lat": 0.0, "lat": 38.916920833333336, "type": "electric_scooter", "lon": -77.005281, "bike_id": "4f1e006a7f77fb35c88a22ffddabc806", "rental_uris": {"android": "https://dc.lft.to/lastmile_qr_scan", "ios": "https://dc.lft.to/lastmile_qr_scan"}, "name": "4f1e006a7f77fb35c88a22ffddabc806", "is_reserved": 0}, {"is_disabled": 0, "fusion_lon": 0.0, "fusion_lat": 0.0, "lat": 38.9181095, "type": "electric_scooter", "lon": -77.03254183333334, "bike_id": "6802fd6e14fc1f80a24a70590024abf0", "rental_uris": {"android": "https://dc.lft.to/lastmile_qr_scan", "ios": "https://dc.lft.to/lastmile_qr_scan"}, "name": "6802fd6e14fc1f80a24a70590024abf0", "is_reserved": 0}, {"is_disabled": 0, "fusion_lon": 0.0, "fusion_lat": 0.0, "lat": 38.928969333333335, "type": "electric_scooter", "lon": -77.03256133333333, "bike_id": "1728ce6bebeb26e64072cbbc4f718a28", "rental_uris": {"android": "https://dc.lft.to/lastmile_qr_scan", "ios": "https://dc.lft.to/lastmile_qr_scan"}, "name": "1728ce6bebeb26e64072cbbc4f718a28", "is_reserved": 0}, {"is_disabled": 0, "fusion_lon": 0.0, "fusion_lat": 0.0, "lat": 38.900282833333335, "type": "electric_scooter", "lon": -77.04691016666666, "bike_id": "9a9d80188fbdfb01c0fe3cf6d9d1a0bc", "rental_uris": {"android": "https://dc.lft.to/lastmile_qr_scan", "ios": "https://dc.lft.to/lastmile_qr_scan"}, "name": "9a9d80188fbdfb01c0fe3cf6d9d1a0bc", "is_reserved": 0}, {"is_disabled": 0, "fusion_lon": 0.0, "fusion_lat": 0.0, "lat": 38.945465666666664, "type": "electric_bike", "lon": -77.05127733333333, "bike_id": "9de41ec82662d18a4bb229091f707336", "rental_uris": {"android": "https://dc.lft.to/lastmile_qr_scan", "ios": "https://dc.lft.to/lastmile_qr_scan"}, "name": "9de41ec82662d18a4bb229091f707336", "is_reserved": 0}, {"is_disabled": 0, "fusion_lon": 0.0, "fusion_lat": 0.0, "lat": 38.91540166666667, "type": "electric_scooter", "lon": -77.0385005, "bike_id": "2a3a1bad8eed698584163e40d739fc98", "rental_uris": {"android": "https://dc.lft.to/lastmile_qr_scan", "ios": "https://dc.lft.to/lastmile_qr_scan"}, "name": "2a3a1bad8eed698584163e40d739fc98", "is_reserved": 0}, {"is_disabled": 0, "fusion_lon": 0.0, "fusion_lat": 0.0, "lat": 38.916305, "type": "electric_scooter", "lon": -77.03564266666666, "bike_id": "fcca36b94a2dfcc7409a70ec647ef8e8", "rental_uris": {"android": "https://dc.lft.to/lastmile_qr_scan", "ios": "https://dc.lft.to/lastmile_qr_scan"}, "name": "fcca36b94a2dfcc7409a70ec647ef8e8", "is_reserved": 0}, {"is_disabled": 0, "fusion_lon": 0.0, "fusion_lat": 0.0, "lat": 38.91118633333333, "type": "electric_scooter", "lon": -77.030171, "bike_id": "6b716b23f3b0301d38b8bd75c6327e1f", "rental_uris": {"android": "https://dc.lft.to/lastmile_qr_scan", "ios": "https://dc.lft.to/lastmile_qr_scan"}, "name": "6b716b23f3b0301d38b8bd75c6327e1f", "is_reserved": 0}, {"is_disabled": 0, "fusion_lon": 0.0, "fusion_lat": 0.0, "lat": 38.891808833333336, "type": "electric_scooter", "lon": -76.988367, "bike_id": "16f33409681f602ae2332276dbbcf39b", "rental_uris": {"android": "https://dc.lft.to/lastmile_qr_scan", "ios": "https://dc.lft.to/lastmile_qr_scan"}, "name": "16f33409681f602ae2332276dbbcf39b", "is_reserved": 0}, {"is_disabled": 0, "fusion_lon": 0.0, "fusion_lat": 0.0, "lat": 38.91321333333333, "type": "electric_scooter", "lon": -77.03255866666667, "bike_id": "7748ae66a5e4b80860bec0a2d42163c1", "rental_uris": {"android": "https://dc.lft.to/lastmile_qr_scan", "ios": "https://dc.lft.to/lastmile_qr_scan"}, "name": "7748ae66a5e4b80860bec0a2d42163c1", "is_reserved": 0}, {"is_disabled": 0, "fusion_lon": 0.0, "fusion_lat": 0.0, "lat": 38.94591116666667, "type": "electric_bike", "lon": -77.34413116666667, "bike_id": "c85bdbef42ef3ec12ad6a29bffebd250", "rental_uris": {"android": "https://dc.lft.to/lastmile_qr_scan", "ios": "https://dc.lft.to/lastmile_qr_scan"}, "name": "c85bdbef42ef3ec12ad6a29bffebd250", "is_reserved": 0}, {"is_disabled": 0, "fusion_lon": 0.0, "fusion_lat": 0.0, "lat": 38.8774085, "type": "electric_scooter", "lon": -77.00572383333333, "bike_id": "15a601af612a14d2df5189e62fb744c8", "rental_uris": {"android": "https://dc.lft.to/lastmile_qr_scan", "ios": "https://dc.lft.to/lastmile_qr_scan"}, "name": "15a601af612a14d2df5189e62fb744c8", "is_reserved": 0}, {"is_disabled": 0, "fusion_lon": 0.0, "fusion_lat": 0.0, "lat": 39.05455166666667, "type": "electric_bike", "lon": -77.14320766666667, "bike_id": "d321b72d14f22cc84d21fa7fd77e8916", "rental_uris": {"android": "https://dc.lft.to/lastmile_qr_scan", "ios": "https://dc.lft.to/lastmile_qr_scan"}, "name": "d321b72d14f22cc84d21fa7fd77e8916", "is_reserved": 0}, {"is_disabled": 0, "fusion_lon": 0.0, "fusion_lat": 0.0, "lat": 38.91219133333333, "type": "electric_scooter", "lon": -77.04894516666667, "bike_id": "f435e22079cb5a5bf642ad72792c9c8f", "rental_uris": {"android": "https://dc.lft.to/lastmile_qr_scan", "ios": "https://dc.lft.to/lastmile_qr_scan"}, "name": "f435e22079cb5a5bf642ad72792c9c8f", "is_reserved": 0}, {"is_disabled": 0, "fusion_lon": 0.0, "fusion_lat": 0.0, "lat": 38.88444633333334, "type": "electric_scooter", "lon": -77.02966383333333, "bike_id": "7fde7dad8daed9f640532ecaf1d41deb", "rental_uris": {"android": "https://dc.lft.to/lastmile_qr_scan", "ios": "https://dc.lft.to/lastmile_qr_scan"}, "name": "7fde7dad8daed9f640532ecaf1d41deb", "is_reserved": 0}, {"is_disabled": 0, "fusion_lon": 0.0, "fusion_lat": 0.0, "lat": 38.89487483333333, "type": "electric_scooter", "lon": -77.009525, "bike_id": "56772859270ad7a30917999c535baf5d", "rental_uris": {"android": "https://dc.lft.to/lastmile_qr_scan", "ios": "https://dc.lft.to/lastmile_qr_scan"}, "name": "56772859270ad7a30917999c535baf5d", "is_reserved": 0}, {"is_disabled": 0, "fusion_lon": 0.0, "fusion_lat": 0.0, "lat": 38.921263, "type": "electric_scooter", "lon": -77.03519233333333, "bike_id": "5c54fa8c72dcfa3345d0e268d20110ce", "rental_uris": {"android": "https://dc.lft.to/lastmile_qr_scan", "ios": "https://dc.lft.to/lastmile_qr_scan"}, "name": "5c54fa8c72dcfa3345d0e268d20110ce", "is_reserved": 0}, {"is_disabled": 0, "fusion_lon": 0.0, "fusion_lat": 0.0, "lat": 38.9054955, "type": "electric_scooter", "lon": -76.98143566666667, "bike_id": "efd203710f0f358f7e5ec771c094082c", "rental_uris": {"android": "https://dc.lft.to/lastmile_qr_scan", "ios": "https://dc.lft.to/lastmile_qr_scan"}, "name": "efd203710f0f358f7e5ec771c094082c", "is_reserved": 0}, {"is_disabled": 0, "fusion_lon": 0.0, "fusion_lat": 0.0, "lat": 38.89388, "type": "electric_scooter", "lon": -76.94996183333333, "bike_id": "7608b3e17cf2d5fefa6739839075dcd1", "rental_uris": {"android": "https://dc.lft.to/lastmile_qr_scan", "ios": "https://dc.lft.to/lastmile_qr_scan"}, "name": "7608b3e17cf2d5fefa6739839075dcd1", "is_reserved": 0}, {"is_disabled": 0, "fusion_lon": 0.0, "fusion_lat": 0.0, "lat": 38.88746066666667, "type": "electric_scooter", "lon": -77.014336, "bike_id": "73613a690f7ae57c8400aed74f6409e5", "rental_uris": {"android": "https://dc.lft.to/lastmile_qr_scan", "ios": "https://dc.lft.to/lastmile_qr_scan"}, "name": "73613a690f7ae57c8400aed74f6409e5", "is_reserved": 0}, {"is_disabled": 0, "fusion_lon": 0.0, "fusion_lat": 0.0, "lat": 38.88139566666667, "type": "electric_scooter", "lon": -77.02708083333333, "bike_id": "9a5ff08387634b4e7ede0d15cde5564e", "rental_uris": {"android": "https://dc.lft.to/lastmile_qr_scan", "ios": "https://dc.lft.to/lastmile_qr_scan"}, "name": "9a5ff08387634b4e7ede0d15cde5564e", "is_reserved": 0}, {"is_disabled": 0, "fusion_lon": 0.0, "fusion_lat": 0.0, "lat": 38.9064115, "type": "electric_bike", "lon": -77.05328416666667, "bike_id": "d001c5a407a563f9a4def731f7ffb3db", "rental_uris": {"android": "https://dc.lft.to/lastmile_qr_scan", "ios": "https://dc.lft.to/lastmile_qr_scan"}, "name": "d001c5a407a563f9a4def731f7ffb3db", "is_reserved": 0}, {"is_disabled": 0, "fusion_lon": 0.0, "fusion_lat": 0.0, "lat": 38.905124, "type": "electric_scooter", "lon": -76.9825335, "bike_id": "669a8bb5fbf54da0840b0edd7048cc18", "rental_uris": {"android": "https://dc.lft.to/lastmile_qr_scan", "ios": "https://dc.lft.to/lastmile_qr_scan"}, "name": "669a8bb5fbf54da0840b0edd7048cc18", "is_reserved": 0}, {"is_disabled": 0, "fusion_lon": 0.0, "fusion_lat": 0.0, "lat": 38.916651, "type": "electric_scooter", "lon": -77.02336533333333, "bike_id": "d3bbc976178d579f26192422919f6e81", "rental_uris": {"android": "https://dc.lft.to/lastmile_qr_scan", "ios": "https://dc.lft.to/lastmile_qr_scan"}, "name": "d3bbc976178d579f26192422919f6e81", "is_reserved": 0}, {"is_disabled": 0, "fusion_lon": 0.0, "fusion_lat": 0.0, "lat": 38.834247, "type": "electric_bike", "lon": -77.10354266666667, "bike_id": "d2d0e87cfe8b82bd27eae9199474d2ab", "rental_uris": {"android": "https://dc.lft.to/lastmile_qr_scan", "ios": "https://dc.lft.to/lastmile_qr_scan"}, "name": "d2d0e87cfe8b82bd27eae9199474d2ab", "is_reserved": 0}, {"is_disabled": 0, "fusion_lon": 0.0, "fusion_lat": 0.0, "lat": 39.00780916666667, "type": "electric_bike", "lon": -76.99569716666667, "bike_id": "bba1d757938ce070366d0aa07ae04ad4", "rental_uris": {"android": "https://dc.lft.to/lastmile_qr_scan", "ios": "https://dc.lft.to/lastmile_qr_scan"}, "name": "bba1d757938ce070366d0aa07ae04ad4", "is_reserved": 0}, {"is_disabled": 0, "fusion_lon": 0.0, "fusion_lat": 0.0, "lat": 38.9221135, "type": "electric_scooter", "lon": -77.03896966666667, "bike_id": "2903f439adecef67e18ca4925f40aa8b", "rental_uris": {"android": "https://dc.lft.to/lastmile_qr_scan", "ios": "https://dc.lft.to/lastmile_qr_scan"}, "name": "2903f439adecef67e18ca4925f40aa8b", "is_reserved": 0}, {"is_disabled": 0, "fusion_lon": 0.0, "fusion_lat": 0.0, "lat": 38.9037285, "type": "electric_scooter", "lon": -77.04134566666667, "bike_id": "06e99729b92be211a20a7cedfeab8199", "rental_uris": {"android": "https://dc.lft.to/lastmile_qr_scan", "ios": "https://dc.lft.to/lastmile_qr_scan"}, "name": "06e99729b92be211a20a7cedfeab8199", "is_reserved": 0}, {"is_disabled": 0, "fusion_lon": 0.0, "fusion_lat": 0.0, "lat": 38.87371016666667, "type": "electric_scooter", "lon": -77.00102683333333, "bike_id": "bc83beed7f68054d0005784f32cada0c", "rental_uris": {"android": "https://dc.lft.to/lastmile_qr_scan", "ios": "https://dc.lft.to/lastmile_qr_scan"}, "name": "bc83beed7f68054d0005784f32cada0c", "is_reserved": 0}, {"is_disabled": 0, "fusion_lon": 0.0, "fusion_lat": 0.0, "lat": 38.90659766666667, "type": "electric_scooter", "lon": -77.04533516666666, "bike_id": "706c2277d34a05aaec680f074961fc2f", "rental_uris": {"android": "https://dc.lft.to/lastmile_qr_scan", "ios": "https://dc.lft.to/lastmile_qr_scan"}, "name": "706c2277d34a05aaec680f074961fc2f", "is_reserved": 0}, {"is_disabled": 0, "fusion_lon": 0.0, "fusion_lat": 0.0, "lat": 38.91686833333333, "type": "electric_bike", "lon": -77.09176383333333, "bike_id": "fa60ce606839143498e9c56b22991707", "rental_uris": {"android": "https://dc.lft.to/lastmile_qr_scan", "ios": "https://dc.lft.to/lastmile_qr_scan"}, "name": "fa60ce606839143498e9c56b22991707", "is_reserved": 0}, {"is_disabled": 0, "fusion_lon": 0.0, "fusion_lat": 0.0, "lat": 38.90930483333333, "type": "electric_scooter", "lon": -77.05359933333334, "bike_id": "9a4f6f627839330c680e2693243786ec", "rental_uris": {"android": "https://dc.lft.to/lastmile_qr_scan", "ios": "https://dc.lft.to/lastmile_qr_scan"}, "name": "9a4f6f627839330c680e2693243786ec", "is_reserved": 0}, {"is_disabled": 0, "fusion_lon": 0.0, "fusion_lat": 0.0, "lat": 38.90973066666667, "type": "electric_scooter", "lon": -77.03437433333333, "bike_id": "0dc9dfc9bc2e7115eba9992b19f5c052", "rental_uris": {"android": "https://dc.lft.to/lastmile_qr_scan", "ios": "https://dc.lft.to/lastmile_qr_scan"}, "name": "0dc9dfc9bc2e7115eba9992b19f5c052", "is_reserved": 0}, {"is_disabled": 0, "fusion_lon": 0.0, "fusion_lat": 0.0, "lat": 38.92547733333333, "type": "electric_scooter", "lon": -77.05299966666666, "bike_id": "6286d093a3ab70e0cef89ada07b8d84f", "rental_uris": {"android": "https://dc.lft.to/lastmile_qr_scan", "ios": "https://dc.lft.to/lastmile_qr_scan"}, "name": "6286d093a3ab70e0cef89ada07b8d84f", "is_reserved": 0}, {"is_disabled": 0, "fusion_lon": 0.0, "fusion_lat": 0.0, "lat": 38.9319185, "type": "electric_scooter", "lon": -77.02839133333333, "bike_id": "7fcf4a1c32b9bf3801b2f5f3cf595ed2", "rental_uris": {"android": "https://dc.lft.to/lastmile_qr_scan", "ios": "https://dc.lft.to/lastmile_qr_scan"}, "name": "7fcf4a1c32b9bf3801b2f5f3cf595ed2", "is_reserved": 0}, {"is_disabled": 0, "fusion_lon": 0.0, "fusion_lat": 0.0, "lat": 38.872428666666664, "type": "electric_scooter", "lon": -76.97730383333334, "bike_id": "df813a1a6c549b37639584474ca67dd8", "rental_uris": {"android": "https://dc.lft.to/lastmile_qr_scan", "ios": "https://dc.lft.to/lastmile_qr_scan"}, "name": "df813a1a6c549b37639584474ca67dd8", "is_reserved": 0}, {"is_disabled": 0, "fusion_lon": 0.0, "fusion_lat": 0.0, "lat": 38.90365766666667, "type": "electric_scooter", "lon": -77.04131066666666, "bike_id": "af621b7061e9f290d60a3bb298d8ea34", "rental_uris": {"android": "https://dc.lft.to/lastmile_qr_scan", "ios": "https://dc.lft.to/lastmile_qr_scan"}, "name": "af621b7061e9f290d60a3bb298d8ea34", "is_reserved": 0}, {"is_disabled": 0, "fusion_lon": 0.0, "fusion_lat": 0.0, "lat": 38.95552083333333, "type": "electric_bike", "lon": -76.93542133333334, "bike_id": "90a6c8c33ae910a9e8a6cca280989de0", "rental_uris": {"android": "https://dc.lft.to/lastmile_qr_scan", "ios": "https://dc.lft.to/lastmile_qr_scan"}, "name": "90a6c8c33ae910a9e8a6cca280989de0", "is_reserved": 0}, {"is_disabled": 0, "fusion_lon": 0.0, "fusion_lat": 0.0, "lat": 38.882649, "type": "electric_scooter", "lon": -76.98543133333334, "bike_id": "b9ded6ad905bd6923d9e988e4a3194b6", "rental_uris": {"android": "https://dc.lft.to/lastmile_qr_scan", "ios": "https://dc.lft.to/lastmile_qr_scan"}, "name": "b9ded6ad905bd6923d9e988e4a3194b6", "is_reserved": 0}, {"is_disabled": 0, "fusion_lon": 0.0, "fusion_lat": 0.0, "lat": 38.908549666666666, "type": "electric_scooter", "lon": -77.02298433333333, "bike_id": "110c67470ed013b4532deffb5c3ce648", "rental_uris": {"android": "https://dc.lft.to/lastmile_qr_scan", "ios": "https://dc.lft.to/lastmile_qr_scan"}, "name": "110c67470ed013b4532deffb5c3ce648", "is_reserved": 0}, {"is_disabled": 0, "fusion_lon": 0.0, "fusion_lat": 0.0, "lat": 38.90311666666667, "type": "electric_scooter", "lon": -77.025034, "bike_id": "3f95494184bf1db5e47f67e070dbd29a", "rental_uris": {"android": "https://dc.lft.to/lastmile_qr_scan", "ios": "https://dc.lft.to/lastmile_qr_scan"}, "name": "3f95494184bf1db5e47f67e070dbd29a", "is_reserved": 0}, {"is_disabled": 0, "fusion_lon": 0.0, "fusion_lat": 0.0, "lat": 38.965649, "type": "electric_scooter", "lon": -77.015672, "bike_id": "78d1fc4a14bbff5039ab5d4afa5bee81", "rental_uris": {"android": "https://dc.lft.to/lastmile_qr_scan", "ios": "https://dc.lft.to/lastmile_qr_scan"}, "name": "78d1fc4a14bbff5039ab5d4afa5bee81", "is_reserved": 0}, {"is_disabled": 0, "fusion_lon": 0.0, "fusion_lat": 0.0, "lat": 38.82855466666667, "type": "electric_bike", "lon": -77.11237683333333, "bike_id": "727a525ac869e4603f7fc60ff527ca56", "rental_uris": {"android": "https://dc.lft.to/lastmile_qr_scan", "ios": "https://dc.lft.to/lastmile_qr_scan"}, "name": "727a525ac869e4603f7fc60ff527ca56", "is_reserved": 0}, {"is_disabled": 0, "fusion_lon": 0.0, "fusion_lat": 0.0, "lat": 38.898472, "type": "electric_scooter", "lon": -76.99035983333333, "bike_id": "34f59988a4ef16e8dbbdd9550977e533", "rental_uris": {"android": "https://dc.lft.to/lastmile_qr_scan", "ios": "https://dc.lft.to/lastmile_qr_scan"}, "name": "34f59988a4ef16e8dbbdd9550977e533", "is_reserved": 0}, {"is_disabled": 0, "fusion_lon": 0.0, "fusion_lat": 0.0, "lat": 38.915557166666666, "type": "electric_scooter", "lon": -77.020458, "bike_id": "0d8305f05072a12c07e524c5bd1c150b", "rental_uris": {"android": "https://dc.lft.to/lastmile_qr_scan", "ios": "https://dc.lft.to/lastmile_qr_scan"}, "name": "0d8305f05072a12c07e524c5bd1c150b", "is_reserved": 0}, {"is_disabled": 0, "fusion_lon": 0.0, "fusion_lat": 0.0, "lat": 38.951768666666666, "type": "electric_scooter", "lon": -77.05653416666667, "bike_id": "7c0f0893aa2a7f97c0b5339ee8bdf7d4", "rental_uris": {"android": "https://dc.lft.to/lastmile_qr_scan", "ios": "https://dc.lft.to/lastmile_qr_scan"}, "name": "7c0f0893aa2a7f97c0b5339ee8bdf7d4", "is_reserved": 0}, {"is_disabled": 0, "fusion_lon": 0.0, "fusion_lat": 0.0, "lat": 38.90344533333333, "type": "electric_scooter", "lon": -77.02604766666667, "bike_id": "34e91fa176e28d137e4d031b4cff44ea", "rental_uris": {"android": "https://dc.lft.to/lastmile_qr_scan", "ios": "https://dc.lft.to/lastmile_qr_scan"}, "name": "34e91fa176e28d137e4d031b4cff44ea", "is_reserved": 0}, {"is_disabled": 0, "fusion_lon": 0.0, "fusion_lat": 0.0, "lat": 38.909559333333334, "type": "electric_scooter", "lon": -77.0477565, "bike_id": "e7668c21ff7bf247e2c513d137dbfa44", "rental_uris": {"android": "https://dc.lft.to/lastmile_qr_scan", "ios": "https://dc.lft.to/lastmile_qr_scan"}, "name": "e7668c21ff7bf247e2c513d137dbfa44", "is_reserved": 0}, {"is_disabled": 0, "fusion_lon": 0.0, "fusion_lat": 0.0, "lat": 38.93757766666667, "type": "electric_scooter", "lon": -77.02496983333333, "bike_id": "52373a7b79ea7b5e0cc7f2b09f3d1b7b", "rental_uris": {"android": "https://dc.lft.to/lastmile_qr_scan", "ios": "https://dc.lft.to/lastmile_qr_scan"}, "name": "52373a7b79ea7b5e0cc7f2b09f3d1b7b", "is_reserved": 0}, {"is_disabled": 0, "fusion_lon": 0.0, "fusion_lat": 0.0, "lat": 38.90002966666667, "type": "electric_scooter", "lon": -77.03966316666667, "bike_id": "3b496327267a29184d330c50f0ba3308", "rental_uris": {"android": "https://dc.lft.to/lastmile_qr_scan", "ios": "https://dc.lft.to/lastmile_qr_scan"}, "name": "3b496327267a29184d330c50f0ba3308", "is_reserved": 0}, {"is_disabled": 0, "fusion_lon": 0.0, "fusion_lat": 0.0, "lat": 38.9029035, "type": "electric_scooter", "lon": -77.04070316666666, "bike_id": "fb2dfaa2dde9992e782bcc3d4d330135", "rental_uris": {"android": "https://dc.lft.to/lastmile_qr_scan", "ios": "https://dc.lft.to/lastmile_qr_scan"}, "name": "fb2dfaa2dde9992e782bcc3d4d330135", "is_reserved": 0}, {"is_disabled": 0, "fusion_lon": 0.0, "fusion_lat": 0.0, "lat": 38.91041933333333, "type": "electric_scooter", "lon": -77.03842183333333, "bike_id": "7254036a8e1b35611288f233cb0ebeac", "rental_uris": {"android": "https://dc.lft.to/lastmile_qr_scan", "ios": "https://dc.lft.to/lastmile_qr_scan"}, "name": "7254036a8e1b35611288f233cb0ebeac", "is_reserved": 0}, {"is_disabled": 0, "fusion_lon": 0.0, "fusion_lat": 0.0, "lat": 38.876669166666666, "type": "electric_bike", "lon": -77.00716566666667, "bike_id": "4f5c609bc898bea279e642133e6ce5ae", "rental_uris": {"android": "https://dc.lft.to/lastmile_qr_scan", "ios": "https://dc.lft.to/lastmile_qr_scan"}, "name": "4f5c609bc898bea279e642133e6ce5ae", "is_reserved": 0}, {"is_disabled": 0, "fusion_lon": 0.0, "fusion_lat": 0.0, "lat": 38.929507666666666, "type": "electric_bike", "lon": -77.05629466666667, "bike_id": "04f5451263b4d57084f3305b6c9eb7d5", "rental_uris": {"android": "https://dc.lft.to/lastmile_qr_scan", "ios": "https://dc.lft.to/lastmile_qr_scan"}, "name": "04f5451263b4d57084f3305b6c9eb7d5", "is_reserved": 0}, {"is_disabled": 0, "fusion_lon": 0.0, "fusion_lat": 0.0, "lat": 38.916284, "type": "electric_scooter", "lon": -77.02696533333334, "bike_id": "a138114cb32e17fe6f01059ac6567a7f", "rental_uris": {"android": "https://dc.lft.to/lastmile_qr_scan", "ios": "https://dc.lft.to/lastmile_qr_scan"}, "name": "a138114cb32e17fe6f01059ac6567a7f", "is_reserved": 0}, {"is_disabled": 0, "fusion_lon": 0.0, "fusion_lat": 0.0, "lat": 38.8797155, "type": "electric_scooter", "lon": -77.017775, "bike_id": "b4e7daad11f35afcb022f3402c921b75", "rental_uris": {"android": "https://dc.lft.to/lastmile_qr_scan", "ios": "https://dc.lft.to/lastmile_qr_scan"}, "name": "b4e7daad11f35afcb022f3402c921b75", "is_reserved": 0}, {"is_disabled": 0, "fusion_lon": 0.0, "fusion_lat": 0.0, "lat": 38.97162016666667, "type": "electric_bike", "lon": -76.98021716666666, "bike_id": "45800011f8677641a5f6c818b99067dc", "rental_uris": {"android": "https://dc.lft.to/lastmile_qr_scan", "ios": "https://dc.lft.to/lastmile_qr_scan"}, "name": "45800011f8677641a5f6c818b99067dc", "is_reserved": 0}, {"is_disabled": 0, "fusion_lon": 0.0, "fusion_lat": 0.0, "lat": 38.91534383333333, "type": "electric_scooter", "lon": -77.02716333333333, "bike_id": "60033cc966c2becaee4c9b57032df9b4", "rental_uris": {"android": "https://dc.lft.to/lastmile_qr_scan", "ios": "https://dc.lft.to/lastmile_qr_scan"}, "name": "60033cc966c2becaee4c9b57032df9b4", "is_reserved": 0}, {"is_disabled": 0, "fusion_lon": 0.0, "fusion_lat": 0.0, "lat": 38.9680125, "type": "electric_scooter", "lon": -77.02123733333333, "bike_id": "1295d9c91e811308873579dbf55eefb2", "rental_uris": {"android": "https://dc.lft.to/lastmile_qr_scan", "ios": "https://dc.lft.to/lastmile_qr_scan"}, "name": "1295d9c91e811308873579dbf55eefb2", "is_reserved": 0}, {"is_disabled": 0, "fusion_lon": 0.0, "fusion_lat": 0.0, "lat": 38.918814166666664, "type": "electric_scooter", "lon": -77.03642, "bike_id": "7bf39f15cffa5f0a1524f2a0ddb3f253", "rental_uris": {"android": "https://dc.lft.to/lastmile_qr_scan", "ios": "https://dc.lft.to/lastmile_qr_scan"}, "name": "7bf39f15cffa5f0a1524f2a0ddb3f253", "is_reserved": 0}, {"is_disabled": 0, "fusion_lon": 0.0, "fusion_lat": 0.0, "lat": 38.91382183333333, "type": "electric_scooter", "lon": -77.02957283333333, "bike_id": "c0afef93fcc87ba042db749f64f81f29", "rental_uris": {"android": "https://dc.lft.to/lastmile_qr_scan", "ios": "https://dc.lft.to/lastmile_qr_scan"}, "name": "c0afef93fcc87ba042db749f64f81f29", "is_reserved": 0}, {"is_disabled": 0, "fusion_lon": 0.0, "fusion_lat": 0.0, "lat": 38.88018566666667, "type": "electric_scooter", "lon": -76.982392, "bike_id": "572739ca3009574eb0dbd8388715cd3c", "rental_uris": {"android": "https://dc.lft.to/lastmile_qr_scan", "ios": "https://dc.lft.to/lastmile_qr_scan"}, "name": "572739ca3009574eb0dbd8388715cd3c", "is_reserved": 0}, {"is_disabled": 0, "fusion_lon": 0.0, "fusion_lat": 0.0, "lat": 38.93719683333333, "type": "electric_scooter", "lon": -77.024609, "bike_id": "cef49948b551be4cd8dc4a34aa562e7d", "rental_uris": {"android": "https://dc.lft.to/lastmile_qr_scan", "ios": "https://dc.lft.to/lastmile_qr_scan"}, "name": "cef49948b551be4cd8dc4a34aa562e7d", "is_reserved": 0}, {"is_disabled": 0, "fusion_lon": 0.0, "fusion_lat": 0.0, "lat": 38.9408255, "type": "electric_scooter", "lon": -77.038142, "bike_id": "9fef8de7837906977c569f2aa177180e", "rental_uris": {"android": "https://dc.lft.to/lastmile_qr_scan", "ios": "https://dc.lft.to/lastmile_qr_scan"}, "name": "9fef8de7837906977c569f2aa177180e", "is_reserved": 0}, {"is_disabled": 0, "fusion_lon": 0.0, "fusion_lat": 0.0, "lat": 38.954151333333336, "type": "electric_scooter", "lon": -77.02175916666667, "bike_id": "3d5b9fe9fb727f852284e43d7266bda0", "rental_uris": {"android": "https://dc.lft.to/lastmile_qr_scan", "ios": "https://dc.lft.to/lastmile_qr_scan"}, "name": "3d5b9fe9fb727f852284e43d7266bda0", "is_reserved": 0}, {"is_disabled": 0, "fusion_lon": 0.0, "fusion_lat": 0.0, "lat": 38.91312716666667, "type": "electric_scooter", "lon": -77.03204633333333, "bike_id": "d3e0fb8447980e448fc5ccd332b15381", "rental_uris": {"android": "https://dc.lft.to/lastmile_qr_scan", "ios": "https://dc.lft.to/lastmile_qr_scan"}, "name": "d3e0fb8447980e448fc5ccd332b15381", "is_reserved": 0}, {"is_disabled": 0, "fusion_lon": 0.0, "fusion_lat": 0.0, "lat": 38.9003305, "type": "electric_scooter", "lon": -76.9904275, "bike_id": "5aa1e3abd619b749b5e86787f0c34353", "rental_uris": {"android": "https://dc.lft.to/lastmile_qr_scan", "ios": "https://dc.lft.to/lastmile_qr_scan"}, "name": "5aa1e3abd619b749b5e86787f0c34353", "is_reserved": 0}, {"is_disabled": 0, "fusion_lon": 0.0, "fusion_lat": 0.0, "lat": 38.9164485, "type": "electric_scooter", "lon": -77.02181983333334, "bike_id": "9b8f32ad556bc83e58ab32be666b4232", "rental_uris": {"android": "https://dc.lft.to/lastmile_qr_scan", "ios": "https://dc.lft.to/lastmile_qr_scan"}, "name": "9b8f32ad556bc83e58ab32be666b4232", "is_reserved": 0}, {"is_disabled": 0, "fusion_lon": 0.0, "fusion_lat": 0.0, "lat": 38.95631733333333, "type": "electric_scooter", "lon": -77.09102133333333, "bike_id": "308bec238b92412746f2a322dede9e7b", "rental_uris": {"android": "https://dc.lft.to/lastmile_qr_scan", "ios": "https://dc.lft.to/lastmile_qr_scan"}, "name": "308bec238b92412746f2a322dede9e7b", "is_reserved": 0}, {"is_disabled": 0, "fusion_lon": 0.0, "fusion_lat": 0.0, "lat": 38.91905, "type": "electric_scooter", "lon": -77.02402283333333, "bike_id": "859423f6f0fe8f3f78bd967d413b336f", "rental_uris": {"android": "https://dc.lft.to/lastmile_qr_scan", "ios": "https://dc.lft.to/lastmile_qr_scan"}, "name": "859423f6f0fe8f3f78bd967d413b336f", "is_reserved": 0}, {"is_disabled": 0, "fusion_lon": 0.0, "fusion_lat": 0.0, "lat": 38.92235016666667, "type": "electric_scooter", "lon": -77.07328066666666, "bike_id": "9949c2c6e1410d3bbe2d2abd5beba4f3", "rental_uris": {"android": "https://dc.lft.to/lastmile_qr_scan", "ios": "https://dc.lft.to/lastmile_qr_scan"}, "name": "9949c2c6e1410d3bbe2d2abd5beba4f3", "is_reserved": 0}, {"is_disabled": 0, "fusion_lon": 0.0, "fusion_lat": 0.0, "lat": 38.8982715, "type": "electric_scooter", "lon": -76.94632483333334, "bike_id": "4707a9c049a3d320d4a3915dbc7f1b52", "rental_uris": {"android": "https://dc.lft.to/lastmile_qr_scan", "ios": "https://dc.lft.to/lastmile_qr_scan"}, "name": "4707a9c049a3d320d4a3915dbc7f1b52", "is_reserved": 0}, {"is_disabled": 0, "fusion_lon": 0.0, "fusion_lat": 0.0, "lat": 38.918207, "type": "electric_scooter", "lon": -77.0242745, "bike_id": "2f83e7388e436bf6bed6921f9d9a9845", "rental_uris": {"android": "https://dc.lft.to/lastmile_qr_scan", "ios": "https://dc.lft.to/lastmile_qr_scan"}, "name": "2f83e7388e436bf6bed6921f9d9a9845", "is_reserved": 0}, {"is_disabled": 0, "fusion_lon": 0.0, "fusion_lat": 0.0, "lat": 38.9035985, "type": "electric_scooter", "lon": -77.04036766666667, "bike_id": "98ee1cc288fa526fc2be86466827b857", "rental_uris": {"android": "https://dc.lft.to/lastmile_qr_scan", "ios": "https://dc.lft.to/lastmile_qr_scan"}, "name": "98ee1cc288fa526fc2be86466827b857", "is_reserved": 0}, {"is_disabled": 0, "fusion_lon": 0.0, "fusion_lat": 0.0, "lat": 38.91308433333333, "type": "electric_scooter", "lon": -77.0143715, "bike_id": "77820457ce2e2416ea8adf89da1a20c1", "rental_uris": {"android": "https://dc.lft.to/lastmile_qr_scan", "ios": "https://dc.lft.to/lastmile_qr_scan"}, "name": "77820457ce2e2416ea8adf89da1a20c1", "is_reserved": 0}, {"is_disabled": 0, "fusion_lon": 0.0, "fusion_lat": 0.0, "lat": 38.907084166666664, "type": "electric_scooter", "lon": -77.01045933333333, "bike_id": "392a74d9d4c7f645858288bf65ae0ee5", "rental_uris": {"android": "https://dc.lft.to/lastmile_qr_scan", "ios": "https://dc.lft.to/lastmile_qr_scan"}, "name": "392a74d9d4c7f645858288bf65ae0ee5", "is_reserved": 0}, {"is_disabled": 0, "fusion_lon": 0.0, "fusion_lat": 0.0, "lat": 38.84931016666667, "type": "electric_bike", "lon": -77.10010716666666, "bike_id": "68a31cb13e92f333dc15089deebd1c6e", "rental_uris": {"android": "https://dc.lft.to/lastmile_qr_scan", "ios": "https://dc.lft.to/lastmile_qr_scan"}, "name": "68a31cb13e92f333dc15089deebd1c6e", "is_reserved": 0}, {"is_disabled": 0, "fusion_lon": 0.0, "fusion_lat": 0.0, "lat": 38.856413, "type": "electric_bike", "lon": -77.08528983333333, "bike_id": "5f44c6981e331b68f574402877b1ce5d", "rental_uris": {"android": "https://dc.lft.to/lastmile_qr_scan", "ios": "https://dc.lft.to/lastmile_qr_scan"}, "name": "5f44c6981e331b68f574402877b1ce5d", "is_reserved": 0}, {"is_disabled": 0, "fusion_lon": 0.0, "fusion_lat": 0.0, "lat": 38.916950166666666, "type": "electric_scooter", "lon": -77.0274715, "bike_id": "acba20807e52ae5ec72c5b56afe7cf34", "rental_uris": {"android": "https://dc.lft.to/lastmile_qr_scan", "ios": "https://dc.lft.to/lastmile_qr_scan"}, "name": "acba20807e52ae5ec72c5b56afe7cf34", "is_reserved": 0}, {"is_disabled": 0, "fusion_lon": 0.0, "fusion_lat": 0.0, "lat": 38.88602133333333, "type": "electric_scooter", "lon": -77.00581316666667, "bike_id": "9abe22d82a15f370fa36abe4a75cfac9", "rental_uris": {"android": "https://dc.lft.to/lastmile_qr_scan", "ios": "https://dc.lft.to/lastmile_qr_scan"}, "name": "9abe22d82a15f370fa36abe4a75cfac9", "is_reserved": 0}, {"is_disabled": 0, "fusion_lon": 0.0, "fusion_lat": 0.0, "lat": 38.916889833333336, "type": "electric_scooter", "lon": -77.01163433333333, "bike_id": "8dd9e2d0049bb2dd32ce8e450bb8bdb4", "rental_uris": {"android": "https://dc.lft.to/lastmile_qr_scan", "ios": "https://dc.lft.to/lastmile_qr_scan"}, "name": "8dd9e2d0049bb2dd32ce8e450bb8bdb4", "is_reserved": 0}, {"is_disabled": 0, "fusion_lon": 0.0, "fusion_lat": 0.0, "lat": 38.870488333333334, "type": "electric_scooter", "lon": -76.98081983333333, "bike_id": "6f568798d986405fc3badc787c56f219", "rental_uris": {"android": "https://dc.lft.to/lastmile_qr_scan", "ios": "https://dc.lft.to/lastmile_qr_scan"}, "name": "6f568798d986405fc3badc787c56f219", "is_reserved": 0}, {"is_disabled": 0, "fusion_lon": 0.0, "fusion_lat": 0.0, "lat": 38.923357333333335, "type": "electric_scooter", "lon": -77.041919, "bike_id": "f24cd7262a545d362a90b4c972143136", "rental_uris": {"android": "https://dc.lft.to/lastmile_qr_scan", "ios": "https://dc.lft.to/lastmile_qr_scan"}, "name": "f24cd7262a545d362a90b4c972143136", "is_reserved": 0}, {"is_disabled": 0, "fusion_lon": 0.0, "fusion_lat": 0.0, "lat": 38.89472166666667, "type": "electric_scooter", "lon": -77.02154266666666, "bike_id": "6a631b79de2cf73f424d2df18e41e557", "rental_uris": {"android": "https://dc.lft.to/lastmile_qr_scan", "ios": "https://dc.lft.to/lastmile_qr_scan"}, "name": "6a631b79de2cf73f424d2df18e41e557", "is_reserved": 0}, {"is_disabled": 0, "fusion_lon": 0.0, "fusion_lat": 0.0, "lat": 38.877198166666666, "type": "electric_scooter", "lon": -77.01782683333333, "bike_id": "f713c8c334dbd6e3dd00edcc5729c7b4", "rental_uris": {"android": "https://dc.lft.to/lastmile_qr_scan", "ios": "https://dc.lft.to/lastmile_qr_scan"}, "name": "f713c8c334dbd6e3dd00edcc5729c7b4", "is_reserved": 0}, {"is_disabled": 0, "fusion_lon": 0.0, "fusion_lat": 0.0, "lat": 38.89470383333333, "type": "electric_scooter", "lon": -76.933046, "bike_id": "89038c16e42634b5b0e10d8a62cb8f45", "rental_uris": {"android": "https://dc.lft.to/lastmile_qr_scan", "ios": "https://dc.lft.to/lastmile_qr_scan"}, "name": "89038c16e42634b5b0e10d8a62cb8f45", "is_reserved": 0}, {"is_disabled": 0, "fusion_lon": 0.0, "fusion_lat": 0.0, "lat": 38.91113583333333, "type": "electric_scooter", "lon": -77.0437165, "bike_id": "70a4dc3b0cdf98dbc9689977107d6739", "rental_uris": {"android": "https://dc.lft.to/lastmile_qr_scan", "ios": "https://dc.lft.to/lastmile_qr_scan"}, "name": "70a4dc3b0cdf98dbc9689977107d6739", "is_reserved": 0}, {"is_disabled": 0, "fusion_lon": 0.0, "fusion_lat": 0.0, "lat": 38.9024635, "type": "electric_scooter", "lon": -77.03470733333333, "bike_id": "0aad01e5e9de8e3d41fbe830188ac468", "rental_uris": {"android": "https://dc.lft.to/lastmile_qr_scan", "ios": "https://dc.lft.to/lastmile_qr_scan"}, "name": "0aad01e5e9de8e3d41fbe830188ac468", "is_reserved": 0}, {"is_disabled": 0, "fusion_lon": 0.0, "fusion_lat": 0.0, "lat": 38.87891333333334, "type": "electric_scooter", "lon": -76.93524, "bike_id": "196bd2a8976bee63223493e5734b8fac", "rental_uris": {"android": "https://dc.lft.to/lastmile_qr_scan", "ios": "https://dc.lft.to/lastmile_qr_scan"}, "name": "196bd2a8976bee63223493e5734b8fac", "is_reserved": 0}, {"is_disabled": 0, "fusion_lon": 0.0, "fusion_lat": 0.0, "lat": 38.90462383333333, "type": "electric_scooter", "lon": -77.02604966666667, "bike_id": "6eb0a758ec8f5a51d1ff622ef03b1fb1", "rental_uris": {"android": "https://dc.lft.to/lastmile_qr_scan", "ios": "https://dc.lft.to/lastmile_qr_scan"}, "name": "6eb0a758ec8f5a51d1ff622ef03b1fb1", "is_reserved": 0}, {"is_disabled": 0, "fusion_lon": 0.0, "fusion_lat": 0.0, "lat": 38.886639833333334, "type": "electric_scooter", "lon": -77.00359516666667, "bike_id": "44a607288fe5dcf84f7645f92d69ee48", "rental_uris": {"android": "https://dc.lft.to/lastmile_qr_scan", "ios": "https://dc.lft.to/lastmile_qr_scan"}, "name": "44a607288fe5dcf84f7645f92d69ee48", "is_reserved": 0}, {"is_disabled": 0, "fusion_lon": 0.0, "fusion_lat": 0.0, "lat": 38.917611, "type": "electric_scooter", "lon": -77.040621, "bike_id": "b9c91d29dc55e24107c53ba484fa7e18", "rental_uris": {"android": "https://dc.lft.to/lastmile_qr_scan", "ios": "https://dc.lft.to/lastmile_qr_scan"}, "name": "b9c91d29dc55e24107c53ba484fa7e18", "is_reserved": 0}, {"is_disabled": 0, "fusion_lon": 0.0, "fusion_lat": 0.0, "lat": 38.96812766666667, "type": "electric_scooter", "lon": -77.0089095, "bike_id": "1ed18127058c4b9e4d7597ea6fe4f5d5", "rental_uris": {"android": "https://dc.lft.to/lastmile_qr_scan", "ios": "https://dc.lft.to/lastmile_qr_scan"}, "name": "1ed18127058c4b9e4d7597ea6fe4f5d5", "is_reserved": 0}, {"is_disabled": 0, "fusion_lon": 0.0, "fusion_lat": 0.0, "lat": 38.9098245, "type": "electric_scooter", "lon": -77.0220405, "bike_id": "53cc0114e5ffec9572c69314bed195a4", "rental_uris": {"android": "https://dc.lft.to/lastmile_qr_scan", "ios": "https://dc.lft.to/lastmile_qr_scan"}, "name": "53cc0114e5ffec9572c69314bed195a4", "is_reserved": 0}, {"is_disabled": 0, "fusion_lon": 0.0, "fusion_lat": 0.0, "lat": 38.905366666666666, "type": "electric_scooter", "lon": -77.0220075, "bike_id": "44c350d165922cbdc9414bec560a9a38", "rental_uris": {"android": "https://dc.lft.to/lastmile_qr_scan", "ios": "https://dc.lft.to/lastmile_qr_scan"}, "name": "44c350d165922cbdc9414bec560a9a38", "is_reserved": 0}, {"is_disabled": 0, "fusion_lon": 0.0, "fusion_lat": 0.0, "lat": 38.92547, "type": "electric_scooter", "lon": -76.9901115, "bike_id": "790923df25a9ea41f833371558d0c56f", "rental_uris": {"android": "https://dc.lft.to/lastmile_qr_scan", "ios": "https://dc.lft.to/lastmile_qr_scan"}, "name": "790923df25a9ea41f833371558d0c56f", "is_reserved": 0}, {"is_disabled": 0, "fusion_lon": 0.0, "fusion_lat": 0.0, "lat": 38.918414166666665, "type": "electric_scooter", "lon": -77.02460216666667, "bike_id": "acc1926da1489a4f73ff96228679be73", "rental_uris": {"android": "https://dc.lft.to/lastmile_qr_scan", "ios": "https://dc.lft.to/lastmile_qr_scan"}, "name": "acc1926da1489a4f73ff96228679be73", "is_reserved": 0}, {"is_disabled": 0, "fusion_lon": 0.0, "fusion_lat": 0.0, "lat": 38.897267166666666, "type": "electric_bike", "lon": -76.90546916666666, "bike_id": "3a58f1b4019e421a32c7a80e6912cbb9", "rental_uris": {"android": "https://dc.lft.to/lastmile_qr_scan", "ios": "https://dc.lft.to/lastmile_qr_scan"}, "name": "3a58f1b4019e421a32c7a80e6912cbb9", "is_reserved": 0}, {"is_disabled": 0, "fusion_lon": 0.0, "fusion_lat": 0.0, "lat": 39.0520325, "type": "electric_bike", "lon": -77.04416233333333, "bike_id": "1d66a64eae0eb233e34165870be08e9d", "rental_uris": {"android": "https://dc.lft.to/lastmile_qr_scan", "ios": "https://dc.lft.to/lastmile_qr_scan"}, "name": "1d66a64eae0eb233e34165870be08e9d", "is_reserved": 0}, {"is_disabled": 0, "fusion_lon": 0.0, "fusion_lat": 0.0, "lat": 38.87087366666667, "type": "electric_scooter", "lon": -77.00813816666667, "bike_id": "deae7b7e34f353b24f2e69a6a2db3a27", "rental_uris": {"android": "https://dc.lft.to/lastmile_qr_scan", "ios": "https://dc.lft.to/lastmile_qr_scan"}, "name": "deae7b7e34f353b24f2e69a6a2db3a27", "is_reserved": 0}, {"is_disabled": 0, "fusion_lon": 0.0, "fusion_lat": 0.0, "lat": 38.90023, "type": "electric_scooter", "lon": -77.0469205, "bike_id": "e9b810377b54e6babdeb480a657a0545", "rental_uris": {"android": "https://dc.lft.to/lastmile_qr_scan", "ios": "https://dc.lft.to/lastmile_qr_scan"}, "name": "e9b810377b54e6babdeb480a657a0545", "is_reserved": 0}, {"is_disabled": 0, "fusion_lon": 0.0, "fusion_lat": 0.0, "lat": 38.88684116666667, "type": "electric_scooter", "lon": -77.01379466666667, "bike_id": "b5ff6e19752ac5c6caaef3b028009fd2", "rental_uris": {"android": "https://dc.lft.to/lastmile_qr_scan", "ios": "https://dc.lft.to/lastmile_qr_scan"}, "name": "b5ff6e19752ac5c6caaef3b028009fd2", "is_reserved": 0}, {"is_disabled": 0, "fusion_lon": 0.0, "fusion_lat": 0.0, "lat": 38.93901533333333, "type": "electric_scooter", "lon": -77.07799033333333, "bike_id": "3d51282055ee7ed72f413c0820ea4154", "rental_uris": {"android": "https://dc.lft.to/lastmile_qr_scan", "ios": "https://dc.lft.to/lastmile_qr_scan"}, "name": "3d51282055ee7ed72f413c0820ea4154", "is_reserved": 0}, {"is_disabled": 0, "fusion_lon": 0.0, "fusion_lat": 0.0, "lat": 38.8749025, "type": "electric_scooter", "lon": -77.0033185, "bike_id": "54a384045d98f405cf85e8e789f68a48", "rental_uris": {"android": "https://dc.lft.to/lastmile_qr_scan", "ios": "https://dc.lft.to/lastmile_qr_scan"}, "name": "54a384045d98f405cf85e8e789f68a48", "is_reserved": 0}, {"is_disabled": 0, "fusion_lon": 0.0, "fusion_lat": 0.0, "lat": 38.94889916666666, "type": "electric_bike", "lon": -76.96376233333334, "bike_id": "0f1d1a743a91aea16e79cee5f6b95d4a", "rental_uris": {"android": "https://dc.lft.to/lastmile_qr_scan", "ios": "https://dc.lft.to/lastmile_qr_scan"}, "name": "0f1d1a743a91aea16e79cee5f6b95d4a", "is_reserved": 0}, {"is_disabled": 0, "fusion_lon": 0.0, "fusion_lat": 0.0, "lat": 38.854752833333336, "type": "electric_bike", "lon": -77.049438, "bike_id": "b2816be66310762cf2b0f5de16a3578a", "rental_uris": {"android": "https://dc.lft.to/lastmile_qr_scan", "ios": "https://dc.lft.to/lastmile_qr_scan"}, "name": "b2816be66310762cf2b0f5de16a3578a", "is_reserved": 0}, {"is_disabled": 0, "fusion_lon": 0.0, "fusion_lat": 0.0, "lat": 38.900390333333334, "type": "electric_scooter", "lon": -76.99009083333334, "bike_id": "42fb869942371687636a7f5eedb881e7", "rental_uris": {"android": "https://dc.lft.to/lastmile_qr_scan", "ios": "https://dc.lft.to/lastmile_qr_scan"}, "name": "42fb869942371687636a7f5eedb881e7", "is_reserved": 0}, {"is_disabled": 0, "fusion_lon": 0.0, "fusion_lat": 0.0, "lat": 38.919114666666665, "type": "electric_scooter", "lon": -77.0240165, "bike_id": "9116a0e5a9c96b473743b1d0e0c3e148", "rental_uris": {"android": "https://dc.lft.to/lastmile_qr_scan", "ios": "https://dc.lft.to/lastmile_qr_scan"}, "name": "9116a0e5a9c96b473743b1d0e0c3e148", "is_reserved": 0}, {"is_disabled": 0, "fusion_lon": 0.0, "fusion_lat": 0.0, "lat": 38.93694983333334, "type": "electric_scooter", "lon": -77.056016, "bike_id": "79490ffad38dbe1eda2bf3bb7c9eb6f5", "rental_uris": {"android": "https://dc.lft.to/lastmile_qr_scan", "ios": "https://dc.lft.to/lastmile_qr_scan"}, "name": "79490ffad38dbe1eda2bf3bb7c9eb6f5", "is_reserved": 0}, {"is_disabled": 0, "fusion_lon": 0.0, "fusion_lat": 0.0, "lat": 38.88833983333333, "type": "electric_scooter", "lon": -76.91783733333334, "bike_id": "204fe9db134cf5604657065a76638258", "rental_uris": {"android": "https://dc.lft.to/lastmile_qr_scan", "ios": "https://dc.lft.to/lastmile_qr_scan"}, "name": "204fe9db134cf5604657065a76638258", "is_reserved": 0}, {"is_disabled": 0, "fusion_lon": 0.0, "fusion_lat": 0.0, "lat": 38.93227366666667, "type": "electric_scooter", "lon": -76.99936683333334, "bike_id": "c48d151e0778fffb8ed0957b62756d90", "rental_uris": {"android": "https://dc.lft.to/lastmile_qr_scan", "ios": "https://dc.lft.to/lastmile_qr_scan"}, "name": "c48d151e0778fffb8ed0957b62756d90", "is_reserved": 0}, {"is_disabled": 0, "fusion_lon": 0.0, "fusion_lat": 0.0, "lat": 38.95298783333333, "type": "electric_scooter", "lon": -77.06983216666667, "bike_id": "b57589abe9059fb0ec6ba4fedbf980dc", "rental_uris": {"android": "https://dc.lft.to/lastmile_qr_scan", "ios": "https://dc.lft.to/lastmile_qr_scan"}, "name": "b57589abe9059fb0ec6ba4fedbf980dc", "is_reserved": 0}, {"is_disabled": 0, "fusion_lon": 0.0, "fusion_lat": 0.0, "lat": 38.90198766666666, "type": "electric_scooter", "lon": -77.06116283333333, "bike_id": "239e1451457981d863122acc6deb5c16", "rental_uris": {"android": "https://dc.lft.to/lastmile_qr_scan", "ios": "https://dc.lft.to/lastmile_qr_scan"}, "name": "239e1451457981d863122acc6deb5c16", "is_reserved": 0}, {"is_disabled": 0, "fusion_lon": 0.0, "fusion_lat": 0.0, "lat": 38.92889516666666, "type": "electric_scooter", "lon": -76.9845755, "bike_id": "4f5e188dde15ba4487fff33a60de9c14", "rental_uris": {"android": "https://dc.lft.to/lastmile_qr_scan", "ios": "https://dc.lft.to/lastmile_qr_scan"}, "name": "4f5e188dde15ba4487fff33a60de9c14", "is_reserved": 0}, {"is_disabled": 0, "fusion_lon": 0.0, "fusion_lat": 0.0, "lat": 38.924392833333336, "type": "electric_bike", "lon": -76.968361, "bike_id": "46fa5c88275a07eb25c82a80b6b79cfa", "rental_uris": {"android": "https://dc.lft.to/lastmile_qr_scan", "ios": "https://dc.lft.to/lastmile_qr_scan"}, "name": "46fa5c88275a07eb25c82a80b6b79cfa", "is_reserved": 0}, {"is_disabled": 0, "fusion_lon": 0.0, "fusion_lat": 0.0, "lat": 38.92912883333333, "type": "electric_scooter", "lon": -77.023486, "bike_id": "4fd0bae267742ed7f318bc1a46acf7cb", "rental_uris": {"android": "https://dc.lft.to/lastmile_qr_scan", "ios": "https://dc.lft.to/lastmile_qr_scan"}, "name": "4fd0bae267742ed7f318bc1a46acf7cb", "is_reserved": 0}, {"is_disabled": 0, "fusion_lon": 0.0, "fusion_lat": 0.0, "lat": 38.89371233333333, "type": "electric_scooter", "lon": -76.95000233333333, "bike_id": "e464c68b43f044629f9fb4f236d33cfa", "rental_uris": {"android": "https://dc.lft.to/lastmile_qr_scan", "ios": "https://dc.lft.to/lastmile_qr_scan"}, "name": "e464c68b43f044629f9fb4f236d33cfa", "is_reserved": 0}, {"is_disabled": 0, "fusion_lon": 0.0, "fusion_lat": 0.0, "lat": 38.93171983333333, "type": "electric_scooter", "lon": -77.02815783333334, "bike_id": "0c0e60fc20eaf655f3988d1e257bcc38", "rental_uris": {"android": "https://dc.lft.to/lastmile_qr_scan", "ios": "https://dc.lft.to/lastmile_qr_scan"}, "name": "0c0e60fc20eaf655f3988d1e257bcc38", "is_reserved": 0}, {"is_disabled": 0, "fusion_lon": 0.0, "fusion_lat": 0.0, "lat": 38.898793166666664, "type": "electric_scooter", "lon": -76.93160433333334, "bike_id": "83d4d9f74f8b27872ac8188f2d888fbd", "rental_uris": {"android": "https://dc.lft.to/lastmile_qr_scan", "ios": "https://dc.lft.to/lastmile_qr_scan"}, "name": "83d4d9f74f8b27872ac8188f2d888fbd", "is_reserved": 0}, {"is_disabled": 0, "fusion_lon": 0.0, "fusion_lat": 0.0, "lat": 38.911772666666664, "type": "electric_scooter", "lon": -77.04538166666667, "bike_id": "6e416a8177eb8ac226d19c312c579074", "rental_uris": {"android": "https://dc.lft.to/lastmile_qr_scan", "ios": "https://dc.lft.to/lastmile_qr_scan"}, "name": "6e416a8177eb8ac226d19c312c579074", "is_reserved": 0}, {"is_disabled": 0, "fusion_lon": 0.0, "fusion_lat": 0.0, "lat": 38.900880666666666, "type": "electric_bike", "lon": -77.05324316666666, "bike_id": "7ba4505f04d658bcfcfaa83ddff24fc6", "rental_uris": {"android": "https://dc.lft.to/lastmile_qr_scan", "ios": "https://dc.lft.to/lastmile_qr_scan"}, "name": "7ba4505f04d658bcfcfaa83ddff24fc6", "is_reserved": 0}, {"is_disabled": 0, "fusion_lon": 0.0, "fusion_lat": 0.0, "lat": 38.892347666666666, "type": "electric_scooter", "lon": -77.039574, "bike_id": "a1e025ffdc975eb8ddaecae317e5d3df", "rental_uris": {"android": "https://dc.lft.to/lastmile_qr_scan", "ios": "https://dc.lft.to/lastmile_qr_scan"}, "name": "a1e025ffdc975eb8ddaecae317e5d3df", "is_reserved": 0}, {"is_disabled": 0, "fusion_lon": 0.0, "fusion_lat": 0.0, "lat": 38.921845, "type": "electric_scooter", "lon": -76.99758733333333, "bike_id": "92ef211648b5306e6d6674bfd3871e20", "rental_uris": {"android": "https://dc.lft.to/lastmile_qr_scan", "ios": "https://dc.lft.to/lastmile_qr_scan"}, "name": "92ef211648b5306e6d6674bfd3871e20", "is_reserved": 0}, {"is_disabled": 0, "fusion_lon": 0.0, "fusion_lat": 0.0, "lat": 38.91565283333333, "type": "electric_scooter", "lon": -77.02287616666666, "bike_id": "1b16cedb005f39df145559a14cea7207", "rental_uris": {"android": "https://dc.lft.to/lastmile_qr_scan", "ios": "https://dc.lft.to/lastmile_qr_scan"}, "name": "1b16cedb005f39df145559a14cea7207", "is_reserved": 0}, {"is_disabled": 0, "fusion_lon": 0.0, "fusion_lat": 0.0, "lat": 39.105642333333336, "type": "electric_bike", "lon": -77.15268216666666, "bike_id": "69f233ff1596730326b2faf32ecca095", "rental_uris": {"android": "https://dc.lft.to/lastmile_qr_scan", "ios": "https://dc.lft.to/lastmile_qr_scan"}, "name": "69f233ff1596730326b2faf32ecca095", "is_reserved": 0}, {"is_disabled": 0, "fusion_lon": 0.0, "fusion_lat": 0.0, "lat": 38.903135666666664, "type": "electric_bike", "lon": -77.01626833333333, "bike_id": "1ae0084f88212e063d12b5ed9cbec571", "rental_uris": {"android": "https://dc.lft.to/lastmile_qr_scan", "ios": "https://dc.lft.to/lastmile_qr_scan"}, "name": "1ae0084f88212e063d12b5ed9cbec571", "is_reserved": 0}, {"is_disabled": 0, "fusion_lon": 0.0, "fusion_lat": 0.0, "lat": 38.91838416666667, "type": "electric_scooter", "lon": -77.024659, "bike_id": "961b1e31298087550cb6bfd2d03e05d4", "rental_uris": {"android": "https://dc.lft.to/lastmile_qr_scan", "ios": "https://dc.lft.to/lastmile_qr_scan"}, "name": "961b1e31298087550cb6bfd2d03e05d4", "is_reserved": 0}, {"is_disabled": 0, "fusion_lon": 0.0, "fusion_lat": 0.0, "lat": 38.920749666666666, "type": "electric_scooter", "lon": -77.01829516666666, "bike_id": "cb4769c8ba4ed27c63f35309c7bba884", "rental_uris": {"android": "https://dc.lft.to/lastmile_qr_scan", "ios": "https://dc.lft.to/lastmile_qr_scan"}, "name": "cb4769c8ba4ed27c63f35309c7bba884", "is_reserved": 0}, {"is_disabled": 0, "fusion_lon": 0.0, "fusion_lat": 0.0, "lat": 38.9001255, "type": "electric_scooter", "lon": -76.98698266666666, "bike_id": "e0b72f995cc39653f64d219c1ad0fdf8", "rental_uris": {"android": "https://dc.lft.to/lastmile_qr_scan", "ios": "https://dc.lft.to/lastmile_qr_scan"}, "name": "e0b72f995cc39653f64d219c1ad0fdf8", "is_reserved": 0}, {"is_disabled": 0, "fusion_lon": 0.0, "fusion_lat": 0.0, "lat": 38.896130666666664, "type": "electric_scooter", "lon": -76.99468333333333, "bike_id": "902f3177fbca3b3c08a4620ef4536468", "rental_uris": {"android": "https://dc.lft.to/lastmile_qr_scan", "ios": "https://dc.lft.to/lastmile_qr_scan"}, "name": "902f3177fbca3b3c08a4620ef4536468", "is_reserved": 0}, {"is_disabled": 0, "fusion_lon": 0.0, "fusion_lat": 0.0, "lat": 38.918722833333334, "type": "electric_bike", "lon": -76.961245, "bike_id": "b01c2b1273cf4e690eb1bdebf7f9d6e8", "rental_uris": {"android": "https://dc.lft.to/lastmile_qr_scan", "ios": "https://dc.lft.to/lastmile_qr_scan"}, "name": "b01c2b1273cf4e690eb1bdebf7f9d6e8", "is_reserved": 0}, {"is_disabled": 0, "fusion_lon": 0.0, "fusion_lat": 0.0, "lat": 38.91132283333334, "type": "electric_scooter", "lon": -77.03195183333334, "bike_id": "34ee46c38ca691a5a77c5cae9cfafb3a", "rental_uris": {"android": "https://dc.lft.to/lastmile_qr_scan", "ios": "https://dc.lft.to/lastmile_qr_scan"}, "name": "34ee46c38ca691a5a77c5cae9cfafb3a", "is_reserved": 0}, {"is_disabled": 0, "fusion_lon": 0.0, "fusion_lat": 0.0, "lat": 38.904852, "type": "electric_scooter", "lon": -77.04041816666667, "bike_id": "7212b9f5a5b87ecd50a99d8a31c32d18", "rental_uris": {"android": "https://dc.lft.to/lastmile_qr_scan", "ios": "https://dc.lft.to/lastmile_qr_scan"}, "name": "7212b9f5a5b87ecd50a99d8a31c32d18", "is_reserved": 0}, {"is_disabled": 0, "fusion_lon": 0.0, "fusion_lat": 0.0, "lat": 38.903355833333336, "type": "electric_scooter", "lon": -77.02614283333334, "bike_id": "c083508d055bfa17bdbfb61a8bad4a53", "rental_uris": {"android": "https://dc.lft.to/lastmile_qr_scan", "ios": "https://dc.lft.to/lastmile_qr_scan"}, "name": "c083508d055bfa17bdbfb61a8bad4a53", "is_reserved": 0}, {"is_disabled": 0, "fusion_lon": 0.0, "fusion_lat": 0.0, "lat": 38.93144616666667, "type": "electric_scooter", "lon": -77.04362966666666, "bike_id": "af405220087af964c03d3d622292c806", "rental_uris": {"android": "https://dc.lft.to/lastmile_qr_scan", "ios": "https://dc.lft.to/lastmile_qr_scan"}, "name": "af405220087af964c03d3d622292c806", "is_reserved": 0}, {"is_disabled": 0, "fusion_lon": 0.0, "fusion_lat": 0.0, "lat": 38.86580816666667, "type": "electric_scooter", "lon": -76.99029816666666, "bike_id": "9e5d8f01156bc5d2be95b080b2c4ce8d", "rental_uris": {"android": "https://dc.lft.to/lastmile_qr_scan", "ios": "https://dc.lft.to/lastmile_qr_scan"}, "name": "9e5d8f01156bc5d2be95b080b2c4ce8d", "is_reserved": 0}, {"is_disabled": 0, "fusion_lon": 0.0, "fusion_lat": 0.0, "lat": 38.90530666666667, "type": "electric_scooter", "lon": -77.046456, "bike_id": "7114de2c671d53835a46b3eff537e631", "rental_uris": {"android": "https://dc.lft.to/lastmile_qr_scan", "ios": "https://dc.lft.to/lastmile_qr_scan"}, "name": "7114de2c671d53835a46b3eff537e631", "is_reserved": 0}, {"is_disabled": 0, "fusion_lon": 0.0, "fusion_lat": 0.0, "lat": 38.91902266666666, "type": "electric_scooter", "lon": -77.032094, "bike_id": "5b1e0e0478ffcc4fb3f66cdce3fcc49e", "rental_uris": {"android": "https://dc.lft.to/lastmile_qr_scan", "ios": "https://dc.lft.to/lastmile_qr_scan"}, "name": "5b1e0e0478ffcc4fb3f66cdce3fcc49e", "is_reserved": 0}, {"is_disabled": 0, "fusion_lon": 0.0, "fusion_lat": 0.0, "lat": 39.060670333333334, "type": "electric_bike", "lon": -77.06472133333334, "bike_id": "fedf9c2b25202fe22798d08041fbabe4", "rental_uris": {"android": "https://dc.lft.to/lastmile_qr_scan", "ios": "https://dc.lft.to/lastmile_qr_scan"}, "name": "fedf9c2b25202fe22798d08041fbabe4", "is_reserved": 0}, {"is_disabled": 0, "fusion_lon": 0.0, "fusion_lat": 0.0, "lat": 38.911012666666664, "type": "electric_scooter", "lon": -77.008377, "bike_id": "118cacf2579e3b3b4094316e049fd4ec", "rental_uris": {"android": "https://dc.lft.to/lastmile_qr_scan", "ios": "https://dc.lft.to/lastmile_qr_scan"}, "name": "118cacf2579e3b3b4094316e049fd4ec", "is_reserved": 0}, {"is_disabled": 0, "fusion_lon": 0.0, "fusion_lat": 0.0, "lat": 38.92578816666666, "type": "electric_scooter", "lon": -77.03225166666667, "bike_id": "e75d6631ddc9812c7828bf00396abc76", "rental_uris": {"android": "https://dc.lft.to/lastmile_qr_scan", "ios": "https://dc.lft.to/lastmile_qr_scan"}, "name": "e75d6631ddc9812c7828bf00396abc76", "is_reserved": 0}, {"is_disabled": 0, "fusion_lon": 0.0, "fusion_lat": 0.0, "lat": 38.887471, "type": "electric_scooter", "lon": -77.01738083333333, "bike_id": "259a2c20626077d7b833fb1ce9ba662c", "rental_uris": {"android": "https://dc.lft.to/lastmile_qr_scan", "ios": "https://dc.lft.to/lastmile_qr_scan"}, "name": "259a2c20626077d7b833fb1ce9ba662c", "is_reserved": 0}, {"is_disabled": 0, "fusion_lon": 0.0, "fusion_lat": 0.0, "lat": 38.931197, "type": "electric_scooter", "lon": -77.02042566666667, "bike_id": "1e7d690b76250e32e799cd1985c97c39", "rental_uris": {"android": "https://dc.lft.to/lastmile_qr_scan", "ios": "https://dc.lft.to/lastmile_qr_scan"}, "name": "1e7d690b76250e32e799cd1985c97c39", "is_reserved": 0}, {"is_disabled": 0, "fusion_lon": 0.0, "fusion_lat": 0.0, "lat": 38.90417166666667, "type": "electric_scooter", "lon": -76.98552533333333, "bike_id": "253a3f3dba48c34a96b70c4ed18923f0", "rental_uris": {"android": "https://dc.lft.to/lastmile_qr_scan", "ios": "https://dc.lft.to/lastmile_qr_scan"}, "name": "253a3f3dba48c34a96b70c4ed18923f0", "is_reserved": 0}, {"is_disabled": 0, "fusion_lon": 0.0, "fusion_lat": 0.0, "lat": 38.918471, "type": "electric_bike", "lon": -76.96090983333333, "bike_id": "5116841de95aba5be5e1d660e9c27d80", "rental_uris": {"android": "https://dc.lft.to/lastmile_qr_scan", "ios": "https://dc.lft.to/lastmile_qr_scan"}, "name": "5116841de95aba5be5e1d660e9c27d80", "is_reserved": 0}, {"is_disabled": 0, "fusion_lon": 0.0, "fusion_lat": 0.0, "lat": 38.91201133333333, "type": "electric_scooter", "lon": -77.038432, "bike_id": "b655951304241658c5527c81527fb571", "rental_uris": {"android": "https://dc.lft.to/lastmile_qr_scan", "ios": "https://dc.lft.to/lastmile_qr_scan"}, "name": "b655951304241658c5527c81527fb571", "is_reserved": 0}, {"is_disabled": 0, "fusion_lon": 0.0, "fusion_lat": 0.0, "lat": 38.899059666666666, "type": "electric_scooter", "lon": -76.9339065, "bike_id": "285f76d6033815abba789f3d3844109b", "rental_uris": {"android": "https://dc.lft.to/lastmile_qr_scan", "ios": "https://dc.lft.to/lastmile_qr_scan"}, "name": "285f76d6033815abba789f3d3844109b", "is_reserved": 0}, {"is_disabled": 0, "fusion_lon": 0.0, "fusion_lat": 0.0, "lat": 38.9045335, "type": "electric_scooter", "lon": -77.02721916666667, "bike_id": "4e2516b0e55b3f58e451755524efd2ed", "rental_uris": {"android": "https://dc.lft.to/lastmile_qr_scan", "ios": "https://dc.lft.to/lastmile_qr_scan"}, "name": "4e2516b0e55b3f58e451755524efd2ed", "is_reserved": 0}, {"is_disabled": 0, "fusion_lon": 0.0, "fusion_lat": 0.0, "lat": 38.91840416666667, "type": "electric_scooter", "lon": -77.0296125, "bike_id": "5c4c1951d337673db9ae832d80447def", "rental_uris": {"android": "https://dc.lft.to/lastmile_qr_scan", "ios": "https://dc.lft.to/lastmile_qr_scan"}, "name": "5c4c1951d337673db9ae832d80447def", "is_reserved": 0}, {"is_disabled": 0, "fusion_lon": 0.0, "fusion_lat": 0.0, "lat": 38.902462666666665, "type": "electric_scooter", "lon": -77.03448483333334, "bike_id": "5852f71bb0140c103bd4eb92c7973d0f", "rental_uris": {"android": "https://dc.lft.to/lastmile_qr_scan", "ios": "https://dc.lft.to/lastmile_qr_scan"}, "name": "5852f71bb0140c103bd4eb92c7973d0f", "is_reserved": 0}, {"is_disabled": 0, "fusion_lon": 0.0, "fusion_lat": 0.0, "lat": 38.905403666666665, "type": "electric_scooter", "lon": -77.02197866666667, "bike_id": "cad6e7adf32784916b6f87f555255935", "rental_uris": {"android": "https://dc.lft.to/lastmile_qr_scan", "ios": "https://dc.lft.to/lastmile_qr_scan"}, "name": "cad6e7adf32784916b6f87f555255935", "is_reserved": 0}, {"is_disabled": 0, "fusion_lon": 0.0, "fusion_lat": 0.0, "lat": 38.924149666666665, "type": "electric_scooter", "lon": -77.0561255, "bike_id": "6e7345c9e60c26f81997538e70f14266", "rental_uris": {"android": "https://dc.lft.to/lastmile_qr_scan", "ios": "https://dc.lft.to/lastmile_qr_scan"}, "name": "6e7345c9e60c26f81997538e70f14266", "is_reserved": 0}, {"is_disabled": 0, "fusion_lon": 0.0, "fusion_lat": 0.0, "lat": 38.91286216666666, "type": "electric_scooter", "lon": -76.986833, "bike_id": "6ed6cea8e4a3fa1c248659bfdf7e9c15", "rental_uris": {"android": "https://dc.lft.to/lastmile_qr_scan", "ios": "https://dc.lft.to/lastmile_qr_scan"}, "name": "6ed6cea8e4a3fa1c248659bfdf7e9c15", "is_reserved": 0}, {"is_disabled": 0, "fusion_lon": 0.0, "fusion_lat": 0.0, "lat": 38.90251083333333, "type": "electric_scooter", "lon": -77.03444866666666, "bike_id": "3f969dec38cd5b79a38eb9c1032eee12", "rental_uris": {"android": "https://dc.lft.to/lastmile_qr_scan", "ios": "https://dc.lft.to/lastmile_qr_scan"}, "name": "3f969dec38cd5b79a38eb9c1032eee12", "is_reserved": 0}, {"is_disabled": 0, "fusion_lon": 0.0, "fusion_lat": 0.0, "lat": 38.89716416666667, "type": "electric_scooter", "lon": -77.02448966666667, "bike_id": "71bbb1635e140e04066813b8fc5dfb72", "rental_uris": {"android": "https://dc.lft.to/lastmile_qr_scan", "ios": "https://dc.lft.to/lastmile_qr_scan"}, "name": "71bbb1635e140e04066813b8fc5dfb72", "is_reserved": 0}, {"is_disabled": 0, "fusion_lon": 0.0, "fusion_lat": 0.0, "lat": 38.83600466666667, "type": "electric_bike", "lon": -77.00384616666666, "bike_id": "63df759660b235526eeb879bb5c12e89", "rental_uris": {"android": "https://dc.lft.to/lastmile_qr_scan", "ios": "https://dc.lft.to/lastmile_qr_scan"}, "name": "63df759660b235526eeb879bb5c12e89", "is_reserved": 0}, {"is_disabled": 0, "fusion_lon": 0.0, "fusion_lat": 0.0, "lat": 38.90876766666667, "type": "electric_scooter", "lon": -77.023094, "bike_id": "82bd7dfee61f054c80332b22d02ac0d0", "rental_uris": {"android": "https://dc.lft.to/lastmile_qr_scan", "ios": "https://dc.lft.to/lastmile_qr_scan"}, "name": "82bd7dfee61f054c80332b22d02ac0d0", "is_reserved": 0}, {"is_disabled": 0, "fusion_lon": 0.0, "fusion_lat": 0.0, "lat": 38.9200945, "type": "electric_scooter", "lon": -77.0314035, "bike_id": "20aa5aef3951c654aa834a29b6b35541", "rental_uris": {"android": "https://dc.lft.to/lastmile_qr_scan", "ios": "https://dc.lft.to/lastmile_qr_scan"}, "name": "20aa5aef3951c654aa834a29b6b35541", "is_reserved": 0}, {"is_disabled": 0, "fusion_lon": 0.0, "fusion_lat": 0.0, "lat": 38.907851666666666, "type": "electric_bike", "lon": -77.0297955, "bike_id": "9f4aa8f22d1424400748fe12b6ce7963", "rental_uris": {"android": "https://dc.lft.to/lastmile_qr_scan", "ios": "https://dc.lft.to/lastmile_qr_scan"}, "name": "9f4aa8f22d1424400748fe12b6ce7963", "is_reserved": 0}, {"is_disabled": 0, "fusion_lon": 0.0, "fusion_lat": 0.0, "lat": 38.904737, "type": "electric_scooter", "lon": -77.02984066666667, "bike_id": "69dc24f93d0ba4fa214b5a4d53b4915e", "rental_uris": {"android": "https://dc.lft.to/lastmile_qr_scan", "ios": "https://dc.lft.to/lastmile_qr_scan"}, "name": "69dc24f93d0ba4fa214b5a4d53b4915e", "is_reserved": 0}, {"is_disabled": 0, "fusion_lon": 0.0, "fusion_lat": 0.0, "lat": 38.913998166666666, "type": "electric_scooter", "lon": -77.03172116666667, "bike_id": "2ecfa2ebdf9db93f11f0f0d07e704371", "rental_uris": {"android": "https://dc.lft.to/lastmile_qr_scan", "ios": "https://dc.lft.to/lastmile_qr_scan"}, "name": "2ecfa2ebdf9db93f11f0f0d07e704371", "is_reserved": 0}, {"is_disabled": 0, "fusion_lon": 0.0, "fusion_lat": 0.0, "lat": 38.969135666666666, "type": "electric_bike", "lon": -77.02608766666667, "bike_id": "cc3857d36716e85e514aa800becf7846", "rental_uris": {"android": "https://dc.lft.to/lastmile_qr_scan", "ios": "https://dc.lft.to/lastmile_qr_scan"}, "name": "cc3857d36716e85e514aa800becf7846", "is_reserved": 0}, {"is_disabled": 0, "fusion_lon": 0.0, "fusion_lat": 0.0, "lat": 38.949803, "type": "electric_scooter", "lon": -77.02704416666667, "bike_id": "38573678ca23b3f0a9667247482a33ba", "rental_uris": {"android": "https://dc.lft.to/lastmile_qr_scan", "ios": "https://dc.lft.to/lastmile_qr_scan"}, "name": "38573678ca23b3f0a9667247482a33ba", "is_reserved": 0}, {"is_disabled": 0, "fusion_lon": 0.0, "fusion_lat": 0.0, "lat": 38.89324883333333, "type": "electric_scooter", "lon": -77.02131383333334, "bike_id": "b12da192df0fb0cf3fc16cb27265b919", "rental_uris": {"android": "https://dc.lft.to/lastmile_qr_scan", "ios": "https://dc.lft.to/lastmile_qr_scan"}, "name": "b12da192df0fb0cf3fc16cb27265b919", "is_reserved": 0}, {"is_disabled": 0, "fusion_lon": 0.0, "fusion_lat": 0.0, "lat": 38.895280166666666, "type": "electric_scooter", "lon": -77.03350516666667, "bike_id": "d588a6bc06fc7b1225ff93c90c2c22d5", "rental_uris": {"android": "https://dc.lft.to/lastmile_qr_scan", "ios": "https://dc.lft.to/lastmile_qr_scan"}, "name": "d588a6bc06fc7b1225ff93c90c2c22d5", "is_reserved": 0}, {"is_disabled": 0, "fusion_lon": 0.0, "fusion_lat": 0.0, "lat": 38.96219516666667, "type": "electric_scooter", "lon": -77.02803783333333, "bike_id": "b3b53d43a9c874136e63e21791db3f2d", "rental_uris": {"android": "https://dc.lft.to/lastmile_qr_scan", "ios": "https://dc.lft.to/lastmile_qr_scan"}, "name": "b3b53d43a9c874136e63e21791db3f2d", "is_reserved": 0}, {"is_disabled": 0, "fusion_lon": 0.0, "fusion_lat": 0.0, "lat": 38.85809066666667, "type": "electric_scooter", "lon": -76.9896375, "bike_id": "0b8462e2ec1a988a7b8821cb294f3011", "rental_uris": {"android": "https://dc.lft.to/lastmile_qr_scan", "ios": "https://dc.lft.to/lastmile_qr_scan"}, "name": "0b8462e2ec1a988a7b8821cb294f3011", "is_reserved": 0}, {"is_disabled": 0, "fusion_lon": 0.0, "fusion_lat": 0.0, "lat": 38.90767816666666, "type": "electric_scooter", "lon": -77.0354795, "bike_id": "d633929e41f8f10d8347a8ca1bbe960c", "rental_uris": {"android": "https://dc.lft.to/lastmile_qr_scan", "ios": "https://dc.lft.to/lastmile_qr_scan"}, "name": "d633929e41f8f10d8347a8ca1bbe960c", "is_reserved": 0}, {"is_disabled": 0, "fusion_lon": 0.0, "fusion_lat": 0.0, "lat": 38.86513716666666, "type": "electric_scooter", "lon": -76.97343483333333, "bike_id": "18dc6912755eb294a9df030016a9ae4d", "rental_uris": {"android": "https://dc.lft.to/lastmile_qr_scan", "ios": "https://dc.lft.to/lastmile_qr_scan"}, "name": "18dc6912755eb294a9df030016a9ae4d", "is_reserved": 0}, {"is_disabled": 0, "fusion_lon": 0.0, "fusion_lat": 0.0, "lat": 38.89734683333333, "type": "electric_bike", "lon": -77.02500266666667, "bike_id": "20c18bcadcfa933fc999c65bc547199c", "rental_uris": {"android": "https://dc.lft.to/lastmile_qr_scan", "ios": "https://dc.lft.to/lastmile_qr_scan"}, "name": "20c18bcadcfa933fc999c65bc547199c", "is_reserved": 0}, {"is_disabled": 0, "fusion_lon": 0.0, "fusion_lat": 0.0, "lat": 38.8603675, "type": "electric_scooter", "lon": -76.9837715, "bike_id": "67375892490004e0b62a5b1232c2ced7", "rental_uris": {"android": "https://dc.lft.to/lastmile_qr_scan", "ios": "https://dc.lft.to/lastmile_qr_scan"}, "name": "67375892490004e0b62a5b1232c2ced7", "is_reserved": 0}, {"is_disabled": 0, "fusion_lon": 0.0, "fusion_lat": 0.0, "lat": 38.961247166666666, "type": "electric_scooter", "lon": -77.0282145, "bike_id": "a3ba431b030bc6758e8be3dd905ddf1e", "rental_uris": {"android": "https://dc.lft.to/lastmile_qr_scan", "ios": "https://dc.lft.to/lastmile_qr_scan"}, "name": "a3ba431b030bc6758e8be3dd905ddf1e", "is_reserved": 0}, {"is_disabled": 0, "fusion_lon": 0.0, "fusion_lat": 0.0, "lat": 38.93126083333333, "type": "electric_scooter", "lon": -77.028023, "bike_id": "d876e1e9747d1d3b888ddc2a3f1e0643", "rental_uris": {"android": "https://dc.lft.to/lastmile_qr_scan", "ios": "https://dc.lft.to/lastmile_qr_scan"}, "name": "d876e1e9747d1d3b888ddc2a3f1e0643", "is_reserved": 0}, {"is_disabled": 0, "fusion_lon": 0.0, "fusion_lat": 0.0, "lat": 38.9208875, "type": "electric_scooter", "lon": -77.01789283333333, "bike_id": "2cdf7f395bd2c756097c26fb32d0a58a", "rental_uris": {"android": "https://dc.lft.to/lastmile_qr_scan", "ios": "https://dc.lft.to/lastmile_qr_scan"}, "name": "2cdf7f395bd2c756097c26fb32d0a58a", "is_reserved": 0}, {"is_disabled": 0, "fusion_lon": 0.0, "fusion_lat": 0.0, "lat": 38.90948233333334, "type": "electric_scooter", "lon": -77.0231555, "bike_id": "5946c75ffdb2fdaf3f8f34511565085c", "rental_uris": {"android": "https://dc.lft.to/lastmile_qr_scan", "ios": "https://dc.lft.to/lastmile_qr_scan"}, "name": "5946c75ffdb2fdaf3f8f34511565085c", "is_reserved": 0}, {"is_disabled": 0, "fusion_lon": 0.0, "fusion_lat": 0.0, "lat": 38.928567666666666, "type": "electric_scooter", "lon": -77.0141175, "bike_id": "76be60b7750146aa62937f71b97aa04e", "rental_uris": {"android": "https://dc.lft.to/lastmile_qr_scan", "ios": "https://dc.lft.to/lastmile_qr_scan"}, "name": "76be60b7750146aa62937f71b97aa04e", "is_reserved": 0}, {"is_disabled": 0, "fusion_lon": 0.0, "fusion_lat": 0.0, "lat": 38.87990533333333, "type": "electric_scooter", "lon": -76.9851055, "bike_id": "56a219b2ff31917ad4d78d9b407cc450", "rental_uris": {"android": "https://dc.lft.to/lastmile_qr_scan", "ios": "https://dc.lft.to/lastmile_qr_scan"}, "name": "56a219b2ff31917ad4d78d9b407cc450", "is_reserved": 0}, {"is_disabled": 0, "fusion_lon": 0.0, "fusion_lat": 0.0, "lat": 38.925588, "type": "electric_scooter", "lon": -77.05138883333333, "bike_id": "a098e04c47404c8d8abed9b7b94af4fc", "rental_uris": {"android": "https://dc.lft.to/lastmile_qr_scan", "ios": "https://dc.lft.to/lastmile_qr_scan"}, "name": "a098e04c47404c8d8abed9b7b94af4fc", "is_reserved": 0}, {"is_disabled": 0, "fusion_lon": 0.0, "fusion_lat": 0.0, "lat": 38.923057166666666, "type": "electric_scooter", "lon": -77.047425, "bike_id": "8f9d0e89a11964b2692c59b186ccbc8a", "rental_uris": {"android": "https://dc.lft.to/lastmile_qr_scan", "ios": "https://dc.lft.to/lastmile_qr_scan"}, "name": "8f9d0e89a11964b2692c59b186ccbc8a", "is_reserved": 0}, {"is_disabled": 0, "fusion_lon": 0.0, "fusion_lat": 0.0, "lat": 38.90781166666667, "type": "electric_scooter", "lon": -77.034548, "bike_id": "cf124d70ee8c02a2a1f8ec696db482be", "rental_uris": {"android": "https://dc.lft.to/lastmile_qr_scan", "ios": "https://dc.lft.to/lastmile_qr_scan"}, "name": "cf124d70ee8c02a2a1f8ec696db482be", "is_reserved": 0}, {"is_disabled": 0, "fusion_lon": 0.0, "fusion_lat": 0.0, "lat": 38.844289833333335, "type": "electric_scooter", "lon": -76.99786183333333, "bike_id": "1e26e0465e6195453f1156a4e21d6304", "rental_uris": {"android": "https://dc.lft.to/lastmile_qr_scan", "ios": "https://dc.lft.to/lastmile_qr_scan"}, "name": "1e26e0465e6195453f1156a4e21d6304", "is_reserved": 0}, {"is_disabled": 0, "fusion_lon": 0.0, "fusion_lat": 0.0, "lat": 38.934801666666665, "type": "electric_scooter", "lon": -77.07253616666667, "bike_id": "d21f95e4b4fdb92c087763ca41a3ad6d", "rental_uris": {"android": "https://dc.lft.to/lastmile_qr_scan", "ios": "https://dc.lft.to/lastmile_qr_scan"}, "name": "d21f95e4b4fdb92c087763ca41a3ad6d", "is_reserved": 0}, {"is_disabled": 0, "fusion_lon": 0.0, "fusion_lat": 0.0, "lat": 38.903642166666664, "type": "electric_scooter", "lon": -77.02154183333333, "bike_id": "400b3a83b7fec34475feb63bd4659cda", "rental_uris": {"android": "https://dc.lft.to/lastmile_qr_scan", "ios": "https://dc.lft.to/lastmile_qr_scan"}, "name": "400b3a83b7fec34475feb63bd4659cda", "is_reserved": 0}, {"is_disabled": 0, "fusion_lon": 0.0, "fusion_lat": 0.0, "lat": 38.897287, "type": "electric_scooter", "lon": -77.04768433333334, "bike_id": "0fe038083d214f52445c78d8339655ab", "rental_uris": {"android": "https://dc.lft.to/lastmile_qr_scan", "ios": "https://dc.lft.to/lastmile_qr_scan"}, "name": "0fe038083d214f52445c78d8339655ab", "is_reserved": 0}, {"is_disabled": 0, "fusion_lon": 0.0, "fusion_lat": 0.0, "lat": 38.924439, "type": "electric_scooter", "lon": -77.03352133333334, "bike_id": "865c5422afd33b16ad889fbb4bacdae3", "rental_uris": {"android": "https://dc.lft.to/lastmile_qr_scan", "ios": "https://dc.lft.to/lastmile_qr_scan"}, "name": "865c5422afd33b16ad889fbb4bacdae3", "is_reserved": 0}, {"is_disabled": 0, "fusion_lon": 0.0, "fusion_lat": 0.0, "lat": 38.90603433333333, "type": "electric_scooter", "lon": -77.0513755, "bike_id": "c0cd7b23835f1cc77e1effe99c2162c2", "rental_uris": {"android": "https://dc.lft.to/lastmile_qr_scan", "ios": "https://dc.lft.to/lastmile_qr_scan"}, "name": "c0cd7b23835f1cc77e1effe99c2162c2", "is_reserved": 0}, {"is_disabled": 0, "fusion_lon": 0.0, "fusion_lat": 0.0, "lat": 38.877777, "type": "electric_scooter", "lon": -77.014391, "bike_id": "ce77f6fefe7d3a8b30e34f5d1766cfa7", "rental_uris": {"android": "https://dc.lft.to/lastmile_qr_scan", "ios": "https://dc.lft.to/lastmile_qr_scan"}, "name": "ce77f6fefe7d3a8b30e34f5d1766cfa7", "is_reserved": 0}, {"is_disabled": 0, "fusion_lon": 0.0, "fusion_lat": 0.0, "lat": 38.91339216666667, "type": "electric_scooter", "lon": -77.00897083333334, "bike_id": "b9c08194d8d7e71e5e1b9c0bcfd9dff0", "rental_uris": {"android": "https://dc.lft.to/lastmile_qr_scan", "ios": "https://dc.lft.to/lastmile_qr_scan"}, "name": "b9c08194d8d7e71e5e1b9c0bcfd9dff0", "is_reserved": 0}, {"is_disabled": 0, "fusion_lon": 0.0, "fusion_lat": 0.0, "lat": 38.90256, "type": "electric_scooter", "lon": -77.034627, "bike_id": "6c6cfcba88a1707274c06b84676e7d5b", "rental_uris": {"android": "https://dc.lft.to/lastmile_qr_scan", "ios": "https://dc.lft.to/lastmile_qr_scan"}, "name": "6c6cfcba88a1707274c06b84676e7d5b", "is_reserved": 0}, {"is_disabled": 0, "fusion_lon": 0.0, "fusion_lat": 0.0, "lat": 38.903565, "type": "electric_scooter", "lon": -77.03990266666666, "bike_id": "bc09d3fff11f4678809741acea189d36", "rental_uris": {"android": "https://dc.lft.to/lastmile_qr_scan", "ios": "https://dc.lft.to/lastmile_qr_scan"}, "name": "bc09d3fff11f4678809741acea189d36", "is_reserved": 0}, {"is_disabled": 0, "fusion_lon": 0.0, "fusion_lat": 0.0, "lat": 38.8488605, "type": "electric_scooter", "lon": -77.00520416666667, "bike_id": "5ccf8c15f76210075e736d3374c01427", "rental_uris": {"android": "https://dc.lft.to/lastmile_qr_scan", "ios": "https://dc.lft.to/lastmile_qr_scan"}, "name": "5ccf8c15f76210075e736d3374c01427", "is_reserved": 0}, {"is_disabled": 0, "fusion_lon": 0.0, "fusion_lat": 0.0, "lat": 38.8635305, "type": "electric_scooter", "lon": -76.9906475, "bike_id": "de34c5393cd83d66dc8e47f4e1fbfc0d", "rental_uris": {"android": "https://dc.lft.to/lastmile_qr_scan", "ios": "https://dc.lft.to/lastmile_qr_scan"}, "name": "de34c5393cd83d66dc8e47f4e1fbfc0d", "is_reserved": 0}, {"is_disabled": 0, "fusion_lon": 0.0, "fusion_lat": 0.0, "lat": 38.93104366666667, "type": "electric_scooter", "lon": -77.05604766666667, "bike_id": "91e1b43aec558871fb55212431d540ca", "rental_uris": {"android": "https://dc.lft.to/lastmile_qr_scan", "ios": "https://dc.lft.to/lastmile_qr_scan"}, "name": "91e1b43aec558871fb55212431d540ca", "is_reserved": 0}, {"is_disabled": 0, "fusion_lon": 0.0, "fusion_lat": 0.0, "lat": 38.900219, "type": "electric_scooter", "lon": -76.988104, "bike_id": "d27b6ac075857857d73cd6d3d4858c10", "rental_uris": {"android": "https://dc.lft.to/lastmile_qr_scan", "ios": "https://dc.lft.to/lastmile_qr_scan"}, "name": "d27b6ac075857857d73cd6d3d4858c10", "is_reserved": 0}, {"is_disabled": 0, "fusion_lon": 0.0, "fusion_lat": 0.0, "lat": 38.91854383333333, "type": "electric_bike", "lon": -76.96091416666667, "bike_id": "d941aff67c14d8a107ce3a21316de315", "rental_uris": {"android": "https://dc.lft.to/lastmile_qr_scan", "ios": "https://dc.lft.to/lastmile_qr_scan"}, "name": "d941aff67c14d8a107ce3a21316de315", "is_reserved": 0}, {"is_disabled": 0, "fusion_lon": 0.0, "fusion_lat": 0.0, "lat": 38.91356016666667, "type": "electric_scooter", "lon": -77.01887016666667, "bike_id": "57a56e7d0290fb8cd980835b5e20c527", "rental_uris": {"android": "https://dc.lft.to/lastmile_qr_scan", "ios": "https://dc.lft.to/lastmile_qr_scan"}, "name": "57a56e7d0290fb8cd980835b5e20c527", "is_reserved": 0}, {"is_disabled": 0, "fusion_lon": 0.0, "fusion_lat": 0.0, "lat": 38.90724933333333, "type": "electric_scooter", "lon": -77.02457383333333, "bike_id": "e980d0ae3d7e03b0990e78af93384001", "rental_uris": {"android": "https://dc.lft.to/lastmile_qr_scan", "ios": "https://dc.lft.to/lastmile_qr_scan"}, "name": "e980d0ae3d7e03b0990e78af93384001", "is_reserved": 0}, {"is_disabled": 0, "fusion_lon": 0.0, "fusion_lat": 0.0, "lat": 38.916951833333336, "type": "electric_scooter", "lon": -77.0243395, "bike_id": "659e2daee281c9ca258f83bd40ac63e8", "rental_uris": {"android": "https://dc.lft.to/lastmile_qr_scan", "ios": "https://dc.lft.to/lastmile_qr_scan"}, "name": "659e2daee281c9ca258f83bd40ac63e8", "is_reserved": 0},