{"data": {"bikes": [{"bike_id": "6f94049b37c732c3f07e66b6ac2c9ec3", "type": "electric_bike", "is_disabled": 0, "lat": 38.978834666666664, "rental_uris": {"ios": "https://dc.lft.to/lastmile_qr_scan", "android": "https://dc.lft.to/lastmile_qr_scan"}, "is_reserved": 0, "fusion_lon": 0.0, "fusion_lat": 0.0, "lon": -77.0602695, "name": "6f94049b37c732c3f07e66b6ac2c9ec3"}, {"bike_id": "3ac714c103a8a36ebbcd4478a8f01b55", "type": "electric_scooter", "is_disabled": 0, "lat": 38.9096215, "rental_uris": {"ios": "https://dc.lft.to/lastmile_qr_scan", "android": "https://dc.lft.to/lastmile_qr_scan"}, "is_reserved": 0, "fusion_lon": 0.0, "fusion_lat": 0.0, "lon": -77.02281516666666, "name": "3ac714c103a8a36ebbcd4478a8f01b55"}, {"bike_id": "e9342d52a7397f80f747a355392e34d1", "type": "electric_scooter", "is_disabled": 0, "lat": 38.93461716666667, "rental_uris": {"ios": "https://dc.lft.to/lastmile_qr_scan", "android": "https://dc.lft.to/lastmile_qr_scan"}, "is_reserved": 0, "fusion_lon": 0.0, "fusion_lat": 0.0, "lon": -77.023943, "name": "e9342d52a7397f80f747a355392e34d1"}, {"bike_id": "7fa47fb492bb6f9c1a0a3e6803f936ba", "type": "electric_scooter", "is_disabled": 0, "lat": 38.90653866666667, "rental_uris": {"ios": "https://dc.lft.to/lastmile_qr_scan", "android": "https://dc.lft.to/lastmile_qr_scan"}, "is_reserved": 0, "fusion_lon": 0.0, "fusion_lat": 0.0, "lon": -77.0533785, "name": "7fa47fb492bb6f9c1a0a3e6803f936ba"}, {"bike_id": "d01760bce9809818c8f12fe5030d4b6b", "type": "electric_scooter", "is_disabled": 0, "lat": 38.92772166666666, "rental_uris": {"ios": "https://dc.lft.to/lastmile_qr_scan", "android": "https://dc.lft.to/lastmile_qr_scan"}, "is_reserved": 0, "fusion_lon": 0.0, "fusion_lat": 0.0, "lon": -76.9876, "name": "d01760bce9809818c8f12fe5030d4b6b"}, {"bike_id": "57ac973b85f81625ba214e80fdf63437", "type": "electric_scooter", "is_disabled": 0, "lat": 38.90969583333333, "rental_uris": {"ios": "https://dc.lft.to/lastmile_qr_scan", "android": "https://dc.lft.to/lastmile_qr_scan"}, "is_reserved": 0, "fusion_lon": 0.0, "fusion_lat": 0.0, "lon": -77.04780616666666, "name": "57ac973b85f81625ba214e80fdf63437"}, {"bike_id": "e7cecde9da572752d4380c1925326484", "type": "electric_scooter", "is_disabled": 0, "lat": 38.9090375, "rental_uris": {"ios": "https://dc.lft.to/lastmile_qr_scan", "android": "https://dc.lft.to/lastmile_qr_scan"}, "is_reserved": 0, "fusion_lon": 0.0, "fusion_lat": 0.0, "lon": -77.02290183333334, "name": "e7cecde9da572752d4380c1925326484"}, {"bike_id": "086c0170be53b5129e102db526f606fd", "type": "electric_scooter", "is_disabled": 0, "lat": 38.93153566666667, "rental_uris": {"ios": "https://dc.lft.to/lastmile_qr_scan", "android": "https://dc.lft.to/lastmile_qr_scan"}, "is_reserved": 0, "fusion_lon": 0.0, "fusion_lat": 0.0, "lon": -77.03345566666667, "name": "086c0170be53b5129e102db526f606fd"}, {"bike_id": "f62d719102c92a5222afa2b1593b260f", "type": "electric_scooter", "is_disabled": 0, "lat": 38.8947995, "rental_uris": {"ios": "https://dc.lft.to/lastmile_qr_scan", "android": "https://dc.lft.to/lastmile_qr_scan"}, "is_reserved": 0, "fusion_lon": 0.0, "fusion_lat": 0.0, "lon": -76.94862933333333, "name": "f62d719102c92a5222afa2b1593b260f"}, {"bike_id": "485ff4a9c99051d82997d4e9a02f95a5", "type": "electric_bike", "is_disabled": 0, "lat": 38.9535825, "rental_uris": {"ios": "https://dc.lft.to/lastmile_qr_scan", "android": "https://dc.lft.to/lastmile_qr_scan"}, "is_reserved": 0, "fusion_lon": 0.0, "fusion_lat": 0.0, "lon": -76.98094633333334, "name": "485ff4a9c99051d82997d4e9a02f95a5"}, {"bike_id": "ed00d73a94f6a6e2af690af9d60c6119", "type": "electric_scooter", "is_disabled": 0, "lat": 38.93539166666667, "rental_uris": {"ios": "https://dc.lft.to/lastmile_qr_scan", "android": "https://dc.lft.to/lastmile_qr_scan"}, "is_reserved": 0, "fusion_lon": 0.0, "fusion_lat": 0.0, "lon": -77.058271, "name": "ed00d73a94f6a6e2af690af9d60c6119"}, {"bike_id": "9350da442a9eaea6b65d653cce8c49e9", "type": "electric_bike", "is_disabled": 0, "lat": 39.013713333333335, "rental_uris": {"ios": "https://dc.lft.to/lastmile_qr_scan", "android": "https://dc.lft.to/lastmile_qr_scan"}, "is_reserved": 0, "fusion_lon": 0.0, "fusion_lat": 0.0, "lon": -76.92133483333333, "name": "9350da442a9eaea6b65d653cce8c49e9"}, {"bike_id": "f5c5eb5ca16a2cac72ec2c96a0ba0afa", "type": "electric_scooter", "is_disabled": 0, "lat": 38.9388925, "rental_uris": {"ios": "https://dc.lft.to/lastmile_qr_scan", "android": "https://dc.lft.to/lastmile_qr_scan"}, "is_reserved": 0, "fusion_lon": 0.0, "fusion_lat": 0.0, "lon": -77.02820566666666, "name": "f5c5eb5ca16a2cac72ec2c96a0ba0afa"}, {"bike_id": "a8e623a311fc611885ee01893a73e200", "type": "electric_scooter", "is_disabled": 0, "lat": 38.923337333333336, "rental_uris": {"ios": "https://dc.lft.to/lastmile_qr_scan", "android": "https://dc.lft.to/lastmile_qr_scan"}, "is_reserved": 0, "fusion_lon": 0.0, "fusion_lat": 0.0, "lon": -77.0230055, "name": "a8e623a311fc611885ee01893a73e200"}, {"bike_id": "74bf59bf1a7612a8f5266f5ab87b472f", "type": "electric_scooter", "is_disabled": 0, "lat": 38.92092616666667, "rental_uris": {"ios": "https://dc.lft.to/lastmile_qr_scan", "android": "https://dc.lft.to/lastmile_qr_scan"}, "is_reserved": 0, "fusion_lon": 0.0, "fusion_lat": 0.0, "lon": -77.00438816666667, "name": "74bf59bf1a7612a8f5266f5ab87b472f"}, {"bike_id": "ebeafb56652d6dc684bcc1e973085eee", "type": "electric_scooter", "is_disabled": 0, "lat": 38.915572, "rental_uris": {"ios": "https://dc.lft.to/lastmile_qr_scan", "android": "https://dc.lft.to/lastmile_qr_scan"}, "is_reserved": 0, "fusion_lon": 0.0, "fusion_lat": 0.0, "lon": -77.0317665, "name": "ebeafb56652d6dc684bcc1e973085eee"}, {"bike_id": "465eb2e1abedf17819bb1f7bfa960c59", "type": "electric_scooter", "is_disabled": 0, "lat": 38.880333666666665, "rental_uris": {"ios": "https://dc.lft.to/lastmile_qr_scan", "android": "https://dc.lft.to/lastmile_qr_scan"}, "is_reserved": 0, "fusion_lon": 0.0, "fusion_lat": 0.0, "lon": -77.00568466666667, "name": "465eb2e1abedf17819bb1f7bfa960c59"}, {"bike_id": "4a575467784b7c1589e46f4cc03920a4", "type": "electric_scooter", "is_disabled": 0, "lat": 38.91265216666667, "rental_uris": {"ios": "https://dc.lft.to/lastmile_qr_scan", "android": "https://dc.lft.to/lastmile_qr_scan"}, "is_reserved": 0, "fusion_lon": 0.0, "fusion_lat": 0.0, "lon": -77.03215733333333, "name": "4a575467784b7c1589e46f4cc03920a4"}, {"bike_id": "75d9bc00452e5b81d55f296271f31ccc", "type": "electric_scooter", "is_disabled": 0, "lat": 38.9156355, "rental_uris": {"ios": "https://dc.lft.to/lastmile_qr_scan", "android": "https://dc.lft.to/lastmile_qr_scan"}, "is_reserved": 0, "fusion_lon": 0.0, "fusion_lat": 0.0, "lon": -77.0316385, "name": "75d9bc00452e5b81d55f296271f31ccc"}, {"bike_id": "74c609cd29535a8ad76977260d8477af", "type": "electric_scooter", "is_disabled": 0, "lat": 38.92645133333333, "rental_uris": {"ios": "https://dc.lft.to/lastmile_qr_scan", "android": "https://dc.lft.to/lastmile_qr_scan"}, "is_reserved": 0, "fusion_lon": 0.0, "fusion_lat": 0.0, "lon": -77.0531375, "name": "74c609cd29535a8ad76977260d8477af"}, {"bike_id": "a2a0b23e4108ff10ae7723c690483d9e", "type": "electric_scooter", "is_disabled": 0, "lat": 38.89678083333333, "rental_uris": {"ios": "https://dc.lft.to/lastmile_qr_scan", "android": "https://dc.lft.to/lastmile_qr_scan"}, "is_reserved": 0, "fusion_lon": 0.0, "fusion_lat": 0.0, "lon": -77.00515266666666, "name": "a2a0b23e4108ff10ae7723c690483d9e"}, {"bike_id": "58749810bff80c25eb19fdb86d5b8893", "type": "electric_scooter", "is_disabled": 0, "lat": 38.90247433333333, "rental_uris": {"ios": "https://dc.lft.to/lastmile_qr_scan", "android": "https://dc.lft.to/lastmile_qr_scan"}, "is_reserved": 0, "fusion_lon": 0.0, "fusion_lat": 0.0, "lon": -77.00196316666667, "name": "58749810bff80c25eb19fdb86d5b8893"}, {"bike_id": "4239bb97946a1a4748b0af7000d3df0a", "type": "electric_scooter", "is_disabled": 0, "lat": 38.92670066666667, "rental_uris": {"ios": "https://dc.lft.to/lastmile_qr_scan", "android": "https://dc.lft.to/lastmile_qr_scan"}, "is_reserved": 0, "fusion_lon": 0.0, "fusion_lat": 0.0, "lon": -76.9954185, "name": "4239bb97946a1a4748b0af7000d3df0a"}, {"bike_id": "59c138c9d4d2b7f16a2c652fae0728db", "type": "electric_scooter", "is_disabled": 0, "lat": 38.90130683333334, "rental_uris": {"ios": "https://dc.lft.to/lastmile_qr_scan", "android": "https://dc.lft.to/lastmile_qr_scan"}, "is_reserved": 0, "fusion_lon": 0.0, "fusion_lat": 0.0, "lon": -77.03864266666666, "name": "59c138c9d4d2b7f16a2c652fae0728db"}, {"bike_id": "151fab5b1d46da1ab6dbb178c0ad3b1b", "type": "electric_scooter", "is_disabled": 0, "lat": 38.90073, "rental_uris": {"ios": "https://dc.lft.to/lastmile_qr_scan", "android": "https://dc.lft.to/lastmile_qr_scan"}, "is_reserved": 0, "fusion_lon": 0.0, "fusion_lat": 0.0, "lon": -77.05311033333334, "name": "151fab5b1d46da1ab6dbb178c0ad3b1b"}, {"bike_id": "c1493e9e9b054f7dcc66f8414417d9a1", "type": "electric_scooter", "is_disabled": 0, "lat": 38.922536, "rental_uris": {"ios": "https://dc.lft.to/lastmile_qr_scan", "android": "https://dc.lft.to/lastmile_qr_scan"}, "is_reserved": 0, "fusion_lon": 0.0, "fusion_lat": 0.0, "lon": -77.01946033333333, "name": "c1493e9e9b054f7dcc66f8414417d9a1"}, {"bike_id": "319f34f4964612d75ccc6a6030e737ff", "type": "electric_scooter", "is_disabled": 0, "lat": 38.862478, "rental_uris": {"ios": "https://dc.lft.to/lastmile_qr_scan", "android": "https://dc.lft.to/lastmile_qr_scan"}, "is_reserved": 0, "fusion_lon": 0.0, "fusion_lat": 0.0, "lon": -76.99503666666666, "name": "319f34f4964612d75ccc6a6030e737ff"}, {"bike_id": "d44dc40313b7d112634b970d5c9c792c", "type": "electric_scooter", "is_disabled": 0, "lat": 38.95607116666667, "rental_uris": {"ios": "https://dc.lft.to/lastmile_qr_scan", "android": "https://dc.lft.to/lastmile_qr_scan"}, "is_reserved": 0, "fusion_lon": 0.0, "fusion_lat": 0.0, "lon": -77.00092616666667, "name": "d44dc40313b7d112634b970d5c9c792c"}, {"bike_id": "20ae4fed69242e10b4efb37a69820d58", "type": "electric_scooter", "is_disabled": 0, "lat": 38.923855333333336, "rental_uris": {"ios": "https://dc.lft.to/lastmile_qr_scan", "android": "https://dc.lft.to/lastmile_qr_scan"}, "is_reserved": 0, "fusion_lon": 0.0, "fusion_lat": 0.0, "lon": -77.03082266666667, "name": "20ae4fed69242e10b4efb37a69820d58"}, {"bike_id": "f791c535dae61df0fd9c60ab58f3189d", "type": "electric_scooter", "is_disabled": 0, "lat": 38.8805905, "rental_uris": {"ios": "https://dc.lft.to/lastmile_qr_scan", "android": "https://dc.lft.to/lastmile_qr_scan"}, "is_reserved": 0, "fusion_lon": 0.0, "fusion_lat": 0.0, "lon": -76.93213533333333, "name": "f791c535dae61df0fd9c60ab58f3189d"}, {"bike_id": "efbbb4c32f5d3eb8db0550f4f78ef7b6", "type": "electric_scooter", "is_disabled": 0, "lat": 38.915995833333334, "rental_uris": {"ios": "https://dc.lft.to/lastmile_qr_scan", "android": "https://dc.lft.to/lastmile_qr_scan"}, "is_reserved": 0, "fusion_lon": 0.0, "fusion_lat": 0.0, "lon": -77.0019485, "name": "efbbb4c32f5d3eb8db0550f4f78ef7b6"}, {"bike_id": "3d200d67b17f05066f4d73959c67a182", "type": "electric_scooter", "is_disabled": 0, "lat": 38.93174066666667, "rental_uris": {"ios": "https://dc.lft.to/lastmile_qr_scan", "android": "https://dc.lft.to/lastmile_qr_scan"}, "is_reserved": 0, "fusion_lon": 0.0, "fusion_lat": 0.0, "lon": -77.0284135, "name": "3d200d67b17f05066f4d73959c67a182"}, {"bike_id": "364070ab4d115a453ebcfcae7e8d6dea", "type": "electric_scooter", "is_disabled": 0, "lat": 38.9124165, "rental_uris": {"ios": "https://dc.lft.to/lastmile_qr_scan", "android": "https://dc.lft.to/lastmile_qr_scan"}, "is_reserved": 0, "fusion_lon": 0.0, "fusion_lat": 0.0, "lon": -77.0222065, "name": "364070ab4d115a453ebcfcae7e8d6dea"}, {"bike_id": "5d984e05e979f53c123a6fafc8ae14c9", "type": "electric_scooter", "is_disabled": 0, "lat": 38.9138345, "rental_uris": {"ios": "https://dc.lft.to/lastmile_qr_scan", "android": "https://dc.lft.to/lastmile_qr_scan"}, "is_reserved": 0, "fusion_lon": 0.0, "fusion_lat": 0.0, "lon": -77.04127716666666, "name": "5d984e05e979f53c123a6fafc8ae14c9"}, {"bike_id": "7b56902579e7cfb3ed695a983f52fe15", "type": "electric_scooter", "is_disabled": 0, "lat": 38.907230166666665, "rental_uris": {"ios": "https://dc.lft.to/lastmile_qr_scan", "android": "https://dc.lft.to/lastmile_qr_scan"}, "is_reserved": 0, "fusion_lon": 0.0, "fusion_lat": 0.0, "lon": -77.02434716666667, "name": "7b56902579e7cfb3ed695a983f52fe15"}, {"bike_id": "5468af41df67b14c3fbc32b2e31cbd8f", "type": "electric_scooter", "is_disabled": 0, "lat": 38.933960166666665, "rental_uris": {"ios": "https://dc.lft.to/lastmile_qr_scan", "android": "https://dc.lft.to/lastmile_qr_scan"}, "is_reserved": 0, "fusion_lon": 0.0, "fusion_lat": 0.0, "lon": -77.02223066666667, "name": "5468af41df67b14c3fbc32b2e31cbd8f"}, {"bike_id": "25934ea71dff8737afa7426a13d6f285", "type": "electric_scooter", "is_disabled": 0, "lat": 38.9429265, "rental_uris": {"ios": "https://dc.lft.to/lastmile_qr_scan", "android": "https://dc.lft.to/lastmile_qr_scan"}, "is_reserved": 0, "fusion_lon": 0.0, "fusion_lat": 0.0, "lon": -77.021667, "name": "25934ea71dff8737afa7426a13d6f285"}, {"bike_id": "5079866d74be6bc22573699442a5ae62", "type": "electric_scooter", "is_disabled": 0, "lat": 38.923313, "rental_uris": {"ios": "https://dc.lft.to/lastmile_qr_scan", "android": "https://dc.lft.to/lastmile_qr_scan"}, "is_reserved": 0, "fusion_lon": 0.0, "fusion_lat": 0.0, "lon": -77.03606033333334, "name": "5079866d74be6bc22573699442a5ae62"}, {"bike_id": "47720d92f84e83c7d6ce3e505934bb96", "type": "electric_scooter", "is_disabled": 0, "lat": 38.9126245, "rental_uris": {"ios": "https://dc.lft.to/lastmile_qr_scan", "android": "https://dc.lft.to/lastmile_qr_scan"}, "is_reserved": 0, "fusion_lon": 0.0, "fusion_lat": 0.0, "lon": -77.03269583333334, "name": "47720d92f84e83c7d6ce3e505934bb96"}, {"bike_id": "d9a16657d9d0505d76dd4f85f4b43e16", "type": "electric_scooter", "is_disabled": 0, "lat": 38.89476416666667, "rental_uris": {"ios": "https://dc.lft.to/lastmile_qr_scan", "android": "https://dc.lft.to/lastmile_qr_scan"}, "is_reserved": 0, "fusion_lon": 0.0, "fusion_lat": 0.0, "lon": -77.010958, "name": "d9a16657d9d0505d76dd4f85f4b43e16"}, {"bike_id": "cfa4ab0e347ba53c28118c8c9fef2828", "type": "electric_bike", "is_disabled": 0, "lat": 38.94868316666667, "rental_uris": {"ios": "https://dc.lft.to/lastmile_qr_scan", "android": "https://dc.lft.to/lastmile_qr_scan"}, "is_reserved": 0, "fusion_lon": 0.0, "fusion_lat": 0.0, "lon": -77.02200733333333, "name": "cfa4ab0e347ba53c28118c8c9fef2828"}, {"bike_id": "0b672421c89c0cf214b6565e8f480729", "type": "electric_scooter", "is_disabled": 0, "lat": 38.93751533333333, "rental_uris": {"ios": "https://dc.lft.to/lastmile_qr_scan", "android": "https://dc.lft.to/lastmile_qr_scan"}, "is_reserved": 0, "fusion_lon": 0.0, "fusion_lat": 0.0, "lon": -77.03576333333334, "name": "0b672421c89c0cf214b6565e8f480729"}, {"bike_id": "21708bb3e0f59b293d21f277288de39d", "type": "electric_scooter", "is_disabled": 0, "lat": 38.90540766666667, "rental_uris": {"ios": "https://dc.lft.to/lastmile_qr_scan", "android": "https://dc.lft.to/lastmile_qr_scan"}, "is_reserved": 0, "fusion_lon": 0.0, "fusion_lat": 0.0, "lon": -77.00578016666667, "name": "21708bb3e0f59b293d21f277288de39d"}, {"bike_id": "0c432d0313ca2f72d716df8bbbed9795", "type": "electric_scooter", "is_disabled": 0, "lat": 38.9406995, "rental_uris": {"ios": "https://dc.lft.to/lastmile_qr_scan", "android": "https://dc.lft.to/lastmile_qr_scan"}, "is_reserved": 0, "fusion_lon": 0.0, "fusion_lat": 0.0, "lon": -77.0610145, "name": "0c432d0313ca2f72d716df8bbbed9795"}, {"bike_id": "72051566fdd2678179604690b9c7d91a", "type": "electric_scooter", "is_disabled": 0, "lat": 38.922438166666666, "rental_uris": {"ios": "https://dc.lft.to/lastmile_qr_scan", "android": "https://dc.lft.to/lastmile_qr_scan"}, "is_reserved": 0, "fusion_lon": 0.0, "fusion_lat": 0.0, "lon": -77.03135033333334, "name": "72051566fdd2678179604690b9c7d91a"}, {"bike_id": "860b306ea88fb7ca273c6a9a032d096b", "type": "electric_scooter", "is_disabled": 0, "lat": 38.920640166666665, "rental_uris": {"ios": "https://dc.lft.to/lastmile_qr_scan", "android": "https://dc.lft.to/lastmile_qr_scan"}, "is_reserved": 0, "fusion_lon": 0.0, "fusion_lat": 0.0, "lon": -77.042486, "name": "860b306ea88fb7ca273c6a9a032d096b"}, {"bike_id": "a8672b145c258bca6018e2ed4a5a9208", "type": "electric_scooter", "is_disabled": 0, "lat": 38.908689833333334, "rental_uris": {"ios": "https://dc.lft.to/lastmile_qr_scan", "android": "https://dc.lft.to/lastmile_qr_scan"}, "is_reserved": 0, "fusion_lon": 0.0, "fusion_lat": 0.0, "lon": -77.02221216666666, "name": "a8672b145c258bca6018e2ed4a5a9208"}, {"bike_id": "e408e05bf5b5274aa2fe9b67a3187407", "type": "electric_bike", "is_disabled": 0, "lat": 38.931550666666666, "rental_uris": {"ios": "https://dc.lft.to/lastmile_qr_scan", "android": "https://dc.lft.to/lastmile_qr_scan"}, "is_reserved": 0, "fusion_lon": 0.0, "fusion_lat": 0.0, "lon": -77.07845933333333, "name": "e408e05bf5b5274aa2fe9b67a3187407"}, {"bike_id": "384118c9098882320dde6d1208464965", "type": "electric_scooter", "is_disabled": 0, "lat": 38.92104533333333, "rental_uris": {"ios": "https://dc.lft.to/lastmile_qr_scan", "android": "https://dc.lft.to/lastmile_qr_scan"}, "is_reserved": 0, "fusion_lon": 0.0, "fusion_lat": 0.0, "lon": -77.0719175, "name": "384118c9098882320dde6d1208464965"}, {"bike_id": "b0388c705a54ecc53402f9cdc4c07234", "type": "electric_scooter", "is_disabled": 0, "lat": 38.92892333333333, "rental_uris": {"ios": "https://dc.lft.to/lastmile_qr_scan", "android": "https://dc.lft.to/lastmile_qr_scan"}, "is_reserved": 0, "fusion_lon": 0.0, "fusion_lat": 0.0, "lon": -77.03309583333333, "name": "b0388c705a54ecc53402f9cdc4c07234"}, {"bike_id": "fb81d29fffa1457fa950d8da96936fc8", "type": "electric_scooter", "is_disabled": 0, "lat": 38.8865985, "rental_uris": {"ios": "https://dc.lft.to/lastmile_qr_scan", "android": "https://dc.lft.to/lastmile_qr_scan"}, "is_reserved": 0, "fusion_lon": 0.0, "fusion_lat": 0.0, "lon": -77.028338, "name": "fb81d29fffa1457fa950d8da96936fc8"}, {"bike_id": "afd022d258c006c9b08a8347b264293f", "type": "electric_scooter", "is_disabled": 0, "lat": 38.90795633333333, "rental_uris": {"ios": "https://dc.lft.to/lastmile_qr_scan", "android": "https://dc.lft.to/lastmile_qr_scan"}, "is_reserved": 0, "fusion_lon": 0.0, "fusion_lat": 0.0, "lon": -77.04810016666667, "name": "afd022d258c006c9b08a8347b264293f"}, {"bike_id": "c934e206c9537e8a9557a2cc62344ccb", "type": "electric_scooter", "is_disabled": 0, "lat": 38.86630266666667, "rental_uris": {"ios": "https://dc.lft.to/lastmile_qr_scan", "android": "https://dc.lft.to/lastmile_qr_scan"}, "is_reserved": 0, "fusion_lon": 0.0, "fusion_lat": 0.0, "lon": -76.987158, "name": "c934e206c9537e8a9557a2cc62344ccb"}, {"bike_id": "211d467f13145e3519c6ed3a96b30f17", "type": "electric_scooter", "is_disabled": 0, "lat": 38.88777566666667, "rental_uris": {"ios": "https://dc.lft.to/lastmile_qr_scan", "android": "https://dc.lft.to/lastmile_qr_scan"}, "is_reserved": 0, "fusion_lon": 0.0, "fusion_lat": 0.0, "lon": -76.95528083333333, "name": "211d467f13145e3519c6ed3a96b30f17"}, {"bike_id": "30f1a41243ffd1297ead81a25ae94fe8", "type": "electric_scooter", "is_disabled": 0, "lat": 38.89224133333333, "rental_uris": {"ios": "https://dc.lft.to/lastmile_qr_scan", "android": "https://dc.lft.to/lastmile_qr_scan"}, "is_reserved": 0, "fusion_lon": 0.0, "fusion_lat": 0.0, "lon": -77.02778283333333, "name": "30f1a41243ffd1297ead81a25ae94fe8"}, {"bike_id": "d144fef96e848e2f94ba0da49adbaacb", "type": "electric_scooter", "is_disabled": 0, "lat": 38.896308, "rental_uris": {"ios": "https://dc.lft.to/lastmile_qr_scan", "android": "https://dc.lft.to/lastmile_qr_scan"}, "is_reserved": 0, "fusion_lon": 0.0, "fusion_lat": 0.0, "lon": -77.070843, "name": "d144fef96e848e2f94ba0da49adbaacb"}, {"bike_id": "2cde818766316b01030597a2f3c7a7d0", "type": "electric_scooter", "is_disabled": 0, "lat": 38.902584166666664, "rental_uris": {"ios": "https://dc.lft.to/lastmile_qr_scan", "android": "https://dc.lft.to/lastmile_qr_scan"}, "is_reserved": 0, "fusion_lon": 0.0, "fusion_lat": 0.0, "lon": -77.0336975, "name": "2cde818766316b01030597a2f3c7a7d0"}, {"bike_id": "57b0870581a2c62ed75e3ef0a442115e", "type": "electric_scooter", "is_disabled": 0, "lat": 38.90976716666667, "rental_uris": {"ios": "https://dc.lft.to/lastmile_qr_scan", "android": "https://dc.lft.to/lastmile_qr_scan"}, "is_reserved": 0, "fusion_lon": 0.0, "fusion_lat": 0.0, "lon": -77.03820883333333, "name": "57b0870581a2c62ed75e3ef0a442115e"}, {"bike_id": "0eacd7cec57ce7374e28811eca0d2601", "type": "electric_scooter", "is_disabled": 0, "lat": 38.90497833333333, "rental_uris": {"ios": "https://dc.lft.to/lastmile_qr_scan", "android": "https://dc.lft.to/lastmile_qr_scan"}, "is_reserved": 0, "fusion_lon": 0.0, "fusion_lat": 0.0, "lon": -77.029514, "name": "0eacd7cec57ce7374e28811eca0d2601"}, {"bike_id": "1b94502b4643365961936749a2ba297a", "type": "electric_scooter", "is_disabled": 0, "lat": 38.916920833333336, "rental_uris": {"ios": "https://dc.lft.to/lastmile_qr_scan", "android": "https://dc.lft.to/lastmile_qr_scan"}, "is_reserved": 0, "fusion_lon": 0.0, "fusion_lat": 0.0, "lon": -77.0287345, "name": "1b94502b4643365961936749a2ba297a"}, {"bike_id": "83c63d7d2923897ab09e933a56a712fd", "type": "electric_scooter", "is_disabled": 0, "lat": 38.8763095, "rental_uris": {"ios": "https://dc.lft.to/lastmile_qr_scan", "android": "https://dc.lft.to/lastmile_qr_scan"}, "is_reserved": 0, "fusion_lon": 0.0, "fusion_lat": 0.0, "lon": -76.9652475, "name": "83c63d7d2923897ab09e933a56a712fd"}, {"bike_id": "f98b35d43f3ae75b06236948f99fc47b", "type": "electric_scooter", "is_disabled": 0, "lat": 38.9007045, "rental_uris": {"ios": "https://dc.lft.to/lastmile_qr_scan", "android": "https://dc.lft.to/lastmile_qr_scan"}, "is_reserved": 0, "fusion_lon": 0.0, "fusion_lat": 0.0, "lon": -76.92736366666666, "name": "f98b35d43f3ae75b06236948f99fc47b"}, {"bike_id": "22c984608a9c9679ee97522de785968e", "type": "electric_scooter", "is_disabled": 0, "lat": 38.90500516666667, "rental_uris": {"ios": "https://dc.lft.to/lastmile_qr_scan", "android": "https://dc.lft.to/lastmile_qr_scan"}, "is_reserved": 0, "fusion_lon": 0.0, "fusion_lat": 0.0, "lon": -77.06884166666667, "name": "22c984608a9c9679ee97522de785968e"}, {"bike_id": "1dbd5d141c42c5fa809f083a5be98bee", "type": "electric_scooter", "is_disabled": 0, "lat": 38.90645166666667, "rental_uris": {"ios": "https://dc.lft.to/lastmile_qr_scan", "android": "https://dc.lft.to/lastmile_qr_scan"}, "is_reserved": 0, "fusion_lon": 0.0, "fusion_lat": 0.0, "lon": -77.031363, "name": "1dbd5d141c42c5fa809f083a5be98bee"}, {"bike_id": "d8a03df6c7fcbcbb4f12ff2cd59bf4f9", "type": "electric_scooter", "is_disabled": 0, "lat": 38.949947, "rental_uris": {"ios": "https://dc.lft.to/lastmile_qr_scan", "android": "https://dc.lft.to/lastmile_qr_scan"}, "is_reserved": 0, "fusion_lon": 0.0, "fusion_lat": 0.0, "lon": -77.0182995, "name": "d8a03df6c7fcbcbb4f12ff2cd59bf4f9"}, {"bike_id": "a82c571007bdd5614e30d0566f5cb1ca", "type": "electric_scooter", "is_disabled": 0, "lat": 38.90267033333333, "rental_uris": {"ios": "https://dc.lft.to/lastmile_qr_scan", "android": "https://dc.lft.to/lastmile_qr_scan"}, "is_reserved": 0, "fusion_lon": 0.0, "fusion_lat": 0.0, "lon": -77.02995, "name": "a82c571007bdd5614e30d0566f5cb1ca"}, {"bike_id": "fcbb218ae8f56cf65d9f1334219f7566", "type": "electric_scooter", "is_disabled": 0, "lat": 38.90853466666667, "rental_uris": {"ios": "https://dc.lft.to/lastmile_qr_scan", "android": "https://dc.lft.to/lastmile_qr_scan"}, "is_reserved": 0, "fusion_lon": 0.0, "fusion_lat": 0.0, "lon": -77.05491616666667, "name": "fcbb218ae8f56cf65d9f1334219f7566"}, {"bike_id": "a415c667223b3bd3bb673efd1d0851ff", "type": "electric_scooter", "is_disabled": 0, "lat": 38.922608833333335, "rental_uris": {"ios": "https://dc.lft.to/lastmile_qr_scan", "android": "https://dc.lft.to/lastmile_qr_scan"}, "is_reserved": 0, "fusion_lon": 0.0, "fusion_lat": 0.0, "lon": -77.04213, "name": "a415c667223b3bd3bb673efd1d0851ff"}, {"bike_id": "085f121e64882cb0d07f8ef128a049ee", "type": "electric_scooter", "is_disabled": 0, "lat": 38.934594833333335, "rental_uris": {"ios": "https://dc.lft.to/lastmile_qr_scan", "android": "https://dc.lft.to/lastmile_qr_scan"}, "is_reserved": 0, "fusion_lon": 0.0, "fusion_lat": 0.0, "lon": -77.02789383333334, "name": "085f121e64882cb0d07f8ef128a049ee"}, {"bike_id": "93a13963071aac0a19f0dbba6ce84fed", "type": "electric_scooter", "is_disabled": 0, "lat": 38.94762883333333, "rental_uris": {"ios": "https://dc.lft.to/lastmile_qr_scan", "android": "https://dc.lft.to/lastmile_qr_scan"}, "is_reserved": 0, "fusion_lon": 0.0, "fusion_lat": 0.0, "lon": -77.065645, "name": "93a13963071aac0a19f0dbba6ce84fed"}, {"bike_id": "fb86547526a7ed8c330a51fa497cb3b3", "type": "electric_scooter", "is_disabled": 0, "lat": 38.914248666666666, "rental_uris": {"ios": "https://dc.lft.to/lastmile_qr_scan", "android": "https://dc.lft.to/lastmile_qr_scan"}, "is_reserved": 0, "fusion_lon": 0.0, "fusion_lat": 0.0, "lon": -77.03203533333334, "name": "fb86547526a7ed8c330a51fa497cb3b3"}, {"bike_id": "f8698c56685d6def59a6cc8d1e3ebdea", "type": "electric_bike", "is_disabled": 0, "lat": 38.961357666666665, "rental_uris": {"ios": "https://dc.lft.to/lastmile_qr_scan", "android": "https://dc.lft.to/lastmile_qr_scan"}, "is_reserved": 0, "fusion_lon": 0.0, "fusion_lat": 0.0, "lon": -77.03330866666667, "name": "f8698c56685d6def59a6cc8d1e3ebdea"}, {"bike_id": "989d8ba889c1058491c9a16f5e099bf2", "type": "electric_bike", "is_disabled": 0, "lat": 38.882467, "rental_uris": {"ios": "https://dc.lft.to/lastmile_qr_scan", "android": "https://dc.lft.to/lastmile_qr_scan"}, "is_reserved": 0, "fusion_lon": 0.0, "fusion_lat": 0.0, "lon": -76.96261066666666, "name": "989d8ba889c1058491c9a16f5e099bf2"}, {"bike_id": "c803728e9d3b8b4cec15ca619d551c35", "type": "electric_scooter", "is_disabled": 0, "lat": 38.9184535, "rental_uris": {"ios": "https://dc.lft.to/lastmile_qr_scan", "android": "https://dc.lft.to/lastmile_qr_scan"}, "is_reserved": 0, "fusion_lon": 0.0, "fusion_lat": 0.0, "lon": -77.02600366666667, "name": "c803728e9d3b8b4cec15ca619d551c35"}, {"bike_id": "45766da0f79f6322b60dba438c8ae34f", "type": "electric_scooter", "is_disabled": 0, "lat": 38.9295245, "rental_uris": {"ios": "https://dc.lft.to/lastmile_qr_scan", "android": "https://dc.lft.to/lastmile_qr_scan"}, "is_reserved": 0, "fusion_lon": 0.0, "fusion_lat": 0.0, "lon": -77.04401933333334, "name": "45766da0f79f6322b60dba438c8ae34f"}, {"bike_id": "81b0148a744e50dc19f4e0b93b48c3e2", "type": "electric_scooter", "is_disabled": 0, "lat": 38.900368, "rental_uris": {"ios": "https://dc.lft.to/lastmile_qr_scan", "android": "https://dc.lft.to/lastmile_qr_scan"}, "is_reserved": 0, "fusion_lon": 0.0, "fusion_lat": 0.0, "lon": -77.0037505, "name": "81b0148a744e50dc19f4e0b93b48c3e2"}, {"bike_id": "bd7901193ff4be5fc4b55f00f9c75876", "type": "electric_scooter", "is_disabled": 0, "lat": 38.88318833333334, "rental_uris": {"ios": "https://dc.lft.to/lastmile_qr_scan", "android": "https://dc.lft.to/lastmile_qr_scan"}, "is_reserved": 0, "fusion_lon": 0.0, "fusion_lat": 0.0, "lon": -77.01740633333333, "name": "bd7901193ff4be5fc4b55f00f9c75876"}, {"bike_id": "56a6095a80b1dc7b61bfd3bd1bde1deb", "type": "electric_scooter", "is_disabled": 0, "lat": 38.9002855, "rental_uris": {"ios": "https://dc.lft.to/lastmile_qr_scan", "android": "https://dc.lft.to/lastmile_qr_scan"}, "is_reserved": 0, "fusion_lon": 0.0, "fusion_lat": 0.0, "lon": -76.9911475, "name": "56a6095a80b1dc7b61bfd3bd1bde1deb"}, {"bike_id": "94527c6a1f340c0e869ba8ec598cc1e7", "type": "electric_bike", "is_disabled": 0, "lat": 38.93230766666667, "rental_uris": {"ios": "https://dc.lft.to/lastmile_qr_scan", "android": "https://dc.lft.to/lastmile_qr_scan"}, "is_reserved": 0, "fusion_lon": 0.0, "fusion_lat": 0.0, "lon": -77.181215, "name": "94527c6a1f340c0e869ba8ec598cc1e7"}, {"bike_id": "e5b48fa5b8f3ce5d634b4e9b62be34f9", "type": "electric_scooter", "is_disabled": 0, "lat": 38.904646166666666, "rental_uris": {"ios": "https://dc.lft.to/lastmile_qr_scan", "android": "https://dc.lft.to/lastmile_qr_scan"}, "is_reserved": 0, "fusion_lon": 0.0, "fusion_lat": 0.0, "lon": -76.97605466666667, "name": "e5b48fa5b8f3ce5d634b4e9b62be34f9"}, {"bike_id": "df4a5f2a9a0c007df22e03c6f62091f5", "type": "electric_scooter", "is_disabled": 0, "lat": 38.931478, "rental_uris": {"ios": "https://dc.lft.to/lastmile_qr_scan", "android": "https://dc.lft.to/lastmile_qr_scan"}, "is_reserved": 0, "fusion_lon": 0.0, "fusion_lat": 0.0, "lon": -77.03352283333334, "name": "df4a5f2a9a0c007df22e03c6f62091f5"}, {"bike_id": "f51a4a691c080e1aa2bb9cfd9ee47fab", "type": "electric_scooter", "is_disabled": 0, "lat": 38.908967, "rental_uris": {"ios": "https://dc.lft.to/lastmile_qr_scan", "android": "https://dc.lft.to/lastmile_qr_scan"}, "is_reserved": 0, "fusion_lon": 0.0, "fusion_lat": 0.0, "lon": -77.0440665, "name": "f51a4a691c080e1aa2bb9cfd9ee47fab"}, {"bike_id": "b2cd91813b7d02c31d160135e74df503", "type": "electric_scooter", "is_disabled": 0, "lat": 38.87630633333333, "rental_uris": {"ios": "https://dc.lft.to/lastmile_qr_scan", "android": "https://dc.lft.to/lastmile_qr_scan"}, "is_reserved": 0, "fusion_lon": 0.0, "fusion_lat": 0.0, "lon": -76.96526033333333, "name": "b2cd91813b7d02c31d160135e74df503"}, {"bike_id": "5428e49cd33b9b843bcd174f21024c25", "type": "electric_scooter", "is_disabled": 0, "lat": 38.91686333333333, "rental_uris": {"ios": "https://dc.lft.to/lastmile_qr_scan", "android": "https://dc.lft.to/lastmile_qr_scan"}, "is_reserved": 0, "fusion_lon": 0.0, "fusion_lat": 0.0, "lon": -77.03067466666667, "name": "5428e49cd33b9b843bcd174f21024c25"}, {"bike_id": "821fd70ae392794fec16eebf83288906", "type": "electric_scooter", "is_disabled": 0, "lat": 38.9205245, "rental_uris": {"ios": "https://dc.lft.to/lastmile_qr_scan", "android": "https://dc.lft.to/lastmile_qr_scan"}, "is_reserved": 0, "fusion_lon": 0.0, "fusion_lat": 0.0, "lon": -76.99876133333333, "name": "821fd70ae392794fec16eebf83288906"}, {"bike_id": "0180e2c4418735312378c1223d82e294", "type": "electric_scooter", "is_disabled": 0, "lat": 38.95614316666666, "rental_uris": {"ios": "https://dc.lft.to/lastmile_qr_scan", "android": "https://dc.lft.to/lastmile_qr_scan"}, "is_reserved": 0, "fusion_lon": 0.0, "fusion_lat": 0.0, "lon": -77.0102835, "name": "0180e2c4418735312378c1223d82e294"}, {"bike_id": "b65865ed7c0c2ba3edec50e552e51cea", "type": "electric_scooter", "is_disabled": 0, "lat": 38.93946616666667, "rental_uris": {"ios": "https://dc.lft.to/lastmile_qr_scan", "android": "https://dc.lft.to/lastmile_qr_scan"}, "is_reserved": 0, "fusion_lon": 0.0, "fusion_lat": 0.0, "lon": -77.019989, "name": "b65865ed7c0c2ba3edec50e552e51cea"}, {"bike_id": "1f0150cb0ad2ef6f92c6107749df841b", "type": "electric_scooter", "is_disabled": 0, "lat": 38.916844166666664, "rental_uris": {"ios": "https://dc.lft.to/lastmile_qr_scan", "android": "https://dc.lft.to/lastmile_qr_scan"}, "is_reserved": 0, "fusion_lon": 0.0, "fusion_lat": 0.0, "lon": -77.015785, "name": "1f0150cb0ad2ef6f92c6107749df841b"}, {"bike_id": "cde465984e5a3fd04d683dc8818f99dd", "type": "electric_scooter", "is_disabled": 0, "lat": 38.90575316666666, "rental_uris": {"ios": "https://dc.lft.to/lastmile_qr_scan", "android": "https://dc.lft.to/lastmile_qr_scan"}, "is_reserved": 0, "fusion_lon": 0.0, "fusion_lat": 0.0, "lon": -77.04644616666667, "name": "cde465984e5a3fd04d683dc8818f99dd"}, {"bike_id": "53c423d45e1b886485af9f6bc15ce458", "type": "electric_scooter", "is_disabled": 0, "lat": 38.9176205, "rental_uris": {"ios": "https://dc.lft.to/lastmile_qr_scan", "android": "https://dc.lft.to/lastmile_qr_scan"}, "is_reserved": 0, "fusion_lon": 0.0, "fusion_lat": 0.0, "lon": -77.01472466666667, "name": "53c423d45e1b886485af9f6bc15ce458"}, {"bike_id": "dcd9a98a67e7c15b5eceb12a36a561bd", "type": "electric_scooter", "is_disabled": 0, "lat": 38.909183, "rental_uris": {"ios": "https://dc.lft.to/lastmile_qr_scan", "android": "https://dc.lft.to/lastmile_qr_scan"}, "is_reserved": 0, "fusion_lon": 0.0, "fusion_lat": 0.0, "lon": -77.0307895, "name": "dcd9a98a67e7c15b5eceb12a36a561bd"}, {"bike_id": "f8f7f6d182bf71e82aa9913ae412c7cb", "type": "electric_scooter", "is_disabled": 0, "lat": 38.8708745, "rental_uris": {"ios": "https://dc.lft.to/lastmile_qr_scan", "android": "https://dc.lft.to/lastmile_qr_scan"}, "is_reserved": 0, "fusion_lon": 0.0, "fusion_lat": 0.0, "lon": -77.01198383333333, "name": "f8f7f6d182bf71e82aa9913ae412c7cb"}, {"bike_id": "a5015687c1ac29d47566f295c83e4f94", "type": "electric_scooter", "is_disabled": 0, "lat": 38.897540166666666, "rental_uris": {"ios": "https://dc.lft.to/lastmile_qr_scan", "android": "https://dc.lft.to/lastmile_qr_scan"}, "is_reserved": 0, "fusion_lon": 0.0, "fusion_lat": 0.0, "lon": -77.02669833333333, "name": "a5015687c1ac29d47566f295c83e4f94"}, {"bike_id": "10366d37046e53e68567e8e5afd1cbc0", "type": "electric_scooter", "is_disabled": 0, "lat": 38.8668525, "rental_uris": {"ios": "https://dc.lft.to/lastmile_qr_scan", "android": "https://dc.lft.to/lastmile_qr_scan"}, "is_reserved": 0, "fusion_lon": 0.0, "fusion_lat": 0.0, "lon": -76.985765, "name": "10366d37046e53e68567e8e5afd1cbc0"}, {"bike_id": "12d3c7f405c40874193c93806da445dd", "type": "electric_scooter", "is_disabled": 0, "lat": 38.92194816666667, "rental_uris": {"ios": "https://dc.lft.to/lastmile_qr_scan", "android": "https://dc.lft.to/lastmile_qr_scan"}, "is_reserved": 0, "fusion_lon": 0.0, "fusion_lat": 0.0, "lon": -77.03781383333333, "name": "12d3c7f405c40874193c93806da445dd"}, {"bike_id": "5e16823506a670ced715a7c05578829b", "type": "electric_scooter", "is_disabled": 0, "lat": 38.902029, "rental_uris": {"ios": "https://dc.lft.to/lastmile_qr_scan", "android": "https://dc.lft.to/lastmile_qr_scan"}, "is_reserved": 0, "fusion_lon": 0.0, "fusion_lat": 0.0, "lon": -77.02401816666666, "name": "5e16823506a670ced715a7c05578829b"}, {"bike_id": "73adbb4340f51557ef13a1b74b7343fc", "type": "electric_scooter", "is_disabled": 0, "lat": 38.86687416666667, "rental_uris": {"ios": "https://dc.lft.to/lastmile_qr_scan", "android": "https://dc.lft.to/lastmile_qr_scan"}, "is_reserved": 0, "fusion_lon": 0.0, "fusion_lat": 0.0, "lon": -76.985883, "name": "73adbb4340f51557ef13a1b74b7343fc"}, {"bike_id": "55acf22e7e2536e32814aafb06102651", "type": "electric_scooter", "is_disabled": 0, "lat": 38.9118125, "rental_uris": {"ios": "https://dc.lft.to/lastmile_qr_scan", "android": "https://dc.lft.to/lastmile_qr_scan"}, "is_reserved": 0, "fusion_lon": 0.0, "fusion_lat": 0.0, "lon": -77.045468, "name": "55acf22e7e2536e32814aafb06102651"}, {"bike_id": "e83c2aca87dd1c4bf98dc1fdc18e8acb", "type": "electric_scooter", "is_disabled": 0, "lat": 38.942291833333336, "rental_uris": {"ios": "https://dc.lft.to/lastmile_qr_scan", "android": "https://dc.lft.to/lastmile_qr_scan"}, "is_reserved": 0, "fusion_lon": 0.0, "fusion_lat": 0.0, "lon": -77.014403, "name": "e83c2aca87dd1c4bf98dc1fdc18e8acb"}, {"bike_id": "4fd83adf36178dfeca9da77a6b2d63e9", "type": "electric_scooter", "is_disabled": 0, "lat": 38.905046666666664, "rental_uris": {"ios": "https://dc.lft.to/lastmile_qr_scan", "android": "https://dc.lft.to/lastmile_qr_scan"}, "is_reserved": 0, "fusion_lon": 0.0, "fusion_lat": 0.0, "lon": -77.01979666666666, "name": "4fd83adf36178dfeca9da77a6b2d63e9"}, {"bike_id": "8155e0f59fd0086be4dd896b6f96d88c", "type": "electric_scooter", "is_disabled": 0, "lat": 38.9337365, "rental_uris": {"ios": "https://dc.lft.to/lastmile_qr_scan", "android": "https://dc.lft.to/lastmile_qr_scan"}, "is_reserved": 0, "fusion_lon": 0.0, "fusion_lat": 0.0, "lon": -77.0573015, "name": "8155e0f59fd0086be4dd896b6f96d88c"}, {"bike_id": "bedbbca7439f548cf8aa0989675c5986", "type": "electric_scooter", "is_disabled": 0, "lat": 38.91500383333333, "rental_uris": {"ios": "https://dc.lft.to/lastmile_qr_scan", "android": "https://dc.lft.to/lastmile_qr_scan"}, "is_reserved": 0, "fusion_lon": 0.0, "fusion_lat": 0.0, "lon": -76.9837825, "name": "bedbbca7439f548cf8aa0989675c5986"}, {"bike_id": "e86d30aab15083006862f102bb1b7433", "type": "electric_scooter", "is_disabled": 0, "lat": 38.8991395, "rental_uris": {"ios": "https://dc.lft.to/lastmile_qr_scan", "android": "https://dc.lft.to/lastmile_qr_scan"}, "is_reserved": 0, "fusion_lon": 0.0, "fusion_lat": 0.0, "lon": -76.981752, "name": "e86d30aab15083006862f102bb1b7433"}, {"bike_id": "3f4c90209204b0185349346206b918a2", "type": "electric_scooter", "is_disabled": 0, "lat": 38.91816983333333, "rental_uris": {"ios": "https://dc.lft.to/lastmile_qr_scan", "android": "https://dc.lft.to/lastmile_qr_scan"}, "is_reserved": 0, "fusion_lon": 0.0, "fusion_lat": 0.0, "lon": -77.02475933333334, "name": "3f4c90209204b0185349346206b918a2"}, {"bike_id": "64842f6ab60f5874a739e27d2ea9ce16", "type": "electric_scooter", "is_disabled": 0, "lat": 38.9062105, "rental_uris": {"ios": "https://dc.lft.to/lastmile_qr_scan", "android": "https://dc.lft.to/lastmile_qr_scan"}, "is_reserved": 0, "fusion_lon": 0.0, "fusion_lat": 0.0, "lon": -77.04124583333333, "name": "64842f6ab60f5874a739e27d2ea9ce16"}, {"bike_id": "f9037f22e479811bd8add4a9fe61818e", "type": "electric_scooter", "is_disabled": 0, "lat": 38.93291083333333, "rental_uris": {"ios": "https://dc.lft.to/lastmile_qr_scan", "android": "https://dc.lft.to/lastmile_qr_scan"}, "is_reserved": 0, "fusion_lon": 0.0, "fusion_lat": 0.0, "lon": -77.0403285, "name": "f9037f22e479811bd8add4a9fe61818e"}, {"bike_id": "fc0df9b0dd559551f1b7c30f6b4f20f6", "type": "electric_scooter", "is_disabled": 0, "lat": 38.922555, "rental_uris": {"ios": "https://dc.lft.to/lastmile_qr_scan", "android": "https://dc.lft.to/lastmile_qr_scan"}, "is_reserved": 0, "fusion_lon": 0.0, "fusion_lat": 0.0, "lon": -77.019471, "name": "fc0df9b0dd559551f1b7c30f6b4f20f6"}, {"bike_id": "596215a6daae46d7bbdebf06162dd4f7", "type": "electric_scooter", "is_disabled": 0, "lat": 38.862537833333334, "rental_uris": {"ios": "https://dc.lft.to/lastmile_qr_scan", "android": "https://dc.lft.to/lastmile_qr_scan"}, "is_reserved": 0, "fusion_lon": 0.0, "fusion_lat": 0.0, "lon": -76.99259483333333, "name": "596215a6daae46d7bbdebf06162dd4f7"}, {"bike_id": "5fcea51cb78faefde153f7e92f9e9bac", "type": "electric_scooter", "is_disabled": 0, "lat": 38.90687466666667, "rental_uris": {"ios": "https://dc.lft.to/lastmile_qr_scan", "android": "https://dc.lft.to/lastmile_qr_scan"}, "is_reserved": 0, "fusion_lon": 0.0, "fusion_lat": 0.0, "lon": -77.05329833333333, "name": "5fcea51cb78faefde153f7e92f9e9bac"}, {"bike_id": "4962519d072d22f41b8fb040394b3fa5", "type": "electric_scooter", "is_disabled": 0, "lat": 38.86380583333333, "rental_uris": {"ios": "https://dc.lft.to/lastmile_qr_scan", "android": "https://dc.lft.to/lastmile_qr_scan"}, "is_reserved": 0, "fusion_lon": 0.0, "fusion_lat": 0.0, "lon": -76.9905805, "name": "4962519d072d22f41b8fb040394b3fa5"}, {"bike_id": "860d4905f82c0d0b91db817e3d8f74d8", "type": "electric_bike", "is_disabled": 0, "lat": 38.908329, "rental_uris": {"ios": "https://dc.lft.to/lastmile_qr_scan", "android": "https://dc.lft.to/lastmile_qr_scan"}, "is_reserved": 0, "fusion_lon": 0.0, "fusion_lat": 0.0, "lon": -76.9415655, "name": "860d4905f82c0d0b91db817e3d8f74d8"}, {"bike_id": "5d540c3e24ba606835e150c3d8b38864", "type": "electric_scooter", "is_disabled": 0, "lat": 38.90729133333333, "rental_uris": {"ios": "https://dc.lft.to/lastmile_qr_scan", "android": "https://dc.lft.to/lastmile_qr_scan"}, "is_reserved": 0, "fusion_lon": 0.0, "fusion_lat": 0.0, "lon": -77.00570783333333, "name": "5d540c3e24ba606835e150c3d8b38864"}, {"bike_id": "7497c766d34a392c9343f5f02ab978b5", "type": "electric_scooter", "is_disabled": 0, "lat": 38.91260033333333, "rental_uris": {"ios": "https://dc.lft.to/lastmile_qr_scan", "android": "https://dc.lft.to/lastmile_qr_scan"}, "is_reserved": 0, "fusion_lon": 0.0, "fusion_lat": 0.0, "lon": -77.03863983333333, "name": "7497c766d34a392c9343f5f02ab978b5"}, {"bike_id": "a74d874d67d00c55b5a567233d4cf043", "type": "electric_scooter", "is_disabled": 0, "lat": 38.892449, "rental_uris": {"ios": "https://dc.lft.to/lastmile_qr_scan", "android": "https://dc.lft.to/lastmile_qr_scan"}, "is_reserved": 0, "fusion_lon": 0.0, "fusion_lat": 0.0, "lon": -77.03956266666667, "name": "a74d874d67d00c55b5a567233d4cf043"}, {"bike_id": "33bed28184e03f340098a136d903cd19", "type": "electric_scooter", "is_disabled": 0, "lat": 38.912116166666664, "rental_uris": {"ios": "https://dc.lft.to/lastmile_qr_scan", "android": "https://dc.lft.to/lastmile_qr_scan"}, "is_reserved": 0, "fusion_lon": 0.0, "fusion_lat": 0.0, "lon": -77.04461533333334, "name": "33bed28184e03f340098a136d903cd19"}, {"bike_id": "266e11071ecb0f687dd809d28b72a361", "type": "electric_scooter", "is_disabled": 0, "lat": 38.90557066666667, "rental_uris": {"ios": "https://dc.lft.to/lastmile_qr_scan", "android": "https://dc.lft.to/lastmile_qr_scan"}, "is_reserved": 0, "fusion_lon": 0.0, "fusion_lat": 0.0, "lon": -77.00586616666666, "name": "266e11071ecb0f687dd809d28b72a361"}, {"bike_id": "3ab801f28b34037a68b8fbd0d880c679", "type": "electric_scooter", "is_disabled": 0, "lat": 38.9235305, "rental_uris": {"ios": "https://dc.lft.to/lastmile_qr_scan", "android": "https://dc.lft.to/lastmile_qr_scan"}, "is_reserved": 0, "fusion_lon": 0.0, "fusion_lat": 0.0, "lon": -77.03541683333333, "name": "3ab801f28b34037a68b8fbd0d880c679"}, {"bike_id": "fb7bdfa1180cda0cbeaf10dbd7115d42", "type": "electric_scooter", "is_disabled": 0, "lat": 38.91690533333333, "rental_uris": {"ios": "https://dc.lft.to/lastmile_qr_scan", "android": "https://dc.lft.to/lastmile_qr_scan"}, "is_reserved": 0, "fusion_lon": 0.0, "fusion_lat": 0.0, "lon": -77.022836, "name": "fb7bdfa1180cda0cbeaf10dbd7115d42"}, {"bike_id": "47b2d0c71ef2ea9c54bf68d73c43d739", "type": "electric_scooter", "is_disabled": 0, "lat": 38.90809566666667, "rental_uris": {"ios": "https://dc.lft.to/lastmile_qr_scan", "android": "https://dc.lft.to/lastmile_qr_scan"}, "is_reserved": 0, "fusion_lon": 0.0, "fusion_lat": 0.0, "lon": -77.0203015, "name": "47b2d0c71ef2ea9c54bf68d73c43d739"}, {"bike_id": "17032378cb1136a80a4988d367438fe9", "type": "electric_scooter", "is_disabled": 0, "lat": 38.907343833333336, "rental_uris": {"ios": "https://dc.lft.to/lastmile_qr_scan", "android": "https://dc.lft.to/lastmile_qr_scan"}, "is_reserved": 0, "fusion_lon": 0.0, "fusion_lat": 0.0, "lon": -77.03447616666666, "name": "17032378cb1136a80a4988d367438fe9"}, {"bike_id": "331a7374af29452a551c7129b9df2db1", "type": "electric_scooter", "is_disabled": 0, "lat": 38.9373225, "rental_uris": {"ios": "https://dc.lft.to/lastmile_qr_scan", "android": "https://dc.lft.to/lastmile_qr_scan"}, "is_reserved": 0, "fusion_lon": 0.0, "fusion_lat": 0.0, "lon": -77.0596795, "name": "331a7374af29452a551c7129b9df2db1"}, {"bike_id": "c18528770a2d4c0e5e9abfe6536afb1a", "type": "electric_scooter", "is_disabled": 0, "lat": 38.874021166666665, "rental_uris": {"ios": "https://dc.lft.to/lastmile_qr_scan", "android": "https://dc.lft.to/lastmile_qr_scan"}, "is_reserved": 0, "fusion_lon": 0.0, "fusion_lat": 0.0, "lon": -77.00199083333334, "name": "c18528770a2d4c0e5e9abfe6536afb1a"}, {"bike_id": "c53a1af88bc0c2a080831f4de2346dfb", "type": "electric_scooter", "is_disabled": 0, "lat": 38.88705066666667, "rental_uris": {"ios": "https://dc.lft.to/lastmile_qr_scan", "android": "https://dc.lft.to/lastmile_qr_scan"}, "is_reserved": 0, "fusion_lon": 0.0, "fusion_lat": 0.0, "lon": -77.013674, "name": "c53a1af88bc0c2a080831f4de2346dfb"}, {"bike_id": "6dd9e94d21ce1bfc5df8c6632bdf8a77", "type": "electric_scooter", "is_disabled": 0, "lat": 38.9421125, "rental_uris": {"ios": "https://dc.lft.to/lastmile_qr_scan", "android": "https://dc.lft.to/lastmile_qr_scan"}, "is_reserved": 0, "fusion_lon": 0.0, "fusion_lat": 0.0, "lon": -77.02587366666667, "name": "6dd9e94d21ce1bfc5df8c6632bdf8a77"}, {"bike_id": "687f6fd57a3419b79f52d14292283bbd", "type": "electric_bike", "is_disabled": 0, "lat": 39.056335, "rental_uris": {"ios": "https://dc.lft.to/lastmile_qr_scan", "android": "https://dc.lft.to/lastmile_qr_scan"}, "is_reserved": 0, "fusion_lon": 0.0, "fusion_lat": 0.0, "lon": -77.12524633333334, "name": "687f6fd57a3419b79f52d14292283bbd"}, {"bike_id": "45e77e38f1c40331b2bd7745e7531028", "type": "electric_scooter", "is_disabled": 0, "lat": 38.90733733333333, "rental_uris": {"ios": "https://dc.lft.to/lastmile_qr_scan", "android": "https://dc.lft.to/lastmile_qr_scan"}, "is_reserved": 0, "fusion_lon": 0.0, "fusion_lat": 0.0, "lon": -77.00936433333334, "name": "45e77e38f1c40331b2bd7745e7531028"}, {"bike_id": "16a6bb52109f00b395ce26e10ffce869", "type": "electric_scooter", "is_disabled": 0, "lat": 38.93697266666667, "rental_uris": {"ios": "https://dc.lft.to/lastmile_qr_scan", "android": "https://dc.lft.to/lastmile_qr_scan"}, "is_reserved": 0, "fusion_lon": 0.0, "fusion_lat": 0.0, "lon": -77.056672, "name": "16a6bb52109f00b395ce26e10ffce869"}, {"bike_id": "48826923fd08d9142ba372c2681291fc", "type": "electric_scooter", "is_disabled": 0, "lat": 38.89237133333334, "rental_uris": {"ios": "https://dc.lft.to/lastmile_qr_scan", "android": "https://dc.lft.to/lastmile_qr_scan"}, "is_reserved": 0, "fusion_lon": 0.0, "fusion_lat": 0.0, "lon": -77.04995266666667, "name": "48826923fd08d9142ba372c2681291fc"}, {"bike_id": "77318de0469d3754c9afcf766d7df511", "type": "electric_scooter", "is_disabled": 0, "lat": 38.911248666666665, "rental_uris": {"ios": "https://dc.lft.to/lastmile_qr_scan", "android": "https://dc.lft.to/lastmile_qr_scan"}, "is_reserved": 0, "fusion_lon": 0.0, "fusion_lat": 0.0, "lon": -77.03245066666666, "name": "77318de0469d3754c9afcf766d7df511"}, {"bike_id": "39307627f5bdee87cd3be431c9df9f9b", "type": "electric_scooter", "is_disabled": 0, "lat": 38.8949795, "rental_uris": {"ios": "https://dc.lft.to/lastmile_qr_scan", "android": "https://dc.lft.to/lastmile_qr_scan"}, "is_reserved": 0, "fusion_lon": 0.0, "fusion_lat": 0.0, "lon": -77.00209916666667, "name": "39307627f5bdee87cd3be431c9df9f9b"}, {"bike_id": "9c4fa0c181dba815e0644e327d072222", "type": "electric_scooter", "is_disabled": 0, "lat": 38.910677666666665, "rental_uris": {"ios": "https://dc.lft.to/lastmile_qr_scan", "android": "https://dc.lft.to/lastmile_qr_scan"}, "is_reserved": 0, "fusion_lon": 0.0, "fusion_lat": 0.0, "lon": -77.02604533333333, "name": "9c4fa0c181dba815e0644e327d072222"}, {"bike_id": "261cb37fe0c0a48906b7eab3ed12e600", "type": "electric_scooter", "is_disabled": 0, "lat": 38.91832933333333, "rental_uris": {"ios": "https://dc.lft.to/lastmile_qr_scan", "android": "https://dc.lft.to/lastmile_qr_scan"}, "is_reserved": 0, "fusion_lon": 0.0, "fusion_lat": 0.0, "lon": -77.02453716666666, "name": "261cb37fe0c0a48906b7eab3ed12e600"}, {"bike_id": "874ed7debf0e398ca6eb79900c1d221e", "type": "electric_scooter", "is_disabled": 0, "lat": 38.94786083333334, "rental_uris": {"ios": "https://dc.lft.to/lastmile_qr_scan", "android": "https://dc.lft.to/lastmile_qr_scan"}, "is_reserved": 0, "fusion_lon": 0.0, "fusion_lat": 0.0, "lon": -77.0793385, "name": "874ed7debf0e398ca6eb79900c1d221e"}, {"bike_id": "0d6b74007372531271e4f18a308f00d6", "type": "electric_bike", "is_disabled": 0, "lat": 38.97159166666667, "rental_uris": {"ios": "https://dc.lft.to/lastmile_qr_scan", "android": "https://dc.lft.to/lastmile_qr_scan"}, "is_reserved": 0, "fusion_lon": 0.0, "fusion_lat": 0.0, "lon": -77.02723633333333, "name": "0d6b74007372531271e4f18a308f00d6"}, {"bike_id": "7fd05a1ddfcaf3120136a5b9cdd0d076", "type": "electric_scooter", "is_disabled": 0, "lat": 38.927989333333336, "rental_uris": {"ios": "https://dc.lft.to/lastmile_qr_scan", "android": "https://dc.lft.to/lastmile_qr_scan"}, "is_reserved": 0, "fusion_lon": 0.0, "fusion_lat": 0.0, "lon": -77.02125383333333, "name": "7fd05a1ddfcaf3120136a5b9cdd0d076"}, {"bike_id": "a1c0ce29bfbc82931e743e7eb532108d", "type": "electric_scooter", "is_disabled": 0, "lat": 38.936424833333334, "rental_uris": {"ios": "https://dc.lft.to/lastmile_qr_scan", "android": "https://dc.lft.to/lastmile_qr_scan"}, "is_reserved": 0, "fusion_lon": 0.0, "fusion_lat": 0.0, "lon": -77.058807, "name": "a1c0ce29bfbc82931e743e7eb532108d"}, {"bike_id": "36f959b363a2708406e9d6bba9665c7b", "type": "electric_scooter", "is_disabled": 0, "lat": 38.9027415, "rental_uris": {"ios": "https://dc.lft.to/lastmile_qr_scan", "android": "https://dc.lft.to/lastmile_qr_scan"}, "is_reserved": 0, "fusion_lon": 0.0, "fusion_lat": 0.0, "lon": -77.0581285, "name": "36f959b363a2708406e9d6bba9665c7b"}, {"bike_id": "9dbf612485585b594882f7ad41b20d0f", "type": "electric_scooter", "is_disabled": 0, "lat": 38.911093666666666, "rental_uris": {"ios": "https://dc.lft.to/lastmile_qr_scan", "android": "https://dc.lft.to/lastmile_qr_scan"}, "is_reserved": 0, "fusion_lon": 0.0, "fusion_lat": 0.0, "lon": -77.01160433333334, "name": "9dbf612485585b594882f7ad41b20d0f"}, {"bike_id": "8eee1dd9d62c423ce767d9209debf0e7", "type": "electric_scooter", "is_disabled": 0, "lat": 38.93252416666667, "rental_uris": {"ios": "https://dc.lft.to/lastmile_qr_scan", "android": "https://dc.lft.to/lastmile_qr_scan"}, "is_reserved": 0, "fusion_lon": 0.0, "fusion_lat": 0.0, "lon": -77.020046, "name": "8eee1dd9d62c423ce767d9209debf0e7"}, {"bike_id": "7ae760ec536754733dfa5346a7d06ef0", "type": "electric_scooter", "is_disabled": 0, "lat": 38.870735833333335, "rental_uris": {"ios": "https://dc.lft.to/lastmile_qr_scan", "android": "https://dc.lft.to/lastmile_qr_scan"}, "is_reserved": 0, "fusion_lon": 0.0, "fusion_lat": 0.0, "lon": -76.98125883333333, "name": "7ae760ec536754733dfa5346a7d06ef0"}, {"bike_id": "27e4fc8c9f1494c955f41af8c53387bc", "type": "electric_scooter", "is_disabled": 0, "lat": 38.898457666666665, "rental_uris": {"ios": "https://dc.lft.to/lastmile_qr_scan", "android": "https://dc.lft.to/lastmile_qr_scan"}, "is_reserved": 0, "fusion_lon": 0.0, "fusion_lat": 0.0, "lon": -76.946317, "name": "27e4fc8c9f1494c955f41af8c53387bc"}, {"bike_id": "dc3b60a0114de7fd1aa4f8cfa8379a91", "type": "electric_scooter", "is_disabled": 0, "lat": 38.91638616666667, "rental_uris": {"ios": "https://dc.lft.to/lastmile_qr_scan", "android": "https://dc.lft.to/lastmile_qr_scan"}, "is_reserved": 0, "fusion_lon": 0.0, "fusion_lat": 0.0, "lon": -77.01429283333333, "name": "dc3b60a0114de7fd1aa4f8cfa8379a91"}, {"bike_id": "543571fa0df6d108bbe9b60cfb3d7486", "type": "electric_bike", "is_disabled": 0, "lat": 38.861542166666666, "rental_uris": {"ios": "https://dc.lft.to/lastmile_qr_scan", "android": "https://dc.lft.to/lastmile_qr_scan"}, "is_reserved": 0, "fusion_lon": 0.0, "fusion_lat": 0.0, "lon": -77.09135233333333, "name": "543571fa0df6d108bbe9b60cfb3d7486"}, {"bike_id": "2f867a2d0c9014096bed55ad0b3378ab", "type": "electric_bike", "is_disabled": 0, "lat": 38.92968, "rental_uris": {"ios": "https://dc.lft.to/lastmile_qr_scan", "android": "https://dc.lft.to/lastmile_qr_scan"}, "is_reserved": 0, "fusion_lon": 0.0, "fusion_lat": 0.0, "lon": -77.18558916666667, "name": "2f867a2d0c9014096bed55ad0b3378ab"}, {"bike_id": "86e670607ae2dbf7becf2f6bfb362a63", "type": "electric_scooter", "is_disabled": 0, "lat": 38.916908, "rental_uris": {"ios": "https://dc.lft.to/lastmile_qr_scan", "android": "https://dc.lft.to/lastmile_qr_scan"}, "is_reserved": 0, "fusion_lon": 0.0, "fusion_lat": 0.0, "lon": -77.03466083333333, "name": "86e670607ae2dbf7becf2f6bfb362a63"}, {"bike_id": "2d7b5fbed6e299cb035b93af6d071594", "type": "electric_scooter", "is_disabled": 0, "lat": 38.91697416666667, "rental_uris": {"ios": "https://dc.lft.to/lastmile_qr_scan", "android": "https://dc.lft.to/lastmile_qr_scan"}, "is_reserved": 0, "fusion_lon": 0.0, "fusion_lat": 0.0, "lon": -77.04108783333334, "name": "2d7b5fbed6e299cb035b93af6d071594"}, {"bike_id": "8f4aa7cf832e5049ee24ef701ad9b798", "type": "electric_scooter", "is_disabled": 0, "lat": 38.918174666666665, "rental_uris": {"ios": "https://dc.lft.to/lastmile_qr_scan", "android": "https://dc.lft.to/lastmile_qr_scan"}, "is_reserved": 0, "fusion_lon": 0.0, "fusion_lat": 0.0, "lon": -77.02477816666666, "name": "8f4aa7cf832e5049ee24ef701ad9b798"}, {"bike_id": "830a200ceb82d06bed14886a7bae9a0e", "type": "electric_scooter", "is_disabled": 0, "lat": 38.92357116666667, "rental_uris": {"ios": "https://dc.lft.to/lastmile_qr_scan", "android": "https://dc.lft.to/lastmile_qr_scan"}, "is_reserved": 0, "fusion_lon": 0.0, "fusion_lat": 0.0, "lon": -77.07645, "name": "830a200ceb82d06bed14886a7bae9a0e"}, {"bike_id": "5378bff333008f3bcc27f7afa330c5e7", "type": "electric_scooter", "is_disabled": 0, "lat": 38.8545955, "rental_uris": {"ios": "https://dc.lft.to/lastmile_qr_scan", "android": "https://dc.lft.to/lastmile_qr_scan"}, "is_reserved": 0, "fusion_lon": 0.0, "fusion_lat": 0.0, "lon": -76.97224633333333, "name": "5378bff333008f3bcc27f7afa330c5e7"}, {"bike_id": "4407c7d962d71f41d793faac7ab490d6", "type": "electric_bike", "is_disabled": 0, "lat": 38.91194083333333, "rental_uris": {"ios": "https://dc.lft.to/lastmile_qr_scan", "android": "https://dc.lft.to/lastmile_qr_scan"}, "is_reserved": 0, "fusion_lon": 0.0, "fusion_lat": 0.0, "lon": -77.05936816666667, "name": "4407c7d962d71f41d793faac7ab490d6"}, {"bike_id": "6c8987d02f0bd9b00701a2ac6d3c5713", "type": "electric_bike", "is_disabled": 0, "lat": 38.96961016666667, "rental_uris": {"ios": "https://dc.lft.to/lastmile_qr_scan", "android": "https://dc.lft.to/lastmile_qr_scan"}, "is_reserved": 0, "fusion_lon": 0.0, "fusion_lat": 0.0, "lon": -76.95748466666667, "name": "6c8987d02f0bd9b00701a2ac6d3c5713"}, {"bike_id": "69b03acdc0f6500bd2e5ffec3fc3c920", "type": "electric_scooter", "is_disabled": 0, "lat": 38.9219675, "rental_uris": {"ios": "https://dc.lft.to/lastmile_qr_scan", "android": "https://dc.lft.to/lastmile_qr_scan"}, "is_reserved": 0, "fusion_lon": 0.0, "fusion_lat": 0.0, "lon": -77.0469695, "name": "69b03acdc0f6500bd2e5ffec3fc3c920"}, {"bike_id": "1e3bf597df4cb4267da169a58466fd60", "type": "electric_scooter", "is_disabled": 0, "lat": 38.92151416666667, "rental_uris": {"ios": "https://dc.lft.to/lastmile_qr_scan", "android": "https://dc.lft.to/lastmile_qr_scan"}, "is_reserved": 0, "fusion_lon": 0.0, "fusion_lat": 0.0, "lon": -77.0423775, "name": "1e3bf597df4cb4267da169a58466fd60"}, {"bike_id": "9736c047f1559d9408a20e307c946be4", "type": "electric_scooter", "is_disabled": 0, "lat": 38.883010666666664, "rental_uris": {"ios": "https://dc.lft.to/lastmile_qr_scan", "android": "https://dc.lft.to/lastmile_qr_scan"}, "is_reserved": 0, "fusion_lon": 0.0, "fusion_lat": 0.0, "lon": -76.9485685, "name": "9736c047f1559d9408a20e307c946be4"}, {"bike_id": "8c9555b286b2eff18e31b0ececac20c0", "type": "electric_scooter", "is_disabled": 0, "lat": 38.927114833333334, "rental_uris": {"ios": "https://dc.lft.to/lastmile_qr_scan", "android": "https://dc.lft.to/lastmile_qr_scan"}, "is_reserved": 0, "fusion_lon": 0.0, "fusion_lat": 0.0, "lon": -77.02087816666666, "name": "8c9555b286b2eff18e31b0ececac20c0"}, {"bike_id": "fe4b0732c1c3e5cf8da64ac264f3d1c0", "type": "electric_scooter", "is_disabled": 0, "lat": 38.92474216666667, "rental_uris": {"ios": "https://dc.lft.to/lastmile_qr_scan", "android": "https://dc.lft.to/lastmile_qr_scan"}, "is_reserved": 0, "fusion_lon": 0.0, "fusion_lat": 0.0, "lon": -77.02828266666667, "name": "fe4b0732c1c3e5cf8da64ac264f3d1c0"}, {"bike_id": "72acb63a562ebfa6696cd3a0101f61fe", "type": "electric_scooter", "is_disabled": 0, "lat": 38.906984, "rental_uris": {"ios": "https://dc.lft.to/lastmile_qr_scan", "android": "https://dc.lft.to/lastmile_qr_scan"}, "is_reserved": 0, "fusion_lon": 0.0, "fusion_lat": 0.0, "lon": -76.98726633333334, "name": "72acb63a562ebfa6696cd3a0101f61fe"}, {"bike_id": "146320572b80df7fbc5de485941a49d5", "type": "electric_scooter", "is_disabled": 0, "lat": 38.944384166666666, "rental_uris": {"ios": "https://dc.lft.to/lastmile_qr_scan", "android": "https://dc.lft.to/lastmile_qr_scan"}, "is_reserved": 0, "fusion_lon": 0.0, "fusion_lat": 0.0, "lon": -77.01450733333333, "name": "146320572b80df7fbc5de485941a49d5"}, {"bike_id": "af8f7cdb86631f2fe8c2736acc7bc4b4", "type": "electric_scooter", "is_disabled": 0, "lat": 38.90976833333333, "rental_uris": {"ios": "https://dc.lft.to/lastmile_qr_scan", "android": "https://dc.lft.to/lastmile_qr_scan"}, "is_reserved": 0, "fusion_lon": 0.0, "fusion_lat": 0.0, "lon": -77.046417, "name": "af8f7cdb86631f2fe8c2736acc7bc4b4"}, {"bike_id": "38f0211bd0d281572b59ca7275c50056", "type": "electric_scooter", "is_disabled": 0, "lat": 38.917280833333336, "rental_uris": {"ios": "https://dc.lft.to/lastmile_qr_scan", "android": "https://dc.lft.to/lastmile_qr_scan"}, "is_reserved": 0, "fusion_lon": 0.0, "fusion_lat": 0.0, "lon": -77.02808383333333, "name": "38f0211bd0d281572b59ca7275c50056"}, {"bike_id": "963da6dcf41b5501485e6ed6b4399d71", "type": "electric_scooter", "is_disabled": 0, "lat": 38.901776, "rental_uris": {"ios": "https://dc.lft.to/lastmile_qr_scan", "android": "https://dc.lft.to/lastmile_qr_scan"}, "is_reserved": 0, "fusion_lon": 0.0, "fusion_lat": 0.0, "lon": -76.98057433333334, "name": "963da6dcf41b5501485e6ed6b4399d71"}, {"bike_id": "43022ba07c6cb6c92ca1caf824e6f09a", "type": "electric_scooter", "is_disabled": 0, "lat": 38.93133, "rental_uris": {"ios": "https://dc.lft.to/lastmile_qr_scan", "android": "https://dc.lft.to/lastmile_qr_scan"}, "is_reserved": 0, "fusion_lon": 0.0, "fusion_lat": 0.0, "lon": -76.9957665, "name": "43022ba07c6cb6c92ca1caf824e6f09a"}, {"bike_id": "4fdcc78f4c0e6420e68e3c5cd95af45a", "type": "electric_scooter", "is_disabled": 0, "lat": 38.93343516666667, "rental_uris": {"ios": "https://dc.lft.to/lastmile_qr_scan", "android": "https://dc.lft.to/lastmile_qr_scan"}, "is_reserved": 0, "fusion_lon": 0.0, "fusion_lat": 0.0, "lon": -77.020555, "name": "4fdcc78f4c0e6420e68e3c5cd95af45a"}, {"bike_id": "ed66c0dc1f6b71ef43d7b0421d72c22d", "type": "electric_scooter", "is_disabled": 0, "lat": 38.88134066666667, "rental_uris": {"ios": "https://dc.lft.to/lastmile_qr_scan", "android": "https://dc.lft.to/lastmile_qr_scan"}, "is_reserved": 0, "fusion_lon": 0.0, "fusion_lat": 0.0, "lon": -76.983507, "name": "ed66c0dc1f6b71ef43d7b0421d72c22d"}, {"bike_id": "a6334c7e405a73384849a9066803edae", "type": "electric_scooter", "is_disabled": 0, "lat": 38.866959, "rental_uris": {"ios": "https://dc.lft.to/lastmile_qr_scan", "android": "https://dc.lft.to/lastmile_qr_scan"}, "is_reserved": 0, "fusion_lon": 0.0, "fusion_lat": 0.0, "lon": -76.98713266666667, "name": "a6334c7e405a73384849a9066803edae"}, {"bike_id": "cb3a07a763e34e008a962bc9b6af6a04", "type": "electric_scooter", "is_disabled": 0, "lat": 38.94752783333333, "rental_uris": {"ios": "https://dc.lft.to/lastmile_qr_scan", "android": "https://dc.lft.to/lastmile_qr_scan"}, "is_reserved": 0, "fusion_lon": 0.0, "fusion_lat": 0.0, "lon": -77.0758395, "name": "cb3a07a763e34e008a962bc9b6af6a04"}, {"bike_id": "b2c580e340f9fe7cb99cf2c72e6ad1af", "type": "electric_scooter", "is_disabled": 0, "lat": 38.91266666666667, "rental_uris": {"ios": "https://dc.lft.to/lastmile_qr_scan", "android": "https://dc.lft.to/lastmile_qr_scan"}, "is_reserved": 0, "fusion_lon": 0.0, "fusion_lat": 0.0, "lon": -77.01763266666667, "name": "b2c580e340f9fe7cb99cf2c72e6ad1af"}, {"bike_id": "97eb303a6a575fc3d513bfb3b6fb1d49", "type": "electric_scooter", "is_disabled": 0, "lat": 38.91708283333333, "rental_uris": {"ios": "https://dc.lft.to/lastmile_qr_scan", "android": "https://dc.lft.to/lastmile_qr_scan"}, "is_reserved": 0, "fusion_lon": 0.0, "fusion_lat": 0.0, "lon": -77.0065315, "name": "97eb303a6a575fc3d513bfb3b6fb1d49"}, {"bike_id": "0297c0c7bd35ab218eaebc53eab367d5", "type": "electric_scooter", "is_disabled": 0, "lat": 38.918248, "rental_uris": {"ios": "https://dc.lft.to/lastmile_qr_scan", "android": "https://dc.lft.to/lastmile_qr_scan"}, "is_reserved": 0, "fusion_lon": 0.0, "fusion_lat": 0.0, "lon": -77.049405, "name": "0297c0c7bd35ab218eaebc53eab367d5"}, {"bike_id": "e1de12be58cf5508ecdcd341a92cb123", "type": "electric_bike", "is_disabled": 0, "lat": 39.052800833333336, "rental_uris": {"ios": "https://dc.lft.to/lastmile_qr_scan", "android": "https://dc.lft.to/lastmile_qr_scan"}, "is_reserved": 0, "fusion_lon": 0.0, "fusion_lat": 0.0, "lon": -77.08065683333334, "name": "e1de12be58cf5508ecdcd341a92cb123"}, {"bike_id": "c2c01fa0fc9669093722c44b79118b3d", "type": "electric_scooter", "is_disabled": 0, "lat": 38.92100966666667, "rental_uris": {"ios": "https://dc.lft.to/lastmile_qr_scan", "android": "https://dc.lft.to/lastmile_qr_scan"}, "is_reserved": 0, "fusion_lon": 0.0, "fusion_lat": 0.0, "lon": -77.02516666666666, "name": "c2c01fa0fc9669093722c44b79118b3d"}, {"bike_id": "206c116acf583f0fe11fbec0354c8b1d", "type": "electric_scooter", "is_disabled": 0, "lat": 38.92886083333333, "rental_uris": {"ios": "https://dc.lft.to/lastmile_qr_scan", "android": "https://dc.lft.to/lastmile_qr_scan"}, "is_reserved": 0, "fusion_lon": 0.0, "fusion_lat": 0.0, "lon": -77.033011, "name": "206c116acf583f0fe11fbec0354c8b1d"}, {"bike_id": "e7a3e9917fc9eb8fb06936966ad88975", "type": "electric_scooter", "is_disabled": 0, "lat": 38.881837833333336, "rental_uris": {"ios": "https://dc.lft.to/lastmile_qr_scan", "android": "https://dc.lft.to/lastmile_qr_scan"}, "is_reserved": 0, "fusion_lon": 0.0, "fusion_lat": 0.0, "lon": -77.02809383333333, "name": "e7a3e9917fc9eb8fb06936966ad88975"}, {"bike_id": "8c41dd138524d4c3d866e43af9083704", "type": "electric_scooter", "is_disabled": 0, "lat": 38.90200083333333, "rental_uris": {"ios": "https://dc.lft.to/lastmile_qr_scan", "android": "https://dc.lft.to/lastmile_qr_scan"}, "is_reserved": 0, "fusion_lon": 0.0, "fusion_lat": 0.0, "lon": -76.98844583333333, "name": "8c41dd138524d4c3d866e43af9083704"}, {"bike_id": "53a8b3d57d21bbc8c3c4aa88c8f8d88f", "type": "electric_scooter", "is_disabled": 0, "lat": 38.90526416666667, "rental_uris": {"ios": "https://dc.lft.to/lastmile_qr_scan", "android": "https://dc.lft.to/lastmile_qr_scan"}, "is_reserved": 0, "fusion_lon": 0.0, "fusion_lat": 0.0, "lon": -77.05009133333333, "name": "53a8b3d57d21bbc8c3c4aa88c8f8d88f"}, {"bike_id": "d0abecc8474297b76858ede75a9b4c41", "type": "electric_bike", "is_disabled": 0, "lat": 39.03401316666667, "rental_uris": {"ios": "https://dc.lft.to/lastmile_qr_scan", "android": "https://dc.lft.to/lastmile_qr_scan"}, "is_reserved": 0, "fusion_lon": 0.0, "fusion_lat": 0.0, "lon": -77.04145766666667, "name": "d0abecc8474297b76858ede75a9b4c41"}, {"bike_id": "8fbec417ff1b8922337dd31b7f209133", "type": "electric_scooter", "is_disabled": 0, "lat": 38.90583983333333, "rental_uris": {"ios": "https://dc.lft.to/lastmile_qr_scan", "android": "https://dc.lft.to/lastmile_qr_scan"}, "is_reserved": 0, "fusion_lon": 0.0, "fusion_lat": 0.0, "lon": -77.0412705, "name": "8fbec417ff1b8922337dd31b7f209133"}, {"bike_id": "dfab546e238bcc5d570eeaa0150f99fc", "type": "electric_scooter", "is_disabled": 0, "lat": 38.9193335, "rental_uris": {"ios": "https://dc.lft.to/lastmile_qr_scan", "android": "https://dc.lft.to/lastmile_qr_scan"}, "is_reserved": 0, "fusion_lon": 0.0, "fusion_lat": 0.0, "lon": -77.0318105, "name": "dfab546e238bcc5d570eeaa0150f99fc"}, {"bike_id": "2e4d549f83e7da0679999615f314cb65", "type": "electric_scooter", "is_disabled": 0, "lat": 38.92345133333333, "rental_uris": {"ios": "https://dc.lft.to/lastmile_qr_scan", "android": "https://dc.lft.to/lastmile_qr_scan"}, "is_reserved": 0, "fusion_lon": 0.0, "fusion_lat": 0.0, "lon": -77.05096066666667, "name": "2e4d549f83e7da0679999615f314cb65"}, {"bike_id": "bb8df6253f4088519d0af1ef915737f6", "type": "electric_scooter", "is_disabled": 0, "lat": 38.89739616666667, "rental_uris": {"ios": "https://dc.lft.to/lastmile_qr_scan", "android": "https://dc.lft.to/lastmile_qr_scan"}, "is_reserved": 0, "fusion_lon": 0.0, "fusion_lat": 0.0, "lon": -76.94725066666666, "name": "bb8df6253f4088519d0af1ef915737f6"}, {"bike_id": "034c032b1cffe6ede01c3687efb37ae4", "type": "electric_scooter", "is_disabled": 0, "lat": 38.919712, "rental_uris": {"ios": "https://dc.lft.to/lastmile_qr_scan", "android": "https://dc.lft.to/lastmile_qr_scan"}, "is_reserved": 0, "fusion_lon": 0.0, "fusion_lat": 0.0, "lon": -77.039452, "name": "034c032b1cffe6ede01c3687efb37ae4"}, {"bike_id": "3d3c416346c669d02ffa889a9d30d727", "type": "electric_scooter", "is_disabled": 0, "lat": 38.8757505, "rental_uris": {"ios": "https://dc.lft.to/lastmile_qr_scan", "android": "https://dc.lft.to/lastmile_qr_scan"}, "is_reserved": 0, "fusion_lon": 0.0, "fusion_lat": 0.0, "lon": -77.012687, "name": "3d3c416346c669d02ffa889a9d30d727"}, {"bike_id": "c084a3274b36ce6483668563580d6f05", "type": "electric_bike", "is_disabled": 0, "lat": 38.889282666666666, "rental_uris": {"ios": "https://dc.lft.to/lastmile_qr_scan", "android": "https://dc.lft.to/lastmile_qr_scan"}, "is_reserved": 0, "fusion_lon": 0.0, "fusion_lat": 0.0, "lon": -76.99175583333333, "name": "c084a3274b36ce6483668563580d6f05"}, {"bike_id": "cbb722656c6d2fc60bb56667001550d6", "type": "electric_scooter", "is_disabled": 0, "lat": 38.930170333333336, "rental_uris": {"ios": "https://dc.lft.to/lastmile_qr_scan", "android": "https://dc.lft.to/lastmile_qr_scan"}, "is_reserved": 0, "fusion_lon": 0.0, "fusion_lat": 0.0, "lon": -77.02084866666667, "name": "cbb722656c6d2fc60bb56667001550d6"}, {"bike_id": "6cc3163a5c4388cf45ce0c6f59a5eb04", "type": "electric_bike", "is_disabled": 0, "lat": 38.963123333333336, "rental_uris": {"ios": "https://dc.lft.to/lastmile_qr_scan", "android": "https://dc.lft.to/lastmile_qr_scan"}, "is_reserved": 0, "fusion_lon": 0.0, "fusion_lat": 0.0, "lon": -77.01100866666667, "name": "6cc3163a5c4388cf45ce0c6f59a5eb04"}, {"bike_id": "f7da15e4f3a2a76ec244b134ab54f20f", "type": "electric_scooter", "is_disabled": 0, "lat": 38.908258833333335, "rental_uris": {"ios": "https://dc.lft.to/lastmile_qr_scan", "android": "https://dc.lft.to/lastmile_qr_scan"}, "is_reserved": 0, "fusion_lon": 0.0, "fusion_lat": 0.0, "lon": -77.04462533333333, "name": "f7da15e4f3a2a76ec244b134ab54f20f"}, {"bike_id": "5d51c2b6507fe0cb192913f0dba2008a", "type": "electric_scooter", "is_disabled": 0, "lat": 38.9080795, "rental_uris": {"ios": "https://dc.lft.to/lastmile_qr_scan", "android": "https://dc.lft.to/lastmile_qr_scan"}, "is_reserved": 0, "fusion_lon": 0.0, "fusion_lat": 0.0, "lon": -77.08413133333333, "name": "5d51c2b6507fe0cb192913f0dba2008a"}, {"bike_id": "920b19d1f9e539b66482b87375f702ac", "type": "electric_scooter", "is_disabled": 0, "lat": 38.87424, "rental_uris": {"ios": "https://dc.lft.to/lastmile_qr_scan", "android": "https://dc.lft.to/lastmile_qr_scan"}, "is_reserved": 0, "fusion_lon": 0.0, "fusion_lat": 0.0, "lon": -76.96907416666667, "name": "920b19d1f9e539b66482b87375f702ac"}, {"bike_id": "7fcef74856ab38b35c935e63b7fcb000", "type": "electric_bike", "is_disabled": 0, "lat": 38.952489166666666, "rental_uris": {"ios": "https://dc.lft.to/lastmile_qr_scan", "android": "https://dc.lft.to/lastmile_qr_scan"}, "is_reserved": 0, "fusion_lon": 0.0, "fusion_lat": 0.0, "lon": -76.97678116666667, "name": "7fcef74856ab38b35c935e63b7fcb000"}, {"bike_id": "9191f13545f547928050b99544b4ba4a", "type": "electric_bike", "is_disabled": 0, "lat": 38.963220666666665, "rental_uris": {"ios": "https://dc.lft.to/lastmile_qr_scan", "android": "https://dc.lft.to/lastmile_qr_scan"}, "is_reserved": 0, "fusion_lon": 0.0, "fusion_lat": 0.0, "lon": -76.97359216666666, "name": "9191f13545f547928050b99544b4ba4a"}, {"bike_id": "a62ae0f4755c7ebe5d5000999f48b249", "type": "electric_scooter", "is_disabled": 0, "lat": 38.92473583333334, "rental_uris": {"ios": "https://dc.lft.to/lastmile_qr_scan", "android": "https://dc.lft.to/lastmile_qr_scan"}, "is_reserved": 0, "fusion_lon": 0.0, "fusion_lat": 0.0, "lon": -77.02244016666667, "name": "a62ae0f4755c7ebe5d5000999f48b249"}, {"bike_id": "1384248db3a964809d00733b86989ccd", "type": "electric_scooter", "is_disabled": 0, "lat": 38.911338, "rental_uris": {"ios": "https://dc.lft.to/lastmile_qr_scan", "android": "https://dc.lft.to/lastmile_qr_scan"}, "is_reserved": 0, "fusion_lon": 0.0, "fusion_lat": 0.0, "lon": -77.04417783333334, "name": "1384248db3a964809d00733b86989ccd"}, {"bike_id": "2e3430c005318bf8fe9ed43d0c84e3cd", "type": "electric_scooter", "is_disabled": 0, "lat": 38.920224166666664, "rental_uris": {"ios": "https://dc.lft.to/lastmile_qr_scan", "android": "https://dc.lft.to/lastmile_qr_scan"}, "is_reserved": 0, "fusion_lon": 0.0, "fusion_lat": 0.0, "lon": -77.01292816666667, "name": "2e3430c005318bf8fe9ed43d0c84e3cd"}, {"bike_id": "323a245ca4d8efc4e718617e9bac4f92", "type": "electric_scooter", "is_disabled": 0, "lat": 38.898694, "rental_uris": {"ios": "https://dc.lft.to/lastmile_qr_scan", "android": "https://dc.lft.to/lastmile_qr_scan"}, "is_reserved": 0, "fusion_lon": 0.0, "fusion_lat": 0.0, "lon": -76.9466215, "name": "323a245ca4d8efc4e718617e9bac4f92"}, {"bike_id": "14364ea60263e0ddb6922b6ec66bb074", "type": "electric_scooter", "is_disabled": 0, "lat": 38.91481533333334, "rental_uris": {"ios": "https://dc.lft.to/lastmile_qr_scan", "android": "https://dc.lft.to/lastmile_qr_scan"}, "is_reserved": 0, "fusion_lon": 0.0, "fusion_lat": 0.0, "lon": -77.00282316666667, "name": "14364ea60263e0ddb6922b6ec66bb074"}, {"bike_id": "90a033520e3c28b29d60441e1fb5faaf", "type": "electric_scooter", "is_disabled": 0, "lat": 38.865082666666666, "rental_uris": {"ios": "https://dc.lft.to/lastmile_qr_scan", "android": "https://dc.lft.to/lastmile_qr_scan"}, "is_reserved": 0, "fusion_lon": 0.0, "fusion_lat": 0.0, "lon": -76.99002366666667, "name": "90a033520e3c28b29d60441e1fb5faaf"}, {"bike_id": "3e18cbda306d5542f09612827cb1ec1f", "type": "electric_scooter", "is_disabled": 0, "lat": 38.917161166666666, "rental_uris": {"ios": "https://dc.lft.to/lastmile_qr_scan", "android": "https://dc.lft.to/lastmile_qr_scan"}, "is_reserved": 0, "fusion_lon": 0.0, "fusion_lat": 0.0, "lon": -77.02608816666667, "name": "3e18cbda306d5542f09612827cb1ec1f"}, {"bike_id": "27baee06c38c8d32579d1bd748d54a19", "type": "electric_scooter", "is_disabled": 0, "lat": 38.922215, "rental_uris": {"ios": "https://dc.lft.to/lastmile_qr_scan", "android": "https://dc.lft.to/lastmile_qr_scan"}, "is_reserved": 0, "fusion_lon": 0.0, "fusion_lat": 0.0, "lon": -77.02411016666667, "name": "27baee06c38c8d32579d1bd748d54a19"}, {"bike_id": "cd92349923ab83384d30c1fb213fc5f7", "type": "electric_bike", "is_disabled": 0, "lat": 38.853578666666664, "rental_uris": {"ios": "https://dc.lft.to/lastmile_qr_scan", "android": "https://dc.lft.to/lastmile_qr_scan"}, "is_reserved": 0, "fusion_lon": 0.0, "fusion_lat": 0.0, "lon": -77.08682033333334, "name": "cd92349923ab83384d30c1fb213fc5f7"}, {"bike_id": "f5e4033649760a034fba8ef7ce5ab512", "type": "electric_bike", "is_disabled": 0, "lat": 38.87301266666667, "rental_uris": {"ios": "https://dc.lft.to/lastmile_qr_scan", "android": "https://dc.lft.to/lastmile_qr_scan"}, "is_reserved": 0, "fusion_lon": 0.0, "fusion_lat": 0.0, "lon": -77.01091216666667, "name": "f5e4033649760a034fba8ef7ce5ab512"}, {"bike_id": "898fddd75c87b939fff81dc22e4e8be4", "type": "electric_scooter", "is_disabled": 0, "lat": 38.880832166666664, "rental_uris": {"ios": "https://dc.lft.to/lastmile_qr_scan", "android": "https://dc.lft.to/lastmile_qr_scan"}, "is_reserved": 0, "fusion_lon": 0.0, "fusion_lat": 0.0, "lon": -76.99509883333333, "name": "898fddd75c87b939fff81dc22e4e8be4"}, {"bike_id": "0e9330944d7045694bab51c199a8ad6b", "type": "electric_scooter", "is_disabled": 0, "lat": 38.93992266666667, "rental_uris": {"ios": "https://dc.lft.to/lastmile_qr_scan", "android": "https://dc.lft.to/lastmile_qr_scan"}, "is_reserved": 0, "fusion_lon": 0.0, "fusion_lat": 0.0, "lon": -77.0168945, "name": "0e9330944d7045694bab51c199a8ad6b"}, {"bike_id": "bdcab8cacde2319c4892b8a7eb6b1fef", "type": "electric_scooter", "is_disabled": 0, "lat": 38.9381925, "rental_uris": {"ios": "https://dc.lft.to/lastmile_qr_scan", "android": "https://dc.lft.to/lastmile_qr_scan"}, "is_reserved": 0, "fusion_lon": 0.0, "fusion_lat": 0.0, "lon": -77.02714433333334, "name": "bdcab8cacde2319c4892b8a7eb6b1fef"}, {"bike_id": "4115b0577cf62f07c7de63091f82ed51", "type": "electric_scooter", "is_disabled": 0, "lat": 38.9236185, "rental_uris": {"ios": "https://dc.lft.to/lastmile_qr_scan", "android": "https://dc.lft.to/lastmile_qr_scan"}, "is_reserved": 0, "fusion_lon": 0.0, "fusion_lat": 0.0, "lon": -77.03541266666667, "name": "4115b0577cf62f07c7de63091f82ed51"}, {"bike_id": "2a323d3412f70ebf1b273e69dcc1e4df", "type": "electric_scooter", "is_disabled": 0, "lat": 38.89487033333333, "rental_uris": {"ios": "https://dc.lft.to/lastmile_qr_scan", "android": "https://dc.lft.to/lastmile_qr_scan"}, "is_reserved": 0, "fusion_lon": 0.0, "fusion_lat": 0.0, "lon": -76.99512866666667, "name": "2a323d3412f70ebf1b273e69dcc1e4df"}, {"bike_id": "ac8c37479c8ce0cb51b5d6955697f414", "type": "electric_scooter", "is_disabled": 0, "lat": 38.9169415, "rental_uris": {"ios": "https://dc.lft.to/lastmile_qr_scan", "android": "https://dc.lft.to/lastmile_qr_scan"}, "is_reserved": 0, "fusion_lon": 0.0, "fusion_lat": 0.0, "lon": -77.02602816666666, "name": "ac8c37479c8ce0cb51b5d6955697f414"}, {"bike_id": "7982e8f02e9bd969ad04483d80373e6c", "type": "electric_scooter", "is_disabled": 0, "lat": 38.9313635, "rental_uris": {"ios": "https://dc.lft.to/lastmile_qr_scan", "android": "https://dc.lft.to/lastmile_qr_scan"}, "is_reserved": 0, "fusion_lon": 0.0, "fusion_lat": 0.0, "lon": -77.05723216666667, "name": "7982e8f02e9bd969ad04483d80373e6c"}, {"bike_id": "4084a6e104ee39bb008327b0c1ec5554", "type": "electric_scooter", "is_disabled": 0, "lat": 38.9207075, "rental_uris": {"ios": "https://dc.lft.to/lastmile_qr_scan", "android": "https://dc.lft.to/lastmile_qr_scan"}, "is_reserved": 0, "fusion_lon": 0.0, "fusion_lat": 0.0, "lon": -77.04376983333333, "name": "4084a6e104ee39bb008327b0c1ec5554"}, {"bike_id": "3b3510c6d78560089040ffb6c9e049f0", "type": "electric_scooter", "is_disabled": 0, "lat": 38.9422795, "rental_uris": {"ios": "https://dc.lft.to/lastmile_qr_scan", "android": "https://dc.lft.to/lastmile_qr_scan"}, "is_reserved": 0, "fusion_lon": 0.0, "fusion_lat": 0.0, "lon": -77.01436466666667, "name": "3b3510c6d78560089040ffb6c9e049f0"}, {"bike_id": "424da70c327f71833e28fca1a3bb428b", "type": "electric_scooter", "is_disabled": 0, "lat": 38.906376, "rental_uris": {"ios": "https://dc.lft.to/lastmile_qr_scan", "android": "https://dc.lft.to/lastmile_qr_scan"}, "is_reserved": 0, "fusion_lon": 0.0, "fusion_lat": 0.0, "lon": -77.04216916666667, "name": "424da70c327f71833e28fca1a3bb428b"}, {"bike_id": "c63b30522f6c08d9e485e47d7c0901b7", "type": "electric_scooter", "is_disabled": 0, "lat": 38.922793666666664, "rental_uris": {"ios": "https://dc.lft.to/lastmile_qr_scan", "android": "https://dc.lft.to/lastmile_qr_scan"}, "is_reserved": 0, "fusion_lon": 0.0, "fusion_lat": 0.0, "lon": -77.018847, "name": "c63b30522f6c08d9e485e47d7c0901b7"}, {"bike_id": "c595d49d9f8a2fe44ee516524195e1fd", "type": "electric_bike", "is_disabled": 0, "lat": 38.90626316666667, "rental_uris": {"ios": "https://dc.lft.to/lastmile_qr_scan", "android": "https://dc.lft.to/lastmile_qr_scan"}, "is_reserved": 0, "fusion_lon": 0.0, "fusion_lat": 0.0, "lon": -76.98596683333334, "name": "c595d49d9f8a2fe44ee516524195e1fd"}, {"bike_id": "bc3035fd6dadd7e7123a6ac49c64bf1d", "type": "electric_scooter", "is_disabled": 0, "lat": 38.93368533333334, "rental_uris": {"ios": "https://dc.lft.to/lastmile_qr_scan", "android": "https://dc.lft.to/lastmile_qr_scan"}, "is_reserved": 0, "fusion_lon": 0.0, "fusion_lat": 0.0, "lon": -77.05728533333334, "name": "bc3035fd6dadd7e7123a6ac49c64bf1d"}, {"bike_id": "0e7a111054540a18d7063ee0b2f4522b", "type": "electric_scooter", "is_disabled": 0, "lat": 38.909716333333336, "rental_uris": {"ios": "https://dc.lft.to/lastmile_qr_scan", "android": "https://dc.lft.to/lastmile_qr_scan"}, "is_reserved": 0, "fusion_lon": 0.0, "fusion_lat": 0.0, "lon": -77.0227925, "name": "0e7a111054540a18d7063ee0b2f4522b"}, {"bike_id": "64765231bc9c01873dc3d09ccaadf3ea", "type": "electric_bike", "is_disabled": 0, "lat": 38.82942416666667, "rental_uris": {"ios": "https://dc.lft.to/lastmile_qr_scan", "android": "https://dc.lft.to/lastmile_qr_scan"}, "is_reserved": 0, "fusion_lon": 0.0, "fusion_lat": 0.0, "lon": -77.12352266666667, "name": "64765231bc9c01873dc3d09ccaadf3ea"}, {"bike_id": "0b526cba06e3d6375db3ae71f059e794", "type": "electric_scooter", "is_disabled": 0, "lat": 38.862415, "rental_uris": {"ios": "https://dc.lft.to/lastmile_qr_scan", "android": "https://dc.lft.to/lastmile_qr_scan"}, "is_reserved": 0, "fusion_lon": 0.0, "fusion_lat": 0.0, "lon": -76.995146, "name": "0b526cba06e3d6375db3ae71f059e794"}, {"bike_id": "ecffea960c71dd80939b7493c6cef72e", "type": "electric_scooter", "is_disabled": 0, "lat": 38.92162666666667, "rental_uris": {"ios": "https://dc.lft.to/lastmile_qr_scan", "android": "https://dc.lft.to/lastmile_qr_scan"}, "is_reserved": 0, "fusion_lon": 0.0, "fusion_lat": 0.0, "lon": -77.03847433333334, "name": "ecffea960c71dd80939b7493c6cef72e"}, {"bike_id": "25c9146280f5c5945cd838cdee7e2b2b", "type": "electric_scooter", "is_disabled": 0, "lat": 38.9471705, "rental_uris": {"ios": "https://dc.lft.to/lastmile_qr_scan", "android": "https://dc.lft.to/lastmile_qr_scan"}, "is_reserved": 0, "fusion_lon": 0.0, "fusion_lat": 0.0, "lon": -77.02778833333333, "name": "25c9146280f5c5945cd838cdee7e2b2b"}, {"bike_id": "a57e44daa2221af043eb3e9a7a7523d1", "type": "electric_scooter", "is_disabled": 0, "lat": 38.867021666666666, "rental_uris": {"ios": "https://dc.lft.to/lastmile_qr_scan", "android": "https://dc.lft.to/lastmile_qr_scan"}, "is_reserved": 0, "fusion_lon": 0.0, "fusion_lat": 0.0, "lon": -76.98715516666667, "name": "a57e44daa2221af043eb3e9a7a7523d1"}, {"bike_id": "eab6de48327f14fe62de61acb888b0ae", "type": "electric_scooter", "is_disabled": 0, "lat": 38.8620555, "rental_uris": {"ios": "https://dc.lft.to/lastmile_qr_scan", "android": "https://dc.lft.to/lastmile_qr_scan"}, "is_reserved": 0, "fusion_lon": 0.0, "fusion_lat": 0.0, "lon": -76.99465116666667, "name": "eab6de48327f14fe62de61acb888b0ae"}, {"bike_id": "55a1ac75a5df7e610fafba8c7352ed1c", "type": "electric_scooter", "is_disabled": 0, "lat": 38.85758116666667, "rental_uris": {"ios": "https://dc.lft.to/lastmile_qr_scan", "android": "https://dc.lft.to/lastmile_qr_scan"}, "is_reserved": 0, "fusion_lon": 0.0, "fusion_lat": 0.0, "lon": -76.9929775, "name": "55a1ac75a5df7e610fafba8c7352ed1c"}, {"bike_id": "2df14833621fa93dc549c240e95db417", "type": "electric_scooter", "is_disabled": 0, "lat": 38.884238333333336, "rental_uris": {"ios": "https://dc.lft.to/lastmile_qr_scan", "android": "https://dc.lft.to/lastmile_qr_scan"}, "is_reserved": 0, "fusion_lon": 0.0, "fusion_lat": 0.0, "lon": -76.95749716666667, "name": "2df14833621fa93dc549c240e95db417"}, {"bike_id": "0cf3c666b4b439442fbe519a55674874", "type": "electric_scooter", "is_disabled": 0, "lat": 38.924921499999996, "rental_uris": {"ios": "https://dc.lft.to/lastmile_qr_scan", "android": "https://dc.lft.to/lastmile_qr_scan"}, "is_reserved": 0, "fusion_lon": 0.0, "fusion_lat": 0.0, "lon": -77.05213366666666, "name": "0cf3c666b4b439442fbe519a55674874"}, {"bike_id": "20ef4c95efb2d8ba713ff5dc9b088e27", "type": "electric_scooter", "is_disabled": 0, "lat": 38.90244666666667, "rental_uris": {"ios": "https://dc.lft.to/lastmile_qr_scan", "android": "https://dc.lft.to/lastmile_qr_scan"}, "is_reserved": 0, "fusion_lon": 0.0, "fusion_lat": 0.0, "lon": -77.0175895, "name": "20ef4c95efb2d8ba713ff5dc9b088e27"}, {"bike_id": "850de71281bddbb6830926332e26bffb", "type": "electric_scooter", "is_disabled": 0, "lat": 38.86182, "rental_uris": {"ios": "https://dc.lft.to/lastmile_qr_scan", "android": "https://dc.lft.to/lastmile_qr_scan"}, "is_reserved": 0, "fusion_lon": 0.0, "fusion_lat": 0.0, "lon": -77.08841283333334, "name": "850de71281bddbb6830926332e26bffb"}, {"bike_id": "a1a7edc4cfaf785d8f60c41f23c216b9", "type": "electric_scooter", "is_disabled": 0, "lat": 38.9144265, "rental_uris": {"ios": "https://dc.lft.to/lastmile_qr_scan", "android": "https://dc.lft.to/lastmile_qr_scan"}, "is_reserved": 0, "fusion_lon": 0.0, "fusion_lat": 0.0, "lon": -77.0259215, "name": "a1a7edc4cfaf785d8f60c41f23c216b9"}, {"bike_id": "0ef5a645d2b122cb24fb6b6dfdfc6591", "type": "electric_scooter", "is_disabled": 0, "lat": 38.93799333333333, "rental_uris": {"ios": "https://dc.lft.to/lastmile_qr_scan", "android": "https://dc.lft.to/lastmile_qr_scan"}, "is_reserved": 0, "fusion_lon": 0.0, "fusion_lat": 0.0, "lon": -77.02463783333333, "name": "0ef5a645d2b122cb24fb6b6dfdfc6591"}, {"bike_id": "3181311c15084133a5825c9d29a4ebf6", "type": "electric_scooter", "is_disabled": 0, "lat": 38.920399333333336, "rental_uris": {"ios": "https://dc.lft.to/lastmile_qr_scan", "android": "https://dc.lft.to/lastmile_qr_scan"}, "is_reserved": 0, "fusion_lon": 0.0, "fusion_lat": 0.0, "lon": -77.0236085, "name": "3181311c15084133a5825c9d29a4ebf6"}, {"bike_id": "ce1f1bbe14cea0fbadc41f62355a4707", "type": "electric_scooter", "is_disabled": 0, "lat": 38.918775833333335, "rental_uris": {"ios": "https://dc.lft.to/lastmile_qr_scan", "android": "https://dc.lft.to/lastmile_qr_scan"}, "is_reserved": 0, "fusion_lon": 0.0, "fusion_lat": 0.0, "lon": -77.0444685, "name": "ce1f1bbe14cea0fbadc41f62355a4707"}, {"bike_id": "9d4f930651a91066df7ff9e30ab7731c", "type": "electric_scooter", "is_disabled": 0, "lat": 38.9165935, "rental_uris": {"ios": "https://dc.lft.to/lastmile_qr_scan", "android": "https://dc.lft.to/lastmile_qr_scan"}, "is_reserved": 0, "fusion_lon": 0.0, "fusion_lat": 0.0, "lon": -77.02695483333333, "name": "9d4f930651a91066df7ff9e30ab7731c"}, {"bike_id": "30f95181815e126148655557878006ef", "type": "electric_scooter", "is_disabled": 0, "lat": 38.928614, "rental_uris": {"ios": "https://dc.lft.to/lastmile_qr_scan", "android": "https://dc.lft.to/lastmile_qr_scan"}, "is_reserved": 0, "fusion_lon": 0.0, "fusion_lat": 0.0, "lon": -77.01403333333333, "name": "30f95181815e126148655557878006ef"}, {"bike_id": "065d60a5b0b868c6f48ad2852390125d", "type": "electric_scooter", "is_disabled": 0, "lat": 38.8871285, "rental_uris": {"ios": "https://dc.lft.to/lastmile_qr_scan", "android": "https://dc.lft.to/lastmile_qr_scan"}, "is_reserved": 0, "fusion_lon": 0.0, "fusion_lat": 0.0, "lon": -77.01368366666667, "name": "065d60a5b0b868c6f48ad2852390125d"}, {"bike_id": "4f23724b457b2be581813013149c3da4", "type": "electric_bike", "is_disabled": 0, "lat": 38.99309383333333, "rental_uris": {"ios": "https://dc.lft.to/lastmile_qr_scan", "android": "https://dc.lft.to/lastmile_qr_scan"}, "is_reserved": 0, "fusion_lon": 0.0, "fusion_lat": 0.0, "lon": -77.025058, "name": "4f23724b457b2be581813013149c3da4"}, {"bike_id": "5df91e4b237092b87e5d5c509032e7f7", "type": "electric_scooter", "is_disabled": 0, "lat": 38.90719683333333, "rental_uris": {"ios": "https://dc.lft.to/lastmile_qr_scan", "android": "https://dc.lft.to/lastmile_qr_scan"}, "is_reserved": 0, "fusion_lon": 0.0, "fusion_lat": 0.0, "lon": -77.03439466666667, "name": "5df91e4b237092b87e5d5c509032e7f7"}, {"bike_id": "0c033344ef3894c6c7492ba3e5994b08", "type": "electric_scooter", "is_disabled": 0, "lat": 38.92156883333333, "rental_uris": {"ios": "https://dc.lft.to/lastmile_qr_scan", "android": "https://dc.lft.to/lastmile_qr_scan"}, "is_reserved": 0, "fusion_lon": 0.0, "fusion_lat": 0.0, "lon": -77.03371166666666, "name": "0c033344ef3894c6c7492ba3e5994b08"}, {"bike_id": "245bd0bc049a627995a827a38d9a0946", "type": "electric_scooter", "is_disabled": 0, "lat": 38.923242333333334, "rental_uris": {"ios": "https://dc.lft.to/lastmile_qr_scan", "android": "https://dc.lft.to/lastmile_qr_scan"}, "is_reserved": 0, "fusion_lon": 0.0, "fusion_lat": 0.0, "lon": -77.039047, "name": "245bd0bc049a627995a827a38d9a0946"}, {"bike_id": "3948f5995117b7b58a2b605dc0083860", "type": "electric_scooter", "is_disabled": 0, "lat": 38.956639, "rental_uris": {"ios": "https://dc.lft.to/lastmile_qr_scan", "android": "https://dc.lft.to/lastmile_qr_scan"}, "is_reserved": 0, "fusion_lon": 0.0, "fusion_lat": 0.0, "lon": -77.0239445, "name": "3948f5995117b7b58a2b605dc0083860"}, {"bike_id": "40e0066035f10b3968dc69c054f31081", "type": "electric_scooter", "is_disabled": 0, "lat": 38.92422283333333, "rental_uris": {"ios": "https://dc.lft.to/lastmile_qr_scan", "android": "https://dc.lft.to/lastmile_qr_scan"}, "is_reserved": 0, "fusion_lon": 0.0, "fusion_lat": 0.0, "lon": -77.02258066666667, "name": "40e0066035f10b3968dc69c054f31081"}, {"bike_id": "9a549ac211d918f432d3c33a2c3f237f", "type": "electric_scooter", "is_disabled": 0, "lat": 38.864434833333334, "rental_uris": {"ios": "https://dc.lft.to/lastmile_qr_scan", "android": "https://dc.lft.to/lastmile_qr_scan"}, "is_reserved": 0, "fusion_lon": 0.0, "fusion_lat": 0.0, "lon": -76.97997583333333, "name": "9a549ac211d918f432d3c33a2c3f237f"}, {"bike_id": "4c8d5b2d781568ec7f9d9f9abb350425", "type": "electric_scooter", "is_disabled": 0, "lat": 38.917342, "rental_uris": {"ios": "https://dc.lft.to/lastmile_qr_scan", "android": "https://dc.lft.to/lastmile_qr_scan"}, "is_reserved": 0, "fusion_lon": 0.0, "fusion_lat": 0.0, "lon": -77.02609083333333, "name": "4c8d5b2d781568ec7f9d9f9abb350425"}, {"bike_id": "14082f9fe9ac9f3d3d3484ef2a1ff0b6", "type": "electric_scooter", "is_disabled": 0, "lat": 38.919287833333335, "rental_uris": {"ios": "https://dc.lft.to/lastmile_qr_scan", "android": "https://dc.lft.to/lastmile_qr_scan"}, "is_reserved": 0, "fusion_lon": 0.0, "fusion_lat": 0.0, "lon": -77.02573766666667, "name": "14082f9fe9ac9f3d3d3484ef2a1ff0b6"}, {"bike_id": "2e058701e2839b98a7b3e9efa898ccec", "type": "electric_scooter", "is_disabled": 0, "lat": 38.92094633333333, "rental_uris": {"ios": "https://dc.lft.to/lastmile_qr_scan", "android": "https://dc.lft.to/lastmile_qr_scan"}, "is_reserved": 0, "fusion_lon": 0.0, "fusion_lat": 0.0, "lon": -77.031593, "name": "2e058701e2839b98a7b3e9efa898ccec"}, {"bike_id": "b3772512060124f25df8fbc7d6ad86ee", "type": "electric_scooter", "is_disabled": 0, "lat": 38.880500833333336, "rental_uris": {"ios": "https://dc.lft.to/lastmile_qr_scan", "android": "https://dc.lft.to/lastmile_qr_scan"}, "is_reserved": 0, "fusion_lon": 0.0, "fusion_lat": 0.0, "lon": -77.00536316666667, "name": "b3772512060124f25df8fbc7d6ad86ee"}, {"bike_id": "9a505f7c9feb163bc1d086db18a1acba", "type": "electric_scooter", "is_disabled": 0, "lat": 38.89252483333333, "rental_uris": {"ios": "https://dc.lft.to/lastmile_qr_scan", "android": "https://dc.lft.to/lastmile_qr_scan"}, "is_reserved": 0, "fusion_lon": 0.0, "fusion_lat": 0.0, "lon": -76.92566583333333, "name": "9a505f7c9feb163bc1d086db18a1acba"}, {"bike_id": "b9edf636c0d0171666208263a3686f67", "type": "electric_scooter", "is_disabled": 0, "lat": 38.90245516666667, "rental_uris": {"ios": "https://dc.lft.to/lastmile_qr_scan", "android": "https://dc.lft.to/lastmile_qr_scan"}, "is_reserved": 0, "fusion_lon": 0.0, "fusion_lat": 0.0, "lon": -77.041534, "name": "b9edf636c0d0171666208263a3686f67"}, {"bike_id": "e85b4efb67e4f9168c92f290055e199d", "type": "electric_bike", "is_disabled": 0, "lat": 39.051067833333335, "rental_uris": {"ios": "https://dc.lft.to/lastmile_qr_scan", "android": "https://dc.lft.to/lastmile_qr_scan"}, "is_reserved": 0, "fusion_lon": 0.0, "fusion_lat": 0.0, "lon": -77.1175215, "name": "e85b4efb67e4f9168c92f290055e199d"}, {"bike_id": "ba31e1b246c3729e4d86d90b5fbc3167", "type": "electric_scooter", "is_disabled": 0, "lat": 38.90562883333333, "rental_uris": {"ios": "https://dc.lft.to/lastmile_qr_scan", "android": "https://dc.lft.to/lastmile_qr_scan"}, "is_reserved": 0, "fusion_lon": 0.0, "fusion_lat": 0.0, "lon": -77.0418205, "name": "ba31e1b246c3729e4d86d90b5fbc3167"}, {"bike_id": "a262449bb46f164fc0135009e593bd66", "type": "electric_scooter", "is_disabled": 0, "lat": 38.8951545, "rental_uris": {"ios": "https://dc.lft.to/lastmile_qr_scan", "android": "https://dc.lft.to/lastmile_qr_scan"}, "is_reserved": 0, "fusion_lon": 0.0, "fusion_lat": 0.0, "lon": -77.0433165, "name": "a262449bb46f164fc0135009e593bd66"}, {"bike_id": "b91b1ad337cedb73622e437c6d9bfe86", "type": "electric_scooter", "is_disabled": 0, "lat": 38.92231983333333, "rental_uris": {"ios": "https://dc.lft.to/lastmile_qr_scan", "android": "https://dc.lft.to/lastmile_qr_scan"}, "is_reserved": 0, "fusion_lon": 0.0, "fusion_lat": 0.0, "lon": -76.975323, "name": "b91b1ad337cedb73622e437c6d9bfe86"}, {"bike_id": "035bd9d05fa5bce3e712a8581c2073da", "type": "electric_scooter", "is_disabled": 0, "lat": 38.911091, "rental_uris": {"ios": "https://dc.lft.to/lastmile_qr_scan", "android": "https://dc.lft.to/lastmile_qr_scan"}, "is_reserved": 0, "fusion_lon": 0.0, "fusion_lat": 0.0, "lon": -77.027686, "name": "035bd9d05fa5bce3e712a8581c2073da"}, {"bike_id": "ee0498ca3e288a2b3930879e82fcb5e3", "type": "electric_scooter", "is_disabled": 0, "lat": 38.9331775, "rental_uris": {"ios": "https://dc.lft.to/lastmile_qr_scan", "android": "https://dc.lft.to/lastmile_qr_scan"}, "is_reserved": 0, "fusion_lon": 0.0, "fusion_lat": 0.0, "lon": -77.0275705, "name": "ee0498ca3e288a2b3930879e82fcb5e3"}, {"bike_id": "b35313a25abd8e1d9198f00fb9c96c8d", "type": "electric_scooter", "is_disabled": 0, "lat": 38.903586, "rental_uris": {"ios": "https://dc.lft.to/lastmile_qr_scan", "android": "https://dc.lft.to/lastmile_qr_scan"}, "is_reserved": 0, "fusion_lon": 0.0, "fusion_lat": 0.0, "lon": -76.9922095, "name": "b35313a25abd8e1d9198f00fb9c96c8d"}, {"bike_id": "b032024073077b422686ddcc14b11fdb", "type": "electric_scooter", "is_disabled": 0, "lat": 38.920993, "rental_uris": {"ios": "https://dc.lft.to/lastmile_qr_scan", "android": "https://dc.lft.to/lastmile_qr_scan"}, "is_reserved": 0, "fusion_lon": 0.0, "fusion_lat": 0.0, "lon": -77.01716016666667, "name": "b032024073077b422686ddcc14b11fdb"}, {"bike_id": "4c5b6bcfb26367f20fdcf6225e86c31a", "type": "electric_scooter", "is_disabled": 0, "lat": 38.91925666666667, "rental_uris": {"ios": "https://dc.lft.to/lastmile_qr_scan", "android": "https://dc.lft.to/lastmile_qr_scan"}, "is_reserved": 0, "fusion_lon": 0.0, "fusion_lat": 0.0, "lon": -77.03424883333334, "name": "4c5b6bcfb26367f20fdcf6225e86c31a"}, {"bike_id": "b98a42d3f7199c06f897351584b1a924", "type": "electric_scooter", "is_disabled": 0, "lat": 38.9063675, "rental_uris": {"ios": "https://dc.lft.to/lastmile_qr_scan", "android": "https://dc.lft.to/lastmile_qr_scan"}, "is_reserved": 0, "fusion_lon": 0.0, "fusion_lat": 0.0, "lon": -77.02501366666667, "name": "b98a42d3f7199c06f897351584b1a924"}, {"bike_id": "90ce11c4fdb9b5613809656c6a7b0322", "type": "electric_scooter", "is_disabled": 0, "lat": 38.92468516666667, "rental_uris": {"ios": "https://dc.lft.to/lastmile_qr_scan", "android": "https://dc.lft.to/lastmile_qr_scan"}, "is_reserved": 0, "fusion_lon": 0.0, "fusion_lat": 0.0, "lon": -77.02249866666666, "name": "90ce11c4fdb9b5613809656c6a7b0322"}, {"bike_id": "d79687b36d23793636a3e69d213cafb8", "type": "electric_bike", "is_disabled": 0, "lat": 38.954037666666665, "rental_uris": {"ios": "https://dc.lft.to/lastmile_qr_scan", "android": "https://dc.lft.to/lastmile_qr_scan"}, "is_reserved": 0, "fusion_lon": 0.0, "fusion_lat": 0.0, "lon": -76.98046733333334, "name": "d79687b36d23793636a3e69d213cafb8"}, {"bike_id": "7ca79173fc99d76bba8fadaa2b021112", "type": "electric_scooter", "is_disabled": 0, "lat": 38.90768533333333, "rental_uris": {"ios": "https://dc.lft.to/lastmile_qr_scan", "android": "https://dc.lft.to/lastmile_qr_scan"}, "is_reserved": 0, "fusion_lon": 0.0, "fusion_lat": 0.0, "lon": -77.03858333333334, "name": "7ca79173fc99d76bba8fadaa2b021112"}, {"bike_id": "27ed11dfd2fa4a66497257fcca9adfa3", "type": "electric_scooter", "is_disabled": 0, "lat": 38.91459416666667, "rental_uris": {"ios": "https://dc.lft.to/lastmile_qr_scan", "android": "https://dc.lft.to/lastmile_qr_scan"}, "is_reserved": 0, "fusion_lon": 0.0, "fusion_lat": 0.0, "lon": -77.07105016666667, "name": "27ed11dfd2fa4a66497257fcca9adfa3"}, {"bike_id": "ae6782e85913b24f0ad2dffbbdda331f", "type": "electric_scooter", "is_disabled": 0, "lat": 38.925419166666664, "rental_uris": {"ios": "https://dc.lft.to/lastmile_qr_scan", "android": "https://dc.lft.to/lastmile_qr_scan"}, "is_reserved": 0, "fusion_lon": 0.0, "fusion_lat": 0.0, "lon": -77.0412655, "name": "ae6782e85913b24f0ad2dffbbdda331f"}, {"bike_id": "ad96b6ff608ae0d1ef414d678c1838f2", "type": "electric_scooter", "is_disabled": 0, "lat": 38.904878833333335, "rental_uris": {"ios": "https://dc.lft.to/lastmile_qr_scan", "android": "https://dc.lft.to/lastmile_qr_scan"}, "is_reserved": 0, "fusion_lon": 0.0, "fusion_lat": 0.0, "lon": -77.05362383333333, "name": "ad96b6ff608ae0d1ef414d678c1838f2"}, {"bike_id": "d202226392c0edb7b20d8907052e00e9", "type": "electric_scooter", "is_disabled": 0, "lat": 38.93903383333333, "rental_uris": {"ios": "https://dc.lft.to/lastmile_qr_scan", "android": "https://dc.lft.to/lastmile_qr_scan"}, "is_reserved": 0, "fusion_lon": 0.0, "fusion_lat": 0.0, "lon": -77.01677366666667, "name": "d202226392c0edb7b20d8907052e00e9"}, {"bike_id": "21ef4ea27e39b8efe259c06035a98bf6", "type": "electric_bike", "is_disabled": 0, "lat": 38.83549266666667, "rental_uris": {"ios": "https://dc.lft.to/lastmile_qr_scan", "android": "https://dc.lft.to/lastmile_qr_scan"}, "is_reserved": 0, "fusion_lon": 0.0, "fusion_lat": 0.0, "lon": -77.001154, "name": "21ef4ea27e39b8efe259c06035a98bf6"}, {"bike_id": "8c90c2a3f751964d6c5f0259ee515f3d", "type": "electric_scooter", "is_disabled": 0, "lat": 38.896092333333335, "rental_uris": {"ios": "https://dc.lft.to/lastmile_qr_scan", "android": "https://dc.lft.to/lastmile_qr_scan"}, "is_reserved": 0, "fusion_lon": 0.0, "fusion_lat": 0.0, "lon": -77.00330983333333, "name": "8c90c2a3f751964d6c5f0259ee515f3d"}, {"bike_id": "f32423d0d19c6670faba71741f6ad5c2", "type": "electric_scooter", "is_disabled": 0, "lat": 38.91873416666667, "rental_uris": {"ios": "https://dc.lft.to/lastmile_qr_scan", "android": "https://dc.lft.to/lastmile_qr_scan"}, "is_reserved": 0, "fusion_lon": 0.0, "fusion_lat": 0.0, "lon": -77.01211933333333, "name": "f32423d0d19c6670faba71741f6ad5c2"}, {"bike_id": "336f31c181090bbe9c7194e103c552e7", "type": "electric_scooter", "is_disabled": 0, "lat": 38.89902283333333, "rental_uris": {"ios": "https://dc.lft.to/lastmile_qr_scan", "android": "https://dc.lft.to/lastmile_qr_scan"}, "is_reserved": 0, "fusion_lon": 0.0, "fusion_lat": 0.0, "lon": -76.976969, "name": "336f31c181090bbe9c7194e103c552e7"}, {"bike_id": "f0f4ec54b824c72e41bfde3c1d463a5e", "type": "electric_scooter", "is_disabled": 0, "lat": 38.92371633333333, "rental_uris": {"ios": "https://dc.lft.to/lastmile_qr_scan", "android": "https://dc.lft.to/lastmile_qr_scan"}, "is_reserved": 0, "fusion_lon": 0.0, "fusion_lat": 0.0, "lon": -77.05028383333334, "name": "f0f4ec54b824c72e41bfde3c1d463a5e"}, {"bike_id": "369947ba5d3890e23fe3941210969491", "type": "electric_bike", "is_disabled": 0, "lat": 38.831605, "rental_uris": {"ios": "https://dc.lft.to/lastmile_qr_scan", "android": "https://dc.lft.to/lastmile_qr_scan"}, "is_reserved": 0, "fusion_lon": 0.0, "fusion_lat": 0.0, "lon": -76.99545933333333, "name": "369947ba5d3890e23fe3941210969491"}, {"bike_id": "1a499563e9d6ff55cfd15e90e9973bd0", "type": "electric_scooter", "is_disabled": 0, "lat": 38.898476333333335, "rental_uris": {"ios": "https://dc.lft.to/lastmile_qr_scan", "android": "https://dc.lft.to/lastmile_qr_scan"}, "is_reserved": 0, "fusion_lon": 0.0, "fusion_lat": 0.0, "lon": -77.02206716666667, "name": "1a499563e9d6ff55cfd15e90e9973bd0"}, {"bike_id": "2c191af91b139e0424d321461b1b4be2", "type": "electric_scooter", "is_disabled": 0, "lat": 38.94621766666667, "rental_uris": {"ios": "https://dc.lft.to/lastmile_qr_scan", "android": "https://dc.lft.to/lastmile_qr_scan"}, "is_reserved": 0, "fusion_lon": 0.0, "fusion_lat": 0.0, "lon": -77.0723485, "name": "2c191af91b139e0424d321461b1b4be2"}, {"bike_id": "3f038ddec0c50fccda3d70f4f3248056", "type": "electric_scooter", "is_disabled": 0, "lat": 38.90969716666667, "rental_uris": {"ios": "https://dc.lft.to/lastmile_qr_scan", "android": "https://dc.lft.to/lastmile_qr_scan"}, "is_reserved": 0, "fusion_lon": 0.0, "fusion_lat": 0.0, "lon": -77.04544783333333, "name": "3f038ddec0c50fccda3d70f4f3248056"}, {"bike_id": "15b6fb36e7fcf48095d46a70ceb8356e", "type": "electric_scooter", "is_disabled": 0, "lat": 38.911503833333335, "rental_uris": {"ios": "https://dc.lft.to/lastmile_qr_scan", "android": "https://dc.lft.to/lastmile_qr_scan"}, "is_reserved": 0, "fusion_lon": 0.0, "fusion_lat": 0.0, "lon": -77.02947566666667, "name": "15b6fb36e7fcf48095d46a70ceb8356e"}, {"bike_id": "3a00bdafdcdc5462e4c2401a8246dc36", "type": "electric_scooter", "is_disabled": 0, "lat": 38.8975155, "rental_uris": {"ios": "https://dc.lft.to/lastmile_qr_scan", "android": "https://dc.lft.to/lastmile_qr_scan"}, "is_reserved": 0, "fusion_lon": 0.0, "fusion_lat": 0.0, "lon": -77.02504566666667, "name": "3a00bdafdcdc5462e4c2401a8246dc36"}, {"bike_id": "3ddceb4535b25bdae55eaeefe36d11f9", "type": "electric_scooter", "is_disabled": 0, "lat": 38.91348333333333, "rental_uris": {"ios": "https://dc.lft.to/lastmile_qr_scan", "android": "https://dc.lft.to/lastmile_qr_scan"}, "is_reserved": 0, "fusion_lon": 0.0, "fusion_lat": 0.0, "lon": -77.00892066666667, "name": "3ddceb4535b25bdae55eaeefe36d11f9"}, {"bike_id": "b1701b4f9851769f10e08c83ed597855", "type": "electric_scooter", "is_disabled": 0, "lat": 38.900841166666666, "rental_uris": {"ios": "https://dc.lft.to/lastmile_qr_scan", "android": "https://dc.lft.to/lastmile_qr_scan"}, "is_reserved": 0, "fusion_lon": 0.0, "fusion_lat": 0.0, "lon": -77.030842, "name": "b1701b4f9851769f10e08c83ed597855"}, {"bike_id": "90b5a97aa6d25913403edf587cc3d10a", "type": "electric_scooter", "is_disabled": 0, "lat": 38.91403366666667, "rental_uris": {"ios": "https://dc.lft.to/lastmile_qr_scan", "android": "https://dc.lft.to/lastmile_qr_scan"}, "is_reserved": 0, "fusion_lon": 0.0, "fusion_lat": 0.0, "lon": -77.031409, "name": "90b5a97aa6d25913403edf587cc3d10a"}, {"bike_id": "853ee12ffdfb6a18758edb89d3c22906", "type": "electric_scooter", "is_disabled": 0, "lat": 38.922578666666666, "rental_uris": {"ios": "https://dc.lft.to/lastmile_qr_scan", "android": "https://dc.lft.to/lastmile_qr_scan"}, "is_reserved": 0, "fusion_lon": 0.0, "fusion_lat": 0.0, "lon": -77.03520716666667, "name": "853ee12ffdfb6a18758edb89d3c22906"}, {"bike_id": "797bbb37d3cd360526ef92a9c14849b4", "type": "electric_scooter", "is_disabled": 0, "lat": 38.913333333333334, "rental_uris": {"ios": "https://dc.lft.to/lastmile_qr_scan", "android": "https://dc.lft.to/lastmile_qr_scan"}, "is_reserved": 0, "fusion_lon": 0.0, "fusion_lat": 0.0, "lon": -77.03991466666666, "name": "797bbb37d3cd360526ef92a9c14849b4"}, {"bike_id": "dd4c2cad6e8d5385503f4443dc7148cd", "type": "electric_scooter", "is_disabled": 0, "lat": 38.916132, "rental_uris": {"ios": "https://dc.lft.to/lastmile_qr_scan", "android": "https://dc.lft.to/lastmile_qr_scan"}, "is_reserved": 0, "fusion_lon": 0.0, "fusion_lat": 0.0, "lon": -77.03386716666667, "name": "dd4c2cad6e8d5385503f4443dc7148cd"}, {"bike_id": "f3de26cd1349799380e3bd5a9d66601f", "type": "electric_scooter", "is_disabled": 0, "lat": 38.92390616666667, "rental_uris": {"ios": "https://dc.lft.to/lastmile_qr_scan", "android": "https://dc.lft.to/lastmile_qr_scan"}, "is_reserved": 0, "fusion_lon": 0.0, "fusion_lat": 0.0, "lon": -77.044714, "name": "f3de26cd1349799380e3bd5a9d66601f"}, {"bike_id": "467d286ef788a5fc3d05abaca4e4509d", "type": "electric_bike", "is_disabled": 0, "lat": 38.80764283333333, "rental_uris": {"ios": "https://dc.lft.to/lastmile_qr_scan", "android": "https://dc.lft.to/lastmile_qr_scan"}, "is_reserved": 0, "fusion_lon": 0.0, "fusion_lat": 0.0, "lon": -77.09466283333333, "name": "467d286ef788a5fc3d05abaca4e4509d"}, {"bike_id": "c155b30327956062c909b9b4f8a326ea", "type": "electric_scooter", "is_disabled": 0, "lat": 38.91995283333333, "rental_uris": {"ios": "https://dc.lft.to/lastmile_qr_scan", "android": "https://dc.lft.to/lastmile_qr_scan"}, "is_reserved": 0, "fusion_lon": 0.0, "fusion_lat": 0.0, "lon": -77.01778016666667, "name": "c155b30327956062c909b9b4f8a326ea"},