{"data": {"bikes": [{"lat": 38.86656083333333, "is_disabled": 0, "type": "electric_scooter", "lon": -76.98881183333333, "bike_id": "c0b722ec8add39113de45c6155d61fc4", "fusion_lat": 0.0, "name": "c0b722ec8add39113de45c6155d61fc4", "is_reserved": 0, "rental_uris": {"android": "https://dc.lft.to/lastmile_qr_scan", "ios": "https://dc.lft.to/lastmile_qr_scan"}, "fusion_lon": 0.0}, {"lat": 38.905679166666665, "is_disabled": 0, "type": "electric_scooter", "lon": -77.005814, "bike_id": "cb1f1de0a71b02b361610e788f754d2c", "fusion_lat": 0.0, "name": "cb1f1de0a71b02b361610e788f754d2c", "is_reserved": 0, "rental_uris": {"android": "https://dc.lft.to/lastmile_qr_scan", "ios": "https://dc.lft.to/lastmile_qr_scan"}, "fusion_lon": 0.0}, {"lat": 38.90389066666667, "is_disabled": 0, "type": "electric_scooter", "lon": -77.02158666666666, "bike_id": "11cfe00b3f5a822700368aa99828f1ed", "fusion_lat": 0.0, "name": "11cfe00b3f5a822700368aa99828f1ed", "is_reserved": 0, "rental_uris": {"android": "https://dc.lft.to/lastmile_qr_scan", "ios": "https://dc.lft.to/lastmile_qr_scan"}, "fusion_lon": 0.0}, {"lat": 38.87133083333333, "is_disabled": 0, "type": "electric_scooter", "lon": -77.00782183333334, "bike_id": "a33c572dedddc7df01c105be721f9ae1", "fusion_lat": 0.0, "name": "a33c572dedddc7df01c105be721f9ae1", "is_reserved": 0, "rental_uris": {"android": "https://dc.lft.to/lastmile_qr_scan", "ios": "https://dc.lft.to/lastmile_qr_scan"}, "fusion_lon": 0.0}, {"lat": 39.000131, "is_disabled": 0, "type": "electric_bike", "lon": -76.91075583333334, "bike_id": "3eca65a1198b34046a0bd510438b1583", "fusion_lat": 0.0, "name": "3eca65a1198b34046a0bd510438b1583", "is_reserved": 0, "rental_uris": {"android": "https://dc.lft.to/lastmile_qr_scan", "ios": "https://dc.lft.to/lastmile_qr_scan"}, "fusion_lon": 0.0}, {"lat": 38.828768833333335, "is_disabled": 0, "type": "electric_bike", "lon": -77.11217066666667, "bike_id": "de0ad293fa443dfca1984f6465364af3", "fusion_lat": 0.0, "name": "de0ad293fa443dfca1984f6465364af3", "is_reserved": 0, "rental_uris": {"android": "https://dc.lft.to/lastmile_qr_scan", "ios": "https://dc.lft.to/lastmile_qr_scan"}, "fusion_lon": 0.0}, {"lat": 38.95618983333333, "is_disabled": 0, "type": "electric_scooter", "lon": -77.0278585, "bike_id": "941f99661779646a2e4bf17b46d1fefe", "fusion_lat": 0.0, "name": "941f99661779646a2e4bf17b46d1fefe", "is_reserved": 0, "rental_uris": {"android": "https://dc.lft.to/lastmile_qr_scan", "ios": "https://dc.lft.to/lastmile_qr_scan"}, "fusion_lon": 0.0}, {"lat": 38.90975666666667, "is_disabled": 0, "type": "electric_scooter", "lon": -76.99725716666667, "bike_id": "8ccfe9c68a3ed16ec8fd98fe0ceeee2f", "fusion_lat": 0.0, "name": "8ccfe9c68a3ed16ec8fd98fe0ceeee2f", "is_reserved": 0, "rental_uris": {"android": "https://dc.lft.to/lastmile_qr_scan", "ios": "https://dc.lft.to/lastmile_qr_scan"}, "fusion_lon": 0.0}, {"lat": 38.90189433333333, "is_disabled": 0, "type": "electric_scooter", "lon": -77.02387766666666, "bike_id": "69064bd40b5f80e9adc758fb9e56298c", "fusion_lat": 0.0, "name": "69064bd40b5f80e9adc758fb9e56298c", "is_reserved": 0, "rental_uris": {"android": "https://dc.lft.to/lastmile_qr_scan", "ios": "https://dc.lft.to/lastmile_qr_scan"}, "fusion_lon": 0.0}, {"lat": 38.91890216666667, "is_disabled": 0, "type": "electric_scooter", "lon": -77.03905116666667, "bike_id": "8f5a2d291ff6c6493ebad2e5775db98d", "fusion_lat": 0.0, "name": "8f5a2d291ff6c6493ebad2e5775db98d", "is_reserved": 0, "rental_uris": {"android": "https://dc.lft.to/lastmile_qr_scan", "ios": "https://dc.lft.to/lastmile_qr_scan"}, "fusion_lon": 0.0}, {"lat": 38.88661233333333, "is_disabled": 0, "type": "electric_bike", "lon": -77.1623165, "bike_id": "48b4113f0f06182945612106247349f8", "fusion_lat": 0.0, "name": "48b4113f0f06182945612106247349f8", "is_reserved": 0, "rental_uris": {"android": "https://dc.lft.to/lastmile_qr_scan", "ios": "https://dc.lft.to/lastmile_qr_scan"}, "fusion_lon": 0.0}, {"lat": 38.90152633333334, "is_disabled": 0, "type": "electric_scooter", "lon": -77.04168766666666, "bike_id": "5c171aec0f62724b93a15f6a8d5e7b9c", "fusion_lat": 0.0, "name": "5c171aec0f62724b93a15f6a8d5e7b9c", "is_reserved": 0, "rental_uris": {"android": "https://dc.lft.to/lastmile_qr_scan", "ios": "https://dc.lft.to/lastmile_qr_scan"}, "fusion_lon": 0.0}, {"lat": 38.9284645, "is_disabled": 0, "type": "electric_scooter", "lon": -77.0140705, "bike_id": "d9a67575077c8f4c72e8ca9234d4a1b3", "fusion_lat": 0.0, "name": "d9a67575077c8f4c72e8ca9234d4a1b3", "is_reserved": 0, "rental_uris": {"android": "https://dc.lft.to/lastmile_qr_scan", "ios": "https://dc.lft.to/lastmile_qr_scan"}, "fusion_lon": 0.0}, {"lat": 38.902249833333336, "is_disabled": 0, "type": "electric_scooter", "lon": -77.0469855, "bike_id": "b7157adac75996a8bb260cccc7a95310", "fusion_lat": 0.0, "name": "b7157adac75996a8bb260cccc7a95310", "is_reserved": 0, "rental_uris": {"android": "https://dc.lft.to/lastmile_qr_scan", "ios": "https://dc.lft.to/lastmile_qr_scan"}, "fusion_lon": 0.0}, {"lat": 38.92154816666667, "is_disabled": 0, "type": "electric_scooter", "lon": -77.04210583333334, "bike_id": "f757bfbf928e48351f9fbbe11d24a6e5", "fusion_lat": 0.0, "name": "f757bfbf928e48351f9fbbe11d24a6e5", "is_reserved": 0, "rental_uris": {"android": "https://dc.lft.to/lastmile_qr_scan", "ios": "https://dc.lft.to/lastmile_qr_scan"}, "fusion_lon": 0.0}, {"lat": 38.914127, "is_disabled": 0, "type": "electric_scooter", "lon": -77.0305485, "bike_id": "e220b2c5f901b3c8cc1e5bec967618d5", "fusion_lat": 0.0, "name": "e220b2c5f901b3c8cc1e5bec967618d5", "is_reserved": 0, "rental_uris": {"android": "https://dc.lft.to/lastmile_qr_scan", "ios": "https://dc.lft.to/lastmile_qr_scan"}, "fusion_lon": 0.0}, {"lat": 38.90488166666667, "is_disabled": 0, "type": "electric_scooter", "lon": -77.00776966666666, "bike_id": "b9662a18be7f66ad7d7285cf58dff987", "fusion_lat": 0.0, "name": "b9662a18be7f66ad7d7285cf58dff987", "is_reserved": 0, "rental_uris": {"android": "https://dc.lft.to/lastmile_qr_scan", "ios": "https://dc.lft.to/lastmile_qr_scan"}, "fusion_lon": 0.0}, {"lat": 38.94274383333333, "is_disabled": 0, "type": "electric_scooter", "lon": -77.03256683333333, "bike_id": "5740ded07570ecf6bad755e39ef64c8c", "fusion_lat": 0.0, "name": "5740ded07570ecf6bad755e39ef64c8c", "is_reserved": 0, "rental_uris": {"android": "https://dc.lft.to/lastmile_qr_scan", "ios": "https://dc.lft.to/lastmile_qr_scan"}, "fusion_lon": 0.0}, {"lat": 38.92023583333334, "is_disabled": 0, "type": "electric_scooter", "lon": -77.04194633333333, "bike_id": "57cc34db7208aefe3e03f816e936fae3", "fusion_lat": 0.0, "name": "57cc34db7208aefe3e03f816e936fae3", "is_reserved": 0, "rental_uris": {"android": "https://dc.lft.to/lastmile_qr_scan", "ios": "https://dc.lft.to/lastmile_qr_scan"}, "fusion_lon": 0.0}, {"lat": 38.89613033333333, "is_disabled": 0, "type": "electric_scooter", "lon": -76.955882, "bike_id": "e62c40ce0abe9f43be2da5d3a9361d7d", "fusion_lat": 0.0, "name": "e62c40ce0abe9f43be2da5d3a9361d7d", "is_reserved": 0, "rental_uris": {"android": "https://dc.lft.to/lastmile_qr_scan", "ios": "https://dc.lft.to/lastmile_qr_scan"}, "fusion_lon": 0.0}, {"lat": 38.91061033333333, "is_disabled": 0, "type": "electric_scooter", "lon": -77.045807, "bike_id": "77407b8c1f4cd92eb702ed00026c7761", "fusion_lat": 0.0, "name": "77407b8c1f4cd92eb702ed00026c7761", "is_reserved": 0, "rental_uris": {"android": "https://dc.lft.to/lastmile_qr_scan", "ios": "https://dc.lft.to/lastmile_qr_scan"}, "fusion_lon": 0.0}, {"lat": 38.92420633333333, "is_disabled": 0, "type": "electric_scooter", "lon": -77.0354415, "bike_id": "af3ee0cfc681c03b144b07dc903ff60b", "fusion_lat": 0.0, "name": "af3ee0cfc681c03b144b07dc903ff60b", "is_reserved": 0, "rental_uris": {"android": "https://dc.lft.to/lastmile_qr_scan", "ios": "https://dc.lft.to/lastmile_qr_scan"}, "fusion_lon": 0.0}, {"lat": 38.908379, "is_disabled": 0, "type": "electric_scooter", "lon": -77.028171, "bike_id": "6f72a44b2f9d10603b6c5ef25983eee9", "fusion_lat": 0.0, "name": "6f72a44b2f9d10603b6c5ef25983eee9", "is_reserved": 0, "rental_uris": {"android": "https://dc.lft.to/lastmile_qr_scan", "ios": "https://dc.lft.to/lastmile_qr_scan"}, "fusion_lon": 0.0}, {"lat": 38.930394166666666, "is_disabled": 0, "type": "electric_bike", "lon": -77.08287983333334, "bike_id": "890e2dc27c87faffe40a83153d14f7a1", "fusion_lat": 0.0, "name": "890e2dc27c87faffe40a83153d14f7a1", "is_reserved": 0, "rental_uris": {"android": "https://dc.lft.to/lastmile_qr_scan", "ios": "https://dc.lft.to/lastmile_qr_scan"}, "fusion_lon": 0.0}, {"lat": 38.931170333333334, "is_disabled": 0, "type": "electric_scooter", "lon": -77.038103, "bike_id": "ea6fc4fcd83b1f6431833d227c367f77", "fusion_lat": 0.0, "name": "ea6fc4fcd83b1f6431833d227c367f77", "is_reserved": 0, "rental_uris": {"android": "https://dc.lft.to/lastmile_qr_scan", "ios": "https://dc.lft.to/lastmile_qr_scan"}, "fusion_lon": 0.0}, {"lat": 38.93869266666667, "is_disabled": 0, "type": "electric_scooter", "lon": -77.02566616666667, "bike_id": "eb0390c40fbe8f61e5904165e0cdfc9d", "fusion_lat": 0.0, "name": "eb0390c40fbe8f61e5904165e0cdfc9d", "is_reserved": 0, "rental_uris": {"android": "https://dc.lft.to/lastmile_qr_scan", "ios": "https://dc.lft.to/lastmile_qr_scan"}, "fusion_lon": 0.0}, {"lat": 38.87627783333333, "is_disabled": 0, "type": "electric_scooter", "lon": -77.0147605, "bike_id": "0d28ae26910bfaa4d6702f6a35eafb91", "fusion_lat": 0.0, "name": "0d28ae26910bfaa4d6702f6a35eafb91", "is_reserved": 0, "rental_uris": {"android": "https://dc.lft.to/lastmile_qr_scan", "ios": "https://dc.lft.to/lastmile_qr_scan"}, "fusion_lon": 0.0}, {"lat": 38.90303483333334, "is_disabled": 0, "type": "electric_scooter", "lon": -77.02069033333333, "bike_id": "591f66c173b9471ad5102e9d5a747b2b", "fusion_lat": 0.0, "name": "591f66c173b9471ad5102e9d5a747b2b", "is_reserved": 0, "rental_uris": {"android": "https://dc.lft.to/lastmile_qr_scan", "ios": "https://dc.lft.to/lastmile_qr_scan"}, "fusion_lon": 0.0}, {"lat": 38.919134, "is_disabled": 0, "type": "electric_scooter", "lon": -77.03627116666667, "bike_id": "9bdee9ce3a34104da0414e92bacd8d52", "fusion_lat": 0.0, "name": "9bdee9ce3a34104da0414e92bacd8d52", "is_reserved": 0, "rental_uris": {"android": "https://dc.lft.to/lastmile_qr_scan", "ios": "https://dc.lft.to/lastmile_qr_scan"}, "fusion_lon": 0.0}, {"lat": 38.884359833333335, "is_disabled": 0, "type": "electric_scooter", "lon": -77.0303855, "bike_id": "177f8a30e43dadd04c171b212b43154c", "fusion_lat": 0.0, "name": "177f8a30e43dadd04c171b212b43154c", "is_reserved": 0, "rental_uris": {"android": "https://dc.lft.to/lastmile_qr_scan", "ios": "https://dc.lft.to/lastmile_qr_scan"}, "fusion_lon": 0.0}, {"lat": 38.923715333333334, "is_disabled": 0, "type": "electric_scooter", "lon": -77.0575795, "bike_id": "ee169f5e4e42c6c9f05db6c45903c72b", "fusion_lat": 0.0, "name": "ee169f5e4e42c6c9f05db6c45903c72b", "is_reserved": 0, "rental_uris": {"android": "https://dc.lft.to/lastmile_qr_scan", "ios": "https://dc.lft.to/lastmile_qr_scan"}, "fusion_lon": 0.0}, {"lat": 38.8791045, "is_disabled": 0, "type": "electric_scooter", "lon": -77.02201116666667, "bike_id": "db48e8728b34d045a61400ed4590350d", "fusion_lat": 0.0, "name": "db48e8728b34d045a61400ed4590350d", "is_reserved": 0, "rental_uris": {"android": "https://dc.lft.to/lastmile_qr_scan", "ios": "https://dc.lft.to/lastmile_qr_scan"}, "fusion_lon": 0.0}, {"lat": 38.897196666666666, "is_disabled": 0, "type": "electric_scooter", "lon": -77.007942, "bike_id": "03f320f237857dfe6ad80644188a0293", "fusion_lat": 0.0, "name": "03f320f237857dfe6ad80644188a0293", "is_reserved": 0, "rental_uris": {"android": "https://dc.lft.to/lastmile_qr_scan", "ios": "https://dc.lft.to/lastmile_qr_scan"}, "fusion_lon": 0.0}, {"lat": 38.925802166666664, "is_disabled": 0, "type": "electric_scooter", "lon": -77.0575945, "bike_id": "edd66988f76c3afb3b21fa5f16cea85a", "fusion_lat": 0.0, "name": "edd66988f76c3afb3b21fa5f16cea85a", "is_reserved": 0, "rental_uris": {"android": "https://dc.lft.to/lastmile_qr_scan", "ios": "https://dc.lft.to/lastmile_qr_scan"}, "fusion_lon": 0.0}, {"lat": 38.919937, "is_disabled": 0, "type": "electric_scooter", "lon": -77.03207216666667, "bike_id": "4c40b1f66873ba9ed56bed68b09eee74", "fusion_lat": 0.0, "name": "4c40b1f66873ba9ed56bed68b09eee74", "is_reserved": 0, "rental_uris": {"android": "https://dc.lft.to/lastmile_qr_scan", "ios": "https://dc.lft.to/lastmile_qr_scan"}, "fusion_lon": 0.0}, {"lat": 38.9451465, "is_disabled": 0, "type": "electric_bike", "lon": -77.006727, "bike_id": "da211c2d59ef02eb8f1dd152abb2cf50", "fusion_lat": 0.0, "name": "da211c2d59ef02eb8f1dd152abb2cf50", "is_reserved": 0, "rental_uris": {"android": "https://dc.lft.to/lastmile_qr_scan", "ios": "https://dc.lft.to/lastmile_qr_scan"}, "fusion_lon": 0.0}, {"lat": 38.90566066666667, "is_disabled": 0, "type": "electric_scooter", "lon": -77.03446116666667, "bike_id": "eb917a54b6a7bcec3898ffad3367d949", "fusion_lat": 0.0, "name": "eb917a54b6a7bcec3898ffad3367d949", "is_reserved": 0, "rental_uris": {"android": "https://dc.lft.to/lastmile_qr_scan", "ios": "https://dc.lft.to/lastmile_qr_scan"}, "fusion_lon": 0.0}, {"lat": 38.89394816666667, "is_disabled": 0, "type": "electric_scooter", "lon": -77.02156933333333, "bike_id": "bede8354ce45b814ea2b77afa2c13515", "fusion_lat": 0.0, "name": "bede8354ce45b814ea2b77afa2c13515", "is_reserved": 0, "rental_uris": {"android": "https://dc.lft.to/lastmile_qr_scan", "ios": "https://dc.lft.to/lastmile_qr_scan"}, "fusion_lon": 0.0}, {"lat": 38.863710166666664, "is_disabled": 0, "type": "electric_scooter", "lon": -76.990447, "bike_id": "a542c49eddc54f17079caa62535163d4", "fusion_lat": 0.0, "name": "a542c49eddc54f17079caa62535163d4", "is_reserved": 0, "rental_uris": {"android": "https://dc.lft.to/lastmile_qr_scan", "ios": "https://dc.lft.to/lastmile_qr_scan"}, "fusion_lon": 0.0}, {"lat": 38.89938883333333, "is_disabled": 0, "type": "electric_scooter", "lon": -77.05407216666667, "bike_id": "201ae86241cd3eaee0ba6cdda884ca6d", "fusion_lat": 0.0, "name": "201ae86241cd3eaee0ba6cdda884ca6d", "is_reserved": 0, "rental_uris": {"android": "https://dc.lft.to/lastmile_qr_scan", "ios": "https://dc.lft.to/lastmile_qr_scan"}, "fusion_lon": 0.0}, {"lat": 38.887085, "is_disabled": 0, "type": "electric_scooter", "lon": -77.03213416666667, "bike_id": "bcbfe5c2e4a4ee988b8acda4969d6f68", "fusion_lat": 0.0, "name": "bcbfe5c2e4a4ee988b8acda4969d6f68", "is_reserved": 0, "rental_uris": {"android": "https://dc.lft.to/lastmile_qr_scan", "ios": "https://dc.lft.to/lastmile_qr_scan"}, "fusion_lon": 0.0}, {"lat": 38.94326683333333, "is_disabled": 0, "type": "electric_scooter", "lon": -77.07382516666667, "bike_id": "42042abcf40135826bff97f3774aabfb", "fusion_lat": 0.0, "name": "42042abcf40135826bff97f3774aabfb", "is_reserved": 0, "rental_uris": {"android": "https://dc.lft.to/lastmile_qr_scan", "ios": "https://dc.lft.to/lastmile_qr_scan"}, "fusion_lon": 0.0}, {"lat": 38.93110433333333, "is_disabled": 0, "type": "electric_scooter", "lon": -77.034935, "bike_id": "519a90357073ee738e186face9436765", "fusion_lat": 0.0, "name": "519a90357073ee738e186face9436765", "is_reserved": 0, "rental_uris": {"android": "https://dc.lft.to/lastmile_qr_scan", "ios": "https://dc.lft.to/lastmile_qr_scan"}, "fusion_lon": 0.0}, {"lat": 38.926972, "is_disabled": 0, "type": "electric_scooter", "lon": -77.02574216666666, "bike_id": "cd0fabb672edb3f887b495f27c3f1a84", "fusion_lat": 0.0, "name": "cd0fabb672edb3f887b495f27c3f1a84", "is_reserved": 0, "rental_uris": {"android": "https://dc.lft.to/lastmile_qr_scan", "ios": "https://dc.lft.to/lastmile_qr_scan"}, "fusion_lon": 0.0}, {"lat": 38.92840566666667, "is_disabled": 0, "type": "electric_scooter", "lon": -76.99847616666666, "bike_id": "6c27af14994a7ff1616cfd19094f2ba5", "fusion_lat": 0.0, "name": "6c27af14994a7ff1616cfd19094f2ba5", "is_reserved": 0, "rental_uris": {"android": "https://dc.lft.to/lastmile_qr_scan", "ios": "https://dc.lft.to/lastmile_qr_scan"}, "fusion_lon": 0.0}, {"lat": 38.92246933333333, "is_disabled": 0, "type": "electric_scooter", "lon": -77.03079583333333, "bike_id": "749e8ac366b5f1d77391932161cfbbbe", "fusion_lat": 0.0, "name": "749e8ac366b5f1d77391932161cfbbbe", "is_reserved": 0, "rental_uris": {"android": "https://dc.lft.to/lastmile_qr_scan", "ios": "https://dc.lft.to/lastmile_qr_scan"}, "fusion_lon": 0.0}, {"lat": 38.928883166666665, "is_disabled": 0, "type": "electric_scooter", "lon": -77.0257585, "bike_id": "dfc1c406cf33021e0c129261251f11bc", "fusion_lat": 0.0, "name": "dfc1c406cf33021e0c129261251f11bc", "is_reserved": 0, "rental_uris": {"android": "https://dc.lft.to/lastmile_qr_scan", "ios": "https://dc.lft.to/lastmile_qr_scan"}, "fusion_lon": 0.0}, {"lat": 38.8708975, "is_disabled": 0, "type": "electric_scooter", "lon": -77.01183183333333, "bike_id": "69b452b61ee8d440062183beb100db68", "fusion_lat": 0.0, "name": "69b452b61ee8d440062183beb100db68", "is_reserved": 0, "rental_uris": {"android": "https://dc.lft.to/lastmile_qr_scan", "ios": "https://dc.lft.to/lastmile_qr_scan"}, "fusion_lon": 0.0}, {"lat": 38.93935066666667, "is_disabled": 0, "type": "electric_scooter", "lon": -77.02212633333333, "bike_id": "43765ef055bbff05ab475281b95295b2", "fusion_lat": 0.0, "name": "43765ef055bbff05ab475281b95295b2", "is_reserved": 0, "rental_uris": {"android": "https://dc.lft.to/lastmile_qr_scan", "ios": "https://dc.lft.to/lastmile_qr_scan"}, "fusion_lon": 0.0}, {"lat": 38.939849333333335, "is_disabled": 0, "type": "electric_scooter", "lon": -77.03265666666667, "bike_id": "1870c2b3a04babd83a89a5ac74335df8", "fusion_lat": 0.0, "name": "1870c2b3a04babd83a89a5ac74335df8", "is_reserved": 0, "rental_uris": {"android": "https://dc.lft.to/lastmile_qr_scan", "ios": "https://dc.lft.to/lastmile_qr_scan"}, "fusion_lon": 0.0}, {"lat": 38.883033833333336, "is_disabled": 0, "type": "electric_scooter", "lon": -76.9821745, "bike_id": "759268ae6fe449f2897fa9ac77875dd3", "fusion_lat": 0.0, "name": "759268ae6fe449f2897fa9ac77875dd3", "is_reserved": 0, "rental_uris": {"android": "https://dc.lft.to/lastmile_qr_scan", "ios": "https://dc.lft.to/lastmile_qr_scan"}, "fusion_lon": 0.0}, {"lat": 38.863700333333334, "is_disabled": 0, "type": "electric_scooter", "lon": -76.99046566666667, "bike_id": "33aa6692f4c3ac51ce8f5f53f80db8cd", "fusion_lat": 0.0, "name": "33aa6692f4c3ac51ce8f5f53f80db8cd", "is_reserved": 0, "rental_uris": {"android": "https://dc.lft.to/lastmile_qr_scan", "ios": "https://dc.lft.to/lastmile_qr_scan"}, "fusion_lon": 0.0}, {"lat": 38.95185933333333, "is_disabled": 0, "type": "electric_bike", "lon": -76.93543633333333, "bike_id": "6ea05e6c5e3791e7652338fd94366b3e", "fusion_lat": 0.0, "name": "6ea05e6c5e3791e7652338fd94366b3e", "is_reserved": 0, "rental_uris": {"android": "https://dc.lft.to/lastmile_qr_scan", "ios": "https://dc.lft.to/lastmile_qr_scan"}, "fusion_lon": 0.0}, {"lat": 38.877314, "is_disabled": 0, "type": "electric_bike", "lon": -77.11844066666667, "bike_id": "85157ebc07bbe2bf0a7a9323482103d6", "fusion_lat": 0.0, "name": "85157ebc07bbe2bf0a7a9323482103d6", "is_reserved": 0, "rental_uris": {"android": "https://dc.lft.to/lastmile_qr_scan", "ios": "https://dc.lft.to/lastmile_qr_scan"}, "fusion_lon": 0.0}, {"lat": 38.91890466666667, "is_disabled": 0, "type": "electric_scooter", "lon": -77.0418045, "bike_id": "636b6e6eca856483d8bea3308cb51234", "fusion_lat": 0.0, "name": "636b6e6eca856483d8bea3308cb51234", "is_reserved": 0, "rental_uris": {"android": "https://dc.lft.to/lastmile_qr_scan", "ios": "https://dc.lft.to/lastmile_qr_scan"}, "fusion_lon": 0.0}, {"lat": 38.90495116666666, "is_disabled": 0, "type": "electric_scooter", "lon": -77.0072075, "bike_id": "93a63b73139b80bdf573581ba491ce7c", "fusion_lat": 0.0, "name": "93a63b73139b80bdf573581ba491ce7c", "is_reserved": 0, "rental_uris": {"android": "https://dc.lft.to/lastmile_qr_scan", "ios": "https://dc.lft.to/lastmile_qr_scan"}, "fusion_lon": 0.0}, {"lat": 38.911834, "is_disabled": 0, "type": "electric_bike", "lon": -77.00276516666666, "bike_id": "6926932170f47f5a93b4d504ebca3330", "fusion_lat": 0.0, "name": "6926932170f47f5a93b4d504ebca3330", "is_reserved": 0, "rental_uris": {"android": "https://dc.lft.to/lastmile_qr_scan", "ios": "https://dc.lft.to/lastmile_qr_scan"}, "fusion_lon": 0.0}, {"lat": 38.91615316666667, "is_disabled": 0, "type": "electric_scooter", "lon": -77.03271516666666, "bike_id": "3e8afd982cb4ae6837f07eb2e78852d9", "fusion_lat": 0.0, "name": "3e8afd982cb4ae6837f07eb2e78852d9", "is_reserved": 0, "rental_uris": {"android": "https://dc.lft.to/lastmile_qr_scan", "ios": "https://dc.lft.to/lastmile_qr_scan"}, "fusion_lon": 0.0}, {"lat": 38.91983666666667, "is_disabled": 0, "type": "electric_scooter", "lon": -77.0366725, "bike_id": "513776206eaf0db0dbc44013818a6b13", "fusion_lat": 0.0, "name": "513776206eaf0db0dbc44013818a6b13", "is_reserved": 0, "rental_uris": {"android": "https://dc.lft.to/lastmile_qr_scan", "ios": "https://dc.lft.to/lastmile_qr_scan"}, "fusion_lon": 0.0}, {"lat": 38.8368515, "is_disabled": 0, "type": "electric_scooter", "lon": -77.103034, "bike_id": "3605be3a72d669d4d3c21dbe2aac2f53", "fusion_lat": 0.0, "name": "3605be3a72d669d4d3c21dbe2aac2f53", "is_reserved": 0, "rental_uris": {"android": "https://dc.lft.to/lastmile_qr_scan", "ios": "https://dc.lft.to/lastmile_qr_scan"}, "fusion_lon": 0.0}, {"lat": 38.9308875, "is_disabled": 0, "type": "electric_scooter", "lon": -77.02505583333334, "bike_id": "05377de8f1f302ea4f2b33d892ae6cc6", "fusion_lat": 0.0, "name": "05377de8f1f302ea4f2b33d892ae6cc6", "is_reserved": 0, "rental_uris": {"android": "https://dc.lft.to/lastmile_qr_scan", "ios": "https://dc.lft.to/lastmile_qr_scan"}, "fusion_lon": 0.0}, {"lat": 38.845781833333334, "is_disabled": 0, "type": "electric_bike", "lon": -77.09618733333333, "bike_id": "64b3c603125187cf5d2c6b9467aad728", "fusion_lat": 0.0, "name": "64b3c603125187cf5d2c6b9467aad728", "is_reserved": 0, "rental_uris": {"android": "https://dc.lft.to/lastmile_qr_scan", "ios": "https://dc.lft.to/lastmile_qr_scan"}, "fusion_lon": 0.0}, {"lat": 38.92158716666667, "is_disabled": 0, "type": "electric_scooter", "lon": -77.033174, "bike_id": "03870304a81a70db82ad5e885d6b4ab7", "fusion_lat": 0.0, "name": "03870304a81a70db82ad5e885d6b4ab7", "is_reserved": 0, "rental_uris": {"android": "https://dc.lft.to/lastmile_qr_scan", "ios": "https://dc.lft.to/lastmile_qr_scan"}, "fusion_lon": 0.0}, {"lat": 38.90032266666667, "is_disabled": 0, "type": "electric_scooter", "lon": -76.9880655, "bike_id": "fb1f33a0d0d1349ae7a212fe55e81732", "fusion_lat": 0.0, "name": "fb1f33a0d0d1349ae7a212fe55e81732", "is_reserved": 0, "rental_uris": {"android": "https://dc.lft.to/lastmile_qr_scan", "ios": "https://dc.lft.to/lastmile_qr_scan"}, "fusion_lon": 0.0}, {"lat": 38.90162383333333, "is_disabled": 0, "type": "electric_scooter", "lon": -76.98065583333333, "bike_id": "63a66968448e069a8a830f845f31926d", "fusion_lat": 0.0, "name": "63a66968448e069a8a830f845f31926d", "is_reserved": 0, "rental_uris": {"android": "https://dc.lft.to/lastmile_qr_scan", "ios": "https://dc.lft.to/lastmile_qr_scan"}, "fusion_lon": 0.0}, {"lat": 38.871611, "is_disabled": 0, "type": "electric_scooter", "lon": -77.0130985, "bike_id": "6e1761e1fef1ddb39caa9b69974b4c48", "fusion_lat": 0.0, "name": "6e1761e1fef1ddb39caa9b69974b4c48", "is_reserved": 0, "rental_uris": {"android": "https://dc.lft.to/lastmile_qr_scan", "ios": "https://dc.lft.to/lastmile_qr_scan"}, "fusion_lon": 0.0}, {"lat": 38.92069766666667, "is_disabled": 0, "type": "electric_scooter", "lon": -77.0242635, "bike_id": "4c881979d9c53a516051224beb739cd0", "fusion_lat": 0.0, "name": "4c881979d9c53a516051224beb739cd0", "is_reserved": 0, "rental_uris": {"android": "https://dc.lft.to/lastmile_qr_scan", "ios": "https://dc.lft.to/lastmile_qr_scan"}, "fusion_lon": 0.0}, {"lat": 38.87143433333333, "is_disabled": 0, "type": "electric_bike", "lon": -76.93706266666666, "bike_id": "1630a4cb4f3308eee781c5c8a39627ec", "fusion_lat": 0.0, "name": "1630a4cb4f3308eee781c5c8a39627ec", "is_reserved": 0, "rental_uris": {"android": "https://dc.lft.to/lastmile_qr_scan", "ios": "https://dc.lft.to/lastmile_qr_scan"}, "fusion_lon": 0.0}, {"lat": 38.91101333333334, "is_disabled": 0, "type": "electric_scooter", "lon": -77.00757116666666, "bike_id": "bf9b30ab6088a5ef4b261c91aeb8136e", "fusion_lat": 0.0, "name": "bf9b30ab6088a5ef4b261c91aeb8136e", "is_reserved": 0, "rental_uris": {"android": "https://dc.lft.to/lastmile_qr_scan", "ios": "https://dc.lft.to/lastmile_qr_scan"}, "fusion_lon": 0.0}, {"lat": 38.8843085, "is_disabled": 0, "type": "electric_bike", "lon": -76.9575275, "bike_id": "cfbb344dd63782255ddb9742aac43470", "fusion_lat": 0.0, "name": "cfbb344dd63782255ddb9742aac43470", "is_reserved": 0, "rental_uris": {"android": "https://dc.lft.to/lastmile_qr_scan", "ios": "https://dc.lft.to/lastmile_qr_scan"}, "fusion_lon": 0.0}, {"lat": 38.90236433333333, "is_disabled": 0, "type": "electric_scooter", "lon": -77.05335433333333, "bike_id": "b18ca00c56e5c4024f40883ca079c52c", "fusion_lat": 0.0, "name": "b18ca00c56e5c4024f40883ca079c52c", "is_reserved": 0, "rental_uris": {"android": "https://dc.lft.to/lastmile_qr_scan", "ios": "https://dc.lft.to/lastmile_qr_scan"}, "fusion_lon": 0.0}, {"lat": 38.867096, "is_disabled": 0, "type": "electric_scooter", "lon": -76.98727783333334, "bike_id": "7e46f4730903b76c89f71896da92a328", "fusion_lat": 0.0, "name": "7e46f4730903b76c89f71896da92a328", "is_reserved": 0, "rental_uris": {"android": "https://dc.lft.to/lastmile_qr_scan", "ios": "https://dc.lft.to/lastmile_qr_scan"}, "fusion_lon": 0.0}, {"lat": 38.94096533333333, "is_disabled": 0, "type": "electric_scooter", "lon": -77.03280416666666, "bike_id": "54ea6b3e25c163ba696f0d8bb997fd53", "fusion_lat": 0.0, "name": "54ea6b3e25c163ba696f0d8bb997fd53", "is_reserved": 0, "rental_uris": {"android": "https://dc.lft.to/lastmile_qr_scan", "ios": "https://dc.lft.to/lastmile_qr_scan"}, "fusion_lon": 0.0}, {"lat": 38.876316, "is_disabled": 0, "type": "electric_scooter", "lon": -76.9652515, "bike_id": "8323328b3274d7fa6c68cc5d2fade696", "fusion_lat": 0.0, "name": "8323328b3274d7fa6c68cc5d2fade696", "is_reserved": 0, "rental_uris": {"android": "https://dc.lft.to/lastmile_qr_scan", "ios": "https://dc.lft.to/lastmile_qr_scan"}, "fusion_lon": 0.0}, {"lat": 38.9377325, "is_disabled": 0, "type": "electric_scooter", "lon": -77.02369783333333, "bike_id": "d3844cd2204b864f071ee5c9dcf0a14a", "fusion_lat": 0.0, "name": "d3844cd2204b864f071ee5c9dcf0a14a", "is_reserved": 0, "rental_uris": {"android": "https://dc.lft.to/lastmile_qr_scan", "ios": "https://dc.lft.to/lastmile_qr_scan"}, "fusion_lon": 0.0}, {"lat": 38.9258845, "is_disabled": 0, "type": "electric_scooter", "lon": -77.0343245, "bike_id": "1eb87702478b230678fd838c1987f13c", "fusion_lat": 0.0, "name": "1eb87702478b230678fd838c1987f13c", "is_reserved": 0, "rental_uris": {"android": "https://dc.lft.to/lastmile_qr_scan", "ios": "https://dc.lft.to/lastmile_qr_scan"}, "fusion_lon": 0.0}, {"lat": 38.9073575, "is_disabled": 0, "type": "electric_scooter", "lon": -77.04773283333333, "bike_id": "019113f040dc8b8ab0c90873a12a6d8a", "fusion_lat": 0.0, "name": "019113f040dc8b8ab0c90873a12a6d8a", "is_reserved": 0, "rental_uris": {"android": "https://dc.lft.to/lastmile_qr_scan", "ios": "https://dc.lft.to/lastmile_qr_scan"}, "fusion_lon": 0.0}, {"lat": 38.901965833333335, "is_disabled": 0, "type": "electric_scooter", "lon": -77.02168583333334, "bike_id": "4eb0ff6b774eee0d229c12fb01490338", "fusion_lat": 0.0, "name": "4eb0ff6b774eee0d229c12fb01490338", "is_reserved": 0, "rental_uris": {"android": "https://dc.lft.to/lastmile_qr_scan", "ios": "https://dc.lft.to/lastmile_qr_scan"}, "fusion_lon": 0.0}, {"lat": 38.916747666666666, "is_disabled": 0, "type": "electric_scooter", "lon": -77.02711116666667, "bike_id": "66ba3859f4508e1c39d399f1088c684c", "fusion_lat": 0.0, "name": "66ba3859f4508e1c39d399f1088c684c", "is_reserved": 0, "rental_uris": {"android": "https://dc.lft.to/lastmile_qr_scan", "ios": "https://dc.lft.to/lastmile_qr_scan"}, "fusion_lon": 0.0}, {"lat": 38.91913866666667, "is_disabled": 0, "type": "electric_scooter", "lon": -77.0251365, "bike_id": "60a73ffe89e46d2b7708921efeba9807", "fusion_lat": 0.0, "name": "60a73ffe89e46d2b7708921efeba9807", "is_reserved": 0, "rental_uris": {"android": "https://dc.lft.to/lastmile_qr_scan", "ios": "https://dc.lft.to/lastmile_qr_scan"}, "fusion_lon": 0.0}, {"lat": 38.896209166666665, "is_disabled": 0, "type": "electric_scooter", "lon": -77.04492133333333, "bike_id": "8b8b1ade2c49a70118fb064b0aef4714", "fusion_lat": 0.0, "name": "8b8b1ade2c49a70118fb064b0aef4714", "is_reserved": 0, "rental_uris": {"android": "https://dc.lft.to/lastmile_qr_scan", "ios": "https://dc.lft.to/lastmile_qr_scan"}, "fusion_lon": 0.0}, {"lat": 38.8429545, "is_disabled": 0, "type": "electric_scooter", "lon": -76.9994795, "bike_id": "b9327d64edc712f0ca8d5b0a82300067", "fusion_lat": 0.0, "name": "b9327d64edc712f0ca8d5b0a82300067", "is_reserved": 0, "rental_uris": {"android": "https://dc.lft.to/lastmile_qr_scan", "ios": "https://dc.lft.to/lastmile_qr_scan"}, "fusion_lon": 0.0}, {"lat": 38.86062316666667, "is_disabled": 0, "type": "electric_scooter", "lon": -76.98510083333333, "bike_id": "250d57328c104a3d3754e2bc705d1d1f", "fusion_lat": 0.0, "name": "250d57328c104a3d3754e2bc705d1d1f", "is_reserved": 0, "rental_uris": {"android": "https://dc.lft.to/lastmile_qr_scan", "ios": "https://dc.lft.to/lastmile_qr_scan"}, "fusion_lon": 0.0}, {"lat": 38.90037233333334, "is_disabled": 0, "type": "electric_scooter", "lon": -77.00209616666666, "bike_id": "683f744f80a3e457a1ae362bfc0877cd", "fusion_lat": 0.0, "name": "683f744f80a3e457a1ae362bfc0877cd", "is_reserved": 0, "rental_uris": {"android": "https://dc.lft.to/lastmile_qr_scan", "ios": "https://dc.lft.to/lastmile_qr_scan"}, "fusion_lon": 0.0}, {"lat": 38.950642333333334, "is_disabled": 0, "type": "electric_scooter", "lon": -77.06652433333333, "bike_id": "ebe0919ef0b5ddc6ebaac32c89707fe4", "fusion_lat": 0.0, "name": "ebe0919ef0b5ddc6ebaac32c89707fe4", "is_reserved": 0, "rental_uris": {"android": "https://dc.lft.to/lastmile_qr_scan", "ios": "https://dc.lft.to/lastmile_qr_scan"}, "fusion_lon": 0.0}, {"lat": 38.90136283333333, "is_disabled": 0, "type": "electric_scooter", "lon": -77.01811883333333, "bike_id": "df41c61d90a49c1c6c8da642160ec405", "fusion_lat": 0.0, "name": "df41c61d90a49c1c6c8da642160ec405", "is_reserved": 0, "rental_uris": {"android": "https://dc.lft.to/lastmile_qr_scan", "ios": "https://dc.lft.to/lastmile_qr_scan"}, "fusion_lon": 0.0}, {"lat": 38.8984185, "is_disabled": 0, "type": "electric_scooter", "lon": -77.02428866666666, "bike_id": "657290709f296fca73bf00063895c569", "fusion_lat": 0.0, "name": "657290709f296fca73bf00063895c569", "is_reserved": 0, "rental_uris": {"android": "https://dc.lft.to/lastmile_qr_scan", "ios": "https://dc.lft.to/lastmile_qr_scan"}, "fusion_lon": 0.0}, {"lat": 38.92346233333333, "is_disabled": 0, "type": "electric_scooter", "lon": -77.05107633333333, "bike_id": "57a326cadf10c404ebc1c72a176e08dd", "fusion_lat": 0.0, "name": "57a326cadf10c404ebc1c72a176e08dd", "is_reserved": 0, "rental_uris": {"android": "https://dc.lft.to/lastmile_qr_scan", "ios": "https://dc.lft.to/lastmile_qr_scan"}, "fusion_lon": 0.0}, {"lat": 38.895936166666665, "is_disabled": 0, "type": "electric_scooter", "lon": -77.02901833333334, "bike_id": "96fb55e403ffc8d05d1ada53be40a2d6", "fusion_lat": 0.0, "name": "96fb55e403ffc8d05d1ada53be40a2d6", "is_reserved": 0, "rental_uris": {"android": "https://dc.lft.to/lastmile_qr_scan", "ios": "https://dc.lft.to/lastmile_qr_scan"}, "fusion_lon": 0.0}, {"lat": 38.96507016666666, "is_disabled": 0, "type": "electric_bike", "lon": -77.02816583333333, "bike_id": "06f779a3c05c1bf4a6ece625542ee1b0", "fusion_lat": 0.0, "name": "06f779a3c05c1bf4a6ece625542ee1b0", "is_reserved": 0, "rental_uris": {"android": "https://dc.lft.to/lastmile_qr_scan", "ios": "https://dc.lft.to/lastmile_qr_scan"}, "fusion_lon": 0.0}, {"lat": 38.906531666666666, "is_disabled": 0, "type": "electric_scooter", "lon": -77.00799666666667, "bike_id": "1665c3eb0e012b0c9af064d32511223f", "fusion_lat": 0.0, "name": "1665c3eb0e012b0c9af064d32511223f", "is_reserved": 0, "rental_uris": {"android": "https://dc.lft.to/lastmile_qr_scan", "ios": "https://dc.lft.to/lastmile_qr_scan"}, "fusion_lon": 0.0}, {"lat": 38.9037745, "is_disabled": 0, "type": "electric_scooter", "lon": -77.0176175, "bike_id": "f4682cda6dda0c3f33db801e020b0bc2", "fusion_lat": 0.0, "name": "f4682cda6dda0c3f33db801e020b0bc2", "is_reserved": 0, "rental_uris": {"android": "https://dc.lft.to/lastmile_qr_scan", "ios": "https://dc.lft.to/lastmile_qr_scan"}, "fusion_lon": 0.0}, {"lat": 38.91199533333333, "is_disabled": 0, "type": "electric_scooter", "lon": -77.0385355, "bike_id": "56ce587fa8995d33260af96c72ff4696", "fusion_lat": 0.0, "name": "56ce587fa8995d33260af96c72ff4696", "is_reserved": 0, "rental_uris": {"android": "https://dc.lft.to/lastmile_qr_scan", "ios": "https://dc.lft.to/lastmile_qr_scan"}, "fusion_lon": 0.0}, {"lat": 39.088612166666664, "is_disabled": 0, "type": "electric_bike", "lon": -77.17839, "bike_id": "9b9cf3cd43dff4f661311a7a1da777e2", "fusion_lat": 0.0, "name": "9b9cf3cd43dff4f661311a7a1da777e2", "is_reserved": 0, "rental_uris": {"android": "https://dc.lft.to/lastmile_qr_scan", "ios": "https://dc.lft.to/lastmile_qr_scan"}, "fusion_lon": 0.0}, {"lat": 38.917721, "is_disabled": 0, "type": "electric_scooter", "lon": -77.02875383333334, "bike_id": "c89ced1fe877bac54dfd49f5f574a2fb", "fusion_lat": 0.0, "name": "c89ced1fe877bac54dfd49f5f574a2fb", "is_reserved": 0, "rental_uris": {"android": "https://dc.lft.to/lastmile_qr_scan", "ios": "https://dc.lft.to/lastmile_qr_scan"}, "fusion_lon": 0.0}, {"lat": 38.902449833333336, "is_disabled": 0, "type": "electric_bike", "lon": -77.00569733333333, "bike_id": "d008e399eb85e203c439935c988cbdac", "fusion_lat": 0.0, "name": "d008e399eb85e203c439935c988cbdac", "is_reserved": 0, "rental_uris": {"android": "https://dc.lft.to/lastmile_qr_scan", "ios": "https://dc.lft.to/lastmile_qr_scan"}, "fusion_lon": 0.0}, {"lat": 38.902566, "is_disabled": 0, "type": "electric_scooter", "lon": -77.028173, "bike_id": "4a35b6f4df1187becd627a71ba3205b4", "fusion_lat": 0.0, "name": "4a35b6f4df1187becd627a71ba3205b4", "is_reserved": 0, "rental_uris": {"android": "https://dc.lft.to/lastmile_qr_scan", "ios": "https://dc.lft.to/lastmile_qr_scan"}, "fusion_lon": 0.0}, {"lat": 38.87906916666667, "is_disabled": 0, "type": "electric_scooter", "lon": -77.02229816666667, "bike_id": "451eb78c95f9f38951551f46f6976795", "fusion_lat": 0.0, "name": "451eb78c95f9f38951551f46f6976795", "is_reserved": 0, "rental_uris": {"android": "https://dc.lft.to/lastmile_qr_scan", "ios": "https://dc.lft.to/lastmile_qr_scan"}, "fusion_lon": 0.0}, {"lat": 38.90504833333333, "is_disabled": 0, "type": "electric_scooter", "lon": -77.04334883333334, "bike_id": "379c2c85993c6b64375789cd64c13cdf", "fusion_lat": 0.0, "name": "379c2c85993c6b64375789cd64c13cdf", "is_reserved": 0, "rental_uris": {"android": "https://dc.lft.to/lastmile_qr_scan", "ios": "https://dc.lft.to/lastmile_qr_scan"}, "fusion_lon": 0.0}, {"lat": 38.923917, "is_disabled": 0, "type": "electric_bike", "lon": -77.04018916666666, "bike_id": "8abd4bec1be1a25c4a6f69faf8f62928", "fusion_lat": 0.0, "name": "8abd4bec1be1a25c4a6f69faf8f62928", "is_reserved": 0, "rental_uris": {"android": "https://dc.lft.to/lastmile_qr_scan", "ios": "https://dc.lft.to/lastmile_qr_scan"}, "fusion_lon": 0.0}, {"lat": 38.983685333333334, "is_disabled": 0, "type": "electric_scooter", "lon": -77.0264425, "bike_id": "31c4cf065d7bac0febab2ce57d90cf72", "fusion_lat": 0.0, "name": "31c4cf065d7bac0febab2ce57d90cf72", "is_reserved": 0, "rental_uris": {"android": "https://dc.lft.to/lastmile_qr_scan", "ios": "https://dc.lft.to/lastmile_qr_scan"}, "fusion_lon": 0.0}, {"lat": 38.928596666666664, "is_disabled": 0, "type": "electric_bike", "lon": -77.222158, "bike_id": "f589cfdc79f69f26906d387556484079", "fusion_lat": 0.0, "name": "f589cfdc79f69f26906d387556484079", "is_reserved": 0, "rental_uris": {"android": "https://dc.lft.to/lastmile_qr_scan", "ios": "https://dc.lft.to/lastmile_qr_scan"}, "fusion_lon": 0.0}, {"lat": 38.93506766666667, "is_disabled": 0, "type": "electric_scooter", "lon": -77.02307283333333, "bike_id": "7a4fba00e9258fc26d110bd0e0a62322", "fusion_lat": 0.0, "name": "7a4fba00e9258fc26d110bd0e0a62322", "is_reserved": 0, "rental_uris": {"android": "https://dc.lft.to/lastmile_qr_scan", "ios": "https://dc.lft.to/lastmile_qr_scan"}, "fusion_lon": 0.0}, {"lat": 38.896278833333334, "is_disabled": 0, "type": "electric_scooter", "lon": -76.9984865, "bike_id": "5736d7fb164174b05191dfcae39f5f59", "fusion_lat": 0.0, "name": "5736d7fb164174b05191dfcae39f5f59", "is_reserved": 0, "rental_uris": {"android": "https://dc.lft.to/lastmile_qr_scan", "ios": "https://dc.lft.to/lastmile_qr_scan"}, "fusion_lon": 0.0}, {"lat": 38.90309333333333, "is_disabled": 0, "type": "electric_scooter", "lon": -77.020523, "bike_id": "276db585744a487f5e44d7a8caf9c736", "fusion_lat": 0.0, "name": "276db585744a487f5e44d7a8caf9c736", "is_reserved": 0, "rental_uris": {"android": "https://dc.lft.to/lastmile_qr_scan", "ios": "https://dc.lft.to/lastmile_qr_scan"}, "fusion_lon": 0.0}, {"lat": 38.87630566666667, "is_disabled": 0, "type": "electric_scooter", "lon": -76.96524666666667, "bike_id": "27b67ea517f5ee907966274a854be1f8", "fusion_lat": 0.0, "name": "27b67ea517f5ee907966274a854be1f8", "is_reserved": 0, "rental_uris": {"android": "https://dc.lft.to/lastmile_qr_scan", "ios": "https://dc.lft.to/lastmile_qr_scan"}, "fusion_lon": 0.0}, {"lat": 38.900878166666665, "is_disabled": 0, "type": "electric_scooter", "lon": -77.01353966666667, "bike_id": "6f3efe8e4d1e229f5ba2571aa8409b37", "fusion_lat": 0.0, "name": "6f3efe8e4d1e229f5ba2571aa8409b37", "is_reserved": 0, "rental_uris": {"android": "https://dc.lft.to/lastmile_qr_scan", "ios": "https://dc.lft.to/lastmile_qr_scan"}, "fusion_lon": 0.0}, {"lat": 38.917342166666664, "is_disabled": 0, "type": "electric_bike", "lon": -77.00798316666666, "bike_id": "fba89ca1e11ebcdbfbadaee487ab2a7d", "fusion_lat": 0.0, "name": "fba89ca1e11ebcdbfbadaee487ab2a7d", "is_reserved": 0, "rental_uris": {"android": "https://dc.lft.to/lastmile_qr_scan", "ios": "https://dc.lft.to/lastmile_qr_scan"}, "fusion_lon": 0.0}, {"lat": 38.946432, "is_disabled": 0, "type": "electric_scooter", "lon": -77.019282, "bike_id": "af370e1681c68278ae419de5397dfc11", "fusion_lat": 0.0, "name": "af370e1681c68278ae419de5397dfc11", "is_reserved": 0, "rental_uris": {"android": "https://dc.lft.to/lastmile_qr_scan", "ios": "https://dc.lft.to/lastmile_qr_scan"}, "fusion_lon": 0.0}, {"lat": 38.92288416666667, "is_disabled": 0, "type": "electric_scooter", "lon": -77.03656316666667, "bike_id": "1d32f123ec5a99fb909088e7e5522849", "fusion_lat": 0.0, "name": "1d32f123ec5a99fb909088e7e5522849", "is_reserved": 0, "rental_uris": {"android": "https://dc.lft.to/lastmile_qr_scan", "ios": "https://dc.lft.to/lastmile_qr_scan"}, "fusion_lon": 0.0}, {"lat": 38.9096805, "is_disabled": 0, "type": "electric_scooter", "lon": -76.9846785, "bike_id": "8a4d0ea1127b76f5d3fdd15875e736c5", "fusion_lat": 0.0, "name": "8a4d0ea1127b76f5d3fdd15875e736c5", "is_reserved": 0, "rental_uris": {"android": "https://dc.lft.to/lastmile_qr_scan", "ios": "https://dc.lft.to/lastmile_qr_scan"}, "fusion_lon": 0.0}, {"lat": 39.034201333333336, "is_disabled": 0, "type": "electric_bike", "lon": -77.04200983333334, "bike_id": "0084e05b5c38849029d8c6e468dd6c66", "fusion_lat": 0.0, "name": "0084e05b5c38849029d8c6e468dd6c66", "is_reserved": 0, "rental_uris": {"android": "https://dc.lft.to/lastmile_qr_scan", "ios": "https://dc.lft.to/lastmile_qr_scan"}, "fusion_lon": 0.0}, {"lat": 38.89326066666667, "is_disabled": 0, "type": "electric_scooter", "lon": -76.92992133333334, "bike_id": "dada9f0a442c961e10333eaa403b4945", "fusion_lat": 0.0, "name": "dada9f0a442c961e10333eaa403b4945", "is_reserved": 0, "rental_uris": {"android": "https://dc.lft.to/lastmile_qr_scan", "ios": "https://dc.lft.to/lastmile_qr_scan"}, "fusion_lon": 0.0}, {"lat": 38.909143666666665, "is_disabled": 0, "type": "electric_scooter", "lon": -77.04665633333333, "bike_id": "cd6e41fee7be99536a3cfd01fdc51837", "fusion_lat": 0.0, "name": "cd6e41fee7be99536a3cfd01fdc51837", "is_reserved": 0, "rental_uris": {"android": "https://dc.lft.to/lastmile_qr_scan", "ios": "https://dc.lft.to/lastmile_qr_scan"}, "fusion_lon": 0.0}, {"lat": 38.919779166666665, "is_disabled": 0, "type": "electric_scooter", "lon": -77.03965733333334, "bike_id": "f63c99c741e8d39822048c544fccec92", "fusion_lat": 0.0, "name": "f63c99c741e8d39822048c544fccec92", "is_reserved": 0, "rental_uris": {"android": "https://dc.lft.to/lastmile_qr_scan", "ios": "https://dc.lft.to/lastmile_qr_scan"}, "fusion_lon": 0.0}, {"lat": 38.842969833333335, "is_disabled": 0, "type": "electric_scooter", "lon": -76.99948233333333, "bike_id": "240bd5dd846b215e8d49432b5ee8f9a7", "fusion_lat": 0.0, "name": "240bd5dd846b215e8d49432b5ee8f9a7", "is_reserved": 0, "rental_uris": {"android": "https://dc.lft.to/lastmile_qr_scan", "ios": "https://dc.lft.to/lastmile_qr_scan"}, "fusion_lon": 0.0}, {"lat": 38.916717, "is_disabled": 0, "type": "electric_scooter", "lon": -77.00663183333333, "bike_id": "241d05ef03c39d31c5498f40c06da7cd", "fusion_lat": 0.0, "name": "241d05ef03c39d31c5498f40c06da7cd", "is_reserved": 0, "rental_uris": {"android": "https://dc.lft.to/lastmile_qr_scan", "ios": "https://dc.lft.to/lastmile_qr_scan"}, "fusion_lon": 0.0}, {"lat": 38.92529533333333, "is_disabled": 0, "type": "electric_scooter", "lon": -77.00754283333333, "bike_id": "219c9219c3b4a4de109b49886301d129", "fusion_lat": 0.0, "name": "219c9219c3b4a4de109b49886301d129", "is_reserved": 0, "rental_uris": {"android": "https://dc.lft.to/lastmile_qr_scan", "ios": "https://dc.lft.to/lastmile_qr_scan"}, "fusion_lon": 0.0}, {"lat": 38.91337016666667, "is_disabled": 0, "type": "electric_bike", "lon": -77.0187605, "bike_id": "abf33c1c3b04401e2e54b21505afecd5", "fusion_lat": 0.0, "name": "abf33c1c3b04401e2e54b21505afecd5", "is_reserved": 0, "rental_uris": {"android": "https://dc.lft.to/lastmile_qr_scan", "ios": "https://dc.lft.to/lastmile_qr_scan"}, "fusion_lon": 0.0}, {"lat": 38.876579166666666, "is_disabled": 0, "type": "electric_scooter", "lon": -77.00432783333333, "bike_id": "6d7fef27acd24e76ac211de37e714755", "fusion_lat": 0.0, "name": "6d7fef27acd24e76ac211de37e714755", "is_reserved": 0, "rental_uris": {"android": "https://dc.lft.to/lastmile_qr_scan", "ios": "https://dc.lft.to/lastmile_qr_scan"}, "fusion_lon": 0.0}, {"lat": 38.920175666666665, "is_disabled": 0, "type": "electric_bike", "lon": -77.03864333333334, "bike_id": "6b33605a8c4caf02f5f0b23848d2d78b", "fusion_lat": 0.0, "name": "6b33605a8c4caf02f5f0b23848d2d78b", "is_reserved": 0, "rental_uris": {"android": "https://dc.lft.to/lastmile_qr_scan", "ios": "https://dc.lft.to/lastmile_qr_scan"}, "fusion_lon": 0.0}, {"lat": 38.902617666666664, "is_disabled": 0, "type": "electric_scooter", "lon": -77.017554, "bike_id": "1fa41fd61ae7e9d474f2463d69535ce5", "fusion_lat": 0.0, "name": "1fa41fd61ae7e9d474f2463d69535ce5", "is_reserved": 0, "rental_uris": {"android": "https://dc.lft.to/lastmile_qr_scan", "ios": "https://dc.lft.to/lastmile_qr_scan"}, "fusion_lon": 0.0}, {"lat": 38.867358833333334, "is_disabled": 0, "type": "electric_scooter", "lon": -76.98785883333333, "bike_id": "815c223b6442a13e1d6df990891c3206", "fusion_lat": 0.0, "name": "815c223b6442a13e1d6df990891c3206", "is_reserved": 0, "rental_uris": {"android": "https://dc.lft.to/lastmile_qr_scan", "ios": "https://dc.lft.to/lastmile_qr_scan"}, "fusion_lon": 0.0}, {"lat": 38.90166083333333, "is_disabled": 0, "type": "electric_scooter", "lon": -76.98043466666667, "bike_id": "f40dfbffdac1802dfff05d694ec3fc9a", "fusion_lat": 0.0, "name": "f40dfbffdac1802dfff05d694ec3fc9a", "is_reserved": 0, "rental_uris": {"android": "https://dc.lft.to/lastmile_qr_scan", "ios": "https://dc.lft.to/lastmile_qr_scan"}, "fusion_lon": 0.0}, {"lat": 38.92266983333333, "is_disabled": 0, "type": "electric_scooter", "lon": -77.01912366666667, "bike_id": "7add5e3a7dbb7e2bbbb45376edeb03a2", "fusion_lat": 0.0, "name": "7add5e3a7dbb7e2bbbb45376edeb03a2", "is_reserved": 0, "rental_uris": {"android": "https://dc.lft.to/lastmile_qr_scan", "ios": "https://dc.lft.to/lastmile_qr_scan"}, "fusion_lon": 0.0}, {"lat": 38.909177166666666, "is_disabled": 0, "type": "electric_scooter", "lon": -77.03642633333334, "bike_id": "92ebd6d24d2e1860f20084e1c8140718", "fusion_lat": 0.0, "name": "92ebd6d24d2e1860f20084e1c8140718", "is_reserved": 0, "rental_uris": {"android": "https://dc.lft.to/lastmile_qr_scan", "ios": "https://dc.lft.to/lastmile_qr_scan"}, "fusion_lon": 0.0}, {"lat": 38.938739, "is_disabled": 0, "type": "electric_scooter", "lon": -77.0244455, "bike_id": "5cfdb5de1c6ed98cf0761e0ff8f587c4", "fusion_lat": 0.0, "name": "5cfdb5de1c6ed98cf0761e0ff8f587c4", "is_reserved": 0, "rental_uris": {"android": "https://dc.lft.to/lastmile_qr_scan", "ios": "https://dc.lft.to/lastmile_qr_scan"}, "fusion_lon": 0.0}, {"lat": 38.88089033333333, "is_disabled": 0, "type": "electric_scooter", "lon": -76.99505083333334, "bike_id": "9882331fa5fd5dbca1502483d2816bf6", "fusion_lat": 0.0, "name": "9882331fa5fd5dbca1502483d2816bf6", "is_reserved": 0, "rental_uris": {"android": "https://dc.lft.to/lastmile_qr_scan", "ios": "https://dc.lft.to/lastmile_qr_scan"}, "fusion_lon": 0.0}, {"lat": 38.865627333333336, "is_disabled": 0, "type": "electric_scooter", "lon": -76.98947066666666, "bike_id": "2623a4785a0fe34576f71fa2c51443d7", "fusion_lat": 0.0, "name": "2623a4785a0fe34576f71fa2c51443d7", "is_reserved": 0, "rental_uris": {"android": "https://dc.lft.to/lastmile_qr_scan", "ios": "https://dc.lft.to/lastmile_qr_scan"}, "fusion_lon": 0.0}, {"lat": 38.88731633333333, "is_disabled": 0, "type": "electric_scooter", "lon": -77.032107, "bike_id": "b86b04eda888950fcc050e1deb913573", "fusion_lat": 0.0, "name": "b86b04eda888950fcc050e1deb913573", "is_reserved": 0, "rental_uris": {"android": "https://dc.lft.to/lastmile_qr_scan", "ios": "https://dc.lft.to/lastmile_qr_scan"}, "fusion_lon": 0.0}, {"lat": 38.955563833333336, "is_disabled": 0, "type": "electric_scooter", "lon": -77.02224533333333, "bike_id": "a9fea2b649f547ca0d50ba627834188e", "fusion_lat": 0.0, "name": "a9fea2b649f547ca0d50ba627834188e", "is_reserved": 0, "rental_uris": {"android": "https://dc.lft.to/lastmile_qr_scan", "ios": "https://dc.lft.to/lastmile_qr_scan"}, "fusion_lon": 0.0}, {"lat": 38.9224475, "is_disabled": 0, "type": "electric_scooter", "lon": -77.0457355, "bike_id": "a3f40d33df82cb2d98e2e89355b6a3f3", "fusion_lat": 0.0, "name": "a3f40d33df82cb2d98e2e89355b6a3f3", "is_reserved": 0, "rental_uris": {"android": "https://dc.lft.to/lastmile_qr_scan", "ios": "https://dc.lft.to/lastmile_qr_scan"}, "fusion_lon": 0.0}, {"lat": 38.85053416666667, "is_disabled": 0, "type": "electric_bike", "lon": -76.97316916666666, "bike_id": "4eb93c435b52e71e29ab3fa3c5350b60", "fusion_lat": 0.0, "name": "4eb93c435b52e71e29ab3fa3c5350b60", "is_reserved": 0, "rental_uris": {"android": "https://dc.lft.to/lastmile_qr_scan", "ios": "https://dc.lft.to/lastmile_qr_scan"}, "fusion_lon": 0.0}, {"lat": 38.90030633333333, "is_disabled": 0, "type": "electric_scooter", "lon": -77.03324866666667, "bike_id": "fd1a6d7f701750d79629a8b66d8a11f3", "fusion_lat": 0.0, "name": "fd1a6d7f701750d79629a8b66d8a11f3", "is_reserved": 0, "rental_uris": {"android": "https://dc.lft.to/lastmile_qr_scan", "ios": "https://dc.lft.to/lastmile_qr_scan"}, "fusion_lon": 0.0}, {"lat": 38.900615, "is_disabled": 0, "type": "electric_scooter", "lon": -77.05057883333333, "bike_id": "25d5a5cbc46c04410f1e64c97828b93a", "fusion_lat": 0.0, "name": "25d5a5cbc46c04410f1e64c97828b93a", "is_reserved": 0, "rental_uris": {"android": "https://dc.lft.to/lastmile_qr_scan", "ios": "https://dc.lft.to/lastmile_qr_scan"}, "fusion_lon": 0.0}, {"lat": 38.939864, "is_disabled": 0, "type": "electric_scooter", "lon": -77.0716845, "bike_id": "0e553ab1d599b092ef83911c47b90761", "fusion_lat": 0.0, "name": "0e553ab1d599b092ef83911c47b90761", "is_reserved": 0, "rental_uris": {"android": "https://dc.lft.to/lastmile_qr_scan", "ios": "https://dc.lft.to/lastmile_qr_scan"}, "fusion_lon": 0.0}, {"lat": 38.9006435, "is_disabled": 0, "type": "electric_scooter", "lon": -77.04633233333334, "bike_id": "a9ce8b4a7c6c80e6f65f242c0132d020", "fusion_lat": 0.0, "name": "a9ce8b4a7c6c80e6f65f242c0132d020", "is_reserved": 0, "rental_uris": {"android": "https://dc.lft.to/lastmile_qr_scan", "ios": "https://dc.lft.to/lastmile_qr_scan"}, "fusion_lon": 0.0}, {"lat": 38.92014066666667, "is_disabled": 0, "type": "electric_scooter", "lon": -77.04170966666666, "bike_id": "18ab70211d2f0e832d00d3dda58b0b51", "fusion_lat": 0.0, "name": "18ab70211d2f0e832d00d3dda58b0b51", "is_reserved": 0, "rental_uris": {"android": "https://dc.lft.to/lastmile_qr_scan", "ios": "https://dc.lft.to/lastmile_qr_scan"}, "fusion_lon": 0.0}, {"lat": 38.898843, "is_disabled": 0, "type": "electric_scooter", "lon": -76.93175783333334, "bike_id": "45bf4412a68ad5f68530bc1c63056dfc", "fusion_lat": 0.0, "name": "45bf4412a68ad5f68530bc1c63056dfc", "is_reserved": 0, "rental_uris": {"android": "https://dc.lft.to/lastmile_qr_scan", "ios": "https://dc.lft.to/lastmile_qr_scan"}, "fusion_lon": 0.0}, {"lat": 38.9262775, "is_disabled": 0, "type": "electric_scooter", "lon": -77.03707783333333, "bike_id": "6320bb08dd5ca1f31360532d912797ca", "fusion_lat": 0.0, "name": "6320bb08dd5ca1f31360532d912797ca", "is_reserved": 0, "rental_uris": {"android": "https://dc.lft.to/lastmile_qr_scan", "ios": "https://dc.lft.to/lastmile_qr_scan"}, "fusion_lon": 0.0}, {"lat": 38.899733, "is_disabled": 0, "type": "electric_scooter", "lon": -77.05699833333334, "bike_id": "2fce1e098a36d04db9c5ed8ce854f67a", "fusion_lat": 0.0, "name": "2fce1e098a36d04db9c5ed8ce854f67a", "is_reserved": 0, "rental_uris": {"android": "https://dc.lft.to/lastmile_qr_scan", "ios": "https://dc.lft.to/lastmile_qr_scan"}, "fusion_lon": 0.0}, {"lat": 38.90508916666667, "is_disabled": 0, "type": "electric_scooter", "lon": -77.062018, "bike_id": "9893b4a47a5bdac4bc759cfac8902f9f", "fusion_lat": 0.0, "name": "9893b4a47a5bdac4bc759cfac8902f9f", "is_reserved": 0, "rental_uris": {"android": "https://dc.lft.to/lastmile_qr_scan", "ios": "https://dc.lft.to/lastmile_qr_scan"}, "fusion_lon": 0.0}, {"lat": 38.89683566666667, "is_disabled": 0, "type": "electric_scooter", "lon": -76.99611333333333, "bike_id": "aae1bf44c8e648e8df2191b808e3cf05", "fusion_lat": 0.0, "name": "aae1bf44c8e648e8df2191b808e3cf05", "is_reserved": 0, "rental_uris": {"android": "https://dc.lft.to/lastmile_qr_scan", "ios": "https://dc.lft.to/lastmile_qr_scan"}, "fusion_lon": 0.0}, {"lat": 38.85327766666666, "is_disabled": 0, "type": "electric_bike", "lon": -76.98003716666666, "bike_id": "de047118e12a32fc852c7635b4f7a03f", "fusion_lat": 0.0, "name": "de047118e12a32fc852c7635b4f7a03f", "is_reserved": 0, "rental_uris": {"android": "https://dc.lft.to/lastmile_qr_scan", "ios": "https://dc.lft.to/lastmile_qr_scan"}, "fusion_lon": 0.0}, {"lat": 38.894979, "is_disabled": 0, "type": "electric_scooter", "lon": -77.022846, "bike_id": "1e6c48cbea2d74989b3fdf7835cc3c90", "fusion_lat": 0.0, "name": "1e6c48cbea2d74989b3fdf7835cc3c90", "is_reserved": 0, "rental_uris": {"android": "https://dc.lft.to/lastmile_qr_scan", "ios": "https://dc.lft.to/lastmile_qr_scan"}, "fusion_lon": 0.0}, {"lat": 38.930800166666664, "is_disabled": 0, "type": "electric_scooter", "lon": -77.01665933333334, "bike_id": "7ec90c8db3d38a4cd5a30ddd46581de6", "fusion_lat": 0.0, "name": "7ec90c8db3d38a4cd5a30ddd46581de6", "is_reserved": 0, "rental_uris": {"android": "https://dc.lft.to/lastmile_qr_scan", "ios": "https://dc.lft.to/lastmile_qr_scan"}, "fusion_lon": 0.0}, {"lat": 38.89684866666666, "is_disabled": 0, "type": "electric_scooter", "lon": -76.9360775, "bike_id": "ce3b259d061eff7555803f9adf9c63ad", "fusion_lat": 0.0, "name": "ce3b259d061eff7555803f9adf9c63ad", "is_reserved": 0, "rental_uris": {"android": "https://dc.lft.to/lastmile_qr_scan", "ios": "https://dc.lft.to/lastmile_qr_scan"}, "fusion_lon": 0.0}, {"lat": 38.920754, "is_disabled": 0, "type": "electric_scooter", "lon": -77.04187566666667, "bike_id": "94b64f1feb9087266f7981387488695c", "fusion_lat": 0.0, "name": "94b64f1feb9087266f7981387488695c", "is_reserved": 0, "rental_uris": {"android": "https://dc.lft.to/lastmile_qr_scan", "ios": "https://dc.lft.to/lastmile_qr_scan"}, "fusion_lon": 0.0}, {"lat": 38.89572833333333, "is_disabled": 0, "type": "electric_scooter", "lon": -77.0219025, "bike_id": "be8e4555da06bdc412b67622d77a02f4", "fusion_lat": 0.0, "name": "be8e4555da06bdc412b67622d77a02f4", "is_reserved": 0, "rental_uris": {"android": "https://dc.lft.to/lastmile_qr_scan", "ios": "https://dc.lft.to/lastmile_qr_scan"}, "fusion_lon": 0.0}, {"lat": 38.907028, "is_disabled": 0, "type": "electric_scooter", "lon": -77.03437916666667, "bike_id": "cabd6374474f4660872543321fb2df81", "fusion_lat": 0.0, "name": "cabd6374474f4660872543321fb2df81", "is_reserved": 0, "rental_uris": {"android": "https://dc.lft.to/lastmile_qr_scan", "ios": "https://dc.lft.to/lastmile_qr_scan"}, "fusion_lon": 0.0}, {"lat": 38.887220166666665, "is_disabled": 0, "type": "electric_scooter", "lon": -76.95474516666667, "bike_id": "2983b4c88586f5e600adc623cfce6221", "fusion_lat": 0.0, "name": "2983b4c88586f5e600adc623cfce6221", "is_reserved": 0, "rental_uris": {"android": "https://dc.lft.to/lastmile_qr_scan", "ios": "https://dc.lft.to/lastmile_qr_scan"}, "fusion_lon": 0.0}, {"lat": 38.916096, "is_disabled": 0, "type": "electric_scooter", "lon": -77.03202116666667, "bike_id": "c3779d0da224e3cce97a21a3a04d7d29", "fusion_lat": 0.0, "name": "c3779d0da224e3cce97a21a3a04d7d29", "is_reserved": 0, "rental_uris": {"android": "https://dc.lft.to/lastmile_qr_scan", "ios": "https://dc.lft.to/lastmile_qr_scan"}, "fusion_lon": 0.0}, {"lat": 38.9258115, "is_disabled": 0, "type": "electric_scooter", "lon": -77.02756216666667, "bike_id": "a51c87b3265a1fcbb9c06a147659ac50", "fusion_lat": 0.0, "name": "a51c87b3265a1fcbb9c06a147659ac50", "is_reserved": 0, "rental_uris": {"android": "https://dc.lft.to/lastmile_qr_scan", "ios": "https://dc.lft.to/lastmile_qr_scan"}, "fusion_lon": 0.0}, {"lat": 38.90192866666667, "is_disabled": 0, "type": "electric_scooter", "lon": -77.02391883333334, "bike_id": "93a8ab72351d5019d06c19fad154b774", "fusion_lat": 0.0, "name": "93a8ab72351d5019d06c19fad154b774", "is_reserved": 0, "rental_uris": {"android": "https://dc.lft.to/lastmile_qr_scan", "ios": "https://dc.lft.to/lastmile_qr_scan"}, "fusion_lon": 0.0}, {"lat": 38.91119833333333, "is_disabled": 0, "type": "electric_scooter", "lon": -77.037637, "bike_id": "c3a14642c0a7de30d47327dfe9e1072b", "fusion_lat": 0.0, "name": "c3a14642c0a7de30d47327dfe9e1072b", "is_reserved": 0, "rental_uris": {"android": "https://dc.lft.to/lastmile_qr_scan", "ios": "https://dc.lft.to/lastmile_qr_scan"}, "fusion_lon": 0.0}, {"lat": 38.90141933333334, "is_disabled": 0, "type": "electric_scooter", "lon": -77.02877466666666, "bike_id": "08d1dd5e093af75527a1f3616a893ceb", "fusion_lat": 0.0, "name": "08d1dd5e093af75527a1f3616a893ceb", "is_reserved": 0, "rental_uris": {"android": "https://dc.lft.to/lastmile_qr_scan", "ios": "https://dc.lft.to/lastmile_qr_scan"}, "fusion_lon": 0.0}, {"lat": 38.886392, "is_disabled": 0, "type": "electric_bike", "lon": -76.95470816666666, "bike_id": "608e26702ceae7aa248d72fb4d14a4bd", "fusion_lat": 0.0, "name": "608e26702ceae7aa248d72fb4d14a4bd", "is_reserved": 0, "rental_uris": {"android": "https://dc.lft.to/lastmile_qr_scan", "ios": "https://dc.lft.to/lastmile_qr_scan"}, "fusion_lon": 0.0}, {"lat": 38.91175916666667, "is_disabled": 0, "type": "electric_scooter", "lon": -77.06096533333333, "bike_id": "71abd03cc6f61358c25290df0343cda9", "fusion_lat": 0.0, "name": "71abd03cc6f61358c25290df0343cda9", "is_reserved": 0, "rental_uris": {"android": "https://dc.lft.to/lastmile_qr_scan", "ios": "https://dc.lft.to/lastmile_qr_scan"}, "fusion_lon": 0.0}, {"lat": 38.9273805, "is_disabled": 0, "type": "electric_scooter", "lon": -77.03448166666666, "bike_id": "edfb4b07dc04c69ab29e9aa252e86d19", "fusion_lat": 0.0, "name": "edfb4b07dc04c69ab29e9aa252e86d19", "is_reserved": 0, "rental_uris": {"android": "https://dc.lft.to/lastmile_qr_scan", "ios": "https://dc.lft.to/lastmile_qr_scan"}, "fusion_lon": 0.0}, {"lat": 39.05634966666667, "is_disabled": 0, "type": "electric_bike", "lon": -77.12527833333333, "bike_id": "cb98abbc80d4ce0ab226500c2e705251", "fusion_lat": 0.0, "name": "cb98abbc80d4ce0ab226500c2e705251", "is_reserved": 0, "rental_uris": {"android": "https://dc.lft.to/lastmile_qr_scan", "ios": "https://dc.lft.to/lastmile_qr_scan"}, "fusion_lon": 0.0}, {"lat": 38.9192665, "is_disabled": 0, "type": "electric_scooter", "lon": -77.045474, "bike_id": "a8324a397d6d6795e5373506c0547c66", "fusion_lat": 0.0, "name": "a8324a397d6d6795e5373506c0547c66", "is_reserved": 0, "rental_uris": {"android": "https://dc.lft.to/lastmile_qr_scan", "ios": "https://dc.lft.to/lastmile_qr_scan"}, "fusion_lon": 0.0}, {"lat": 38.95615983333333, "is_disabled": 0, "type": "electric_scooter", "lon": -77.02761016666666, "bike_id": "cee058a5e4256f92d201c102801d5275", "fusion_lat": 0.0, "name": "cee058a5e4256f92d201c102801d5275", "is_reserved": 0, "rental_uris": {"android": "https://dc.lft.to/lastmile_qr_scan", "ios": "https://dc.lft.to/lastmile_qr_scan"}, "fusion_lon": 0.0}, {"lat": 38.927575833333336, "is_disabled": 0, "type": "electric_scooter", "lon": -77.032142, "bike_id": "02e6269cbaf57af7997a0decf5df512b", "fusion_lat": 0.0, "name": "02e6269cbaf57af7997a0decf5df512b", "is_reserved": 0, "rental_uris": {"android": "https://dc.lft.to/lastmile_qr_scan", "ios": "https://dc.lft.to/lastmile_qr_scan"}, "fusion_lon": 0.0}, {"lat": 38.92486683333333, "is_disabled": 0, "type": "electric_scooter", "lon": -77.02839483333334, "bike_id": "320b5430ab8aefc567ed2e1909b8ffce", "fusion_lat": 0.0, "name": "320b5430ab8aefc567ed2e1909b8ffce", "is_reserved": 0, "rental_uris": {"android": "https://dc.lft.to/lastmile_qr_scan", "ios": "https://dc.lft.to/lastmile_qr_scan"}, "fusion_lon": 0.0}, {"lat": 38.89822433333333, "is_disabled": 0, "type": "electric_scooter", "lon": -76.9969375, "bike_id": "46f1b95ff5a4e14d7c9daf8403893122", "fusion_lat": 0.0, "name": "46f1b95ff5a4e14d7c9daf8403893122", "is_reserved": 0, "rental_uris": {"android": "https://dc.lft.to/lastmile_qr_scan", "ios": "https://dc.lft.to/lastmile_qr_scan"}, "fusion_lon": 0.0}, {"lat": 38.9184265, "is_disabled": 0, "type": "electric_scooter", "lon": -76.96537583333334, "bike_id": "1ea4d6c104ff2dca4795e3e0ebb28583", "fusion_lat": 0.0, "name": "1ea4d6c104ff2dca4795e3e0ebb28583", "is_reserved": 0, "rental_uris": {"android": "https://dc.lft.to/lastmile_qr_scan", "ios": "https://dc.lft.to/lastmile_qr_scan"}, "fusion_lon": 0.0}, {"lat": 38.9231195, "is_disabled": 0, "type": "electric_bike", "lon": -77.03662733333333, "bike_id": "f08fa91ee87979e04e6230bdc5892623", "fusion_lat": 0.0, "name": "f08fa91ee87979e04e6230bdc5892623", "is_reserved": 0, "rental_uris": {"android": "https://dc.lft.to/lastmile_qr_scan", "ios": "https://dc.lft.to/lastmile_qr_scan"}, "fusion_lon": 0.0}, {"lat": 38.895083666666665, "is_disabled": 0, "type": "electric_scooter", "lon": -77.02743733333334, "bike_id": "f574f194568cf1c6fc20b736d3013d08", "fusion_lat": 0.0, "name": "f574f194568cf1c6fc20b736d3013d08", "is_reserved": 0, "rental_uris": {"android": "https://dc.lft.to/lastmile_qr_scan", "ios": "https://dc.lft.to/lastmile_qr_scan"}, "fusion_lon": 0.0}, {"lat": 38.91856666666666, "is_disabled": 0, "type": "electric_scooter", "lon": -77.024362, "bike_id": "957bf0a312042f99e91be9056761dc2a", "fusion_lat": 0.0, "name": "957bf0a312042f99e91be9056761dc2a", "is_reserved": 0, "rental_uris": {"android": "https://dc.lft.to/lastmile_qr_scan", "ios": "https://dc.lft.to/lastmile_qr_scan"}, "fusion_lon": 0.0}, {"lat": 38.92383516666666, "is_disabled": 0, "type": "electric_scooter", "lon": -77.03069883333333, "bike_id": "54683caa6c4041ff1407820bc476c9f0", "fusion_lat": 0.0, "name": "54683caa6c4041ff1407820bc476c9f0", "is_reserved": 0, "rental_uris": {"android": "https://dc.lft.to/lastmile_qr_scan", "ios": "https://dc.lft.to/lastmile_qr_scan"}, "fusion_lon": 0.0}, {"lat": 38.846317166666665, "is_disabled": 0, "type": "electric_bike", "lon": -77.06933433333333, "bike_id": "0b0553d5e999c6032c451f3c7e23912d", "fusion_lat": 0.0, "name": "0b0553d5e999c6032c451f3c7e23912d", "is_reserved": 0, "rental_uris": {"android": "https://dc.lft.to/lastmile_qr_scan", "ios": "https://dc.lft.to/lastmile_qr_scan"}, "fusion_lon": 0.0}, {"lat": 38.91984133333333, "is_disabled": 0, "type": "electric_scooter", "lon": -77.04178233333333, "bike_id": "fd75053834b0b3d5d1d4486b35d9582c", "fusion_lat": 0.0, "name": "fd75053834b0b3d5d1d4486b35d9582c", "is_reserved": 0, "rental_uris": {"android": "https://dc.lft.to/lastmile_qr_scan", "ios": "https://dc.lft.to/lastmile_qr_scan"}, "fusion_lon": 0.0}, {"lat": 38.892805833333334, "is_disabled": 0, "type": "electric_scooter", "lon": -77.05032316666667, "bike_id": "0fcc84411d9577f9bdb3494f0c5e218b", "fusion_lat": 0.0, "name": "0fcc84411d9577f9bdb3494f0c5e218b", "is_reserved": 0, "rental_uris": {"android": "https://dc.lft.to/lastmile_qr_scan", "ios": "https://dc.lft.to/lastmile_qr_scan"}, "fusion_lon": 0.0}, {"lat": 38.895009, "is_disabled": 0, "type": "electric_scooter", "lon": -77.0228475, "bike_id": "d1c6af87044b81b063b4658248f5d986", "fusion_lat": 0.0, "name": "d1c6af87044b81b063b4658248f5d986", "is_reserved": 0, "rental_uris": {"android": "https://dc.lft.to/lastmile_qr_scan", "ios": "https://dc.lft.to/lastmile_qr_scan"}, "fusion_lon": 0.0}, {"lat": 38.90285766666667, "is_disabled": 0, "type": "electric_scooter", "lon": -77.02590733333334, "bike_id": "ba7577907a3ce653d302ba1acaac8a54", "fusion_lat": 0.0, "name": "ba7577907a3ce653d302ba1acaac8a54", "is_reserved": 0, "rental_uris": {"android": "https://dc.lft.to/lastmile_qr_scan", "ios": "https://dc.lft.to/lastmile_qr_scan"}, "fusion_lon": 0.0}, {"lat": 38.94169083333333, "is_disabled": 0, "type": "electric_scooter", "lon": -77.0234645, "bike_id": "a4eea167e5377d45f642abc40e83f94d", "fusion_lat": 0.0, "name": "a4eea167e5377d45f642abc40e83f94d", "is_reserved": 0, "rental_uris": {"android": "https://dc.lft.to/lastmile_qr_scan", "ios": "https://dc.lft.to/lastmile_qr_scan"}, "fusion_lon": 0.0}, {"lat": 38.893779333333335, "is_disabled": 0, "type": "electric_scooter", "lon": -76.94985483333333, "bike_id": "9c16f255d6a8c0645b26dfc0f4caa265", "fusion_lat": 0.0, "name": "9c16f255d6a8c0645b26dfc0f4caa265", "is_reserved": 0, "rental_uris": {"android": "https://dc.lft.to/lastmile_qr_scan", "ios": "https://dc.lft.to/lastmile_qr_scan"}, "fusion_lon": 0.0}, {"lat": 38.84657766666667, "is_disabled": 0, "type": "electric_bike", "lon": -76.9793165, "bike_id": "d86b6cc2c96be8eb30868a06efbf3641", "fusion_lat": 0.0, "name": "d86b6cc2c96be8eb30868a06efbf3641", "is_reserved": 0, "rental_uris": {"android": "https://dc.lft.to/lastmile_qr_scan", "ios": "https://dc.lft.to/lastmile_qr_scan"}, "fusion_lon": 0.0}, {"lat": 38.925982833333336, "is_disabled": 0, "type": "electric_scooter", "lon": -77.0322295, "bike_id": "1b88ecb3c0bc8c71d9f521f9159f1fad", "fusion_lat": 0.0, "name": "1b88ecb3c0bc8c71d9f521f9159f1fad", "is_reserved": 0, "rental_uris": {"android": "https://dc.lft.to/lastmile_qr_scan", "ios": "https://dc.lft.to/lastmile_qr_scan"}, "fusion_lon": 0.0}, {"lat": 38.869132666666665, "is_disabled": 0, "type": "electric_bike", "lon": -77.1317905, "bike_id": "56ec88e75e2ac586815fce6236574fd4", "fusion_lat": 0.0, "name": "56ec88e75e2ac586815fce6236574fd4", "is_reserved": 0, "rental_uris": {"android": "https://dc.lft.to/lastmile_qr_scan", "ios": "https://dc.lft.to/lastmile_qr_scan"}, "fusion_lon": 0.0}, {"lat": 38.894747, "is_disabled": 0, "type": "electric_scooter", "lon": -77.02123016666667, "bike_id": "4a4f2e8f1ec875c7b460881b30577aa9", "fusion_lat": 0.0, "name": "4a4f2e8f1ec875c7b460881b30577aa9", "is_reserved": 0, "rental_uris": {"android": "https://dc.lft.to/lastmile_qr_scan", "ios": "https://dc.lft.to/lastmile_qr_scan"}, "fusion_lon": 0.0}, {"lat": 38.910512, "is_disabled": 0, "type": "electric_scooter", "lon": -77.01510266666666, "bike_id": "f8e1889d32d05e800323b33fad1ec70c", "fusion_lat": 0.0, "name": "f8e1889d32d05e800323b33fad1ec70c", "is_reserved": 0, "rental_uris": {"android": "https://dc.lft.to/lastmile_qr_scan", "ios": "https://dc.lft.to/lastmile_qr_scan"}, "fusion_lon": 0.0}, {"lat": 38.932871, "is_disabled": 0, "type": "electric_scooter", "lon": -77.0396985, "bike_id": "a57b2e2d3c41c179a4dbdcd797b621fa", "fusion_lat": 0.0, "name": "a57b2e2d3c41c179a4dbdcd797b621fa", "is_reserved": 0, "rental_uris": {"android": "https://dc.lft.to/lastmile_qr_scan", "ios": "https://dc.lft.to/lastmile_qr_scan"}, "fusion_lon": 0.0}, {"lat": 38.94286816666666, "is_disabled": 0, "type": "electric_scooter", "lon": -77.07713833333334, "bike_id": "27d37aaadd26d1ff46a687542db0462b", "fusion_lat": 0.0, "name": "27d37aaadd26d1ff46a687542db0462b", "is_reserved": 0, "rental_uris": {"android": "https://dc.lft.to/lastmile_qr_scan", "ios": "https://dc.lft.to/lastmile_qr_scan"}, "fusion_lon": 0.0}, {"lat": 38.924875, "is_disabled": 0, "type": "electric_scooter", "lon": -77.05212816666666, "bike_id": "a2d5bf9244f3210147cd21511dfb4d36", "fusion_lat": 0.0, "name": "a2d5bf9244f3210147cd21511dfb4d36", "is_reserved": 0, "rental_uris": {"android": "https://dc.lft.to/lastmile_qr_scan", "ios": "https://dc.lft.to/lastmile_qr_scan"}, "fusion_lon": 0.0}, {"lat": 38.9317625, "is_disabled": 0, "type": "electric_scooter", "lon": -77.02816483333334, "bike_id": "047681bc54e64d457b27e5591385daeb", "fusion_lat": 0.0, "name": "047681bc54e64d457b27e5591385daeb", "is_reserved": 0, "rental_uris": {"android": "https://dc.lft.to/lastmile_qr_scan", "ios": "https://dc.lft.to/lastmile_qr_scan"}, "fusion_lon": 0.0}, {"lat": 38.92301066666667, "is_disabled": 0, "type": "electric_scooter", "lon": -77.03655083333334, "bike_id": "ad82a6f26f54e92045bfff512a03ea0f", "fusion_lat": 0.0, "name": "ad82a6f26f54e92045bfff512a03ea0f", "is_reserved": 0, "rental_uris": {"android": "https://dc.lft.to/lastmile_qr_scan", "ios": "https://dc.lft.to/lastmile_qr_scan"}, "fusion_lon": 0.0}, {"lat": 38.895038166666666, "is_disabled": 0, "type": "electric_scooter", "lon": -77.01121183333333, "bike_id": "cc979faa1845a50fab65ab4cc84f2099", "fusion_lat": 0.0, "name": "cc979faa1845a50fab65ab4cc84f2099", "is_reserved": 0, "rental_uris": {"android": "https://dc.lft.to/lastmile_qr_scan", "ios": "https://dc.lft.to/lastmile_qr_scan"}, "fusion_lon": 0.0}, {"lat": 38.97314166666666, "is_disabled": 0, "type": "electric_scooter", "lon": -77.02703216666667, "bike_id": "85210caa1e5811b17bc232bff216b3af", "fusion_lat": 0.0, "name": "85210caa1e5811b17bc232bff216b3af", "is_reserved": 0, "rental_uris": {"android": "https://dc.lft.to/lastmile_qr_scan", "ios": "https://dc.lft.to/lastmile_qr_scan"}, "fusion_lon": 0.0}, {"lat": 38.9850625, "is_disabled": 0, "type": "electric_bike", "lon": -76.9820565, "bike_id": "b9e4c896e46d63c917279b522a35d125", "fusion_lat": 0.0, "name": "b9e4c896e46d63c917279b522a35d125", "is_reserved": 0, "rental_uris": {"android": "https://dc.lft.to/lastmile_qr_scan", "ios": "https://dc.lft.to/lastmile_qr_scan"}, "fusion_lon": 0.0}, {"lat": 38.89844766666667, "is_disabled": 0, "type": "electric_scooter", "lon": -77.03951283333333, "bike_id": "d84e33c5d2579398fdb8db5e140be011", "fusion_lat": 0.0, "name": "d84e33c5d2579398fdb8db5e140be011", "is_reserved": 0, "rental_uris": {"android": "https://dc.lft.to/lastmile_qr_scan", "ios": "https://dc.lft.to/lastmile_qr_scan"}, "fusion_lon": 0.0}, {"lat": 38.9388375, "is_disabled": 0, "type": "electric_scooter", "lon": -77.03281916666667, "bike_id": "f6cd98026e6f90ec7f48d06d794db508", "fusion_lat": 0.0, "name": "f6cd98026e6f90ec7f48d06d794db508", "is_reserved": 0, "rental_uris": {"android": "https://dc.lft.to/lastmile_qr_scan", "ios": "https://dc.lft.to/lastmile_qr_scan"}, "fusion_lon": 0.0}, {"lat": 38.8226435, "is_disabled": 0, "type": "electric_bike", "lon": -77.05811183333333, "bike_id": "3708d7653aaf99148275598e9816834f", "fusion_lat": 0.0, "name": "3708d7653aaf99148275598e9816834f", "is_reserved": 0, "rental_uris": {"android": "https://dc.lft.to/lastmile_qr_scan", "ios": "https://dc.lft.to/lastmile_qr_scan"}, "fusion_lon": 0.0}, {"lat": 38.858991333333336, "is_disabled": 0, "type": "electric_scooter", "lon": -76.99432483333334, "bike_id": "b386934c0dd8e523948c93c774111f83", "fusion_lat": 0.0, "name": "b386934c0dd8e523948c93c774111f83", "is_reserved": 0, "rental_uris": {"android": "https://dc.lft.to/lastmile_qr_scan", "ios": "https://dc.lft.to/lastmile_qr_scan"}, "fusion_lon": 0.0}, {"lat": 38.90835416666667, "is_disabled": 0, "type": "electric_scooter", "lon": -76.99695333333334, "bike_id": "fe795a7aaa636c36bf649aac6d18405b", "fusion_lat": 0.0, "name": "fe795a7aaa636c36bf649aac6d18405b", "is_reserved": 0, "rental_uris": {"android": "https://dc.lft.to/lastmile_qr_scan", "ios": "https://dc.lft.to/lastmile_qr_scan"}, "fusion_lon": 0.0}, {"lat": 38.899734333333335, "is_disabled": 0, "type": "electric_scooter", "lon": -77.0211335, "bike_id": "026d899e582090e3c70491249cfc1e13", "fusion_lat": 0.0, "name": "026d899e582090e3c70491249cfc1e13", "is_reserved": 0, "rental_uris": {"android": "https://dc.lft.to/lastmile_qr_scan", "ios": "https://dc.lft.to/lastmile_qr_scan"}, "fusion_lon": 0.0}, {"lat": 38.90228583333333, "is_disabled": 0, "type": "electric_scooter", "lon": -77.05341133333333, "bike_id": "3158641c42d4b317fb888e8777684c6d", "fusion_lat": 0.0, "name": "3158641c42d4b317fb888e8777684c6d", "is_reserved": 0, "rental_uris": {"android": "https://dc.lft.to/lastmile_qr_scan", "ios": "https://dc.lft.to/lastmile_qr_scan"}, "fusion_lon": 0.0}, {"lat": 38.89827616666667, "is_disabled": 0, "type": "electric_scooter", "lon": -77.031625, "bike_id": "6e0d1bbe88ac870c222343817c5e429d", "fusion_lat": 0.0, "name": "6e0d1bbe88ac870c222343817c5e429d", "is_reserved": 0, "rental_uris": {"android": "https://dc.lft.to/lastmile_qr_scan", "ios": "https://dc.lft.to/lastmile_qr_scan"}, "fusion_lon": 0.0}, {"lat": 38.90798866666667, "is_disabled": 0, "type": "electric_scooter", "lon": -77.03645016666667, "bike_id": "10898caf61f96e73504594670194ff39", "fusion_lat": 0.0, "name": "10898caf61f96e73504594670194ff39", "is_reserved": 0, "rental_uris": {"android": "https://dc.lft.to/lastmile_qr_scan", "ios": "https://dc.lft.to/lastmile_qr_scan"}, "fusion_lon": 0.0}, {"lat": 38.869953, "is_disabled": 0, "type": "electric_bike", "lon": -76.95980933333334, "bike_id": "1a0ffab3c9753ddd26e5b8d875173560", "fusion_lat": 0.0, "name": "1a0ffab3c9753ddd26e5b8d875173560", "is_reserved": 0, "rental_uris": {"android": "https://dc.lft.to/lastmile_qr_scan", "ios": "https://dc.lft.to/lastmile_qr_scan"}, "fusion_lon": 0.0}, {"lat": 38.92763583333333, "is_disabled": 0, "type": "electric_scooter", "lon": -77.0326135, "bike_id": "7def7047e09d91683f604e78f02b2370", "fusion_lat": 0.0, "name": "7def7047e09d91683f604e78f02b2370", "is_reserved": 0, "rental_uris": {"android": "https://dc.lft.to/lastmile_qr_scan", "ios": "https://dc.lft.to/lastmile_qr_scan"}, "fusion_lon": 0.0}, {"lat": 38.909602666666665, "is_disabled": 0, "type": "electric_bike", "lon": -77.035679, "bike_id": "0bb82bbcf40c02c40c9efb20bf8043e8", "fusion_lat": 0.0, "name": "0bb82bbcf40c02c40c9efb20bf8043e8", "is_reserved": 0, "rental_uris": {"android": "https://dc.lft.to/lastmile_qr_scan", "ios": "https://dc.lft.to/lastmile_qr_scan"}, "fusion_lon": 0.0}, {"lat": 38.93324, "is_disabled": 0, "type": "electric_scooter", "lon": -77.05706183333334, "bike_id": "ec031289bfdb0c1de0dd55ad92f5c5d5", "fusion_lat": 0.0, "name": "ec031289bfdb0c1de0dd55ad92f5c5d5", "is_reserved": 0, "rental_uris": {"android": "https://dc.lft.to/lastmile_qr_scan", "ios": "https://dc.lft.to/lastmile_qr_scan"}, "fusion_lon": 0.0}, {"lat": 38.93829016666667, "is_disabled": 0, "type": "electric_scooter", "lon": -77.06042516666666, "bike_id": "8198a027b72f21e19aa152c8d5c5ed56", "fusion_lat": 0.0, "name": "8198a027b72f21e19aa152c8d5c5ed56", "is_reserved": 0, "rental_uris": {"android": "https://dc.lft.to/lastmile_qr_scan", "ios": "https://dc.lft.to/lastmile_qr_scan"}, "fusion_lon": 0.0}, {"lat": 38.924415833333335, "is_disabled": 0, "type": "electric_bike", "lon": -77.02697283333333, "bike_id": "15d63361218a5eccafa6a54bb3a5dca7", "fusion_lat": 0.0, "name": "15d63361218a5eccafa6a54bb3a5dca7", "is_reserved": 0, "rental_uris": {"android": "https://dc.lft.to/lastmile_qr_scan", "ios": "https://dc.lft.to/lastmile_qr_scan"}, "fusion_lon": 0.0}, {"lat": 38.9269405, "is_disabled": 0, "type": "electric_scooter", "lon": -77.02578016666666, "bike_id": "b6223cadfc571e44d3a89c9268e5ddd9", "fusion_lat": 0.0, "name": "b6223cadfc571e44d3a89c9268e5ddd9", "is_reserved": 0, "rental_uris": {"android": "https://dc.lft.to/lastmile_qr_scan", "ios": "https://dc.lft.to/lastmile_qr_scan"}, "fusion_lon": 0.0}, {"lat": 38.89841933333334, "is_disabled": 0, "type": "electric_scooter", "lon": -76.93103166666667, "bike_id": "7d861cfea3b454d35d9acf9f2bb8c6a5", "fusion_lat": 0.0, "name": "7d861cfea3b454d35d9acf9f2bb8c6a5", "is_reserved": 0, "rental_uris": {"android": "https://dc.lft.to/lastmile_qr_scan", "ios": "https://dc.lft.to/lastmile_qr_scan"}, "fusion_lon": 0.0}, {"lat": 38.9373755, "is_disabled": 0, "type": "electric_scooter", "lon": -77.03263816666667, "bike_id": "5bcfdd05b65bfdc9215cfaab1843dfae", "fusion_lat": 0.0, "name": "5bcfdd05b65bfdc9215cfaab1843dfae", "is_reserved": 0, "rental_uris": {"android": "https://dc.lft.to/lastmile_qr_scan", "ios": "https://dc.lft.to/lastmile_qr_scan"}, "fusion_lon": 0.0}, {"lat": 38.923286166666664, "is_disabled": 0, "type": "electric_scooter", "lon": -77.02956733333333, "bike_id": "9fab01bd7a64c0d4ec93557a0818c8d5", "fusion_lat": 0.0, "name": "9fab01bd7a64c0d4ec93557a0818c8d5", "is_reserved": 0, "rental_uris": {"android": "https://dc.lft.to/lastmile_qr_scan", "ios": "https://dc.lft.to/lastmile_qr_scan"}, "fusion_lon": 0.0}, {"lat": 38.902310666666665, "is_disabled": 0, "type": "electric_scooter", "lon": -77.0534255, "bike_id": "8de1e2c3e75f19f80ccf081a10fdce35", "fusion_lat": 0.0, "name": "8de1e2c3e75f19f80ccf081a10fdce35", "is_reserved": 0, "rental_uris": {"android": "https://dc.lft.to/lastmile_qr_scan", "ios": "https://dc.lft.to/lastmile_qr_scan"}, "fusion_lon": 0.0}, {"lat": 38.966072, "is_disabled": 0, "type": "electric_bike", "lon": -76.983316, "bike_id": "cf891bad21c321c1312609ffb5a9292c", "fusion_lat": 0.0, "name": "cf891bad21c321c1312609ffb5a9292c", "is_reserved": 0, "rental_uris": {"android": "https://dc.lft.to/lastmile_qr_scan", "ios": "https://dc.lft.to/lastmile_qr_scan"}, "fusion_lon": 0.0}, {"lat": 38.898334166666665, "is_disabled": 0, "type": "electric_scooter", "lon": -77.00740766666667, "bike_id": "6656021222e75c5506224e90a58eae4a", "fusion_lat": 0.0, "name": "6656021222e75c5506224e90a58eae4a", "is_reserved": 0, "rental_uris": {"android": "https://dc.lft.to/lastmile_qr_scan", "ios": "https://dc.lft.to/lastmile_qr_scan"}, "fusion_lon": 0.0}, {"lat": 38.92572916666667, "is_disabled": 0, "type": "electric_scooter", "lon": -76.97003283333333, "bike_id": "9db10664a796828d6e60918b9c9a9da2", "fusion_lat": 0.0, "name": "9db10664a796828d6e60918b9c9a9da2", "is_reserved": 0, "rental_uris": {"android": "https://dc.lft.to/lastmile_qr_scan", "ios": "https://dc.lft.to/lastmile_qr_scan"}, "fusion_lon": 0.0}, {"lat": 38.936476666666664, "is_disabled": 0, "type": "electric_bike", "lon": -77.03283766666667, "bike_id": "1ebe4fff6e9d497cab76f7eeb75cfc2b", "fusion_lat": 0.0, "name": "1ebe4fff6e9d497cab76f7eeb75cfc2b", "is_reserved": 0, "rental_uris": {"android": "https://dc.lft.to/lastmile_qr_scan", "ios": "https://dc.lft.to/lastmile_qr_scan"}, "fusion_lon": 0.0}, {"lat": 38.89099733333333, "is_disabled": 0, "type": "electric_scooter", "lon": -76.94299633333333, "bike_id": "8ad00e97835699626b2a0cafe82efe87", "fusion_lat": 0.0, "name": "8ad00e97835699626b2a0cafe82efe87", "is_reserved": 0, "rental_uris": {"android": "https://dc.lft.to/lastmile_qr_scan", "ios": "https://dc.lft.to/lastmile_qr_scan"}, "fusion_lon": 0.0}, {"lat": 38.9241405, "is_disabled": 0, "type": "electric_bike", "lon": -77.0504265, "bike_id": "d8593c951b4f5967e24666a2be989ee1", "fusion_lat": 0.0, "name": "d8593c951b4f5967e24666a2be989ee1", "is_reserved": 0, "rental_uris": {"android": "https://dc.lft.to/lastmile_qr_scan", "ios": "https://dc.lft.to/lastmile_qr_scan"}, "fusion_lon": 0.0}, {"lat": 38.92474633333333, "is_disabled": 0, "type": "electric_bike", "lon": -77.2083835, "bike_id": "f06bddb5b939325c739bb99341991153", "fusion_lat": 0.0, "name": "f06bddb5b939325c739bb99341991153", "is_reserved": 0, "rental_uris": {"android": "https://dc.lft.to/lastmile_qr_scan", "ios": "https://dc.lft.to/lastmile_qr_scan"}, "fusion_lon": 0.0}, {"lat": 38.90036466666667, "is_disabled": 0, "type": "electric_scooter", "lon": -77.00574916666666, "bike_id": "1bc0f5ac7ca322d54e3bbdd1e7863e2e", "fusion_lat": 0.0, "name": "1bc0f5ac7ca322d54e3bbdd1e7863e2e", "is_reserved": 0, "rental_uris": {"android": "https://dc.lft.to/lastmile_qr_scan", "ios": "https://dc.lft.to/lastmile_qr_scan"}, "fusion_lon": 0.0}, {"lat": 38.92720883333333, "is_disabled": 0, "type": "electric_scooter", "lon": -77.02095083333333, "bike_id": "a05927c8887b4ca3645d4a56cc70f950", "fusion_lat": 0.0, "name": "a05927c8887b4ca3645d4a56cc70f950", "is_reserved": 0, "rental_uris": {"android": "https://dc.lft.to/lastmile_qr_scan", "ios": "https://dc.lft.to/lastmile_qr_scan"}, "fusion_lon": 0.0}, {"lat": 38.90968783333334, "is_disabled": 0, "type": "electric_scooter", "lon": -77.03331983333334, "bike_id": "cab7a4fb64067c500d656002bc7721fe", "fusion_lat": 0.0, "name": "cab7a4fb64067c500d656002bc7721fe", "is_reserved": 0, "rental_uris": {"android": "https://dc.lft.to/lastmile_qr_scan", "ios": "https://dc.lft.to/lastmile_qr_scan"}, "fusion_lon": 0.0}, {"lat": 38.874518, "is_disabled": 0, "type": "electric_bike", "lon": -77.1081755, "bike_id": "d3664d440e29985c218ccb32c17ec9d5", "fusion_lat": 0.0, "name": "d3664d440e29985c218ccb32c17ec9d5", "is_reserved": 0, "rental_uris": {"android": "https://dc.lft.to/lastmile_qr_scan", "ios": "https://dc.lft.to/lastmile_qr_scan"}, "fusion_lon": 0.0}, {"lat": 38.893796, "is_disabled": 0, "type": "electric_scooter", "lon": -77.04790683333333, "bike_id": "15a9accb0f08b3d944c38606e09a6da6", "fusion_lat": 0.0, "name": "15a9accb0f08b3d944c38606e09a6da6", "is_reserved": 0, "rental_uris": {"android": "https://dc.lft.to/lastmile_qr_scan", "ios": "https://dc.lft.to/lastmile_qr_scan"}, "fusion_lon": 0.0}, {"lat": 38.858096833333335, "is_disabled": 0, "type": "electric_scooter", "lon": -76.98654, "bike_id": "9e95736f6cdf55982bbe008fc5e66bf7", "fusion_lat": 0.0, "name": "9e95736f6cdf55982bbe008fc5e66bf7", "is_reserved": 0, "rental_uris": {"android": "https://dc.lft.to/lastmile_qr_scan", "ios": "https://dc.lft.to/lastmile_qr_scan"}, "fusion_lon": 0.0}, {"lat": 38.9528045, "is_disabled": 0, "type": "electric_scooter", "lon": -77.03651933333333, "bike_id": "15fc888f4706f57c70fe69939d514df8", "fusion_lat": 0.0, "name": "15fc888f4706f57c70fe69939d514df8", "is_reserved": 0, "rental_uris": {"android": "https://dc.lft.to/lastmile_qr_scan", "ios": "https://dc.lft.to/lastmile_qr_scan"}, "fusion_lon": 0.0}, {"lat": 38.913160500000004, "is_disabled": 0, "type": "electric_scooter", "lon": -77.04550183333333, "bike_id": "98f9afe0723fc718a4ebe079f48a3a47", "fusion_lat": 0.0, "name": "98f9afe0723fc718a4ebe079f48a3a47", "is_reserved": 0, "rental_uris": {"android": "https://dc.lft.to/lastmile_qr_scan", "ios": "https://dc.lft.to/lastmile_qr_scan"}, "fusion_lon": 0.0}, {"lat": 38.91788833333333, "is_disabled": 0, "type": "electric_scooter", "lon": -77.04148416666666, "bike_id": "15d836eccd39331b6b07ba17224faa72", "fusion_lat": 0.0, "name": "15d836eccd39331b6b07ba17224faa72", "is_reserved": 0, "rental_uris": {"android": "https://dc.lft.to/lastmile_qr_scan", "ios": "https://dc.lft.to/lastmile_qr_scan"}, "fusion_lon": 0.0}, {"lat": 38.94450716666667, "is_disabled": 0, "type": "electric_scooter", "lon": -77.03277533333333, "bike_id": "0c02e0219e773b0d9a90c1215d1733ff", "fusion_lat": 0.0, "name": "0c02e0219e773b0d9a90c1215d1733ff", "is_reserved": 0, "rental_uris": {"android": "https://dc.lft.to/lastmile_qr_scan", "ios": "https://dc.lft.to/lastmile_qr_scan"}, "fusion_lon": 0.0}, {"lat": 38.93085883333333, "is_disabled": 0, "type": "electric_scooter", "lon": -77.02794216666666, "bike_id": "746226b7dcd50ed71c3040a936ac82cc", "fusion_lat": 0.0, "name": "746226b7dcd50ed71c3040a936ac82cc", "is_reserved": 0, "rental_uris": {"android": "https://dc.lft.to/lastmile_qr_scan", "ios": "https://dc.lft.to/lastmile_qr_scan"}, "fusion_lon": 0.0}, {"lat": 38.9169665, "is_disabled": 0, "type": "electric_scooter", "lon": -77.043334, "bike_id": "2d00818b11cfdf31f2ced07d7b3847db", "fusion_lat": 0.0, "name": "2d00818b11cfdf31f2ced07d7b3847db", "is_reserved": 0, "rental_uris": {"android": "https://dc.lft.to/lastmile_qr_scan", "ios": "https://dc.lft.to/lastmile_qr_scan"}, "fusion_lon": 0.0}, {"lat": 38.964004, "is_disabled": 0, "type": "electric_scooter", "lon": -77.025898, "bike_id": "066777f36a339f6c9e6ea308397b1ac0", "fusion_lat": 0.0, "name": "066777f36a339f6c9e6ea308397b1ac0", "is_reserved": 0, "rental_uris": {"android": "https://dc.lft.to/lastmile_qr_scan", "ios": "https://dc.lft.to/lastmile_qr_scan"}, "fusion_lon": 0.0}, {"lat": 38.87923466666667, "is_disabled": 0, "type": "electric_scooter", "lon": -76.991482, "bike_id": "e6b0040927fb47375ffe8fe58c6bd7d8", "fusion_lat": 0.0, "name": "e6b0040927fb47375ffe8fe58c6bd7d8", "is_reserved": 0, "rental_uris": {"android": "https://dc.lft.to/lastmile_qr_scan", "ios": "https://dc.lft.to/lastmile_qr_scan"}, "fusion_lon": 0.0}, {"lat": 38.920699166666665, "is_disabled": 0, "type": "electric_scooter", "lon": -76.976, "bike_id": "148f05a90d10476a43549a51eb8e1f29", "fusion_lat": 0.0, "name": "148f05a90d10476a43549a51eb8e1f29", "is_reserved": 0, "rental_uris": {"android": "https://dc.lft.to/lastmile_qr_scan", "ios": "https://dc.lft.to/lastmile_qr_scan"}, "fusion_lon": 0.0}, {"lat": 38.96153733333333, "is_disabled": 0, "type": "electric_scooter", "lon": -77.02778283333333, "bike_id": "2e764e11fd65f745c1e5fea08fa0f263", "fusion_lat": 0.0, "name": "2e764e11fd65f745c1e5fea08fa0f263", "is_reserved": 0, "rental_uris": {"android": "https://dc.lft.to/lastmile_qr_scan", "ios": "https://dc.lft.to/lastmile_qr_scan"}, "fusion_lon": 0.0}, {"lat": 38.95959716666667, "is_disabled": 0, "type": "electric_bike", "lon": -77.10088766666667, "bike_id": "ee1880a353167e5abb724a700062698e", "fusion_lat": 0.0, "name": "ee1880a353167e5abb724a700062698e", "is_reserved": 0, "rental_uris": {"android": "https://dc.lft.to/lastmile_qr_scan", "ios": "https://dc.lft.to/lastmile_qr_scan"}, "fusion_lon": 0.0}, {"lat": 38.931425833333336, "is_disabled": 0, "type": "electric_scooter", "lon": -77.03832333333334, "bike_id": "9a6a281e4eb6fd9a72ed8821d6611cfa", "fusion_lat": 0.0, "name": "9a6a281e4eb6fd9a72ed8821d6611cfa", "is_reserved": 0, "rental_uris": {"android": "https://dc.lft.to/lastmile_qr_scan", "ios": "https://dc.lft.to/lastmile_qr_scan"}, "fusion_lon": 0.0}, {"lat": 38.842607666666666, "is_disabled": 0, "type": "electric_scooter", "lon": -77.00233983333334, "bike_id": "9e632792e202a9547db37eebbe47dd97", "fusion_lat": 0.0, "name": "9e632792e202a9547db37eebbe47dd97", "is_reserved": 0, "rental_uris": {"android": "https://dc.lft.to/lastmile_qr_scan", "ios": "https://dc.lft.to/lastmile_qr_scan"}, "fusion_lon": 0.0}, {"lat": 38.90349633333334, "is_disabled": 0, "type": "electric_scooter", "lon": -77.06571783333334, "bike_id": "84ff5fc388959a31661d323d7593c8b6", "fusion_lat": 0.0, "name": "84ff5fc388959a31661d323d7593c8b6", "is_reserved": 0, "rental_uris": {"android": "https://dc.lft.to/lastmile_qr_scan", "ios": "https://dc.lft.to/lastmile_qr_scan"}, "fusion_lon": 0.0}, {"lat": 38.8804675, "is_disabled": 0, "type": "electric_scooter", "lon": -76.98629833333334, "bike_id": "d1c20e2a85e42cbb5e163e235d041480", "fusion_lat": 0.0, "name": "d1c20e2a85e42cbb5e163e235d041480", "is_reserved": 0, "rental_uris": {"android": "https://dc.lft.to/lastmile_qr_scan", "ios": "https://dc.lft.to/lastmile_qr_scan"}, "fusion_lon": 0.0}, {"lat": 38.88747716666666, "is_disabled": 0, "type": "electric_scooter", "lon": -77.02173833333333, "bike_id": "2d729115bd1397d8b26f61f395a8e2f3", "fusion_lat": 0.0, "name": "2d729115bd1397d8b26f61f395a8e2f3", "is_reserved": 0, "rental_uris": {"android": "https://dc.lft.to/lastmile_qr_scan", "ios": "https://dc.lft.to/lastmile_qr_scan"}, "fusion_lon": 0.0}, {"lat": 38.920659, "is_disabled": 0, "type": "electric_scooter", "lon": -77.04338466666667, "bike_id": "f858cdb7789b933ec4bec5a2e03556ab", "fusion_lat": 0.0, "name": "f858cdb7789b933ec4bec5a2e03556ab", "is_reserved": 0, "rental_uris": {"android": "https://dc.lft.to/lastmile_qr_scan", "ios": "https://dc.lft.to/lastmile_qr_scan"}, "fusion_lon": 0.0}, {"lat": 38.898589333333334, "is_disabled": 0, "type": "electric_scooter", "lon": -77.01900866666666, "bike_id": "919c5c68521159ea14b208e29dff6666", "fusion_lat": 0.0, "name": "919c5c68521159ea14b208e29dff6666", "is_reserved": 0, "rental_uris": {"android": "https://dc.lft.to/lastmile_qr_scan", "ios": "https://dc.lft.to/lastmile_qr_scan"}, "fusion_lon": 0.0}, {"lat": 38.903663333333334, "is_disabled": 0, "type": "electric_scooter", "lon": -77.06020533333333, "bike_id": "6733c77a74a086ef6d82b904edd40474", "fusion_lat": 0.0, "name": "6733c77a74a086ef6d82b904edd40474", "is_reserved": 0, "rental_uris": {"android": "https://dc.lft.to/lastmile_qr_scan", "ios": "https://dc.lft.to/lastmile_qr_scan"}, "fusion_lon": 0.0}, {"lat": 38.884367, "is_disabled": 0, "type": "electric_scooter", "lon": -77.03039383333333, "bike_id": "73c7dcc22699f312996b90f15af4c8c2", "fusion_lat": 0.0, "name": "73c7dcc22699f312996b90f15af4c8c2", "is_reserved": 0, "rental_uris": {"android": "https://dc.lft.to/lastmile_qr_scan", "ios": "https://dc.lft.to/lastmile_qr_scan"}, "fusion_lon": 0.0}, {"lat": 38.905568333333335, "is_disabled": 0, "type": "electric_scooter", "lon": -77.0569185, "bike_id": "302ce75c78571bae909a8589d48959b9", "fusion_lat": 0.0, "name": "302ce75c78571bae909a8589d48959b9", "is_reserved": 0, "rental_uris": {"android": "https://dc.lft.to/lastmile_qr_scan", "ios": "https://dc.lft.to/lastmile_qr_scan"}, "fusion_lon": 0.0}, {"lat": 38.9247745, "is_disabled": 0, "type": "electric_scooter", "lon": -77.02651066666667, "bike_id": "fa8fae4db2126e0885d32cfe2f2be91b", "fusion_lat": 0.0, "name": "fa8fae4db2126e0885d32cfe2f2be91b", "is_reserved": 0, "rental_uris": {"android": "https://dc.lft.to/lastmile_qr_scan", "ios": "https://dc.lft.to/lastmile_qr_scan"}, "fusion_lon": 0.0}, {"lat": 38.90490583333333, "is_disabled": 0, "type": "electric_scooter", "lon": -77.02007316666666, "bike_id": "7fe726461d2d68ea49ef4f958d2d46e1", "fusion_lat": 0.0, "name": "7fe726461d2d68ea49ef4f958d2d46e1", "is_reserved": 0, "rental_uris": {"android": "https://dc.lft.to/lastmile_qr_scan", "ios": "https://dc.lft.to/lastmile_qr_scan"}, "fusion_lon": 0.0}, {"lat": 38.88390033333334, "is_disabled": 0, "type": "electric_scooter", "lon": -77.01892266666667, "bike_id": "4bfa8daafcb8b23d3ffeb2d8ab03884b", "fusion_lat": 0.0, "name": "4bfa8daafcb8b23d3ffeb2d8ab03884b", "is_reserved": 0, "rental_uris": {"android": "https://dc.lft.to/lastmile_qr_scan", "ios": "https://dc.lft.to/lastmile_qr_scan"}, "fusion_lon": 0.0}, {"lat": 38.90921066666667, "is_disabled": 0, "type": "electric_scooter", "lon": -77.03641233333333, "bike_id": "bb3debf1315997cebf76847599a7e6a8", "fusion_lat": 0.0, "name": "bb3debf1315997cebf76847599a7e6a8", "is_reserved": 0, "rental_uris": {"android": "https://dc.lft.to/lastmile_qr_scan", "ios": "https://dc.lft.to/lastmile_qr_scan"}, "fusion_lon": 0.0}, {"lat": 38.868913666666664, "is_disabled": 0, "type": "electric_scooter", "lon": -76.983105, "bike_id": "ed0a05db9fbfc952b8d7f1348fd896d6", "fusion_lat": 0.0, "name": "ed0a05db9fbfc952b8d7f1348fd896d6", "is_reserved": 0, "rental_uris": {"android": "https://dc.lft.to/lastmile_qr_scan", "ios": "https://dc.lft.to/lastmile_qr_scan"}, "fusion_lon": 0.0}, {"lat": 38.920741166666666, "is_disabled": 0, "type": "electric_scooter", "lon": -77.04201316666666, "bike_id": "dc95dfa1d4fab5580e10630ccce77bb3", "fusion_lat": 0.0, "name": "dc95dfa1d4fab5580e10630ccce77bb3", "is_reserved": 0, "rental_uris": {"android": "https://dc.lft.to/lastmile_qr_scan", "ios": "https://dc.lft.to/lastmile_qr_scan"}, "fusion_lon": 0.0}, {"lat": 38.904990166666664, "is_disabled": 0, "type": "electric_scooter", "lon": -77.068285, "bike_id": "ff085a19f2d100d84352396c24b1a519", "fusion_lat": 0.0, "name": "ff085a19f2d100d84352396c24b1a519", "is_reserved": 0, "rental_uris": {"android": "https://dc.lft.to/lastmile_qr_scan", "ios": "https://dc.lft.to/lastmile_qr_scan"}, "fusion_lon": 0.0}, {"lat": 38.904931833333336, "is_disabled": 0, "type": "electric_scooter", "lon": -76.98709516666666, "bike_id": "45ac28a131ac995d9cdd1d90f64f2803", "fusion_lat": 0.0, "name": "45ac28a131ac995d9cdd1d90f64f2803", "is_reserved": 0, "rental_uris": {"android": "https://dc.lft.to/lastmile_qr_scan", "ios": "https://dc.lft.to/lastmile_qr_scan"}, "fusion_lon": 0.0}, {"lat": 38.9444325, "is_disabled": 0, "type": "electric_scooter", "lon": -77.06356066666666, "bike_id": "68395c978ff25c531a0bce8845841f29", "fusion_lat": 0.0, "name": "68395c978ff25c531a0bce8845841f29", "is_reserved": 0, "rental_uris": {"android": "https://dc.lft.to/lastmile_qr_scan", "ios": "https://dc.lft.to/lastmile_qr_scan"}, "fusion_lon": 0.0}, {"lat": 38.87342366666667, "is_disabled": 0, "type": "electric_scooter", "lon": -76.991655, "bike_id": "b0b2cc308c274400718473e92956d6c1", "fusion_lat": 0.0, "name": "b0b2cc308c274400718473e92956d6c1", "is_reserved": 0, "rental_uris": {"android": "https://dc.lft.to/lastmile_qr_scan", "ios": "https://dc.lft.to/lastmile_qr_scan"}, "fusion_lon": 0.0}, {"lat": 38.92108566666667, "is_disabled": 0, "type": "electric_scooter", "lon": -77.04201016666667, "bike_id": "6bb6e1b54294a8920da684e503d1039c", "fusion_lat": 0.0, "name": "6bb6e1b54294a8920da684e503d1039c", "is_reserved": 0, "rental_uris": {"android": "https://dc.lft.to/lastmile_qr_scan", "ios": "https://dc.lft.to/lastmile_qr_scan"}, "fusion_lon": 0.0}, {"lat": 38.93893633333333, "is_disabled": 0, "type": "electric_scooter", "lon": -77.0282375, "bike_id": "b135e3bf437afe58d95b1ac0dd1f4b47", "fusion_lat": 0.0, "name": "b135e3bf437afe58d95b1ac0dd1f4b47", "is_reserved": 0, "rental_uris": {"android": "https://dc.lft.to/lastmile_qr_scan", "ios": "https://dc.lft.to/lastmile_qr_scan"}, "fusion_lon": 0.0}, {"lat": 38.85517816666667, "is_disabled": 0, "type": "electric_bike", "lon": -77.12024733333334, "bike_id": "45a62216bd665459cb55afb58ac91200", "fusion_lat": 0.0, "name": "45a62216bd665459cb55afb58ac91200", "is_reserved": 0, "rental_uris": {"android": "https://dc.lft.to/lastmile_qr_scan", "ios": "https://dc.lft.to/lastmile_qr_scan"}, "fusion_lon": 0.0}, {"lat": 38.902070333333334, "is_disabled": 0, "type": "electric_scooter", "lon": -77.021732, "bike_id": "4047bb761e9d5f8b2deb0b219067a4e0", "fusion_lat": 0.0, "name": "4047bb761e9d5f8b2deb0b219067a4e0", "is_reserved": 0, "rental_uris": {"android": "https://dc.lft.to/lastmile_qr_scan", "ios": "https://dc.lft.to/lastmile_qr_scan"}, "fusion_lon": 0.0}, {"lat": 38.896607333333336, "is_disabled": 0, "type": "electric_scooter", "lon": -77.02314433333333, "bike_id": "a520e369b876dbb65315729186d99910", "fusion_lat": 0.0, "name": "a520e369b876dbb65315729186d99910", "is_reserved": 0, "rental_uris": {"android": "https://dc.lft.to/lastmile_qr_scan", "ios": "https://dc.lft.to/lastmile_qr_scan"}, "fusion_lon": 0.0}, {"lat": 39.003872, "is_disabled": 0, "type": "electric_bike", "lon": -77.01284, "bike_id": "9748310bfb4349994207f91b4c265ff4", "fusion_lat": 0.0, "name": "9748310bfb4349994207f91b4c265ff4", "is_reserved": 0, "rental_uris": {"android": "https://dc.lft.to/lastmile_qr_scan", "ios": "https://dc.lft.to/lastmile_qr_scan"}, "fusion_lon": 0.0}, {"lat": 38.916127333333336, "is_disabled": 0, "type": "electric_scooter", "lon": -77.04880283333334, "bike_id": "e29846323902714f946db1c3b308a58b", "fusion_lat": 0.0, "name": "e29846323902714f946db1c3b308a58b", "is_reserved": 0, "rental_uris": {"android": "https://dc.lft.to/lastmile_qr_scan", "ios": "https://dc.lft.to/lastmile_qr_scan"}, "fusion_lon": 0.0}, {"lat": 38.89744433333333, "is_disabled": 0, "type": "electric_scooter", "lon": -77.04463433333333, "bike_id": "8021aea27b3318ccc41222da91f81c77", "fusion_lat": 0.0, "name": "8021aea27b3318ccc41222da91f81c77", "is_reserved": 0, "rental_uris": {"android": "https://dc.lft.to/lastmile_qr_scan", "ios": "https://dc.lft.to/lastmile_qr_scan"}, "fusion_lon": 0.0}, {"lat": 38.914054166666666, "is_disabled": 0, "type": "electric_scooter", "lon": -77.03250983333334, "bike_id": "c18a3f1bf7a06dbcc8d4512b6d3d5823", "fusion_lat": 0.0, "name": "c18a3f1bf7a06dbcc8d4512b6d3d5823", "is_reserved": 0, "rental_uris": {"android": "https://dc.lft.to/lastmile_qr_scan", "ios": "https://dc.lft.to/lastmile_qr_scan"}, "fusion_lon": 0.0}, {"lat": 38.9234, "is_disabled": 0, "type": "electric_scooter", "lon": -77.018984, "bike_id": "465bdb271481ba6f634904660037a690", "fusion_lat": 0.0, "name": "465bdb271481ba6f634904660037a690", "is_reserved": 0, "rental_uris": {"android": "https://dc.lft.to/lastmile_qr_scan", "ios": "https://dc.lft.to/lastmile_qr_scan"}, "fusion_lon": 0.0}, {"lat": 38.88338666666667, "is_disabled": 0, "type": "electric_scooter", "lon": -77.031425, "bike_id": "00d7bdedbdbe0b2393fc2b17a2286052", "fusion_lat": 0.0, "name": "00d7bdedbdbe0b2393fc2b17a2286052", "is_reserved": 0, "rental_uris": {"android": "https://dc.lft.to/lastmile_qr_scan", "ios": "https://dc.lft.to/lastmile_qr_scan"}, "fusion_lon": 0.0}, {"lat": 38.91116066666667, "is_disabled": 0, "type": "electric_scooter", "lon": -77.00244833333333, "bike_id": "89d4029b824ce70f6f32150fc626d4d8", "fusion_lat": 0.0, "name": "89d4029b824ce70f6f32150fc626d4d8", "is_reserved": 0, "rental_uris": {"android": "https://dc.lft.to/lastmile_qr_scan", "ios": "https://dc.lft.to/lastmile_qr_scan"}, "fusion_lon": 0.0}, {"lat": 38.89737, "is_disabled": 0, "type": "electric_scooter", "lon": -77.0552185, "bike_id": "721941c1ac4d2ca73ce9bfe59d50dffc", "fusion_lat": 0.0, "name": "721941c1ac4d2ca73ce9bfe59d50dffc", "is_reserved": 0, "rental_uris": {"android": "https://dc.lft.to/lastmile_qr_scan", "ios": "https://dc.lft.to/lastmile_qr_scan"}, "fusion_lon": 0.0}, {"lat": 38.86108266666667, "is_disabled": 0, "type": "electric_scooter", "lon": -76.983569, "bike_id": "410353528f4756b9396d81bc8005387f", "fusion_lat": 0.0, "name": "410353528f4756b9396d81bc8005387f", "is_reserved": 0, "rental_uris": {"android": "https://dc.lft.to/lastmile_qr_scan", "ios": "https://dc.lft.to/lastmile_qr_scan"}, "fusion_lon": 0.0}, {"lat": 38.91013566666667, "is_disabled": 0, "type": "electric_scooter", "lon": -76.99387583333333, "bike_id": "c4e2510a6e66503d518de7de7fecca65", "fusion_lat": 0.0, "name": "c4e2510a6e66503d518de7de7fecca65", "is_reserved": 0, "rental_uris": {"android": "https://dc.lft.to/lastmile_qr_scan", "ios": "https://dc.lft.to/lastmile_qr_scan"}, "fusion_lon": 0.0}, {"lat": 38.861111666666666, "is_disabled": 0, "type": "electric_scooter", "lon": -76.96761783333334, "bike_id": "ad12e260471a01680ea3843f939405b8", "fusion_lat": 0.0, "name": "ad12e260471a01680ea3843f939405b8", "is_reserved": 0, "rental_uris": {"android": "https://dc.lft.to/lastmile_qr_scan", "ios": "https://dc.lft.to/lastmile_qr_scan"}, "fusion_lon": 0.0}, {"lat": 38.900257, "is_disabled": 0, "type": "electric_scooter", "lon": -77.00111116666666, "bike_id": "a1432ca6d053132e4bc0b71d7cb591ed", "fusion_lat": 0.0, "name": "a1432ca6d053132e4bc0b71d7cb591ed", "is_reserved": 0, "rental_uris": {"android": "https://dc.lft.to/lastmile_qr_scan", "ios": "https://dc.lft.to/lastmile_qr_scan"}, "fusion_lon": 0.0}, {"lat": 38.914131833333336, "is_disabled": 0, "type": "electric_scooter", "lon": -77.03811666666667, "bike_id": "ee791a2cc9b479e3a166412514935f4c", "fusion_lat": 0.0, "name": "ee791a2cc9b479e3a166412514935f4c", "is_reserved": 0, "rental_uris": {"android": "https://dc.lft.to/lastmile_qr_scan", "ios": "https://dc.lft.to/lastmile_qr_scan"}, "fusion_lon": 0.0}, {"lat": 38.900991166666664, "is_disabled": 0, "type": "electric_scooter", "lon": -77.04983883333334, "bike_id": "1a94b641b55c4d4843a36bff846b08d2", "fusion_lat": 0.0, "name": "1a94b641b55c4d4843a36bff846b08d2", "is_reserved": 0, "rental_uris": {"android": "https://dc.lft.to/lastmile_qr_scan", "ios": "https://dc.lft.to/lastmile_qr_scan"}, "fusion_lon": 0.0}, {"lat": 38.912667, "is_disabled": 0, "type": "electric_scooter", "lon": -77.00280683333334, "bike_id": "a8f8fa6923dd04fbec609f8500aa8737", "fusion_lat": 0.0, "name": "a8f8fa6923dd04fbec609f8500aa8737", "is_reserved": 0, "rental_uris": {"android": "https://dc.lft.to/lastmile_qr_scan", "ios": "https://dc.lft.to/lastmile_qr_scan"}, "fusion_lon": 0.0}, {"lat": 38.900288333333336, "is_disabled": 0, "type": "electric_scooter", "lon": -76.98737633333333, "bike_id": "47d63bcce044ac9a818b736e13d944df", "fusion_lat": 0.0, "name": "47d63bcce044ac9a818b736e13d944df", "is_reserved": 0, "rental_uris": {"android": "https://dc.lft.to/lastmile_qr_scan", "ios": "https://dc.lft.to/lastmile_qr_scan"}, "fusion_lon": 0.0}, {"lat": 38.913395, "is_disabled": 0, "type": "electric_scooter", "lon": -77.0022315, "bike_id": "bf70afec3d580acb5e3947890f36288b", "fusion_lat": 0.0, "name": "bf70afec3d580acb5e3947890f36288b", "is_reserved": 0, "rental_uris": {"android": "https://dc.lft.to/lastmile_qr_scan", "ios": "https://dc.lft.to/lastmile_qr_scan"}, "fusion_lon": 0.0}, {"lat": 38.90785016666667, "is_disabled": 0, "type": "electric_scooter", "lon": -77.03200783333334, "bike_id": "067b6e1a0d006b0c4686b42f2d2ceca2", "fusion_lat": 0.0, "name": "067b6e1a0d006b0c4686b42f2d2ceca2", "is_reserved": 0, "rental_uris": {"android": "https://dc.lft.to/lastmile_qr_scan", "ios": "https://dc.lft.to/lastmile_qr_scan"}, "fusion_lon": 0.0}, {"lat": 38.91504316666666, "is_disabled": 0, "type": "electric_scooter", "lon": -77.0229955, "bike_id": "2fb2161d0dc01fde851b6e1d4e014c54", "fusion_lat": 0.0, "name": "2fb2161d0dc01fde851b6e1d4e014c54", "is_reserved": 0, "rental_uris": {"android": "https://dc.lft.to/lastmile_qr_scan", "ios": "https://dc.lft.to/lastmile_qr_scan"}, "fusion_lon": 0.0}, {"lat": 38.8861535, "is_disabled": 0, "type": "electric_scooter", "lon": -77.021673, "bike_id": "aeb8d12f77d96fe72f7482238dd05fbb", "fusion_lat": 0.0, "name": "aeb8d12f77d96fe72f7482238dd05fbb", "is_reserved": 0, "rental_uris": {"android": "https://dc.lft.to/lastmile_qr_scan", "ios": "https://dc.lft.to/lastmile_qr_scan"}, "fusion_lon": 0.0}, {"lat": 38.90593, "is_disabled": 0, "type": "electric_scooter", "lon": -77.04166, "bike_id": "61f130b067c38ba9b32f45062c43941d", "fusion_lat": 0.0, "name": "61f130b067c38ba9b32f45062c43941d", "is_reserved": 0, "rental_uris": {"android": "https://dc.lft.to/lastmile_qr_scan", "ios": "https://dc.lft.to/lastmile_qr_scan"}, "fusion_lon": 0.0}, {"lat": 38.88586733333333, "is_disabled": 0, "type": "electric_scooter", "lon": -77.01532483333334, "bike_id": "37269decd1eaed84ef20ac0f854d96c4", "fusion_lat": 0.0, "name": "37269decd1eaed84ef20ac0f854d96c4", "is_reserved": 0, "rental_uris": {"android": "https://dc.lft.to/lastmile_qr_scan", "ios": "https://dc.lft.to/lastmile_qr_scan"}, "fusion_lon": 0.0}, {"lat": 38.881236, "is_disabled": 0, "type": "electric_scooter", "lon": -77.00096833333333, "bike_id": "1444cd0fe072058c9b4d3cc297559631", "fusion_lat": 0.0, "name": "1444cd0fe072058c9b4d3cc297559631", "is_reserved": 0, "rental_uris": {"android": "https://dc.lft.to/lastmile_qr_scan", "ios": "https://dc.lft.to/lastmile_qr_scan"}, "fusion_lon": 0.0},