{"data": {"bikes": [{"bike_id": "89a82603e3246a394706c812484fab0e", "fusion_lon": 0.0, "name": "89a82603e3246a394706c812484fab0e", "lat": 38.9016165, "is_disabled": 0, "is_reserved": 0, "lon": -77.01310516666666, "type": "electric_scooter", "fusion_lat": 0.0, "rental_uris": {"android": "https://dc.lft.to/lastmile_qr_scan", "ios": "https://dc.lft.to/lastmile_qr_scan"}}, {"bike_id": "55df1a0264796b47049ad9e9eb7d0387", "fusion_lon": 0.0, "name": "55df1a0264796b47049ad9e9eb7d0387", "lat": 38.9133605, "is_disabled": 0, "is_reserved": 0, "lon": -77.0317975, "type": "electric_scooter", "fusion_lat": 0.0, "rental_uris": {"android": "https://dc.lft.to/lastmile_qr_scan", "ios": "https://dc.lft.to/lastmile_qr_scan"}}, {"bike_id": "713f6e9cf5af0eece5fa385ade740522", "fusion_lon": 0.0, "name": "713f6e9cf5af0eece5fa385ade740522", "lat": 38.8963315, "is_disabled": 0, "is_reserved": 0, "lon": -77.03218783333334, "type": "electric_scooter", "fusion_lat": 0.0, "rental_uris": {"android": "https://dc.lft.to/lastmile_qr_scan", "ios": "https://dc.lft.to/lastmile_qr_scan"}}, {"bike_id": "ecb19c06b3b4481e229c983f26723393", "fusion_lon": 0.0, "name": "ecb19c06b3b4481e229c983f26723393", "lat": 38.8589815, "is_disabled": 0, "is_reserved": 0, "lon": -77.09564833333333, "type": "electric_bike", "fusion_lat": 0.0, "rental_uris": {"android": "https://dc.lft.to/lastmile_qr_scan", "ios": "https://dc.lft.to/lastmile_qr_scan"}}, {"bike_id": "24f5579df57890763d2e385107009494", "fusion_lon": 0.0, "name": "24f5579df57890763d2e385107009494", "lat": 38.915578333333336, "is_disabled": 0, "is_reserved": 0, "lon": -77.03325466666666, "type": "electric_scooter", "fusion_lat": 0.0, "rental_uris": {"android": "https://dc.lft.to/lastmile_qr_scan", "ios": "https://dc.lft.to/lastmile_qr_scan"}}, {"bike_id": "cf8ac7e9a50bda33ab3f7442ebd91a5c", "fusion_lon": 0.0, "name": "cf8ac7e9a50bda33ab3f7442ebd91a5c", "lat": 38.93610916666667, "is_disabled": 0, "is_reserved": 0, "lon": -77.05864616666666, "type": "electric_scooter", "fusion_lat": 0.0, "rental_uris": {"android": "https://dc.lft.to/lastmile_qr_scan", "ios": "https://dc.lft.to/lastmile_qr_scan"}}, {"bike_id": "5865577ae2423261d116b5cdab6cabba", "fusion_lon": 0.0, "name": "5865577ae2423261d116b5cdab6cabba", "lat": 38.90258, "is_disabled": 0, "is_reserved": 0, "lon": -77.03518016666666, "type": "electric_scooter", "fusion_lat": 0.0, "rental_uris": {"android": "https://dc.lft.to/lastmile_qr_scan", "ios": "https://dc.lft.to/lastmile_qr_scan"}}, {"bike_id": "6adbdbbf1fe0de83845281942c293abb", "fusion_lon": 0.0, "name": "6adbdbbf1fe0de83845281942c293abb", "lat": 38.881409, "is_disabled": 0, "is_reserved": 0, "lon": -76.996195, "type": "electric_scooter", "fusion_lat": 0.0, "rental_uris": {"android": "https://dc.lft.to/lastmile_qr_scan", "ios": "https://dc.lft.to/lastmile_qr_scan"}}, {"bike_id": "c731b540b5ae36335e72b8bfac7f3c3b", "fusion_lon": 0.0, "name": "c731b540b5ae36335e72b8bfac7f3c3b", "lat": 38.897984, "is_disabled": 0, "is_reserved": 0, "lon": -76.93124433333334, "type": "electric_scooter", "fusion_lat": 0.0, "rental_uris": {"android": "https://dc.lft.to/lastmile_qr_scan", "ios": "https://dc.lft.to/lastmile_qr_scan"}}, {"bike_id": "a8e4340df6fea343fc6957b22e998844", "fusion_lon": 0.0, "name": "a8e4340df6fea343fc6957b22e998844", "lat": 38.897240333333336, "is_disabled": 0, "is_reserved": 0, "lon": -77.00420416666667, "type": "electric_scooter", "fusion_lat": 0.0, "rental_uris": {"android": "https://dc.lft.to/lastmile_qr_scan", "ios": "https://dc.lft.to/lastmile_qr_scan"}}, {"bike_id": "5acbfa87668b04839b5ad77d2ee1cf15", "fusion_lon": 0.0, "name": "5acbfa87668b04839b5ad77d2ee1cf15", "lat": 38.90792416666667, "is_disabled": 0, "is_reserved": 0, "lon": -77.0001765, "type": "electric_scooter", "fusion_lat": 0.0, "rental_uris": {"android": "https://dc.lft.to/lastmile_qr_scan", "ios": "https://dc.lft.to/lastmile_qr_scan"}}, {"bike_id": "e986a104a265908f0030e872b2483d81", "fusion_lon": 0.0, "name": "e986a104a265908f0030e872b2483d81", "lat": 38.90576333333333, "is_disabled": 0, "is_reserved": 0, "lon": -77.00394516666667, "type": "electric_scooter", "fusion_lat": 0.0, "rental_uris": {"android": "https://dc.lft.to/lastmile_qr_scan", "ios": "https://dc.lft.to/lastmile_qr_scan"}}, {"bike_id": "01e99601e3c682ecc000170db34d39f3", "fusion_lon": 0.0, "name": "01e99601e3c682ecc000170db34d39f3", "lat": 38.914134, "is_disabled": 0, "is_reserved": 0, "lon": -77.03143083333333, "type": "electric_scooter", "fusion_lat": 0.0, "rental_uris": {"android": "https://dc.lft.to/lastmile_qr_scan", "ios": "https://dc.lft.to/lastmile_qr_scan"}}, {"bike_id": "c2bc12c601690350e763e46b10be1b91", "fusion_lon": 0.0, "name": "c2bc12c601690350e763e46b10be1b91", "lat": 38.905479, "is_disabled": 0, "is_reserved": 0, "lon": -77.00290533333333, "type": "electric_scooter", "fusion_lat": 0.0, "rental_uris": {"android": "https://dc.lft.to/lastmile_qr_scan", "ios": "https://dc.lft.to/lastmile_qr_scan"}}, {"bike_id": "0631841dba6594eb04ebedb959f05cfc", "fusion_lon": 0.0, "name": "0631841dba6594eb04ebedb959f05cfc", "lat": 38.92126916666667, "is_disabled": 0, "is_reserved": 0, "lon": -77.0411335, "type": "electric_scooter", "fusion_lat": 0.0, "rental_uris": {"android": "https://dc.lft.to/lastmile_qr_scan", "ios": "https://dc.lft.to/lastmile_qr_scan"}}, {"bike_id": "7da7f1ab51d97425dee4ec33edae3418", "fusion_lon": 0.0, "name": "7da7f1ab51d97425dee4ec33edae3418", "lat": 38.91117083333334, "is_disabled": 0, "is_reserved": 0, "lon": -77.034343, "type": "electric_scooter", "fusion_lat": 0.0, "rental_uris": {"android": "https://dc.lft.to/lastmile_qr_scan", "ios": "https://dc.lft.to/lastmile_qr_scan"}}, {"bike_id": "f8def81b154d4fbd944e8588a7be6e27", "fusion_lon": 0.0, "name": "f8def81b154d4fbd944e8588a7be6e27", "lat": 38.91176266666667, "is_disabled": 0, "is_reserved": 0, "lon": -77.02831333333333, "type": "electric_scooter", "fusion_lat": 0.0, "rental_uris": {"android": "https://dc.lft.to/lastmile_qr_scan", "ios": "https://dc.lft.to/lastmile_qr_scan"}}, {"bike_id": "35636c8dfdd6b43b4da0119235483446", "fusion_lon": 0.0, "name": "35636c8dfdd6b43b4da0119235483446", "lat": 38.93534916666667, "is_disabled": 0, "is_reserved": 0, "lon": -77.02351116666667, "type": "electric_scooter", "fusion_lat": 0.0, "rental_uris": {"android": "https://dc.lft.to/lastmile_qr_scan", "ios": "https://dc.lft.to/lastmile_qr_scan"}}, {"bike_id": "af574ed37fd96868f784e60f7c7aee05", "fusion_lon": 0.0, "name": "af574ed37fd96868f784e60f7c7aee05", "lat": 38.838649833333335, "is_disabled": 0, "is_reserved": 0, "lon": -76.99693583333334, "type": "electric_scooter", "fusion_lat": 0.0, "rental_uris": {"android": "https://dc.lft.to/lastmile_qr_scan", "ios": "https://dc.lft.to/lastmile_qr_scan"}}, {"bike_id": "a3b28bd27f09010313626f6f23a22dcb", "fusion_lon": 0.0, "name": "a3b28bd27f09010313626f6f23a22dcb", "lat": 38.92705266666667, "is_disabled": 0, "is_reserved": 0, "lon": -77.02434366666667, "type": "electric_scooter", "fusion_lat": 0.0, "rental_uris": {"android": "https://dc.lft.to/lastmile_qr_scan", "ios": "https://dc.lft.to/lastmile_qr_scan"}}, {"bike_id": "29af1c14bc2c04f06694c22f8582eb06", "fusion_lon": 0.0, "name": "29af1c14bc2c04f06694c22f8582eb06", "lat": 38.908027833333335, "is_disabled": 0, "is_reserved": 0, "lon": -77.04353466666667, "type": "electric_scooter", "fusion_lat": 0.0, "rental_uris": {"android": "https://dc.lft.to/lastmile_qr_scan", "ios": "https://dc.lft.to/lastmile_qr_scan"}}, {"bike_id": "92bd26a0382fce93f13a8ba3f0b520bd", "fusion_lon": 0.0, "name": "92bd26a0382fce93f13a8ba3f0b520bd", "lat": 38.839399, "is_disabled": 0, "is_reserved": 0, "lon": -77.08751583333333, "type": "electric_bike", "fusion_lat": 0.0, "rental_uris": {"android": "https://dc.lft.to/lastmile_qr_scan", "ios": "https://dc.lft.to/lastmile_qr_scan"}}, {"bike_id": "d6a753437dae6dcff6f7aee9c31d2db1", "fusion_lon": 0.0, "name": "d6a753437dae6dcff6f7aee9c31d2db1", "lat": 38.8849785, "is_disabled": 0, "is_reserved": 0, "lon": -76.95636766666667, "type": "electric_scooter", "fusion_lat": 0.0, "rental_uris": {"android": "https://dc.lft.to/lastmile_qr_scan", "ios": "https://dc.lft.to/lastmile_qr_scan"}}, {"bike_id": "9d6ac2aca0eeccdc53992072ef101e1d", "fusion_lon": 0.0, "name": "9d6ac2aca0eeccdc53992072ef101e1d", "lat": 38.9309765, "is_disabled": 0, "is_reserved": 0, "lon": -77.02476316666667, "type": "electric_scooter", "fusion_lat": 0.0, "rental_uris": {"android": "https://dc.lft.to/lastmile_qr_scan", "ios": "https://dc.lft.to/lastmile_qr_scan"}}, {"bike_id": "21387955bd9cfc59e45d1af9f93214af", "fusion_lon": 0.0, "name": "21387955bd9cfc59e45d1af9f93214af", "lat": 38.878300833333334, "is_disabled": 0, "is_reserved": 0, "lon": -76.990098, "type": "electric_scooter", "fusion_lat": 0.0, "rental_uris": {"android": "https://dc.lft.to/lastmile_qr_scan", "ios": "https://dc.lft.to/lastmile_qr_scan"}}, {"bike_id": "c2e960cab24d07d46c42ed654f6e5173", "fusion_lon": 0.0, "name": "c2e960cab24d07d46c42ed654f6e5173", "lat": 38.91334283333333, "is_disabled": 0, "is_reserved": 0, "lon": -77.0317375, "type": "electric_scooter", "fusion_lat": 0.0, "rental_uris": {"android": "https://dc.lft.to/lastmile_qr_scan", "ios": "https://dc.lft.to/lastmile_qr_scan"}}, {"bike_id": "797b7cd83664bc4c744fe50c92777ec9", "fusion_lon": 0.0, "name": "797b7cd83664bc4c744fe50c92777ec9", "lat": 38.88342683333333, "is_disabled": 0, "is_reserved": 0, "lon": -77.01730866666666, "type": "electric_scooter", "fusion_lat": 0.0, "rental_uris": {"android": "https://dc.lft.to/lastmile_qr_scan", "ios": "https://dc.lft.to/lastmile_qr_scan"}}, {"bike_id": "c12b8dd4fdfdaeccb78e0f5317733bb8", "fusion_lon": 0.0, "name": "c12b8dd4fdfdaeccb78e0f5317733bb8", "lat": 38.898447, "is_disabled": 0, "is_reserved": 0, "lon": -77.0073605, "type": "electric_scooter", "fusion_lat": 0.0, "rental_uris": {"android": "https://dc.lft.to/lastmile_qr_scan", "ios": "https://dc.lft.to/lastmile_qr_scan"}}, {"bike_id": "08232de7f0ee131aa968241778cbb543", "fusion_lon": 0.0, "name": "08232de7f0ee131aa968241778cbb543", "lat": 38.8850635, "is_disabled": 0, "is_reserved": 0, "lon": -77.005644, "type": "electric_scooter", "fusion_lat": 0.0, "rental_uris": {"android": "https://dc.lft.to/lastmile_qr_scan", "ios": "https://dc.lft.to/lastmile_qr_scan"}}, {"bike_id": "b8ab3e0e022cd2979c4243f4e4b5f670", "fusion_lon": 0.0, "name": "b8ab3e0e022cd2979c4243f4e4b5f670", "lat": 38.905176166666664, "is_disabled": 0, "is_reserved": 0, "lon": -77.06376366666667, "type": "electric_scooter", "fusion_lat": 0.0, "rental_uris": {"android": "https://dc.lft.to/lastmile_qr_scan", "ios": "https://dc.lft.to/lastmile_qr_scan"}}, {"bike_id": "d3d7a56e53ea67551a19688c43d7ff3d", "fusion_lon": 0.0, "name": "d3d7a56e53ea67551a19688c43d7ff3d", "lat": 38.967310499999996, "is_disabled": 0, "is_reserved": 0, "lon": -77.009203, "type": "electric_scooter", "fusion_lat": 0.0, "rental_uris": {"android": "https://dc.lft.to/lastmile_qr_scan", "ios": "https://dc.lft.to/lastmile_qr_scan"}}, {"bike_id": "79295e1d9afae5b046cf68bccb1ff5a8", "fusion_lon": 0.0, "name": "79295e1d9afae5b046cf68bccb1ff5a8", "lat": 38.928648833333334, "is_disabled": 0, "is_reserved": 0, "lon": -77.0322405, "type": "electric_scooter", "fusion_lat": 0.0, "rental_uris": {"android": "https://dc.lft.to/lastmile_qr_scan", "ios": "https://dc.lft.to/lastmile_qr_scan"}}, {"bike_id": "fe9b384a76d5f39cc1d3ff84c5760a55", "fusion_lon": 0.0, "name": "fe9b384a76d5f39cc1d3ff84c5760a55", "lat": 38.9524635, "is_disabled": 0, "is_reserved": 0, "lon": -77.02380366666667, "type": "electric_scooter", "fusion_lat": 0.0, "rental_uris": {"android": "https://dc.lft.to/lastmile_qr_scan", "ios": "https://dc.lft.to/lastmile_qr_scan"}}, {"bike_id": "496b58a59fd9f4cf7199d5522f06565d", "fusion_lon": 0.0, "name": "496b58a59fd9f4cf7199d5522f06565d", "lat": 38.89996583333333, "is_disabled": 0, "is_reserved": 0, "lon": -77.03220616666667, "type": "electric_scooter", "fusion_lat": 0.0, "rental_uris": {"android": "https://dc.lft.to/lastmile_qr_scan", "ios": "https://dc.lft.to/lastmile_qr_scan"}}, {"bike_id": "4f563a9b3d972e232c8469bb5723bb3e", "fusion_lon": 0.0, "name": "4f563a9b3d972e232c8469bb5723bb3e", "lat": 38.89254966666667, "is_disabled": 0, "is_reserved": 0, "lon": -76.951182, "type": "electric_bike", "fusion_lat": 0.0, "rental_uris": {"android": "https://dc.lft.to/lastmile_qr_scan", "ios": "https://dc.lft.to/lastmile_qr_scan"}}, {"bike_id": "25f68c566a874d3b60683860dcaea52d", "fusion_lon": 0.0, "name": "25f68c566a874d3b60683860dcaea52d", "lat": 38.896313666666664, "is_disabled": 0, "is_reserved": 0, "lon": -77.02652933333333, "type": "electric_scooter", "fusion_lat": 0.0, "rental_uris": {"android": "https://dc.lft.to/lastmile_qr_scan", "ios": "https://dc.lft.to/lastmile_qr_scan"}}, {"bike_id": "a2042881225c1c31074b7de5d8b5796f", "fusion_lon": 0.0, "name": "a2042881225c1c31074b7de5d8b5796f", "lat": 38.896242, "is_disabled": 0, "is_reserved": 0, "lon": -77.02861233333333, "type": "electric_scooter", "fusion_lat": 0.0, "rental_uris": {"android": "https://dc.lft.to/lastmile_qr_scan", "ios": "https://dc.lft.to/lastmile_qr_scan"}}, {"bike_id": "4a73d40204e93a548a407d3620ba9de2", "fusion_lon": 0.0, "name": "4a73d40204e93a548a407d3620ba9de2", "lat": 38.911175166666666, "is_disabled": 0, "is_reserved": 0, "lon": -77.04559316666666, "type": "electric_scooter", "fusion_lat": 0.0, "rental_uris": {"android": "https://dc.lft.to/lastmile_qr_scan", "ios": "https://dc.lft.to/lastmile_qr_scan"}}, {"bike_id": "9f6ac3aa2f1b5e84d8412a1f02999d15", "fusion_lon": 0.0, "name": "9f6ac3aa2f1b5e84d8412a1f02999d15", "lat": 38.904081166666664, "is_disabled": 0, "is_reserved": 0, "lon": -76.97331283333334, "type": "electric_scooter", "fusion_lat": 0.0, "rental_uris": {"android": "https://dc.lft.to/lastmile_qr_scan", "ios": "https://dc.lft.to/lastmile_qr_scan"}}, {"bike_id": "03371dbd2bba4f4545372a33a5e09eb3", "fusion_lon": 0.0, "name": "03371dbd2bba4f4545372a33a5e09eb3", "lat": 38.90781366666667, "is_disabled": 0, "is_reserved": 0, "lon": -77.040065, "type": "electric_scooter", "fusion_lat": 0.0, "rental_uris": {"android": "https://dc.lft.to/lastmile_qr_scan", "ios": "https://dc.lft.to/lastmile_qr_scan"}}, {"bike_id": "e569d22eb822d6850e432203ff5e2fce", "fusion_lon": 0.0, "name": "e569d22eb822d6850e432203ff5e2fce", "lat": 38.90237533333333, "is_disabled": 0, "is_reserved": 0, "lon": -77.01986816666667, "type": "electric_scooter", "fusion_lat": 0.0, "rental_uris": {"android": "https://dc.lft.to/lastmile_qr_scan", "ios": "https://dc.lft.to/lastmile_qr_scan"}}, {"bike_id": "01dbd7bb54cea4d548e78bb9aea3b29a", "fusion_lon": 0.0, "name": "01dbd7bb54cea4d548e78bb9aea3b29a", "lat": 38.9085435, "is_disabled": 0, "is_reserved": 0, "lon": -76.997965, "type": "electric_scooter", "fusion_lat": 0.0, "rental_uris": {"android": "https://dc.lft.to/lastmile_qr_scan", "ios": "https://dc.lft.to/lastmile_qr_scan"}}, {"bike_id": "3a358acd3ff15e363d28ba26fcce12c0", "fusion_lon": 0.0, "name": "3a358acd3ff15e363d28ba26fcce12c0", "lat": 38.90256133333333, "is_disabled": 0, "is_reserved": 0, "lon": -76.97452866666667, "type": "electric_scooter", "fusion_lat": 0.0, "rental_uris": {"android": "https://dc.lft.to/lastmile_qr_scan", "ios": "https://dc.lft.to/lastmile_qr_scan"}}, {"bike_id": "978a5c7435c8c11524fb2a7f89dd6d77", "fusion_lon": 0.0, "name": "978a5c7435c8c11524fb2a7f89dd6d77", "lat": 38.9170425, "is_disabled": 0, "is_reserved": 0, "lon": -77.03469433333333, "type": "electric_scooter", "fusion_lat": 0.0, "rental_uris": {"android": "https://dc.lft.to/lastmile_qr_scan", "ios": "https://dc.lft.to/lastmile_qr_scan"}}, {"bike_id": "5990a741f92ea5e82ecef76279e1f1e0", "fusion_lon": 0.0, "name": "5990a741f92ea5e82ecef76279e1f1e0", "lat": 38.93035183333333, "is_disabled": 0, "is_reserved": 0, "lon": -77.032877, "type": "electric_scooter", "fusion_lat": 0.0, "rental_uris": {"android": "https://dc.lft.to/lastmile_qr_scan", "ios": "https://dc.lft.to/lastmile_qr_scan"}}, {"bike_id": "d2efe892116ebd341075b8b96e93a924", "fusion_lon": 0.0, "name": "d2efe892116ebd341075b8b96e93a924", "lat": 38.892527333333334, "is_disabled": 0, "is_reserved": 0, "lon": -77.04654783333334, "type": "electric_scooter", "fusion_lat": 0.0, "rental_uris": {"android": "https://dc.lft.to/lastmile_qr_scan", "ios": "https://dc.lft.to/lastmile_qr_scan"}}, {"bike_id": "d2247139441eefe87cfd532859a9edef", "fusion_lon": 0.0, "name": "d2247139441eefe87cfd532859a9edef", "lat": 38.92886216666667, "is_disabled": 0, "is_reserved": 0, "lon": -77.02706666666667, "type": "electric_scooter", "fusion_lat": 0.0, "rental_uris": {"android": "https://dc.lft.to/lastmile_qr_scan", "ios": "https://dc.lft.to/lastmile_qr_scan"}}, {"bike_id": "dc8a11fe3a84c0aa8f4008123ec6ad18", "fusion_lon": 0.0, "name": "dc8a11fe3a84c0aa8f4008123ec6ad18", "lat": 38.9131855, "is_disabled": 0, "is_reserved": 0, "lon": -77.01513983333334, "type": "electric_scooter", "fusion_lat": 0.0, "rental_uris": {"android": "https://dc.lft.to/lastmile_qr_scan", "ios": "https://dc.lft.to/lastmile_qr_scan"}}, {"bike_id": "ae8478b50a8944bbf93d00233172e072", "fusion_lon": 0.0, "name": "ae8478b50a8944bbf93d00233172e072", "lat": 38.9042335, "is_disabled": 0, "is_reserved": 0, "lon": -76.9497785, "type": "electric_scooter", "fusion_lat": 0.0, "rental_uris": {"android": "https://dc.lft.to/lastmile_qr_scan", "ios": "https://dc.lft.to/lastmile_qr_scan"}}, {"bike_id": "87d6cbe89d0173192ce2ebbe9ac25cfb", "fusion_lon": 0.0, "name": "87d6cbe89d0173192ce2ebbe9ac25cfb", "lat": 38.89710133333333, "is_disabled": 0, "is_reserved": 0, "lon": -77.01296083333334, "type": "electric_scooter", "fusion_lat": 0.0, "rental_uris": {"android": "https://dc.lft.to/lastmile_qr_scan", "ios": "https://dc.lft.to/lastmile_qr_scan"}}, {"bike_id": "b05b93ded77b9e4c7974546f6144d722", "fusion_lon": 0.0, "name": "b05b93ded77b9e4c7974546f6144d722", "lat": 38.91738816666667, "is_disabled": 0, "is_reserved": 0, "lon": -77.03205133333333, "type": "electric_scooter", "fusion_lat": 0.0, "rental_uris": {"android": "https://dc.lft.to/lastmile_qr_scan", "ios": "https://dc.lft.to/lastmile_qr_scan"}}, {"bike_id": "204d1b77803d36970b8418bcdb3df2b7", "fusion_lon": 0.0, "name": "204d1b77803d36970b8418bcdb3df2b7", "lat": 38.906419666666665, "is_disabled": 0, "is_reserved": 0, "lon": -77.035596, "type": "electric_scooter", "fusion_lat": 0.0, "rental_uris": {"android": "https://dc.lft.to/lastmile_qr_scan", "ios": "https://dc.lft.to/lastmile_qr_scan"}}, {"bike_id": "e9a10e20d1fd43266168b914236a5be2", "fusion_lon": 0.0, "name": "e9a10e20d1fd43266168b914236a5be2", "lat": 38.88533066666667, "is_disabled": 0, "is_reserved": 0, "lon": -77.01512566666666, "type": "electric_scooter", "fusion_lat": 0.0, "rental_uris": {"android": "https://dc.lft.to/lastmile_qr_scan", "ios": "https://dc.lft.to/lastmile_qr_scan"}}, {"bike_id": "db5ced0c6920e8ec1739ed559d8a0e61", "fusion_lon": 0.0, "name": "db5ced0c6920e8ec1739ed559d8a0e61", "lat": 38.92402633333333, "is_disabled": 0, "is_reserved": 0, "lon": -77.04287433333333, "type": "electric_scooter", "fusion_lat": 0.0, "rental_uris": {"android": "https://dc.lft.to/lastmile_qr_scan", "ios": "https://dc.lft.to/lastmile_qr_scan"}}, {"bike_id": "a067eed79a4b8e1b1a36810592eb498a", "fusion_lon": 0.0, "name": "a067eed79a4b8e1b1a36810592eb498a", "lat": 38.92126966666667, "is_disabled": 0, "is_reserved": 0, "lon": -77.03656633333334, "type": "electric_scooter", "fusion_lat": 0.0, "rental_uris": {"android": "https://dc.lft.to/lastmile_qr_scan", "ios": "https://dc.lft.to/lastmile_qr_scan"}}, {"bike_id": "db375f1b04ec4899093f6d5d7ddb0f66", "fusion_lon": 0.0, "name": "db375f1b04ec4899093f6d5d7ddb0f66", "lat": 38.921581333333336, "is_disabled": 0, "is_reserved": 0, "lon": -77.03382133333334, "type": "electric_scooter", "fusion_lat": 0.0, "rental_uris": {"android": "https://dc.lft.to/lastmile_qr_scan", "ios": "https://dc.lft.to/lastmile_qr_scan"}}, {"bike_id": "26d03b7e2144e7f52ba4cc3c5a7b65cf", "fusion_lon": 0.0, "name": "26d03b7e2144e7f52ba4cc3c5a7b65cf", "lat": 38.91710883333333, "is_disabled": 0, "is_reserved": 0, "lon": -77.03038933333333, "type": "electric_scooter", "fusion_lat": 0.0, "rental_uris": {"android": "https://dc.lft.to/lastmile_qr_scan", "ios": "https://dc.lft.to/lastmile_qr_scan"}}, {"bike_id": "c360b42a342aed634b1bf562f181c4ac", "fusion_lon": 0.0, "name": "c360b42a342aed634b1bf562f181c4ac", "lat": 38.9133405, "is_disabled": 0, "is_reserved": 0, "lon": -77.03179966666667, "type": "electric_scooter", "fusion_lat": 0.0, "rental_uris": {"android": "https://dc.lft.to/lastmile_qr_scan", "ios": "https://dc.lft.to/lastmile_qr_scan"}}, {"bike_id": "81772908d2b36550e359eb258b9d4382", "fusion_lon": 0.0, "name": "81772908d2b36550e359eb258b9d4382", "lat": 38.887341, "is_disabled": 0, "is_reserved": 0, "lon": -77.02580716666667, "type": "electric_scooter", "fusion_lat": 0.0, "rental_uris": {"android": "https://dc.lft.to/lastmile_qr_scan", "ios": "https://dc.lft.to/lastmile_qr_scan"}}, {"bike_id": "4cd9470c1d5d6f8b549543efcbd46a56", "fusion_lon": 0.0, "name": "4cd9470c1d5d6f8b549543efcbd46a56", "lat": 38.8898575, "is_disabled": 0, "is_reserved": 0, "lon": -76.9874015, "type": "electric_scooter", "fusion_lat": 0.0, "rental_uris": {"android": "https://dc.lft.to/lastmile_qr_scan", "ios": "https://dc.lft.to/lastmile_qr_scan"}}, {"bike_id": "f90f401e41ebb488506d5fc383fd52e3", "fusion_lon": 0.0, "name": "f90f401e41ebb488506d5fc383fd52e3", "lat": 38.923776833333335, "is_disabled": 0, "is_reserved": 0, "lon": -77.03130266666666, "type": "electric_scooter", "fusion_lat": 0.0, "rental_uris": {"android": "https://dc.lft.to/lastmile_qr_scan", "ios": "https://dc.lft.to/lastmile_qr_scan"}}, {"bike_id": "ef071390535d8b482bcb023920fd2ba7", "fusion_lon": 0.0, "name": "ef071390535d8b482bcb023920fd2ba7", "lat": 38.8920075, "is_disabled": 0, "is_reserved": 0, "lon": -77.0028895, "type": "electric_scooter", "fusion_lat": 0.0, "rental_uris": {"android": "https://dc.lft.to/lastmile_qr_scan", "ios": "https://dc.lft.to/lastmile_qr_scan"}}, {"bike_id": "d7eb629d3b5a9c2b6fadcfad8440da15", "fusion_lon": 0.0, "name": "d7eb629d3b5a9c2b6fadcfad8440da15", "lat": 38.88307833333333, "is_disabled": 0, "is_reserved": 0, "lon": -77.01771816666667, "type": "electric_scooter", "fusion_lat": 0.0, "rental_uris": {"android": "https://dc.lft.to/lastmile_qr_scan", "ios": "https://dc.lft.to/lastmile_qr_scan"}}, {"bike_id": "2e27f86199130e3aece838bb6c8d0b37", "fusion_lon": 0.0, "name": "2e27f86199130e3aece838bb6c8d0b37", "lat": 38.92111033333333, "is_disabled": 0, "is_reserved": 0, "lon": -77.0722955, "type": "electric_scooter", "fusion_lat": 0.0, "rental_uris": {"android": "https://dc.lft.to/lastmile_qr_scan", "ios": "https://dc.lft.to/lastmile_qr_scan"}}, {"bike_id": "094c5c6fcbd4cf651b7d1e38e9908ce3", "fusion_lon": 0.0, "name": "094c5c6fcbd4cf651b7d1e38e9908ce3", "lat": 38.90206933333333, "is_disabled": 0, "is_reserved": 0, "lon": -77.02752383333333, "type": "electric_scooter", "fusion_lat": 0.0, "rental_uris": {"android": "https://dc.lft.to/lastmile_qr_scan", "ios": "https://dc.lft.to/lastmile_qr_scan"}}, {"bike_id": "9ae4eeade86d14f0dbfce30a3665a502", "fusion_lon": 0.0, "name": "9ae4eeade86d14f0dbfce30a3665a502", "lat": 38.90312616666667, "is_disabled": 0, "is_reserved": 0, "lon": -77.06017866666667, "type": "electric_scooter", "fusion_lat": 0.0, "rental_uris": {"android": "https://dc.lft.to/lastmile_qr_scan", "ios": "https://dc.lft.to/lastmile_qr_scan"}}, {"bike_id": "96c1f5203118d3ab0337c6a94f855bdf", "fusion_lon": 0.0, "name": "96c1f5203118d3ab0337c6a94f855bdf", "lat": 38.91695033333333, "is_disabled": 0, "is_reserved": 0, "lon": -77.03333733333334, "type": "electric_scooter", "fusion_lat": 0.0, "rental_uris": {"android": "https://dc.lft.to/lastmile_qr_scan", "ios": "https://dc.lft.to/lastmile_qr_scan"}}, {"bike_id": "1592da3b81d1b449da504aab6f1a153c", "fusion_lon": 0.0, "name": "1592da3b81d1b449da504aab6f1a153c", "lat": 38.92455616666667, "is_disabled": 0, "is_reserved": 0, "lon": -77.06733966666667, "type": "electric_bike", "fusion_lat": 0.0, "rental_uris": {"android": "https://dc.lft.to/lastmile_qr_scan", "ios": "https://dc.lft.to/lastmile_qr_scan"}}, {"bike_id": "82694a254c99495d9d93e3d6ca378427", "fusion_lon": 0.0, "name": "82694a254c99495d9d93e3d6ca378427", "lat": 38.95636183333333, "is_disabled": 0, "is_reserved": 0, "lon": -77.03304133333333, "type": "electric_scooter", "fusion_lat": 0.0, "rental_uris": {"android": "https://dc.lft.to/lastmile_qr_scan", "ios": "https://dc.lft.to/lastmile_qr_scan"}}, {"bike_id": "29071bea490174b153a554c0b929aa9c", "fusion_lon": 0.0, "name": "29071bea490174b153a554c0b929aa9c", "lat": 38.917722166666664, "is_disabled": 0, "is_reserved": 0, "lon": -77.0410015, "type": "electric_scooter", "fusion_lat": 0.0, "rental_uris": {"android": "https://dc.lft.to/lastmile_qr_scan", "ios": "https://dc.lft.to/lastmile_qr_scan"}}, {"bike_id": "a3a5e28cf5516a2b9ab6f410a536b1d2", "fusion_lon": 0.0, "name": "a3a5e28cf5516a2b9ab6f410a536b1d2", "lat": 38.89525883333334, "is_disabled": 0, "is_reserved": 0, "lon": -77.01144283333333, "type": "electric_scooter", "fusion_lat": 0.0, "rental_uris": {"android": "https://dc.lft.to/lastmile_qr_scan", "ios": "https://dc.lft.to/lastmile_qr_scan"}}, {"bike_id": "92b4c92fc8484a9c83efda1bade4d9d6", "fusion_lon": 0.0, "name": "92b4c92fc8484a9c83efda1bade4d9d6", "lat": 38.898095, "is_disabled": 0, "is_reserved": 0, "lon": -77.03138816666667, "type": "electric_scooter", "fusion_lat": 0.0, "rental_uris": {"android": "https://dc.lft.to/lastmile_qr_scan", "ios": "https://dc.lft.to/lastmile_qr_scan"}}, {"bike_id": "cad39316feb261c514de3f8ba43509b8", "fusion_lon": 0.0, "name": "cad39316feb261c514de3f8ba43509b8", "lat": 38.8835815, "is_disabled": 0, "is_reserved": 0, "lon": -76.9822035, "type": "electric_scooter", "fusion_lat": 0.0, "rental_uris": {"android": "https://dc.lft.to/lastmile_qr_scan", "ios": "https://dc.lft.to/lastmile_qr_scan"}}, {"bike_id": "97f6903194ff7b5c8bb707184ba0cc8f", "fusion_lon": 0.0, "name": "97f6903194ff7b5c8bb707184ba0cc8f", "lat": 38.916978, "is_disabled": 0, "is_reserved": 0, "lon": -77.03765833333334, "type": "electric_scooter", "fusion_lat": 0.0, "rental_uris": {"android": "https://dc.lft.to/lastmile_qr_scan", "ios": "https://dc.lft.to/lastmile_qr_scan"}}, {"bike_id": "cb5c10fe1918c8c9910b3dda7b299563", "fusion_lon": 0.0, "name": "cb5c10fe1918c8c9910b3dda7b299563", "lat": 38.90492116666667, "is_disabled": 0, "is_reserved": 0, "lon": -76.97425966666667, "type": "electric_bike", "fusion_lat": 0.0, "rental_uris": {"android": "https://dc.lft.to/lastmile_qr_scan", "ios": "https://dc.lft.to/lastmile_qr_scan"}}, {"bike_id": "03cb719efce0126c7345bc05fcb5e80f", "fusion_lon": 0.0, "name": "03cb719efce0126c7345bc05fcb5e80f", "lat": 38.9224825, "is_disabled": 0, "is_reserved": 0, "lon": -77.02994516666666, "type": "electric_scooter", "fusion_lat": 0.0, "rental_uris": {"android": "https://dc.lft.to/lastmile_qr_scan", "ios": "https://dc.lft.to/lastmile_qr_scan"}}, {"bike_id": "7699f5953d52afc5532044a4adf4a001", "fusion_lon": 0.0, "name": "7699f5953d52afc5532044a4adf4a001", "lat": 38.9960275, "is_disabled": 0, "is_reserved": 0, "lon": -77.07802616666666, "type": "electric_bike", "fusion_lat": 0.0, "rental_uris": {"android": "https://dc.lft.to/lastmile_qr_scan", "ios": "https://dc.lft.to/lastmile_qr_scan"}}, {"bike_id": "6f246a49d1eb65e36751631423320a9d", "fusion_lon": 0.0, "name": "6f246a49d1eb65e36751631423320a9d", "lat": 38.8626575, "is_disabled": 0, "is_reserved": 0, "lon": -76.98350266666667, "type": "electric_bike", "fusion_lat": 0.0, "rental_uris": {"android": "https://dc.lft.to/lastmile_qr_scan", "ios": "https://dc.lft.to/lastmile_qr_scan"}}, {"bike_id": "52d085606875bb7bf13c43df1eb305a5", "fusion_lon": 0.0, "name": "52d085606875bb7bf13c43df1eb305a5", "lat": 38.89916433333333, "is_disabled": 0, "is_reserved": 0, "lon": -77.02721733333334, "type": "electric_scooter", "fusion_lat": 0.0, "rental_uris": {"android": "https://dc.lft.to/lastmile_qr_scan", "ios": "https://dc.lft.to/lastmile_qr_scan"}}, {"bike_id": "df7c2f6d3effdb3350aaf6e5ea059422", "fusion_lon": 0.0, "name": "df7c2f6d3effdb3350aaf6e5ea059422", "lat": 38.887175166666665, "is_disabled": 0, "is_reserved": 0, "lon": -77.01329233333334, "type": "electric_scooter", "fusion_lat": 0.0, "rental_uris": {"android": "https://dc.lft.to/lastmile_qr_scan", "ios": "https://dc.lft.to/lastmile_qr_scan"}}, {"bike_id": "8febb10d874c40326868e262bcfb987d", "fusion_lon": 0.0, "name": "8febb10d874c40326868e262bcfb987d", "lat": 38.94658833333333, "is_disabled": 0, "is_reserved": 0, "lon": -77.00695583333334, "type": "electric_bike", "fusion_lat": 0.0, "rental_uris": {"android": "https://dc.lft.to/lastmile_qr_scan", "ios": "https://dc.lft.to/lastmile_qr_scan"}}, {"bike_id": "0711224c8a4006f50b2b7db99c3076df", "fusion_lon": 0.0, "name": "0711224c8a4006f50b2b7db99c3076df", "lat": 38.91769683333333, "is_disabled": 0, "is_reserved": 0, "lon": -77.02286266666667, "type": "electric_scooter", "fusion_lat": 0.0, "rental_uris": {"android": "https://dc.lft.to/lastmile_qr_scan", "ios": "https://dc.lft.to/lastmile_qr_scan"}}, {"bike_id": "ffebc702ca69492f77fbff2b3f23603f", "fusion_lon": 0.0, "name": "ffebc702ca69492f77fbff2b3f23603f", "lat": 38.918135666666664, "is_disabled": 0, "is_reserved": 0, "lon": -77.027064, "type": "electric_scooter", "fusion_lat": 0.0, "rental_uris": {"android": "https://dc.lft.to/lastmile_qr_scan", "ios": "https://dc.lft.to/lastmile_qr_scan"}}, {"bike_id": "48f406ad0169d4bf091db9a52b44778c", "fusion_lon": 0.0, "name": "48f406ad0169d4bf091db9a52b44778c", "lat": 38.8932285, "is_disabled": 0, "is_reserved": 0, "lon": -77.02218916666666, "type": "electric_scooter", "fusion_lat": 0.0, "rental_uris": {"android": "https://dc.lft.to/lastmile_qr_scan", "ios": "https://dc.lft.to/lastmile_qr_scan"}}, {"bike_id": "87c3c159c87a31dc6bc400b16e6209e6", "fusion_lon": 0.0, "name": "87c3c159c87a31dc6bc400b16e6209e6", "lat": 38.93675366666667, "is_disabled": 0, "is_reserved": 0, "lon": -77.03595366666667, "type": "electric_scooter", "fusion_lat": 0.0, "rental_uris": {"android": "https://dc.lft.to/lastmile_qr_scan", "ios": "https://dc.lft.to/lastmile_qr_scan"}}, {"bike_id": "ddef374705e9dd7a137957622d02bd91", "fusion_lon": 0.0, "name": "ddef374705e9dd7a137957622d02bd91", "lat": 38.8650765, "is_disabled": 0, "is_reserved": 0, "lon": -76.99005416666667, "type": "electric_scooter", "fusion_lat": 0.0, "rental_uris": {"android": "https://dc.lft.to/lastmile_qr_scan", "ios": "https://dc.lft.to/lastmile_qr_scan"}}, {"bike_id": "86e92b7ec101f4336ebf15648cc337f7", "fusion_lon": 0.0, "name": "86e92b7ec101f4336ebf15648cc337f7", "lat": 38.90400833333333, "is_disabled": 0, "is_reserved": 0, "lon": -77.02481366666666, "type": "electric_scooter", "fusion_lat": 0.0, "rental_uris": {"android": "https://dc.lft.to/lastmile_qr_scan", "ios": "https://dc.lft.to/lastmile_qr_scan"}}, {"bike_id": "a2f047c56df999690a09f54cc4c25bbe", "fusion_lon": 0.0, "name": "a2f047c56df999690a09f54cc4c25bbe", "lat": 38.91514, "is_disabled": 0, "is_reserved": 0, "lon": -77.00063666666667, "type": "electric_scooter", "fusion_lat": 0.0, "rental_uris": {"android": "https://dc.lft.to/lastmile_qr_scan", "ios": "https://dc.lft.to/lastmile_qr_scan"}}, {"bike_id": "e9928da68bd0e28cd5899414b360b208", "fusion_lon": 0.0, "name": "e9928da68bd0e28cd5899414b360b208", "lat": 38.89725516666667, "is_disabled": 0, "is_reserved": 0, "lon": -77.055254, "type": "electric_scooter", "fusion_lat": 0.0, "rental_uris": {"android": "https://dc.lft.to/lastmile_qr_scan", "ios": "https://dc.lft.to/lastmile_qr_scan"}}, {"bike_id": "a9c699c41e5312a095ff156e151dd45f", "fusion_lon": 0.0, "name": "a9c699c41e5312a095ff156e151dd45f", "lat": 38.897234, "is_disabled": 0, "is_reserved": 0, "lon": -77.00986033333334, "type": "electric_scooter", "fusion_lat": 0.0, "rental_uris": {"android": "https://dc.lft.to/lastmile_qr_scan", "ios": "https://dc.lft.to/lastmile_qr_scan"}}, {"bike_id": "c9cdb6e0cc119a3e40dfeed1fcae3c96", "fusion_lon": 0.0, "name": "c9cdb6e0cc119a3e40dfeed1fcae3c96", "lat": 38.925891, "is_disabled": 0, "is_reserved": 0, "lon": -77.03780116666667, "type": "electric_scooter", "fusion_lat": 0.0, "rental_uris": {"android": "https://dc.lft.to/lastmile_qr_scan", "ios": "https://dc.lft.to/lastmile_qr_scan"}}, {"bike_id": "3d704a0b62094c7339c6f4d0bf5969f2", "fusion_lon": 0.0, "name": "3d704a0b62094c7339c6f4d0bf5969f2", "lat": 38.97057383333333, "is_disabled": 0, "is_reserved": 0, "lon": -76.9361325, "type": "electric_bike", "fusion_lat": 0.0, "rental_uris": {"android": "https://dc.lft.to/lastmile_qr_scan", "ios": "https://dc.lft.to/lastmile_qr_scan"}}, {"bike_id": "d863456c77234114aafbbe49c7de3242", "fusion_lon": 0.0, "name": "d863456c77234114aafbbe49c7de3242", "lat": 38.9003315, "is_disabled": 0, "is_reserved": 0, "lon": -77.0022605, "type": "electric_scooter", "fusion_lat": 0.0, "rental_uris": {"android": "https://dc.lft.to/lastmile_qr_scan", "ios": "https://dc.lft.to/lastmile_qr_scan"}}, {"bike_id": "072189636c96a5b9ade67248c9774838", "fusion_lon": 0.0, "name": "072189636c96a5b9ade67248c9774838", "lat": 38.90239183333333, "is_disabled": 0, "is_reserved": 0, "lon": -77.03033066666667, "type": "electric_scooter", "fusion_lat": 0.0, "rental_uris": {"android": "https://dc.lft.to/lastmile_qr_scan", "ios": "https://dc.lft.to/lastmile_qr_scan"}}, {"bike_id": "ddf81cf247526f40ca7a3f07ae1e4df3", "fusion_lon": 0.0, "name": "ddf81cf247526f40ca7a3f07ae1e4df3", "lat": 38.909684, "is_disabled": 0, "is_reserved": 0, "lon": -77.0371255, "type": "electric_scooter", "fusion_lat": 0.0, "rental_uris": {"android": "https://dc.lft.to/lastmile_qr_scan", "ios": "https://dc.lft.to/lastmile_qr_scan"}}, {"bike_id": "dfb4eecc5671d33ab13e8f487d5a8f06", "fusion_lon": 0.0, "name": "dfb4eecc5671d33ab13e8f487d5a8f06", "lat": 38.879613, "is_disabled": 0, "is_reserved": 0, "lon": -77.02369966666667, "type": "electric_scooter", "fusion_lat": 0.0, "rental_uris": {"android": "https://dc.lft.to/lastmile_qr_scan", "ios": "https://dc.lft.to/lastmile_qr_scan"}}, {"bike_id": "9714748cac1e56009e3a71f1c13658ac", "fusion_lon": 0.0, "name": "9714748cac1e56009e3a71f1c13658ac", "lat": 38.842813666666665, "is_disabled": 0, "is_reserved": 0, "lon": -77.044892, "type": "electric_bike", "fusion_lat": 0.0, "rental_uris": {"android": "https://dc.lft.to/lastmile_qr_scan", "ios": "https://dc.lft.to/lastmile_qr_scan"}}, {"bike_id": "7fe1eeaa0705cc7813875125afa071f3", "fusion_lon": 0.0, "name": "7fe1eeaa0705cc7813875125afa071f3", "lat": 38.86682, "is_disabled": 0, "is_reserved": 0, "lon": -76.98563416666667, "type": "electric_scooter", "fusion_lat": 0.0, "rental_uris": {"android": "https://dc.lft.to/lastmile_qr_scan", "ios": "https://dc.lft.to/lastmile_qr_scan"}}, {"bike_id": "343b9d267cd5bcfdecc89ecf2ca9c11f", "fusion_lon": 0.0, "name": "343b9d267cd5bcfdecc89ecf2ca9c11f", "lat": 38.89995316666667, "is_disabled": 0, "is_reserved": 0, "lon": -77.00663933333334, "type": "electric_scooter", "fusion_lat": 0.0, "rental_uris": {"android": "https://dc.lft.to/lastmile_qr_scan", "ios": "https://dc.lft.to/lastmile_qr_scan"}}, {"bike_id": "8d5c282d20a9fcf1cca80a21747bcd1b", "fusion_lon": 0.0, "name": "8d5c282d20a9fcf1cca80a21747bcd1b", "lat": 38.89829683333333, "is_disabled": 0, "is_reserved": 0, "lon": -77.02546833333334, "type": "electric_scooter", "fusion_lat": 0.0, "rental_uris": {"android": "https://dc.lft.to/lastmile_qr_scan", "ios": "https://dc.lft.to/lastmile_qr_scan"}}, {"bike_id": "b58e4957c18ff9fc530a4be1dd587137", "fusion_lon": 0.0, "name": "b58e4957c18ff9fc530a4be1dd587137", "lat": 38.928789, "is_disabled": 0, "is_reserved": 0, "lon": -77.03380883333334, "type": "electric_scooter", "fusion_lat": 0.0, "rental_uris": {"android": "https://dc.lft.to/lastmile_qr_scan", "ios": "https://dc.lft.to/lastmile_qr_scan"}}, {"bike_id": "ee3f92a4311374078cc7066f69c16a74", "fusion_lon": 0.0, "name": "ee3f92a4311374078cc7066f69c16a74", "lat": 38.91364766666667, "is_disabled": 0, "is_reserved": 0, "lon": -77.04592433333333, "type": "electric_scooter", "fusion_lat": 0.0, "rental_uris": {"android": "https://dc.lft.to/lastmile_qr_scan", "ios": "https://dc.lft.to/lastmile_qr_scan"}}, {"bike_id": "a4d51d27a4d34dba4d535cb95fa19170", "fusion_lon": 0.0, "name": "a4d51d27a4d34dba4d535cb95fa19170", "lat": 38.934611833333335, "is_disabled": 0, "is_reserved": 0, "lon": -77.041211, "type": "electric_scooter", "fusion_lat": 0.0, "rental_uris": {"android": "https://dc.lft.to/lastmile_qr_scan", "ios": "https://dc.lft.to/lastmile_qr_scan"}}, {"bike_id": "08c5dca643989ea37524b23fa42b0599", "fusion_lon": 0.0, "name": "08c5dca643989ea37524b23fa42b0599", "lat": 38.952606333333335, "is_disabled": 0, "is_reserved": 0, "lon": -77.0024265, "type": "electric_scooter", "fusion_lat": 0.0, "rental_uris": {"android": "https://dc.lft.to/lastmile_qr_scan", "ios": "https://dc.lft.to/lastmile_qr_scan"}}, {"bike_id": "3314c68f4e9e2366a37ac18d9b7ab89e", "fusion_lon": 0.0, "name": "3314c68f4e9e2366a37ac18d9b7ab89e", "lat": 38.88490433333333, "is_disabled": 0, "is_reserved": 0, "lon": -77.00708816666666, "type": "electric_scooter", "fusion_lat": 0.0, "rental_uris": {"android": "https://dc.lft.to/lastmile_qr_scan", "ios": "https://dc.lft.to/lastmile_qr_scan"}}, {"bike_id": "2d37ff4879ce6ce42c74341c2d4c5673", "fusion_lon": 0.0, "name": "2d37ff4879ce6ce42c74341c2d4c5673", "lat": 38.910943, "is_disabled": 0, "is_reserved": 0, "lon": -77.0384805, "type": "electric_scooter", "fusion_lat": 0.0, "rental_uris": {"android": "https://dc.lft.to/lastmile_qr_scan", "ios": "https://dc.lft.to/lastmile_qr_scan"}}, {"bike_id": "edcf4fc9b2d81e38ba48674414b82ddf", "fusion_lon": 0.0, "name": "edcf4fc9b2d81e38ba48674414b82ddf", "lat": 38.928334166666666, "is_disabled": 0, "is_reserved": 0, "lon": -77.0329225, "type": "electric_scooter", "fusion_lat": 0.0, "rental_uris": {"android": "https://dc.lft.to/lastmile_qr_scan", "ios": "https://dc.lft.to/lastmile_qr_scan"}}, {"bike_id": "73ccc4596319ab91ae20c6b754baafb4", "fusion_lon": 0.0, "name": "73ccc4596319ab91ae20c6b754baafb4", "lat": 38.89735666666667, "is_disabled": 0, "is_reserved": 0, "lon": -77.04342516666667, "type": "electric_scooter", "fusion_lat": 0.0, "rental_uris": {"android": "https://dc.lft.to/lastmile_qr_scan", "ios": "https://dc.lft.to/lastmile_qr_scan"}}, {"bike_id": "5b271f957487944053b29c3fc70ab106", "fusion_lon": 0.0, "name": "5b271f957487944053b29c3fc70ab106", "lat": 38.892196166666665, "is_disabled": 0, "is_reserved": 0, "lon": -77.0201365, "type": "electric_scooter", "fusion_lat": 0.0, "rental_uris": {"android": "https://dc.lft.to/lastmile_qr_scan", "ios": "https://dc.lft.to/lastmile_qr_scan"}}, {"bike_id": "488e6db58943fc80b050eba83206f91e", "fusion_lon": 0.0, "name": "488e6db58943fc80b050eba83206f91e", "lat": 38.93174283333333, "is_disabled": 0, "is_reserved": 0, "lon": -77.042988, "type": "electric_scooter", "fusion_lat": 0.0, "rental_uris": {"android": "https://dc.lft.to/lastmile_qr_scan", "ios": "https://dc.lft.to/lastmile_qr_scan"}}, {"bike_id": "d445c19775393bfbb082c501f354c459", "fusion_lon": 0.0, "name": "d445c19775393bfbb082c501f354c459", "lat": 38.885492, "is_disabled": 0, "is_reserved": 0, "lon": -76.9978285, "type": "electric_scooter", "fusion_lat": 0.0, "rental_uris": {"android": "https://dc.lft.to/lastmile_qr_scan", "ios": "https://dc.lft.to/lastmile_qr_scan"}}, {"bike_id": "86bcd631dd9d4f346d80e49c22f3ea4c", "fusion_lon": 0.0, "name": "86bcd631dd9d4f346d80e49c22f3ea4c", "lat": 38.88732866666667, "is_disabled": 0, "is_reserved": 0, "lon": -77.025784, "type": "electric_scooter", "fusion_lat": 0.0, "rental_uris": {"android": "https://dc.lft.to/lastmile_qr_scan", "ios": "https://dc.lft.to/lastmile_qr_scan"}}, {"bike_id": "726a16bf47d909df9f3e9e48bd76d0d0", "fusion_lon": 0.0, "name": "726a16bf47d909df9f3e9e48bd76d0d0", "lat": 38.866839, "is_disabled": 0, "is_reserved": 0, "lon": -76.98573166666667, "type": "electric_scooter", "fusion_lat": 0.0, "rental_uris": {"android": "https://dc.lft.to/lastmile_qr_scan", "ios": "https://dc.lft.to/lastmile_qr_scan"}}, {"bike_id": "67e95eb9e6e7a09cb745c7eaff66cb3c", "fusion_lon": 0.0, "name": "67e95eb9e6e7a09cb745c7eaff66cb3c", "lat": 38.897161, "is_disabled": 0, "is_reserved": 0, "lon": -77.0079575, "type": "electric_scooter", "fusion_lat": 0.0, "rental_uris": {"android": "https://dc.lft.to/lastmile_qr_scan", "ios": "https://dc.lft.to/lastmile_qr_scan"}}, {"bike_id": "c4f2d0f2e71982f6c2d1dd98048dc8a8", "fusion_lon": 0.0, "name": "c4f2d0f2e71982f6c2d1dd98048dc8a8", "lat": 38.906468333333336, "is_disabled": 0, "is_reserved": 0, "lon": -77.02407733333334, "type": "electric_scooter", "fusion_lat": 0.0, "rental_uris": {"android": "https://dc.lft.to/lastmile_qr_scan", "ios": "https://dc.lft.to/lastmile_qr_scan"}}, {"bike_id": "73221dc4fc001b73cc47837bb0be181b", "fusion_lon": 0.0, "name": "73221dc4fc001b73cc47837bb0be181b", "lat": 38.911092333333336, "is_disabled": 0, "is_reserved": 0, "lon": -77.0356805, "type": "electric_scooter", "fusion_lat": 0.0, "rental_uris": {"android": "https://dc.lft.to/lastmile_qr_scan", "ios": "https://dc.lft.to/lastmile_qr_scan"}}, {"bike_id": "08c30e46ff9d31541b94a20f61e8444b", "fusion_lon": 0.0, "name": "08c30e46ff9d31541b94a20f61e8444b", "lat": 38.897279, "is_disabled": 0, "is_reserved": 0, "lon": -77.00218866666667, "type": "electric_scooter", "fusion_lat": 0.0, "rental_uris": {"android": "https://dc.lft.to/lastmile_qr_scan", "ios": "https://dc.lft.to/lastmile_qr_scan"}}, {"bike_id": "a1fd3a0ab87386aad51290a6bfcc4f5b", "fusion_lon": 0.0, "name": "a1fd3a0ab87386aad51290a6bfcc4f5b", "lat": 38.900065, "is_disabled": 0, "is_reserved": 0, "lon": -77.0303735, "type": "electric_scooter", "fusion_lat": 0.0, "rental_uris": {"android": "https://dc.lft.to/lastmile_qr_scan", "ios": "https://dc.lft.to/lastmile_qr_scan"}}, {"bike_id": "931ac74834ad6c83e2b7accbce5ac238", "fusion_lon": 0.0, "name": "931ac74834ad6c83e2b7accbce5ac238", "lat": 38.89809916666667, "is_disabled": 0, "is_reserved": 0, "lon": -77.02404066666666, "type": "electric_scooter", "fusion_lat": 0.0, "rental_uris": {"android": "https://dc.lft.to/lastmile_qr_scan", "ios": "https://dc.lft.to/lastmile_qr_scan"}}, {"bike_id": "fb731f324c7bea9faedf630f40c08f28", "fusion_lon": 0.0, "name": "fb731f324c7bea9faedf630f40c08f28", "lat": 38.944399833333335, "is_disabled": 0, "is_reserved": 0, "lon": -77.06404016666667, "type": "electric_scooter", "fusion_lat": 0.0, "rental_uris": {"android": "https://dc.lft.to/lastmile_qr_scan", "ios": "https://dc.lft.to/lastmile_qr_scan"}}, {"bike_id": "874640d6fd823c233f79748fdaea0607", "fusion_lon": 0.0, "name": "874640d6fd823c233f79748fdaea0607", "lat": 38.923232, "is_disabled": 0, "is_reserved": 0, "lon": -77.01961016666667, "type": "electric_scooter", "fusion_lat": 0.0, "rental_uris": {"android": "https://dc.lft.to/lastmile_qr_scan", "ios": "https://dc.lft.to/lastmile_qr_scan"}}, {"bike_id": "16f6fdcba88c3f8a843eed099f9433f5", "fusion_lon": 0.0, "name": "16f6fdcba88c3f8a843eed099f9433f5", "lat": 38.935066166666665, "is_disabled": 0, "is_reserved": 0, "lon": -77.0583185, "type": "electric_scooter", "fusion_lat": 0.0, "rental_uris": {"android": "https://dc.lft.to/lastmile_qr_scan", "ios": "https://dc.lft.to/lastmile_qr_scan"}}, {"bike_id": "47eec619a320ddde33dfc5a95d31ba55", "fusion_lon": 0.0, "name": "47eec619a320ddde33dfc5a95d31ba55", "lat": 38.90204216666667, "is_disabled": 0, "is_reserved": 0, "lon": -77.02230016666667, "type": "electric_scooter", "fusion_lat": 0.0, "rental_uris": {"android": "https://dc.lft.to/lastmile_qr_scan", "ios": "https://dc.lft.to/lastmile_qr_scan"}}, {"bike_id": "e4ae410798c44b1987af077f8469a3a6", "fusion_lon": 0.0, "name": "e4ae410798c44b1987af077f8469a3a6", "lat": 38.8984105, "is_disabled": 0, "is_reserved": 0, "lon": -77.01268716666667, "type": "electric_scooter", "fusion_lat": 0.0, "rental_uris": {"android": "https://dc.lft.to/lastmile_qr_scan", "ios": "https://dc.lft.to/lastmile_qr_scan"}}, {"bike_id": "c13e22dce8ca86e95d710257c46c2bd5", "fusion_lon": 0.0, "name": "c13e22dce8ca86e95d710257c46c2bd5", "lat": 38.944706333333336, "is_disabled": 0, "is_reserved": 0, "lon": -77.02357983333333, "type": "electric_scooter", "fusion_lat": 0.0, "rental_uris": {"android": "https://dc.lft.to/lastmile_qr_scan", "ios": "https://dc.lft.to/lastmile_qr_scan"}}, {"bike_id": "c4c1336a244da169049ecde378229bb6", "fusion_lon": 0.0, "name": "c4c1336a244da169049ecde378229bb6", "lat": 38.928511, "is_disabled": 0, "is_reserved": 0, "lon": -76.99775216666667, "type": "electric_scooter", "fusion_lat": 0.0, "rental_uris": {"android": "https://dc.lft.to/lastmile_qr_scan", "ios": "https://dc.lft.to/lastmile_qr_scan"}}, {"bike_id": "ce5e0f24b19682bb3188f26ac44df342", "fusion_lon": 0.0, "name": "ce5e0f24b19682bb3188f26ac44df342", "lat": 38.9233375, "is_disabled": 0, "is_reserved": 0, "lon": -77.019538, "type": "electric_scooter", "fusion_lat": 0.0, "rental_uris": {"android": "https://dc.lft.to/lastmile_qr_scan", "ios": "https://dc.lft.to/lastmile_qr_scan"}}, {"bike_id": "d8060ed79125c63e27d6497815599906", "fusion_lon": 0.0, "name": "d8060ed79125c63e27d6497815599906", "lat": 38.92849, "is_disabled": 0, "is_reserved": 0, "lon": -77.03286916666667, "type": "electric_scooter", "fusion_lat": 0.0, "rental_uris": {"android": "https://dc.lft.to/lastmile_qr_scan", "ios": "https://dc.lft.to/lastmile_qr_scan"}}, {"bike_id": "6737c7e3579f7a84aec58b851c3ae2df", "fusion_lon": 0.0, "name": "6737c7e3579f7a84aec58b851c3ae2df", "lat": 38.87501366666667, "is_disabled": 0, "is_reserved": 0, "lon": -77.00152633333333, "type": "electric_scooter", "fusion_lat": 0.0, "rental_uris": {"android": "https://dc.lft.to/lastmile_qr_scan", "ios": "https://dc.lft.to/lastmile_qr_scan"}}, {"bike_id": "b1ffe665ebf332a503b7a5f5df08e580", "fusion_lon": 0.0, "name": "b1ffe665ebf332a503b7a5f5df08e580", "lat": 38.911854166666664, "is_disabled": 0, "is_reserved": 0, "lon": -77.03841366666667, "type": "electric_scooter", "fusion_lat": 0.0, "rental_uris": {"android": "https://dc.lft.to/lastmile_qr_scan", "ios": "https://dc.lft.to/lastmile_qr_scan"}}, {"bike_id": "8789a7c0ea6719c3afa8eef6b764ecd5", "fusion_lon": 0.0, "name": "8789a7c0ea6719c3afa8eef6b764ecd5", "lat": 38.91693566666667, "is_disabled": 0, "is_reserved": 0, "lon": -77.0259635, "type": "electric_scooter", "fusion_lat": 0.0, "rental_uris": {"android": "https://dc.lft.to/lastmile_qr_scan", "ios": "https://dc.lft.to/lastmile_qr_scan"}}, {"bike_id": "b23dae8df21f3a2b247c2465a91f4f3b", "fusion_lon": 0.0, "name": "b23dae8df21f3a2b247c2465a91f4f3b", "lat": 38.892205833333335, "is_disabled": 0, "is_reserved": 0, "lon": -77.02221833333333, "type": "electric_scooter", "fusion_lat": 0.0, "rental_uris": {"android": "https://dc.lft.to/lastmile_qr_scan", "ios": "https://dc.lft.to/lastmile_qr_scan"}}, {"bike_id": "c6ca52379ec14115460a77ccc41fc074", "fusion_lon": 0.0, "name": "c6ca52379ec14115460a77ccc41fc074", "lat": 38.933347499999996, "is_disabled": 0, "is_reserved": 0, "lon": -77.0342945, "type": "electric_scooter", "fusion_lat": 0.0, "rental_uris": {"android": "https://dc.lft.to/lastmile_qr_scan", "ios": "https://dc.lft.to/lastmile_qr_scan"}}, {"bike_id": "c9436cdf7575024b8b77a3295ca4be81", "fusion_lon": 0.0, "name": "c9436cdf7575024b8b77a3295ca4be81", "lat": 39.00292316666667, "is_disabled": 0, "is_reserved": 0, "lon": -76.90297366666667, "type": "electric_bike", "fusion_lat": 0.0, "rental_uris": {"android": "https://dc.lft.to/lastmile_qr_scan", "ios": "https://dc.lft.to/lastmile_qr_scan"}}, {"bike_id": "1d40630db883f7819e537de58e4df310", "fusion_lon": 0.0, "name": "1d40630db883f7819e537de58e4df310", "lat": 38.94819233333333, "is_disabled": 0, "is_reserved": 0, "lon": -77.02944783333334, "type": "electric_bike", "fusion_lat": 0.0, "rental_uris": {"android": "https://dc.lft.to/lastmile_qr_scan", "ios": "https://dc.lft.to/lastmile_qr_scan"}}, {"bike_id": "229cedd20dd8e23157f9f0b59b2737e6", "fusion_lon": 0.0, "name": "229cedd20dd8e23157f9f0b59b2737e6", "lat": 38.914184, "is_disabled": 0, "is_reserved": 0, "lon": -77.02231916666666, "type": "electric_scooter", "fusion_lat": 0.0, "rental_uris": {"android": "https://dc.lft.to/lastmile_qr_scan", "ios": "https://dc.lft.to/lastmile_qr_scan"}}, {"bike_id": "c415959d7a9a837d7d8bcef626a9a3d1", "fusion_lon": 0.0, "name": "c415959d7a9a837d7d8bcef626a9a3d1", "lat": 38.898473833333334, "is_disabled": 0, "is_reserved": 0, "lon": -77.01884866666667, "type": "electric_scooter", "fusion_lat": 0.0, "rental_uris": {"android": "https://dc.lft.to/lastmile_qr_scan", "ios": "https://dc.lft.to/lastmile_qr_scan"}}, {"bike_id": "56a0bfc9c32be7f9cbd24eac5f58a1bc", "fusion_lon": 0.0, "name": "56a0bfc9c32be7f9cbd24eac5f58a1bc", "lat": 38.883425, "is_disabled": 0, "is_reserved": 0, "lon": -77.01731916666667, "type": "electric_scooter", "fusion_lat": 0.0, "rental_uris": {"android": "https://dc.lft.to/lastmile_qr_scan", "ios": "https://dc.lft.to/lastmile_qr_scan"}}, {"bike_id": "601d5ca8d7cb629fbf245d098e3835ee", "fusion_lon": 0.0, "name": "601d5ca8d7cb629fbf245d098e3835ee", "lat": 39.052534333333334, "is_disabled": 0, "is_reserved": 0, "lon": -77.08064566666667, "type": "electric_bike", "fusion_lat": 0.0, "rental_uris": {"android": "https://dc.lft.to/lastmile_qr_scan", "ios": "https://dc.lft.to/lastmile_qr_scan"}}, {"bike_id": "cadbcbb64aceb57d5c33fcdd8e7217ee", "fusion_lon": 0.0, "name": "cadbcbb64aceb57d5c33fcdd8e7217ee", "lat": 38.902451166666665, "is_disabled": 0, "is_reserved": 0, "lon": -77.01744816666667, "type": "electric_bike", "fusion_lat": 0.0, "rental_uris": {"android": "https://dc.lft.to/lastmile_qr_scan", "ios": "https://dc.lft.to/lastmile_qr_scan"}}, {"bike_id": "c4a99e991b2d272b25e1233f15aaa84c", "fusion_lon": 0.0, "name": "c4a99e991b2d272b25e1233f15aaa84c", "lat": 38.919075666666664, "is_disabled": 0, "is_reserved": 0, "lon": -77.04103816666667, "type": "electric_scooter", "fusion_lat": 0.0, "rental_uris": {"android": "https://dc.lft.to/lastmile_qr_scan", "ios": "https://dc.lft.to/lastmile_qr_scan"}}, {"bike_id": "006f405b93ed08985f6d9a90418c9e13", "fusion_lon": 0.0, "name": "006f405b93ed08985f6d9a90418c9e13", "lat": 38.896231, "is_disabled": 0, "is_reserved": 0, "lon": -77.00925466666666, "type": "electric_scooter", "fusion_lat": 0.0, "rental_uris": {"android": "https://dc.lft.to/lastmile_qr_scan", "ios": "https://dc.lft.to/lastmile_qr_scan"}}, {"bike_id": "248068d0c75db0d32d0501783254f09b", "fusion_lon": 0.0, "name": "248068d0c75db0d32d0501783254f09b", "lat": 38.873786833333334, "is_disabled": 0, "is_reserved": 0, "lon": -76.9700335, "type": "electric_scooter", "fusion_lat": 0.0, "rental_uris": {"android": "https://dc.lft.to/lastmile_qr_scan", "ios": "https://dc.lft.to/lastmile_qr_scan"}}, {"bike_id": "1401bbadaaa7cfc7f8678af50a736d98", "fusion_lon": 0.0, "name": "1401bbadaaa7cfc7f8678af50a736d98", "lat": 38.88318016666667, "is_disabled": 0, "is_reserved": 0, "lon": -77.01761633333334, "type": "electric_scooter", "fusion_lat": 0.0, "rental_uris": {"android": "https://dc.lft.to/lastmile_qr_scan", "ios": "https://dc.lft.to/lastmile_qr_scan"}}, {"bike_id": "0b7105d5e3992f8aa04d39badd866d0a", "fusion_lon": 0.0, "name": "0b7105d5e3992f8aa04d39badd866d0a", "lat": 38.90475383333333, "is_disabled": 0, "is_reserved": 0, "lon": -77.034721, "type": "electric_scooter", "fusion_lat": 0.0, "rental_uris": {"android": "https://dc.lft.to/lastmile_qr_scan", "ios": "https://dc.lft.to/lastmile_qr_scan"}}, {"bike_id": "157dda8b63f9ff9ca51143fdb6494c5b", "fusion_lon": 0.0, "name": "157dda8b63f9ff9ca51143fdb6494c5b", "lat": 38.90977383333333, "is_disabled": 0, "is_reserved": 0, "lon": -77.06497683333333, "type": "electric_scooter", "fusion_lat": 0.0, "rental_uris": {"android": "https://dc.lft.to/lastmile_qr_scan", "ios": "https://dc.lft.to/lastmile_qr_scan"}}, {"bike_id": "449e3649d2d0be42d9ee84e3035ae7be", "fusion_lon": 0.0, "name": "449e3649d2d0be42d9ee84e3035ae7be", "lat": 38.89875266666667, "is_disabled": 0, "is_reserved": 0, "lon": -76.93187066666667, "type": "electric_scooter", "fusion_lat": 0.0, "rental_uris": {"android": "https://dc.lft.to/lastmile_qr_scan", "ios": "https://dc.lft.to/lastmile_qr_scan"}}, {"bike_id": "39d405881879a89ab2c39761481acb5e", "fusion_lon": 0.0, "name": "39d405881879a89ab2c39761481acb5e", "lat": 38.93047216666667, "is_disabled": 0, "is_reserved": 0, "lon": -77.03794266666667, "type": "electric_scooter", "fusion_lat": 0.0, "rental_uris": {"android": "https://dc.lft.to/lastmile_qr_scan", "ios": "https://dc.lft.to/lastmile_qr_scan"}}, {"bike_id": "e1870eb6e5697b4cfa5b5087b054c816", "fusion_lon": 0.0, "name": "e1870eb6e5697b4cfa5b5087b054c816", "lat": 38.91186116666667, "is_disabled": 0, "is_reserved": 0, "lon": -77.03864783333333, "type": "electric_scooter", "fusion_lat": 0.0, "rental_uris": {"android": "https://dc.lft.to/lastmile_qr_scan", "ios": "https://dc.lft.to/lastmile_qr_scan"}}, {"bike_id": "badcddc44b7347fd2c05209e604b417b", "fusion_lon": 0.0, "name": "badcddc44b7347fd2c05209e604b417b", "lat": 38.92311316666667, "is_disabled": 0, "is_reserved": 0, "lon": -77.01951933333333, "type": "electric_scooter", "fusion_lat": 0.0, "rental_uris": {"android": "https://dc.lft.to/lastmile_qr_scan", "ios": "https://dc.lft.to/lastmile_qr_scan"}}, {"bike_id": "3f9fb83310c0079127e957fce5275ada", "fusion_lon": 0.0, "name": "3f9fb83310c0079127e957fce5275ada", "lat": 38.88738766666667, "is_disabled": 0, "is_reserved": 0, "lon": -77.01532416666667, "type": "electric_scooter", "fusion_lat": 0.0, "rental_uris": {"android": "https://dc.lft.to/lastmile_qr_scan", "ios": "https://dc.lft.to/lastmile_qr_scan"}}, {"bike_id": "e6adf17bc6cf4689403bbe7a4d590ab9", "fusion_lon": 0.0, "name": "e6adf17bc6cf4689403bbe7a4d590ab9", "lat": 38.89763283333333, "is_disabled": 0, "is_reserved": 0, "lon": -77.00897066666667, "type": "electric_scooter", "fusion_lat": 0.0, "rental_uris": {"android": "https://dc.lft.to/lastmile_qr_scan", "ios": "https://dc.lft.to/lastmile_qr_scan"}}, {"bike_id": "f3f1c1a4928515f47b916ed3c91c8717", "fusion_lon": 0.0, "name": "f3f1c1a4928515f47b916ed3c91c8717", "lat": 38.91822716666667, "is_disabled": 0, "is_reserved": 0, "lon": -77.01208683333333, "type": "electric_scooter", "fusion_lat": 0.0, "rental_uris": {"android": "https://dc.lft.to/lastmile_qr_scan", "ios": "https://dc.lft.to/lastmile_qr_scan"}}, {"bike_id": "158c837f2cb130402a8ee12de326c4e3", "fusion_lon": 0.0, "name": "158c837f2cb130402a8ee12de326c4e3", "lat": 38.89544166666667, "is_disabled": 0, "is_reserved": 0, "lon": -76.982083, "type": "electric_scooter", "fusion_lat": 0.0, "rental_uris": {"android": "https://dc.lft.to/lastmile_qr_scan", "ios": "https://dc.lft.to/lastmile_qr_scan"}}, {"bike_id": "7308253dc40d8870ab27b1516a1a5a4b", "fusion_lon": 0.0, "name": "7308253dc40d8870ab27b1516a1a5a4b", "lat": 38.816014, "is_disabled": 0, "is_reserved": 0, "lon": -77.05054316666667, "type": "electric_bike", "fusion_lat": 0.0, "rental_uris": {"android": "https://dc.lft.to/lastmile_qr_scan", "ios": "https://dc.lft.to/lastmile_qr_scan"}}, {"bike_id": "9ec023ff24f1d16b2ffd81ad4be31e2e", "fusion_lon": 0.0, "name": "9ec023ff24f1d16b2ffd81ad4be31e2e", "lat": 38.919977333333335, "is_disabled": 0, "is_reserved": 0, "lon": -77.01787333333333, "type": "electric_scooter", "fusion_lat": 0.0, "rental_uris": {"android": "https://dc.lft.to/lastmile_qr_scan", "ios": "https://dc.lft.to/lastmile_qr_scan"}}, {"bike_id": "500877ee7663ce9f6d6cdc663d939b7f", "fusion_lon": 0.0, "name": "500877ee7663ce9f6d6cdc663d939b7f", "lat": 38.89711416666667, "is_disabled": 0, "is_reserved": 0, "lon": -77.00839266666667, "type": "electric_scooter", "fusion_lat": 0.0, "rental_uris": {"android": "https://dc.lft.to/lastmile_qr_scan", "ios": "https://dc.lft.to/lastmile_qr_scan"}}, {"bike_id": "4f0ed8c9bb16cbee4d32dcedd37c8d87", "fusion_lon": 0.0, "name": "4f0ed8c9bb16cbee4d32dcedd37c8d87", "lat": 38.90771933333333, "is_disabled": 0, "is_reserved": 0, "lon": -77.04506666666667, "type": "electric_scooter", "fusion_lat": 0.0, "rental_uris": {"android": "https://dc.lft.to/lastmile_qr_scan", "ios": "https://dc.lft.to/lastmile_qr_scan"}}, {"bike_id": "8b001defd1656ac76d5367f5ad59ab93", "fusion_lon": 0.0, "name": "8b001defd1656ac76d5367f5ad59ab93", "lat": 38.90291533333333, "is_disabled": 0, "is_reserved": 0, "lon": -77.03207366666666, "type": "electric_scooter", "fusion_lat": 0.0, "rental_uris": {"android": "https://dc.lft.to/lastmile_qr_scan", "ios": "https://dc.lft.to/lastmile_qr_scan"}}, {"bike_id": "83688615b2f0d65dd399318bbb43e2ca", "fusion_lon": 0.0, "name": "83688615b2f0d65dd399318bbb43e2ca", "lat": 38.9087105, "is_disabled": 0, "is_reserved": 0, "lon": -77.0233495, "type": "electric_scooter", "fusion_lat": 0.0, "rental_uris": {"android": "https://dc.lft.to/lastmile_qr_scan", "ios": "https://dc.lft.to/lastmile_qr_scan"}}, {"bike_id": "5a215cac4f9c40b9c17715903914cf31", "fusion_lon": 0.0, "name": "5a215cac4f9c40b9c17715903914cf31", "lat": 38.8998875, "is_disabled": 0, "is_reserved": 0, "lon": -77.02320816666666, "type": "electric_scooter", "fusion_lat": 0.0, "rental_uris": {"android": "https://dc.lft.to/lastmile_qr_scan", "ios": "https://dc.lft.to/lastmile_qr_scan"}}, {"bike_id": "17adebf82eb8443975d21943c0e5f67f", "fusion_lon": 0.0, "name": "17adebf82eb8443975d21943c0e5f67f", "lat": 38.90257666666667, "is_disabled": 0, "is_reserved": 0, "lon": -77.00884233333333, "type": "electric_scooter", "fusion_lat": 0.0, "rental_uris": {"android": "https://dc.lft.to/lastmile_qr_scan", "ios": "https://dc.lft.to/lastmile_qr_scan"}}, {"bike_id": "0298a9df5f8889f9f861d9b505b849d0", "fusion_lon": 0.0, "name": "0298a9df5f8889f9f861d9b505b849d0", "lat": 38.90206083333333, "is_disabled": 0, "is_reserved": 0, "lon": -77.02235, "type": "electric_scooter", "fusion_lat": 0.0, "rental_uris": {"android": "https://dc.lft.to/lastmile_qr_scan", "ios": "https://dc.lft.to/lastmile_qr_scan"}}, {"bike_id": "6aeced1b6210766466d81a248bac3c33", "fusion_lon": 0.0, "name": "6aeced1b6210766466d81a248bac3c33", "lat": 38.94190366666667, "is_disabled": 0, "is_reserved": 0, "lon": -77.0384005, "type": "electric_scooter", "fusion_lat": 0.0, "rental_uris": {"android": "https://dc.lft.to/lastmile_qr_scan", "ios": "https://dc.lft.to/lastmile_qr_scan"}}, {"bike_id": "310935381de76ba1859d7e00d8a6a6b9", "fusion_lon": 0.0, "name": "310935381de76ba1859d7e00d8a6a6b9", "lat": 38.898735333333335, "is_disabled": 0, "is_reserved": 0, "lon": -77.05277966666667, "type": "electric_scooter", "fusion_lat": 0.0, "rental_uris": {"android": "https://dc.lft.to/lastmile_qr_scan", "ios": "https://dc.lft.to/lastmile_qr_scan"}}, {"bike_id": "d08497f434cda99cde4f9a022041c549", "fusion_lon": 0.0, "name": "d08497f434cda99cde4f9a022041c549", "lat": 38.9147115, "is_disabled": 0, "is_reserved": 0, "lon": -77.04549383333334, "type": "electric_scooter", "fusion_lat": 0.0, "rental_uris": {"android": "https://dc.lft.to/lastmile_qr_scan", "ios": "https://dc.lft.to/lastmile_qr_scan"}}, {"bike_id": "ad2ed37b662a32735fac433ffbab451a", "fusion_lon": 0.0, "name": "ad2ed37b662a32735fac433ffbab451a", "lat": 38.884891333333336, "is_disabled": 0, "is_reserved": 0, "lon": -77.007122, "type": "electric_scooter", "fusion_lat": 0.0, "rental_uris": {"android": "https://dc.lft.to/lastmile_qr_scan", "ios": "https://dc.lft.to/lastmile_qr_scan"}}, {"bike_id": "17aa02f98d07c75793d48a05c0ba1796", "fusion_lon": 0.0, "name": "17aa02f98d07c75793d48a05c0ba1796", "lat": 38.86722433333333, "is_disabled": 0, "is_reserved": 0, "lon": -76.98700933333333, "type": "electric_scooter", "fusion_lat": 0.0, "rental_uris": {"android": "https://dc.lft.to/lastmile_qr_scan", "ios": "https://dc.lft.to/lastmile_qr_scan"}}, {"bike_id": "4d3c93f2037c7fef9f29b71a921576af", "fusion_lon": 0.0, "name": "4d3c93f2037c7fef9f29b71a921576af", "lat": 38.9004695, "is_disabled": 0, "is_reserved": 0, "lon": -77.043458, "type": "electric_scooter", "fusion_lat": 0.0, "rental_uris": {"android": "https://dc.lft.to/lastmile_qr_scan", "ios": "https://dc.lft.to/lastmile_qr_scan"}}, {"bike_id": "b0c1ec54fe8df59886256a13eafe9416", "fusion_lon": 0.0, "name": "b0c1ec54fe8df59886256a13eafe9416", "lat": 38.90745, "is_disabled": 0, "is_reserved": 0, "lon": -77.04354416666666, "type": "electric_scooter", "fusion_lat": 0.0, "rental_uris": {"android": "https://dc.lft.to/lastmile_qr_scan", "ios": "https://dc.lft.to/lastmile_qr_scan"}}, {"bike_id": "156eb49aca60259d178c6aeb2598c9c8", "fusion_lon": 0.0, "name": "156eb49aca60259d178c6aeb2598c9c8", "lat": 38.908651166666665, "is_disabled": 0, "is_reserved": 0, "lon": -77.01289466666667, "type": "electric_scooter", "fusion_lat": 0.0, "rental_uris": {"android": "https://dc.lft.to/lastmile_qr_scan", "ios": "https://dc.lft.to/lastmile_qr_scan"}}, {"bike_id": "0814db3d80b427af4347c9e0684c1e98", "fusion_lon": 0.0, "name": "0814db3d80b427af4347c9e0684c1e98", "lat": 38.9026895, "is_disabled": 0, "is_reserved": 0, "lon": -77.0334435, "type": "electric_scooter", "fusion_lat": 0.0, "rental_uris": {"android": "https://dc.lft.to/lastmile_qr_scan", "ios": "https://dc.lft.to/lastmile_qr_scan"}}, {"bike_id": "c7a73d3bdfe9bded03217524f720dbb6", "fusion_lon": 0.0, "name": "c7a73d3bdfe9bded03217524f720dbb6", "lat": 38.8870505, "is_disabled": 0, "is_reserved": 0, "lon": -77.03213766666667, "type": "electric_scooter", "fusion_lat": 0.0, "rental_uris": {"android": "https://dc.lft.to/lastmile_qr_scan", "ios": "https://dc.lft.to/lastmile_qr_scan"}}, {"bike_id": "7d55e9c3e63756108133cccdc0f7569b", "fusion_lon": 0.0, "name": "7d55e9c3e63756108133cccdc0f7569b", "lat": 38.896501666666666, "is_disabled": 0, "is_reserved": 0, "lon": -77.0333055, "type": "electric_scooter", "fusion_lat": 0.0, "rental_uris": {"android": "https://dc.lft.to/lastmile_qr_scan", "ios": "https://dc.lft.to/lastmile_qr_scan"}}, {"bike_id": "fa9f064a7833b04f4445eb1cddbc4aec", "fusion_lon": 0.0, "name": "fa9f064a7833b04f4445eb1cddbc4aec", "lat": 38.92609133333333, "is_disabled": 0, "is_reserved": 0, "lon": -77.022141, "type": "electric_scooter", "fusion_lat": 0.0, "rental_uris": {"android": "https://dc.lft.to/lastmile_qr_scan", "ios": "https://dc.lft.to/lastmile_qr_scan"}}, {"bike_id": "6baf6dfa9ac6c6af2cb994967abd0a77", "fusion_lon": 0.0, "name": "6baf6dfa9ac6c6af2cb994967abd0a77", "lat": 38.918099, "is_disabled": 0, "is_reserved": 0, "lon": -77.03335716666666, "type": "electric_scooter", "fusion_lat": 0.0, "rental_uris": {"android": "https://dc.lft.to/lastmile_qr_scan", "ios": "https://dc.lft.to/lastmile_qr_scan"}}, {"bike_id": "e03fe41068b7e198dfa41f113bb0c49f", "fusion_lon": 0.0, "name": "e03fe41068b7e198dfa41f113bb0c49f", "lat": 38.9052625, "is_disabled": 0, "is_reserved": 0, "lon": -77.04358916666666, "type": "electric_scooter", "fusion_lat": 0.0, "rental_uris": {"android": "https://dc.lft.to/lastmile_qr_scan", "ios": "https://dc.lft.to/lastmile_qr_scan"}}, {"bike_id": "efcecdc97cd1e5de3e965f37a7a93262", "fusion_lon": 0.0, "name": "efcecdc97cd1e5de3e965f37a7a93262", "lat": 38.884930833333335, "is_disabled": 0, "is_reserved": 0, "lon": -77.01086633333334, "type": "electric_scooter", "fusion_lat": 0.0, "rental_uris": {"android": "https://dc.lft.to/lastmile_qr_scan", "ios": "https://dc.lft.to/lastmile_qr_scan"}}, {"bike_id": "94bfe3bee2614067eebc0878990d37bf", "fusion_lon": 0.0, "name": "94bfe3bee2614067eebc0878990d37bf", "lat": 38.92363733333333, "is_disabled": 0, "is_reserved": 0, "lon": -77.05029833333333, "type": "electric_scooter", "fusion_lat": 0.0, "rental_uris": {"android": "https://dc.lft.to/lastmile_qr_scan", "ios": "https://dc.lft.to/lastmile_qr_scan"}}, {"bike_id": "76efe816f452d916bc9fd4eb4c2a733d", "fusion_lon": 0.0, "name": "76efe816f452d916bc9fd4eb4c2a733d", "lat": 38.935199833333336, "is_disabled": 0, "is_reserved": 0, "lon": -77.024108, "type": "electric_scooter", "fusion_lat": 0.0, "rental_uris": {"android": "https://dc.lft.to/lastmile_qr_scan", "ios": "https://dc.lft.to/lastmile_qr_scan"}}, {"bike_id": "dbfb20bccf6126c3ddef49ea8c3f3fdd", "fusion_lon": 0.0, "name": "dbfb20bccf6126c3ddef49ea8c3f3fdd", "lat": 38.900205, "is_disabled": 0, "is_reserved": 0, "lon": -77.03495283333334, "type": "electric_scooter", "fusion_lat": 0.0, "rental_uris": {"android": "https://dc.lft.to/lastmile_qr_scan", "ios": "https://dc.lft.to/lastmile_qr_scan"}}, {"bike_id": "1fb0fc3edbbc1a5dd3c365b1e34038b1", "fusion_lon": 0.0, "name": "1fb0fc3edbbc1a5dd3c365b1e34038b1", "lat": 39.003782333333334, "is_disabled": 0, "is_reserved": 0, "lon": -77.01305333333333, "type": "electric_bike", "fusion_lat": 0.0, "rental_uris": {"android": "https://dc.lft.to/lastmile_qr_scan", "ios": "https://dc.lft.to/lastmile_qr_scan"}}, {"bike_id": "20b36cd1f0c477faa31e8621e5c0f190", "fusion_lon": 0.0, "name": "20b36cd1f0c477faa31e8621e5c0f190", "lat": 38.89980966666667, "is_disabled": 0, "is_reserved": 0, "lon": -77.01949733333333, "type": "electric_scooter", "fusion_lat": 0.0, "rental_uris": {"android": "https://dc.lft.to/lastmile_qr_scan", "ios": "https://dc.lft.to/lastmile_qr_scan"}}, {"bike_id": "0e06985578a3bdc69c4234704e22903e", "fusion_lon": 0.0, "name": "0e06985578a3bdc69c4234704e22903e", "lat": 38.908856166666666, "is_disabled": 0, "is_reserved": 0, "lon": -77.0321915, "type": "electric_scooter", "fusion_lat": 0.0, "rental_uris": {"android": "https://dc.lft.to/lastmile_qr_scan", "ios": "https://dc.lft.to/lastmile_qr_scan"}}, {"bike_id": "10b3a1fbbfdd3d3c063c72111c62c41f", "fusion_lon": 0.0, "name": "10b3a1fbbfdd3d3c063c72111c62c41f", "lat": 38.884705833333335, "is_disabled": 0, "is_reserved": 0, "lon": -77.01536483333334, "type": "electric_scooter", "fusion_lat": 0.0, "rental_uris": {"android": "https://dc.lft.to/lastmile_qr_scan", "ios": "https://dc.lft.to/lastmile_qr_scan"}}, {"bike_id": "1b089e535c02468478d19a9c9c673cbe", "fusion_lon": 0.0, "name": "1b089e535c02468478d19a9c9c673cbe", "lat": 38.9084785, "is_disabled": 0, "is_reserved": 0, "lon": -77.02330066666667, "type": "electric_scooter", "fusion_lat": 0.0, "rental_uris": {"android": "https://dc.lft.to/lastmile_qr_scan", "ios": "https://dc.lft.to/lastmile_qr_scan"}}, {"bike_id": "b92be115b4c5d8deb318c23b89245d99", "fusion_lon": 0.0, "name": "b92be115b4c5d8deb318c23b89245d99", "lat": 38.93174883333333, "is_disabled": 0, "is_reserved": 0, "lon": -77.073146, "type": "electric_scooter", "fusion_lat": 0.0, "rental_uris": {"android": "https://dc.lft.to/lastmile_qr_scan", "ios": "https://dc.lft.to/lastmile_qr_scan"}}, {"bike_id": "20cceff6774c9a289076d66e3f44a29f", "fusion_lon": 0.0, "name": "20cceff6774c9a289076d66e3f44a29f", "lat": 38.928941333333334, "is_disabled": 0, "is_reserved": 0, "lon": -77.03245916666667, "type": "electric_scooter", "fusion_lat": 0.0, "rental_uris": {"android": "https://dc.lft.to/lastmile_qr_scan", "ios": "https://dc.lft.to/lastmile_qr_scan"}}, {"bike_id": "82295d1d473d30c2f4efde79d4378ff3", "fusion_lon": 0.0, "name": "82295d1d473d30c2f4efde79d4378ff3", "lat": 38.88308633333333, "is_disabled": 0, "is_reserved": 0, "lon": -77.01675533333334, "type": "electric_scooter", "fusion_lat": 0.0, "rental_uris": {"android": "https://dc.lft.to/lastmile_qr_scan", "ios": "https://dc.lft.to/lastmile_qr_scan"}}, {"bike_id": "9e695e1cce288285481cc1137706d352", "fusion_lon": 0.0, "name": "9e695e1cce288285481cc1137706d352", "lat": 38.923794, "is_disabled": 0, "is_reserved": 0, "lon": -77.01899283333333, "type": "electric_scooter", "fusion_lat": 0.0, "rental_uris": {"android": "https://dc.lft.to/lastmile_qr_scan", "ios": "https://dc.lft.to/lastmile_qr_scan"}}, {"bike_id": "bac8411ef26f337f8feda29153169cd8", "fusion_lon": 0.0, "name": "bac8411ef26f337f8feda29153169cd8", "lat": 38.9313525, "is_disabled": 0, "is_reserved": 0, "lon": -77.07848866666667, "type": "electric_scooter", "fusion_lat": 0.0, "rental_uris": {"android": "https://dc.lft.to/lastmile_qr_scan", "ios": "https://dc.lft.to/lastmile_qr_scan"}}, {"bike_id": "1b67bef37502ce0b0e28362292019321", "fusion_lon": 0.0, "name": "1b67bef37502ce0b0e28362292019321", "lat": 38.94449783333334, "is_disabled": 0, "is_reserved": 0, "lon": -77.02338833333333, "type": "electric_scooter", "fusion_lat": 0.0, "rental_uris": {"android": "https://dc.lft.to/lastmile_qr_scan", "ios": "https://dc.lft.to/lastmile_qr_scan"}}, {"bike_id": "185f7f5a32c53b761a29eed61c6dae1b", "fusion_lon": 0.0, "name": "185f7f5a32c53b761a29eed61c6dae1b", "lat": 38.89969833333333, "is_disabled": 0, "is_reserved": 0, "lon": -77.046529, "type": "electric_scooter", "fusion_lat": 0.0, "rental_uris": {"android": "https://dc.lft.to/lastmile_qr_scan", "ios": "https://dc.lft.to/lastmile_qr_scan"}}, {"bike_id": "1909ad2c0a12956333b12584fd0208e7", "fusion_lon": 0.0, "name": "1909ad2c0a12956333b12584fd0208e7", "lat": 38.866246833333335, "is_disabled": 0, "is_reserved": 0, "lon": -76.98714666666666, "type": "electric_scooter", "fusion_lat": 0.0, "rental_uris": {"android": "https://dc.lft.to/lastmile_qr_scan", "ios": "https://dc.lft.to/lastmile_qr_scan"}}, {"bike_id": "26af6242f038f25bd9445e890638e514", "fusion_lon": 0.0, "name": "26af6242f038f25bd9445e890638e514", "lat": 38.892226, "is_disabled": 0, "is_reserved": 0, "lon": -77.04689833333333, "type": "electric_scooter", "fusion_lat": 0.0, "rental_uris": {"android": "https://dc.lft.to/lastmile_qr_scan", "ios": "https://dc.lft.to/lastmile_qr_scan"}}, {"bike_id": "3d7579e97be15004cd3240a131e0ec62", "fusion_lon": 0.0, "name": "3d7579e97be15004cd3240a131e0ec62", "lat": 38.90724216666667, "is_disabled": 0, "is_reserved": 0, "lon": -77.025013, "type": "electric_scooter", "fusion_lat": 0.0, "rental_uris": {"android": "https://dc.lft.to/lastmile_qr_scan", "ios": "https://dc.lft.to/lastmile_qr_scan"}}, {"bike_id": "c71eccf56c63c580c168d5f2de621c84", "fusion_lon": 0.0, "name": "c71eccf56c63c580c168d5f2de621c84", "lat": 38.884993, "is_disabled": 0, "is_reserved": 0, "lon": -77.02086916666667, "type": "electric_scooter", "fusion_lat": 0.0, "rental_uris": {"android": "https://dc.lft.to/lastmile_qr_scan", "ios": "https://dc.lft.to/lastmile_qr_scan"}}, {"bike_id": "bb1f397b04ff13727808ba4a554a56c8", "fusion_lon": 0.0, "name": "bb1f397b04ff13727808ba4a554a56c8", "lat": 38.93388616666667, "is_disabled": 0, "is_reserved": 0, "lon": -77.05735016666667, "type": "electric_bike", "fusion_lat": 0.0, "rental_uris": {"android": "https://dc.lft.to/lastmile_qr_scan", "ios": "https://dc.lft.to/lastmile_qr_scan"}}, {"bike_id": "b79fc3aa95f355e4402c7fe757fd5ce6", "fusion_lon": 0.0, "name": "b79fc3aa95f355e4402c7fe757fd5ce6", "lat": 38.98462, "is_disabled": 0, "is_reserved": 0, "lon": -76.9705365, "type": "electric_bike", "fusion_lat": 0.0, "rental_uris": {"android": "https://dc.lft.to/lastmile_qr_scan", "ios": "https://dc.lft.to/lastmile_qr_scan"}}, {"bike_id": "41025a52dbe5ec8a13200e4765405f51", "fusion_lon": 0.0, "name": "41025a52dbe5ec8a13200e4765405f51", "lat": 38.9037155, "is_disabled": 0, "is_reserved": 0, "lon": -77.044493, "type": "electric_scooter", "fusion_lat": 0.0, "rental_uris": {"android": "https://dc.lft.to/lastmile_qr_scan", "ios": "https://dc.lft.to/lastmile_qr_scan"}}, {"bike_id": "0b72f96960db71577d7b5d96757bebe7", "fusion_lon": 0.0, "name": "0b72f96960db71577d7b5d96757bebe7", "lat": 38.91054283333333, "is_disabled": 0, "is_reserved": 0, "lon": -76.9852535, "type": "electric_scooter", "fusion_lat": 0.0, "rental_uris": {"android": "https://dc.lft.to/lastmile_qr_scan", "ios": "https://dc.lft.to/lastmile_qr_scan"}}, {"bike_id": "fccae2e5470e1fbf114a0d1a4488651c", "fusion_lon": 0.0, "name": "fccae2e5470e1fbf114a0d1a4488651c", "lat": 38.855075666666664, "is_disabled": 0, "is_reserved": 0, "lon": -76.98401866666667, "type": "electric_bike", "fusion_lat": 0.0, "rental_uris": {"android": "https://dc.lft.to/lastmile_qr_scan", "ios": "https://dc.lft.to/lastmile_qr_scan"}}, {"bike_id": "4ac0ffe877ad6bbbdd0fd542640d3db9", "fusion_lon": 0.0, "name": "4ac0ffe877ad6bbbdd0fd542640d3db9", "lat": 38.9368975, "is_disabled": 0, "is_reserved": 0, "lon": -76.99061516666667, "type": "electric_bike", "fusion_lat": 0.0, "rental_uris": {"android": "https://dc.lft.to/lastmile_qr_scan", "ios": "https://dc.lft.to/lastmile_qr_scan"}}, {"bike_id": "9dd9cdd3a462d1f31752d868d7957384", "fusion_lon": 0.0, "name": "9dd9cdd3a462d1f31752d868d7957384", "lat": 38.8876615, "is_disabled": 0, "is_reserved": 0, "lon": -76.97749133333333, "type": "electric_scooter", "fusion_lat": 0.0, "rental_uris": {"android": "https://dc.lft.to/lastmile_qr_scan", "ios": "https://dc.lft.to/lastmile_qr_scan"}}, {"bike_id": "d2c6f1dce7870e9dce62aee46d572705", "fusion_lon": 0.0, "name": "d2c6f1dce7870e9dce62aee46d572705", "lat": 38.90152833333333, "is_disabled": 0, "is_reserved": 0, "lon": -76.930677, "type": "electric_scooter", "fusion_lat": 0.0, "rental_uris": {"android": "https://dc.lft.to/lastmile_qr_scan", "ios": "https://dc.lft.to/lastmile_qr_scan"}}, {"bike_id": "2949175f5870d3b08b430f53a915dd5a", "fusion_lon": 0.0, "name": "2949175f5870d3b08b430f53a915dd5a", "lat": 38.886549333333335, "is_disabled": 0, "is_reserved": 0, "lon": -77.02833183333334, "type": "electric_scooter", "fusion_lat": 0.0, "rental_uris": {"android": "https://dc.lft.to/lastmile_qr_scan", "ios": "https://dc.lft.to/lastmile_qr_scan"}}, {"bike_id": "e5e1a8284b082e45ca9c40f918040615", "fusion_lon": 0.0, "name": "e5e1a8284b082e45ca9c40f918040615", "lat": 38.91596416666667, "is_disabled": 0, "is_reserved": 0, "lon": -77.04600983333333, "type": "electric_scooter", "fusion_lat": 0.0, "rental_uris": {"android": "https://dc.lft.to/lastmile_qr_scan", "ios": "https://dc.lft.to/lastmile_qr_scan"}}, {"bike_id": "7fa0db2ca533400c8a6a4a3e3fb50cc8", "fusion_lon": 0.0, "name": "7fa0db2ca533400c8a6a4a3e3fb50cc8", "lat": 38.90432933333334, "is_disabled": 0, "is_reserved": 0, "lon": -77.04351266666667, "type": "electric_scooter", "fusion_lat": 0.0, "rental_uris": {"android": "https://dc.lft.to/lastmile_qr_scan", "ios": "https://dc.lft.to/lastmile_qr_scan"}}, {"bike_id": "af4eb8b93926484a836199c2cfe7afe9", "fusion_lon": 0.0, "name": "af4eb8b93926484a836199c2cfe7afe9", "lat": 38.9108375, "is_disabled": 0, "is_reserved": 0, "lon": -77.02198916666667, "type": "electric_scooter", "fusion_lat": 0.0, "rental_uris": {"android": "https://dc.lft.to/lastmile_qr_scan", "ios": "https://dc.lft.to/lastmile_qr_scan"}}, {"bike_id": "17d667aa4bd75cc26d1313c095079592", "fusion_lon": 0.0, "name": "17d667aa4bd75cc26d1313c095079592", "lat": 38.89618166666666, "is_disabled": 0, "is_reserved": 0, "lon": -77.04413816666667, "type": "electric_scooter", "fusion_lat": 0.0, "rental_uris": {"android": "https://dc.lft.to/lastmile_qr_scan", "ios": "https://dc.lft.to/lastmile_qr_scan"}}, {"bike_id": "d4f1153deebdce80015a2e41ead3ad83", "fusion_lon": 0.0, "name": "d4f1153deebdce80015a2e41ead3ad83", "lat": 38.91188266666666, "is_disabled": 0, "is_reserved": 0, "lon": -77.039584, "type": "electric_scooter", "fusion_lat": 0.0, "rental_uris": {"android": "https://dc.lft.to/lastmile_qr_scan", "ios": "https://dc.lft.to/lastmile_qr_scan"}}, {"bike_id": "b2db5eb25bd7f79c0d12f8f4611b6f66", "fusion_lon": 0.0, "name": "b2db5eb25bd7f79c0d12f8f4611b6f66", "lat": 38.912877, "is_disabled": 0, "is_reserved": 0, "lon": -77.04733283333333, "type": "electric_scooter", "fusion_lat": 0.0, "rental_uris": {"android": "https://dc.lft.to/lastmile_qr_scan", "ios": "https://dc.lft.to/lastmile_qr_scan"}}, {"bike_id": "6431f0cb076e9356a388e9646013ad25", "fusion_lon": 0.0, "name": "6431f0cb076e9356a388e9646013ad25", "lat": 38.993889, "is_disabled": 0, "is_reserved": 0, "lon": -77.031027, "type": "electric_bike", "fusion_lat": 0.0, "rental_uris": {"android": "https://dc.lft.to/lastmile_qr_scan", "ios": "https://dc.lft.to/lastmile_qr_scan"}}, {"bike_id": "10298561c50c0d65d2b36080ad4b42a6", "fusion_lon": 0.0, "name": "10298561c50c0d65d2b36080ad4b42a6", "lat": 38.90408766666667, "is_disabled": 0, "is_reserved": 0, "lon": -76.97332283333333, "type": "electric_scooter", "fusion_lat": 0.0, "rental_uris": {"android": "https://dc.lft.to/lastmile_qr_scan", "ios": "https://dc.lft.to/lastmile_qr_scan"}}, {"bike_id": "07baa01a3772d0ea597e5dc84a4543ca", "fusion_lon": 0.0, "name": "07baa01a3772d0ea597e5dc84a4543ca", "lat": 38.929706, "is_disabled": 0, "is_reserved": 0, "lon": -77.02828966666667, "type": "electric_scooter", "fusion_lat": 0.0, "rental_uris": {"android": "https://dc.lft.to/lastmile_qr_scan", "ios": "https://dc.lft.to/lastmile_qr_scan"}}, {"bike_id": "e4d7e3e997bec1c013fe7be5198b99b9", "fusion_lon": 0.0, "name": "e4d7e3e997bec1c013fe7be5198b99b9", "lat": 38.890061, "is_disabled": 0, "is_reserved": 0, "lon": -76.93743533333334, "type": "electric_scooter", "fusion_lat": 0.0, "rental_uris": {"android": "https://dc.lft.to/lastmile_qr_scan", "ios": "https://dc.lft.to/lastmile_qr_scan"}}, {"bike_id": "15eea76f448eb6053054eab8957373f8", "fusion_lon": 0.0, "name": "15eea76f448eb6053054eab8957373f8", "lat": 38.8450675, "is_disabled": 0, "is_reserved": 0, "lon": -76.99353116666667, "type": "electric_bike", "fusion_lat": 0.0, "rental_uris": {"android": "https://dc.lft.to/lastmile_qr_scan", "ios": "https://dc.lft.to/lastmile_qr_scan"}}, {"bike_id": "e9241178cf6865520c8c3f66af7a4d77", "fusion_lon": 0.0, "name": "e9241178cf6865520c8c3f66af7a4d77", "lat": 38.92885316666667, "is_disabled": 0, "is_reserved": 0, "lon": -77.03295266666667, "type": "electric_scooter", "fusion_lat": 0.0, "rental_uris": {"android": "https://dc.lft.to/lastmile_qr_scan", "ios": "https://dc.lft.to/lastmile_qr_scan"}}, {"bike_id": "e0b9e86013eb7bc6729c0b1954605f07", "fusion_lon": 0.0, "name": "e0b9e86013eb7bc6729c0b1954605f07", "lat": 38.85778, "is_disabled": 0, "is_reserved": 0, "lon": -76.972995, "type": "electric_scooter", "fusion_lat": 0.0, "rental_uris": {"android": "https://dc.lft.to/lastmile_qr_scan", "ios": "https://dc.lft.to/lastmile_qr_scan"}}, {"bike_id": "f9e9f4b709bb05e10662f28532204e98", "fusion_lon": 0.0, "name": "f9e9f4b709bb05e10662f28532204e98", "lat": 38.8956685, "is_disabled": 0, "is_reserved": 0, "lon": -77.127404, "type": "electric_bike", "fusion_lat": 0.0, "rental_uris": {"android": "https://dc.lft.to/lastmile_qr_scan", "ios": "https://dc.lft.to/lastmile_qr_scan"}}, {"bike_id": "c37dce9cc612786d57fc12b85a781d4b", "fusion_lon": 0.0, "name": "c37dce9cc612786d57fc12b85a781d4b", "lat": 38.89612416666667, "is_disabled": 0, "is_reserved": 0, "lon": -77.04483666666667, "type": "electric_scooter", "fusion_lat": 0.0, "rental_uris": {"android": "https://dc.lft.to/lastmile_qr_scan", "ios": "https://dc.lft.to/lastmile_qr_scan"}}, {"bike_id": "b3f509a588806d1fb8ce9386bd31f88d", "fusion_lon": 0.0, "name": "b3f509a588806d1fb8ce9386bd31f88d", "lat": 38.901517166666665, "is_disabled": 0, "is_reserved": 0, "lon": -76.99030166666667, "type": "electric_scooter", "fusion_lat": 0.0, "rental_uris": {"android": "https://dc.lft.to/lastmile_qr_scan", "ios": "https://dc.lft.to/lastmile_qr_scan"}}, {"bike_id": "056b5231231b5b0e8542271507891b43", "fusion_lon": 0.0, "name": "056b5231231b5b0e8542271507891b43", "lat": 38.9176405, "is_disabled": 0, "is_reserved": 0, "lon": -77.02304433333333, "type": "electric_scooter", "fusion_lat": 0.0, "rental_uris": {"android": "https://dc.lft.to/lastmile_qr_scan", "ios": "https://dc.lft.to/lastmile_qr_scan"}}, {"bike_id": "3a4790fb7f48ee80e103f1b98d1f5bca", "fusion_lon": 0.0, "name": "3a4790fb7f48ee80e103f1b98d1f5bca", "lat": 38.91337266666667, "is_disabled": 0, "is_reserved": 0, "lon": -77.041847, "type": "electric_scooter", "fusion_lat": 0.0, "rental_uris": {"android": "https://dc.lft.to/lastmile_qr_scan", "ios": "https://dc.lft.to/lastmile_qr_scan"}}, {"bike_id": "ad7aa080e787904a8c0cea5b41ba86b2", "fusion_lon": 0.0, "name": "ad7aa080e787904a8c0cea5b41ba86b2", "lat": 38.918157, "is_disabled": 0, "is_reserved": 0, "lon": -77.03193766666666, "type": "electric_scooter", "fusion_lat": 0.0, "rental_uris": {"android": "https://dc.lft.to/lastmile_qr_scan", "ios": "https://dc.lft.to/lastmile_qr_scan"}}, {"bike_id": "22f4f8aafbb0e855321d65438836638c", "fusion_lon": 0.0, "name": "22f4f8aafbb0e855321d65438836638c", "lat": 38.885206333333336, "is_disabled": 0, "is_reserved": 0, "lon": -76.97708866666666, "type": "electric_scooter", "fusion_lat": 0.0, "rental_uris": {"android": "https://dc.lft.to/lastmile_qr_scan", "ios": "https://dc.lft.to/lastmile_qr_scan"}}, {"bike_id": "cc1056294d5d4c5b34cac6189ee5a644", "fusion_lon": 0.0, "name": "cc1056294d5d4c5b34cac6189ee5a644", "lat": 38.896684666666665, "is_disabled": 0, "is_reserved": 0, "lon": -77.054635, "type": "electric_scooter", "fusion_lat": 0.0, "rental_uris": {"android": "https://dc.lft.to/lastmile_qr_scan", "ios": "https://dc.lft.to/lastmile_qr_scan"}}, {"bike_id": "d4ebb6fb0cc756f546146278f387efee", "fusion_lon": 0.0, "name": "d4ebb6fb0cc756f546146278f387efee", "lat": 38.890038, "is_disabled": 0, "is_reserved": 0, "lon": -76.93741816666666, "type": "electric_scooter", "fusion_lat": 0.0, "rental_uris": {"android": "https://dc.lft.to/lastmile_qr_scan", "ios": "https://dc.lft.to/lastmile_qr_scan"}}, {"bike_id": "074abd297ccd1e679262edd565100e1f", "fusion_lon": 0.0, "name": "074abd297ccd1e679262edd565100e1f", "lat": 38.9256305, "is_disabled": 0, "is_reserved": 0, "lon": -77.02282383333333, "type": "electric_scooter", "fusion_lat": 0.0, "rental_uris": {"android": "https://dc.lft.to/lastmile_qr_scan", "ios": "https://dc.lft.to/lastmile_qr_scan"}}, {"bike_id": "c98ac0fa8da7c2595b9158048bac473a", "fusion_lon": 0.0, "name": "c98ac0fa8da7c2595b9158048bac473a", "lat": 38.90032816666667, "is_disabled": 0, "is_reserved": 0, "lon": -76.9973595, "type": "electric_scooter", "fusion_lat": 0.0, "rental_uris": {"android": "https://dc.lft.to/lastmile_qr_scan", "ios": "https://dc.lft.to/lastmile_qr_scan"}}, {"bike_id": "cc446c489d62b6803ed7b59e97de85dc", "fusion_lon": 0.0, "name": "cc446c489d62b6803ed7b59e97de85dc", "lat": 38.9036565, "is_disabled": 0, "is_reserved": 0, "lon": -77.044555, "type": "electric_scooter", "fusion_lat": 0.0, "rental_uris": {"android": "https://dc.lft.to/lastmile_qr_scan", "ios": "https://dc.lft.to/lastmile_qr_scan"}}, {"bike_id": "f3f3f6b31804b576bd0b74aa30c5fd07", "fusion_lon": 0.0, "name": "f3f3f6b31804b576bd0b74aa30c5fd07", "lat": 38.90960066666667, "is_disabled": 0, "is_reserved": 0, "lon": -77.22888366666666, "type": "electric_bike", "fusion_lat": 0.0, "rental_uris": {"android": "https://dc.lft.to/lastmile_qr_scan", "ios": "https://dc.lft.to/lastmile_qr_scan"}}, {"bike_id": "cb0d4e9af435457531cfa71b240b98da", "fusion_lon": 0.0, "name": "cb0d4e9af435457531cfa71b240b98da", "lat": 38.89838233333333, "is_disabled": 0, "is_reserved": 0, "lon": -77.0332765, "type": "electric_scooter", "fusion_lat": 0.0, "rental_uris": {"android": "https://dc.lft.to/lastmile_qr_scan", "ios": "https://dc.lft.to/lastmile_qr_scan"}}, {"bike_id": "74bdfec41c5dbcb064e3642c5dfba17d", "fusion_lon": 0.0, "name": "74bdfec41c5dbcb064e3642c5dfba17d", "lat": 38.9286265, "is_disabled": 0, "is_reserved": 0, "lon": -77.03517883333333, "type": "electric_scooter", "fusion_lat": 0.0, "rental_uris": {"android": "https://dc.lft.to/lastmile_qr_scan", "ios": "https://dc.lft.to/lastmile_qr_scan"}}, {"bike_id": "20f1ddf500cea2db447233d5b5e6f73a", "fusion_lon": 0.0, "name": "20f1ddf500cea2db447233d5b5e6f73a", "lat": 38.907858166666664, "is_disabled": 0, "is_reserved": 0, "lon": -76.99428566666667, "type": "electric_scooter", "fusion_lat": 0.0, "rental_uris": {"android": "https://dc.lft.to/lastmile_qr_scan", "ios": "https://dc.lft.to/lastmile_qr_scan"}}, {"bike_id": "19f19a1b4e0eb90dbdac56fde9a6d8a2", "fusion_lon": 0.0, "name": "19f19a1b4e0eb90dbdac56fde9a6d8a2", "lat": 38.88059366666667, "is_disabled": 0, "is_reserved": 0, "lon": -76.93209683333333, "type": "electric_scooter", "fusion_lat": 0.0, "rental_uris": {"android": "https://dc.lft.to/lastmile_qr_scan", "ios": "https://dc.lft.to/lastmile_qr_scan"}}, {"bike_id": "9c86b86676acd692c0fa8ae44c39010a", "fusion_lon": 0.0, "name": "9c86b86676acd692c0fa8ae44c39010a", "lat": 38.937528, "is_disabled": 0, "is_reserved": 0, "lon": -77.02953483333333, "type": "electric_scooter", "fusion_lat": 0.0, "rental_uris": {"android": "https://dc.lft.to/lastmile_qr_scan", "ios": "https://dc.lft.to/lastmile_qr_scan"}}, {"bike_id": "9c076af600cba24fb24eb35a572a0593", "fusion_lon": 0.0, "name": "9c076af600cba24fb24eb35a572a0593", "lat": 38.89085583333333, "is_disabled": 0, "is_reserved": 0, "lon": -76.91927966666667, "type": "electric_scooter", "fusion_lat": 0.0, "rental_uris": {"android": "https://dc.lft.to/lastmile_qr_scan", "ios": "https://dc.lft.to/lastmile_qr_scan"}}, {"bike_id": "5e4bfe7b5f661cdaa4a8013b1858de50", "fusion_lon": 0.0, "name": "5e4bfe7b5f661cdaa4a8013b1858de50", "lat": 38.9443345, "is_disabled": 0, "is_reserved": 0, "lon": -77.026034, "type": "electric_bike", "fusion_lat": 0.0, "rental_uris": {"android": "https://dc.lft.to/lastmile_qr_scan", "ios": "https://dc.lft.to/lastmile_qr_scan"}}, {"bike_id": "6dea3a8fe98e2dfbad78f3d7e76de1d8", "fusion_lon": 0.0, "name": "6dea3a8fe98e2dfbad78f3d7e76de1d8", "lat": 38.92874166666667, "is_disabled": 0, "is_reserved": 0, "lon": -77.0335805, "type": "electric_scooter", "fusion_lat": 0.0, "rental_uris": {"android": "https://dc.lft.to/lastmile_qr_scan", "ios": "https://dc.lft.to/lastmile_qr_scan"}}, {"bike_id": "755e8128a8d3b489c06f273ef645aee3", "fusion_lon": 0.0, "name": "755e8128a8d3b489c06f273ef645aee3", "lat": 38.90137583333333, "is_disabled": 0, "is_reserved": 0, "lon": -77.04443983333333, "type": "electric_scooter", "fusion_lat": 0.0, "rental_uris": {"android": "https://dc.lft.to/lastmile_qr_scan", "ios": "https://dc.lft.to/lastmile_qr_scan"}}, {"bike_id": "b1f41eee992dad65fb771e8bc7268b01", "fusion_lon": 0.0, "name": "b1f41eee992dad65fb771e8bc7268b01", "lat": 38.94757216666667, "is_disabled": 0, "is_reserved": 0, "lon": -77.0072495, "type": "electric_scooter", "fusion_lat": 0.0, "rental_uris": {"android": "https://dc.lft.to/lastmile_qr_scan", "ios": "https://dc.lft.to/lastmile_qr_scan"}}, {"bike_id": "41fa340ddcfa8a004f49e9dbb315fe3c", "fusion_lon": 0.0, "name": "41fa340ddcfa8a004f49e9dbb315fe3c", "lat": 38.93091883333334, "is_disabled": 0, "is_reserved": 0, "lon": -77.03069983333333, "type": "electric_scooter", "fusion_lat": 0.0, "rental_uris": {"android": "https://dc.lft.to/lastmile_qr_scan", "ios": "https://dc.lft.to/lastmile_qr_scan"}}, {"bike_id": "33f985bb30bedf7cede35c98b4da71d2", "fusion_lon": 0.0, "name": "33f985bb30bedf7cede35c98b4da71d2", "lat": 38.79855233333333, "is_disabled": 0, "is_reserved": 0, "lon": -77.06310083333334, "type": "electric_bike", "fusion_lat": 0.0, "rental_uris": {"android": "https://dc.lft.to/lastmile_qr_scan", "ios": "https://dc.lft.to/lastmile_qr_scan"}}, {"bike_id": "21b4da382ae559cac56b58db2a0aa612", "fusion_lon": 0.0, "name": "21b4da382ae559cac56b58db2a0aa612", "lat": 38.904788833333335, "is_disabled": 0, "is_reserved": 0, "lon": -77.05161666666666, "type": "electric_scooter", "fusion_lat": 0.0, "rental_uris": {"android": "https://dc.lft.to/lastmile_qr_scan", "ios": "https://dc.lft.to/lastmile_qr_scan"}}, {"bike_id": "c32485ef283d48487fa4ac48dd03a74e", "fusion_lon": 0.0, "name": "c32485ef283d48487fa4ac48dd03a74e", "lat": 38.92435366666667, "is_disabled": 0, "is_reserved": 0, "lon": -77.05216816666666, "type": "electric_scooter", "fusion_lat": 0.0, "rental_uris": {"android": "https://dc.lft.to/lastmile_qr_scan", "ios": "https://dc.lft.to/lastmile_qr_scan"}}, {"bike_id": "454a2a136d8ff19151f9510936994e48", "fusion_lon": 0.0, "name": "454a2a136d8ff19151f9510936994e48", "lat": 38.857965166666666, "is_disabled": 0, "is_reserved": 0, "lon": -76.98910283333333, "type": "electric_scooter", "fusion_lat": 0.0, "rental_uris": {"android": "https://dc.lft.to/lastmile_qr_scan", "ios": "https://dc.lft.to/lastmile_qr_scan"}}, {"bike_id": "8c85553a2e60260ccc915340c022b5a9", "fusion_lon": 0.0, "name": "8c85553a2e60260ccc915340c022b5a9", "lat": 38.939557, "is_disabled": 0, "is_reserved": 0, "lon": -77.08590633333333, "type": "electric_scooter", "fusion_lat": 0.0, "rental_uris": {"android": "https://dc.lft.to/lastmile_qr_scan", "ios": "https://dc.lft.to/lastmile_qr_scan"}}, {"bike_id": "bf28ce56512294ebd9e8aa4e3a549d28", "fusion_lon": 0.0, "name": "bf28ce56512294ebd9e8aa4e3a549d28", "lat": 38.879887, "is_disabled": 0, "is_reserved": 0, "lon": -77.02408616666666, "type": "electric_scooter", "fusion_lat": 0.0, "rental_uris": {"android": "https://dc.lft.to/lastmile_qr_scan", "ios": "https://dc.lft.to/lastmile_qr_scan"}}, {"bike_id": "0ab4c45ee1c2b9ab72d1a5f9bd010abb", "fusion_lon": 0.0, "name": "0ab4c45ee1c2b9ab72d1a5f9bd010abb", "lat": 38.9027865, "is_disabled": 0, "is_reserved": 0, "lon": -77.03358433333334, "type": "electric_scooter", "fusion_lat": 0.0, "rental_uris": {"android": "https://dc.lft.to/lastmile_qr_scan", "ios": "https://dc.lft.to/lastmile_qr_scan"}}, {"bike_id": "dc762022d846ffec082f02b21bf4c170", "fusion_lon": 0.0, "name": "dc762022d846ffec082f02b21bf4c170", "lat": 38.8985425, "is_disabled": 0, "is_reserved": 0, "lon": -76.97644816666667, "type": "electric_scooter", "fusion_lat": 0.0, "rental_uris": {"android": "https://dc.lft.to/lastmile_qr_scan", "ios": "https://dc.lft.to/lastmile_qr_scan"}}, {"bike_id": "d21667841983014437044bd312982809", "fusion_lon": 0.0, "name": "d21667841983014437044bd312982809", "lat": 38.857733, "is_disabled": 0, "is_reserved": 0, "lon": -76.987519, "type": "electric_bike", "fusion_lat": 0.0, "rental_uris": {"android": "https://dc.lft.to/lastmile_qr_scan", "ios": "https://dc.lft.to/lastmile_qr_scan"}}, {"bike_id": "12fc497ebe8c624ece9e85e1e0621426", "fusion_lon": 0.0, "name": "12fc497ebe8c624ece9e85e1e0621426", "lat": 38.905005333333335, "is_disabled": 0, "is_reserved": 0, "lon": -77.00101266666667, "type": "electric_scooter", "fusion_lat": 0.0, "rental_uris": {"android": "https://dc.lft.to/lastmile_qr_scan", "ios": "https://dc.lft.to/lastmile_qr_scan"}}, {"bike_id": "8bade0d70383e06e96d3d781a465384c", "fusion_lon": 0.0, "name": "8bade0d70383e06e96d3d781a465384c", "lat": 38.887326, "is_disabled": 0, "is_reserved": 0, "lon": -77.0283045, "type": "electric_scooter", "fusion_lat": 0.0, "rental_uris": {"android": "https://dc.lft.to/lastmile_qr_scan", "ios": "https://dc.lft.to/lastmile_qr_scan"}}, {"bike_id": "16a7c2a32f718d95f266af3d93261bee", "fusion_lon": 0.0, "name": "16a7c2a32f718d95f266af3d93261bee", "lat": 38.927178, "is_disabled": 0, "is_reserved": 0, "lon": -77.0209075, "type": "electric_scooter", "fusion_lat": 0.0, "rental_uris": {"android": "https://dc.lft.to/lastmile_qr_scan", "ios": "https://dc.lft.to/lastmile_qr_scan"}}, {"bike_id": "4c9e8c5e4500133db904e3a6a810e2db", "fusion_lon": 0.0, "name": "4c9e8c5e4500133db904e3a6a810e2db", "lat": 38.91047583333334, "is_disabled": 0, "is_reserved": 0, "lon": -77.04082266666667, "type": "electric_scooter", "fusion_lat": 0.0, "rental_uris": {"android": "https://dc.lft.to/lastmile_qr_scan", "ios": "https://dc.lft.to/lastmile_qr_scan"}}, {"bike_id": "7bf6feb6968a8b0c2480462e03616a9d", "fusion_lon": 0.0, "name": "7bf6feb6968a8b0c2480462e03616a9d", "lat": 38.91725516666666, "is_disabled": 0, "is_reserved": 0, "lon": -77.02586933333333, "type": "electric_scooter", "fusion_lat": 0.0, "rental_uris": {"android": "https://dc.lft.to/lastmile_qr_scan", "ios": "https://dc.lft.to/lastmile_qr_scan"}}, {"bike_id": "83c2a225941748fc0ee27d8293909c30", "fusion_lon": 0.0, "name": "83c2a225941748fc0ee27d8293909c30", "lat": 38.88595466666666, "is_disabled": 0, "is_reserved": 0, "lon": -77.01720083333333, "type": "electric_scooter", "fusion_lat": 0.0, "rental_uris": {"android": "https://dc.lft.to/lastmile_qr_scan", "ios": "https://dc.lft.to/lastmile_qr_scan"}}, {"bike_id": "53c79a28bcccccb54bb17365f0668e17", "fusion_lon": 0.0, "name": "53c79a28bcccccb54bb17365f0668e17", "lat": 38.89799416666666, "is_disabled": 0, "is_reserved": 0, "lon": -77.02828833333334, "type": "electric_scooter", "fusion_lat": 0.0, "rental_uris": {"android": "https://dc.lft.to/lastmile_qr_scan", "ios": "https://dc.lft.to/lastmile_qr_scan"}}, {"bike_id": "cd3a76110e7a72be9e72256082da2adb", "fusion_lon": 0.0, "name": "cd3a76110e7a72be9e72256082da2adb", "lat": 38.934009333333336, "is_disabled": 0, "is_reserved": 0, "lon": -77.05743966666667, "type": "electric_scooter", "fusion_lat": 0.0, "rental_uris": {"android": "https://dc.lft.to/lastmile_qr_scan", "ios": "https://dc.lft.to/lastmile_qr_scan"}}, {"bike_id": "57d86d323e2e60483b4ab7c61440d5a1", "fusion_lon": 0.0, "name": "57d86d323e2e60483b4ab7c61440d5a1", "lat": 38.92447533333333, "is_disabled": 0, "is_reserved": 0, "lon": -77.0420595, "type": "electric_scooter", "fusion_lat": 0.0, "rental_uris": {"android": "https://dc.lft.to/lastmile_qr_scan", "ios": "https://dc.lft.to/lastmile_qr_scan"}}, {"bike_id": "1d8909473a4914c193326920af975f39", "fusion_lon": 0.0, "name": "1d8909473a4914c193326920af975f39", "lat": 38.8967325, "is_disabled": 0, "is_reserved": 0, "lon": -77.00514083333333, "type": "electric_scooter", "fusion_lat": 0.0, "rental_uris": {"android": "https://dc.lft.to/lastmile_qr_scan", "ios": "https://dc.lft.to/lastmile_qr_scan"}}, {"bike_id": "087dc4366ca492dee04634399c5e6dc5", "fusion_lon": 0.0, "name": "087dc4366ca492dee04634399c5e6dc5", "lat": 38.90572516666667, "is_disabled": 0, "is_reserved": 0, "lon": -77.05143666666666, "type": "electric_scooter", "fusion_lat": 0.0, "rental_uris": {"android": "https://dc.lft.to/lastmile_qr_scan", "ios": "https://dc.lft.to/lastmile_qr_scan"}}, {"bike_id": "9a311504a338ad5c5b8a68c5cb861692", "fusion_lon": 0.0, "name": "9a311504a338ad5c5b8a68c5cb861692", "lat": 38.89231933333333, "is_disabled": 0, "is_reserved": 0, "lon": -77.05001566666667, "type": "electric_scooter", "fusion_lat": 0.0, "rental_uris": {"android": "https://dc.lft.to/lastmile_qr_scan", "ios": "https://dc.lft.to/lastmile_qr_scan"}}, {"bike_id": "6b0c61060d749432d29f8ab2efbf9d13", "fusion_lon": 0.0, "name": "6b0c61060d749432d29f8ab2efbf9d13", "lat": 38.885372333333336, "is_disabled": 0, "is_reserved": 0, "lon": -77.01513733333333, "type": "electric_scooter", "fusion_lat": 0.0, "rental_uris": {"android": "https://dc.lft.to/lastmile_qr_scan", "ios": "https://dc.lft.to/lastmile_qr_scan"}}, {"bike_id": "f0178203735d718de884fa310f526d4f", "fusion_lon": 0.0, "name": "f0178203735d718de884fa310f526d4f", "lat": 38.902441333333336, "is_disabled": 0, "is_reserved": 0, "lon": -77.059379, "type": "electric_scooter", "fusion_lat": 0.0, "rental_uris": {"android": "https://dc.lft.to/lastmile_qr_scan", "ios": "https://dc.lft.to/lastmile_qr_scan"}}, {"bike_id": "26a19fc4bf32ffe779d93cefed39f4cf", "fusion_lon": 0.0, "name": "26a19fc4bf32ffe779d93cefed39f4cf", "lat": 38.8872255, "is_disabled": 0, "is_reserved": 0, "lon": -76.996871, "type": "electric_scooter", "fusion_lat": 0.0, "rental_uris": {"android": "https://dc.lft.to/lastmile_qr_scan", "ios": "https://dc.lft.to/lastmile_qr_scan"}}, {"bike_id": "88e29d3cf7c764ba06f66fecaa92d87e", "fusion_lon": 0.0, "name": "88e29d3cf7c764ba06f66fecaa92d87e", "lat": 38.92352316666667, "is_disabled": 0, "is_reserved": 0, "lon": -77.05050683333333, "type": "electric_scooter", "fusion_lat": 0.0, "rental_uris": {"android": "https://dc.lft.to/lastmile_qr_scan", "ios": "https://dc.lft.to/lastmile_qr_scan"}}, {"bike_id": "a3ddd141491013df5aa4d6d6704ed675", "fusion_lon": 0.0, "name": "a3ddd141491013df5aa4d6d6704ed675", "lat": 38.91761916666667, "is_disabled": 0, "is_reserved": 0, "lon": -77.01602666666666, "type": "electric_scooter", "fusion_lat": 0.0, "rental_uris": {"android": "https://dc.lft.to/lastmile_qr_scan", "ios": "https://dc.lft.to/lastmile_qr_scan"}}, {"bike_id": "2c86bbc62fe9306b338fbdf42b3160f8", "fusion_lon": 0.0, "name": "2c86bbc62fe9306b338fbdf42b3160f8", "lat": 38.92272366666667, "is_disabled": 0, "is_reserved": 0, "lon": -77.042324, "type": "electric_scooter", "fusion_lat": 0.0, "rental_uris": {"android": "https://dc.lft.to/lastmile_qr_scan", "ios": "https://dc.lft.to/lastmile_qr_scan"}}, {"bike_id": "65109a190e13dc6b2eada22a1ac6e0c5", "fusion_lon": 0.0, "name": "65109a190e13dc6b2eada22a1ac6e0c5", "lat": 38.910038, "is_disabled": 0, "is_reserved": 0, "lon": -76.99411016666667, "type": "electric_scooter", "fusion_lat": 0.0, "rental_uris": {"android": "https://dc.lft.to/lastmile_qr_scan", "ios": "https://dc.lft.to/lastmile_qr_scan"}}, {"bike_id": "71bba4bc18303028533f39c37b1e3936", "fusion_lon": 0.0, "name": "71bba4bc18303028533f39c37b1e3936", "lat": 38.961414, "is_disabled": 0, "is_reserved": 0, "lon": -77.02817683333333, "type": "electric_scooter", "fusion_lat": 0.0, "rental_uris": {"android": "https://dc.lft.to/lastmile_qr_scan", "ios": "https://dc.lft.to/lastmile_qr_scan"}}, {"bike_id": "c3c2b70f7e0d8bd51b59829e7522fa81", "fusion_lon": 0.0, "name": "c3c2b70f7e0d8bd51b59829e7522fa81", "lat": 38.91268183333333, "is_disabled": 0, "is_reserved": 0, "lon": -77.03829716666667, "type": "electric_scooter", "fusion_lat": 0.0, "rental_uris": {"android": "https://dc.lft.to/lastmile_qr_scan", "ios": "https://dc.lft.to/lastmile_qr_scan"}}, {"bike_id": "298299fa44314dc4233f51f8285c9e33", "fusion_lon": 0.0, "name": "298299fa44314dc4233f51f8285c9e33", "lat": 38.917727666666664, "is_disabled": 0, "is_reserved": 0, "lon": -77.02286533333333, "type": "electric_scooter", "fusion_lat": 0.0, "rental_uris": {"android": "https://dc.lft.to/lastmile_qr_scan", "ios": "https://dc.lft.to/lastmile_qr_scan"}}, {"bike_id": "a9b9ad5c10620f615541c1c30218dc7a", "fusion_lon": 0.0, "name": "a9b9ad5c10620f615541c1c30218dc7a", "lat": 38.892254333333334, "is_disabled": 0, "is_reserved": 0, "lon": -77.04329033333333, "type": "electric_scooter", "fusion_lat": 0.0, "rental_uris": {"android": "https://dc.lft.to/lastmile_qr_scan", "ios": "https://dc.lft.to/lastmile_qr_scan"}}, {"bike_id": "e601b61cb6b5de6419eb509fb476cff5", "fusion_lon": 0.0, "name": "e601b61cb6b5de6419eb509fb476cff5", "lat": 38.93178483333333, "is_disabled": 0, "is_reserved": 0, "lon": -77.0430145, "type": "electric_scooter", "fusion_lat": 0.0, "rental_uris": {"android": "https://dc.lft.to/lastmile_qr_scan", "ios": "https://dc.lft.to/lastmile_qr_scan"}}, {"bike_id": "aa33ea2bb995f804e66b8dcf7566dccb", "fusion_lon": 0.0, "name": "aa33ea2bb995f804e66b8dcf7566dccb", "lat": 38.911661, "is_disabled": 0, "is_reserved": 0, "lon": -77.00248283333333, "type": "electric_bike", "fusion_lat": 0.0, "rental_uris": {"android": "https://dc.lft.to/lastmile_qr_scan", "ios": "https://dc.lft.to/lastmile_qr_scan"}}, {"bike_id": "ffcb7b23ef31dfaa73ac9d6db1508d8e", "fusion_lon": 0.0, "name": "ffcb7b23ef31dfaa73ac9d6db1508d8e", "lat": 38.9030485, "is_disabled": 0, "is_reserved": 0, "lon": -77.0651425, "type": "electric_scooter", "fusion_lat": 0.0, "rental_uris": {"android": "https://dc.lft.to/lastmile_qr_scan", "ios": "https://dc.lft.to/lastmile_qr_scan"}}, {"bike_id": "0ed005018765491e68a4458cd0ce5680", "fusion_lon": 0.0, "name": "0ed005018765491e68a4458cd0ce5680", "lat": 38.918011166666666, "is_disabled": 0, "is_reserved": 0, "lon": -77.03438083333333, "type": "electric_scooter", "fusion_lat": 0.0, "rental_uris": {"android": "https://dc.lft.to/lastmile_qr_scan", "ios": "https://dc.lft.to/lastmile_qr_scan"}}, {"bike_id": "764e1a6c9cbe25c7d40d4d42cc35ef0c", "fusion_lon": 0.0, "name": "764e1a6c9cbe25c7d40d4d42cc35ef0c", "lat": 38.905598166666664, "is_disabled": 0, "is_reserved": 0, "lon": -77.01309516666667, "type": "electric_scooter", "fusion_lat": 0.0, "rental_uris": {"android": "https://dc.lft.to/lastmile_qr_scan", "ios": "https://dc.lft.to/lastmile_qr_scan"}}, {"bike_id": "90571f148165892f45bce532b0e3a57c", "fusion_lon": 0.0, "name": "90571f148165892f45bce532b0e3a57c", "lat": 38.89952616666667, "is_disabled": 0, "is_reserved": 0, "lon": -77.05099416666667, "type": "electric_scooter", "fusion_lat": 0.0, "rental_uris": {"android": "https://dc.lft.to/lastmile_qr_scan", "ios": "https://dc.lft.to/lastmile_qr_scan"}}, {"bike_id": "bcea2e830c0ae830ee6be155b28c91e9", "fusion_lon": 0.0, "name": "bcea2e830c0ae830ee6be155b28c91e9", "lat": 38.892232166666666, "is_disabled": 0, "is_reserved": 0, "lon": -77.0430425, "type": "electric_scooter", "fusion_lat": 0.0, "rental_uris": {"android": "https://dc.lft.to/lastmile_qr_scan", "ios": "https://dc.lft.to/lastmile_qr_scan"}},