{"data": {"bikes": [{"is_reserved": 0, "type": "electric_scooter", "bike_id": "ef4b1c9bbba5bb8cb30aae6e17304cd7", "lat": 38.927023166666665, "lon": -77.02954266666667, "rental_uris": {"android": "https://dc.lft.to/lastmile_qr_scan", "ios": "https://dc.lft.to/lastmile_qr_scan"}, "is_disabled": 0, "fusion_lat": 0.0, "name": "ef4b1c9bbba5bb8cb30aae6e17304cd7", "fusion_lon": 0.0}, {"is_reserved": 0, "type": "electric_scooter", "bike_id": "2e915d8e764d5a40f5ae391e66b869ae", "lat": 38.89224, "lon": -77.0223175, "rental_uris": {"android": "https://dc.lft.to/lastmile_qr_scan", "ios": "https://dc.lft.to/lastmile_qr_scan"}, "is_disabled": 0, "fusion_lat": 0.0, "name": "2e915d8e764d5a40f5ae391e66b869ae", "fusion_lon": 0.0}, {"is_reserved": 0, "type": "electric_scooter", "bike_id": "33448d866bb53ae66e1e99db2649947c", "lat": 38.8657935, "lon": -76.99024766666666, "rental_uris": {"android": "https://dc.lft.to/lastmile_qr_scan", "ios": "https://dc.lft.to/lastmile_qr_scan"}, "is_disabled": 0, "fusion_lat": 0.0, "name": "33448d866bb53ae66e1e99db2649947c", "fusion_lon": 0.0}, {"is_reserved": 0, "type": "electric_scooter", "bike_id": "8b61479d7e47782b51260a3ef266027d", "lat": 38.8877055, "lon": -76.93265333333333, "rental_uris": {"android": "https://dc.lft.to/lastmile_qr_scan", "ios": "https://dc.lft.to/lastmile_qr_scan"}, "is_disabled": 0, "fusion_lat": 0.0, "name": "8b61479d7e47782b51260a3ef266027d", "fusion_lon": 0.0}, {"is_reserved": 0, "type": "electric_scooter", "bike_id": "cd8d495b759a8d4f59afb8bf5d95f488", "lat": 38.90512, "lon": -76.99562716666667, "rental_uris": {"android": "https://dc.lft.to/lastmile_qr_scan", "ios": "https://dc.lft.to/lastmile_qr_scan"}, "is_disabled": 0, "fusion_lat": 0.0, "name": "cd8d495b759a8d4f59afb8bf5d95f488", "fusion_lon": 0.0}, {"is_reserved": 0, "type": "electric_scooter", "bike_id": "045b1206eaaf94b5302b787537d12aa4", "lat": 38.921395833333335, "lon": -77.01224983333333, "rental_uris": {"android": "https://dc.lft.to/lastmile_qr_scan", "ios": "https://dc.lft.to/lastmile_qr_scan"}, "is_disabled": 0, "fusion_lat": 0.0, "name": "045b1206eaaf94b5302b787537d12aa4", "fusion_lon": 0.0}, {"is_reserved": 0, "type": "electric_scooter", "bike_id": "98e24faa888a962f59ec9f0c0332c685", "lat": 38.905769, "lon": -77.021787, "rental_uris": {"android": "https://dc.lft.to/lastmile_qr_scan", "ios": "https://dc.lft.to/lastmile_qr_scan"}, "is_disabled": 0, "fusion_lat": 0.0, "name": "98e24faa888a962f59ec9f0c0332c685", "fusion_lon": 0.0}, {"is_reserved": 0, "type": "electric_scooter", "bike_id": "5df744d62ec6da740182be8ee2a3f18b", "lat": 38.88641366666667, "lon": -76.99606733333333, "rental_uris": {"android": "https://dc.lft.to/lastmile_qr_scan", "ios": "https://dc.lft.to/lastmile_qr_scan"}, "is_disabled": 0, "fusion_lat": 0.0, "name": "5df744d62ec6da740182be8ee2a3f18b", "fusion_lon": 0.0}, {"is_reserved": 0, "type": "electric_scooter", "bike_id": "7b0512a9f84800d81b46483eabc97adc", "lat": 38.92251, "lon": -77.03907366666667, "rental_uris": {"android": "https://dc.lft.to/lastmile_qr_scan", "ios": "https://dc.lft.to/lastmile_qr_scan"}, "is_disabled": 0, "fusion_lat": 0.0, "name": "7b0512a9f84800d81b46483eabc97adc", "fusion_lon": 0.0}, {"is_reserved": 0, "type": "electric_scooter", "bike_id": "6330b8e0f2075b9eb0c8855582fd3b17", "lat": 38.92768383333333, "lon": -77.0279465, "rental_uris": {"android": "https://dc.lft.to/lastmile_qr_scan", "ios": "https://dc.lft.to/lastmile_qr_scan"}, "is_disabled": 0, "fusion_lat": 0.0, "name": "6330b8e0f2075b9eb0c8855582fd3b17", "fusion_lon": 0.0}, {"is_reserved": 0, "type": "electric_scooter", "bike_id": "9dab8e52d1751c6eecb6bfe5500d3196", "lat": 38.9052825, "lon": -77.0670015, "rental_uris": {"android": "https://dc.lft.to/lastmile_qr_scan", "ios": "https://dc.lft.to/lastmile_qr_scan"}, "is_disabled": 0, "fusion_lat": 0.0, "name": "9dab8e52d1751c6eecb6bfe5500d3196", "fusion_lon": 0.0}, {"is_reserved": 0, "type": "electric_scooter", "bike_id": "b9c204ebdf7fc99e47913552b65bd5d4", "lat": 38.94302916666667, "lon": -77.02001616666666, "rental_uris": {"android": "https://dc.lft.to/lastmile_qr_scan", "ios": "https://dc.lft.to/lastmile_qr_scan"}, "is_disabled": 0, "fusion_lat": 0.0, "name": "b9c204ebdf7fc99e47913552b65bd5d4", "fusion_lon": 0.0}, {"is_reserved": 0, "type": "electric_scooter", "bike_id": "329647b3d0646e30c8ad0ab486ffbfe4", "lat": 38.895700833333336, "lon": -76.9808875, "rental_uris": {"android": "https://dc.lft.to/lastmile_qr_scan", "ios": "https://dc.lft.to/lastmile_qr_scan"}, "is_disabled": 0, "fusion_lat": 0.0, "name": "329647b3d0646e30c8ad0ab486ffbfe4", "fusion_lon": 0.0}, {"is_reserved": 0, "type": "electric_scooter", "bike_id": "99aae7aab8d56f43482bc22f69a142cf", "lat": 38.93181383333334, "lon": -77.02631283333334, "rental_uris": {"android": "https://dc.lft.to/lastmile_qr_scan", "ios": "https://dc.lft.to/lastmile_qr_scan"}, "is_disabled": 0, "fusion_lat": 0.0, "name": "99aae7aab8d56f43482bc22f69a142cf", "fusion_lon": 0.0}, {"is_reserved": 0, "type": "electric_scooter", "bike_id": "9d0bbe4bae26cb88d69bc5068a50a904", "lat": 38.90419983333334, "lon": -77.0259865, "rental_uris": {"android": "https://dc.lft.to/lastmile_qr_scan", "ios": "https://dc.lft.to/lastmile_qr_scan"}, "is_disabled": 0, "fusion_lat": 0.0, "name": "9d0bbe4bae26cb88d69bc5068a50a904", "fusion_lon": 0.0}, {"is_reserved": 0, "type": "electric_scooter", "bike_id": "38cd682c4851106cb340e1ef1032e1eb", "lat": 38.85446316666667, "lon": -76.9723585, "rental_uris": {"android": "https://dc.lft.to/lastmile_qr_scan", "ios": "https://dc.lft.to/lastmile_qr_scan"}, "is_disabled": 0, "fusion_lat": 0.0, "name": "38cd682c4851106cb340e1ef1032e1eb", "fusion_lon": 0.0}, {"is_reserved": 0, "type": "electric_scooter", "bike_id": "bf86dafd70bfded08b0ed1c812ec47d6", "lat": 38.90733066666667, "lon": -77.02546383333333, "rental_uris": {"android": "https://dc.lft.to/lastmile_qr_scan", "ios": "https://dc.lft.to/lastmile_qr_scan"}, "is_disabled": 0, "fusion_lat": 0.0, "name": "bf86dafd70bfded08b0ed1c812ec47d6", "fusion_lon": 0.0}, {"is_reserved": 0, "type": "electric_scooter", "bike_id": "3a24add442b213271a8287abec32c9cd", "lat": 38.901424666666664, "lon": -77.05120633333334, "rental_uris": {"android": "https://dc.lft.to/lastmile_qr_scan", "ios": "https://dc.lft.to/lastmile_qr_scan"}, "is_disabled": 0, "fusion_lat": 0.0, "name": "3a24add442b213271a8287abec32c9cd", "fusion_lon": 0.0}, {"is_reserved": 0, "type": "electric_scooter", "bike_id": "04d538129bb9d71bb956ae8f9a7c0519", "lat": 38.92753483333333, "lon": -77.02296283333334, "rental_uris": {"android": "https://dc.lft.to/lastmile_qr_scan", "ios": "https://dc.lft.to/lastmile_qr_scan"}, "is_disabled": 0, "fusion_lat": 0.0, "name": "04d538129bb9d71bb956ae8f9a7c0519", "fusion_lon": 0.0}, {"is_reserved": 0, "type": "electric_scooter", "bike_id": "6076a0b33151ab9a8cda25c850d528c1", "lat": 38.90723716666667, "lon": -77.04612516666667, "rental_uris": {"android": "https://dc.lft.to/lastmile_qr_scan", "ios": "https://dc.lft.to/lastmile_qr_scan"}, "is_disabled": 0, "fusion_lat": 0.0, "name": "6076a0b33151ab9a8cda25c850d528c1", "fusion_lon": 0.0}, {"is_reserved": 0, "type": "electric_scooter", "bike_id": "c4ae780afa247f949ee1e98b858c33ed", "lat": 38.9039795, "lon": -77.027418, "rental_uris": {"android": "https://dc.lft.to/lastmile_qr_scan", "ios": "https://dc.lft.to/lastmile_qr_scan"}, "is_disabled": 0, "fusion_lat": 0.0, "name": "c4ae780afa247f949ee1e98b858c33ed", "fusion_lon": 0.0}, {"is_reserved": 0, "type": "electric_scooter", "bike_id": "a5c0cd53b5c501de4122890155ba98b6", "lat": 38.90830283333333, "lon": -77.00092183333334, "rental_uris": {"android": "https://dc.lft.to/lastmile_qr_scan", "ios": "https://dc.lft.to/lastmile_qr_scan"}, "is_disabled": 0, "fusion_lat": 0.0, "name": "a5c0cd53b5c501de4122890155ba98b6", "fusion_lon": 0.0}, {"is_reserved": 0, "type": "electric_scooter", "bike_id": "c9bb3fd2ab456e7b00dd840ec2dd33c4", "lat": 38.92020766666667, "lon": -77.03972516666667, "rental_uris": {"android": "https://dc.lft.to/lastmile_qr_scan", "ios": "https://dc.lft.to/lastmile_qr_scan"}, "is_disabled": 0, "fusion_lat": 0.0, "name": "c9bb3fd2ab456e7b00dd840ec2dd33c4", "fusion_lon": 0.0}, {"is_reserved": 0, "type": "electric_scooter", "bike_id": "ff7585313869ebaf4e7db4a0b64a09a6", "lat": 38.92148616666667, "lon": -77.033925, "rental_uris": {"android": "https://dc.lft.to/lastmile_qr_scan", "ios": "https://dc.lft.to/lastmile_qr_scan"}, "is_disabled": 0, "fusion_lat": 0.0, "name": "ff7585313869ebaf4e7db4a0b64a09a6", "fusion_lon": 0.0}, {"is_reserved": 0, "type": "electric_bike", "bike_id": "bc4dbeb138bffaa040ebe9f30bce5958", "lat": 38.88933766666667, "lon": -76.91328833333333, "rental_uris": {"android": "https://dc.lft.to/lastmile_qr_scan", "ios": "https://dc.lft.to/lastmile_qr_scan"}, "is_disabled": 0, "fusion_lat": 0.0, "name": "bc4dbeb138bffaa040ebe9f30bce5958", "fusion_lon": 0.0}, {"is_reserved": 0, "type": "electric_scooter", "bike_id": "3ffaeedccb9179eef9d39ba4ff586597", "lat": 38.942009, "lon": -77.0251865, "rental_uris": {"android": "https://dc.lft.to/lastmile_qr_scan", "ios": "https://dc.lft.to/lastmile_qr_scan"}, "is_disabled": 0, "fusion_lat": 0.0, "name": "3ffaeedccb9179eef9d39ba4ff586597", "fusion_lon": 0.0}, {"is_reserved": 0, "type": "electric_scooter", "bike_id": "08c7bdc0175d9b832813cc56c970acb4", "lat": 38.924162333333335, "lon": -77.0355055, "rental_uris": {"android": "https://dc.lft.to/lastmile_qr_scan", "ios": "https://dc.lft.to/lastmile_qr_scan"}, "is_disabled": 0, "fusion_lat": 0.0, "name": "08c7bdc0175d9b832813cc56c970acb4", "fusion_lon": 0.0}, {"is_reserved": 0, "type": "electric_scooter", "bike_id": "7ac53c28b5ef250429a409246b30aa58", "lat": 38.92003666666667, "lon": -76.985024, "rental_uris": {"android": "https://dc.lft.to/lastmile_qr_scan", "ios": "https://dc.lft.to/lastmile_qr_scan"}, "is_disabled": 0, "fusion_lat": 0.0, "name": "7ac53c28b5ef250429a409246b30aa58", "fusion_lon": 0.0}, {"is_reserved": 0, "type": "electric_scooter", "bike_id": "c527e2227ef51ddf81735666e99efd81", "lat": 38.931010666666666, "lon": -77.024815, "rental_uris": {"android": "https://dc.lft.to/lastmile_qr_scan", "ios": "https://dc.lft.to/lastmile_qr_scan"}, "is_disabled": 0, "fusion_lat": 0.0, "name": "c527e2227ef51ddf81735666e99efd81", "fusion_lon": 0.0}, {"is_reserved": 0, "type": "electric_scooter", "bike_id": "9ce1ed463ae7d6b05ffc65f41fed62d0", "lat": 38.915755, "lon": -77.019979, "rental_uris": {"android": "https://dc.lft.to/lastmile_qr_scan", "ios": "https://dc.lft.to/lastmile_qr_scan"}, "is_disabled": 0, "fusion_lat": 0.0, "name": "9ce1ed463ae7d6b05ffc65f41fed62d0", "fusion_lon": 0.0}, {"is_reserved": 0, "type": "electric_scooter", "bike_id": "112dfb7055d43ab8441e2eb08137bc55", "lat": 38.908313166666666, "lon": -76.9871725, "rental_uris": {"android": "https://dc.lft.to/lastmile_qr_scan", "ios": "https://dc.lft.to/lastmile_qr_scan"}, "is_disabled": 0, "fusion_lat": 0.0, "name": "112dfb7055d43ab8441e2eb08137bc55", "fusion_lon": 0.0}, {"is_reserved": 0, "type": "electric_scooter", "bike_id": "39c14e980a7817dcf6ccb89c61dd4f86", "lat": 38.90578266666667, "lon": -77.005893, "rental_uris": {"android": "https://dc.lft.to/lastmile_qr_scan", "ios": "https://dc.lft.to/lastmile_qr_scan"}, "is_disabled": 0, "fusion_lat": 0.0, "name": "39c14e980a7817dcf6ccb89c61dd4f86", "fusion_lon": 0.0}, {"is_reserved": 0, "type": "electric_scooter", "bike_id": "c327155df74fa19db4ad376c4c54711d", "lat": 38.918118, "lon": -77.03179133333333, "rental_uris": {"android": "https://dc.lft.to/lastmile_qr_scan", "ios": "https://dc.lft.to/lastmile_qr_scan"}, "is_disabled": 0, "fusion_lat": 0.0, "name": "c327155df74fa19db4ad376c4c54711d", "fusion_lon": 0.0}, {"is_reserved": 0, "type": "electric_scooter", "bike_id": "68eafd3be1385c00c7d6835a68d65402", "lat": 38.88623183333333, "lon": -77.01542216666667, "rental_uris": {"android": "https://dc.lft.to/lastmile_qr_scan", "ios": "https://dc.lft.to/lastmile_qr_scan"}, "is_disabled": 0, "fusion_lat": 0.0, "name": "68eafd3be1385c00c7d6835a68d65402", "fusion_lon": 0.0}, {"is_reserved": 0, "type": "electric_scooter", "bike_id": "f024c4e0587fd192b6a0b20de7c707e6", "lat": 38.926050333333336, "lon": -77.0518405, "rental_uris": {"android": "https://dc.lft.to/lastmile_qr_scan", "ios": "https://dc.lft.to/lastmile_qr_scan"}, "is_disabled": 0, "fusion_lat": 0.0, "name": "f024c4e0587fd192b6a0b20de7c707e6", "fusion_lon": 0.0}, {"is_reserved": 0, "type": "electric_scooter", "bike_id": "9e4fe15d9dc3e4ad812fae2339a9130b", "lat": 38.885093833333336, "lon": -77.011147, "rental_uris": {"android": "https://dc.lft.to/lastmile_qr_scan", "ios": "https://dc.lft.to/lastmile_qr_scan"}, "is_disabled": 0, "fusion_lat": 0.0, "name": "9e4fe15d9dc3e4ad812fae2339a9130b", "fusion_lon": 0.0}, {"is_reserved": 0, "type": "electric_bike", "bike_id": "2547a5e32e46ccd4625112737f10a3da", "lat": 38.99101133333333, "lon": -76.881547, "rental_uris": {"android": "https://dc.lft.to/lastmile_qr_scan", "ios": "https://dc.lft.to/lastmile_qr_scan"}, "is_disabled": 0, "fusion_lat": 0.0, "name": "2547a5e32e46ccd4625112737f10a3da", "fusion_lon": 0.0}, {"is_reserved": 0, "type": "electric_bike", "bike_id": "2182dd6684d604f57d1b913da752f9df", "lat": 38.843312, "lon": -76.99744883333334, "rental_uris": {"android": "https://dc.lft.to/lastmile_qr_scan", "ios": "https://dc.lft.to/lastmile_qr_scan"}, "is_disabled": 0, "fusion_lat": 0.0, "name": "2182dd6684d604f57d1b913da752f9df", "fusion_lon": 0.0}, {"is_reserved": 0, "type": "electric_scooter", "bike_id": "77556233d0316ec0eb4e034b16171326", "lat": 38.88616283333333, "lon": -77.00409733333333, "rental_uris": {"android": "https://dc.lft.to/lastmile_qr_scan", "ios": "https://dc.lft.to/lastmile_qr_scan"}, "is_disabled": 0, "fusion_lat": 0.0, "name": "77556233d0316ec0eb4e034b16171326", "fusion_lon": 0.0}, {"is_reserved": 0, "type": "electric_scooter", "bike_id": "2d18174f762d94366344d50e29978565", "lat": 38.92475683333333, "lon": -77.02925066666667, "rental_uris": {"android": "https://dc.lft.to/lastmile_qr_scan", "ios": "https://dc.lft.to/lastmile_qr_scan"}, "is_disabled": 0, "fusion_lat": 0.0, "name": "2d18174f762d94366344d50e29978565", "fusion_lon": 0.0}, {"is_reserved": 0, "type": "electric_scooter", "bike_id": "ffc00a691f96038dce599c4a20d437fd", "lat": 38.89830366666666, "lon": -77.02497633333333, "rental_uris": {"android": "https://dc.lft.to/lastmile_qr_scan", "ios": "https://dc.lft.to/lastmile_qr_scan"}, "is_disabled": 0, "fusion_lat": 0.0, "name": "ffc00a691f96038dce599c4a20d437fd", "fusion_lon": 0.0}, {"is_reserved": 0, "type": "electric_bike", "bike_id": "374accb3375870992a1ba005b758e7c3", "lat": 38.862625666666666, "lon": -76.98354233333333, "rental_uris": {"android": "https://dc.lft.to/lastmile_qr_scan", "ios": "https://dc.lft.to/lastmile_qr_scan"}, "is_disabled": 0, "fusion_lat": 0.0, "name": "374accb3375870992a1ba005b758e7c3", "fusion_lon": 0.0}, {"is_reserved": 0, "type": "electric_scooter", "bike_id": "d882a5d59d89c9759fada173a700716b", "lat": 38.8872755, "lon": -76.9838025, "rental_uris": {"android": "https://dc.lft.to/lastmile_qr_scan", "ios": "https://dc.lft.to/lastmile_qr_scan"}, "is_disabled": 0, "fusion_lat": 0.0, "name": "d882a5d59d89c9759fada173a700716b", "fusion_lon": 0.0}, {"is_reserved": 0, "type": "electric_scooter", "bike_id": "17635ef81f9c29661646946bd2af692f", "lat": 38.93402566666666, "lon": -77.0399065, "rental_uris": {"android": "https://dc.lft.to/lastmile_qr_scan", "ios": "https://dc.lft.to/lastmile_qr_scan"}, "is_disabled": 0, "fusion_lat": 0.0, "name": "17635ef81f9c29661646946bd2af692f", "fusion_lon": 0.0}, {"is_reserved": 0, "type": "electric_scooter", "bike_id": "3bf933277015b177157788909e6b4a9b", "lat": 38.90975483333333, "lon": -77.00779433333334, "rental_uris": {"android": "https://dc.lft.to/lastmile_qr_scan", "ios": "https://dc.lft.to/lastmile_qr_scan"}, "is_disabled": 0, "fusion_lat": 0.0, "name": "3bf933277015b177157788909e6b4a9b", "fusion_lon": 0.0}, {"is_reserved": 0, "type": "electric_scooter", "bike_id": "320dd7520fbed8f568948727ef287ff9", "lat": 38.91939516666667, "lon": -77.04797616666667, "rental_uris": {"android": "https://dc.lft.to/lastmile_qr_scan", "ios": "https://dc.lft.to/lastmile_qr_scan"}, "is_disabled": 0, "fusion_lat": 0.0, "name": "320dd7520fbed8f568948727ef287ff9", "fusion_lon": 0.0}, {"is_reserved": 0, "type": "electric_scooter", "bike_id": "a0af9577356496f8c63ae418ba0b2044", "lat": 38.915691, "lon": -77.03661166666667, "rental_uris": {"android": "https://dc.lft.to/lastmile_qr_scan", "ios": "https://dc.lft.to/lastmile_qr_scan"}, "is_disabled": 0, "fusion_lat": 0.0, "name": "a0af9577356496f8c63ae418ba0b2044", "fusion_lon": 0.0}, {"is_reserved": 0, "type": "electric_scooter", "bike_id": "2ada22ed809eb81fb4b6051663ba4fdf", "lat": 38.93085883333333, "lon": -77.02811666666666, "rental_uris": {"android": "https://dc.lft.to/lastmile_qr_scan", "ios": "https://dc.lft.to/lastmile_qr_scan"}, "is_disabled": 0, "fusion_lat": 0.0, "name": "2ada22ed809eb81fb4b6051663ba4fdf", "fusion_lon": 0.0}, {"is_reserved": 0, "type": "electric_scooter", "bike_id": "e77a6771ff3dcf7b887af9125b58869b", "lat": 38.91855266666666, "lon": -77.03580333333333, "rental_uris": {"android": "https://dc.lft.to/lastmile_qr_scan", "ios": "https://dc.lft.to/lastmile_qr_scan"}, "is_disabled": 0, "fusion_lat": 0.0, "name": "e77a6771ff3dcf7b887af9125b58869b", "fusion_lon": 0.0}, {"is_reserved": 0, "type": "electric_scooter", "bike_id": "cd225b26c92b4846fcc57bb6c50a84b8", "lat": 38.89759933333333, "lon": -77.02693716666667, "rental_uris": {"android": "https://dc.lft.to/lastmile_qr_scan", "ios": "https://dc.lft.to/lastmile_qr_scan"}, "is_disabled": 0, "fusion_lat": 0.0, "name": "cd225b26c92b4846fcc57bb6c50a84b8", "fusion_lon": 0.0}, {"is_reserved": 0, "type": "electric_scooter", "bike_id": "d37a1dc9c6565547cb1354d0d1783977", "lat": 38.88765683333333, "lon": -76.98326733333333, "rental_uris": {"android": "https://dc.lft.to/lastmile_qr_scan", "ios": "https://dc.lft.to/lastmile_qr_scan"}, "is_disabled": 0, "fusion_lat": 0.0, "name": "d37a1dc9c6565547cb1354d0d1783977", "fusion_lon": 0.0}, {"is_reserved": 0, "type": "electric_scooter", "bike_id": "e65d3dfaa0c44106b354d1c6f07f113c", "lat": 38.8980995, "lon": -76.99690716666667, "rental_uris": {"android": "https://dc.lft.to/lastmile_qr_scan", "ios": "https://dc.lft.to/lastmile_qr_scan"}, "is_disabled": 0, "fusion_lat": 0.0, "name": "e65d3dfaa0c44106b354d1c6f07f113c", "fusion_lon": 0.0}, {"is_reserved": 0, "type": "electric_scooter", "bike_id": "4a394659494de9dca41c50590dffd82b", "lat": 38.9178535, "lon": -77.023138, "rental_uris": {"android": "https://dc.lft.to/lastmile_qr_scan", "ios": "https://dc.lft.to/lastmile_qr_scan"}, "is_disabled": 0, "fusion_lat": 0.0, "name": "4a394659494de9dca41c50590dffd82b", "fusion_lon": 0.0}, {"is_reserved": 0, "type": "electric_scooter", "bike_id": "398a3ac0d9529a42595a44003f683d14", "lat": 38.9196705, "lon": -77.04372783333334, "rental_uris": {"android": "https://dc.lft.to/lastmile_qr_scan", "ios": "https://dc.lft.to/lastmile_qr_scan"}, "is_disabled": 0, "fusion_lat": 0.0, "name": "398a3ac0d9529a42595a44003f683d14", "fusion_lon": 0.0}, {"is_reserved": 0, "type": "electric_scooter", "bike_id": "73de645938ebf8c700165f3d4fa72c20", "lat": 38.91939716666667, "lon": -77.01881483333334, "rental_uris": {"android": "https://dc.lft.to/lastmile_qr_scan", "ios": "https://dc.lft.to/lastmile_qr_scan"}, "is_disabled": 0, "fusion_lat": 0.0, "name": "73de645938ebf8c700165f3d4fa72c20", "fusion_lon": 0.0}, {"is_reserved": 0, "type": "electric_scooter", "bike_id": "f8ec01f20207430d4c5bd72794537103", "lat": 38.86716166666667, "lon": -76.980717, "rental_uris": {"android": "https://dc.lft.to/lastmile_qr_scan", "ios": "https://dc.lft.to/lastmile_qr_scan"}, "is_disabled": 0, "fusion_lat": 0.0, "name": "f8ec01f20207430d4c5bd72794537103", "fusion_lon": 0.0}, {"is_reserved": 0, "type": "electric_scooter", "bike_id": "54b43b2583c06ea1c94557d6554adda6", "lat": 38.911106833333335, "lon": -77.02083166666667, "rental_uris": {"android": "https://dc.lft.to/lastmile_qr_scan", "ios": "https://dc.lft.to/lastmile_qr_scan"}, "is_disabled": 0, "fusion_lat": 0.0, "name": "54b43b2583c06ea1c94557d6554adda6", "fusion_lon": 0.0}, {"is_reserved": 0, "type": "electric_scooter", "bike_id": "5e0939bb72f9c15b44c06230c40d5586", "lat": 38.892292833333336, "lon": -77.031834, "rental_uris": {"android": "https://dc.lft.to/lastmile_qr_scan", "ios": "https://dc.lft.to/lastmile_qr_scan"}, "is_disabled": 0, "fusion_lat": 0.0, "name": "5e0939bb72f9c15b44c06230c40d5586", "fusion_lon": 0.0}, {"is_reserved": 0, "type": "electric_scooter", "bike_id": "317ea6aa42a6fc050729c2c1813f5edc", "lat": 38.90850483333333, "lon": -77.003919, "rental_uris": {"android": "https://dc.lft.to/lastmile_qr_scan", "ios": "https://dc.lft.to/lastmile_qr_scan"}, "is_disabled": 0, "fusion_lat": 0.0, "name": "317ea6aa42a6fc050729c2c1813f5edc", "fusion_lon": 0.0}, {"is_reserved": 0, "type": "electric_scooter", "bike_id": "fddb329c35e63bbf32c231e488b5d3c4", "lat": 38.909747333333335, "lon": -77.02410383333333, "rental_uris": {"android": "https://dc.lft.to/lastmile_qr_scan", "ios": "https://dc.lft.to/lastmile_qr_scan"}, "is_disabled": 0, "fusion_lat": 0.0, "name": "fddb329c35e63bbf32c231e488b5d3c4", "fusion_lon": 0.0}, {"is_reserved": 0, "type": "electric_bike", "bike_id": "5ab1e00e3b3b91faad34b17ee4890ec0", "lat": 38.95645716666667, "lon": -77.0329685, "rental_uris": {"android": "https://dc.lft.to/lastmile_qr_scan", "ios": "https://dc.lft.to/lastmile_qr_scan"}, "is_disabled": 0, "fusion_lat": 0.0, "name": "5ab1e00e3b3b91faad34b17ee4890ec0", "fusion_lon": 0.0}, {"is_reserved": 0, "type": "electric_bike", "bike_id": "672013cac09567e656fd898e8192ab57", "lat": 38.8959295, "lon": -76.90695566666666, "rental_uris": {"android": "https://dc.lft.to/lastmile_qr_scan", "ios": "https://dc.lft.to/lastmile_qr_scan"}, "is_disabled": 0, "fusion_lat": 0.0, "name": "672013cac09567e656fd898e8192ab57", "fusion_lon": 0.0}, {"is_reserved": 0, "type": "electric_scooter", "bike_id": "8805b75336e872fa265034b66da89f03", "lat": 38.865982333333335, "lon": -76.97455316666667, "rental_uris": {"android": "https://dc.lft.to/lastmile_qr_scan", "ios": "https://dc.lft.to/lastmile_qr_scan"}, "is_disabled": 0, "fusion_lat": 0.0, "name": "8805b75336e872fa265034b66da89f03", "fusion_lon": 0.0}, {"is_reserved": 0, "type": "electric_scooter", "bike_id": "99b20a08c1187ae00a36062e33eeeb5a", "lat": 38.905875, "lon": -77.031018, "rental_uris": {"android": "https://dc.lft.to/lastmile_qr_scan", "ios": "https://dc.lft.to/lastmile_qr_scan"}, "is_disabled": 0, "fusion_lat": 0.0, "name": "99b20a08c1187ae00a36062e33eeeb5a", "fusion_lon": 0.0}, {"is_reserved": 0, "type": "electric_scooter", "bike_id": "161b96c2d71864432d974ea85e9657c4", "lat": 38.88766566666666, "lon": -76.98327516666667, "rental_uris": {"android": "https://dc.lft.to/lastmile_qr_scan", "ios": "https://dc.lft.to/lastmile_qr_scan"}, "is_disabled": 0, "fusion_lat": 0.0, "name": "161b96c2d71864432d974ea85e9657c4", "fusion_lon": 0.0}, {"is_reserved": 0, "type": "electric_scooter", "bike_id": "8817afbec652059e118fc04c134978bf", "lat": 38.915676166666664, "lon": -77.02288066666667, "rental_uris": {"android": "https://dc.lft.to/lastmile_qr_scan", "ios": "https://dc.lft.to/lastmile_qr_scan"}, "is_disabled": 0, "fusion_lat": 0.0, "name": "8817afbec652059e118fc04c134978bf", "fusion_lon": 0.0}, {"is_reserved": 0, "type": "electric_scooter", "bike_id": "c881146d3fc7ce06207fdee71a65c00c", "lat": 38.8745115, "lon": -77.00201316666667, "rental_uris": {"android": "https://dc.lft.to/lastmile_qr_scan", "ios": "https://dc.lft.to/lastmile_qr_scan"}, "is_disabled": 0, "fusion_lat": 0.0, "name": "c881146d3fc7ce06207fdee71a65c00c", "fusion_lon": 0.0}, {"is_reserved": 0, "type": "electric_scooter", "bike_id": "0986b649de17bff1bba986d40fe24857", "lat": 38.9000075, "lon": -77.01207216666667, "rental_uris": {"android": "https://dc.lft.to/lastmile_qr_scan", "ios": "https://dc.lft.to/lastmile_qr_scan"}, "is_disabled": 0, "fusion_lat": 0.0, "name": "0986b649de17bff1bba986d40fe24857", "fusion_lon": 0.0}, {"is_reserved": 0, "type": "electric_bike", "bike_id": "7e8602216c0fc8368495efa2574617bd", "lat": 38.88388366666667, "lon": -76.95452833333333, "rental_uris": {"android": "https://dc.lft.to/lastmile_qr_scan", "ios": "https://dc.lft.to/lastmile_qr_scan"}, "is_disabled": 0, "fusion_lat": 0.0, "name": "7e8602216c0fc8368495efa2574617bd", "fusion_lon": 0.0}, {"is_reserved": 0, "type": "electric_scooter", "bike_id": "bd3c0ed1e9ea2bcdfd46fa7506753d22", "lat": 38.9051545, "lon": -77.05842283333334, "rental_uris": {"android": "https://dc.lft.to/lastmile_qr_scan", "ios": "https://dc.lft.to/lastmile_qr_scan"}, "is_disabled": 0, "fusion_lat": 0.0, "name": "bd3c0ed1e9ea2bcdfd46fa7506753d22", "fusion_lon": 0.0}, {"is_reserved": 0, "type": "electric_scooter", "bike_id": "c5c069557e46452f31f80b07f142ba67", "lat": 38.902524166666666, "lon": -77.0163045, "rental_uris": {"android": "https://dc.lft.to/lastmile_qr_scan", "ios": "https://dc.lft.to/lastmile_qr_scan"}, "is_disabled": 0, "fusion_lat": 0.0, "name": "c5c069557e46452f31f80b07f142ba67", "fusion_lon": 0.0}, {"is_reserved": 0, "type": "electric_bike", "bike_id": "121e7cad9b0819fa332d747fd8e17d11", "lat": 38.832414666666665, "lon": -76.94621766666667, "rental_uris": {"android": "https://dc.lft.to/lastmile_qr_scan", "ios": "https://dc.lft.to/lastmile_qr_scan"}, "is_disabled": 0, "fusion_lat": 0.0, "name": "121e7cad9b0819fa332d747fd8e17d11", "fusion_lon": 0.0}, {"is_reserved": 0, "type": "electric_scooter", "bike_id": "77c438e945aaa44e469d33105f7c26ea", "lat": 38.90810283333333, "lon": -77.0345945, "rental_uris": {"android": "https://dc.lft.to/lastmile_qr_scan", "ios": "https://dc.lft.to/lastmile_qr_scan"}, "is_disabled": 0, "fusion_lat": 0.0, "name": "77c438e945aaa44e469d33105f7c26ea", "fusion_lon": 0.0}, {"is_reserved": 0, "type": "electric_bike", "bike_id": "b8a22d7eb404479fe40580a6447b4b3b", "lat": 38.82340633333333, "lon": -77.058218, "rental_uris": {"android": "https://dc.lft.to/lastmile_qr_scan", "ios": "https://dc.lft.to/lastmile_qr_scan"}, "is_disabled": 0, "fusion_lat": 0.0, "name": "b8a22d7eb404479fe40580a6447b4b3b", "fusion_lon": 0.0}, {"is_reserved": 0, "type": "electric_scooter", "bike_id": "11ccb26322b81088ee8a5c79e1bdccf0", "lat": 38.907571833333336, "lon": -76.998742, "rental_uris": {"android": "https://dc.lft.to/lastmile_qr_scan", "ios": "https://dc.lft.to/lastmile_qr_scan"}, "is_disabled": 0, "fusion_lat": 0.0, "name": "11ccb26322b81088ee8a5c79e1bdccf0", "fusion_lon": 0.0}, {"is_reserved": 0, "type": "electric_scooter", "bike_id": "ea1af609ec548d5f9dab35a335d0c0e8", "lat": 38.90005416666666, "lon": -77.00674916666667, "rental_uris": {"android": "https://dc.lft.to/lastmile_qr_scan", "ios": "https://dc.lft.to/lastmile_qr_scan"}, "is_disabled": 0, "fusion_lat": 0.0, "name": "ea1af609ec548d5f9dab35a335d0c0e8", "fusion_lon": 0.0}, {"is_reserved": 0, "type": "electric_scooter", "bike_id": "407e34caedef2c339c7b80c0e5b28ac6", "lat": 38.92909683333333, "lon": -77.02188783333334, "rental_uris": {"android": "https://dc.lft.to/lastmile_qr_scan", "ios": "https://dc.lft.to/lastmile_qr_scan"}, "is_disabled": 0, "fusion_lat": 0.0, "name": "407e34caedef2c339c7b80c0e5b28ac6", "fusion_lon": 0.0}, {"is_reserved": 0, "type": "electric_scooter", "bike_id": "176ba785deb770a4f4a1f4fd2d646d79", "lat": 38.924413333333334, "lon": -77.04022966666666, "rental_uris": {"android": "https://dc.lft.to/lastmile_qr_scan", "ios": "https://dc.lft.to/lastmile_qr_scan"}, "is_disabled": 0, "fusion_lat": 0.0, "name": "176ba785deb770a4f4a1f4fd2d646d79", "fusion_lon": 0.0}, {"is_reserved": 0, "type": "electric_bike", "bike_id": "88740ca9be1989760c7a369e4d5fcd8b", "lat": 38.912255333333334, "lon": -77.06600283333333, "rental_uris": {"android": "https://dc.lft.to/lastmile_qr_scan", "ios": "https://dc.lft.to/lastmile_qr_scan"}, "is_disabled": 0, "fusion_lat": 0.0, "name": "88740ca9be1989760c7a369e4d5fcd8b", "fusion_lon": 0.0}, {"is_reserved": 0, "type": "electric_scooter", "bike_id": "3c82b71c7c69b29df25597ae1c77c6dc", "lat": 38.914605, "lon": -77.0020915, "rental_uris": {"android": "https://dc.lft.to/lastmile_qr_scan", "ios": "https://dc.lft.to/lastmile_qr_scan"}, "is_disabled": 0, "fusion_lat": 0.0, "name": "3c82b71c7c69b29df25597ae1c77c6dc", "fusion_lon": 0.0}, {"is_reserved": 0, "type": "electric_scooter", "bike_id": "c9a0ff322587f308f1869aeb96f47422", "lat": 38.9192185, "lon": -77.03577566666667, "rental_uris": {"android": "https://dc.lft.to/lastmile_qr_scan", "ios": "https://dc.lft.to/lastmile_qr_scan"}, "is_disabled": 0, "fusion_lat": 0.0, "name": "c9a0ff322587f308f1869aeb96f47422", "fusion_lon": 0.0}, {"is_reserved": 0, "type": "electric_scooter", "bike_id": "4ab8142dcfc37ecc7d3959f2e61e09d6", "lat": 38.8989315, "lon": -77.0332535, "rental_uris": {"android": "https://dc.lft.to/lastmile_qr_scan", "ios": "https://dc.lft.to/lastmile_qr_scan"}, "is_disabled": 0, "fusion_lat": 0.0, "name": "4ab8142dcfc37ecc7d3959f2e61e09d6", "fusion_lon": 0.0}, {"is_reserved": 0, "type": "electric_scooter", "bike_id": "2f14806fd6c114c3c9b13dbfb694eb57", "lat": 38.907281166666664, "lon": -77.04504733333333, "rental_uris": {"android": "https://dc.lft.to/lastmile_qr_scan", "ios": "https://dc.lft.to/lastmile_qr_scan"}, "is_disabled": 0, "fusion_lat": 0.0, "name": "2f14806fd6c114c3c9b13dbfb694eb57", "fusion_lon": 0.0}, {"is_reserved": 0, "type": "electric_scooter", "bike_id": "ceacc12abd3e77124ace49bf59ec03a6", "lat": 38.898430166666664, "lon": -77.01988183333333, "rental_uris": {"android": "https://dc.lft.to/lastmile_qr_scan", "ios": "https://dc.lft.to/lastmile_qr_scan"}, "is_disabled": 0, "fusion_lat": 0.0, "name": "ceacc12abd3e77124ace49bf59ec03a6", "fusion_lon": 0.0}, {"is_reserved": 0, "type": "electric_scooter", "bike_id": "007f3098db0f7331438e2dca4a8c933a", "lat": 38.8898585, "lon": -77.00156, "rental_uris": {"android": "https://dc.lft.to/lastmile_qr_scan", "ios": "https://dc.lft.to/lastmile_qr_scan"}, "is_disabled": 0, "fusion_lat": 0.0, "name": "007f3098db0f7331438e2dca4a8c933a", "fusion_lon": 0.0}, {"is_reserved": 0, "type": "electric_scooter", "bike_id": "2cb6bd17eac75e59ea5c9eebf107f161", "lat": 38.907210166666665, "lon": -77.047565, "rental_uris": {"android": "https://dc.lft.to/lastmile_qr_scan", "ios": "https://dc.lft.to/lastmile_qr_scan"}, "is_disabled": 0, "fusion_lat": 0.0, "name": "2cb6bd17eac75e59ea5c9eebf107f161", "fusion_lon": 0.0}, {"is_reserved": 0, "type": "electric_scooter", "bike_id": "06bd73012f0c437142fbb57e102a9ed7", "lat": 38.92032916666667, "lon": -77.04178883333333, "rental_uris": {"android": "https://dc.lft.to/lastmile_qr_scan", "ios": "https://dc.lft.to/lastmile_qr_scan"}, "is_disabled": 0, "fusion_lat": 0.0, "name": "06bd73012f0c437142fbb57e102a9ed7", "fusion_lon": 0.0}, {"is_reserved": 0, "type": "electric_scooter", "bike_id": "16081df0ed4dcdf676742e00ba527746", "lat": 38.92627233333333, "lon": -77.0771225, "rental_uris": {"android": "https://dc.lft.to/lastmile_qr_scan", "ios": "https://dc.lft.to/lastmile_qr_scan"}, "is_disabled": 0, "fusion_lat": 0.0, "name": "16081df0ed4dcdf676742e00ba527746", "fusion_lon": 0.0}, {"is_reserved": 0, "type": "electric_scooter", "bike_id": "1d6413249be09110de17ac1bde87243b", "lat": 38.92352416666667, "lon": -76.99084683333334, "rental_uris": {"android": "https://dc.lft.to/lastmile_qr_scan", "ios": "https://dc.lft.to/lastmile_qr_scan"}, "is_disabled": 0, "fusion_lat": 0.0, "name": "1d6413249be09110de17ac1bde87243b", "fusion_lon": 0.0}, {"is_reserved": 0, "type": "electric_scooter", "bike_id": "74ace7a8d5cd1977326243f1bd4cf9b0", "lat": 38.91335433333333, "lon": -77.04803283333334, "rental_uris": {"android": "https://dc.lft.to/lastmile_qr_scan", "ios": "https://dc.lft.to/lastmile_qr_scan"}, "is_disabled": 0, "fusion_lat": 0.0, "name": "74ace7a8d5cd1977326243f1bd4cf9b0", "fusion_lon": 0.0}, {"is_reserved": 0, "type": "electric_scooter", "bike_id": "ce405c5453e5c36a14fbcdb6e7b89013", "lat": 38.90226083333334, "lon": -77.05337683333333, "rental_uris": {"android": "https://dc.lft.to/lastmile_qr_scan", "ios": "https://dc.lft.to/lastmile_qr_scan"}, "is_disabled": 0, "fusion_lat": 0.0, "name": "ce405c5453e5c36a14fbcdb6e7b89013", "fusion_lon": 0.0}, {"is_reserved": 0, "type": "electric_scooter", "bike_id": "a8c29fe465a4950c7888c00f819ed96a", "lat": 38.91809, "lon": -77.040289, "rental_uris": {"android": "https://dc.lft.to/lastmile_qr_scan", "ios": "https://dc.lft.to/lastmile_qr_scan"}, "is_disabled": 0, "fusion_lat": 0.0, "name": "a8c29fe465a4950c7888c00f819ed96a", "fusion_lon": 0.0}, {"is_reserved": 0, "type": "electric_scooter", "bike_id": "1913b4f7b76c41f7558c62800a5773a9", "lat": 38.892476, "lon": -77.03954916666666, "rental_uris": {"android": "https://dc.lft.to/lastmile_qr_scan", "ios": "https://dc.lft.to/lastmile_qr_scan"}, "is_disabled": 0, "fusion_lat": 0.0, "name": "1913b4f7b76c41f7558c62800a5773a9", "fusion_lon": 0.0}, {"is_reserved": 0, "type": "electric_scooter", "bike_id": "457c12e09bf6206df136abafd9d1ebe0", "lat": 38.91490683333333, "lon": -77.01221716666667, "rental_uris": {"android": "https://dc.lft.to/lastmile_qr_scan", "ios": "https://dc.lft.to/lastmile_qr_scan"}, "is_disabled": 0, "fusion_lat": 0.0, "name": "457c12e09bf6206df136abafd9d1ebe0", "fusion_lon": 0.0}, {"is_reserved": 0, "type": "electric_scooter", "bike_id": "8505f24155a058c34706872795a67ea8", "lat": 38.916216166666665, "lon": -77.00200883333333, "rental_uris": {"android": "https://dc.lft.to/lastmile_qr_scan", "ios": "https://dc.lft.to/lastmile_qr_scan"}, "is_disabled": 0, "fusion_lat": 0.0, "name": "8505f24155a058c34706872795a67ea8", "fusion_lon": 0.0}, {"is_reserved": 0, "type": "electric_scooter", "bike_id": "d4bccc343de4e844e914ae648fc85af4", "lat": 38.89917966666667, "lon": -77.003634, "rental_uris": {"android": "https://dc.lft.to/lastmile_qr_scan", "ios": "https://dc.lft.to/lastmile_qr_scan"}, "is_disabled": 0, "fusion_lat": 0.0, "name": "d4bccc343de4e844e914ae648fc85af4", "fusion_lon": 0.0}, {"is_reserved": 0, "type": "electric_scooter", "bike_id": "ab10159c7a1c33c9191389e4cc7eb9b7", "lat": 38.898969666666666, "lon": -77.03967566666667, "rental_uris": {"android": "https://dc.lft.to/lastmile_qr_scan", "ios": "https://dc.lft.to/lastmile_qr_scan"}, "is_disabled": 0, "fusion_lat": 0.0, "name": "ab10159c7a1c33c9191389e4cc7eb9b7", "fusion_lon": 0.0}, {"is_reserved": 0, "type": "electric_scooter", "bike_id": "b6be4a9946e1f60909607217bb39c6b8", "lat": 38.920751333333335, "lon": -77.02504516666667, "rental_uris": {"android": "https://dc.lft.to/lastmile_qr_scan", "ios": "https://dc.lft.to/lastmile_qr_scan"}, "is_disabled": 0, "fusion_lat": 0.0, "name": "b6be4a9946e1f60909607217bb39c6b8", "fusion_lon": 0.0}, {"is_reserved": 0, "type": "electric_bike", "bike_id": "1c457181812dddea72a369e15199a330", "lat": 38.887878666666666, "lon": -76.92339216666667, "rental_uris": {"android": "https://dc.lft.to/lastmile_qr_scan", "ios": "https://dc.lft.to/lastmile_qr_scan"}, "is_disabled": 0, "fusion_lat": 0.0, "name": "1c457181812dddea72a369e15199a330", "fusion_lon": 0.0}, {"is_reserved": 0, "type": "electric_scooter", "bike_id": "e45eb734d636150ed58b0a1b7babf631", "lat": 38.883852, "lon": -77.01946133333334, "rental_uris": {"android": "https://dc.lft.to/lastmile_qr_scan", "ios": "https://dc.lft.to/lastmile_qr_scan"}, "is_disabled": 0, "fusion_lat": 0.0, "name": "e45eb734d636150ed58b0a1b7babf631", "fusion_lon": 0.0}, {"is_reserved": 0, "type": "electric_scooter", "bike_id": "f5a6954cbdff4c069b34a4354f8f99c4", "lat": 38.924259166666666, "lon": -77.03422066666667, "rental_uris": {"android": "https://dc.lft.to/lastmile_qr_scan", "ios": "https://dc.lft.to/lastmile_qr_scan"}, "is_disabled": 0, "fusion_lat": 0.0, "name": "f5a6954cbdff4c069b34a4354f8f99c4", "fusion_lon": 0.0}, {"is_reserved": 0, "type": "electric_scooter", "bike_id": "63cc21fa0a721b90cdd51e7ca2f420aa", "lat": 38.92634916666667, "lon": -77.0425505, "rental_uris": {"android": "https://dc.lft.to/lastmile_qr_scan", "ios": "https://dc.lft.to/lastmile_qr_scan"}, "is_disabled": 0, "fusion_lat": 0.0, "name": "63cc21fa0a721b90cdd51e7ca2f420aa", "fusion_lon": 0.0}, {"is_reserved": 0, "type": "electric_scooter", "bike_id": "406ce6df872b4789c9b7d254c77ecf91", "lat": 38.912005, "lon": -77.03757583333334, "rental_uris": {"android": "https://dc.lft.to/lastmile_qr_scan", "ios": "https://dc.lft.to/lastmile_qr_scan"}, "is_disabled": 0, "fusion_lat": 0.0, "name": "406ce6df872b4789c9b7d254c77ecf91", "fusion_lon": 0.0}, {"is_reserved": 0, "type": "electric_scooter", "bike_id": "f6ef770f1b007fc6fe88dd799c4d1d58", "lat": 38.9304085, "lon": -77.0553945, "rental_uris": {"android": "https://dc.lft.to/lastmile_qr_scan", "ios": "https://dc.lft.to/lastmile_qr_scan"}, "is_disabled": 0, "fusion_lat": 0.0, "name": "f6ef770f1b007fc6fe88dd799c4d1d58", "fusion_lon": 0.0}, {"is_reserved": 0, "type": "electric_scooter", "bike_id": "62c693ea99ee44236114887525663624", "lat": 38.909078, "lon": -76.99621533333334, "rental_uris": {"android": "https://dc.lft.to/lastmile_qr_scan", "ios": "https://dc.lft.to/lastmile_qr_scan"}, "is_disabled": 0, "fusion_lat": 0.0, "name": "62c693ea99ee44236114887525663624", "fusion_lon": 0.0}, {"is_reserved": 0, "type": "electric_scooter", "bike_id": "8a5dec5470163c6fbd525ec00d507470", "lat": 38.902458333333335, "lon": -77.03479133333333, "rental_uris": {"android": "https://dc.lft.to/lastmile_qr_scan", "ios": "https://dc.lft.to/lastmile_qr_scan"}, "is_disabled": 0, "fusion_lat": 0.0, "name": "8a5dec5470163c6fbd525ec00d507470", "fusion_lon": 0.0}, {"is_reserved": 0, "type": "electric_scooter", "bike_id": "6e0b7104694eb094158e23f18faf79dc", "lat": 38.92107933333333, "lon": -77.04698083333334, "rental_uris": {"android": "https://dc.lft.to/lastmile_qr_scan", "ios": "https://dc.lft.to/lastmile_qr_scan"}, "is_disabled": 0, "fusion_lat": 0.0, "name": "6e0b7104694eb094158e23f18faf79dc", "fusion_lon": 0.0}, {"is_reserved": 0, "type": "electric_scooter", "bike_id": "cd78a30756e05c2d3b3c55b71a47c294", "lat": 38.94327066666666, "lon": -77.01261433333333, "rental_uris": {"android": "https://dc.lft.to/lastmile_qr_scan", "ios": "https://dc.lft.to/lastmile_qr_scan"}, "is_disabled": 0, "fusion_lat": 0.0, "name": "cd78a30756e05c2d3b3c55b71a47c294", "fusion_lon": 0.0}, {"is_reserved": 0, "type": "electric_scooter", "bike_id": "6a09f56349243fbf9969ac70a2c15dc5", "lat": 38.8953615, "lon": -76.9789275, "rental_uris": {"android": "https://dc.lft.to/lastmile_qr_scan", "ios": "https://dc.lft.to/lastmile_qr_scan"}, "is_disabled": 0, "fusion_lat": 0.0, "name": "6a09f56349243fbf9969ac70a2c15dc5", "fusion_lon": 0.0}, {"is_reserved": 0, "type": "electric_scooter", "bike_id": "c0c53a6fae84a308ef2672db0eefb565", "lat": 38.896837166666664, "lon": -76.9353695, "rental_uris": {"android": "https://dc.lft.to/lastmile_qr_scan", "ios": "https://dc.lft.to/lastmile_qr_scan"}, "is_disabled": 0, "fusion_lat": 0.0, "name": "c0c53a6fae84a308ef2672db0eefb565", "fusion_lon": 0.0}, {"is_reserved": 0, "type": "electric_scooter", "bike_id": "39f0bdfe2649c0f27ebb904805eae107", "lat": 38.896153166666664, "lon": -76.976848, "rental_uris": {"android": "https://dc.lft.to/lastmile_qr_scan", "ios": "https://dc.lft.to/lastmile_qr_scan"}, "is_disabled": 0, "fusion_lat": 0.0, "name": "39f0bdfe2649c0f27ebb904805eae107", "fusion_lon": 0.0}, {"is_reserved": 0, "type": "electric_scooter", "bike_id": "fb8525bd69fb82391998eea7e894d2d9", "lat": 38.918488333333336, "lon": -77.02421183333334, "rental_uris": {"android": "https://dc.lft.to/lastmile_qr_scan", "ios": "https://dc.lft.to/lastmile_qr_scan"}, "is_disabled": 0, "fusion_lat": 0.0, "name": "fb8525bd69fb82391998eea7e894d2d9", "fusion_lon": 0.0}, {"is_reserved": 0, "type": "electric_scooter", "bike_id": "110274ce897cf939d1cc036b1cde0be2", "lat": 38.887211, "lon": -77.01983466666667, "rental_uris": {"android": "https://dc.lft.to/lastmile_qr_scan", "ios": "https://dc.lft.to/lastmile_qr_scan"}, "is_disabled": 0, "fusion_lat": 0.0, "name": "110274ce897cf939d1cc036b1cde0be2", "fusion_lon": 0.0}, {"is_reserved": 0, "type": "electric_scooter", "bike_id": "1c1b35816e3ff8ae8865fbc7a0bf29b1", "lat": 38.892726833333334, "lon": -76.9299845, "rental_uris": {"android": "https://dc.lft.to/lastmile_qr_scan", "ios": "https://dc.lft.to/lastmile_qr_scan"}, "is_disabled": 0, "fusion_lat": 0.0, "name": "1c1b35816e3ff8ae8865fbc7a0bf29b1", "fusion_lon": 0.0}, {"is_reserved": 0, "type": "electric_scooter", "bike_id": "8e546797848beeab7112d1b3daf7f3fa", "lat": 38.90310233333334, "lon": -77.05313616666666, "rental_uris": {"android": "https://dc.lft.to/lastmile_qr_scan", "ios": "https://dc.lft.to/lastmile_qr_scan"}, "is_disabled": 0, "fusion_lat": 0.0, "name": "8e546797848beeab7112d1b3daf7f3fa", "fusion_lon": 0.0}, {"is_reserved": 0, "type": "electric_scooter", "bike_id": "6e5a885be41ed290b500ce7c2ed7914c", "lat": 38.91333366666667, "lon": -77.02447233333334, "rental_uris": {"android": "https://dc.lft.to/lastmile_qr_scan", "ios": "https://dc.lft.to/lastmile_qr_scan"}, "is_disabled": 0, "fusion_lat": 0.0, "name": "6e5a885be41ed290b500ce7c2ed7914c", "fusion_lon": 0.0}, {"is_reserved": 0, "type": "electric_scooter", "bike_id": "e781505d37f098569095c2caa1274765", "lat": 38.9211235, "lon": -77.01793433333333, "rental_uris": {"android": "https://dc.lft.to/lastmile_qr_scan", "ios": "https://dc.lft.to/lastmile_qr_scan"}, "is_disabled": 0, "fusion_lat": 0.0, "name": "e781505d37f098569095c2caa1274765", "fusion_lon": 0.0}, {"is_reserved": 0, "type": "electric_scooter", "bike_id": "8ba2c273841304052994158226f0c3ef", "lat": 38.89649216666667, "lon": -76.9903515, "rental_uris": {"android": "https://dc.lft.to/lastmile_qr_scan", "ios": "https://dc.lft.to/lastmile_qr_scan"}, "is_disabled": 0, "fusion_lat": 0.0, "name": "8ba2c273841304052994158226f0c3ef", "fusion_lon": 0.0}, {"is_reserved": 0, "type": "electric_scooter", "bike_id": "0acd2be4125d6b07f5f79d28ded84a70", "lat": 38.8840165, "lon": -76.93034183333333, "rental_uris": {"android": "https://dc.lft.to/lastmile_qr_scan", "ios": "https://dc.lft.to/lastmile_qr_scan"}, "is_disabled": 0, "fusion_lat": 0.0, "name": "0acd2be4125d6b07f5f79d28ded84a70", "fusion_lon": 0.0}, {"is_reserved": 0, "type": "electric_scooter", "bike_id": "c99852aa29ce2bc0fd1b1b9935ad8efb", "lat": 38.897464666666664, "lon": -77.030385, "rental_uris": {"android": "https://dc.lft.to/lastmile_qr_scan", "ios": "https://dc.lft.to/lastmile_qr_scan"}, "is_disabled": 0, "fusion_lat": 0.0, "name": "c99852aa29ce2bc0fd1b1b9935ad8efb", "fusion_lon": 0.0}, {"is_reserved": 0, "type": "electric_scooter", "bike_id": "d0199787c8af6784ebe968c7af857e9a", "lat": 38.90088766666667, "lon": -77.05736316666666, "rental_uris": {"android": "https://dc.lft.to/lastmile_qr_scan", "ios": "https://dc.lft.to/lastmile_qr_scan"}, "is_disabled": 0, "fusion_lat": 0.0, "name": "d0199787c8af6784ebe968c7af857e9a", "fusion_lon": 0.0}, {"is_reserved": 0, "type": "electric_scooter", "bike_id": "4cd790134b4ed8b33c3fd8b4f701c71b", "lat": 38.929719666666664, "lon": -77.03938783333334, "rental_uris": {"android": "https://dc.lft.to/lastmile_qr_scan", "ios": "https://dc.lft.to/lastmile_qr_scan"}, "is_disabled": 0, "fusion_lat": 0.0, "name": "4cd790134b4ed8b33c3fd8b4f701c71b", "fusion_lon": 0.0}, {"is_reserved": 0, "type": "electric_scooter", "bike_id": "33c300437a9f6d880a3b89be8ab1e16e", "lat": 38.908842166666666, "lon": -76.99121433333333, "rental_uris": {"android": "https://dc.lft.to/lastmile_qr_scan", "ios": "https://dc.lft.to/lastmile_qr_scan"}, "is_disabled": 0, "fusion_lat": 0.0, "name": "33c300437a9f6d880a3b89be8ab1e16e", "fusion_lon": 0.0}, {"is_reserved": 0, "type": "electric_scooter", "bike_id": "f1078f0a58c46c08e338f4f72c0f2e5c", "lat": 38.93763116666667, "lon": -77.03158133333334, "rental_uris": {"android": "https://dc.lft.to/lastmile_qr_scan", "ios": "https://dc.lft.to/lastmile_qr_scan"}, "is_disabled": 0, "fusion_lat": 0.0, "name": "f1078f0a58c46c08e338f4f72c0f2e5c", "fusion_lon": 0.0}, {"is_reserved": 0, "type": "electric_scooter", "bike_id": "cbc33956406ac9d0979f6228cb58e30d", "lat": 38.892387, "lon": -77.04485616666666, "rental_uris": {"android": "https://dc.lft.to/lastmile_qr_scan", "ios": "https://dc.lft.to/lastmile_qr_scan"}, "is_disabled": 0, "fusion_lat": 0.0, "name": "cbc33956406ac9d0979f6228cb58e30d", "fusion_lon": 0.0}, {"is_reserved": 0, "type": "electric_scooter", "bike_id": "414963a72b42bd08f6a9252fd6037822", "lat": 38.8963615, "lon": -77.026036, "rental_uris": {"android": "https://dc.lft.to/lastmile_qr_scan", "ios": "https://dc.lft.to/lastmile_qr_scan"}, "is_disabled": 0, "fusion_lat": 0.0, "name": "414963a72b42bd08f6a9252fd6037822", "fusion_lon": 0.0}, {"is_reserved": 0, "type": "electric_scooter", "bike_id": "fb2d3c6a0221c8f42fa31b99f76dcce1", "lat": 38.92096816666667, "lon": -77.01783533333334, "rental_uris": {"android": "https://dc.lft.to/lastmile_qr_scan", "ios": "https://dc.lft.to/lastmile_qr_scan"}, "is_disabled": 0, "fusion_lat": 0.0, "name": "fb2d3c6a0221c8f42fa31b99f76dcce1", "fusion_lon": 0.0}, {"is_reserved": 0, "type": "electric_scooter", "bike_id": "c45cf59cd69c87ad2bb55b515677268a", "lat": 38.940279833333335, "lon": -77.02641633333333, "rental_uris": {"android": "https://dc.lft.to/lastmile_qr_scan", "ios": "https://dc.lft.to/lastmile_qr_scan"}, "is_disabled": 0, "fusion_lat": 0.0, "name": "c45cf59cd69c87ad2bb55b515677268a", "fusion_lon": 0.0}, {"is_reserved": 0, "type": "electric_scooter", "bike_id": "7aaf443be6f43404f01ed3f4fa72a9ff", "lat": 38.903491, "lon": -77.01094066666667, "rental_uris": {"android": "https://dc.lft.to/lastmile_qr_scan", "ios": "https://dc.lft.to/lastmile_qr_scan"}, "is_disabled": 0, "fusion_lat": 0.0, "name": "7aaf443be6f43404f01ed3f4fa72a9ff", "fusion_lon": 0.0}, {"is_reserved": 0, "type": "electric_scooter", "bike_id": "9bdbc93c5f17fb43695a2f4b0882a461", "lat": 38.9071115, "lon": -77.04550583333334, "rental_uris": {"android": "https://dc.lft.to/lastmile_qr_scan", "ios": "https://dc.lft.to/lastmile_qr_scan"}, "is_disabled": 0, "fusion_lat": 0.0, "name": "9bdbc93c5f17fb43695a2f4b0882a461", "fusion_lon": 0.0}, {"is_reserved": 0, "type": "electric_bike", "bike_id": "67e77f3a3f484f0f7da44b66abaa04ba", "lat": 38.9320545, "lon": -77.02339466666666, "rental_uris": {"android": "https://dc.lft.to/lastmile_qr_scan", "ios": "https://dc.lft.to/lastmile_qr_scan"}, "is_disabled": 0, "fusion_lat": 0.0, "name": "67e77f3a3f484f0f7da44b66abaa04ba", "fusion_lon": 0.0}, {"is_reserved": 0, "type": "electric_scooter", "bike_id": "8af65e90df194eb5530dd336ce29435e", "lat": 38.882129666666664, "lon": -77.00612316666667, "rental_uris": {"android": "https://dc.lft.to/lastmile_qr_scan", "ios": "https://dc.lft.to/lastmile_qr_scan"}, "is_disabled": 0, "fusion_lat": 0.0, "name": "8af65e90df194eb5530dd336ce29435e", "fusion_lon": 0.0}, {"is_reserved": 0, "type": "electric_bike", "bike_id": "f6da4ae2521da99ace1e60791ee2d022", "lat": 38.8956695, "lon": -77.12737116666666, "rental_uris": {"android": "https://dc.lft.to/lastmile_qr_scan", "ios": "https://dc.lft.to/lastmile_qr_scan"}, "is_disabled": 0, "fusion_lat": 0.0, "name": "f6da4ae2521da99ace1e60791ee2d022", "fusion_lon": 0.0}, {"is_reserved": 0, "type": "electric_scooter", "bike_id": "1ae0346b127f9a324e1ef5b335fd36b3", "lat": 38.900587, "lon": -76.986595, "rental_uris": {"android": "https://dc.lft.to/lastmile_qr_scan", "ios": "https://dc.lft.to/lastmile_qr_scan"}, "is_disabled": 0, "fusion_lat": 0.0, "name": "1ae0346b127f9a324e1ef5b335fd36b3", "fusion_lon": 0.0}, {"is_reserved": 0, "type": "electric_scooter", "bike_id": "3cd0be5e12757a87145decf3a13057b9", "lat": 38.872097833333335, "lon": -77.013526, "rental_uris": {"android": "https://dc.lft.to/lastmile_qr_scan", "ios": "https://dc.lft.to/lastmile_qr_scan"}, "is_disabled": 0, "fusion_lat": 0.0, "name": "3cd0be5e12757a87145decf3a13057b9", "fusion_lon": 0.0}, {"is_reserved": 0, "type": "electric_scooter", "bike_id": "c0fc4849ef1325a48c0e2f4e5e4f030e", "lat": 38.91557866666667, "lon": -77.03835783333334, "rental_uris": {"android": "https://dc.lft.to/lastmile_qr_scan", "ios": "https://dc.lft.to/lastmile_qr_scan"}, "is_disabled": 0, "fusion_lat": 0.0, "name": "c0fc4849ef1325a48c0e2f4e5e4f030e", "fusion_lon": 0.0}, {"is_reserved": 0, "type": "electric_scooter", "bike_id": "2c2981585eaf1648344abaf083933b8f", "lat": 38.899522166666664, "lon": -76.979074, "rental_uris": {"android": "https://dc.lft.to/lastmile_qr_scan", "ios": "https://dc.lft.to/lastmile_qr_scan"}, "is_disabled": 0, "fusion_lat": 0.0, "name": "2c2981585eaf1648344abaf083933b8f", "fusion_lon": 0.0}, {"is_reserved": 0, "type": "electric_scooter", "bike_id": "de1f9d813a80de39c7321c40f048a80f", "lat": 38.90508583333333, "lon": -77.02952033333334, "rental_uris": {"android": "https://dc.lft.to/lastmile_qr_scan", "ios": "https://dc.lft.to/lastmile_qr_scan"}, "is_disabled": 0, "fusion_lat": 0.0, "name": "de1f9d813a80de39c7321c40f048a80f", "fusion_lon": 0.0}, {"is_reserved": 0, "type": "electric_scooter", "bike_id": "26b2ebc148133772f679f6f9b9bb1c36", "lat": 38.90929583333333, "lon": -76.99634066666667, "rental_uris": {"android": "https://dc.lft.to/lastmile_qr_scan", "ios": "https://dc.lft.to/lastmile_qr_scan"}, "is_disabled": 0, "fusion_lat": 0.0, "name": "26b2ebc148133772f679f6f9b9bb1c36", "fusion_lon": 0.0}, {"is_reserved": 0, "type": "electric_scooter", "bike_id": "9fb604e21fc755f9c076b5dc308962e0", "lat": 38.935238166666664, "lon": -77.01942316666667, "rental_uris": {"android": "https://dc.lft.to/lastmile_qr_scan", "ios": "https://dc.lft.to/lastmile_qr_scan"}, "is_disabled": 0, "fusion_lat": 0.0, "name": "9fb604e21fc755f9c076b5dc308962e0", "fusion_lon": 0.0}, {"is_reserved": 0, "type": "electric_scooter", "bike_id": "8652f3af2ff7d28992be933d3d50f1e0", "lat": 38.905462, "lon": -77.05696116666667, "rental_uris": {"android": "https://dc.lft.to/lastmile_qr_scan", "ios": "https://dc.lft.to/lastmile_qr_scan"}, "is_disabled": 0, "fusion_lat": 0.0, "name": "8652f3af2ff7d28992be933d3d50f1e0", "fusion_lon": 0.0}, {"is_reserved": 0, "type": "electric_scooter", "bike_id": "f1e6ee403562ea6495f0f8a974f2409c", "lat": 38.90648616666667, "lon": -76.9837195, "rental_uris": {"android": "https://dc.lft.to/lastmile_qr_scan", "ios": "https://dc.lft.to/lastmile_qr_scan"}, "is_disabled": 0, "fusion_lat": 0.0, "name": "f1e6ee403562ea6495f0f8a974f2409c", "fusion_lon": 0.0}, {"is_reserved": 0, "type": "electric_scooter", "bike_id": "2f8e9323587e0c634c143042c8a90a69", "lat": 38.885475666666665, "lon": -76.9904325, "rental_uris": {"android": "https://dc.lft.to/lastmile_qr_scan", "ios": "https://dc.lft.to/lastmile_qr_scan"}, "is_disabled": 0, "fusion_lat": 0.0, "name": "2f8e9323587e0c634c143042c8a90a69", "fusion_lon": 0.0}, {"is_reserved": 0, "type": "electric_scooter", "bike_id": "18c52db75d03f338c8e7163eb1053043", "lat": 38.916252666666665, "lon": -77.03908866666667, "rental_uris": {"android": "https://dc.lft.to/lastmile_qr_scan", "ios": "https://dc.lft.to/lastmile_qr_scan"}, "is_disabled": 0, "fusion_lat": 0.0, "name": "18c52db75d03f338c8e7163eb1053043", "fusion_lon": 0.0}, {"is_reserved": 0, "type": "electric_bike", "bike_id": "613f18b86ebb14e27306ca14b6250213", "lat": 38.83811083333333, "lon": -77.0952515, "rental_uris": {"android": "https://dc.lft.to/lastmile_qr_scan", "ios": "https://dc.lft.to/lastmile_qr_scan"}, "is_disabled": 0, "fusion_lat": 0.0, "name": "613f18b86ebb14e27306ca14b6250213", "fusion_lon": 0.0}, {"is_reserved": 0, "type": "electric_scooter", "bike_id": "2b87af88c67889672d71a7ca039ab104", "lat": 38.876207666666666, "lon": -77.01251283333333, "rental_uris": {"android": "https://dc.lft.to/lastmile_qr_scan", "ios": "https://dc.lft.to/lastmile_qr_scan"}, "is_disabled": 0, "fusion_lat": 0.0, "name": "2b87af88c67889672d71a7ca039ab104", "fusion_lon": 0.0}, {"is_reserved": 0, "type": "electric_scooter", "bike_id": "6f9e0f76e9a0375a7fcfb939093fd01f", "lat": 38.93501716666667, "lon": -77.02004566666666, "rental_uris": {"android": "https://dc.lft.to/lastmile_qr_scan", "ios": "https://dc.lft.to/lastmile_qr_scan"}, "is_disabled": 0, "fusion_lat": 0.0, "name": "6f9e0f76e9a0375a7fcfb939093fd01f", "fusion_lon": 0.0}, {"is_reserved": 0, "type": "electric_scooter", "bike_id": "29afdba1ff7b22a0977e58ba6e60b720", "lat": 38.91166166666667, "lon": -77.01101633333333, "rental_uris": {"android": "https://dc.lft.to/lastmile_qr_scan", "ios": "https://dc.lft.to/lastmile_qr_scan"}, "is_disabled": 0, "fusion_lat": 0.0, "name": "29afdba1ff7b22a0977e58ba6e60b720", "fusion_lon": 0.0}, {"is_reserved": 0, "type": "electric_scooter", "bike_id": "d0f9e282edb35a173e216d6831d18044", "lat": 38.91480383333333, "lon": -77.018198, "rental_uris": {"android": "https://dc.lft.to/lastmile_qr_scan", "ios": "https://dc.lft.to/lastmile_qr_scan"}, "is_disabled": 0, "fusion_lat": 0.0, "name": "d0f9e282edb35a173e216d6831d18044", "fusion_lon": 0.0}, {"is_reserved": 0, "type": "electric_scooter", "bike_id": "d1ba03e5c2e1cbde9e31bf4307262f5b", "lat": 38.90139466666667, "lon": -77.032135, "rental_uris": {"android": "https://dc.lft.to/lastmile_qr_scan", "ios": "https://dc.lft.to/lastmile_qr_scan"}, "is_disabled": 0, "fusion_lat": 0.0, "name": "d1ba03e5c2e1cbde9e31bf4307262f5b", "fusion_lon": 0.0}, {"is_reserved": 0, "type": "electric_scooter", "bike_id": "2cebe68b44811157a8c3be449673938e", "lat": 38.940748166666665, "lon": -77.02910383333334, "rental_uris": {"android": "https://dc.lft.to/lastmile_qr_scan", "ios": "https://dc.lft.to/lastmile_qr_scan"}, "is_disabled": 0, "fusion_lat": 0.0, "name": "2cebe68b44811157a8c3be449673938e", "fusion_lon": 0.0}, {"is_reserved": 0, "type": "electric_bike", "bike_id": "1de2b6976ad3ac4dc7eb616bc58abee4", "lat": 38.84566133333333, "lon": -76.97060066666667, "rental_uris": {"android": "https://dc.lft.to/lastmile_qr_scan", "ios": "https://dc.lft.to/lastmile_qr_scan"}, "is_disabled": 0, "fusion_lat": 0.0, "name": "1de2b6976ad3ac4dc7eb616bc58abee4", "fusion_lon": 0.0}, {"is_reserved": 0, "type": "electric_scooter", "bike_id": "905cc6e8c25f71e7f6c9745fa365ea19", "lat": 38.92583583333333, "lon": -77.02936833333334, "rental_uris": {"android": "https://dc.lft.to/lastmile_qr_scan", "ios": "https://dc.lft.to/lastmile_qr_scan"}, "is_disabled": 0, "fusion_lat": 0.0, "name": "905cc6e8c25f71e7f6c9745fa365ea19", "fusion_lon": 0.0}, {"is_reserved": 0, "type": "electric_scooter", "bike_id": "1c02a73c464746c7b7b22868f31592fd", "lat": 38.8974335, "lon": -77.02695783333333, "rental_uris": {"android": "https://dc.lft.to/lastmile_qr_scan", "ios": "https://dc.lft.to/lastmile_qr_scan"}, "is_disabled": 0, "fusion_lat": 0.0, "name": "1c02a73c464746c7b7b22868f31592fd", "fusion_lon": 0.0}, {"is_reserved": 0, "type": "electric_scooter", "bike_id": "0e70ffd6ce1e53cbaddca816ad2f3dad", "lat": 38.89730683333333, "lon": -77.02165816666667, "rental_uris": {"android": "https://dc.lft.to/lastmile_qr_scan", "ios": "https://dc.lft.to/lastmile_qr_scan"}, "is_disabled": 0, "fusion_lat": 0.0, "name": "0e70ffd6ce1e53cbaddca816ad2f3dad", "fusion_lon": 0.0}, {"is_reserved": 0, "type": "electric_scooter", "bike_id": "1e7312adefa601e787bf991cbca533a1", "lat": 38.91413, "lon": -77.02729816666667, "rental_uris": {"android": "https://dc.lft.to/lastmile_qr_scan", "ios": "https://dc.lft.to/lastmile_qr_scan"}, "is_disabled": 0, "fusion_lat": 0.0, "name": "1e7312adefa601e787bf991cbca533a1", "fusion_lon": 0.0}, {"is_reserved": 0, "type": "electric_scooter", "bike_id": "511e813cd317212776cb9d2de6a42a28", "lat": 38.8999025, "lon": -77.02207583333333, "rental_uris": {"android": "https://dc.lft.to/lastmile_qr_scan", "ios": "https://dc.lft.to/lastmile_qr_scan"}, "is_disabled": 0, "fusion_lat": 0.0, "name": "511e813cd317212776cb9d2de6a42a28", "fusion_lon": 0.0}, {"is_reserved": 0, "type": "electric_scooter", "bike_id": "cd2c18f47faa3c2990d5116686c0e308", "lat": 38.9509145, "lon": -77.02535216666666, "rental_uris": {"android": "https://dc.lft.to/lastmile_qr_scan", "ios": "https://dc.lft.to/lastmile_qr_scan"}, "is_disabled": 0, "fusion_lat": 0.0, "name": "cd2c18f47faa3c2990d5116686c0e308", "fusion_lon": 0.0}, {"is_reserved": 0, "type": "electric_scooter", "bike_id": "4e3ded23443b5a34835b9226164b38da", "lat": 38.930239666666665, "lon": -77.03783866666667, "rental_uris": {"android": "https://dc.lft.to/lastmile_qr_scan", "ios": "https://dc.lft.to/lastmile_qr_scan"}, "is_disabled": 0, "fusion_lat": 0.0, "name": "4e3ded23443b5a34835b9226164b38da", "fusion_lon": 0.0}, {"is_reserved": 0, "type": "electric_scooter", "bike_id": "5c6d0d5498ba82261e3ac6793c776a9c", "lat": 38.93465, "lon": -77.0277355, "rental_uris": {"android": "https://dc.lft.to/lastmile_qr_scan", "ios": "https://dc.lft.to/lastmile_qr_scan"}, "is_disabled": 0, "fusion_lat": 0.0, "name": "5c6d0d5498ba82261e3ac6793c776a9c", "fusion_lon": 0.0}, {"is_reserved": 0, "type": "electric_scooter", "bike_id": "a2089d0f33537853792a84efd03e270a", "lat": 38.9156725, "lon": -77.02969266666666, "rental_uris": {"android": "https://dc.lft.to/lastmile_qr_scan", "ios": "https://dc.lft.to/lastmile_qr_scan"}, "is_disabled": 0, "fusion_lat": 0.0, "name": "a2089d0f33537853792a84efd03e270a", "fusion_lon": 0.0}, {"is_reserved": 0, "type": "electric_scooter", "bike_id": "80962bf2c99119b15f4f3b106b05b90c", "lat": 38.925834, "lon": -77.04098883333333, "rental_uris": {"android": "https://dc.lft.to/lastmile_qr_scan", "ios": "https://dc.lft.to/lastmile_qr_scan"}, "is_disabled": 0, "fusion_lat": 0.0, "name": "80962bf2c99119b15f4f3b106b05b90c", "fusion_lon": 0.0}, {"is_reserved": 0, "type": "electric_scooter", "bike_id": "7a7cf26d4e1aca956deef29630a8d060", "lat": 38.898896666666666, "lon": -77.0162325, "rental_uris": {"android": "https://dc.lft.to/lastmile_qr_scan", "ios": "https://dc.lft.to/lastmile_qr_scan"}, "is_disabled": 0, "fusion_lat": 0.0, "name": "7a7cf26d4e1aca956deef29630a8d060", "fusion_lon": 0.0}, {"is_reserved": 0, "type": "electric_scooter", "bike_id": "50e0433850eae736edf10db7f1a508b9", "lat": 38.9189305, "lon": -77.03499216666667, "rental_uris": {"android": "https://dc.lft.to/lastmile_qr_scan", "ios": "https://dc.lft.to/lastmile_qr_scan"}, "is_disabled": 0, "fusion_lat": 0.0, "name": "50e0433850eae736edf10db7f1a508b9", "fusion_lon": 0.0}, {"is_reserved": 0, "type": "electric_scooter", "bike_id": "08981beba850845e29f6de6b72623482", "lat": 38.91126383333334, "lon": -77.02091883333334, "rental_uris": {"android": "https://dc.lft.to/lastmile_qr_scan", "ios": "https://dc.lft.to/lastmile_qr_scan"}, "is_disabled": 0, "fusion_lat": 0.0, "name": "08981beba850845e29f6de6b72623482", "fusion_lon": 0.0}, {"is_reserved": 0, "type": "electric_scooter", "bike_id": "3c8d965bd575b38c0b4a47c43d1754d4", "lat": 38.934778, "lon": -77.05650066666666, "rental_uris": {"android": "https://dc.lft.to/lastmile_qr_scan", "ios": "https://dc.lft.to/lastmile_qr_scan"}, "is_disabled": 0, "fusion_lat": 0.0, "name": "3c8d965bd575b38c0b4a47c43d1754d4", "fusion_lon": 0.0}, {"is_reserved": 0, "type": "electric_scooter", "bike_id": "da40401df4ff492349b17773fc78c833", "lat": 38.898982, "lon": -77.00335116666666, "rental_uris": {"android": "https://dc.lft.to/lastmile_qr_scan", "ios": "https://dc.lft.to/lastmile_qr_scan"}, "is_disabled": 0, "fusion_lat": 0.0, "name": "da40401df4ff492349b17773fc78c833", "fusion_lon": 0.0}, {"is_reserved": 0, "type": "electric_scooter", "bike_id": "c2d44e604398800d956b456363857a68", "lat": 38.92637716666667, "lon": -77.0531695, "rental_uris": {"android": "https://dc.lft.to/lastmile_qr_scan", "ios": "https://dc.lft.to/lastmile_qr_scan"}, "is_disabled": 0, "fusion_lat": 0.0, "name": "c2d44e604398800d956b456363857a68", "fusion_lon": 0.0}, {"is_reserved": 0, "type": "electric_scooter", "bike_id": "8b230470ffcee7e1e0fc71bf9661fee9", "lat": 38.934107166666664, "lon": -77.02041016666666, "rental_uris": {"android": "https://dc.lft.to/lastmile_qr_scan", "ios": "https://dc.lft.to/lastmile_qr_scan"}, "is_disabled": 0, "fusion_lat": 0.0, "name": "8b230470ffcee7e1e0fc71bf9661fee9", "fusion_lon": 0.0}, {"is_reserved": 0, "type": "electric_scooter", "bike_id": "dec1d4ccf01ea50b3b82dc793c3e9886", "lat": 38.908402833333334, "lon": -77.00274683333333, "rental_uris": {"android": "https://dc.lft.to/lastmile_qr_scan", "ios": "https://dc.lft.to/lastmile_qr_scan"}, "is_disabled": 0, "fusion_lat": 0.0, "name": "dec1d4ccf01ea50b3b82dc793c3e9886", "fusion_lon": 0.0}, {"is_reserved": 0, "type": "electric_scooter", "bike_id": "80d4b49f81c8a4f5de1a5d7ebe2fee2c", "lat": 38.893628, "lon": -77.0298525, "rental_uris": {"android": "https://dc.lft.to/lastmile_qr_scan", "ios": "https://dc.lft.to/lastmile_qr_scan"}, "is_disabled": 0, "fusion_lat": 0.0, "name": "80d4b49f81c8a4f5de1a5d7ebe2fee2c", "fusion_lon": 0.0}, {"is_reserved": 0, "type": "electric_scooter", "bike_id": "6f2f0012eb72964f684eb6ac02f6079a", "lat": 38.9209485, "lon": -77.07181916666667, "rental_uris": {"android": "https://dc.lft.to/lastmile_qr_scan", "ios": "https://dc.lft.to/lastmile_qr_scan"}, "is_disabled": 0, "fusion_lat": 0.0, "name": "6f2f0012eb72964f684eb6ac02f6079a", "fusion_lon": 0.0}, {"is_reserved": 0, "type": "electric_scooter", "bike_id": "1c6d5b88d71fcee86a61199d23ee3285", "lat": 38.877601166666665, "lon": -76.9953855, "rental_uris": {"android": "https://dc.lft.to/lastmile_qr_scan", "ios": "https://dc.lft.to/lastmile_qr_scan"}, "is_disabled": 0, "fusion_lat": 0.0, "name": "1c6d5b88d71fcee86a61199d23ee3285", "fusion_lon": 0.0}, {"is_reserved": 0, "type": "electric_scooter", "bike_id": "c49d7b0a3b34269542b9e645f4953aa5", "lat": 38.91606016666667, "lon": -77.00275183333333, "rental_uris": {"android": "https://dc.lft.to/lastmile_qr_scan", "ios": "https://dc.lft.to/lastmile_qr_scan"}, "is_disabled": 0, "fusion_lat": 0.0, "name": "c49d7b0a3b34269542b9e645f4953aa5", "fusion_lon": 0.0}, {"is_reserved": 0, "type": "electric_scooter", "bike_id": "69e016ee6be7aaf1db2f78d0c80cdeeb", "lat": 38.952945, "lon": -77.06849833333334, "rental_uris": {"android": "https://dc.lft.to/lastmile_qr_scan", "ios": "https://dc.lft.to/lastmile_qr_scan"}, "is_disabled": 0, "fusion_lat": 0.0, "name": "69e016ee6be7aaf1db2f78d0c80cdeeb", "fusion_lon": 0.0}, {"is_reserved": 0, "type": "electric_scooter", "bike_id": "5ebc1fd6aaf5c3438bffd0b50824f8f0", "lat": 38.910323, "lon": -77.03094783333333, "rental_uris": {"android": "https://dc.lft.to/lastmile_qr_scan", "ios": "https://dc.lft.to/lastmile_qr_scan"}, "is_disabled": 0, "fusion_lat": 0.0, "name": "5ebc1fd6aaf5c3438bffd0b50824f8f0", "fusion_lon": 0.0}, {"is_reserved": 0, "type": "electric_scooter", "bike_id": "9143324a07600378b88dae0db07b431d", "lat": 38.91969866666667, "lon": -77.02715333333333, "rental_uris": {"android": "https://dc.lft.to/lastmile_qr_scan", "ios": "https://dc.lft.to/lastmile_qr_scan"}, "is_disabled": 0, "fusion_lat": 0.0, "name": "9143324a07600378b88dae0db07b431d", "fusion_lon": 0.0}, {"is_reserved": 0, "type": "electric_scooter", "bike_id": "37bc284ce10362acd8e9331a18144ec8", "lat": 38.924505833333335, "lon": -77.00852716666667, "rental_uris": {"android": "https://dc.lft.to/lastmile_qr_scan", "ios": "https://dc.lft.to/lastmile_qr_scan"}, "is_disabled": 0, "fusion_lat": 0.0, "name": "37bc284ce10362acd8e9331a18144ec8", "fusion_lon": 0.0}, {"is_reserved": 0, "type": "electric_scooter", "bike_id": "6461153bbde0196b83097152e7edf112", "lat": 38.90589283333333, "lon": -77.06420666666666, "rental_uris": {"android": "https://dc.lft.to/lastmile_qr_scan", "ios": "https://dc.lft.to/lastmile_qr_scan"}, "is_disabled": 0, "fusion_lat": 0.0, "name": "6461153bbde0196b83097152e7edf112", "fusion_lon": 0.0}, {"is_reserved": 0, "type": "electric_bike", "bike_id": "23f0dc5541abee38cc7259119cd75735", "lat": 38.93958633333333, "lon": -77.0275045, "rental_uris": {"android": "https://dc.lft.to/lastmile_qr_scan", "ios": "https://dc.lft.to/lastmile_qr_scan"}, "is_disabled": 0, "fusion_lat": 0.0, "name": "23f0dc5541abee38cc7259119cd75735", "fusion_lon": 0.0}, {"is_reserved": 0, "type": "electric_scooter", "bike_id": "9bdea87a2f6b4c4e098b0ff5edab580d", "lat": 38.90007116666666, "lon": -77.011951, "rental_uris": {"android": "https://dc.lft.to/lastmile_qr_scan", "ios": "https://dc.lft.to/lastmile_qr_scan"}, "is_disabled": 0, "fusion_lat": 0.0, "name": "9bdea87a2f6b4c4e098b0ff5edab580d", "fusion_lon": 0.0}, {"is_reserved": 0, "type": "electric_scooter", "bike_id": "3d6766fc329d9a48d96b8c81333bc11b", "lat": 38.882045, "lon": -77.00602483333333, "rental_uris": {"android": "https://dc.lft.to/lastmile_qr_scan", "ios": "https://dc.lft.to/lastmile_qr_scan"}, "is_disabled": 0, "fusion_lat": 0.0, "name": "3d6766fc329d9a48d96b8c81333bc11b", "fusion_lon": 0.0}, {"is_reserved": 0, "type": "electric_scooter", "bike_id": "d1cdb812d00df3b05279b8698b15b34d", "lat": 38.922836833333335, "lon": -77.03197816666666, "rental_uris": {"android": "https://dc.lft.to/lastmile_qr_scan", "ios": "https://dc.lft.to/lastmile_qr_scan"}, "is_disabled": 0, "fusion_lat": 0.0, "name": "d1cdb812d00df3b05279b8698b15b34d", "fusion_lon": 0.0}, {"is_reserved": 0, "type": "electric_scooter", "bike_id": "fb6e0b753400fadf30b11621a57a7ee2", "lat": 38.92100683333334, "lon": -77.039331, "rental_uris": {"android": "https://dc.lft.to/lastmile_qr_scan", "ios": "https://dc.lft.to/lastmile_qr_scan"}, "is_disabled": 0, "fusion_lat": 0.0, "name": "fb6e0b753400fadf30b11621a57a7ee2", "fusion_lon": 0.0}, {"is_reserved": 0, "type": "electric_scooter", "bike_id": "d36deba4c8e07367daa4b7361d13e1ee", "lat": 38.896435, "lon": -77.0331045, "rental_uris": {"android": "https://dc.lft.to/lastmile_qr_scan", "ios": "https://dc.lft.to/lastmile_qr_scan"}, "is_disabled": 0, "fusion_lat": 0.0, "name": "d36deba4c8e07367daa4b7361d13e1ee", "fusion_lon": 0.0}, {"is_reserved": 0, "type": "electric_scooter", "bike_id": "b44b141011090fab560b3cb986990ae1", "lat": 38.95959466666667, "lon": -77.07266066666666, "rental_uris": {"android": "https://dc.lft.to/lastmile_qr_scan", "ios": "https://dc.lft.to/lastmile_qr_scan"}, "is_disabled": 0, "fusion_lat": 0.0, "name": "b44b141011090fab560b3cb986990ae1", "fusion_lon": 0.0}, {"is_reserved": 0, "type": "electric_scooter", "bike_id": "6d4f3b1ca06ecdee0ed4c7ea49a528c0", "lat": 38.889191, "lon": -76.993779, "rental_uris": {"android": "https://dc.lft.to/lastmile_qr_scan", "ios": "https://dc.lft.to/lastmile_qr_scan"}, "is_disabled": 0, "fusion_lat": 0.0, "name": "6d4f3b1ca06ecdee0ed4c7ea49a528c0", "fusion_lon": 0.0}, {"is_reserved": 0, "type": "electric_scooter", "bike_id": "c57c80170c181dd9d2b0d11dfe087c01", "lat": 38.91745783333333, "lon": -77.0171345, "rental_uris": {"android": "https://dc.lft.to/lastmile_qr_scan", "ios": "https://dc.lft.to/lastmile_qr_scan"}, "is_disabled": 0, "fusion_lat": 0.0, "name": "c57c80170c181dd9d2b0d11dfe087c01", "fusion_lon": 0.0}, {"is_reserved": 0, "type": "electric_scooter", "bike_id": "449fa5f8fe6743e4bef753340ea82dac", "lat": 38.90272433333333, "lon": -77.036397, "rental_uris": {"android": "https://dc.lft.to/lastmile_qr_scan", "ios": "https://dc.lft.to/lastmile_qr_scan"}, "is_disabled": 0, "fusion_lat": 0.0, "name": "449fa5f8fe6743e4bef753340ea82dac", "fusion_lon": 0.0}, {"is_reserved": 0, "type": "electric_scooter", "bike_id": "f05cb1a4cdd2441ec5ba036546c783a1", "lat": 38.875002333333335, "lon": -77.00330016666666, "rental_uris": {"android": "https://dc.lft.to/lastmile_qr_scan", "ios": "https://dc.lft.to/lastmile_qr_scan"}, "is_disabled": 0, "fusion_lat": 0.0, "name": "f05cb1a4cdd2441ec5ba036546c783a1", "fusion_lon": 0.0}, {"is_reserved": 0, "type": "electric_scooter", "bike_id": "505312658cac36f84a919319d7c4f220", "lat": 38.92745083333333, "lon": -77.05363166666666, "rental_uris": {"android": "https://dc.lft.to/lastmile_qr_scan", "ios": "https://dc.lft.to/lastmile_qr_scan"}, "is_disabled": 0, "fusion_lat": 0.0, "name": "505312658cac36f84a919319d7c4f220", "fusion_lon": 0.0}, {"is_reserved": 0, "type": "electric_scooter", "bike_id": "7e81bd8b66637641bbfde3f1671fa71f", "lat": 38.918166, "lon": -77.03135516666667, "rental_uris": {"android": "https://dc.lft.to/lastmile_qr_scan", "ios": "https://dc.lft.to/lastmile_qr_scan"}, "is_disabled": 0, "fusion_lat": 0.0, "name": "7e81bd8b66637641bbfde3f1671fa71f", "fusion_lon": 0.0}, {"is_reserved": 0, "type": "electric_scooter", "bike_id": "fca776df7615021083d3a22f0d32be5c", "lat": 38.89605383333333, "lon": -77.03217016666666, "rental_uris": {"android": "https://dc.lft.to/lastmile_qr_scan", "ios": "https://dc.lft.to/lastmile_qr_scan"}, "is_disabled": 0, "fusion_lat": 0.0, "name": "fca776df7615021083d3a22f0d32be5c", "fusion_lon": 0.0}, {"is_reserved": 0, "type": "electric_scooter", "bike_id": "328cb66c100a50256691a2ba21e8fcc0", "lat": 38.88437316666667, "lon": -77.02474866666667, "rental_uris": {"android": "https://dc.lft.to/lastmile_qr_scan", "ios": "https://dc.lft.to/lastmile_qr_scan"}, "is_disabled": 0, "fusion_lat": 0.0, "name": "328cb66c100a50256691a2ba21e8fcc0", "fusion_lon": 0.0}, {"is_reserved": 0, "type": "electric_scooter", "bike_id": "2cd5f5e93976364fc3ae3958ef1b0572", "lat": 38.88625033333334, "lon": -77.02215683333333, "rental_uris": {"android": "https://dc.lft.to/lastmile_qr_scan", "ios": "https://dc.lft.to/lastmile_qr_scan"}, "is_disabled": 0, "fusion_lat": 0.0, "name": "2cd5f5e93976364fc3ae3958ef1b0572", "fusion_lon": 0.0}, {"is_reserved": 0, "type": "electric_bike", "bike_id": "ab85dbe7d16211df8b0226eb5b666cde", "lat": 38.863340666666666, "lon": -76.98719616666666, "rental_uris": {"android": "https://dc.lft.to/lastmile_qr_scan", "ios": "https://dc.lft.to/lastmile_qr_scan"}, "is_disabled": 0, "fusion_lat": 0.0, "name": "ab85dbe7d16211df8b0226eb5b666cde", "fusion_lon": 0.0}, {"is_reserved": 0, "type": "electric_scooter", "bike_id": "5e9a4e9d2921af57a4844f3b84a47999", "lat": 38.92518366666667, "lon": -77.05061583333334, "rental_uris": {"android": "https://dc.lft.to/lastmile_qr_scan", "ios": "https://dc.lft.to/lastmile_qr_scan"}, "is_disabled": 0, "fusion_lat": 0.0, "name": "5e9a4e9d2921af57a4844f3b84a47999", "fusion_lon": 0.0}, {"is_reserved": 0, "type": "electric_scooter", "bike_id": "e11699dd34c4a965e57899089dea8170", "lat": 38.918289333333334, "lon": -77.0317675, "rental_uris": {"android": "https://dc.lft.to/lastmile_qr_scan", "ios": "https://dc.lft.to/lastmile_qr_scan"}, "is_disabled": 0, "fusion_lat": 0.0, "name": "e11699dd34c4a965e57899089dea8170", "fusion_lon": 0.0}, {"is_reserved": 0, "type": "electric_scooter", "bike_id": "66323303f5c4cf95656ab57c85619f87", "lat": 38.87525883333333, "lon": -77.00058133333333, "rental_uris": {"android": "https://dc.lft.to/lastmile_qr_scan", "ios": "https://dc.lft.to/lastmile_qr_scan"}, "is_disabled": 0, "fusion_lat": 0.0, "name": "66323303f5c4cf95656ab57c85619f87", "fusion_lon": 0.0}, {"is_reserved": 0, "type": "electric_scooter", "bike_id": "a33e65d15b361b05cbea9dee1b7d58db", "lat": 38.920555666666665, "lon": -77.0230315, "rental_uris": {"android": "https://dc.lft.to/lastmile_qr_scan", "ios": "https://dc.lft.to/lastmile_qr_scan"}, "is_disabled": 0, "fusion_lat": 0.0, "name": "a33e65d15b361b05cbea9dee1b7d58db", "fusion_lon": 0.0}, {"is_reserved": 0, "type": "electric_scooter", "bike_id": "39263a2b0eca51da2276d32e2d4bb5d8", "lat": 38.908455333333336, "lon": -77.04469233333333, "rental_uris": {"android": "https://dc.lft.to/lastmile_qr_scan", "ios": "https://dc.lft.to/lastmile_qr_scan"}, "is_disabled": 0, "fusion_lat": 0.0, "name": "39263a2b0eca51da2276d32e2d4bb5d8", "fusion_lon": 0.0}, {"is_reserved": 0, "type": "electric_scooter", "bike_id": "043ea7b1b621405b3872ed7d1be7bb93", "lat": 38.918167, "lon": -77.04179666666667, "rental_uris": {"android": "https://dc.lft.to/lastmile_qr_scan", "ios": "https://dc.lft.to/lastmile_qr_scan"}, "is_disabled": 0, "fusion_lat": 0.0, "name": "043ea7b1b621405b3872ed7d1be7bb93", "fusion_lon": 0.0}, {"is_reserved": 0, "type": "electric_scooter", "bike_id": "0ded2cd27a73efe0a14b6b750e439ed8", "lat": 38.9225025, "lon": -77.030791, "rental_uris": {"android": "https://dc.lft.to/lastmile_qr_scan", "ios": "https://dc.lft.to/lastmile_qr_scan"}, "is_disabled": 0, "fusion_lat": 0.0, "name": "0ded2cd27a73efe0a14b6b750e439ed8", "fusion_lon": 0.0}, {"is_reserved": 0, "type": "electric_bike", "bike_id": "640b9a70c902c80d281be6d9903a2760", "lat": 38.870052333333334, "lon": -77.229863, "rental_uris": {"android": "https://dc.lft.to/lastmile_qr_scan", "ios": "https://dc.lft.to/lastmile_qr_scan"}, "is_disabled": 0, "fusion_lat": 0.0, "name": "640b9a70c902c80d281be6d9903a2760", "fusion_lon": 0.0}, {"is_reserved": 0, "type": "electric_bike", "bike_id": "d80cb6d8230164d5660d15a93cdd86d1", "lat": 38.854181833333335, "lon": -77.08370666666667, "rental_uris": {"android": "https://dc.lft.to/lastmile_qr_scan", "ios": "https://dc.lft.to/lastmile_qr_scan"}, "is_disabled": 0, "fusion_lat": 0.0, "name": "d80cb6d8230164d5660d15a93cdd86d1", "fusion_lon": 0.0}, {"is_reserved": 0, "type": "electric_scooter", "bike_id": "c6d618c875527927d91d3d2e5205d7a2", "lat": 38.92585583333333, "lon": -77.02601116666666, "rental_uris": {"android": "https://dc.lft.to/lastmile_qr_scan", "ios": "https://dc.lft.to/lastmile_qr_scan"}, "is_disabled": 0, "fusion_lat": 0.0, "name": "c6d618c875527927d91d3d2e5205d7a2", "fusion_lon": 0.0}, {"is_reserved": 0, "type": "electric_scooter", "bike_id": "806de60ad510934762ab9b3b84aba5d9", "lat": 38.91577983333333, "lon": -77.01237183333333, "rental_uris": {"android": "https://dc.lft.to/lastmile_qr_scan", "ios": "https://dc.lft.to/lastmile_qr_scan"}, "is_disabled": 0, "fusion_lat": 0.0, "name": "806de60ad510934762ab9b3b84aba5d9", "fusion_lon": 0.0}, {"is_reserved": 0, "type": "electric_scooter", "bike_id": "d9866edc7b6cacc9c9ea5ef96beb0daa", "lat": 38.911071, "lon": -77.03828333333334, "rental_uris": {"android": "https://dc.lft.to/lastmile_qr_scan", "ios": "https://dc.lft.to/lastmile_qr_scan"}, "is_disabled": 0, "fusion_lat": 0.0, "name": "d9866edc7b6cacc9c9ea5ef96beb0daa", "fusion_lon": 0.0}, {"is_reserved": 0, "type": "electric_scooter", "bike_id": "583e7b576f3a1301759d5bf0076d3288", "lat": 38.926851666666664, "lon": -76.99777883333333, "rental_uris": {"android": "https://dc.lft.to/lastmile_qr_scan", "ios": "https://dc.lft.to/lastmile_qr_scan"}, "is_disabled": 0, "fusion_lat": 0.0, "name": "583e7b576f3a1301759d5bf0076d3288", "fusion_lon": 0.0}, {"is_reserved": 0, "type": "electric_scooter", "bike_id": "43d016bdb684b813e6a951accbf062ab", "lat": 38.90435516666667, "lon": -77.03135416666667, "rental_uris": {"android": "https://dc.lft.to/lastmile_qr_scan", "ios": "https://dc.lft.to/lastmile_qr_scan"}, "is_disabled": 0, "fusion_lat": 0.0, "name": "43d016bdb684b813e6a951accbf062ab", "fusion_lon": 0.0}, {"is_reserved": 0, "type": "electric_bike", "bike_id": "ceac8d758f558f3ea2037e8585277219", "lat": 39.08491016666667, "lon": -76.95062966666667, "rental_uris": {"android": "https://dc.lft.to/lastmile_qr_scan", "ios": "https://dc.lft.to/lastmile_qr_scan"}, "is_disabled": 0, "fusion_lat": 0.0, "name": "ceac8d758f558f3ea2037e8585277219", "fusion_lon": 0.0}, {"is_reserved": 0, "type": "electric_scooter", "bike_id": "3db5cb5633e5e758c7ab5db1abe8ae84", "lat": 38.9057405, "lon": -77.00584183333333, "rental_uris": {"android": "https://dc.lft.to/lastmile_qr_scan", "ios": "https://dc.lft.to/lastmile_qr_scan"}, "is_disabled": 0, "fusion_lat": 0.0, "name": "3db5cb5633e5e758c7ab5db1abe8ae84", "fusion_lon": 0.0}, {"is_reserved": 0, "type": "electric_scooter", "bike_id": "3f3c8d1b184e6292f5d0ca07291a5f4f", "lat": 38.89984616666667, "lon": -77.022847, "rental_uris": {"android": "https://dc.lft.to/lastmile_qr_scan", "ios": "https://dc.lft.to/lastmile_qr_scan"}, "is_disabled": 0, "fusion_lat": 0.0, "name": "3f3c8d1b184e6292f5d0ca07291a5f4f", "fusion_lon": 0.0}, {"is_reserved": 0, "type": "electric_scooter", "bike_id": "cd74acf55c2e8005c25ca147c391bf2b", "lat": 38.920293666666666, "lon": -77.0122525, "rental_uris": {"android": "https://dc.lft.to/lastmile_qr_scan", "ios": "https://dc.lft.to/lastmile_qr_scan"}, "is_disabled": 0, "fusion_lat": 0.0, "name": "cd74acf55c2e8005c25ca147c391bf2b", "fusion_lon": 0.0}, {"is_reserved": 0, "type": "electric_scooter", "bike_id": "05cc294498973a0327c73a949027c579", "lat": 38.944360333333336, "lon": -76.979632, "rental_uris": {"android": "https://dc.lft.to/lastmile_qr_scan", "ios": "https://dc.lft.to/lastmile_qr_scan"}, "is_disabled": 0, "fusion_lat": 0.0, "name": "05cc294498973a0327c73a949027c579", "fusion_lon": 0.0}, {"is_reserved": 0, "type": "electric_scooter", "bike_id": "67ff1d95eec267555e5a5dc270102745", "lat": 38.9237845, "lon": -77.0410715, "rental_uris": {"android": "https://dc.lft.to/lastmile_qr_scan", "ios": "https://dc.lft.to/lastmile_qr_scan"}, "is_disabled": 0, "fusion_lat": 0.0, "name": "67ff1d95eec267555e5a5dc270102745", "fusion_lon": 0.0}, {"is_reserved": 0, "type": "electric_scooter", "bike_id": "bf4c088a5e23b1561a655fa73f25cfc2", "lat": 38.926190166666665, "lon": -77.04306733333334, "rental_uris": {"android": "https://dc.lft.to/lastmile_qr_scan", "ios": "https://dc.lft.to/lastmile_qr_scan"}, "is_disabled": 0, "fusion_lat": 0.0, "name": "bf4c088a5e23b1561a655fa73f25cfc2", "fusion_lon": 0.0}, {"is_reserved": 0, "type": "electric_scooter", "bike_id": "a040a8a8c6fce73eac8555231ff5ee8d", "lat": 38.92797183333333, "lon": -77.03609866666666, "rental_uris": {"android": "https://dc.lft.to/lastmile_qr_scan", "ios": "https://dc.lft.to/lastmile_qr_scan"}, "is_disabled": 0, "fusion_lat": 0.0, "name": "a040a8a8c6fce73eac8555231ff5ee8d", "fusion_lon": 0.0}, {"is_reserved": 0, "type": "electric_scooter", "bike_id": "670c661cdea0ed7466d7018e46c58bf8", "lat": 38.87620166666667, "lon": -77.00271483333333, "rental_uris": {"android": "https://dc.lft.to/lastmile_qr_scan", "ios": "https://dc.lft.to/lastmile_qr_scan"}, "is_disabled": 0, "fusion_lat": 0.0, "name": "670c661cdea0ed7466d7018e46c58bf8", "fusion_lon": 0.0}, {"is_reserved": 0, "type": "electric_scooter", "bike_id": "220cda0b7d0f3d11ebe64469b6d59a63", "lat": 38.927439666666665, "lon": -77.069577, "rental_uris": {"android": "https://dc.lft.to/lastmile_qr_scan", "ios": "https://dc.lft.to/lastmile_qr_scan"}, "is_disabled": 0, "fusion_lat": 0.0, "name": "220cda0b7d0f3d11ebe64469b6d59a63", "fusion_lon": 0.0}, {"is_reserved": 0, "type": "electric_scooter", "bike_id": "1bfbd967a04696364ef8e346fb518e5f", "lat": 38.921921833333336, "lon": -77.01829133333334, "rental_uris": {"android": "https://dc.lft.to/lastmile_qr_scan", "ios": "https://dc.lft.to/lastmile_qr_scan"}, "is_disabled": 0, "fusion_lat": 0.0, "name": "1bfbd967a04696364ef8e346fb518e5f", "fusion_lon": 0.0}, {"is_reserved": 0, "type": "electric_scooter", "bike_id": "b5ceff356cbdb2fc1ebf2798ed40d790", "lat": 38.915570333333335, "lon": -77.03175066666667, "rental_uris": {"android": "https://dc.lft.to/lastmile_qr_scan", "ios": "https://dc.lft.to/lastmile_qr_scan"}, "is_disabled": 0, "fusion_lat": 0.0, "name": "b5ceff356cbdb2fc1ebf2798ed40d790", "fusion_lon": 0.0}, {"is_reserved": 0, "type": "electric_scooter", "bike_id": "cb3c6ad31a67dab54800167af7838a3e", "lat": 38.864484166666664, "lon": -76.99121933333333, "rental_uris": {"android": "https://dc.lft.to/lastmile_qr_scan", "ios": "https://dc.lft.to/lastmile_qr_scan"}, "is_disabled": 0, "fusion_lat": 0.0, "name": "cb3c6ad31a67dab54800167af7838a3e", "fusion_lon": 0.0}, {"is_reserved": 0, "type": "electric_scooter", "bike_id": "e60a4108a7feb5f47a7c265d9ed06fc2", "lat": 38.905403166666666, "lon": -77.05125583333333, "rental_uris": {"android": "https://dc.lft.to/lastmile_qr_scan", "ios": "https://dc.lft.to/lastmile_qr_scan"}, "is_disabled": 0, "fusion_lat": 0.0, "name": "e60a4108a7feb5f47a7c265d9ed06fc2", "fusion_lon": 0.0}, {"is_reserved": 0, "type": "electric_scooter", "bike_id": "0484cc424261a63a262ce47b8abf3a77", "lat": 38.918306666666666, "lon": -77.03187266666667, "rental_uris": {"android": "https://dc.lft.to/lastmile_qr_scan", "ios": "https://dc.lft.to/lastmile_qr_scan"}, "is_disabled": 0, "fusion_lat": 0.0, "name": "0484cc424261a63a262ce47b8abf3a77", "fusion_lon": 0.0}, {"is_reserved": 0, "type": "electric_scooter", "bike_id": "0bed23392d145003702505f0fc017347", "lat": 38.972934333333335, "lon": -77.036257, "rental_uris": {"android": "https://dc.lft.to/lastmile_qr_scan", "ios": "https://dc.lft.to/lastmile_qr_scan"}, "is_disabled": 0, "fusion_lat": 0.0, "name": "0bed23392d145003702505f0fc017347", "fusion_lon": 0.0}, {"is_reserved": 0, "type": "electric_scooter", "bike_id": "bd5b31622734b8cb885db1fc6247a3e5", "lat": 38.90985233333333, "lon": -77.03464083333333, "rental_uris": {"android": "https://dc.lft.to/lastmile_qr_scan", "ios": "https://dc.lft.to/lastmile_qr_scan"}, "is_disabled": 0, "fusion_lat": 0.0, "name": "bd5b31622734b8cb885db1fc6247a3e5", "fusion_lon": 0.0}, {"is_reserved": 0, "type": "electric_scooter", "bike_id": "50b872868947c512b0add7a83207c6fb", "lat": 38.89167416666667, "lon": -77.046858, "rental_uris": {"android": "https://dc.lft.to/lastmile_qr_scan", "ios": "https://dc.lft.to/lastmile_qr_scan"}, "is_disabled": 0, "fusion_lat": 0.0, "name": "50b872868947c512b0add7a83207c6fb", "fusion_lon": 0.0}, {"is_reserved": 0, "type": "electric_scooter", "bike_id": "e37b8d05e72665621d0e42530cfa4c92", "lat": 38.93020166666667, "lon": -77.03785133333334, "rental_uris": {"android": "https://dc.lft.to/lastmile_qr_scan", "ios": "https://dc.lft.to/lastmile_qr_scan"}, "is_disabled": 0, "fusion_lat": 0.0, "name": "e37b8d05e72665621d0e42530cfa4c92", "fusion_lon": 0.0}, {"is_reserved": 0, "type": "electric_scooter", "bike_id": "d35c4743070948f385dc1556172b1ff2", "lat": 38.8845615, "lon": -76.92623466666667, "rental_uris": {"android": "https://dc.lft.to/lastmile_qr_scan", "ios": "https://dc.lft.to/lastmile_qr_scan"}, "is_disabled": 0, "fusion_lat": 0.0, "name": "d35c4743070948f385dc1556172b1ff2", "fusion_lon": 0.0}, {"is_reserved": 0, "type": "electric_scooter", "bike_id": "0568ab936bafc48aaa5721d79dc33168", "lat": 38.92110383333333, "lon": -77.01794733333334, "rental_uris": {"android": "https://dc.lft.to/lastmile_qr_scan", "ios": "https://dc.lft.to/lastmile_qr_scan"}, "is_disabled": 0, "fusion_lat": 0.0, "name": "0568ab936bafc48aaa5721d79dc33168", "fusion_lon": 0.0}, {"is_reserved": 0, "type": "electric_scooter", "bike_id": "fcd997443db2b374c9be6fcc4300953a", "lat": 38.919261166666665, "lon": -77.01978433333333, "rental_uris": {"android": "https://dc.lft.to/lastmile_qr_scan", "ios": "https://dc.lft.to/lastmile_qr_scan"}, "is_disabled": 0, "fusion_lat": 0.0, "name": "fcd997443db2b374c9be6fcc4300953a", "fusion_lon": 0.0}, {"is_reserved": 0, "type": "electric_bike", "bike_id": "46f7fb4b9cdb1a2a5f8bfcb447321cca", "lat": 38.89852, "lon": -76.93191566666667, "rental_uris": {"android": "https://dc.lft.to/lastmile_qr_scan", "ios": "https://dc.lft.to/lastmile_qr_scan"}, "is_disabled": 0, "fusion_lat": 0.0, "name": "46f7fb4b9cdb1a2a5f8bfcb447321cca", "fusion_lon": 0.0}, {"is_reserved": 0, "type": "electric_scooter", "bike_id": "0b6134909c70ea3b9d8c6e188ef9fb65", "lat": 38.90429066666667, "lon": -77.03431933333333, "rental_uris": {"android": "https://dc.lft.to/lastmile_qr_scan", "ios": "https://dc.lft.to/lastmile_qr_scan"}, "is_disabled": 0, "fusion_lat": 0.0, "name": "0b6134909c70ea3b9d8c6e188ef9fb65", "fusion_lon": 0.0}, {"is_reserved": 0, "type": "electric_bike", "bike_id": "119071d27d2a5da38637612425040de9", "lat": 39.094475833333334, "lon": -77.13464133333333, "rental_uris": {"android": "https://dc.lft.to/lastmile_qr_scan", "ios": "https://dc.lft.to/lastmile_qr_scan"}, "is_disabled": 0, "fusion_lat": 0.0, "name": "119071d27d2a5da38637612425040de9", "fusion_lon": 0.0}, {"is_reserved": 0, "type": "electric_scooter", "bike_id": "53ad1240dcfff083b100f6786a446b9f", "lat": 38.906326166666666, "lon": -77.041478, "rental_uris": {"android": "https://dc.lft.to/lastmile_qr_scan", "ios": "https://dc.lft.to/lastmile_qr_scan"}, "is_disabled": 0, "fusion_lat": 0.0, "name": "53ad1240dcfff083b100f6786a446b9f", "fusion_lon": 0.0}, {"is_reserved": 0, "type": "electric_scooter", "bike_id": "590041e80ca59029f02d8a8de619e970", "lat": 38.9306045, "lon": -77.04217333333334, "rental_uris": {"android": "https://dc.lft.to/lastmile_qr_scan", "ios": "https://dc.lft.to/lastmile_qr_scan"}, "is_disabled": 0, "fusion_lat": 0.0, "name": "590041e80ca59029f02d8a8de619e970", "fusion_lon": 0.0}, {"is_reserved": 0, "type": "electric_bike", "bike_id": "982e631cfa02911e485a8656dac25fc8", "lat": 38.928664, "lon": -77.03371333333334, "rental_uris": {"android": "https://dc.lft.to/lastmile_qr_scan", "ios": "https://dc.lft.to/lastmile_qr_scan"}, "is_disabled": 0, "fusion_lat": 0.0, "name": "982e631cfa02911e485a8656dac25fc8", "fusion_lon": 0.0}, {"is_reserved": 0, "type": "electric_scooter", "bike_id": "c70da51f300634554f2e2c6623772b93", "lat": 38.907295833333336, "lon": -77.01093333333333, "rental_uris": {"android": "https://dc.lft.to/lastmile_qr_scan", "ios": "https://dc.lft.to/lastmile_qr_scan"}, "is_disabled": 0, "fusion_lat": 0.0, "name": "c70da51f300634554f2e2c6623772b93", "fusion_lon": 0.0}, {"is_reserved": 0, "type": "electric_bike", "bike_id": "cc0db0532ca0cae2e5d8c54acfe5d0db", "lat": 38.924411, "lon": -77.0573335, "rental_uris": {"android": "https://dc.lft.to/lastmile_qr_scan", "ios": "https://dc.lft.to/lastmile_qr_scan"}, "is_disabled": 0, "fusion_lat": 0.0, "name": "cc0db0532ca0cae2e5d8c54acfe5d0db", "fusion_lon": 0.0}, {"is_reserved": 0, "type": "electric_scooter", "bike_id": "2d7d79d1d87fb4c15927c16a86954ee1", "lat": 38.896386, "lon": -76.928027, "rental_uris": {"android": "https://dc.lft.to/lastmile_qr_scan", "ios": "https://dc.lft.to/lastmile_qr_scan"}, "is_disabled": 0, "fusion_lat": 0.0, "name": "2d7d79d1d87fb4c15927c16a86954ee1", "fusion_lon": 0.0}, {"is_reserved": 0, "type": "electric_bike", "bike_id": "e9f7726d1ceb7c90f0752d660f2cfc7b", "lat": 38.942618333333336, "lon": -76.990753, "rental_uris": {"android": "https://dc.lft.to/lastmile_qr_scan", "ios": "https://dc.lft.to/lastmile_qr_scan"}, "is_disabled": 0, "fusion_lat": 0.0, "name": "e9f7726d1ceb7c90f0752d660f2cfc7b", "fusion_lon": 0.0}, {"is_reserved": 0, "type": "electric_scooter", "bike_id": "a17f440a24e9b9f49546e829c9b5a09c", "lat": 38.912635, "lon": -77.01562233333334, "rental_uris": {"android": "https://dc.lft.to/lastmile_qr_scan", "ios": "https://dc.lft.to/lastmile_qr_scan"}, "is_disabled": 0, "fusion_lat": 0.0, "name": "a17f440a24e9b9f49546e829c9b5a09c", "fusion_lon": 0.0}, {"is_reserved": 0, "type": "electric_scooter", "bike_id": "7aae2c308d4bf1b7002e215adec53da4", "lat": 38.92748866666667, "lon": -77.02538766666666, "rental_uris": {"android": "https://dc.lft.to/lastmile_qr_scan", "ios": "https://dc.lft.to/lastmile_qr_scan"}, "is_disabled": 0, "fusion_lat": 0.0, "name": "7aae2c308d4bf1b7002e215adec53da4", "fusion_lon": 0.0}, {"is_reserved": 0, "type": "electric_scooter", "bike_id": "e856a91eb44fa672e1dc2c343efd021a", "lat": 38.959120666666664, "lon": -77.00020783333333, "rental_uris": {"android": "https://dc.lft.to/lastmile_qr_scan", "ios": "https://dc.lft.to/lastmile_qr_scan"}, "is_disabled": 0, "fusion_lat": 0.0, "name": "e856a91eb44fa672e1dc2c343efd021a", "fusion_lon": 0.0}, {"is_reserved": 0, "type": "electric_scooter", "bike_id": "6e1a29d8e79848c8a140acd8144401f3", "lat": 38.91492266666667, "lon": -77.04558133333333, "rental_uris": {"android": "https://dc.lft.to/lastmile_qr_scan", "ios": "https://dc.lft.to/lastmile_qr_scan"}, "is_disabled": 0, "fusion_lat": 0.0, "name": "6e1a29d8e79848c8a140acd8144401f3", "fusion_lon": 0.0}, {"is_reserved": 0, "type": "electric_bike", "bike_id": "a86058f04ef55d9b737840961d2dc648", "lat": 38.80386516666667, "lon": -76.98814766666666, "rental_uris": {"android": "https://dc.lft.to/lastmile_qr_scan", "ios": "https://dc.lft.to/lastmile_qr_scan"}, "is_disabled": 0, "fusion_lat": 0.0, "name": "a86058f04ef55d9b737840961d2dc648", "fusion_lon": 0.0}, {"is_reserved": 0, "type": "electric_scooter", "bike_id": "f393aa00fe1fa1396845974052dff509", "lat": 38.8922595, "lon": -77.03155883333334, "rental_uris": {"android": "https://dc.lft.to/lastmile_qr_scan", "ios": "https://dc.lft.to/lastmile_qr_scan"}, "is_disabled": 0, "fusion_lat": 0.0, "name": "f393aa00fe1fa1396845974052dff509", "fusion_lon": 0.0}, {"is_reserved": 0, "type": "electric_scooter", "bike_id": "14dde3738cc9ed2725bbe611067b7d27", "lat": 38.90359483333334, "lon": -77.0415405, "rental_uris": {"android": "https://dc.lft.to/lastmile_qr_scan", "ios": "https://dc.lft.to/lastmile_qr_scan"}, "is_disabled": 0, "fusion_lat": 0.0, "name": "14dde3738cc9ed2725bbe611067b7d27", "fusion_lon": 0.0}, {"is_reserved": 0, "type": "electric_scooter", "bike_id": "7cd5e9961ff999237ff97109d7779644", "lat": 38.907304, "lon": -77.0488855, "rental_uris": {"android": "https://dc.lft.to/lastmile_qr_scan", "ios": "https://dc.lft.to/lastmile_qr_scan"}, "is_disabled": 0, "fusion_lat": 0.0, "name": "7cd5e9961ff999237ff97109d7779644", "fusion_lon": 0.0}, {"is_reserved": 0, "type": "electric_scooter", "bike_id": "d9966db04820ee0369e92bd13e4ed0ac", "lat": 38.92761616666667, "lon": -77.02884533333334, "rental_uris": {"android": "https://dc.lft.to/lastmile_qr_scan", "ios": "https://dc.lft.to/lastmile_qr_scan"}, "is_disabled": 0, "fusion_lat": 0.0, "name": "d9966db04820ee0369e92bd13e4ed0ac", "fusion_lon": 0.0}, {"is_reserved": 0, "type": "electric_scooter", "bike_id": "ad5b4b05f8f90c4eeb642ac9cf93ab27", "lat": 38.848226333333336, "lon": -76.9781725, "rental_uris": {"android": "https://dc.lft.to/lastmile_qr_scan", "ios": "https://dc.lft.to/lastmile_qr_scan"}, "is_disabled": 0, "fusion_lat": 0.0, "name": "ad5b4b05f8f90c4eeb642ac9cf93ab27", "fusion_lon": 0.0}, {"is_reserved": 0, "type": "electric_scooter", "bike_id": "80813a004d7f72576aaa892d8e64b4dc", "lat": 38.926274666666664, "lon": -77.03790533333333, "rental_uris": {"android": "https://dc.lft.to/lastmile_qr_scan", "ios": "https://dc.lft.to/lastmile_qr_scan"}, "is_disabled": 0, "fusion_lat": 0.0, "name": "80813a004d7f72576aaa892d8e64b4dc", "fusion_lon": 0.0}, {"is_reserved": 0, "type": "electric_scooter", "bike_id": "e056f2c026fc634db925f473b8ee3489", "lat": 38.925604666666665, "lon": -77.03259133333333, "rental_uris": {"android": "https://dc.lft.to/lastmile_qr_scan", "ios": "https://dc.lft.to/lastmile_qr_scan"}, "is_disabled": 0, "fusion_lat": 0.0, "name": "e056f2c026fc634db925f473b8ee3489", "fusion_lon": 0.0}, {"is_reserved": 0, "type": "electric_scooter", "bike_id": "39f8aa06b3c7b2ff8749970dbe18202f", "lat": 38.92032316666667, "lon": -77.04174766666667, "rental_uris": {"android": "https://dc.lft.to/lastmile_qr_scan", "ios": "https://dc.lft.to/lastmile_qr_scan"}, "is_disabled": 0, "fusion_lat": 0.0, "name": "39f8aa06b3c7b2ff8749970dbe18202f", "fusion_lon": 0.0}, {"is_reserved": 0, "type": "electric_bike", "bike_id": "36f2fcf345181c05b7805f9aca89ffeb", "lat": 38.936743666666665, "lon": -77.0342145, "rental_uris": {"android": "https://dc.lft.to/lastmile_qr_scan", "ios": "https://dc.lft.to/lastmile_qr_scan"}, "is_disabled": 0, "fusion_lat": 0.0, "name": "36f2fcf345181c05b7805f9aca89ffeb", "fusion_lon": 0.0}, {"is_reserved": 0, "type": "electric_scooter", "bike_id": "30cba86d505fea47e0714d1fb10bddbd", "lat": 38.908468, "lon": -77.020613, "rental_uris": {"android": "https://dc.lft.to/lastmile_qr_scan", "ios": "https://dc.lft.to/lastmile_qr_scan"}, "is_disabled": 0, "fusion_lat": 0.0, "name": "30cba86d505fea47e0714d1fb10bddbd", "fusion_lon": 0.0}, {"is_reserved": 0, "type": "electric_scooter", "bike_id": "f6f15ca89e29ce83e32c3f7b8812ca23", "lat": 38.896474166666664, "lon": -77.0261055, "rental_uris": {"android": "https://dc.lft.to/lastmile_qr_scan", "ios": "https://dc.lft.to/lastmile_qr_scan"}, "is_disabled": 0, "fusion_lat": 0.0, "name": "f6f15ca89e29ce83e32c3f7b8812ca23", "fusion_lon": 0.0}, {"is_reserved": 0, "type": "electric_scooter", "bike_id": "03eca77eaaf85dca0b1ce9b737d36ad7", "lat": 38.91265766666667, "lon": -77.01764466666667, "rental_uris": {"android": "https://dc.lft.to/lastmile_qr_scan", "ios": "https://dc.lft.to/lastmile_qr_scan"}, "is_disabled": 0, "fusion_lat": 0.0, "name": "03eca77eaaf85dca0b1ce9b737d36ad7", "fusion_lon": 0.0}, {"is_reserved": 0, "type": "electric_scooter", "bike_id": "78172a785a898b908738dc29f859287a", "lat": 38.93096516666667, "lon": -77.02404616666666, "rental_uris": {"android": "https://dc.lft.to/lastmile_qr_scan", "ios": "https://dc.lft.to/lastmile_qr_scan"}, "is_disabled": 0, "fusion_lat": 0.0, "name": "78172a785a898b908738dc29f859287a", "fusion_lon": 0.0}, {"is_reserved": 0, "type": "electric_scooter", "bike_id": "8d82a31689a1d6f88bc64e6dfdb46838", "lat": 38.895028333333336, "lon": -76.93477516666667, "rental_uris": {"android": "https://dc.lft.to/lastmile_qr_scan", "ios": "https://dc.lft.to/lastmile_qr_scan"}, "is_disabled": 0, "fusion_lat": 0.0, "name": "8d82a31689a1d6f88bc64e6dfdb46838", "fusion_lon": 0.0}, {"is_reserved": 0, "type": "electric_scooter", "bike_id": "c524c9ad04d0f4b2cdfb151278d39a1f", "lat": 38.90077633333333, "lon": -76.980125, "rental_uris": {"android": "https://dc.lft.to/lastmile_qr_scan", "ios": "https://dc.lft.to/lastmile_qr_scan"}, "is_disabled": 0, "fusion_lat": 0.0, "name": "c524c9ad04d0f4b2cdfb151278d39a1f", "fusion_lon": 0.0}, {"is_reserved": 0, "type": "electric_bike", "bike_id": "5957e5b19ea4ecd53399cdd2cf53a1e0", "lat": 38.97338366666666, "lon": -76.99583716666666, "rental_uris": {"android": "https://dc.lft.to/lastmile_qr_scan", "ios": "https://dc.lft.to/lastmile_qr_scan"}, "is_disabled": 0, "fusion_lat": 0.0, "name": "5957e5b19ea4ecd53399cdd2cf53a1e0", "fusion_lon": 0.0}, {"is_reserved": 0, "type": "electric_bike", "bike_id": "f5584938066e0ee851e3a4126f224abf", "lat": 39.042322, "lon": -76.99737366666666, "rental_uris": {"android": "https://dc.lft.to/lastmile_qr_scan", "ios": "https://dc.lft.to/lastmile_qr_scan"}, "is_disabled": 0, "fusion_lat": 0.0, "name": "f5584938066e0ee851e3a4126f224abf", "fusion_lon": 0.0}, {"is_reserved": 0, "type": "electric_scooter", "bike_id": "b37f72cc6b2ad64090fc812f18b7238c", "lat": 38.923715333333334, "lon": -77.02895833333334, "rental_uris": {"android": "https://dc.lft.to/lastmile_qr_scan", "ios": "https://dc.lft.to/lastmile_qr_scan"}, "is_disabled": 0, "fusion_lat": 0.0, "name": "b37f72cc6b2ad64090fc812f18b7238c", "fusion_lon": 0.0}, {"is_reserved": 0, "type": "electric_scooter", "bike_id": "b868e94439b51d3a4c72ff170816280d", "lat": 38.911307666666666, "lon": -76.9846365, "rental_uris": {"android": "https://dc.lft.to/lastmile_qr_scan", "ios": "https://dc.lft.to/lastmile_qr_scan"}, "is_disabled": 0, "fusion_lat": 0.0, "name": "b868e94439b51d3a4c72ff170816280d", "fusion_lon": 0.0}, {"is_reserved": 0, "type": "electric_scooter", "bike_id": "8c52abd7ae4e81c1c5f25a99296291e3", "lat": 38.93257633333333, "lon": -77.03848933333333, "rental_uris": {"android": "https://dc.lft.to/lastmile_qr_scan", "ios": "https://dc.lft.to/lastmile_qr_scan"}, "is_disabled": 0, "fusion_lat": 0.0, "name": "8c52abd7ae4e81c1c5f25a99296291e3", "fusion_lon": 0.0}, {"is_reserved": 0, "type": "electric_bike", "bike_id": "4e60f2c0c94e2c25a4796a65dad4e822", "lat": 38.924504, "lon": -77.019215, "rental_uris": {"android": "https://dc.lft.to/lastmile_qr_scan", "ios": "https://dc.lft.to/lastmile_qr_scan"}, "is_disabled": 0, "fusion_lat": 0.0, "name": "4e60f2c0c94e2c25a4796a65dad4e822", "fusion_lon": 0.0}, {"is_reserved": 0, "type": "electric_scooter", "bike_id": "e82863975103138831a2d5e89852e244", "lat": 38.91417783333333, "lon": -77.02217766666666, "rental_uris": {"android": "https://dc.lft.to/lastmile_qr_scan", "ios": "https://dc.lft.to/lastmile_qr_scan"}, "is_disabled": 0, "fusion_lat": 0.0, "name": "e82863975103138831a2d5e89852e244", "fusion_lon": 0.0}, {"is_reserved": 0, "type": "electric_scooter", "bike_id": "5dd1b8ac74585a1aac1c946b02d05f2b", "lat": 38.923913666666664, "lon": -77.029654, "rental_uris": {"android": "https://dc.lft.to/lastmile_qr_scan", "ios": "https://dc.lft.to/lastmile_qr_scan"}, "is_disabled": 0, "fusion_lat": 0.0, "name": "5dd1b8ac74585a1aac1c946b02d05f2b", "fusion_lon": 0.0}, {"is_reserved": 0, "type": "electric_scooter", "bike_id": "ed940d5577b5c2de7c442aebe06eaa27", "lat": 38.89748433333333, "lon": -77.02973666666666, "rental_uris": {"android": "https://dc.lft.to/lastmile_qr_scan", "ios": "https://dc.lft.to/lastmile_qr_scan"}, "is_disabled": 0, "fusion_lat": 0.0, "name": "ed940d5577b5c2de7c442aebe06eaa27", "fusion_lon": 0.0}, {"is_reserved": 0, "type": "electric_bike", "bike_id": "37b2f3810cd0348896039a5f1480cb64", "lat": 38.82048183333333, "lon": -77.0536645, "rental_uris": {"android": "https://dc.lft.to/lastmile_qr_scan", "ios": "https://dc.lft.to/lastmile_qr_scan"}, "is_disabled": 0, "fusion_lat": 0.0, "name": "37b2f3810cd0348896039a5f1480cb64", "fusion_lon": 0.0}, {"is_reserved": 0, "type": "electric_scooter", "bike_id": "2032044a8345d128e4fc0cbc8755771e", "lat": 38.89603966666667, "lon": -77.0221135, "rental_uris": {"android": "https://dc.lft.to/lastmile_qr_scan", "ios": "https://dc.lft.to/lastmile_qr_scan"}, "is_disabled": 0, "fusion_lat": 0.0, "name": "2032044a8345d128e4fc0cbc8755771e", "fusion_lon": 0.0}, {"is_reserved": 0, "type": "electric_scooter", "bike_id": "99b080e8e7b369e5e7df08430d825ea8", "lat": 38.933607, "lon": -77.02733633333334, "rental_uris": {"android": "https://dc.lft.to/lastmile_qr_scan", "ios": "https://dc.lft.to/lastmile_qr_scan"}, "is_disabled": 0, "fusion_lat": 0.0, "name": "99b080e8e7b369e5e7df08430d825ea8", "fusion_lon": 0.0}, {"is_reserved": 0, "type": "electric_scooter", "bike_id": "2d09b7fd2c22ca36e5fb3254f33585c8", "lat": 38.920244333333336, "lon": -77.03730466666667, "rental_uris": {"android": "https://dc.lft.to/lastmile_qr_scan", "ios": "https://dc.lft.to/lastmile_qr_scan"}, "is_disabled": 0, "fusion_lat": 0.0, "name": "2d09b7fd2c22ca36e5fb3254f33585c8", "fusion_lon": 0.0}, {"is_reserved": 0, "type": "electric_scooter", "bike_id": "c79812ca80acf37b1f019351be22b187", "lat": 38.89222933333333, "lon": -77.02426333333334, "rental_uris": {"android": "https://dc.lft.to/lastmile_qr_scan", "ios": "https://dc.lft.to/lastmile_qr_scan"}, "is_disabled": 0, "fusion_lat": 0.0, "name": "c79812ca80acf37b1f019351be22b187", "fusion_lon": 0.0}, {"is_reserved": 0, "type": "electric_scooter", "bike_id": "96d37d52f616a144994aabd4310942ec", "lat": 38.914000333333334, "lon": -77.02753416666667, "rental_uris": {"android": "https://dc.lft.to/lastmile_qr_scan", "ios": "https://dc.lft.to/lastmile_qr_scan"}, "is_disabled": 0, "fusion_lat": 0.0, "name": "96d37d52f616a144994aabd4310942ec", "fusion_lon": 0.0}, {"is_reserved": 0, "type": "electric_scooter", "bike_id": "517a2351e473827fa3f19ce28f61f85e", "lat": 38.895443666666665, "lon": -77.011116, "rental_uris": {"android": "https://dc.lft.to/lastmile_qr_scan", "ios": "https://dc.lft.to/lastmile_qr_scan"}, "is_disabled": 0, "fusion_lat": 0.0, "name": "517a2351e473827fa3f19ce28f61f85e", "fusion_lon": 0.0}, {"is_reserved": 0, "type": "electric_scooter", "bike_id": "8c79002081acc2fcc720c89c57660160", "lat": 38.8842235, "lon": -77.0261675, "rental_uris": {"android": "https://dc.lft.to/lastmile_qr_scan", "ios": "https://dc.lft.to/lastmile_qr_scan"}, "is_disabled": 0, "fusion_lat": 0.0, "name": "8c79002081acc2fcc720c89c57660160", "fusion_lon": 0.0}, {"is_reserved": 0, "type": "electric_scooter", "bike_id": "cfc2e403baa0e097b3a60f89ec57ef47", "lat": 38.9303075, "lon": -77.08318883333334, "rental_uris": {"android": "https://dc.lft.to/lastmile_qr_scan", "ios": "https://dc.lft.to/lastmile_qr_scan"}, "is_disabled": 0, "fusion_lat": 0.0, "name": "cfc2e403baa0e097b3a60f89ec57ef47", "fusion_lon": 0.0}, {"is_reserved": 0, "type": "electric_scooter", "bike_id": "8d21984ddf432209c33a3458d9059526", "lat": 38.89827233333333, "lon": -77.04825966666667, "rental_uris": {"android": "https://dc.lft.to/lastmile_qr_scan", "ios": "https://dc.lft.to/lastmile_qr_scan"}, "is_disabled": 0, "fusion_lat": 0.0, "name": "8d21984ddf432209c33a3458d9059526", "fusion_lon": 0.0}, {"is_reserved": 0, "type": "electric_scooter", "bike_id": "8f5a397507d94d2fc9afa17e7ad46b14", "lat": 38.90619383333333, "lon": -77.03304633333333, "rental_uris": {"android": "https://dc.lft.to/lastmile_qr_scan", "ios": "https://dc.lft.to/lastmile_qr_scan"}, "is_disabled": 0, "fusion_lat": 0.0, "name": "8f5a397507d94d2fc9afa17e7ad46b14", "fusion_lon": 0.0},