{"data": {"bikes": [{"is_disabled": 0, "fusion_lon": 0.0, "fusion_lat": 0.0, "lat": 38.906921833333335, "type": "electric_bike", "lon": -76.952599, "bike_id": "21fef4850dedebcd42e94bae3ee6390c", "rental_uris": {"android": "https://dc.lft.to/lastmile_qr_scan", "ios": "https://dc.lft.to/lastmile_qr_scan"}, "name": "21fef4850dedebcd42e94bae3ee6390c", "is_reserved": 0}, {"is_disabled": 0, "fusion_lon": 0.0, "fusion_lat": 0.0, "lat": 38.9246475, "type": "electric_scooter", "lon": -77.05234583333333, "bike_id": "a8bfaf6c1f518c4b6a26404f758e83a4", "rental_uris": {"android": "https://dc.lft.to/lastmile_qr_scan", "ios": "https://dc.lft.to/lastmile_qr_scan"}, "name": "a8bfaf6c1f518c4b6a26404f758e83a4", "is_reserved": 0}, {"is_disabled": 0, "fusion_lon": 0.0, "fusion_lat": 0.0, "lat": 38.9006225, "type": "electric_scooter", "lon": -76.93475833333333, "bike_id": "da78d2ab9c42f77888f96619e1f9f67d", "rental_uris": {"android": "https://dc.lft.to/lastmile_qr_scan", "ios": "https://dc.lft.to/lastmile_qr_scan"}, "name": "da78d2ab9c42f77888f96619e1f9f67d", "is_reserved": 0}, {"is_disabled": 0, "fusion_lon": 0.0, "fusion_lat": 0.0, "lat": 38.917115, "type": "electric_scooter", "lon": -77.02482616666667, "bike_id": "b21d37880b3b12b9dd910a4d2651b3c0", "rental_uris": {"android": "https://dc.lft.to/lastmile_qr_scan", "ios": "https://dc.lft.to/lastmile_qr_scan"}, "name": "b21d37880b3b12b9dd910a4d2651b3c0", "is_reserved": 0}, {"is_disabled": 0, "fusion_lon": 0.0, "fusion_lat": 0.0, "lat": 38.863378166666664, "type": "electric_bike", "lon": -76.987292, "bike_id": "b25757abe9517a291d0c7ce50ad5a22d", "rental_uris": {"android": "https://dc.lft.to/lastmile_qr_scan", "ios": "https://dc.lft.to/lastmile_qr_scan"}, "name": "b25757abe9517a291d0c7ce50ad5a22d", "is_reserved": 0}, {"is_disabled": 0, "fusion_lon": 0.0, "fusion_lat": 0.0, "lat": 38.91324183333333, "type": "electric_scooter", "lon": -77.03185616666667, "bike_id": "0fe6af5500e827ea9b1f5ae3a45d02a5", "rental_uris": {"android": "https://dc.lft.to/lastmile_qr_scan", "ios": "https://dc.lft.to/lastmile_qr_scan"}, "name": "0fe6af5500e827ea9b1f5ae3a45d02a5", "is_reserved": 0}, {"is_disabled": 0, "fusion_lon": 0.0, "fusion_lat": 0.0, "lat": 38.91935, "type": "electric_scooter", "lon": -77.02597683333333, "bike_id": "2a8d39fc189d5ce815e9cc34eae69f2a", "rental_uris": {"android": "https://dc.lft.to/lastmile_qr_scan", "ios": "https://dc.lft.to/lastmile_qr_scan"}, "name": "2a8d39fc189d5ce815e9cc34eae69f2a", "is_reserved": 0}, {"is_disabled": 0, "fusion_lon": 0.0, "fusion_lat": 0.0, "lat": 38.917683833333335, "type": "electric_scooter", "lon": -77.04063683333334, "bike_id": "be8990337698326de262f375dc5b25dd", "rental_uris": {"android": "https://dc.lft.to/lastmile_qr_scan", "ios": "https://dc.lft.to/lastmile_qr_scan"}, "name": "be8990337698326de262f375dc5b25dd", "is_reserved": 0}, {"is_disabled": 0, "fusion_lon": 0.0, "fusion_lat": 0.0, "lat": 38.912158, "type": "electric_scooter", "lon": -77.020978, "bike_id": "db7d50d9458c104fc4bd0eba084589fa", "rental_uris": {"android": "https://dc.lft.to/lastmile_qr_scan", "ios": "https://dc.lft.to/lastmile_qr_scan"}, "name": "db7d50d9458c104fc4bd0eba084589fa", "is_reserved": 0}, {"is_disabled": 0, "fusion_lon": 0.0, "fusion_lat": 0.0, "lat": 38.898217833333334, "type": "electric_scooter", "lon": -77.03199333333333, "bike_id": "2002c4f6e8508e6fc3d785474fcb5c25", "rental_uris": {"android": "https://dc.lft.to/lastmile_qr_scan", "ios": "https://dc.lft.to/lastmile_qr_scan"}, "name": "2002c4f6e8508e6fc3d785474fcb5c25", "is_reserved": 0}, {"is_disabled": 0, "fusion_lon": 0.0, "fusion_lat": 0.0, "lat": 38.92824066666667, "type": "electric_scooter", "lon": -77.05444383333334, "bike_id": "d1df8ba73a469aac3b99387c1227e692", "rental_uris": {"android": "https://dc.lft.to/lastmile_qr_scan", "ios": "https://dc.lft.to/lastmile_qr_scan"}, "name": "d1df8ba73a469aac3b99387c1227e692", "is_reserved": 0}, {"is_disabled": 0, "fusion_lon": 0.0, "fusion_lat": 0.0, "lat": 38.91360433333333, "type": "electric_scooter", "lon": -77.04665583333333, "bike_id": "0c70f8909d63e31e71d80e523514301e", "rental_uris": {"android": "https://dc.lft.to/lastmile_qr_scan", "ios": "https://dc.lft.to/lastmile_qr_scan"}, "name": "0c70f8909d63e31e71d80e523514301e", "is_reserved": 0}, {"is_disabled": 0, "fusion_lon": 0.0, "fusion_lat": 0.0, "lat": 38.905610833333334, "type": "electric_scooter", "lon": -77.028112, "bike_id": "2d813146dd2578773da6488dac9d09a0", "rental_uris": {"android": "https://dc.lft.to/lastmile_qr_scan", "ios": "https://dc.lft.to/lastmile_qr_scan"}, "name": "2d813146dd2578773da6488dac9d09a0", "is_reserved": 0}, {"is_disabled": 0, "fusion_lon": 0.0, "fusion_lat": 0.0, "lat": 38.93647583333333, "type": "electric_scooter", "lon": -77.02099133333333, "bike_id": "a8299069f6fcd60bc8486b34e2af17b8", "rental_uris": {"android": "https://dc.lft.to/lastmile_qr_scan", "ios": "https://dc.lft.to/lastmile_qr_scan"}, "name": "a8299069f6fcd60bc8486b34e2af17b8", "is_reserved": 0}, {"is_disabled": 0, "fusion_lon": 0.0, "fusion_lat": 0.0, "lat": 38.89221366666666, "type": "electric_scooter", "lon": -77.0222615, "bike_id": "097071e21f7b7a13b90bc701504503f2", "rental_uris": {"android": "https://dc.lft.to/lastmile_qr_scan", "ios": "https://dc.lft.to/lastmile_qr_scan"}, "name": "097071e21f7b7a13b90bc701504503f2", "is_reserved": 0}, {"is_disabled": 0, "fusion_lon": 0.0, "fusion_lat": 0.0, "lat": 38.89002583333333, "type": "electric_scooter", "lon": -77.0489775, "bike_id": "e7a1c02edcf1bb34c4a6be946601148e", "rental_uris": {"android": "https://dc.lft.to/lastmile_qr_scan", "ios": "https://dc.lft.to/lastmile_qr_scan"}, "name": "e7a1c02edcf1bb34c4a6be946601148e", "is_reserved": 0}, {"is_disabled": 0, "fusion_lon": 0.0, "fusion_lat": 0.0, "lat": 38.90762, "type": "electric_scooter", "lon": -76.99649416666666, "bike_id": "c87bebc9d8c3b19d8592c405458a69c8", "rental_uris": {"android": "https://dc.lft.to/lastmile_qr_scan", "ios": "https://dc.lft.to/lastmile_qr_scan"}, "name": "c87bebc9d8c3b19d8592c405458a69c8", "is_reserved": 0}, {"is_disabled": 0, "fusion_lon": 0.0, "fusion_lat": 0.0, "lat": 38.924038, "type": "electric_scooter", "lon": -77.04480066666666, "bike_id": "d634b1b3b350793333831ccbda9f1a5e", "rental_uris": {"android": "https://dc.lft.to/lastmile_qr_scan", "ios": "https://dc.lft.to/lastmile_qr_scan"}, "name": "d634b1b3b350793333831ccbda9f1a5e", "is_reserved": 0}, {"is_disabled": 0, "fusion_lon": 0.0, "fusion_lat": 0.0, "lat": 38.906674833333334, "type": "electric_scooter", "lon": -77.02713516666667, "bike_id": "1647c5ddf05bd3a5294c4ec19a0aa3ae", "rental_uris": {"android": "https://dc.lft.to/lastmile_qr_scan", "ios": "https://dc.lft.to/lastmile_qr_scan"}, "name": "1647c5ddf05bd3a5294c4ec19a0aa3ae", "is_reserved": 0}, {"is_disabled": 0, "fusion_lon": 0.0, "fusion_lat": 0.0, "lat": 38.9352695, "type": "electric_scooter", "lon": -77.03653466666667, "bike_id": "36efd78d41242b1e940196a2ba27afb3", "rental_uris": {"android": "https://dc.lft.to/lastmile_qr_scan", "ios": "https://dc.lft.to/lastmile_qr_scan"}, "name": "36efd78d41242b1e940196a2ba27afb3", "is_reserved": 0}, {"is_disabled": 0, "fusion_lon": 0.0, "fusion_lat": 0.0, "lat": 38.92743983333333, "type": "electric_bike", "lon": -77.099503, "bike_id": "f55ce2d710586ca7b8752e12039d9ad4", "rental_uris": {"android": "https://dc.lft.to/lastmile_qr_scan", "ios": "https://dc.lft.to/lastmile_qr_scan"}, "name": "f55ce2d710586ca7b8752e12039d9ad4", "is_reserved": 0}, {"is_disabled": 0, "fusion_lon": 0.0, "fusion_lat": 0.0, "lat": 38.91363416666667, "type": "electric_scooter", "lon": -77.0259515, "bike_id": "2368b42b653a7a5b95c67efd5ffc4f8d", "rental_uris": {"android": "https://dc.lft.to/lastmile_qr_scan", "ios": "https://dc.lft.to/lastmile_qr_scan"}, "name": "2368b42b653a7a5b95c67efd5ffc4f8d", "is_reserved": 0}, {"is_disabled": 0, "fusion_lon": 0.0, "fusion_lat": 0.0, "lat": 38.90404683333333, "type": "electric_scooter", "lon": -76.9752215, "bike_id": "f4b71cf7633347cf3109f5c674e3b576", "rental_uris": {"android": "https://dc.lft.to/lastmile_qr_scan", "ios": "https://dc.lft.to/lastmile_qr_scan"}, "name": "f4b71cf7633347cf3109f5c674e3b576", "is_reserved": 0}, {"is_disabled": 0, "fusion_lon": 0.0, "fusion_lat": 0.0, "lat": 38.918145333333335, "type": "electric_scooter", "lon": -77.0330345, "bike_id": "bd1b14c988d5340efc26d0797f96a9ba", "rental_uris": {"android": "https://dc.lft.to/lastmile_qr_scan", "ios": "https://dc.lft.to/lastmile_qr_scan"}, "name": "bd1b14c988d5340efc26d0797f96a9ba", "is_reserved": 0}, {"is_disabled": 0, "fusion_lon": 0.0, "fusion_lat": 0.0, "lat": 38.8939515, "type": "electric_scooter", "lon": -77.02247833333334, "bike_id": "76a8730872c6db85e33fc58ce303ba47", "rental_uris": {"android": "https://dc.lft.to/lastmile_qr_scan", "ios": "https://dc.lft.to/lastmile_qr_scan"}, "name": "76a8730872c6db85e33fc58ce303ba47", "is_reserved": 0}, {"is_disabled": 0, "fusion_lon": 0.0, "fusion_lat": 0.0, "lat": 38.89393066666667, "type": "electric_scooter", "lon": -76.95005466666667, "bike_id": "65ae9724b1b4673361f9d06581b890ca", "rental_uris": {"android": "https://dc.lft.to/lastmile_qr_scan", "ios": "https://dc.lft.to/lastmile_qr_scan"}, "name": "65ae9724b1b4673361f9d06581b890ca", "is_reserved": 0}, {"is_disabled": 0, "fusion_lon": 0.0, "fusion_lat": 0.0, "lat": 38.910294, "type": "electric_scooter", "lon": -77.04837083333334, "bike_id": "6a9ed80d9c9ec1012d8214d91882b8e2", "rental_uris": {"android": "https://dc.lft.to/lastmile_qr_scan", "ios": "https://dc.lft.to/lastmile_qr_scan"}, "name": "6a9ed80d9c9ec1012d8214d91882b8e2", "is_reserved": 0}, {"is_disabled": 0, "fusion_lon": 0.0, "fusion_lat": 0.0, "lat": 38.89963383333333, "type": "electric_scooter", "lon": -77.05091233333333, "bike_id": "3a6395ac244c3c01325e3a1de55337ce", "rental_uris": {"android": "https://dc.lft.to/lastmile_qr_scan", "ios": "https://dc.lft.to/lastmile_qr_scan"}, "name": "3a6395ac244c3c01325e3a1de55337ce", "is_reserved": 0}, {"is_disabled": 0, "fusion_lon": 0.0, "fusion_lat": 0.0, "lat": 38.917916166666664, "type": "electric_scooter", "lon": -77.017846, "bike_id": "7cdef4c84942429cd8fc0586da963b34", "rental_uris": {"android": "https://dc.lft.to/lastmile_qr_scan", "ios": "https://dc.lft.to/lastmile_qr_scan"}, "name": "7cdef4c84942429cd8fc0586da963b34", "is_reserved": 0}, {"is_disabled": 0, "fusion_lon": 0.0, "fusion_lat": 0.0, "lat": 38.90653966666667, "type": "electric_scooter", "lon": -77.02968216666666, "bike_id": "e1f42edd133d3e6c56893ea9fc45725c", "rental_uris": {"android": "https://dc.lft.to/lastmile_qr_scan", "ios": "https://dc.lft.to/lastmile_qr_scan"}, "name": "e1f42edd133d3e6c56893ea9fc45725c", "is_reserved": 0}, {"is_disabled": 0, "fusion_lon": 0.0, "fusion_lat": 0.0, "lat": 38.94905333333333, "type": "electric_bike", "lon": -76.96376216666667, "bike_id": "2b0f41dbb01adc921d14cedd0aed1112", "rental_uris": {"android": "https://dc.lft.to/lastmile_qr_scan", "ios": "https://dc.lft.to/lastmile_qr_scan"}, "name": "2b0f41dbb01adc921d14cedd0aed1112", "is_reserved": 0}, {"is_disabled": 0, "fusion_lon": 0.0, "fusion_lat": 0.0, "lat": 38.921524, "type": "electric_scooter", "lon": -77.03384783333334, "bike_id": "320aca5a2f0d05a9cef9e7824ceb49b9", "rental_uris": {"android": "https://dc.lft.to/lastmile_qr_scan", "ios": "https://dc.lft.to/lastmile_qr_scan"}, "name": "320aca5a2f0d05a9cef9e7824ceb49b9", "is_reserved": 0}, {"is_disabled": 0, "fusion_lon": 0.0, "fusion_lat": 0.0, "lat": 38.93628983333333, "type": "electric_scooter", "lon": -77.03661916666667, "bike_id": "cf27dc4a2ce49f91e912b2014b43b2d5", "rental_uris": {"android": "https://dc.lft.to/lastmile_qr_scan", "ios": "https://dc.lft.to/lastmile_qr_scan"}, "name": "cf27dc4a2ce49f91e912b2014b43b2d5", "is_reserved": 0}, {"is_disabled": 0, "fusion_lon": 0.0, "fusion_lat": 0.0, "lat": 38.911864, "type": "electric_scooter", "lon": -77.041702, "bike_id": "861fe11c4f83c63d584a6834fd4aee22", "rental_uris": {"android": "https://dc.lft.to/lastmile_qr_scan", "ios": "https://dc.lft.to/lastmile_qr_scan"}, "name": "861fe11c4f83c63d584a6834fd4aee22", "is_reserved": 0}, {"is_disabled": 0, "fusion_lon": 0.0, "fusion_lat": 0.0, "lat": 39.0889625, "type": "electric_bike", "lon": -77.17846133333333, "bike_id": "ed068931721e250a5da9ce2b0d0490b6", "rental_uris": {"android": "https://dc.lft.to/lastmile_qr_scan", "ios": "https://dc.lft.to/lastmile_qr_scan"}, "name": "ed068931721e250a5da9ce2b0d0490b6", "is_reserved": 0}, {"is_disabled": 0, "fusion_lon": 0.0, "fusion_lat": 0.0, "lat": 38.88454983333333, "type": "electric_bike", "lon": -76.91639183333334, "bike_id": "bbc0dc8ad54c2aa76db7e99d0482db54", "rental_uris": {"android": "https://dc.lft.to/lastmile_qr_scan", "ios": "https://dc.lft.to/lastmile_qr_scan"}, "name": "bbc0dc8ad54c2aa76db7e99d0482db54", "is_reserved": 0}, {"is_disabled": 0, "fusion_lon": 0.0, "fusion_lat": 0.0, "lat": 39.0526885, "type": "electric_bike", "lon": -77.04389933333333, "bike_id": "b333aa93c54af54d4cccb540495df842", "rental_uris": {"android": "https://dc.lft.to/lastmile_qr_scan", "ios": "https://dc.lft.to/lastmile_qr_scan"}, "name": "b333aa93c54af54d4cccb540495df842", "is_reserved": 0}, {"is_disabled": 0, "fusion_lon": 0.0, "fusion_lat": 0.0, "lat": 38.9055925, "type": "electric_scooter", "lon": -77.00580816666667, "bike_id": "b512d1d965a1c480057f4d3d2d1aaa0e", "rental_uris": {"android": "https://dc.lft.to/lastmile_qr_scan", "ios": "https://dc.lft.to/lastmile_qr_scan"}, "name": "b512d1d965a1c480057f4d3d2d1aaa0e", "is_reserved": 0}, {"is_disabled": 0, "fusion_lon": 0.0, "fusion_lat": 0.0, "lat": 38.89641366666667, "type": "electric_scooter", "lon": -77.0093, "bike_id": "82d9c9629436799659adda95c6b6f18e", "rental_uris": {"android": "https://dc.lft.to/lastmile_qr_scan", "ios": "https://dc.lft.to/lastmile_qr_scan"}, "name": "82d9c9629436799659adda95c6b6f18e", "is_reserved": 0}, {"is_disabled": 0, "fusion_lon": 0.0, "fusion_lat": 0.0, "lat": 38.84436433333333, "type": "electric_bike", "lon": -77.08585583333333, "bike_id": "1129fc0bc431424be9bfc8bd471b30fc", "rental_uris": {"android": "https://dc.lft.to/lastmile_qr_scan", "ios": "https://dc.lft.to/lastmile_qr_scan"}, "name": "1129fc0bc431424be9bfc8bd471b30fc", "is_reserved": 0}, {"is_disabled": 0, "fusion_lon": 0.0, "fusion_lat": 0.0, "lat": 38.9203205, "type": "electric_scooter", "lon": -77.01302116666666, "bike_id": "af6a42d4f864bf240528e7771a7cef6e", "rental_uris": {"android": "https://dc.lft.to/lastmile_qr_scan", "ios": "https://dc.lft.to/lastmile_qr_scan"}, "name": "af6a42d4f864bf240528e7771a7cef6e", "is_reserved": 0}, {"is_disabled": 0, "fusion_lon": 0.0, "fusion_lat": 0.0, "lat": 38.839341, "type": "electric_bike", "lon": -77.07913516666666, "bike_id": "fcec2938cbf00fce9ebf127b7e959c3f", "rental_uris": {"android": "https://dc.lft.to/lastmile_qr_scan", "ios": "https://dc.lft.to/lastmile_qr_scan"}, "name": "fcec2938cbf00fce9ebf127b7e959c3f", "is_reserved": 0}, {"is_disabled": 0, "fusion_lon": 0.0, "fusion_lat": 0.0, "lat": 38.903470666666664, "type": "electric_scooter", "lon": -77.03156583333333, "bike_id": "f5f8671247ed8b2c1e95a2dbcb30a0d7", "rental_uris": {"android": "https://dc.lft.to/lastmile_qr_scan", "ios": "https://dc.lft.to/lastmile_qr_scan"}, "name": "f5f8671247ed8b2c1e95a2dbcb30a0d7", "is_reserved": 0}, {"is_disabled": 0, "fusion_lon": 0.0, "fusion_lat": 0.0, "lat": 38.89565316666667, "type": "electric_scooter", "lon": -77.01114083333333, "bike_id": "821cd82ceea6d9728a2f5095922f9aa1", "rental_uris": {"android": "https://dc.lft.to/lastmile_qr_scan", "ios": "https://dc.lft.to/lastmile_qr_scan"}, "name": "821cd82ceea6d9728a2f5095922f9aa1", "is_reserved": 0}, {"is_disabled": 0, "fusion_lon": 0.0, "fusion_lat": 0.0, "lat": 38.8922445, "type": "electric_scooter", "lon": -77.02226883333333, "bike_id": "d32604bb8074f218f0c1be442adac9bb", "rental_uris": {"android": "https://dc.lft.to/lastmile_qr_scan", "ios": "https://dc.lft.to/lastmile_qr_scan"}, "name": "d32604bb8074f218f0c1be442adac9bb", "is_reserved": 0}, {"is_disabled": 0, "fusion_lon": 0.0, "fusion_lat": 0.0, "lat": 38.8205025, "type": "electric_bike", "lon": -77.05316933333333, "bike_id": "9fd96cfdc5b3de3fa2ffe20e109e84c6", "rental_uris": {"android": "https://dc.lft.to/lastmile_qr_scan", "ios": "https://dc.lft.to/lastmile_qr_scan"}, "name": "9fd96cfdc5b3de3fa2ffe20e109e84c6", "is_reserved": 0}, {"is_disabled": 0, "fusion_lon": 0.0, "fusion_lat": 0.0, "lat": 38.972586666666665, "type": "electric_bike", "lon": -76.99168, "bike_id": "ca6e1ea7bad11b71053f1ec6d31153f7", "rental_uris": {"android": "https://dc.lft.to/lastmile_qr_scan", "ios": "https://dc.lft.to/lastmile_qr_scan"}, "name": "ca6e1ea7bad11b71053f1ec6d31153f7", "is_reserved": 0}, {"is_disabled": 0, "fusion_lon": 0.0, "fusion_lat": 0.0, "lat": 38.866251166666665, "type": "electric_scooter", "lon": -76.98721516666667, "bike_id": "a9cf368161327d871c048775e79d09d9", "rental_uris": {"android": "https://dc.lft.to/lastmile_qr_scan", "ios": "https://dc.lft.to/lastmile_qr_scan"}, "name": "a9cf368161327d871c048775e79d09d9", "is_reserved": 0}, {"is_disabled": 0, "fusion_lon": 0.0, "fusion_lat": 0.0, "lat": 38.916113333333335, "type": "electric_scooter", "lon": -77.01117966666666, "bike_id": "fd5d0771e34215ebad14b9ec1fdded18", "rental_uris": {"android": "https://dc.lft.to/lastmile_qr_scan", "ios": "https://dc.lft.to/lastmile_qr_scan"}, "name": "fd5d0771e34215ebad14b9ec1fdded18", "is_reserved": 0}, {"is_disabled": 0, "fusion_lon": 0.0, "fusion_lat": 0.0, "lat": 38.92419783333333, "type": "electric_scooter", "lon": -77.05076333333334, "bike_id": "32fbdcb687fd5fd8638c6dc6226fd398", "rental_uris": {"android": "https://dc.lft.to/lastmile_qr_scan", "ios": "https://dc.lft.to/lastmile_qr_scan"}, "name": "32fbdcb687fd5fd8638c6dc6226fd398", "is_reserved": 0}, {"is_disabled": 0, "fusion_lon": 0.0, "fusion_lat": 0.0, "lat": 38.899360333333334, "type": "electric_scooter", "lon": -77.040328, "bike_id": "bded9129f3ddea5ac00db16543dee400", "rental_uris": {"android": "https://dc.lft.to/lastmile_qr_scan", "ios": "https://dc.lft.to/lastmile_qr_scan"}, "name": "bded9129f3ddea5ac00db16543dee400", "is_reserved": 0}, {"is_disabled": 0, "fusion_lon": 0.0, "fusion_lat": 0.0, "lat": 38.927738833333336, "type": "electric_bike", "lon": -77.02305383333334, "bike_id": "e7dba27e2cefb0a596b01178710701fc", "rental_uris": {"android": "https://dc.lft.to/lastmile_qr_scan", "ios": "https://dc.lft.to/lastmile_qr_scan"}, "name": "e7dba27e2cefb0a596b01178710701fc", "is_reserved": 0}, {"is_disabled": 0, "fusion_lon": 0.0, "fusion_lat": 0.0, "lat": 38.87693616666667, "type": "electric_scooter", "lon": -77.01609916666666, "bike_id": "7e5184d7b895225c6d9794a95fffeaa0", "rental_uris": {"android": "https://dc.lft.to/lastmile_qr_scan", "ios": "https://dc.lft.to/lastmile_qr_scan"}, "name": "7e5184d7b895225c6d9794a95fffeaa0", "is_reserved": 0}, {"is_disabled": 0, "fusion_lon": 0.0, "fusion_lat": 0.0, "lat": 38.900291, "type": "electric_scooter", "lon": -76.99129733333334, "bike_id": "30ff30252e500bb691e4bced509c2237", "rental_uris": {"android": "https://dc.lft.to/lastmile_qr_scan", "ios": "https://dc.lft.to/lastmile_qr_scan"}, "name": "30ff30252e500bb691e4bced509c2237", "is_reserved": 0}, {"is_disabled": 0, "fusion_lon": 0.0, "fusion_lat": 0.0, "lat": 38.909896333333336, "type": "electric_scooter", "lon": -77.031783, "bike_id": "c5838862f130bb21293801b6b06ec27b", "rental_uris": {"android": "https://dc.lft.to/lastmile_qr_scan", "ios": "https://dc.lft.to/lastmile_qr_scan"}, "name": "c5838862f130bb21293801b6b06ec27b", "is_reserved": 0}, {"is_disabled": 0, "fusion_lon": 0.0, "fusion_lat": 0.0, "lat": 38.89222316666667, "type": "electric_scooter", "lon": -77.048013, "bike_id": "1da44acf3c3da537f37ced46d89c41ab", "rental_uris": {"android": "https://dc.lft.to/lastmile_qr_scan", "ios": "https://dc.lft.to/lastmile_qr_scan"}, "name": "1da44acf3c3da537f37ced46d89c41ab", "is_reserved": 0}, {"is_disabled": 0, "fusion_lon": 0.0, "fusion_lat": 0.0, "lat": 38.906604333333334, "type": "electric_scooter", "lon": -77.01216833333334, "bike_id": "e4436c8427e33dec58fd33b73b2bbb73", "rental_uris": {"android": "https://dc.lft.to/lastmile_qr_scan", "ios": "https://dc.lft.to/lastmile_qr_scan"}, "name": "e4436c8427e33dec58fd33b73b2bbb73", "is_reserved": 0}, {"is_disabled": 0, "fusion_lon": 0.0, "fusion_lat": 0.0, "lat": 38.84301416666667, "type": "electric_bike", "lon": -77.076568, "bike_id": "90d7921ba010eba3fcaca9dc923947ad", "rental_uris": {"android": "https://dc.lft.to/lastmile_qr_scan", "ios": "https://dc.lft.to/lastmile_qr_scan"}, "name": "90d7921ba010eba3fcaca9dc923947ad", "is_reserved": 0}, {"is_disabled": 0, "fusion_lon": 0.0, "fusion_lat": 0.0, "lat": 38.880405333333336, "type": "electric_bike", "lon": -76.99016766666666, "bike_id": "f62d68fba790f55f3299bd6b9abbee7e", "rental_uris": {"android": "https://dc.lft.to/lastmile_qr_scan", "ios": "https://dc.lft.to/lastmile_qr_scan"}, "name": "f62d68fba790f55f3299bd6b9abbee7e", "is_reserved": 0}, {"is_disabled": 0, "fusion_lon": 0.0, "fusion_lat": 0.0, "lat": 38.929056333333335, "type": "electric_scooter", "lon": -77.0319025, "bike_id": "553574dd5a830c90988997702193222a", "rental_uris": {"android": "https://dc.lft.to/lastmile_qr_scan", "ios": "https://dc.lft.to/lastmile_qr_scan"}, "name": "553574dd5a830c90988997702193222a", "is_reserved": 0}, {"is_disabled": 0, "fusion_lon": 0.0, "fusion_lat": 0.0, "lat": 38.9120325, "type": "electric_scooter", "lon": -77.04164666666667, "bike_id": "3c08ef394dc3f8b4faf1ac6b129a296f", "rental_uris": {"android": "https://dc.lft.to/lastmile_qr_scan", "ios": "https://dc.lft.to/lastmile_qr_scan"}, "name": "3c08ef394dc3f8b4faf1ac6b129a296f", "is_reserved": 0}, {"is_disabled": 0, "fusion_lon": 0.0, "fusion_lat": 0.0, "lat": 38.894639166666664, "type": "electric_scooter", "lon": -77.0220295, "bike_id": "28006b16d707f2df711618adff8e64d3", "rental_uris": {"android": "https://dc.lft.to/lastmile_qr_scan", "ios": "https://dc.lft.to/lastmile_qr_scan"}, "name": "28006b16d707f2df711618adff8e64d3", "is_reserved": 0}, {"is_disabled": 0, "fusion_lon": 0.0, "fusion_lat": 0.0, "lat": 38.963147666666664, "type": "electric_scooter", "lon": -77.07516266666667, "bike_id": "e75d9dc2ada8217bb67759ce76c413bf", "rental_uris": {"android": "https://dc.lft.to/lastmile_qr_scan", "ios": "https://dc.lft.to/lastmile_qr_scan"}, "name": "e75d9dc2ada8217bb67759ce76c413bf", "is_reserved": 0}, {"is_disabled": 0, "fusion_lon": 0.0, "fusion_lat": 0.0, "lat": 38.9035145, "type": "electric_scooter", "lon": -77.05344266666667, "bike_id": "aa85bbe0f4fa9343ab0e719ad2d234d1", "rental_uris": {"android": "https://dc.lft.to/lastmile_qr_scan", "ios": "https://dc.lft.to/lastmile_qr_scan"}, "name": "aa85bbe0f4fa9343ab0e719ad2d234d1", "is_reserved": 0}, {"is_disabled": 0, "fusion_lon": 0.0, "fusion_lat": 0.0, "lat": 38.929619333333335, "type": "electric_scooter", "lon": -77.03210683333333, "bike_id": "9d2c89385797514a0871c3f135749605", "rental_uris": {"android": "https://dc.lft.to/lastmile_qr_scan", "ios": "https://dc.lft.to/lastmile_qr_scan"}, "name": "9d2c89385797514a0871c3f135749605", "is_reserved": 0}, {"is_disabled": 0, "fusion_lon": 0.0, "fusion_lat": 0.0, "lat": 38.925285333333335, "type": "electric_scooter", "lon": -77.07318716666667, "bike_id": "38f14ce96b8802df823af36b2e44443a", "rental_uris": {"android": "https://dc.lft.to/lastmile_qr_scan", "ios": "https://dc.lft.to/lastmile_qr_scan"}, "name": "38f14ce96b8802df823af36b2e44443a", "is_reserved": 0}, {"is_disabled": 0, "fusion_lon": 0.0, "fusion_lat": 0.0, "lat": 38.945420166666665, "type": "electric_scooter", "lon": -77.0253595, "bike_id": "99563efc4a973ea59974084865847267", "rental_uris": {"android": "https://dc.lft.to/lastmile_qr_scan", "ios": "https://dc.lft.to/lastmile_qr_scan"}, "name": "99563efc4a973ea59974084865847267", "is_reserved": 0}, {"is_disabled": 0, "fusion_lon": 0.0, "fusion_lat": 0.0, "lat": 38.9361255, "type": "electric_scooter", "lon": -77.03754533333333, "bike_id": "3a50ef2876abbdc53206c3db4879664d", "rental_uris": {"android": "https://dc.lft.to/lastmile_qr_scan", "ios": "https://dc.lft.to/lastmile_qr_scan"}, "name": "3a50ef2876abbdc53206c3db4879664d", "is_reserved": 0}, {"is_disabled": 0, "fusion_lon": 0.0, "fusion_lat": 0.0, "lat": 38.9031565, "type": "electric_scooter", "lon": -77.03647833333333, "bike_id": "bb6b7e65dd7cef46dd6db48ce9fe011c", "rental_uris": {"android": "https://dc.lft.to/lastmile_qr_scan", "ios": "https://dc.lft.to/lastmile_qr_scan"}, "name": "bb6b7e65dd7cef46dd6db48ce9fe011c", "is_reserved": 0}, {"is_disabled": 0, "fusion_lon": 0.0, "fusion_lat": 0.0, "lat": 38.8669765, "type": "electric_scooter", "lon": -76.98712383333333, "bike_id": "bb208c52f758eabf52846ba3f4941150", "rental_uris": {"android": "https://dc.lft.to/lastmile_qr_scan", "ios": "https://dc.lft.to/lastmile_qr_scan"}, "name": "bb208c52f758eabf52846ba3f4941150", "is_reserved": 0}, {"is_disabled": 0, "fusion_lon": 0.0, "fusion_lat": 0.0, "lat": 38.90531933333333, "type": "electric_scooter", "lon": -77.043495, "bike_id": "b872176bf2ba7f228823581a0df17ad1", "rental_uris": {"android": "https://dc.lft.to/lastmile_qr_scan", "ios": "https://dc.lft.to/lastmile_qr_scan"}, "name": "b872176bf2ba7f228823581a0df17ad1", "is_reserved": 0}, {"is_disabled": 0, "fusion_lon": 0.0, "fusion_lat": 0.0, "lat": 38.908496166666666, "type": "electric_scooter", "lon": -77.02059916666667, "bike_id": "e1ab744e783dbf6be988e869049a2124", "rental_uris": {"android": "https://dc.lft.to/lastmile_qr_scan", "ios": "https://dc.lft.to/lastmile_qr_scan"}, "name": "e1ab744e783dbf6be988e869049a2124", "is_reserved": 0}, {"is_disabled": 0, "fusion_lon": 0.0, "fusion_lat": 0.0, "lat": 38.912773666666666, "type": "electric_scooter", "lon": -77.02255133333334, "bike_id": "80a46c15778889186227a8663f281370", "rental_uris": {"android": "https://dc.lft.to/lastmile_qr_scan", "ios": "https://dc.lft.to/lastmile_qr_scan"}, "name": "80a46c15778889186227a8663f281370", "is_reserved": 0}, {"is_disabled": 0, "fusion_lon": 0.0, "fusion_lat": 0.0, "lat": 38.930676166666665, "type": "electric_scooter", "lon": -77.03658583333333, "bike_id": "87caf7fadbae85705cdb315b002ce338", "rental_uris": {"android": "https://dc.lft.to/lastmile_qr_scan", "ios": "https://dc.lft.to/lastmile_qr_scan"}, "name": "87caf7fadbae85705cdb315b002ce338", "is_reserved": 0}, {"is_disabled": 0, "fusion_lon": 0.0, "fusion_lat": 0.0, "lat": 38.828749, "type": "electric_bike", "lon": -77.11231433333333, "bike_id": "aa2dde3bcbaba143386b2e3fca1b14e6", "rental_uris": {"android": "https://dc.lft.to/lastmile_qr_scan", "ios": "https://dc.lft.to/lastmile_qr_scan"}, "name": "aa2dde3bcbaba143386b2e3fca1b14e6", "is_reserved": 0}, {"is_disabled": 0, "fusion_lon": 0.0, "fusion_lat": 0.0, "lat": 38.9234085, "type": "electric_scooter", "lon": -77.03558833333334, "bike_id": "877b13d87ca2b6631c82dfac19716141", "rental_uris": {"android": "https://dc.lft.to/lastmile_qr_scan", "ios": "https://dc.lft.to/lastmile_qr_scan"}, "name": "877b13d87ca2b6631c82dfac19716141", "is_reserved": 0}, {"is_disabled": 0, "fusion_lon": 0.0, "fusion_lat": 0.0, "lat": 38.9078, "type": "electric_scooter", "lon": -77.03481333333333, "bike_id": "6d5b5a0a7800b96e295ec13c7fb83253", "rental_uris": {"android": "https://dc.lft.to/lastmile_qr_scan", "ios": "https://dc.lft.to/lastmile_qr_scan"}, "name": "6d5b5a0a7800b96e295ec13c7fb83253", "is_reserved": 0}, {"is_disabled": 0, "fusion_lon": 0.0, "fusion_lat": 0.0, "lat": 38.89850166666667, "type": "electric_scooter", "lon": -76.990353, "bike_id": "6d08462028ec092da643025f0a47d0b5", "rental_uris": {"android": "https://dc.lft.to/lastmile_qr_scan", "ios": "https://dc.lft.to/lastmile_qr_scan"}, "name": "6d08462028ec092da643025f0a47d0b5", "is_reserved": 0}, {"is_disabled": 0, "fusion_lon": 0.0, "fusion_lat": 0.0, "lat": 38.88263333333333, "type": "electric_scooter", "lon": -76.98546266666666, "bike_id": "9dd00b91b7708d0324714f31d0dd3a14", "rental_uris": {"android": "https://dc.lft.to/lastmile_qr_scan", "ios": "https://dc.lft.to/lastmile_qr_scan"}, "name": "9dd00b91b7708d0324714f31d0dd3a14", "is_reserved": 0}, {"is_disabled": 0, "fusion_lon": 0.0, "fusion_lat": 0.0, "lat": 38.897162, "type": "electric_scooter", "lon": -77.0215765, "bike_id": "703a80a1015973770ea1aaf710ea765f", "rental_uris": {"android": "https://dc.lft.to/lastmile_qr_scan", "ios": "https://dc.lft.to/lastmile_qr_scan"}, "name": "703a80a1015973770ea1aaf710ea765f", "is_reserved": 0}, {"is_disabled": 0, "fusion_lon": 0.0, "fusion_lat": 0.0, "lat": 38.926969, "type": "electric_scooter", "lon": -77.00612183333334, "bike_id": "947d37960261b903f918dec26766ed9d", "rental_uris": {"android": "https://dc.lft.to/lastmile_qr_scan", "ios": "https://dc.lft.to/lastmile_qr_scan"}, "name": "947d37960261b903f918dec26766ed9d", "is_reserved": 0}, {"is_disabled": 0, "fusion_lon": 0.0, "fusion_lat": 0.0, "lat": 38.93553883333333, "type": "electric_scooter", "lon": -77.02222833333333, "bike_id": "242b81bcd025cad34780940c4b21937e", "rental_uris": {"android": "https://dc.lft.to/lastmile_qr_scan", "ios": "https://dc.lft.to/lastmile_qr_scan"}, "name": "242b81bcd025cad34780940c4b21937e", "is_reserved": 0}, {"is_disabled": 0, "fusion_lon": 0.0, "fusion_lat": 0.0, "lat": 38.932801, "type": "electric_scooter", "lon": -77.039901, "bike_id": "6723ea7b0a79a97a735f123658772eb0", "rental_uris": {"android": "https://dc.lft.to/lastmile_qr_scan", "ios": "https://dc.lft.to/lastmile_qr_scan"}, "name": "6723ea7b0a79a97a735f123658772eb0", "is_reserved": 0}, {"is_disabled": 0, "fusion_lon": 0.0, "fusion_lat": 0.0, "lat": 38.9074355, "type": "electric_scooter", "lon": -77.04544533333333, "bike_id": "a26ff8d899faa343910e5712ea705c71", "rental_uris": {"android": "https://dc.lft.to/lastmile_qr_scan", "ios": "https://dc.lft.to/lastmile_qr_scan"}, "name": "a26ff8d899faa343910e5712ea705c71", "is_reserved": 0}, {"is_disabled": 0, "fusion_lon": 0.0, "fusion_lat": 0.0, "lat": 38.91497666666667, "type": "electric_scooter", "lon": -77.0385855, "bike_id": "22f4aba993c1eac9880ce9bd7611712d", "rental_uris": {"android": "https://dc.lft.to/lastmile_qr_scan", "ios": "https://dc.lft.to/lastmile_qr_scan"}, "name": "22f4aba993c1eac9880ce9bd7611712d", "is_reserved": 0}, {"is_disabled": 0, "fusion_lon": 0.0, "fusion_lat": 0.0, "lat": 38.908969, "type": "electric_scooter", "lon": -77.01895566666667, "bike_id": "e81d21453a648fa8d466aefa575bb4cf", "rental_uris": {"android": "https://dc.lft.to/lastmile_qr_scan", "ios": "https://dc.lft.to/lastmile_qr_scan"}, "name": "e81d21453a648fa8d466aefa575bb4cf", "is_reserved": 0}, {"is_disabled": 0, "fusion_lon": 0.0, "fusion_lat": 0.0, "lat": 38.91090633333334, "type": "electric_scooter", "lon": -77.02201133333334, "bike_id": "7d579c8502eb97ca8a89380bf906be33", "rental_uris": {"android": "https://dc.lft.to/lastmile_qr_scan", "ios": "https://dc.lft.to/lastmile_qr_scan"}, "name": "7d579c8502eb97ca8a89380bf906be33", "is_reserved": 0}, {"is_disabled": 0, "fusion_lon": 0.0, "fusion_lat": 0.0, "lat": 38.955525333333334, "type": "electric_bike", "lon": -76.93540883333333, "bike_id": "aedd15928371be2dfec99b8892352b08", "rental_uris": {"android": "https://dc.lft.to/lastmile_qr_scan", "ios": "https://dc.lft.to/lastmile_qr_scan"}, "name": "aedd15928371be2dfec99b8892352b08", "is_reserved": 0}, {"is_disabled": 0, "fusion_lon": 0.0, "fusion_lat": 0.0, "lat": 38.91641383333334, "type": "electric_scooter", "lon": -77.0478095, "bike_id": "1867264da728baf8aa00004c7c5b8255", "rental_uris": {"android": "https://dc.lft.to/lastmile_qr_scan", "ios": "https://dc.lft.to/lastmile_qr_scan"}, "name": "1867264da728baf8aa00004c7c5b8255", "is_reserved": 0}, {"is_disabled": 0, "fusion_lon": 0.0, "fusion_lat": 0.0, "lat": 38.90666616666667, "type": "electric_scooter", "lon": -77.02712116666666, "bike_id": "a88e362fa6a9fef9d879c6e1e008c592", "rental_uris": {"android": "https://dc.lft.to/lastmile_qr_scan", "ios": "https://dc.lft.to/lastmile_qr_scan"}, "name": "a88e362fa6a9fef9d879c6e1e008c592", "is_reserved": 0}, {"is_disabled": 0, "fusion_lon": 0.0, "fusion_lat": 0.0, "lat": 38.876241, "type": "electric_scooter", "lon": -76.96541583333334, "bike_id": "8f6480f048f8dfbbf17449faa2097966", "rental_uris": {"android": "https://dc.lft.to/lastmile_qr_scan", "ios": "https://dc.lft.to/lastmile_qr_scan"}, "name": "8f6480f048f8dfbbf17449faa2097966", "is_reserved": 0}, {"is_disabled": 0, "fusion_lon": 0.0, "fusion_lat": 0.0, "lat": 38.902457166666665, "type": "electric_bike", "lon": -76.97017533333333, "bike_id": "14a0a662d1865a6d04264fd71eb24d4f", "rental_uris": {"android": "https://dc.lft.to/lastmile_qr_scan", "ios": "https://dc.lft.to/lastmile_qr_scan"}, "name": "14a0a662d1865a6d04264fd71eb24d4f", "is_reserved": 0}, {"is_disabled": 0, "fusion_lon": 0.0, "fusion_lat": 0.0, "lat": 38.850424333333336, "type": "electric_bike", "lon": -77.10112333333333, "bike_id": "42d2384e6cda290abbdff83618303b6a", "rental_uris": {"android": "https://dc.lft.to/lastmile_qr_scan", "ios": "https://dc.lft.to/lastmile_qr_scan"}, "name": "42d2384e6cda290abbdff83618303b6a", "is_reserved": 0}, {"is_disabled": 0, "fusion_lon": 0.0, "fusion_lat": 0.0, "lat": 38.92867116666667, "type": "electric_scooter", "lon": -77.03426183333333, "bike_id": "c76684508dfa6f11a7e24e663d7025a4", "rental_uris": {"android": "https://dc.lft.to/lastmile_qr_scan", "ios": "https://dc.lft.to/lastmile_qr_scan"}, "name": "c76684508dfa6f11a7e24e663d7025a4", "is_reserved": 0}, {"is_disabled": 0, "fusion_lon": 0.0, "fusion_lat": 0.0, "lat": 38.8967845, "type": "electric_scooter", "lon": -76.97627833333334, "bike_id": "ca644e91933cbeca78a6c9b498049297", "rental_uris": {"android": "https://dc.lft.to/lastmile_qr_scan", "ios": "https://dc.lft.to/lastmile_qr_scan"}, "name": "ca644e91933cbeca78a6c9b498049297", "is_reserved": 0}, {"is_disabled": 0, "fusion_lon": 0.0, "fusion_lat": 0.0, "lat": 38.92828133333333, "type": "electric_scooter", "lon": -77.02156583333333, "bike_id": "251d5ad90414bfa266b611bce3579fbe", "rental_uris": {"android": "https://dc.lft.to/lastmile_qr_scan", "ios": "https://dc.lft.to/lastmile_qr_scan"}, "name": "251d5ad90414bfa266b611bce3579fbe", "is_reserved": 0}, {"is_disabled": 0, "fusion_lon": 0.0, "fusion_lat": 0.0, "lat": 38.8616815, "type": "electric_scooter", "lon": -76.96820433333333, "bike_id": "384c2e4fb8271b8f5281a09995cf994d", "rental_uris": {"android": "https://dc.lft.to/lastmile_qr_scan", "ios": "https://dc.lft.to/lastmile_qr_scan"}, "name": "384c2e4fb8271b8f5281a09995cf994d", "is_reserved": 0}, {"is_disabled": 0, "fusion_lon": 0.0, "fusion_lat": 0.0, "lat": 38.917200666666666, "type": "electric_scooter", "lon": -77.0228985, "bike_id": "284dbf12d445b751fb5a832eb5cb36f8", "rental_uris": {"android": "https://dc.lft.to/lastmile_qr_scan", "ios": "https://dc.lft.to/lastmile_qr_scan"}, "name": "284dbf12d445b751fb5a832eb5cb36f8", "is_reserved": 0}, {"is_disabled": 0, "fusion_lon": 0.0, "fusion_lat": 0.0, "lat": 38.97051416666667, "type": "electric_bike", "lon": -77.03088116666666, "bike_id": "bd8527ed243defc334b566d4e5e3df71", "rental_uris": {"android": "https://dc.lft.to/lastmile_qr_scan", "ios": "https://dc.lft.to/lastmile_qr_scan"}, "name": "bd8527ed243defc334b566d4e5e3df71", "is_reserved": 0}, {"is_disabled": 0, "fusion_lon": 0.0, "fusion_lat": 0.0, "lat": 38.91268083333333, "type": "electric_scooter", "lon": -77.011396, "bike_id": "4b9ef6d02ec51e77cc00d2d0fe501192", "rental_uris": {"android": "https://dc.lft.to/lastmile_qr_scan", "ios": "https://dc.lft.to/lastmile_qr_scan"}, "name": "4b9ef6d02ec51e77cc00d2d0fe501192", "is_reserved": 0}, {"is_disabled": 0, "fusion_lon": 0.0, "fusion_lat": 0.0, "lat": 38.900311, "type": "electric_scooter", "lon": -77.05614666666666, "bike_id": "7e683e9a9143d940b3f7633b0d948df3", "rental_uris": {"android": "https://dc.lft.to/lastmile_qr_scan", "ios": "https://dc.lft.to/lastmile_qr_scan"}, "name": "7e683e9a9143d940b3f7633b0d948df3", "is_reserved": 0}, {"is_disabled": 0, "fusion_lon": 0.0, "fusion_lat": 0.0, "lat": 38.914293666666666, "type": "electric_scooter", "lon": -77.02954566666666, "bike_id": "1a500d48eacc4301427379522bb32361", "rental_uris": {"android": "https://dc.lft.to/lastmile_qr_scan", "ios": "https://dc.lft.to/lastmile_qr_scan"}, "name": "1a500d48eacc4301427379522bb32361", "is_reserved": 0}, {"is_disabled": 0, "fusion_lon": 0.0, "fusion_lat": 0.0, "lat": 38.90494233333333, "type": "electric_scooter", "lon": -77.01992983333334, "bike_id": "af7a1ca2d4add9647e5f5a72ced027b2", "rental_uris": {"android": "https://dc.lft.to/lastmile_qr_scan", "ios": "https://dc.lft.to/lastmile_qr_scan"}, "name": "af7a1ca2d4add9647e5f5a72ced027b2", "is_reserved": 0}, {"is_disabled": 0, "fusion_lon": 0.0, "fusion_lat": 0.0, "lat": 38.916607166666665, "type": "electric_scooter", "lon": -77.02710416666666, "bike_id": "1427dc9a7376bc744031c0acdb9efb19", "rental_uris": {"android": "https://dc.lft.to/lastmile_qr_scan", "ios": "https://dc.lft.to/lastmile_qr_scan"}, "name": "1427dc9a7376bc744031c0acdb9efb19", "is_reserved": 0}, {"is_disabled": 0, "fusion_lon": 0.0, "fusion_lat": 0.0, "lat": 38.919182666666664, "type": "electric_scooter", "lon": -77.01346383333333, "bike_id": "13525d8a01ebea667e3cdc5f518e5d50", "rental_uris": {"android": "https://dc.lft.to/lastmile_qr_scan", "ios": "https://dc.lft.to/lastmile_qr_scan"}, "name": "13525d8a01ebea667e3cdc5f518e5d50", "is_reserved": 0}, {"is_disabled": 0, "fusion_lon": 0.0, "fusion_lat": 0.0, "lat": 38.90286666666667, "type": "electric_scooter", "lon": -77.024193, "bike_id": "95a64207ff9215b21e70bbc79f1d5385", "rental_uris": {"android": "https://dc.lft.to/lastmile_qr_scan", "ios": "https://dc.lft.to/lastmile_qr_scan"}, "name": "95a64207ff9215b21e70bbc79f1d5385", "is_reserved": 0}, {"is_disabled": 0, "fusion_lon": 0.0, "fusion_lat": 0.0, "lat": 38.92180066666667, "type": "electric_scooter", "lon": -77.04241066666667, "bike_id": "1adca21d2572b6e2c66fe3a27707e66d", "rental_uris": {"android": "https://dc.lft.to/lastmile_qr_scan", "ios": "https://dc.lft.to/lastmile_qr_scan"}, "name": "1adca21d2572b6e2c66fe3a27707e66d", "is_reserved": 0}, {"is_disabled": 0, "fusion_lon": 0.0, "fusion_lat": 0.0, "lat": 38.9222825, "type": "electric_scooter", "lon": -77.04715816666666, "bike_id": "d01dd0e724898854d5977318babfa125", "rental_uris": {"android": "https://dc.lft.to/lastmile_qr_scan", "ios": "https://dc.lft.to/lastmile_qr_scan"}, "name": "d01dd0e724898854d5977318babfa125", "is_reserved": 0}, {"is_disabled": 0, "fusion_lon": 0.0, "fusion_lat": 0.0, "lat": 38.91994016666666, "type": "electric_scooter", "lon": -76.97314383333334, "bike_id": "6667e617af03b6be4dc6dd844444f51e", "rental_uris": {"android": "https://dc.lft.to/lastmile_qr_scan", "ios": "https://dc.lft.to/lastmile_qr_scan"}, "name": "6667e617af03b6be4dc6dd844444f51e", "is_reserved": 0}, {"is_disabled": 0, "fusion_lon": 0.0, "fusion_lat": 0.0, "lat": 38.92614316666667, "type": "electric_scooter", "lon": -77.02166366666667, "bike_id": "61cb000f6c0d95a9ac7c94811f18a40d", "rental_uris": {"android": "https://dc.lft.to/lastmile_qr_scan", "ios": "https://dc.lft.to/lastmile_qr_scan"}, "name": "61cb000f6c0d95a9ac7c94811f18a40d", "is_reserved": 0}, {"is_disabled": 0, "fusion_lon": 0.0, "fusion_lat": 0.0, "lat": 38.96028033333333, "type": "electric_bike", "lon": -76.92709533333333, "bike_id": "cc6eaf3a543866219411572e893bf2cd", "rental_uris": {"android": "https://dc.lft.to/lastmile_qr_scan", "ios": "https://dc.lft.to/lastmile_qr_scan"}, "name": "cc6eaf3a543866219411572e893bf2cd", "is_reserved": 0}, {"is_disabled": 0, "fusion_lon": 0.0, "fusion_lat": 0.0, "lat": 38.89371783333333, "type": "electric_scooter", "lon": -76.97822683333334, "bike_id": "acd7d91e99fbdef4ea058e511ad12b64", "rental_uris": {"android": "https://dc.lft.to/lastmile_qr_scan", "ios": "https://dc.lft.to/lastmile_qr_scan"}, "name": "acd7d91e99fbdef4ea058e511ad12b64", "is_reserved": 0}, {"is_disabled": 0, "fusion_lon": 0.0, "fusion_lat": 0.0, "lat": 38.918776, "type": "electric_scooter", "lon": -77.035029, "bike_id": "3408f8ab785526f4fec5bd7a1a1869ce", "rental_uris": {"android": "https://dc.lft.to/lastmile_qr_scan", "ios": "https://dc.lft.to/lastmile_qr_scan"}, "name": "3408f8ab785526f4fec5bd7a1a1869ce", "is_reserved": 0}, {"is_disabled": 0, "fusion_lon": 0.0, "fusion_lat": 0.0, "lat": 38.916192333333335, "type": "electric_scooter", "lon": -77.0365965, "bike_id": "bfd768363749f608bea8f6214d9225d8", "rental_uris": {"android": "https://dc.lft.to/lastmile_qr_scan", "ios": "https://dc.lft.to/lastmile_qr_scan"}, "name": "bfd768363749f608bea8f6214d9225d8", "is_reserved": 0}, {"is_disabled": 0, "fusion_lon": 0.0, "fusion_lat": 0.0, "lat": 38.9160915, "type": "electric_scooter", "lon": -77.017365, "bike_id": "639a456d19218e8697621ae62485a0c7", "rental_uris": {"android": "https://dc.lft.to/lastmile_qr_scan", "ios": "https://dc.lft.to/lastmile_qr_scan"}, "name": "639a456d19218e8697621ae62485a0c7", "is_reserved": 0}, {"is_disabled": 0, "fusion_lon": 0.0, "fusion_lat": 0.0, "lat": 38.9404415, "type": "electric_scooter", "lon": -77.02907916666666, "bike_id": "c72351368118025bdc3085824e17aad7", "rental_uris": {"android": "https://dc.lft.to/lastmile_qr_scan", "ios": "https://dc.lft.to/lastmile_qr_scan"}, "name": "c72351368118025bdc3085824e17aad7", "is_reserved": 0}, {"is_disabled": 0, "fusion_lon": 0.0, "fusion_lat": 0.0, "lat": 38.923646833333336, "type": "electric_scooter", "lon": -77.08065516666667, "bike_id": "7f29c01d76a962b5c3fb656e59d86cc3", "rental_uris": {"android": "https://dc.lft.to/lastmile_qr_scan", "ios": "https://dc.lft.to/lastmile_qr_scan"}, "name": "7f29c01d76a962b5c3fb656e59d86cc3", "is_reserved": 0}, {"is_disabled": 0, "fusion_lon": 0.0, "fusion_lat": 0.0, "lat": 38.90044316666667, "type": "electric_scooter", "lon": -76.98827933333334, "bike_id": "8333f0aa54e3460efe04a7d5f0fd7bd5", "rental_uris": {"android": "https://dc.lft.to/lastmile_qr_scan", "ios": "https://dc.lft.to/lastmile_qr_scan"}, "name": "8333f0aa54e3460efe04a7d5f0fd7bd5", "is_reserved": 0}, {"is_disabled": 0, "fusion_lon": 0.0, "fusion_lat": 0.0, "lat": 38.922926833333335, "type": "electric_scooter", "lon": -77.03199, "bike_id": "493cdf039114a35762e718a168489199", "rental_uris": {"android": "https://dc.lft.to/lastmile_qr_scan", "ios": "https://dc.lft.to/lastmile_qr_scan"}, "name": "493cdf039114a35762e718a168489199", "is_reserved": 0}, {"is_disabled": 0, "fusion_lon": 0.0, "fusion_lat": 0.0, "lat": 38.85869316666667, "type": "electric_scooter", "lon": -76.99022483333333, "bike_id": "da817d25da4b64f3285b4e6e544ad932", "rental_uris": {"android": "https://dc.lft.to/lastmile_qr_scan", "ios": "https://dc.lft.to/lastmile_qr_scan"}, "name": "da817d25da4b64f3285b4e6e544ad932", "is_reserved": 0}, {"is_disabled": 0, "fusion_lon": 0.0, "fusion_lat": 0.0, "lat": 39.04134083333334, "type": "electric_bike", "lon": -76.9890525, "bike_id": "eebdde3e6998bfbf4f2cc3c6df8213bc", "rental_uris": {"android": "https://dc.lft.to/lastmile_qr_scan", "ios": "https://dc.lft.to/lastmile_qr_scan"}, "name": "eebdde3e6998bfbf4f2cc3c6df8213bc", "is_reserved": 0}, {"is_disabled": 0, "fusion_lon": 0.0, "fusion_lat": 0.0, "lat": 38.922371, "type": "electric_scooter", "lon": -77.04624766666667, "bike_id": "e2eeab9dd71dbab4261daa33384701df", "rental_uris": {"android": "https://dc.lft.to/lastmile_qr_scan", "ios": "https://dc.lft.to/lastmile_qr_scan"}, "name": "e2eeab9dd71dbab4261daa33384701df", "is_reserved": 0}, {"is_disabled": 0, "fusion_lon": 0.0, "fusion_lat": 0.0, "lat": 38.911384, "type": "electric_bike", "lon": -76.98813766666666, "bike_id": "26425d9f5c939be43e769008748851e5", "rental_uris": {"android": "https://dc.lft.to/lastmile_qr_scan", "ios": "https://dc.lft.to/lastmile_qr_scan"}, "name": "26425d9f5c939be43e769008748851e5", "is_reserved": 0}, {"is_disabled": 0, "fusion_lon": 0.0, "fusion_lat": 0.0, "lat": 38.907433166666664, "type": "electric_scooter", "lon": -77.0218495, "bike_id": "6baf388be640172cb8cb4cd61a8b4bbe", "rental_uris": {"android": "https://dc.lft.to/lastmile_qr_scan", "ios": "https://dc.lft.to/lastmile_qr_scan"}, "name": "6baf388be640172cb8cb4cd61a8b4bbe", "is_reserved": 0}, {"is_disabled": 0, "fusion_lon": 0.0, "fusion_lat": 0.0, "lat": 38.923746, "type": "electric_scooter", "lon": -77.05027283333334, "bike_id": "81775f2601d98e183dfd5b07dca7ea63", "rental_uris": {"android": "https://dc.lft.to/lastmile_qr_scan", "ios": "https://dc.lft.to/lastmile_qr_scan"}, "name": "81775f2601d98e183dfd5b07dca7ea63", "is_reserved": 0}, {"is_disabled": 0, "fusion_lon": 0.0, "fusion_lat": 0.0, "lat": 38.924192, "type": "electric_bike", "lon": -77.05053283333334, "bike_id": "6501d92b9d82b91eca6624096142b94e", "rental_uris": {"android": "https://dc.lft.to/lastmile_qr_scan", "ios": "https://dc.lft.to/lastmile_qr_scan"}, "name": "6501d92b9d82b91eca6624096142b94e", "is_reserved": 0}, {"is_disabled": 0, "fusion_lon": 0.0, "fusion_lat": 0.0, "lat": 38.90151383333333, "type": "electric_scooter", "lon": -77.031938, "bike_id": "8398a3fba3b15b84c2ff8be8b7d1fb07", "rental_uris": {"android": "https://dc.lft.to/lastmile_qr_scan", "ios": "https://dc.lft.to/lastmile_qr_scan"}, "name": "8398a3fba3b15b84c2ff8be8b7d1fb07", "is_reserved": 0}, {"is_disabled": 0, "fusion_lon": 0.0, "fusion_lat": 0.0, "lat": 38.922985, "type": "electric_scooter", "lon": -77.04145716666666, "bike_id": "7dc388918eed4d121c35c43dc1226b3a", "rental_uris": {"android": "https://dc.lft.to/lastmile_qr_scan", "ios": "https://dc.lft.to/lastmile_qr_scan"}, "name": "7dc388918eed4d121c35c43dc1226b3a", "is_reserved": 0}, {"is_disabled": 0, "fusion_lon": 0.0, "fusion_lat": 0.0, "lat": 38.895339, "type": "electric_scooter", "lon": -77.03351966666666, "bike_id": "21c2e7fd7f5b30f397c0df7c0311d76a", "rental_uris": {"android": "https://dc.lft.to/lastmile_qr_scan", "ios": "https://dc.lft.to/lastmile_qr_scan"}, "name": "21c2e7fd7f5b30f397c0df7c0311d76a", "is_reserved": 0}, {"is_disabled": 0, "fusion_lon": 0.0, "fusion_lat": 0.0, "lat": 38.947925166666664, "type": "electric_scooter", "lon": -77.03277983333334, "bike_id": "0318dd01beb784e129b0de18b9c72583", "rental_uris": {"android": "https://dc.lft.to/lastmile_qr_scan", "ios": "https://dc.lft.to/lastmile_qr_scan"}, "name": "0318dd01beb784e129b0de18b9c72583", "is_reserved": 0}, {"is_disabled": 0, "fusion_lon": 0.0, "fusion_lat": 0.0, "lat": 38.9110985, "type": "electric_scooter", "lon": -77.0505025, "bike_id": "6b52583f4fcea83b4e1f1c762f09821d", "rental_uris": {"android": "https://dc.lft.to/lastmile_qr_scan", "ios": "https://dc.lft.to/lastmile_qr_scan"}, "name": "6b52583f4fcea83b4e1f1c762f09821d", "is_reserved": 0}, {"is_disabled": 0, "fusion_lon": 0.0, "fusion_lat": 0.0, "lat": 38.917166, "type": "electric_scooter", "lon": -77.02792, "bike_id": "5b1c1086556efd2cdc05e857a3c6a855", "rental_uris": {"android": "https://dc.lft.to/lastmile_qr_scan", "ios": "https://dc.lft.to/lastmile_qr_scan"}, "name": "5b1c1086556efd2cdc05e857a3c6a855", "is_reserved": 0}, {"is_disabled": 0, "fusion_lon": 0.0, "fusion_lat": 0.0, "lat": 38.952260333333335, "type": "electric_scooter", "lon": -77.02761983333333, "bike_id": "745e60be1e8bbab92be72f866612751d", "rental_uris": {"android": "https://dc.lft.to/lastmile_qr_scan", "ios": "https://dc.lft.to/lastmile_qr_scan"}, "name": "745e60be1e8bbab92be72f866612751d", "is_reserved": 0}, {"is_disabled": 0, "fusion_lon": 0.0, "fusion_lat": 0.0, "lat": 38.906689666666665, "type": "electric_scooter", "lon": -77.0375765, "bike_id": "6612d22c45201804987a13a935468d59", "rental_uris": {"android": "https://dc.lft.to/lastmile_qr_scan", "ios": "https://dc.lft.to/lastmile_qr_scan"}, "name": "6612d22c45201804987a13a935468d59", "is_reserved": 0}, {"is_disabled": 0, "fusion_lon": 0.0, "fusion_lat": 0.0, "lat": 38.9440925, "type": "electric_scooter", "lon": -77.03834866666666, "bike_id": "a473366fd6858898ca4b2a35e92317b6", "rental_uris": {"android": "https://dc.lft.to/lastmile_qr_scan", "ios": "https://dc.lft.to/lastmile_qr_scan"}, "name": "a473366fd6858898ca4b2a35e92317b6", "is_reserved": 0}, {"is_disabled": 0, "fusion_lon": 0.0, "fusion_lat": 0.0, "lat": 38.961798333333334, "type": "electric_bike", "lon": -77.07389633333334, "bike_id": "f76831b9edc8944d3aeec5a7782c40b4", "rental_uris": {"android": "https://dc.lft.to/lastmile_qr_scan", "ios": "https://dc.lft.to/lastmile_qr_scan"}, "name": "f76831b9edc8944d3aeec5a7782c40b4", "is_reserved": 0}, {"is_disabled": 0, "fusion_lon": 0.0, "fusion_lat": 0.0, "lat": 38.9388355, "type": "electric_scooter", "lon": -77.016916, "bike_id": "3a45f2be77d9e87c534319cbec5cb4a6", "rental_uris": {"android": "https://dc.lft.to/lastmile_qr_scan", "ios": "https://dc.lft.to/lastmile_qr_scan"}, "name": "3a45f2be77d9e87c534319cbec5cb4a6", "is_reserved": 0}, {"is_disabled": 0, "fusion_lon": 0.0, "fusion_lat": 0.0, "lat": 38.92017833333333, "type": "electric_bike", "lon": -76.9730065, "bike_id": "3c7129d43088af3796843d2c6fab8a80", "rental_uris": {"android": "https://dc.lft.to/lastmile_qr_scan", "ios": "https://dc.lft.to/lastmile_qr_scan"}, "name": "3c7129d43088af3796843d2c6fab8a80", "is_reserved": 0}, {"is_disabled": 0, "fusion_lon": 0.0, "fusion_lat": 0.0, "lat": 38.900020833333336, "type": "electric_scooter", "lon": -77.05548333333333, "bike_id": "7cbda3f3a55f6dc26043c632954cc7ac", "rental_uris": {"android": "https://dc.lft.to/lastmile_qr_scan", "ios": "https://dc.lft.to/lastmile_qr_scan"}, "name": "7cbda3f3a55f6dc26043c632954cc7ac", "is_reserved": 0}, {"is_disabled": 0, "fusion_lon": 0.0, "fusion_lat": 0.0, "lat": 38.91415883333333, "type": "electric_scooter", "lon": -77.0222745, "bike_id": "d647c109c12c98a288de2ca1dd9c0c3c", "rental_uris": {"android": "https://dc.lft.to/lastmile_qr_scan", "ios": "https://dc.lft.to/lastmile_qr_scan"}, "name": "d647c109c12c98a288de2ca1dd9c0c3c", "is_reserved": 0}, {"is_disabled": 0, "fusion_lon": 0.0, "fusion_lat": 0.0, "lat": 38.91191933333333, "type": "electric_scooter", "lon": -77.04170333333333, "bike_id": "03c953a337808806318f13797c893b7d", "rental_uris": {"android": "https://dc.lft.to/lastmile_qr_scan", "ios": "https://dc.lft.to/lastmile_qr_scan"}, "name": "03c953a337808806318f13797c893b7d", "is_reserved": 0}, {"is_disabled": 0, "fusion_lon": 0.0, "fusion_lat": 0.0, "lat": 38.9094385, "type": "electric_scooter", "lon": -77.045699, "bike_id": "354662bc6395dd0cf708b54558272c59", "rental_uris": {"android": "https://dc.lft.to/lastmile_qr_scan", "ios": "https://dc.lft.to/lastmile_qr_scan"}, "name": "354662bc6395dd0cf708b54558272c59", "is_reserved": 0}, {"is_disabled": 0, "fusion_lon": 0.0, "fusion_lat": 0.0, "lat": 38.90853116666667, "type": "electric_scooter", "lon": -77.041736, "bike_id": "623d5568e52b5ab47bfff3e7e0aaaaa3", "rental_uris": {"android": "https://dc.lft.to/lastmile_qr_scan", "ios": "https://dc.lft.to/lastmile_qr_scan"}, "name": "623d5568e52b5ab47bfff3e7e0aaaaa3", "is_reserved": 0}, {"is_disabled": 0, "fusion_lon": 0.0, "fusion_lat": 0.0, "lat": 38.859712, "type": "electric_scooter", "lon": -76.98421066666667, "bike_id": "42be3bc3aee40964c7f023d99f12dcca", "rental_uris": {"android": "https://dc.lft.to/lastmile_qr_scan", "ios": "https://dc.lft.to/lastmile_qr_scan"}, "name": "42be3bc3aee40964c7f023d99f12dcca", "is_reserved": 0}, {"is_disabled": 0, "fusion_lon": 0.0, "fusion_lat": 0.0, "lat": 38.8506395, "type": "electric_bike", "lon": -76.97337083333333, "bike_id": "4f9f9889585decad56be1a5c7c76e4bc", "rental_uris": {"android": "https://dc.lft.to/lastmile_qr_scan", "ios": "https://dc.lft.to/lastmile_qr_scan"}, "name": "4f9f9889585decad56be1a5c7c76e4bc", "is_reserved": 0}, {"is_disabled": 0, "fusion_lon": 0.0, "fusion_lat": 0.0, "lat": 38.927389, "type": "electric_bike", "lon": -76.99364733333333, "bike_id": "a7ae5d3eb9fba2f897bc07a35ff8c7e6", "rental_uris": {"android": "https://dc.lft.to/lastmile_qr_scan", "ios": "https://dc.lft.to/lastmile_qr_scan"}, "name": "a7ae5d3eb9fba2f897bc07a35ff8c7e6", "is_reserved": 0}, {"is_disabled": 0, "fusion_lon": 0.0, "fusion_lat": 0.0, "lat": 38.91701833333333, "type": "electric_scooter", "lon": -77.02925516666667, "bike_id": "e4f4e314ec9b260282ca10086b0f99b1", "rental_uris": {"android": "https://dc.lft.to/lastmile_qr_scan", "ios": "https://dc.lft.to/lastmile_qr_scan"}, "name": "e4f4e314ec9b260282ca10086b0f99b1", "is_reserved": 0}, {"is_disabled": 0, "fusion_lon": 0.0, "fusion_lat": 0.0, "lat": 38.90567766666667, "type": "electric_scooter", "lon": -77.03316433333333, "bike_id": "ea5f50fee8e5526951e8f791c2872604", "rental_uris": {"android": "https://dc.lft.to/lastmile_qr_scan", "ios": "https://dc.lft.to/lastmile_qr_scan"}, "name": "ea5f50fee8e5526951e8f791c2872604", "is_reserved": 0}, {"is_disabled": 0, "fusion_lon": 0.0, "fusion_lat": 0.0, "lat": 38.91722133333333, "type": "electric_scooter", "lon": -77.02304283333334, "bike_id": "0635351ded5f616809b619cec087f630", "rental_uris": {"android": "https://dc.lft.to/lastmile_qr_scan", "ios": "https://dc.lft.to/lastmile_qr_scan"}, "name": "0635351ded5f616809b619cec087f630", "is_reserved": 0}, {"is_disabled": 0, "fusion_lon": 0.0, "fusion_lat": 0.0, "lat": 38.917248666666666, "type": "electric_scooter", "lon": -77.02804983333333, "bike_id": "f9b505f66e9421ca10072c411e49c8ff", "rental_uris": {"android": "https://dc.lft.to/lastmile_qr_scan", "ios": "https://dc.lft.to/lastmile_qr_scan"}, "name": "f9b505f66e9421ca10072c411e49c8ff", "is_reserved": 0}, {"is_disabled": 0, "fusion_lon": 0.0, "fusion_lat": 0.0, "lat": 38.918055, "type": "electric_scooter", "lon": -77.02696983333334, "bike_id": "3d3ffdedfd61576a410b5bc7bf4423e6", "rental_uris": {"android": "https://dc.lft.to/lastmile_qr_scan", "ios": "https://dc.lft.to/lastmile_qr_scan"}, "name": "3d3ffdedfd61576a410b5bc7bf4423e6", "is_reserved": 0}, {"is_disabled": 0, "fusion_lon": 0.0, "fusion_lat": 0.0, "lat": 38.907238166666666, "type": "electric_scooter", "lon": -77.02441233333333, "bike_id": "abfbf96ca6ffbb477ef5b751746e4036", "rental_uris": {"android": "https://dc.lft.to/lastmile_qr_scan", "ios": "https://dc.lft.to/lastmile_qr_scan"}, "name": "abfbf96ca6ffbb477ef5b751746e4036", "is_reserved": 0}, {"is_disabled": 0, "fusion_lon": 0.0, "fusion_lat": 0.0, "lat": 38.935304333333335, "type": "electric_scooter", "lon": -77.037128, "bike_id": "06048a3b5651edd10973d378a45b2bf5", "rental_uris": {"android": "https://dc.lft.to/lastmile_qr_scan", "ios": "https://dc.lft.to/lastmile_qr_scan"}, "name": "06048a3b5651edd10973d378a45b2bf5", "is_reserved": 0}, {"is_disabled": 0, "fusion_lon": 0.0, "fusion_lat": 0.0, "lat": 38.93220383333333, "type": "electric_scooter", "lon": -77.032696, "bike_id": "17fc9b6bfdec43894c90d41855414710", "rental_uris": {"android": "https://dc.lft.to/lastmile_qr_scan", "ios": "https://dc.lft.to/lastmile_qr_scan"}, "name": "17fc9b6bfdec43894c90d41855414710", "is_reserved": 0}, {"is_disabled": 0, "fusion_lon": 0.0, "fusion_lat": 0.0, "lat": 38.918728, "type": "electric_scooter", "lon": -77.044957, "bike_id": "23e4faacaea4df26d817ba62454ca3bc", "rental_uris": {"android": "https://dc.lft.to/lastmile_qr_scan", "ios": "https://dc.lft.to/lastmile_qr_scan"}, "name": "23e4faacaea4df26d817ba62454ca3bc", "is_reserved": 0}, {"is_disabled": 0, "fusion_lon": 0.0, "fusion_lat": 0.0, "lat": 38.9498575, "type": "electric_scooter", "lon": -77.02702, "bike_id": "69789e335ffaf60d180d92f3d170db13", "rental_uris": {"android": "https://dc.lft.to/lastmile_qr_scan", "ios": "https://dc.lft.to/lastmile_qr_scan"}, "name": "69789e335ffaf60d180d92f3d170db13", "is_reserved": 0}, {"is_disabled": 0, "fusion_lon": 0.0, "fusion_lat": 0.0, "lat": 38.96191833333334, "type": "electric_scooter", "lon": -77.0279825, "bike_id": "fbe52450feabfca8998d5f62f9437e93", "rental_uris": {"android": "https://dc.lft.to/lastmile_qr_scan", "ios": "https://dc.lft.to/lastmile_qr_scan"}, "name": "fbe52450feabfca8998d5f62f9437e93", "is_reserved": 0}, {"is_disabled": 0, "fusion_lon": 0.0, "fusion_lat": 0.0, "lat": 38.87828783333333, "type": "electric_scooter", "lon": -76.96309483333333, "bike_id": "8e254180da3693961f1e836f08d18d7b", "rental_uris": {"android": "https://dc.lft.to/lastmile_qr_scan", "ios": "https://dc.lft.to/lastmile_qr_scan"}, "name": "8e254180da3693961f1e836f08d18d7b", "is_reserved": 0}, {"is_disabled": 0, "fusion_lon": 0.0, "fusion_lat": 0.0, "lat": 38.90960233333333, "type": "electric_scooter", "lon": -77.02308116666667, "bike_id": "8ddf5b228943dbbf21aab5ff7efe0a5a", "rental_uris": {"android": "https://dc.lft.to/lastmile_qr_scan", "ios": "https://dc.lft.to/lastmile_qr_scan"}, "name": "8ddf5b228943dbbf21aab5ff7efe0a5a", "is_reserved": 0}, {"is_disabled": 0, "fusion_lon": 0.0, "fusion_lat": 0.0, "lat": 38.90277716666667, "type": "electric_scooter", "lon": -77.01739183333333, "bike_id": "8b5260937bc0508a5e2d76ca2fd3d705", "rental_uris": {"android": "https://dc.lft.to/lastmile_qr_scan", "ios": "https://dc.lft.to/lastmile_qr_scan"}, "name": "8b5260937bc0508a5e2d76ca2fd3d705", "is_reserved": 0}, {"is_disabled": 0, "fusion_lon": 0.0, "fusion_lat": 0.0, "lat": 38.90275416666667, "type": "electric_scooter", "lon": -77.03483933333334, "bike_id": "10806fd5c65566956ca2787b56be8d5e", "rental_uris": {"android": "https://dc.lft.to/lastmile_qr_scan", "ios": "https://dc.lft.to/lastmile_qr_scan"}, "name": "10806fd5c65566956ca2787b56be8d5e", "is_reserved": 0}, {"is_disabled": 0, "fusion_lon": 0.0, "fusion_lat": 0.0, "lat": 38.86046016666667, "type": "electric_scooter", "lon": -76.98381516666667, "bike_id": "1c59d3553983038c56052ce0597fe9f7", "rental_uris": {"android": "https://dc.lft.to/lastmile_qr_scan", "ios": "https://dc.lft.to/lastmile_qr_scan"}, "name": "1c59d3553983038c56052ce0597fe9f7", "is_reserved": 0}, {"is_disabled": 0, "fusion_lon": 0.0, "fusion_lat": 0.0, "lat": 38.865085, "type": "electric_scooter", "lon": -76.97343316666667, "bike_id": "cb8107badedc2d01d6745984a35e3420", "rental_uris": {"android": "https://dc.lft.to/lastmile_qr_scan", "ios": "https://dc.lft.to/lastmile_qr_scan"}, "name": "cb8107badedc2d01d6745984a35e3420", "is_reserved": 0}, {"is_disabled": 0, "fusion_lon": 0.0, "fusion_lat": 0.0, "lat": 38.85837033333333, "type": "electric_scooter", "lon": -76.99070333333333, "bike_id": "df710efa35febe9763c38d9ef42a2f94", "rental_uris": {"android": "https://dc.lft.to/lastmile_qr_scan", "ios": "https://dc.lft.to/lastmile_qr_scan"}, "name": "df710efa35febe9763c38d9ef42a2f94", "is_reserved": 0}, {"is_disabled": 0, "fusion_lon": 0.0, "fusion_lat": 0.0, "lat": 38.949857, "type": "electric_scooter", "lon": -77.02696316666666, "bike_id": "be7a6aea758b4394cf16d0f5d742cb87", "rental_uris": {"android": "https://dc.lft.to/lastmile_qr_scan", "ios": "https://dc.lft.to/lastmile_qr_scan"}, "name": "be7a6aea758b4394cf16d0f5d742cb87", "is_reserved": 0}, {"is_disabled": 0, "fusion_lon": 0.0, "fusion_lat": 0.0, "lat": 38.9246985, "type": "electric_scooter", "lon": -77.02203916666667, "bike_id": "536e704583cf03ab7f5297f7e3c287c0", "rental_uris": {"android": "https://dc.lft.to/lastmile_qr_scan", "ios": "https://dc.lft.to/lastmile_qr_scan"}, "name": "536e704583cf03ab7f5297f7e3c287c0", "is_reserved": 0}, {"is_disabled": 0, "fusion_lon": 0.0, "fusion_lat": 0.0, "lat": 38.96217016666667, "type": "electric_scooter", "lon": -77.02810983333333, "bike_id": "d38b751d3991a1fa1d2e47fc577678cc", "rental_uris": {"android": "https://dc.lft.to/lastmile_qr_scan", "ios": "https://dc.lft.to/lastmile_qr_scan"}, "name": "d38b751d3991a1fa1d2e47fc577678cc", "is_reserved": 0}, {"is_disabled": 0, "fusion_lon": 0.0, "fusion_lat": 0.0, "lat": 38.929962333333336, "type": "electric_scooter", "lon": -77.02403816666667, "bike_id": "f907a5624b56b5a93052f412ee2d7721", "rental_uris": {"android": "https://dc.lft.to/lastmile_qr_scan", "ios": "https://dc.lft.to/lastmile_qr_scan"}, "name": "f907a5624b56b5a93052f412ee2d7721", "is_reserved": 0}, {"is_disabled": 0, "fusion_lon": 0.0, "fusion_lat": 0.0, "lat": 38.905059333333334, "type": "electric_scooter", "lon": -77.029541, "bike_id": "f713eddfd64c2170bb1d00a9712a832a", "rental_uris": {"android": "https://dc.lft.to/lastmile_qr_scan", "ios": "https://dc.lft.to/lastmile_qr_scan"}, "name": "f713eddfd64c2170bb1d00a9712a832a", "is_reserved": 0}, {"is_disabled": 0, "fusion_lon": 0.0, "fusion_lat": 0.0, "lat": 38.91257016666667, "type": "electric_scooter", "lon": -77.03043366666667, "bike_id": "276f090ea0e1d6e7bc9207a456bd8daf", "rental_uris": {"android": "https://dc.lft.to/lastmile_qr_scan", "ios": "https://dc.lft.to/lastmile_qr_scan"}, "name": "276f090ea0e1d6e7bc9207a456bd8daf", "is_reserved": 0}, {"is_disabled": 0, "fusion_lon": 0.0, "fusion_lat": 0.0, "lat": 38.925726833333336, "type": "electric_scooter", "lon": -77.03777916666667, "bike_id": "6532aa9d8bc6bb05602e48a9dd79f677", "rental_uris": {"android": "https://dc.lft.to/lastmile_qr_scan", "ios": "https://dc.lft.to/lastmile_qr_scan"}, "name": "6532aa9d8bc6bb05602e48a9dd79f677", "is_reserved": 0}, {"is_disabled": 0, "fusion_lon": 0.0, "fusion_lat": 0.0, "lat": 38.93090083333333, "type": "electric_scooter", "lon": -77.02471266666667, "bike_id": "96b019023e33e4b0820cb27859f4eaaf", "rental_uris": {"android": "https://dc.lft.to/lastmile_qr_scan", "ios": "https://dc.lft.to/lastmile_qr_scan"}, "name": "96b019023e33e4b0820cb27859f4eaaf", "is_reserved": 0}, {"is_disabled": 0, "fusion_lon": 0.0, "fusion_lat": 0.0, "lat": 38.845995333333335, "type": "electric_bike", "lon": -76.9687935, "bike_id": "bd5bc783224bdaf2eb59c773a71d95e4", "rental_uris": {"android": "https://dc.lft.to/lastmile_qr_scan", "ios": "https://dc.lft.to/lastmile_qr_scan"}, "name": "bd5bc783224bdaf2eb59c773a71d95e4", "is_reserved": 0}, {"is_disabled": 0, "fusion_lon": 0.0, "fusion_lat": 0.0, "lat": 38.894981, "type": "electric_scooter", "lon": -77.00947716666667, "bike_id": "98515d7f244323f2c14b8450c511c0d2", "rental_uris": {"android": "https://dc.lft.to/lastmile_qr_scan", "ios": "https://dc.lft.to/lastmile_qr_scan"}, "name": "98515d7f244323f2c14b8450c511c0d2", "is_reserved": 0}, {"is_disabled": 0, "fusion_lon": 0.0, "fusion_lat": 0.0, "lat": 38.9125355, "type": "electric_scooter", "lon": -77.0065105, "bike_id": "afe25c29352337c5df7bcfd13c06d5bc", "rental_uris": {"android": "https://dc.lft.to/lastmile_qr_scan", "ios": "https://dc.lft.to/lastmile_qr_scan"}, "name": "afe25c29352337c5df7bcfd13c06d5bc", "is_reserved": 0}, {"is_disabled": 0, "fusion_lon": 0.0, "fusion_lat": 0.0, "lat": 38.875213333333335, "type": "electric_bike", "lon": -77.008275, "bike_id": "d0517f88183fdda44bfb8a1d4418d0eb", "rental_uris": {"android": "https://dc.lft.to/lastmile_qr_scan", "ios": "https://dc.lft.to/lastmile_qr_scan"}, "name": "d0517f88183fdda44bfb8a1d4418d0eb", "is_reserved": 0}, {"is_disabled": 0, "fusion_lon": 0.0, "fusion_lat": 0.0, "lat": 38.90048516666667, "type": "electric_scooter", "lon": -76.983219, "bike_id": "41e10fa9d3d4fc0f85d636a8a82d30cd", "rental_uris": {"android": "https://dc.lft.to/lastmile_qr_scan", "ios": "https://dc.lft.to/lastmile_qr_scan"}, "name": "41e10fa9d3d4fc0f85d636a8a82d30cd", "is_reserved": 0}, {"is_disabled": 0, "fusion_lon": 0.0, "fusion_lat": 0.0, "lat": 38.9232625, "type": "electric_scooter", "lon": -77.04520783333334, "bike_id": "e62ee8c995ce1e435f746af8f72985c6", "rental_uris": {"android": "https://dc.lft.to/lastmile_qr_scan", "ios": "https://dc.lft.to/lastmile_qr_scan"}, "name": "e62ee8c995ce1e435f746af8f72985c6", "is_reserved": 0}, {"is_disabled": 0, "fusion_lon": 0.0, "fusion_lat": 0.0, "lat": 38.90379316666667, "type": "electric_scooter", "lon": -77.028302, "bike_id": "74c33c687ed18abbadb673bb25887229", "rental_uris": {"android": "https://dc.lft.to/lastmile_qr_scan", "ios": "https://dc.lft.to/lastmile_qr_scan"}, "name": "74c33c687ed18abbadb673bb25887229", "is_reserved": 0}, {"is_disabled": 0, "fusion_lon": 0.0, "fusion_lat": 0.0, "lat": 38.91209666666666, "type": "electric_scooter", "lon": -77.03847733333333, "bike_id": "2d22db6e91dfa5147f96dd4cf30d3c4c", "rental_uris": {"android": "https://dc.lft.to/lastmile_qr_scan", "ios": "https://dc.lft.to/lastmile_qr_scan"}, "name": "2d22db6e91dfa5147f96dd4cf30d3c4c", "is_reserved": 0}, {"is_disabled": 0, "fusion_lon": 0.0, "fusion_lat": 0.0, "lat": 38.909600166666664, "type": "electric_scooter", "lon": -77.0813225, "bike_id": "2a76f1bba93fc4d151a8c4472c071bd5", "rental_uris": {"android": "https://dc.lft.to/lastmile_qr_scan", "ios": "https://dc.lft.to/lastmile_qr_scan"}, "name": "2a76f1bba93fc4d151a8c4472c071bd5", "is_reserved": 0}, {"is_disabled": 0, "fusion_lon": 0.0, "fusion_lat": 0.0, "lat": 38.906626, "type": "electric_scooter", "lon": -77.026951, "bike_id": "e3336eab917a659b6e2254fe6970db63", "rental_uris": {"android": "https://dc.lft.to/lastmile_qr_scan", "ios": "https://dc.lft.to/lastmile_qr_scan"}, "name": "e3336eab917a659b6e2254fe6970db63", "is_reserved": 0}, {"is_disabled": 0, "fusion_lon": 0.0, "fusion_lat": 0.0, "lat": 38.88375833333333, "type": "electric_scooter", "lon": -76.9237635, "bike_id": "329fc3035e4b0f7717d735a95343e897", "rental_uris": {"android": "https://dc.lft.to/lastmile_qr_scan", "ios": "https://dc.lft.to/lastmile_qr_scan"}, "name": "329fc3035e4b0f7717d735a95343e897", "is_reserved": 0}, {"is_disabled": 0, "fusion_lon": 0.0, "fusion_lat": 0.0, "lat": 38.93980466666667, "type": "electric_scooter", "lon": -77.03040416666667, "bike_id": "4c2e8873a1b47361fac34f0b07987772", "rental_uris": {"android": "https://dc.lft.to/lastmile_qr_scan", "ios": "https://dc.lft.to/lastmile_qr_scan"}, "name": "4c2e8873a1b47361fac34f0b07987772", "is_reserved": 0}, {"is_disabled": 0, "fusion_lon": 0.0, "fusion_lat": 0.0, "lat": 38.912010333333335, "type": "electric_bike", "lon": -77.00434933333334, "bike_id": "4798fac9d835d81b59fbf9aa58a235cb", "rental_uris": {"android": "https://dc.lft.to/lastmile_qr_scan", "ios": "https://dc.lft.to/lastmile_qr_scan"}, "name": "4798fac9d835d81b59fbf9aa58a235cb", "is_reserved": 0}, {"is_disabled": 0, "fusion_lon": 0.0, "fusion_lat": 0.0, "lat": 38.9119625, "type": "electric_scooter", "lon": -77.03863033333333, "bike_id": "e6ec59a5cf02581f4307ba40618cf6b7", "rental_uris": {"android": "https://dc.lft.to/lastmile_qr_scan", "ios": "https://dc.lft.to/lastmile_qr_scan"}, "name": "e6ec59a5cf02581f4307ba40618cf6b7", "is_reserved": 0}, {"is_disabled": 0, "fusion_lon": 0.0, "fusion_lat": 0.0, "lat": 38.91658566666667, "type": "electric_scooter", "lon": -77.046647, "bike_id": "2d42d2db8321bad4bfc0ac570d06ba66", "rental_uris": {"android": "https://dc.lft.to/lastmile_qr_scan", "ios": "https://dc.lft.to/lastmile_qr_scan"}, "name": "2d42d2db8321bad4bfc0ac570d06ba66", "is_reserved": 0}, {"is_disabled": 0, "fusion_lon": 0.0, "fusion_lat": 0.0, "lat": 38.90967666666667, "type": "electric_scooter", "lon": -77.0192895, "bike_id": "82831e42edb89c0d83191c2eaebdd866", "rental_uris": {"android": "https://dc.lft.to/lastmile_qr_scan", "ios": "https://dc.lft.to/lastmile_qr_scan"}, "name": "82831e42edb89c0d83191c2eaebdd866", "is_reserved": 0}, {"is_disabled": 0, "fusion_lon": 0.0, "fusion_lat": 0.0, "lat": 38.917201166666665, "type": "electric_scooter", "lon": -77.02614466666667, "bike_id": "ca4085d194a336c2b25384046fabec7f", "rental_uris": {"android": "https://dc.lft.to/lastmile_qr_scan", "ios": "https://dc.lft.to/lastmile_qr_scan"}, "name": "ca4085d194a336c2b25384046fabec7f", "is_reserved": 0}, {"is_disabled": 0, "fusion_lon": 0.0, "fusion_lat": 0.0, "lat": 38.912553833333334, "type": "electric_scooter", "lon": -77.03828966666667, "bike_id": "a00c8c1eca3ac1ce6b5953d6b5e6a507", "rental_uris": {"android": "https://dc.lft.to/lastmile_qr_scan", "ios": "https://dc.lft.to/lastmile_qr_scan"}, "name": "a00c8c1eca3ac1ce6b5953d6b5e6a507", "is_reserved": 0}, {"is_disabled": 0, "fusion_lon": 0.0, "fusion_lat": 0.0, "lat": 38.90538516666667, "type": "electric_scooter", "lon": -77.0504075, "bike_id": "34b49fcbce64a93df27d2ba9722fa4cb", "rental_uris": {"android": "https://dc.lft.to/lastmile_qr_scan", "ios": "https://dc.lft.to/lastmile_qr_scan"}, "name": "34b49fcbce64a93df27d2ba9722fa4cb", "is_reserved": 0}, {"is_disabled": 0, "fusion_lon": 0.0, "fusion_lat": 0.0, "lat": 38.9566115, "type": "electric_bike", "lon": -77.00230883333333, "bike_id": "35de13c64ec31f1e32f959a99da89462", "rental_uris": {"android": "https://dc.lft.to/lastmile_qr_scan", "ios": "https://dc.lft.to/lastmile_qr_scan"}, "name": "35de13c64ec31f1e32f959a99da89462", "is_reserved": 0}, {"is_disabled": 0, "fusion_lon": 0.0, "fusion_lat": 0.0, "lat": 38.92297516666667, "type": "electric_scooter", "lon": -77.041495, "bike_id": "9ead18be5d385234810ab215f6b013aa", "rental_uris": {"android": "https://dc.lft.to/lastmile_qr_scan", "ios": "https://dc.lft.to/lastmile_qr_scan"}, "name": "9ead18be5d385234810ab215f6b013aa", "is_reserved": 0}, {"is_disabled": 0, "fusion_lon": 0.0, "fusion_lat": 0.0, "lat": 38.899219333333335, "type": "electric_scooter", "lon": -76.99165966666666, "bike_id": "77e7feaa1520cb363079a01267dc3bb6", "rental_uris": {"android": "https://dc.lft.to/lastmile_qr_scan", "ios": "https://dc.lft.to/lastmile_qr_scan"}, "name": "77e7feaa1520cb363079a01267dc3bb6", "is_reserved": 0}, {"is_disabled": 0, "fusion_lon": 0.0, "fusion_lat": 0.0, "lat": 38.88756733333334, "type": "electric_scooter", "lon": -77.00239633333334, "bike_id": "b8290b994d7b29742c3b3e2de3b7e900", "rental_uris": {"android": "https://dc.lft.to/lastmile_qr_scan", "ios": "https://dc.lft.to/lastmile_qr_scan"}, "name": "b8290b994d7b29742c3b3e2de3b7e900", "is_reserved": 0}, {"is_disabled": 0, "fusion_lon": 0.0, "fusion_lat": 0.0, "lat": 38.907159666666665, "type": "electric_scooter", "lon": -77.02319966666667, "bike_id": "7d394bd8747819a61f463575e24982aa", "rental_uris": {"android": "https://dc.lft.to/lastmile_qr_scan", "ios": "https://dc.lft.to/lastmile_qr_scan"}, "name": "7d394bd8747819a61f463575e24982aa", "is_reserved": 0}, {"is_disabled": 0, "fusion_lon": 0.0, "fusion_lat": 0.0, "lat": 38.970576333333334, "type": "electric_bike", "lon": -76.96061883333333, "bike_id": "664f8331e9b0c9fab86e5689e1b3fc60", "rental_uris": {"android": "https://dc.lft.to/lastmile_qr_scan", "ios": "https://dc.lft.to/lastmile_qr_scan"}, "name": "664f8331e9b0c9fab86e5689e1b3fc60", "is_reserved": 0}, {"is_disabled": 0, "fusion_lon": 0.0, "fusion_lat": 0.0, "lat": 38.875492666666666, "type": "electric_scooter", "lon": -77.00466783333333, "bike_id": "27041b8d51bd6bcbf290a4857a7f82f3", "rental_uris": {"android": "https://dc.lft.to/lastmile_qr_scan", "ios": "https://dc.lft.to/lastmile_qr_scan"}, "name": "27041b8d51bd6bcbf290a4857a7f82f3", "is_reserved": 0}, {"is_disabled": 0, "fusion_lon": 0.0, "fusion_lat": 0.0, "lat": 38.92614916666667, "type": "electric_scooter", "lon": -76.98207233333333, "bike_id": "15fd818fa25f2496d4499c39a63cd23d", "rental_uris": {"android": "https://dc.lft.to/lastmile_qr_scan", "ios": "https://dc.lft.to/lastmile_qr_scan"}, "name": "15fd818fa25f2496d4499c39a63cd23d", "is_reserved": 0}, {"is_disabled": 0, "fusion_lon": 0.0, "fusion_lat": 0.0, "lat": 38.91734566666667, "type": "electric_scooter", "lon": -76.99181383333334, "bike_id": "98e377dfdbaf17f28823b6c33c2744d2", "rental_uris": {"android": "https://dc.lft.to/lastmile_qr_scan", "ios": "https://dc.lft.to/lastmile_qr_scan"}, "name": "98e377dfdbaf17f28823b6c33c2744d2", "is_reserved": 0}, {"is_disabled": 0, "fusion_lon": 0.0, "fusion_lat": 0.0, "lat": 38.888758, "type": "electric_scooter", "lon": -76.9864555, "bike_id": "b19d18b906ff2bc85a9c1160f966d956", "rental_uris": {"android": "https://dc.lft.to/lastmile_qr_scan", "ios": "https://dc.lft.to/lastmile_qr_scan"}, "name": "b19d18b906ff2bc85a9c1160f966d956", "is_reserved": 0}, {"is_disabled": 0, "fusion_lon": 0.0, "fusion_lat": 0.0, "lat": 38.9235095, "type": "electric_scooter", "lon": -77.04032833333333, "bike_id": "31c95c84718a718f54f99efbc05edad1", "rental_uris": {"android": "https://dc.lft.to/lastmile_qr_scan", "ios": "https://dc.lft.to/lastmile_qr_scan"}, "name": "31c95c84718a718f54f99efbc05edad1", "is_reserved": 0}, {"is_disabled": 0, "fusion_lon": 0.0, "fusion_lat": 0.0, "lat": 38.923778166666665, "type": "electric_scooter", "lon": -77.05266066666667, "bike_id": "b5fa3adb4d89522cdc419379ab7f2d63", "rental_uris": {"android": "https://dc.lft.to/lastmile_qr_scan", "ios": "https://dc.lft.to/lastmile_qr_scan"}, "name": "b5fa3adb4d89522cdc419379ab7f2d63", "is_reserved": 0}, {"is_disabled": 0, "fusion_lon": 0.0, "fusion_lat": 0.0, "lat": 38.894738333333336, "type": "electric_scooter", "lon": -76.94967933333334, "bike_id": "1fc156ea19cbc0ff40422071a8f77ba4", "rental_uris": {"android": "https://dc.lft.to/lastmile_qr_scan", "ios": "https://dc.lft.to/lastmile_qr_scan"}, "name": "1fc156ea19cbc0ff40422071a8f77ba4", "is_reserved": 0}, {"is_disabled": 0, "fusion_lon": 0.0, "fusion_lat": 0.0, "lat": 38.8851415, "type": "electric_scooter", "lon": -76.9985265, "bike_id": "1c99dd5bb060bad2a53e2a5e177e4b62", "rental_uris": {"android": "https://dc.lft.to/lastmile_qr_scan", "ios": "https://dc.lft.to/lastmile_qr_scan"}, "name": "1c99dd5bb060bad2a53e2a5e177e4b62", "is_reserved": 0}, {"is_disabled": 0, "fusion_lon": 0.0, "fusion_lat": 0.0, "lat": 38.9396345, "type": "electric_scooter", "lon": -77.03283883333333, "bike_id": "f103e7151a2db79d8190a3722e995ff5", "rental_uris": {"android": "https://dc.lft.to/lastmile_qr_scan", "ios": "https://dc.lft.to/lastmile_qr_scan"}, "name": "f103e7151a2db79d8190a3722e995ff5", "is_reserved": 0}, {"is_disabled": 0, "fusion_lon": 0.0, "fusion_lat": 0.0, "lat": 38.9140525, "type": "electric_scooter", "lon": -77.021808, "bike_id": "5222f47b95591f35a483e7d0921342a7", "rental_uris": {"android": "https://dc.lft.to/lastmile_qr_scan", "ios": "https://dc.lft.to/lastmile_qr_scan"}, "name": "5222f47b95591f35a483e7d0921342a7", "is_reserved": 0}, {"is_disabled": 0, "fusion_lon": 0.0, "fusion_lat": 0.0, "lat": 38.89797083333333, "type": "electric_scooter", "lon": -77.01184283333333, "bike_id": "936e12ec5fe8825f01bf264043b2cd1d", "rental_uris": {"android": "https://dc.lft.to/lastmile_qr_scan", "ios": "https://dc.lft.to/lastmile_qr_scan"}, "name": "936e12ec5fe8825f01bf264043b2cd1d", "is_reserved": 0}, {"is_disabled": 0, "fusion_lon": 0.0, "fusion_lat": 0.0, "lat": 38.926831, "type": "electric_scooter", "lon": -77.02259766666667, "bike_id": "7f540a50fcb67086919bf1047f9d4b08", "rental_uris": {"android": "https://dc.lft.to/lastmile_qr_scan", "ios": "https://dc.lft.to/lastmile_qr_scan"}, "name": "7f540a50fcb67086919bf1047f9d4b08", "is_reserved": 0}, {"is_disabled": 0, "fusion_lon": 0.0, "fusion_lat": 0.0, "lat": 38.8818795, "type": "electric_scooter", "lon": -77.00352466666666, "bike_id": "93bb03cc4c87dc742635f9b2c42fb494", "rental_uris": {"android": "https://dc.lft.to/lastmile_qr_scan", "ios": "https://dc.lft.to/lastmile_qr_scan"}, "name": "93bb03cc4c87dc742635f9b2c42fb494", "is_reserved": 0}, {"is_disabled": 0, "fusion_lon": 0.0, "fusion_lat": 0.0, "lat": 38.893759, "type": "electric_scooter", "lon": -76.95002216666667, "bike_id": "1c73b515384ebead57f10b59f0f8453c", "rental_uris": {"android": "https://dc.lft.to/lastmile_qr_scan", "ios": "https://dc.lft.to/lastmile_qr_scan"}, "name": "1c73b515384ebead57f10b59f0f8453c", "is_reserved": 0}, {"is_disabled": 0, "fusion_lon": 0.0, "fusion_lat": 0.0, "lat": 38.90224766666667, "type": "electric_scooter", "lon": -77.04564883333333, "bike_id": "cc71d6581a0f05e14863b7d7c667fd43", "rental_uris": {"android": "https://dc.lft.to/lastmile_qr_scan", "ios": "https://dc.lft.to/lastmile_qr_scan"}, "name": "cc71d6581a0f05e14863b7d7c667fd43", "is_reserved": 0}, {"is_disabled": 0, "fusion_lon": 0.0, "fusion_lat": 0.0, "lat": 38.9345665, "type": "electric_scooter", "lon": -77.07232916666666, "bike_id": "75ce4a77ded2af5f84ba09cbd61bc6c8", "rental_uris": {"android": "https://dc.lft.to/lastmile_qr_scan", "ios": "https://dc.lft.to/lastmile_qr_scan"}, "name": "75ce4a77ded2af5f84ba09cbd61bc6c8", "is_reserved": 0}, {"is_disabled": 0, "fusion_lon": 0.0, "fusion_lat": 0.0, "lat": 38.895632, "type": "electric_scooter", "lon": -77.04676116666667, "bike_id": "d1f1e2f5a47ae80b021e9b5fabcc5f90", "rental_uris": {"android": "https://dc.lft.to/lastmile_qr_scan", "ios": "https://dc.lft.to/lastmile_qr_scan"}, "name": "d1f1e2f5a47ae80b021e9b5fabcc5f90", "is_reserved": 0}, {"is_disabled": 0, "fusion_lon": 0.0, "fusion_lat": 0.0, "lat": 38.9004565, "type": "electric_scooter", "lon": -76.92275016666666, "bike_id": "b060d286656f064b27a6c4b6a7aa297f", "rental_uris": {"android": "https://dc.lft.to/lastmile_qr_scan", "ios": "https://dc.lft.to/lastmile_qr_scan"}, "name": "b060d286656f064b27a6c4b6a7aa297f", "is_reserved": 0}, {"is_disabled": 0, "fusion_lon": 0.0, "fusion_lat": 0.0, "lat": 38.92841416666667, "type": "electric_scooter", "lon": -77.01397366666667, "bike_id": "f9ac73268661373c8f202126be57b5bc", "rental_uris": {"android": "https://dc.lft.to/lastmile_qr_scan", "ios": "https://dc.lft.to/lastmile_qr_scan"}, "name": "f9ac73268661373c8f202126be57b5bc", "is_reserved": 0}, {"is_disabled": 0, "fusion_lon": 0.0, "fusion_lat": 0.0, "lat": 38.89250883333333, "type": "electric_scooter", "lon": -77.02805483333333, "bike_id": "3f69b4c6bbcfb73a554f387ca0490088", "rental_uris": {"android": "https://dc.lft.to/lastmile_qr_scan", "ios": "https://dc.lft.to/lastmile_qr_scan"}, "name": "3f69b4c6bbcfb73a554f387ca0490088", "is_reserved": 0}, {"is_disabled": 0, "fusion_lon": 0.0, "fusion_lat": 0.0, "lat": 38.93524583333333, "type": "electric_scooter", "lon": -77.02386883333334, "bike_id": "c0c1a5d8878a835026dfa8f45dd6813d", "rental_uris": {"android": "https://dc.lft.to/lastmile_qr_scan", "ios": "https://dc.lft.to/lastmile_qr_scan"}, "name": "c0c1a5d8878a835026dfa8f45dd6813d", "is_reserved": 0}, {"is_disabled": 0, "fusion_lon": 0.0, "fusion_lat": 0.0, "lat": 38.93191683333333, "type": "electric_scooter", "lon": -77.03267516666666, "bike_id": "3165971a99ad7b879ca0dc024de9dcfc", "rental_uris": {"android": "https://dc.lft.to/lastmile_qr_scan", "ios": "https://dc.lft.to/lastmile_qr_scan"}, "name": "3165971a99ad7b879ca0dc024de9dcfc", "is_reserved": 0}, {"is_disabled": 0, "fusion_lon": 0.0, "fusion_lat": 0.0, "lat": 38.91749266666667, "type": "electric_scooter", "lon": -77.02294833333333, "bike_id": "d2c4fb2a8ed2f1707fec145bf10397df", "rental_uris": {"android": "https://dc.lft.to/lastmile_qr_scan", "ios": "https://dc.lft.to/lastmile_qr_scan"}, "name": "d2c4fb2a8ed2f1707fec145bf10397df", "is_reserved": 0}, {"is_disabled": 0, "fusion_lon": 0.0, "fusion_lat": 0.0, "lat": 38.87622066666667, "type": "electric_scooter", "lon": -76.96541516666667, "bike_id": "f0efc5c1dd9c654431826965623192c8", "rental_uris": {"android": "https://dc.lft.to/lastmile_qr_scan", "ios": "https://dc.lft.to/lastmile_qr_scan"}, "name": "f0efc5c1dd9c654431826965623192c8", "is_reserved": 0}, {"is_disabled": 0, "fusion_lon": 0.0, "fusion_lat": 0.0, "lat": 38.9141515, "type": "electric_scooter", "lon": -77.04672483333333, "bike_id": "9113668ed1aca56b18fdef8f2bd61a7b", "rental_uris": {"android": "https://dc.lft.to/lastmile_qr_scan", "ios": "https://dc.lft.to/lastmile_qr_scan"}, "name": "9113668ed1aca56b18fdef8f2bd61a7b", "is_reserved": 0}, {"is_disabled": 0, "fusion_lon": 0.0, "fusion_lat": 0.0, "lat": 38.914061333333336, "type": "electric_scooter", "lon": -77.03273683333333, "bike_id": "f27b198f9c086a8dbdddce70f4a0fb2f", "rental_uris": {"android": "https://dc.lft.to/lastmile_qr_scan", "ios": "https://dc.lft.to/lastmile_qr_scan"}, "name": "f27b198f9c086a8dbdddce70f4a0fb2f", "is_reserved": 0}, {"is_disabled": 0, "fusion_lon": 0.0, "fusion_lat": 0.0, "lat": 38.90744816666667, "type": "electric_scooter", "lon": -77.04550666666667, "bike_id": "3bf5f123e751ef048ae90688b6717d4f", "rental_uris": {"android": "https://dc.lft.to/lastmile_qr_scan", "ios": "https://dc.lft.to/lastmile_qr_scan"}, "name": "3bf5f123e751ef048ae90688b6717d4f", "is_reserved": 0}, {"is_disabled": 0, "fusion_lon": 0.0, "fusion_lat": 0.0, "lat": 38.89565416666667, "type": "electric_scooter", "lon": -77.04188466666666, "bike_id": "1cb973f8039b9b27e1a9262eec84874f", "rental_uris": {"android": "https://dc.lft.to/lastmile_qr_scan", "ios": "https://dc.lft.to/lastmile_qr_scan"}, "name": "1cb973f8039b9b27e1a9262eec84874f", "is_reserved": 0}, {"is_disabled": 0, "fusion_lon": 0.0, "fusion_lat": 0.0, "lat": 38.9188185, "type": "electric_scooter", "lon": -77.040308, "bike_id": "00cf97608e3424225bfd0c71d40c5a57", "rental_uris": {"android": "https://dc.lft.to/lastmile_qr_scan", "ios": "https://dc.lft.to/lastmile_qr_scan"}, "name": "00cf97608e3424225bfd0c71d40c5a57", "is_reserved": 0}, {"is_disabled": 0, "fusion_lon": 0.0, "fusion_lat": 0.0, "lat": 38.852076333333336, "type": "electric_bike", "lon": -77.101345, "bike_id": "609e0bcdd89ba8935055f624fad875f0", "rental_uris": {"android": "https://dc.lft.to/lastmile_qr_scan", "ios": "https://dc.lft.to/lastmile_qr_scan"}, "name": "609e0bcdd89ba8935055f624fad875f0", "is_reserved": 0}, {"is_disabled": 0, "fusion_lon": 0.0, "fusion_lat": 0.0, "lat": 38.86573666666666, "type": "electric_scooter", "lon": -76.9895325, "bike_id": "95e9ac2e4791ab6a2f48953cfd769bdc", "rental_uris": {"android": "https://dc.lft.to/lastmile_qr_scan", "ios": "https://dc.lft.to/lastmile_qr_scan"}, "name": "95e9ac2e4791ab6a2f48953cfd769bdc", "is_reserved": 0}, {"is_disabled": 0, "fusion_lon": 0.0, "fusion_lat": 0.0, "lat": 38.841043666666664, "type": "electric_bike", "lon": -77.08937533333334, "bike_id": "104d0b26a2fed17135c1d45cea57b73a", "rental_uris": {"android": "https://dc.lft.to/lastmile_qr_scan", "ios": "https://dc.lft.to/lastmile_qr_scan"}, "name": "104d0b26a2fed17135c1d45cea57b73a", "is_reserved": 0}, {"is_disabled": 0, "fusion_lon": 0.0, "fusion_lat": 0.0, "lat": 38.898803, "type": "electric_scooter", "lon": -76.93158916666667, "bike_id": "824fbab699c9421f22539a6671657acf", "rental_uris": {"android": "https://dc.lft.to/lastmile_qr_scan", "ios": "https://dc.lft.to/lastmile_qr_scan"}, "name": "824fbab699c9421f22539a6671657acf", "is_reserved": 0}, {"is_disabled": 0, "fusion_lon": 0.0, "fusion_lat": 0.0, "lat": 38.90396116666667, "type": "electric_scooter", "lon": -77.03950666666667, "bike_id": "4e0ef0af9d80021e1a6cbbd0181797f1", "rental_uris": {"android": "https://dc.lft.to/lastmile_qr_scan", "ios": "https://dc.lft.to/lastmile_qr_scan"}, "name": "4e0ef0af9d80021e1a6cbbd0181797f1", "is_reserved": 0}, {"is_disabled": 0, "fusion_lon": 0.0, "fusion_lat": 0.0, "lat": 38.90667883333333, "type": "electric_scooter", "lon": -77.02714316666666, "bike_id": "9e029b895d4bb35d16e16d9fbe0e4ad7", "rental_uris": {"android": "https://dc.lft.to/lastmile_qr_scan", "ios": "https://dc.lft.to/lastmile_qr_scan"}, "name": "9e029b895d4bb35d16e16d9fbe0e4ad7", "is_reserved": 0}, {"is_disabled": 0, "fusion_lon": 0.0, "fusion_lat": 0.0, "lat": 38.88546183333333, "type": "electric_scooter", "lon": -77.00580333333333, "bike_id": "173b7eece85ee5bddd3a7de493b091b3", "rental_uris": {"android": "https://dc.lft.to/lastmile_qr_scan", "ios": "https://dc.lft.to/lastmile_qr_scan"}, "name": "173b7eece85ee5bddd3a7de493b091b3", "is_reserved": 0}, {"is_disabled": 0, "fusion_lon": 0.0, "fusion_lat": 0.0, "lat": 38.906720666666665, "type": "electric_scooter", "lon": -77.0713435, "bike_id": "9d46a3e3196f5fdc825fadb36f5e778a", "rental_uris": {"android": "https://dc.lft.to/lastmile_qr_scan", "ios": "https://dc.lft.to/lastmile_qr_scan"}, "name": "9d46a3e3196f5fdc825fadb36f5e778a", "is_reserved": 0}, {"is_disabled": 0, "fusion_lon": 0.0, "fusion_lat": 0.0, "lat": 38.84892633333333, "type": "electric_scooter", "lon": -77.00524933333334, "bike_id": "53181252b47033a941da337797441f4b", "rental_uris": {"android": "https://dc.lft.to/lastmile_qr_scan", "ios": "https://dc.lft.to/lastmile_qr_scan"}, "name": "53181252b47033a941da337797441f4b", "is_reserved": 0}, {"is_disabled": 0, "fusion_lon": 0.0, "fusion_lat": 0.0, "lat": 38.9172465, "type": "electric_scooter", "lon": -77.02802633333333, "bike_id": "94475dee79dbf56659659079089f1531", "rental_uris": {"android": "https://dc.lft.to/lastmile_qr_scan", "ios": "https://dc.lft.to/lastmile_qr_scan"}, "name": "94475dee79dbf56659659079089f1531", "is_reserved": 0}, {"is_disabled": 0, "fusion_lon": 0.0, "fusion_lat": 0.0, "lat": 38.9241035, "type": "electric_scooter", "lon": -77.02545533333333, "bike_id": "97c0baa97101608b40ea66d67c7b8c83", "rental_uris": {"android": "https://dc.lft.to/lastmile_qr_scan", "ios": "https://dc.lft.to/lastmile_qr_scan"}, "name": "97c0baa97101608b40ea66d67c7b8c83", "is_reserved": 0}, {"is_disabled": 0, "fusion_lon": 0.0, "fusion_lat": 0.0, "lat": 38.8900255, "type": "electric_scooter", "lon": -77.0490095, "bike_id": "8b7d5404b28fac65f1a7e82a1143b16e", "rental_uris": {"android": "https://dc.lft.to/lastmile_qr_scan", "ios": "https://dc.lft.to/lastmile_qr_scan"}, "name": "8b7d5404b28fac65f1a7e82a1143b16e", "is_reserved": 0}, {"is_disabled": 0, "fusion_lon": 0.0, "fusion_lat": 0.0, "lat": 38.89880216666667, "type": "electric_scooter", "lon": -76.93159766666666, "bike_id": "1057ee57fcec344feae4799328ed2da4", "rental_uris": {"android": "https://dc.lft.to/lastmile_qr_scan", "ios": "https://dc.lft.to/lastmile_qr_scan"}, "name": "1057ee57fcec344feae4799328ed2da4", "is_reserved": 0}, {"is_disabled": 0, "fusion_lon": 0.0, "fusion_lat": 0.0, "lat": 38.952285333333336, "type": "electric_scooter", "lon": -77.0276045, "bike_id": "729ef859df47e8f31ac36376e733e07c", "rental_uris": {"android": "https://dc.lft.to/lastmile_qr_scan", "ios": "https://dc.lft.to/lastmile_qr_scan"}, "name": "729ef859df47e8f31ac36376e733e07c", "is_reserved": 0}, {"is_disabled": 0, "fusion_lon": 0.0, "fusion_lat": 0.0, "lat": 38.90530033333334, "type": "electric_scooter", "lon": -77.05769016666666, "bike_id": "03fada2381f9764542d1eb81562f617c", "rental_uris": {"android": "https://dc.lft.to/lastmile_qr_scan", "ios": "https://dc.lft.to/lastmile_qr_scan"}, "name": "03fada2381f9764542d1eb81562f617c", "is_reserved": 0}, {"is_disabled": 0, "fusion_lon": 0.0, "fusion_lat": 0.0, "lat": 38.91722, "type": "electric_scooter", "lon": -77.03660816666667, "bike_id": "bf6ef1651f6d3c50055470b72408c881", "rental_uris": {"android": "https://dc.lft.to/lastmile_qr_scan", "ios": "https://dc.lft.to/lastmile_qr_scan"}, "name": "bf6ef1651f6d3c50055470b72408c881", "is_reserved": 0}, {"is_disabled": 0, "fusion_lon": 0.0, "fusion_lat": 0.0, "lat": 38.860594666666664, "type": "electric_scooter", "lon": -76.98516233333334, "bike_id": "82913772ffd5af92ce8a07dd07aa774e", "rental_uris": {"android": "https://dc.lft.to/lastmile_qr_scan", "ios": "https://dc.lft.to/lastmile_qr_scan"}, "name": "82913772ffd5af92ce8a07dd07aa774e", "is_reserved": 0}, {"is_disabled": 0, "fusion_lon": 0.0, "fusion_lat": 0.0, "lat": 38.911080166666665, "type": "electric_scooter", "lon": -77.038375, "bike_id": "8237b7dd64d06d201e1ac946be0fc7ad", "rental_uris": {"android": "https://dc.lft.to/lastmile_qr_scan", "ios": "https://dc.lft.to/lastmile_qr_scan"}, "name": "8237b7dd64d06d201e1ac946be0fc7ad", "is_reserved": 0}, {"is_disabled": 0, "fusion_lon": 0.0, "fusion_lat": 0.0, "lat": 38.9287865, "type": "electric_scooter", "lon": -77.0413215, "bike_id": "157a887caaae935b0c31dd060deda63c", "rental_uris": {"android": "https://dc.lft.to/lastmile_qr_scan", "ios": "https://dc.lft.to/lastmile_qr_scan"}, "name": "157a887caaae935b0c31dd060deda63c", "is_reserved": 0}, {"is_disabled": 0, "fusion_lon": 0.0, "fusion_lat": 0.0, "lat": 38.92369266666667, "type": "electric_scooter", "lon": -77.0503605, "bike_id": "818c4350efdc40bea108e4e02e856c29", "rental_uris": {"android": "https://dc.lft.to/lastmile_qr_scan", "ios": "https://dc.lft.to/lastmile_qr_scan"}, "name": "818c4350efdc40bea108e4e02e856c29", "is_reserved": 0}, {"is_disabled": 0, "fusion_lon": 0.0, "fusion_lat": 0.0, "lat": 38.893381833333336, "type": "electric_bike", "lon": -77.12406166666666, "bike_id": "c6607ad85a0b2ad8f59c99ccd79d08a0", "rental_uris": {"android": "https://dc.lft.to/lastmile_qr_scan", "ios": "https://dc.lft.to/lastmile_qr_scan"}, "name": "c6607ad85a0b2ad8f59c99ccd79d08a0", "is_reserved": 0}, {"is_disabled": 0, "fusion_lon": 0.0, "fusion_lat": 0.0, "lat": 38.917987, "type": "electric_scooter", "lon": -77.03554683333333, "bike_id": "d2650f9e52e8d9bf72612d8cce9e3e8b", "rental_uris": {"android": "https://dc.lft.to/lastmile_qr_scan", "ios": "https://dc.lft.to/lastmile_qr_scan"}, "name": "d2650f9e52e8d9bf72612d8cce9e3e8b", "is_reserved": 0}, {"is_disabled": 0, "fusion_lon": 0.0, "fusion_lat": 0.0, "lat": 38.91381116666667, "type": "electric_scooter", "lon": -77.02975666666667, "bike_id": "dd69305ca8e3842c90752845900d3a76", "rental_uris": {"android": "https://dc.lft.to/lastmile_qr_scan", "ios": "https://dc.lft.to/lastmile_qr_scan"}, "name": "dd69305ca8e3842c90752845900d3a76", "is_reserved": 0}, {"is_disabled": 0, "fusion_lon": 0.0, "fusion_lat": 0.0, "lat": 38.95200066666666, "type": "electric_scooter", "lon": -77.027409, "bike_id": "0ffbc0c47c55d7c11011d35817424cd0", "rental_uris": {"android": "https://dc.lft.to/lastmile_qr_scan", "ios": "https://dc.lft.to/lastmile_qr_scan"}, "name": "0ffbc0c47c55d7c11011d35817424cd0", "is_reserved": 0}, {"is_disabled": 0, "fusion_lon": 0.0, "fusion_lat": 0.0, "lat": 38.887556000000004, "type": "electric_scooter", "lon": -77.002319, "bike_id": "c6e8b4d595074709a578d4c5bdcd26cb", "rental_uris": {"android": "https://dc.lft.to/lastmile_qr_scan", "ios": "https://dc.lft.to/lastmile_qr_scan"}, "name": "c6e8b4d595074709a578d4c5bdcd26cb", "is_reserved": 0}, {"is_disabled": 0, "fusion_lon": 0.0, "fusion_lat": 0.0, "lat": 38.924599, "type": "electric_scooter", "lon": -77.0270625, "bike_id": "dd144ef81843008d6db662c4db808d47", "rental_uris": {"android": "https://dc.lft.to/lastmile_qr_scan", "ios": "https://dc.lft.to/lastmile_qr_scan"}, "name": "dd144ef81843008d6db662c4db808d47", "is_reserved": 0}, {"is_disabled": 0, "fusion_lon": 0.0, "fusion_lat": 0.0, "lat": 38.9065115, "type": "electric_scooter", "lon": -77.00598683333334, "bike_id": "4201318277386572a46d39e6634b2438", "rental_uris": {"android": "https://dc.lft.to/lastmile_qr_scan", "ios": "https://dc.lft.to/lastmile_qr_scan"}, "name": "4201318277386572a46d39e6634b2438", "is_reserved": 0}, {"is_disabled": 0, "fusion_lon": 0.0, "fusion_lat": 0.0, "lat": 38.897066, "type": "electric_scooter", "lon": -77.024532, "bike_id": "40543eadc9ce0109d810e6eb60f2657f", "rental_uris": {"android": "https://dc.lft.to/lastmile_qr_scan", "ios": "https://dc.lft.to/lastmile_qr_scan"}, "name": "40543eadc9ce0109d810e6eb60f2657f", "is_reserved": 0}, {"is_disabled": 0, "fusion_lon": 0.0, "fusion_lat": 0.0, "lat": 38.90274016666667, "type": "electric_scooter", "lon": -77.03456283333334, "bike_id": "77345d3a551a18359a52d0892ee81784", "rental_uris": {"android": "https://dc.lft.to/lastmile_qr_scan", "ios": "https://dc.lft.to/lastmile_qr_scan"}, "name": "77345d3a551a18359a52d0892ee81784", "is_reserved": 0}, {"is_disabled": 0, "fusion_lon": 0.0, "fusion_lat": 0.0, "lat": 38.927332, "type": "electric_scooter", "lon": -77.05361983333333, "bike_id": "7784810a0886579dd6a532917b55c786", "rental_uris": {"android": "https://dc.lft.to/lastmile_qr_scan", "ios": "https://dc.lft.to/lastmile_qr_scan"}, "name": "7784810a0886579dd6a532917b55c786", "is_reserved": 0}, {"is_disabled": 0, "fusion_lon": 0.0, "fusion_lat": 0.0, "lat": 38.89967516666667, "type": "electric_scooter", "lon": -77.03171816666666, "bike_id": "b85f7e21b120fb5bd4a59e86d1dba43b", "rental_uris": {"android": "https://dc.lft.to/lastmile_qr_scan", "ios": "https://dc.lft.to/lastmile_qr_scan"}, "name": "b85f7e21b120fb5bd4a59e86d1dba43b", "is_reserved": 0}, {"is_disabled": 0, "fusion_lon": 0.0, "fusion_lat": 0.0, "lat": 38.95791083333334, "type": "electric_scooter", "lon": -77.02472383333334, "bike_id": "a4c56a11d8b5096fdf2c470179e77458", "rental_uris": {"android": "https://dc.lft.to/lastmile_qr_scan", "ios": "https://dc.lft.to/lastmile_qr_scan"}, "name": "a4c56a11d8b5096fdf2c470179e77458", "is_reserved": 0}, {"is_disabled": 0, "fusion_lon": 0.0, "fusion_lat": 0.0, "lat": 38.934985, "type": "electric_scooter", "lon": -77.02396516666667, "bike_id": "8ac3ae8426486e43e5a0ec01c72b1ef3", "rental_uris": {"android": "https://dc.lft.to/lastmile_qr_scan", "ios": "https://dc.lft.to/lastmile_qr_scan"}, "name": "8ac3ae8426486e43e5a0ec01c72b1ef3", "is_reserved": 0}, {"is_disabled": 0, "fusion_lon": 0.0, "fusion_lat": 0.0, "lat": 38.91285466666667, "type": "electric_scooter", "lon": -76.9870045, "bike_id": "d3a6aab6c57f62edea95e2492e4716f8", "rental_uris": {"android": "https://dc.lft.to/lastmile_qr_scan", "ios": "https://dc.lft.to/lastmile_qr_scan"}, "name": "d3a6aab6c57f62edea95e2492e4716f8", "is_reserved": 0}, {"is_disabled": 0, "fusion_lon": 0.0, "fusion_lat": 0.0, "lat": 38.8960925, "type": "electric_scooter", "lon": -76.94861583333333, "bike_id": "7a1912ad18738ccbeb39b8268e8dd8d1", "rental_uris": {"android": "https://dc.lft.to/lastmile_qr_scan", "ios": "https://dc.lft.to/lastmile_qr_scan"}, "name": "7a1912ad18738ccbeb39b8268e8dd8d1", "is_reserved": 0}, {"is_disabled": 0, "fusion_lon": 0.0, "fusion_lat": 0.0, "lat": 38.918155, "type": "electric_scooter", "lon": -77.02479133333334, "bike_id": "7ef5619bd2d2fa0d63d1c3a6048c3569", "rental_uris": {"android": "https://dc.lft.to/lastmile_qr_scan", "ios": "https://dc.lft.to/lastmile_qr_scan"}, "name": "7ef5619bd2d2fa0d63d1c3a6048c3569", "is_reserved": 0}, {"is_disabled": 0, "fusion_lon": 0.0, "fusion_lat": 0.0, "lat": 38.89910316666667, "type": "electric_scooter", "lon": -76.93392133333333, "bike_id": "73994235129d203118178a66d55397d1", "rental_uris": {"android": "https://dc.lft.to/lastmile_qr_scan", "ios": "https://dc.lft.to/lastmile_qr_scan"}, "name": "73994235129d203118178a66d55397d1", "is_reserved": 0}, {"is_disabled": 0, "fusion_lon": 0.0, "fusion_lat": 0.0, "lat": 38.9030495, "type": "electric_scooter", "lon": -77.02367633333333, "bike_id": "c1ac3d30652c0440ca2da35eced14f08", "rental_uris": {"android": "https://dc.lft.to/lastmile_qr_scan", "ios": "https://dc.lft.to/lastmile_qr_scan"}, "name": "c1ac3d30652c0440ca2da35eced14f08", "is_reserved": 0}, {"is_disabled": 0, "fusion_lon": 0.0, "fusion_lat": 0.0, "lat": 38.892803, "type": "electric_scooter", "lon": -76.99955766666666, "bike_id": "bacb443feef8a07b27ce5a424dc53937", "rental_uris": {"android": "https://dc.lft.to/lastmile_qr_scan", "ios": "https://dc.lft.to/lastmile_qr_scan"}, "name": "bacb443feef8a07b27ce5a424dc53937", "is_reserved": 0}, {"is_disabled": 0, "fusion_lon": 0.0, "fusion_lat": 0.0, "lat": 38.842747333333335, "type": "electric_bike", "lon": -76.98845283333333, "bike_id": "bd25c46de1d9ffa4616b40d80859071a", "rental_uris": {"android": "https://dc.lft.to/lastmile_qr_scan", "ios": "https://dc.lft.to/lastmile_qr_scan"}, "name": "bd25c46de1d9ffa4616b40d80859071a", "is_reserved": 0}, {"is_disabled": 0, "fusion_lon": 0.0, "fusion_lat": 0.0, "lat": 38.905575166666665, "type": "electric_scooter", "lon": -77.04654366666666, "bike_id": "ef2d665f377f75538cb47408542fad25", "rental_uris": {"android": "https://dc.lft.to/lastmile_qr_scan", "ios": "https://dc.lft.to/lastmile_qr_scan"}, "name": "ef2d665f377f75538cb47408542fad25", "is_reserved": 0}, {"is_disabled": 0, "fusion_lon": 0.0, "fusion_lat": 0.0, "lat": 38.902816333333334, "type": "electric_scooter", "lon": -77.03646916666666, "bike_id": "97d3d1b4b69f219c90b74894d9549a02", "rental_uris": {"android": "https://dc.lft.to/lastmile_qr_scan", "ios": "https://dc.lft.to/lastmile_qr_scan"}, "name": "97d3d1b4b69f219c90b74894d9549a02", "is_reserved": 0}, {"is_disabled": 0, "fusion_lon": 0.0, "fusion_lat": 0.0, "lat": 38.900088333333336, "type": "electric_scooter", "lon": -77.0068515, "bike_id": "d5772db43602cf1748670151f62608f7", "rental_uris": {"android": "https://dc.lft.to/lastmile_qr_scan", "ios": "https://dc.lft.to/lastmile_qr_scan"}, "name": "d5772db43602cf1748670151f62608f7", "is_reserved": 0}, {"is_disabled": 0, "fusion_lon": 0.0, "fusion_lat": 0.0, "lat": 38.909515666666664, "type": "electric_scooter", "lon": -77.059285, "bike_id": "41c79c97097445299a61aa28db25887d", "rental_uris": {"android": "https://dc.lft.to/lastmile_qr_scan", "ios": "https://dc.lft.to/lastmile_qr_scan"}, "name": "41c79c97097445299a61aa28db25887d", "is_reserved": 0}, {"is_disabled": 0, "fusion_lon": 0.0, "fusion_lat": 0.0, "lat": 38.889674166666666, "type": "electric_scooter", "lon": -76.92741066666666, "bike_id": "01c135e0071c3f9f23ce8e60fd826c14", "rental_uris": {"android": "https://dc.lft.to/lastmile_qr_scan", "ios": "https://dc.lft.to/lastmile_qr_scan"}, "name": "01c135e0071c3f9f23ce8e60fd826c14", "is_reserved": 0}, {"is_disabled": 0, "fusion_lon": 0.0, "fusion_lat": 0.0, "lat": 38.959536666666665, "type": "electric_scooter", "lon": -77.07232333333333, "bike_id": "168e256198649dc22dc382057d2dc8a4", "rental_uris": {"android": "https://dc.lft.to/lastmile_qr_scan", "ios": "https://dc.lft.to/lastmile_qr_scan"}, "name": "168e256198649dc22dc382057d2dc8a4", "is_reserved": 0}, {"is_disabled": 0, "fusion_lon": 0.0, "fusion_lat": 0.0, "lat": 38.898459, "type": "electric_scooter", "lon": -76.9463605, "bike_id": "5d279ddc80b226924c33390b6255685e", "rental_uris": {"android": "https://dc.lft.to/lastmile_qr_scan", "ios": "https://dc.lft.to/lastmile_qr_scan"}, "name": "5d279ddc80b226924c33390b6255685e", "is_reserved": 0}, {"is_disabled": 0, "fusion_lon": 0.0, "fusion_lat": 0.0, "lat": 38.8954125, "type": "electric_scooter", "lon": -77.02969333333333, "bike_id": "c64801f4bb27eafdae0edf99a69a6e20", "rental_uris": {"android": "https://dc.lft.to/lastmile_qr_scan", "ios": "https://dc.lft.to/lastmile_qr_scan"}, "name": "c64801f4bb27eafdae0edf99a69a6e20", "is_reserved": 0}, {"is_disabled": 0, "fusion_lon": 0.0, "fusion_lat": 0.0, "lat": 38.926170166666665, "type": "electric_scooter", "lon": -77.04340483333333, "bike_id": "324332ef4750468ca3ecba602ba9c5ae", "rental_uris": {"android": "https://dc.lft.to/lastmile_qr_scan", "ios": "https://dc.lft.to/lastmile_qr_scan"}, "name": "324332ef4750468ca3ecba602ba9c5ae", "is_reserved": 0}, {"is_disabled": 0, "fusion_lon": 0.0, "fusion_lat": 0.0, "lat": 38.90067166666667, "type": "electric_scooter", "lon": -77.01309333333333, "bike_id": "3ba1f2d998b103894e97ddfd16a38888", "rental_uris": {"android": "https://dc.lft.to/lastmile_qr_scan", "ios": "https://dc.lft.to/lastmile_qr_scan"}, "name": "3ba1f2d998b103894e97ddfd16a38888", "is_reserved": 0}, {"is_disabled": 0, "fusion_lon": 0.0, "fusion_lat": 0.0, "lat": 38.9190395, "type": "electric_scooter", "lon": -77.02762633333333, "bike_id": "3bf055b0637378a523f316a1ed93e660", "rental_uris": {"android": "https://dc.lft.to/lastmile_qr_scan", "ios": "https://dc.lft.to/lastmile_qr_scan"}, "name": "3bf055b0637378a523f316a1ed93e660", "is_reserved": 0}, {"is_disabled": 0, "fusion_lon": 0.0, "fusion_lat": 0.0, "lat": 38.90755983333333, "type": "electric_scooter", "lon": -77.03572316666667, "bike_id": "7cfc4823ec7232c702af3e5cba8791a7", "rental_uris": {"android": "https://dc.lft.to/lastmile_qr_scan", "ios": "https://dc.lft.to/lastmile_qr_scan"}, "name": "7cfc4823ec7232c702af3e5cba8791a7", "is_reserved": 0}, {"is_disabled": 0, "fusion_lon": 0.0, "fusion_lat": 0.0, "lat": 38.89885316666667, "type": "electric_scooter", "lon": -76.986806, "bike_id": "f6b09bd47845f7a9e150b65cf0e374f8", "rental_uris": {"android": "https://dc.lft.to/lastmile_qr_scan", "ios": "https://dc.lft.to/lastmile_qr_scan"}, "name": "f6b09bd47845f7a9e150b65cf0e374f8", "is_reserved": 0}, {"is_disabled": 0, "fusion_lon": 0.0, "fusion_lat": 0.0, "lat": 38.92260516666666, "type": "electric_scooter", "lon": -77.03524933333334, "bike_id": "d913a1c518fb0f2f88a61d72b7bc0a8e", "rental_uris": {"android": "https://dc.lft.to/lastmile_qr_scan", "ios": "https://dc.lft.to/lastmile_qr_scan"}, "name": "d913a1c518fb0f2f88a61d72b7bc0a8e", "is_reserved": 0}, {"is_disabled": 0, "fusion_lon": 0.0, "fusion_lat": 0.0, "lat": 38.9016615, "type": "electric_scooter", "lon": -77.05326916666667, "bike_id": "a7f4aeff61b757bb3f6129f301f7d1dc", "rental_uris": {"android": "https://dc.lft.to/lastmile_qr_scan", "ios": "https://dc.lft.to/lastmile_qr_scan"}, "name": "a7f4aeff61b757bb3f6129f301f7d1dc", "is_reserved": 0}, {"is_disabled": 0, "fusion_lon": 0.0, "fusion_lat": 0.0, "lat": 38.9275015, "type": "electric_scooter", "lon": -77.03357183333334, "bike_id": "9faf48850a638abb8398ca155b97be79", "rental_uris": {"android": "https://dc.lft.to/lastmile_qr_scan", "ios": "https://dc.lft.to/lastmile_qr_scan"}, "name": "9faf48850a638abb8398ca155b97be79", "is_reserved": 0},