{"data": {"bikes": [{"rental_uris": {"ios": "https://dc.lft.to/lastmile_qr_scan", "android": "https://dc.lft.to/lastmile_qr_scan"}, "type": "electric_scooter", "name": "338b0f7857ed7c3b3081222cdf518c48", "is_reserved": 0, "lon": -77.028262, "is_disabled": 0, "fusion_lat": 0.0, "lat": 38.89921616666667, "bike_id": "338b0f7857ed7c3b3081222cdf518c48", "fusion_lon": 0.0}, {"rental_uris": {"ios": "https://dc.lft.to/lastmile_qr_scan", "android": "https://dc.lft.to/lastmile_qr_scan"}, "type": "electric_scooter", "name": "afd8c598c73bc63ac0477c16bfc6839d", "is_reserved": 0, "lon": -77.02808716666667, "is_disabled": 0, "fusion_lat": 0.0, "lat": 38.90139116666667, "bike_id": "afd8c598c73bc63ac0477c16bfc6839d", "fusion_lon": 0.0}, {"rental_uris": {"ios": "https://dc.lft.to/lastmile_qr_scan", "android": "https://dc.lft.to/lastmile_qr_scan"}, "type": "electric_scooter", "name": "3c226a4a9c48f31b0bde65e71f1fa226", "is_reserved": 0, "lon": -77.04710233333333, "is_disabled": 0, "fusion_lat": 0.0, "lat": 38.9056665, "bike_id": "3c226a4a9c48f31b0bde65e71f1fa226", "fusion_lon": 0.0}, {"rental_uris": {"ios": "https://dc.lft.to/lastmile_qr_scan", "android": "https://dc.lft.to/lastmile_qr_scan"}, "type": "electric_scooter", "name": "eefeff677decfe3fce4d7f3badb9f7f2", "is_reserved": 0, "lon": -77.04347483333333, "is_disabled": 0, "fusion_lat": 0.0, "lat": 38.91305416666667, "bike_id": "eefeff677decfe3fce4d7f3badb9f7f2", "fusion_lon": 0.0}, {"rental_uris": {"ios": "https://dc.lft.to/lastmile_qr_scan", "android": "https://dc.lft.to/lastmile_qr_scan"}, "type": "electric_scooter", "name": "30fe8983f179b2bcbd132e928d98b15e", "is_reserved": 0, "lon": -76.98539433333333, "is_disabled": 0, "fusion_lat": 0.0, "lat": 38.91289, "bike_id": "30fe8983f179b2bcbd132e928d98b15e", "fusion_lon": 0.0}, {"rental_uris": {"ios": "https://dc.lft.to/lastmile_qr_scan", "android": "https://dc.lft.to/lastmile_qr_scan"}, "type": "electric_scooter", "name": "96f06e3703d5b06585a1b6826a837cb0", "is_reserved": 0, "lon": -77.02681883333334, "is_disabled": 0, "fusion_lat": 0.0, "lat": 38.917008833333334, "bike_id": "96f06e3703d5b06585a1b6826a837cb0", "fusion_lon": 0.0}, {"rental_uris": {"ios": "https://dc.lft.to/lastmile_qr_scan", "android": "https://dc.lft.to/lastmile_qr_scan"}, "type": "electric_scooter", "name": "f4d30b1558f4b944ea29e5225882cb40", "is_reserved": 0, "lon": -77.02606316666666, "is_disabled": 0, "fusion_lat": 0.0, "lat": 38.9241705, "bike_id": "f4d30b1558f4b944ea29e5225882cb40", "fusion_lon": 0.0}, {"rental_uris": {"ios": "https://dc.lft.to/lastmile_qr_scan", "android": "https://dc.lft.to/lastmile_qr_scan"}, "type": "electric_scooter", "name": "8fdacab5dbc6fe242a36a81e7969a460", "is_reserved": 0, "lon": -76.95738466666667, "is_disabled": 0, "fusion_lat": 0.0, "lat": 38.88392966666667, "bike_id": "8fdacab5dbc6fe242a36a81e7969a460", "fusion_lon": 0.0}, {"rental_uris": {"ios": "https://dc.lft.to/lastmile_qr_scan", "android": "https://dc.lft.to/lastmile_qr_scan"}, "type": "electric_scooter", "name": "3e5289bcac7882ca0593b5eb7b2449e6", "is_reserved": 0, "lon": -77.02508433333334, "is_disabled": 0, "fusion_lat": 0.0, "lat": 38.919511166666666, "bike_id": "3e5289bcac7882ca0593b5eb7b2449e6", "fusion_lon": 0.0}, {"rental_uris": {"ios": "https://dc.lft.to/lastmile_qr_scan", "android": "https://dc.lft.to/lastmile_qr_scan"}, "type": "electric_scooter", "name": "b2d6ad723990a386bfd384a53b0959bb", "is_reserved": 0, "lon": -77.03444833333333, "is_disabled": 0, "fusion_lat": 0.0, "lat": 38.918000666666664, "bike_id": "b2d6ad723990a386bfd384a53b0959bb", "fusion_lon": 0.0}, {"rental_uris": {"ios": "https://dc.lft.to/lastmile_qr_scan", "android": "https://dc.lft.to/lastmile_qr_scan"}, "type": "electric_scooter", "name": "45c4bd405a39193ec05cb5aaf2bccfe1", "is_reserved": 0, "lon": -77.062836, "is_disabled": 0, "fusion_lat": 0.0, "lat": 38.9124075, "bike_id": "45c4bd405a39193ec05cb5aaf2bccfe1", "fusion_lon": 0.0}, {"rental_uris": {"ios": "https://dc.lft.to/lastmile_qr_scan", "android": "https://dc.lft.to/lastmile_qr_scan"}, "type": "electric_scooter", "name": "840518bdcbc4a0c8daad4a6252a4d7a4", "is_reserved": 0, "lon": -77.02970433333333, "is_disabled": 0, "fusion_lat": 0.0, "lat": 38.904035, "bike_id": "840518bdcbc4a0c8daad4a6252a4d7a4", "fusion_lon": 0.0}, {"rental_uris": {"ios": "https://dc.lft.to/lastmile_qr_scan", "android": "https://dc.lft.to/lastmile_qr_scan"}, "type": "electric_scooter", "name": "a9e5f33af3d42fa6b9240c5d7a1cc5b1", "is_reserved": 0, "lon": -77.02111333333333, "is_disabled": 0, "fusion_lat": 0.0, "lat": 38.92691216666667, "bike_id": "a9e5f33af3d42fa6b9240c5d7a1cc5b1", "fusion_lon": 0.0}, {"rental_uris": {"ios": "https://dc.lft.to/lastmile_qr_scan", "android": "https://dc.lft.to/lastmile_qr_scan"}, "type": "electric_scooter", "name": "61bbe9ec23a5cb6f1672c2283378817f", "is_reserved": 0, "lon": -77.0417925, "is_disabled": 0, "fusion_lat": 0.0, "lat": 38.91410666666667, "bike_id": "61bbe9ec23a5cb6f1672c2283378817f", "fusion_lon": 0.0}, {"rental_uris": {"ios": "https://dc.lft.to/lastmile_qr_scan", "android": "https://dc.lft.to/lastmile_qr_scan"}, "type": "electric_scooter", "name": "ea50be812a45513cd8e92a77e8867148", "is_reserved": 0, "lon": -77.02710916666666, "is_disabled": 0, "fusion_lat": 0.0, "lat": 38.917294, "bike_id": "ea50be812a45513cd8e92a77e8867148", "fusion_lon": 0.0}, {"rental_uris": {"ios": "https://dc.lft.to/lastmile_qr_scan", "android": "https://dc.lft.to/lastmile_qr_scan"}, "type": "electric_scooter", "name": "86600ecd1786811dd9353d23f2aa0485", "is_reserved": 0, "lon": -76.996166, "is_disabled": 0, "fusion_lat": 0.0, "lat": 38.9000245, "bike_id": "86600ecd1786811dd9353d23f2aa0485", "fusion_lon": 0.0}, {"rental_uris": {"ios": "https://dc.lft.to/lastmile_qr_scan", "android": "https://dc.lft.to/lastmile_qr_scan"}, "type": "electric_scooter", "name": "1fdc20a9230601f2c5c7844f44ea68a3", "is_reserved": 0, "lon": -77.038991, "is_disabled": 0, "fusion_lat": 0.0, "lat": 38.898383, "bike_id": "1fdc20a9230601f2c5c7844f44ea68a3", "fusion_lon": 0.0}, {"rental_uris": {"ios": "https://dc.lft.to/lastmile_qr_scan", "android": "https://dc.lft.to/lastmile_qr_scan"}, "type": "electric_scooter", "name": "519cc81bd2b9f85cc06448fd3ebac81c", "is_reserved": 0, "lon": -77.02014033333333, "is_disabled": 0, "fusion_lat": 0.0, "lat": 38.923304, "bike_id": "519cc81bd2b9f85cc06448fd3ebac81c", "fusion_lon": 0.0}, {"rental_uris": {"ios": "https://dc.lft.to/lastmile_qr_scan", "android": "https://dc.lft.to/lastmile_qr_scan"}, "type": "electric_scooter", "name": "bc40bb9bfed64b4b899c71b0df5f802f", "is_reserved": 0, "lon": -77.0364265, "is_disabled": 0, "fusion_lat": 0.0, "lat": 38.92487283333333, "bike_id": "bc40bb9bfed64b4b899c71b0df5f802f", "fusion_lon": 0.0}, {"rental_uris": {"ios": "https://dc.lft.to/lastmile_qr_scan", "android": "https://dc.lft.to/lastmile_qr_scan"}, "type": "electric_scooter", "name": "2d2250187dcf414fff81972291641ceb", "is_reserved": 0, "lon": -77.00311016666667, "is_disabled": 0, "fusion_lat": 0.0, "lat": 38.9089745, "bike_id": "2d2250187dcf414fff81972291641ceb", "fusion_lon": 0.0}, {"rental_uris": {"ios": "https://dc.lft.to/lastmile_qr_scan", "android": "https://dc.lft.to/lastmile_qr_scan"}, "type": "electric_scooter", "name": "6877bd73c470f8a2628a7cff06af856a", "is_reserved": 0, "lon": -77.01066433333334, "is_disabled": 0, "fusion_lat": 0.0, "lat": 38.9118775, "bike_id": "6877bd73c470f8a2628a7cff06af856a", "fusion_lon": 0.0}, {"rental_uris": {"ios": "https://dc.lft.to/lastmile_qr_scan", "android": "https://dc.lft.to/lastmile_qr_scan"}, "type": "electric_scooter", "name": "2667096b2ce9db5b116786a6ed69be51", "is_reserved": 0, "lon": -77.04197566666667, "is_disabled": 0, "fusion_lat": 0.0, "lat": 38.92245333333334, "bike_id": "2667096b2ce9db5b116786a6ed69be51", "fusion_lon": 0.0}, {"rental_uris": {"ios": "https://dc.lft.to/lastmile_qr_scan", "android": "https://dc.lft.to/lastmile_qr_scan"}, "type": "electric_scooter", "name": "03321039173b5aadda8d0cb99f45f62a", "is_reserved": 0, "lon": -77.02694316666667, "is_disabled": 0, "fusion_lat": 0.0, "lat": 38.9075475, "bike_id": "03321039173b5aadda8d0cb99f45f62a", "fusion_lon": 0.0}, {"rental_uris": {"ios": "https://dc.lft.to/lastmile_qr_scan", "android": "https://dc.lft.to/lastmile_qr_scan"}, "type": "electric_scooter", "name": "8254b53e96d7417c7a06b2809207e22e", "is_reserved": 0, "lon": -77.04308533333334, "is_disabled": 0, "fusion_lat": 0.0, "lat": 38.923314, "bike_id": "8254b53e96d7417c7a06b2809207e22e", "fusion_lon": 0.0}, {"rental_uris": {"ios": "https://dc.lft.to/lastmile_qr_scan", "android": "https://dc.lft.to/lastmile_qr_scan"}, "type": "electric_scooter", "name": "744d583e27a8cda46a5dc1caa1139676", "is_reserved": 0, "lon": -77.0600235, "is_disabled": 0, "fusion_lat": 0.0, "lat": 38.902444, "bike_id": "744d583e27a8cda46a5dc1caa1139676", "fusion_lon": 0.0}, {"rental_uris": {"ios": "https://dc.lft.to/lastmile_qr_scan", "android": "https://dc.lft.to/lastmile_qr_scan"}, "type": "electric_scooter", "name": "76c713397f4ea590310b35a0f8faaa56", "is_reserved": 0, "lon": -77.01701633333333, "is_disabled": 0, "fusion_lat": 0.0, "lat": 38.90473016666667, "bike_id": "76c713397f4ea590310b35a0f8faaa56", "fusion_lon": 0.0}, {"rental_uris": {"ios": "https://dc.lft.to/lastmile_qr_scan", "android": "https://dc.lft.to/lastmile_qr_scan"}, "type": "electric_scooter", "name": "028bde473573a39f7c66ff044fbcb620", "is_reserved": 0, "lon": -76.99340566666666, "is_disabled": 0, "fusion_lat": 0.0, "lat": 38.92033, "bike_id": "028bde473573a39f7c66ff044fbcb620", "fusion_lon": 0.0}, {"rental_uris": {"ios": "https://dc.lft.to/lastmile_qr_scan", "android": "https://dc.lft.to/lastmile_qr_scan"}, "type": "electric_scooter", "name": "bba56a8762e83569ab7bf0fe94f5ca21", "is_reserved": 0, "lon": -77.06401216666667, "is_disabled": 0, "fusion_lat": 0.0, "lat": 38.9087145, "bike_id": "bba56a8762e83569ab7bf0fe94f5ca21", "fusion_lon": 0.0}, {"rental_uris": {"ios": "https://dc.lft.to/lastmile_qr_scan", "android": "https://dc.lft.to/lastmile_qr_scan"}, "type": "electric_bike", "name": "c13276f65a1c4548180355543556e82e", "is_reserved": 0, "lon": -76.97314766666666, "is_disabled": 0, "fusion_lat": 0.0, "lat": 38.85781333333333, "bike_id": "c13276f65a1c4548180355543556e82e", "fusion_lon": 0.0}, {"rental_uris": {"ios": "https://dc.lft.to/lastmile_qr_scan", "android": "https://dc.lft.to/lastmile_qr_scan"}, "type": "electric_bike", "name": "bd9ae908e3f57bf248d4fe6180e2cfbe", "is_reserved": 0, "lon": -76.90740866666667, "is_disabled": 0, "fusion_lat": 0.0, "lat": 38.896212166666665, "bike_id": "bd9ae908e3f57bf248d4fe6180e2cfbe", "fusion_lon": 0.0}, {"rental_uris": {"ios": "https://dc.lft.to/lastmile_qr_scan", "android": "https://dc.lft.to/lastmile_qr_scan"}, "type": "electric_scooter", "name": "3b229420215dd0707523c893306d301f", "is_reserved": 0, "lon": -77.030202, "is_disabled": 0, "fusion_lat": 0.0, "lat": 38.878462166666665, "bike_id": "3b229420215dd0707523c893306d301f", "fusion_lon": 0.0}, {"rental_uris": {"ios": "https://dc.lft.to/lastmile_qr_scan", "android": "https://dc.lft.to/lastmile_qr_scan"}, "type": "electric_scooter", "name": "d25b34db703f3edaaa79831ea3ebc0a6", "is_reserved": 0, "lon": -77.00721716666666, "is_disabled": 0, "fusion_lat": 0.0, "lat": 38.8987795, "bike_id": "d25b34db703f3edaaa79831ea3ebc0a6", "fusion_lon": 0.0}, {"rental_uris": {"ios": "https://dc.lft.to/lastmile_qr_scan", "android": "https://dc.lft.to/lastmile_qr_scan"}, "type": "electric_scooter", "name": "d6adb4ff6d227c49e2dbd18afe5dc56f", "is_reserved": 0, "lon": -77.031823, "is_disabled": 0, "fusion_lat": 0.0, "lat": 38.91631566666667, "bike_id": "d6adb4ff6d227c49e2dbd18afe5dc56f", "fusion_lon": 0.0}, {"rental_uris": {"ios": "https://dc.lft.to/lastmile_qr_scan", "android": "https://dc.lft.to/lastmile_qr_scan"}, "type": "electric_scooter", "name": "f622aafd867464fc36cae3e91ce76e4f", "is_reserved": 0, "lon": -77.03036183333333, "is_disabled": 0, "fusion_lat": 0.0, "lat": 38.89758233333333, "bike_id": "f622aafd867464fc36cae3e91ce76e4f", "fusion_lon": 0.0}, {"rental_uris": {"ios": "https://dc.lft.to/lastmile_qr_scan", "android": "https://dc.lft.to/lastmile_qr_scan"}, "type": "electric_scooter", "name": "46a3b93eac828b4e4763ebf94b187fba", "is_reserved": 0, "lon": -77.0432845, "is_disabled": 0, "fusion_lat": 0.0, "lat": 38.90625283333333, "bike_id": "46a3b93eac828b4e4763ebf94b187fba", "fusion_lon": 0.0}, {"rental_uris": {"ios": "https://dc.lft.to/lastmile_qr_scan", "android": "https://dc.lft.to/lastmile_qr_scan"}, "type": "electric_scooter", "name": "f361d8298fc36addaa78ce7865b98785", "is_reserved": 0, "lon": -77.057639, "is_disabled": 0, "fusion_lat": 0.0, "lat": 38.9249995, "bike_id": "f361d8298fc36addaa78ce7865b98785", "fusion_lon": 0.0}, {"rental_uris": {"ios": "https://dc.lft.to/lastmile_qr_scan", "android": "https://dc.lft.to/lastmile_qr_scan"}, "type": "electric_bike", "name": "8a06cfec64950d963a4fa36f49128299", "is_reserved": 0, "lon": -76.99552683333333, "is_disabled": 0, "fusion_lat": 0.0, "lat": 38.862168833333335, "bike_id": "8a06cfec64950d963a4fa36f49128299", "fusion_lon": 0.0}, {"rental_uris": {"ios": "https://dc.lft.to/lastmile_qr_scan", "android": "https://dc.lft.to/lastmile_qr_scan"}, "type": "electric_bike", "name": "969566493942a98cb7080acfceee5944", "is_reserved": 0, "lon": -77.0242495, "is_disabled": 0, "fusion_lat": 0.0, "lat": 38.9311535, "bike_id": "969566493942a98cb7080acfceee5944", "fusion_lon": 0.0}, {"rental_uris": {"ios": "https://dc.lft.to/lastmile_qr_scan", "android": "https://dc.lft.to/lastmile_qr_scan"}, "type": "electric_scooter", "name": "f4be5745498686cf6148928b40d58d95", "is_reserved": 0, "lon": -77.04196416666667, "is_disabled": 0, "fusion_lat": 0.0, "lat": 38.923371833333334, "bike_id": "f4be5745498686cf6148928b40d58d95", "fusion_lon": 0.0}, {"rental_uris": {"ios": "https://dc.lft.to/lastmile_qr_scan", "android": "https://dc.lft.to/lastmile_qr_scan"}, "type": "electric_scooter", "name": "3252610fdd290216031468f72c328ca4", "is_reserved": 0, "lon": -77.073458, "is_disabled": 0, "fusion_lat": 0.0, "lat": 38.943245833333336, "bike_id": "3252610fdd290216031468f72c328ca4", "fusion_lon": 0.0}, {"rental_uris": {"ios": "https://dc.lft.to/lastmile_qr_scan", "android": "https://dc.lft.to/lastmile_qr_scan"}, "type": "electric_scooter", "name": "1567e257c9bdf342a9532b0582c7eb66", "is_reserved": 0, "lon": -76.97628283333333, "is_disabled": 0, "fusion_lat": 0.0, "lat": 38.905711833333335, "bike_id": "1567e257c9bdf342a9532b0582c7eb66", "fusion_lon": 0.0}, {"rental_uris": {"ios": "https://dc.lft.to/lastmile_qr_scan", "android": "https://dc.lft.to/lastmile_qr_scan"}, "type": "electric_scooter", "name": "4d37fc7563aa9b2fae9021cf87522d09", "is_reserved": 0, "lon": -77.049491, "is_disabled": 0, "fusion_lat": 0.0, "lat": 38.92021166666667, "bike_id": "4d37fc7563aa9b2fae9021cf87522d09", "fusion_lon": 0.0}, {"rental_uris": {"ios": "https://dc.lft.to/lastmile_qr_scan", "android": "https://dc.lft.to/lastmile_qr_scan"}, "type": "electric_scooter", "name": "adde68cd5264f7d42b91df187dc9d3a8", "is_reserved": 0, "lon": -77.06838766666667, "is_disabled": 0, "fusion_lat": 0.0, "lat": 38.917268666666665, "bike_id": "adde68cd5264f7d42b91df187dc9d3a8", "fusion_lon": 0.0}, {"rental_uris": {"ios": "https://dc.lft.to/lastmile_qr_scan", "android": "https://dc.lft.to/lastmile_qr_scan"}, "type": "electric_scooter", "name": "25edacce1bfe32654d8085af1b39075f", "is_reserved": 0, "lon": -77.02390666666666, "is_disabled": 0, "fusion_lat": 0.0, "lat": 38.9208185, "bike_id": "25edacce1bfe32654d8085af1b39075f", "fusion_lon": 0.0}, {"rental_uris": {"ios": "https://dc.lft.to/lastmile_qr_scan", "android": "https://dc.lft.to/lastmile_qr_scan"}, "type": "electric_scooter", "name": "3e6a1f4e0709580553b645d0a908bf27", "is_reserved": 0, "lon": -76.98376, "is_disabled": 0, "fusion_lat": 0.0, "lat": 38.915069833333334, "bike_id": "3e6a1f4e0709580553b645d0a908bf27", "fusion_lon": 0.0}, {"rental_uris": {"ios": "https://dc.lft.to/lastmile_qr_scan", "android": "https://dc.lft.to/lastmile_qr_scan"}, "type": "electric_scooter", "name": "06fc4aedd0dedbdf99bdc5b8958e31f4", "is_reserved": 0, "lon": -77.0310235, "is_disabled": 0, "fusion_lat": 0.0, "lat": 38.9248355, "bike_id": "06fc4aedd0dedbdf99bdc5b8958e31f4", "fusion_lon": 0.0}, {"rental_uris": {"ios": "https://dc.lft.to/lastmile_qr_scan", "android": "https://dc.lft.to/lastmile_qr_scan"}, "type": "electric_scooter", "name": "de796b51e437f01b5b94170005febda7", "is_reserved": 0, "lon": -77.07336283333333, "is_disabled": 0, "fusion_lat": 0.0, "lat": 38.96093233333333, "bike_id": "de796b51e437f01b5b94170005febda7", "fusion_lon": 0.0}, {"rental_uris": {"ios": "https://dc.lft.to/lastmile_qr_scan", "android": "https://dc.lft.to/lastmile_qr_scan"}, "type": "electric_scooter", "name": "34149d5425cc044e558a4b55db423b7a", "is_reserved": 0, "lon": -76.98076316666666, "is_disabled": 0, "fusion_lat": 0.0, "lat": 38.901794, "bike_id": "34149d5425cc044e558a4b55db423b7a", "fusion_lon": 0.0}, {"rental_uris": {"ios": "https://dc.lft.to/lastmile_qr_scan", "android": "https://dc.lft.to/lastmile_qr_scan"}, "type": "electric_scooter", "name": "3049152bd558d8525690440218cc1dc6", "is_reserved": 0, "lon": -77.02399516666667, "is_disabled": 0, "fusion_lat": 0.0, "lat": 38.938112833333335, "bike_id": "3049152bd558d8525690440218cc1dc6", "fusion_lon": 0.0}, {"rental_uris": {"ios": "https://dc.lft.to/lastmile_qr_scan", "android": "https://dc.lft.to/lastmile_qr_scan"}, "type": "electric_scooter", "name": "894eb320053acce0b2b6fa12b3179864", "is_reserved": 0, "lon": -77.040323, "is_disabled": 0, "fusion_lat": 0.0, "lat": 38.91183866666667, "bike_id": "894eb320053acce0b2b6fa12b3179864", "fusion_lon": 0.0}, {"rental_uris": {"ios": "https://dc.lft.to/lastmile_qr_scan", "android": "https://dc.lft.to/lastmile_qr_scan"}, "type": "electric_scooter", "name": "e61693c48790d379f34a859f7aec0696", "is_reserved": 0, "lon": -77.05222866666666, "is_disabled": 0, "fusion_lat": 0.0, "lat": 38.92494416666667, "bike_id": "e61693c48790d379f34a859f7aec0696", "fusion_lon": 0.0}, {"rental_uris": {"ios": "https://dc.lft.to/lastmile_qr_scan", "android": "https://dc.lft.to/lastmile_qr_scan"}, "type": "electric_bike", "name": "2c3bb8947fb0843e23dfea8f7fdfe181", "is_reserved": 0, "lon": -76.9927665, "is_disabled": 0, "fusion_lat": 0.0, "lat": 38.9725935, "bike_id": "2c3bb8947fb0843e23dfea8f7fdfe181", "fusion_lon": 0.0}, {"rental_uris": {"ios": "https://dc.lft.to/lastmile_qr_scan", "android": "https://dc.lft.to/lastmile_qr_scan"}, "type": "electric_scooter", "name": "0c0faeeca751344eb7e340202be7db81", "is_reserved": 0, "lon": -76.99143166666667, "is_disabled": 0, "fusion_lat": 0.0, "lat": 38.900256666666664, "bike_id": "0c0faeeca751344eb7e340202be7db81", "fusion_lon": 0.0}, {"rental_uris": {"ios": "https://dc.lft.to/lastmile_qr_scan", "android": "https://dc.lft.to/lastmile_qr_scan"}, "type": "electric_bike", "name": "6532960e2a943167456c4d0295d97109", "is_reserved": 0, "lon": -76.997025, "is_disabled": 0, "fusion_lat": 0.0, "lat": 38.83866116666667, "bike_id": "6532960e2a943167456c4d0295d97109", "fusion_lon": 0.0}, {"rental_uris": {"ios": "https://dc.lft.to/lastmile_qr_scan", "android": "https://dc.lft.to/lastmile_qr_scan"}, "type": "electric_scooter", "name": "8b82555ab3f6238475446210f0d1d2ea", "is_reserved": 0, "lon": -77.01383566666667, "is_disabled": 0, "fusion_lat": 0.0, "lat": 38.869659666666664, "bike_id": "8b82555ab3f6238475446210f0d1d2ea", "fusion_lon": 0.0}, {"rental_uris": {"ios": "https://dc.lft.to/lastmile_qr_scan", "android": "https://dc.lft.to/lastmile_qr_scan"}, "type": "electric_scooter", "name": "0b5ac9f28b48a4103220a9d6c8dde5b4", "is_reserved": 0, "lon": -77.0356025, "is_disabled": 0, "fusion_lat": 0.0, "lat": 38.91774633333333, "bike_id": "0b5ac9f28b48a4103220a9d6c8dde5b4", "fusion_lon": 0.0}, {"rental_uris": {"ios": "https://dc.lft.to/lastmile_qr_scan", "android": "https://dc.lft.to/lastmile_qr_scan"}, "type": "electric_scooter", "name": "91490c0d58224ab70766d190dd98aa31", "is_reserved": 0, "lon": -77.00544733333334, "is_disabled": 0, "fusion_lat": 0.0, "lat": 38.874731833333335, "bike_id": "91490c0d58224ab70766d190dd98aa31", "fusion_lon": 0.0}, {"rental_uris": {"ios": "https://dc.lft.to/lastmile_qr_scan", "android": "https://dc.lft.to/lastmile_qr_scan"}, "type": "electric_bike", "name": "6ace11bb4cd65253949662ef8d2bfbe5", "is_reserved": 0, "lon": -76.99254366666666, "is_disabled": 0, "fusion_lat": 0.0, "lat": 38.9607015, "bike_id": "6ace11bb4cd65253949662ef8d2bfbe5", "fusion_lon": 0.0}, {"rental_uris": {"ios": "https://dc.lft.to/lastmile_qr_scan", "android": "https://dc.lft.to/lastmile_qr_scan"}, "type": "electric_scooter", "name": "9c7e5c7af17abbbbd8923130c8c01898", "is_reserved": 0, "lon": -77.02444033333333, "is_disabled": 0, "fusion_lat": 0.0, "lat": 38.937308333333334, "bike_id": "9c7e5c7af17abbbbd8923130c8c01898", "fusion_lon": 0.0}, {"rental_uris": {"ios": "https://dc.lft.to/lastmile_qr_scan", "android": "https://dc.lft.to/lastmile_qr_scan"}, "type": "electric_scooter", "name": "d5de29ead0b9d9038fe1a5853149ca79", "is_reserved": 0, "lon": -77.07166633333334, "is_disabled": 0, "fusion_lat": 0.0, "lat": 38.90765, "bike_id": "d5de29ead0b9d9038fe1a5853149ca79", "fusion_lon": 0.0}, {"rental_uris": {"ios": "https://dc.lft.to/lastmile_qr_scan", "android": "https://dc.lft.to/lastmile_qr_scan"}, "type": "electric_scooter", "name": "6845e4e2b29669b20a919fa464d0ce08", "is_reserved": 0, "lon": -76.99790916666667, "is_disabled": 0, "fusion_lat": 0.0, "lat": 38.876323, "bike_id": "6845e4e2b29669b20a919fa464d0ce08", "fusion_lon": 0.0}, {"rental_uris": {"ios": "https://dc.lft.to/lastmile_qr_scan", "android": "https://dc.lft.to/lastmile_qr_scan"}, "type": "electric_scooter", "name": "b6a9f61d1257fe1f677905fdecee3b85", "is_reserved": 0, "lon": -76.97569483333334, "is_disabled": 0, "fusion_lat": 0.0, "lat": 38.944211833333334, "bike_id": "b6a9f61d1257fe1f677905fdecee3b85", "fusion_lon": 0.0}, {"rental_uris": {"ios": "https://dc.lft.to/lastmile_qr_scan", "android": "https://dc.lft.to/lastmile_qr_scan"}, "type": "electric_bike", "name": "6e24fe8bf1d2586d1ea67a9940fe3749", "is_reserved": 0, "lon": -76.95792316666666, "is_disabled": 0, "fusion_lat": 0.0, "lat": 38.980464166666664, "bike_id": "6e24fe8bf1d2586d1ea67a9940fe3749", "fusion_lon": 0.0}, {"rental_uris": {"ios": "https://dc.lft.to/lastmile_qr_scan", "android": "https://dc.lft.to/lastmile_qr_scan"}, "type": "electric_scooter", "name": "cab5e215f188d02762a7901ee4997459", "is_reserved": 0, "lon": -77.03394183333333, "is_disabled": 0, "fusion_lat": 0.0, "lat": 38.93737016666667, "bike_id": "cab5e215f188d02762a7901ee4997459", "fusion_lon": 0.0}, {"rental_uris": {"ios": "https://dc.lft.to/lastmile_qr_scan", "android": "https://dc.lft.to/lastmile_qr_scan"}, "type": "electric_scooter", "name": "01c3c30aa1a123e1f9e765b539b712ad", "is_reserved": 0, "lon": -76.93745766666666, "is_disabled": 0, "fusion_lat": 0.0, "lat": 38.89008666666667, "bike_id": "01c3c30aa1a123e1f9e765b539b712ad", "fusion_lon": 0.0}, {"rental_uris": {"ios": "https://dc.lft.to/lastmile_qr_scan", "android": "https://dc.lft.to/lastmile_qr_scan"}, "type": "electric_scooter", "name": "f714abb764f2f7f82b3987d42456b046", "is_reserved": 0, "lon": -77.0550675, "is_disabled": 0, "fusion_lat": 0.0, "lat": 38.92833383333333, "bike_id": "f714abb764f2f7f82b3987d42456b046", "fusion_lon": 0.0}, {"rental_uris": {"ios": "https://dc.lft.to/lastmile_qr_scan", "android": "https://dc.lft.to/lastmile_qr_scan"}, "type": "electric_bike", "name": "792f91cd0fe4f12b2ebc4ada2f892515", "is_reserved": 0, "lon": -77.00139566666667, "is_disabled": 0, "fusion_lat": 0.0, "lat": 38.99501866666667, "bike_id": "792f91cd0fe4f12b2ebc4ada2f892515", "fusion_lon": 0.0}, {"rental_uris": {"ios": "https://dc.lft.to/lastmile_qr_scan", "android": "https://dc.lft.to/lastmile_qr_scan"}, "type": "electric_scooter", "name": "c946d0c781161703cb3562d5bb282376", "is_reserved": 0, "lon": -77.0608915, "is_disabled": 0, "fusion_lat": 0.0, "lat": 38.93993666666667, "bike_id": "c946d0c781161703cb3562d5bb282376", "fusion_lon": 0.0}, {"rental_uris": {"ios": "https://dc.lft.to/lastmile_qr_scan", "android": "https://dc.lft.to/lastmile_qr_scan"}, "type": "electric_scooter", "name": "a6a736ee48bdc403bee218521ddc7862", "is_reserved": 0, "lon": -77.03188283333333, "is_disabled": 0, "fusion_lat": 0.0, "lat": 38.9109915, "bike_id": "a6a736ee48bdc403bee218521ddc7862", "fusion_lon": 0.0}, {"rental_uris": {"ios": "https://dc.lft.to/lastmile_qr_scan", "android": "https://dc.lft.to/lastmile_qr_scan"}, "type": "electric_scooter", "name": "7e0327c65696184edfd6e1d7f1247295", "is_reserved": 0, "lon": -77.07338116666666, "is_disabled": 0, "fusion_lat": 0.0, "lat": 38.960933833333335, "bike_id": "7e0327c65696184edfd6e1d7f1247295", "fusion_lon": 0.0}, {"rental_uris": {"ios": "https://dc.lft.to/lastmile_qr_scan", "android": "https://dc.lft.to/lastmile_qr_scan"}, "type": "electric_bike", "name": "6a5f2d2033c0def5cd3cb57bdd0d3a22", "is_reserved": 0, "lon": -77.04384683333333, "is_disabled": 0, "fusion_lat": 0.0, "lat": 38.907392, "bike_id": "6a5f2d2033c0def5cd3cb57bdd0d3a22", "fusion_lon": 0.0}, {"rental_uris": {"ios": "https://dc.lft.to/lastmile_qr_scan", "android": "https://dc.lft.to/lastmile_qr_scan"}, "type": "electric_scooter", "name": "43974bafd9c915b96d3b9f84cf38d436", "is_reserved": 0, "lon": -77.04141416666667, "is_disabled": 0, "fusion_lat": 0.0, "lat": 38.89345983333333, "bike_id": "43974bafd9c915b96d3b9f84cf38d436", "fusion_lon": 0.0}, {"rental_uris": {"ios": "https://dc.lft.to/lastmile_qr_scan", "android": "https://dc.lft.to/lastmile_qr_scan"}, "type": "electric_scooter", "name": "8e966c963c2ed5f7c2e78da364d40ac8", "is_reserved": 0, "lon": -77.03453666666667, "is_disabled": 0, "fusion_lat": 0.0, "lat": 38.907338333333335, "bike_id": "8e966c963c2ed5f7c2e78da364d40ac8", "fusion_lon": 0.0}, {"rental_uris": {"ios": "https://dc.lft.to/lastmile_qr_scan", "android": "https://dc.lft.to/lastmile_qr_scan"}, "type": "electric_scooter", "name": "7acd0b30eb9ede418067db759b5d0d77", "is_reserved": 0, "lon": -77.05727966666667, "is_disabled": 0, "fusion_lat": 0.0, "lat": 38.933565, "bike_id": "7acd0b30eb9ede418067db759b5d0d77", "fusion_lon": 0.0}, {"rental_uris": {"ios": "https://dc.lft.to/lastmile_qr_scan", "android": "https://dc.lft.to/lastmile_qr_scan"}, "type": "electric_scooter", "name": "b7cce5129e5810eaf20151bfd24dc705", "is_reserved": 0, "lon": -77.00071066666666, "is_disabled": 0, "fusion_lat": 0.0, "lat": 38.876835666666665, "bike_id": "b7cce5129e5810eaf20151bfd24dc705", "fusion_lon": 0.0}, {"rental_uris": {"ios": "https://dc.lft.to/lastmile_qr_scan", "android": "https://dc.lft.to/lastmile_qr_scan"}, "type": "electric_scooter", "name": "e4d8343701681b8d1a4a9c27b30b6d7c", "is_reserved": 0, "lon": -76.93219833333333, "is_disabled": 0, "fusion_lat": 0.0, "lat": 38.880647833333335, "bike_id": "e4d8343701681b8d1a4a9c27b30b6d7c", "fusion_lon": 0.0}, {"rental_uris": {"ios": "https://dc.lft.to/lastmile_qr_scan", "android": "https://dc.lft.to/lastmile_qr_scan"}, "type": "electric_scooter", "name": "0c50fcf94b9315f5e2e1b350bcd889ec", "is_reserved": 0, "lon": -77.02511216666667, "is_disabled": 0, "fusion_lat": 0.0, "lat": 38.920199833333335, "bike_id": "0c50fcf94b9315f5e2e1b350bcd889ec", "fusion_lon": 0.0}, {"rental_uris": {"ios": "https://dc.lft.to/lastmile_qr_scan", "android": "https://dc.lft.to/lastmile_qr_scan"}, "type": "electric_bike", "name": "386225d22d0fedf713676b4a8c21e930", "is_reserved": 0, "lon": -77.0961695, "is_disabled": 0, "fusion_lat": 0.0, "lat": 38.89655, "bike_id": "386225d22d0fedf713676b4a8c21e930", "fusion_lon": 0.0}, {"rental_uris": {"ios": "https://dc.lft.to/lastmile_qr_scan", "android": "https://dc.lft.to/lastmile_qr_scan"}, "type": "electric_bike", "name": "1c468049e04b0d1d4dc8271b81e10006", "is_reserved": 0, "lon": -76.93327266666667, "is_disabled": 0, "fusion_lat": 0.0, "lat": 38.9515285, "bike_id": "1c468049e04b0d1d4dc8271b81e10006", "fusion_lon": 0.0}, {"rental_uris": {"ios": "https://dc.lft.to/lastmile_qr_scan", "android": "https://dc.lft.to/lastmile_qr_scan"}, "type": "electric_bike", "name": "d8c819a560e7694798bec2b7a8aafc8f", "is_reserved": 0, "lon": -77.09617316666667, "is_disabled": 0, "fusion_lat": 0.0, "lat": 38.9743535, "bike_id": "d8c819a560e7694798bec2b7a8aafc8f", "fusion_lon": 0.0}, {"rental_uris": {"ios": "https://dc.lft.to/lastmile_qr_scan", "android": "https://dc.lft.to/lastmile_qr_scan"}, "type": "electric_scooter", "name": "f33f2b422d5f9a9ca3f898e7aca075a4", "is_reserved": 0, "lon": -77.04027716666667, "is_disabled": 0, "fusion_lat": 0.0, "lat": 38.92248583333333, "bike_id": "f33f2b422d5f9a9ca3f898e7aca075a4", "fusion_lon": 0.0}, {"rental_uris": {"ios": "https://dc.lft.to/lastmile_qr_scan", "android": "https://dc.lft.to/lastmile_qr_scan"}, "type": "electric_scooter", "name": "338e5c1316b817ff72618fe8d3905aef", "is_reserved": 0, "lon": -77.00959033333334, "is_disabled": 0, "fusion_lat": 0.0, "lat": 38.8746365, "bike_id": "338e5c1316b817ff72618fe8d3905aef", "fusion_lon": 0.0}, {"rental_uris": {"ios": "https://dc.lft.to/lastmile_qr_scan", "android": "https://dc.lft.to/lastmile_qr_scan"}, "type": "electric_scooter", "name": "7b5905819d86dd2b61e973b14bc7c070", "is_reserved": 0, "lon": -77.07816716666666, "is_disabled": 0, "fusion_lat": 0.0, "lat": 38.931620833333334, "bike_id": "7b5905819d86dd2b61e973b14bc7c070", "fusion_lon": 0.0}, {"rental_uris": {"ios": "https://dc.lft.to/lastmile_qr_scan", "android": "https://dc.lft.to/lastmile_qr_scan"}, "type": "electric_scooter", "name": "57b80bac0786f2f721845a5917c676ed", "is_reserved": 0, "lon": -77.0309575, "is_disabled": 0, "fusion_lat": 0.0, "lat": 38.91040733333333, "bike_id": "57b80bac0786f2f721845a5917c676ed", "fusion_lon": 0.0}, {"rental_uris": {"ios": "https://dc.lft.to/lastmile_qr_scan", "android": "https://dc.lft.to/lastmile_qr_scan"}, "type": "electric_scooter", "name": "48c8948414be54dc578f209976e705de", "is_reserved": 0, "lon": -77.00516033333334, "is_disabled": 0, "fusion_lat": 0.0, "lat": 38.878573333333335, "bike_id": "48c8948414be54dc578f209976e705de", "fusion_lon": 0.0}, {"rental_uris": {"ios": "https://dc.lft.to/lastmile_qr_scan", "android": "https://dc.lft.to/lastmile_qr_scan"}, "type": "electric_scooter", "name": "dd645a9939fe2ea180b1c0b830df0e6f", "is_reserved": 0, "lon": -77.05741283333333, "is_disabled": 0, "fusion_lat": 0.0, "lat": 38.9303715, "bike_id": "dd645a9939fe2ea180b1c0b830df0e6f", "fusion_lon": 0.0}, {"rental_uris": {"ios": "https://dc.lft.to/lastmile_qr_scan", "android": "https://dc.lft.to/lastmile_qr_scan"}, "type": "electric_scooter", "name": "13b63899036da4d381333c46e290788e", "is_reserved": 0, "lon": -77.03207233333333, "is_disabled": 0, "fusion_lat": 0.0, "lat": 38.9097575, "bike_id": "13b63899036da4d381333c46e290788e", "fusion_lon": 0.0}, {"rental_uris": {"ios": "https://dc.lft.to/lastmile_qr_scan", "android": "https://dc.lft.to/lastmile_qr_scan"}, "type": "electric_scooter", "name": "f827948fa982e41bb577d71668919e32", "is_reserved": 0, "lon": -77.007675, "is_disabled": 0, "fusion_lat": 0.0, "lat": 38.910235, "bike_id": "f827948fa982e41bb577d71668919e32", "fusion_lon": 0.0}, {"rental_uris": {"ios": "https://dc.lft.to/lastmile_qr_scan", "android": "https://dc.lft.to/lastmile_qr_scan"}, "type": "electric_scooter", "name": "55869002f134311a23f0376da6dd8ec9", "is_reserved": 0, "lon": -77.0219735, "is_disabled": 0, "fusion_lat": 0.0, "lat": 38.911258, "bike_id": "55869002f134311a23f0376da6dd8ec9", "fusion_lon": 0.0}, {"rental_uris": {"ios": "https://dc.lft.to/lastmile_qr_scan", "android": "https://dc.lft.to/lastmile_qr_scan"}, "type": "electric_scooter", "name": "31d9e2c36ffc88555fa2a4ca1d02f3aa", "is_reserved": 0, "lon": -77.00812883333333, "is_disabled": 0, "fusion_lat": 0.0, "lat": 38.878407, "bike_id": "31d9e2c36ffc88555fa2a4ca1d02f3aa", "fusion_lon": 0.0}, {"rental_uris": {"ios": "https://dc.lft.to/lastmile_qr_scan", "android": "https://dc.lft.to/lastmile_qr_scan"}, "type": "electric_scooter", "name": "11cdd4c7eb200f44fb9c4dca2c360f27", "is_reserved": 0, "lon": -76.9374385, "is_disabled": 0, "fusion_lat": 0.0, "lat": 38.890105166666665, "bike_id": "11cdd4c7eb200f44fb9c4dca2c360f27", "fusion_lon": 0.0}, {"rental_uris": {"ios": "https://dc.lft.to/lastmile_qr_scan", "android": "https://dc.lft.to/lastmile_qr_scan"}, "type": "electric_scooter", "name": "fa1b72cdf0203aac08f1c264641d6ffd", "is_reserved": 0, "lon": -77.02395633333333, "is_disabled": 0, "fusion_lat": 0.0, "lat": 38.92609183333333, "bike_id": "fa1b72cdf0203aac08f1c264641d6ffd", "fusion_lon": 0.0}, {"rental_uris": {"ios": "https://dc.lft.to/lastmile_qr_scan", "android": "https://dc.lft.to/lastmile_qr_scan"}, "type": "electric_scooter", "name": "0f16b2430277231326975583b0f4683b", "is_reserved": 0, "lon": -77.02809733333333, "is_disabled": 0, "fusion_lat": 0.0, "lat": 38.93081866666667, "bike_id": "0f16b2430277231326975583b0f4683b", "fusion_lon": 0.0}, {"rental_uris": {"ios": "https://dc.lft.to/lastmile_qr_scan", "android": "https://dc.lft.to/lastmile_qr_scan"}, "type": "electric_scooter", "name": "356f3e24d65702c67d50664fce78a550", "is_reserved": 0, "lon": -77.0419475, "is_disabled": 0, "fusion_lat": 0.0, "lat": 38.920423166666666, "bike_id": "356f3e24d65702c67d50664fce78a550", "fusion_lon": 0.0}, {"rental_uris": {"ios": "https://dc.lft.to/lastmile_qr_scan", "android": "https://dc.lft.to/lastmile_qr_scan"}, "type": "electric_scooter", "name": "9a2673ee05a1b2fbed74b2c75bcd55cd", "is_reserved": 0, "lon": -77.04127316666667, "is_disabled": 0, "fusion_lat": 0.0, "lat": 38.910589333333334, "bike_id": "9a2673ee05a1b2fbed74b2c75bcd55cd", "fusion_lon": 0.0}, {"rental_uris": {"ios": "https://dc.lft.to/lastmile_qr_scan", "android": "https://dc.lft.to/lastmile_qr_scan"}, "type": "electric_bike", "name": "9cfdcf68883fdae8a8e026efd41aea18", "is_reserved": 0, "lon": -77.06696733333334, "is_disabled": 0, "fusion_lat": 0.0, "lat": 38.83170766666667, "bike_id": "9cfdcf68883fdae8a8e026efd41aea18", "fusion_lon": 0.0}, {"rental_uris": {"ios": "https://dc.lft.to/lastmile_qr_scan", "android": "https://dc.lft.to/lastmile_qr_scan"}, "type": "electric_scooter", "name": "e20d0f3044018ec09ceffcb726fc1b9b", "is_reserved": 0, "lon": -77.01759466666667, "is_disabled": 0, "fusion_lat": 0.0, "lat": 38.876915833333335, "bike_id": "e20d0f3044018ec09ceffcb726fc1b9b", "fusion_lon": 0.0}, {"rental_uris": {"ios": "https://dc.lft.to/lastmile_qr_scan", "android": "https://dc.lft.to/lastmile_qr_scan"}, "type": "electric_scooter", "name": "586fb3611bc239b1c7e8aa6d464c1340", "is_reserved": 0, "lon": -77.07214, "is_disabled": 0, "fusion_lat": 0.0, "lat": 38.899028333333334, "bike_id": "586fb3611bc239b1c7e8aa6d464c1340", "fusion_lon": 0.0}, {"rental_uris": {"ios": "https://dc.lft.to/lastmile_qr_scan", "android": "https://dc.lft.to/lastmile_qr_scan"}, "type": "electric_scooter", "name": "cc503e17711ec45ecf7485aa15d8f34a", "is_reserved": 0, "lon": -77.05130066666666, "is_disabled": 0, "fusion_lat": 0.0, "lat": 38.92364233333333, "bike_id": "cc503e17711ec45ecf7485aa15d8f34a", "fusion_lon": 0.0}, {"rental_uris": {"ios": "https://dc.lft.to/lastmile_qr_scan", "android": "https://dc.lft.to/lastmile_qr_scan"}, "type": "electric_scooter", "name": "ba8152ad48634cb3bfe6e86978169a86", "is_reserved": 0, "lon": -77.02794316666666, "is_disabled": 0, "fusion_lat": 0.0, "lat": 38.9561075, "bike_id": "ba8152ad48634cb3bfe6e86978169a86", "fusion_lon": 0.0}, {"rental_uris": {"ios": "https://dc.lft.to/lastmile_qr_scan", "android": "https://dc.lft.to/lastmile_qr_scan"}, "type": "electric_scooter", "name": "f29ca2209d9afd373a798fb49fdaf8a4", "is_reserved": 0, "lon": -77.044982, "is_disabled": 0, "fusion_lat": 0.0, "lat": 38.89054133333333, "bike_id": "f29ca2209d9afd373a798fb49fdaf8a4", "fusion_lon": 0.0}, {"rental_uris": {"ios": "https://dc.lft.to/lastmile_qr_scan", "android": "https://dc.lft.to/lastmile_qr_scan"}, "type": "electric_scooter", "name": "7596670a60332a098619e19affffd18a", "is_reserved": 0, "lon": -77.018766, "is_disabled": 0, "fusion_lat": 0.0, "lat": 38.930552666666664, "bike_id": "7596670a60332a098619e19affffd18a", "fusion_lon": 0.0}, {"rental_uris": {"ios": "https://dc.lft.to/lastmile_qr_scan", "android": "https://dc.lft.to/lastmile_qr_scan"}, "type": "electric_scooter", "name": "dfc6c8c49b6da8f05fae9b4e4caeb43d", "is_reserved": 0, "lon": -77.038497, "is_disabled": 0, "fusion_lat": 0.0, "lat": 38.909905333333334, "bike_id": "dfc6c8c49b6da8f05fae9b4e4caeb43d", "fusion_lon": 0.0}, {"rental_uris": {"ios": "https://dc.lft.to/lastmile_qr_scan", "android": "https://dc.lft.to/lastmile_qr_scan"}, "type": "electric_scooter", "name": "9a9853900a0d3b3928df7b6e3ebcf1ff", "is_reserved": 0, "lon": -76.9703375, "is_disabled": 0, "fusion_lat": 0.0, "lat": 38.87318466666667, "bike_id": "9a9853900a0d3b3928df7b6e3ebcf1ff", "fusion_lon": 0.0}, {"rental_uris": {"ios": "https://dc.lft.to/lastmile_qr_scan", "android": "https://dc.lft.to/lastmile_qr_scan"}, "type": "electric_scooter", "name": "86fc7d80bc24c73c5c7ed130f3653dba", "is_reserved": 0, "lon": -77.03335383333334, "is_disabled": 0, "fusion_lat": 0.0, "lat": 38.91975566666667, "bike_id": "86fc7d80bc24c73c5c7ed130f3653dba", "fusion_lon": 0.0}, {"rental_uris": {"ios": "https://dc.lft.to/lastmile_qr_scan", "android": "https://dc.lft.to/lastmile_qr_scan"}, "type": "electric_scooter", "name": "1aba7282ad7c4b4e730f59214bc023d3", "is_reserved": 0, "lon": -77.04197033333334, "is_disabled": 0, "fusion_lat": 0.0, "lat": 38.9205855, "bike_id": "1aba7282ad7c4b4e730f59214bc023d3", "fusion_lon": 0.0}, {"rental_uris": {"ios": "https://dc.lft.to/lastmile_qr_scan", "android": "https://dc.lft.to/lastmile_qr_scan"}, "type": "electric_scooter", "name": "a9a13dcf5c656e761d9c416edf0ebc8a", "is_reserved": 0, "lon": -77.04621933333334, "is_disabled": 0, "fusion_lat": 0.0, "lat": 38.90965283333333, "bike_id": "a9a13dcf5c656e761d9c416edf0ebc8a", "fusion_lon": 0.0}, {"rental_uris": {"ios": "https://dc.lft.to/lastmile_qr_scan", "android": "https://dc.lft.to/lastmile_qr_scan"}, "type": "electric_scooter", "name": "355a0cc9ee0e86779d3c349aadf32d0e", "is_reserved": 0, "lon": -76.99904183333334, "is_disabled": 0, "fusion_lat": 0.0, "lat": 38.95290766666667, "bike_id": "355a0cc9ee0e86779d3c349aadf32d0e", "fusion_lon": 0.0}, {"rental_uris": {"ios": "https://dc.lft.to/lastmile_qr_scan", "android": "https://dc.lft.to/lastmile_qr_scan"}, "type": "electric_scooter", "name": "b9ad68327eb571721e077f73afb6dd50", "is_reserved": 0, "lon": -77.04890366666666, "is_disabled": 0, "fusion_lat": 0.0, "lat": 38.90909033333333, "bike_id": "b9ad68327eb571721e077f73afb6dd50", "fusion_lon": 0.0}, {"rental_uris": {"ios": "https://dc.lft.to/lastmile_qr_scan", "android": "https://dc.lft.to/lastmile_qr_scan"}, "type": "electric_scooter", "name": "4aa196779140d91b0c5c8c4c904b6ae3", "is_reserved": 0, "lon": -77.02970883333333, "is_disabled": 0, "fusion_lat": 0.0, "lat": 38.916767166666666, "bike_id": "4aa196779140d91b0c5c8c4c904b6ae3", "fusion_lon": 0.0}, {"rental_uris": {"ios": "https://dc.lft.to/lastmile_qr_scan", "android": "https://dc.lft.to/lastmile_qr_scan"}, "type": "electric_scooter", "name": "f84f0121befc927949c5494a08712823", "is_reserved": 0, "lon": -77.032464, "is_disabled": 0, "fusion_lat": 0.0, "lat": 38.92886716666667, "bike_id": "f84f0121befc927949c5494a08712823", "fusion_lon": 0.0}, {"rental_uris": {"ios": "https://dc.lft.to/lastmile_qr_scan", "android": "https://dc.lft.to/lastmile_qr_scan"}, "type": "electric_scooter", "name": "4261adb6dc316a507f6064fe0b7b8e45", "is_reserved": 0, "lon": -76.94664316666666, "is_disabled": 0, "fusion_lat": 0.0, "lat": 38.898693, "bike_id": "4261adb6dc316a507f6064fe0b7b8e45", "fusion_lon": 0.0}, {"rental_uris": {"ios": "https://dc.lft.to/lastmile_qr_scan", "android": "https://dc.lft.to/lastmile_qr_scan"}, "type": "electric_scooter", "name": "46528fdaba82f3633a666b3084b9bac3", "is_reserved": 0, "lon": -77.02536416666666, "is_disabled": 0, "fusion_lat": 0.0, "lat": 38.90094083333334, "bike_id": "46528fdaba82f3633a666b3084b9bac3", "fusion_lon": 0.0}, {"rental_uris": {"ios": "https://dc.lft.to/lastmile_qr_scan", "android": "https://dc.lft.to/lastmile_qr_scan"}, "type": "electric_scooter", "name": "c306f1b053c49711adc8aa35cec3645f", "is_reserved": 0, "lon": -76.98812716666667, "is_disabled": 0, "fusion_lat": 0.0, "lat": 38.900161833333335, "bike_id": "c306f1b053c49711adc8aa35cec3645f", "fusion_lon": 0.0}, {"rental_uris": {"ios": "https://dc.lft.to/lastmile_qr_scan", "android": "https://dc.lft.to/lastmile_qr_scan"}, "type": "electric_scooter", "name": "b0182602541669428624490ecc534142", "is_reserved": 0, "lon": -76.93184933333333, "is_disabled": 0, "fusion_lat": 0.0, "lat": 38.898770166666665, "bike_id": "b0182602541669428624490ecc534142", "fusion_lon": 0.0}, {"rental_uris": {"ios": "https://dc.lft.to/lastmile_qr_scan", "android": "https://dc.lft.to/lastmile_qr_scan"}, "type": "electric_bike", "name": "3fc36d9404be8270742e3f5378dec470", "is_reserved": 0, "lon": -77.09626366666667, "is_disabled": 0, "fusion_lat": 0.0, "lat": 38.95254466666667, "bike_id": "3fc36d9404be8270742e3f5378dec470", "fusion_lon": 0.0}, {"rental_uris": {"ios": "https://dc.lft.to/lastmile_qr_scan", "android": "https://dc.lft.to/lastmile_qr_scan"}, "type": "electric_bike", "name": "71ea30d9d5080bdaf9fd63c2332d6508", "is_reserved": 0, "lon": -77.127419, "is_disabled": 0, "fusion_lat": 0.0, "lat": 38.89571733333333, "bike_id": "71ea30d9d5080bdaf9fd63c2332d6508", "fusion_lon": 0.0}, {"rental_uris": {"ios": "https://dc.lft.to/lastmile_qr_scan", "android": "https://dc.lft.to/lastmile_qr_scan"}, "type": "electric_bike", "name": "096625feb87576ee32f68f4ec29b2fa3", "is_reserved": 0, "lon": -77.03884516666666, "is_disabled": 0, "fusion_lat": 0.0, "lat": 39.02636616666667, "bike_id": "096625feb87576ee32f68f4ec29b2fa3", "fusion_lon": 0.0}, {"rental_uris": {"ios": "https://dc.lft.to/lastmile_qr_scan", "android": "https://dc.lft.to/lastmile_qr_scan"}, "type": "electric_scooter", "name": "af1bbb4707131fe283fe6d8925975f97", "is_reserved": 0, "lon": -77.05222166666667, "is_disabled": 0, "fusion_lat": 0.0, "lat": 38.88912, "bike_id": "af1bbb4707131fe283fe6d8925975f97", "fusion_lon": 0.0}, {"rental_uris": {"ios": "https://dc.lft.to/lastmile_qr_scan", "android": "https://dc.lft.to/lastmile_qr_scan"}, "type": "electric_scooter", "name": "463e5656119c7bf922e48b9984582c4b", "is_reserved": 0, "lon": -77.01134266666666, "is_disabled": 0, "fusion_lat": 0.0, "lat": 38.896431666666665, "bike_id": "463e5656119c7bf922e48b9984582c4b", "fusion_lon": 0.0}, {"rental_uris": {"ios": "https://dc.lft.to/lastmile_qr_scan", "android": "https://dc.lft.to/lastmile_qr_scan"}, "type": "electric_scooter", "name": "3c953195de9a7dddcab2747b949ed18f", "is_reserved": 0, "lon": -77.02204483333334, "is_disabled": 0, "fusion_lat": 0.0, "lat": 38.911239, "bike_id": "3c953195de9a7dddcab2747b949ed18f", "fusion_lon": 0.0}, {"rental_uris": {"ios": "https://dc.lft.to/lastmile_qr_scan", "android": "https://dc.lft.to/lastmile_qr_scan"}, "type": "electric_scooter", "name": "1418cb255d46ed6ad420181c7249cfa3", "is_reserved": 0, "lon": -77.02404466666667, "is_disabled": 0, "fusion_lat": 0.0, "lat": 38.9355225, "bike_id": "1418cb255d46ed6ad420181c7249cfa3", "fusion_lon": 0.0}, {"rental_uris": {"ios": "https://dc.lft.to/lastmile_qr_scan", "android": "https://dc.lft.to/lastmile_qr_scan"}, "type": "electric_bike", "name": "ab5aee4f892c08bc5fdd75469b3f784a", "is_reserved": 0, "lon": -77.03442133333333, "is_disabled": 0, "fusion_lat": 0.0, "lat": 38.928699333333334, "bike_id": "ab5aee4f892c08bc5fdd75469b3f784a", "fusion_lon": 0.0}, {"rental_uris": {"ios": "https://dc.lft.to/lastmile_qr_scan", "android": "https://dc.lft.to/lastmile_qr_scan"}, "type": "electric_scooter", "name": "948afebf0b93f05b0b91c5adaf3be4ae", "is_reserved": 0, "lon": -77.021952, "is_disabled": 0, "fusion_lat": 0.0, "lat": 38.911399833333334, "bike_id": "948afebf0b93f05b0b91c5adaf3be4ae", "fusion_lon": 0.0}, {"rental_uris": {"ios": "https://dc.lft.to/lastmile_qr_scan", "android": "https://dc.lft.to/lastmile_qr_scan"}, "type": "electric_scooter", "name": "fd6ba9afbd6b3fe87adf735ad121e99e", "is_reserved": 0, "lon": -77.02835683333333, "is_disabled": 0, "fusion_lat": 0.0, "lat": 38.89221033333333, "bike_id": "fd6ba9afbd6b3fe87adf735ad121e99e", "fusion_lon": 0.0}, {"rental_uris": {"ios": "https://dc.lft.to/lastmile_qr_scan", "android": "https://dc.lft.to/lastmile_qr_scan"}, "type": "electric_scooter", "name": "40a113f4ce8c450530be659f4dc5a87c", "is_reserved": 0, "lon": -76.9947465, "is_disabled": 0, "fusion_lat": 0.0, "lat": 38.86217083333333, "bike_id": "40a113f4ce8c450530be659f4dc5a87c", "fusion_lon": 0.0}, {"rental_uris": {"ios": "https://dc.lft.to/lastmile_qr_scan", "android": "https://dc.lft.to/lastmile_qr_scan"}, "type": "electric_scooter", "name": "6acff2dd1442b23dea33059c543f6578", "is_reserved": 0, "lon": -76.99034316666666, "is_disabled": 0, "fusion_lat": 0.0, "lat": 38.89853216666667, "bike_id": "6acff2dd1442b23dea33059c543f6578", "fusion_lon": 0.0}, {"rental_uris": {"ios": "https://dc.lft.to/lastmile_qr_scan", "android": "https://dc.lft.to/lastmile_qr_scan"}, "type": "electric_scooter", "name": "81c90f5dba338a2ced438f1dad03cbff", "is_reserved": 0, "lon": -77.0176605, "is_disabled": 0, "fusion_lat": 0.0, "lat": 38.92102366666667, "bike_id": "81c90f5dba338a2ced438f1dad03cbff", "fusion_lon": 0.0}, {"rental_uris": {"ios": "https://dc.lft.to/lastmile_qr_scan", "android": "https://dc.lft.to/lastmile_qr_scan"}, "type": "electric_scooter", "name": "a38e3be533b12ff5dcc85231348a231c", "is_reserved": 0, "lon": -77.0211185, "is_disabled": 0, "fusion_lat": 0.0, "lat": 38.90604883333334, "bike_id": "a38e3be533b12ff5dcc85231348a231c", "fusion_lon": 0.0}, {"rental_uris": {"ios": "https://dc.lft.to/lastmile_qr_scan", "android": "https://dc.lft.to/lastmile_qr_scan"}, "type": "electric_scooter", "name": "9f62f01919e5a2947402db84e13fae30", "is_reserved": 0, "lon": -76.99804133333333, "is_disabled": 0, "fusion_lat": 0.0, "lat": 38.92166133333333, "bike_id": "9f62f01919e5a2947402db84e13fae30", "fusion_lon": 0.0}, {"rental_uris": {"ios": "https://dc.lft.to/lastmile_qr_scan", "android": "https://dc.lft.to/lastmile_qr_scan"}, "type": "electric_scooter", "name": "f1cc3f48b1f15d14f484f0f64a5e8fb1", "is_reserved": 0, "lon": -77.023864, "is_disabled": 0, "fusion_lat": 0.0, "lat": 38.920822666666666, "bike_id": "f1cc3f48b1f15d14f484f0f64a5e8fb1", "fusion_lon": 0.0}, {"rental_uris": {"ios": "https://dc.lft.to/lastmile_qr_scan", "android": "https://dc.lft.to/lastmile_qr_scan"}, "type": "electric_scooter", "name": "13746ef2e41c328ac2bf4e915ab3cb5e", "is_reserved": 0, "lon": -77.03225716666667, "is_disabled": 0, "fusion_lat": 0.0, "lat": 38.892200333333335, "bike_id": "13746ef2e41c328ac2bf4e915ab3cb5e", "fusion_lon": 0.0}, {"rental_uris": {"ios": "https://dc.lft.to/lastmile_qr_scan", "android": "https://dc.lft.to/lastmile_qr_scan"}, "type": "electric_scooter", "name": "c28aded982a6c9b10ba3ea7799108e9f", "is_reserved": 0, "lon": -76.98840466666667, "is_disabled": 0, "fusion_lat": 0.0, "lat": 38.84295916666667, "bike_id": "c28aded982a6c9b10ba3ea7799108e9f", "fusion_lon": 0.0}, {"rental_uris": {"ios": "https://dc.lft.to/lastmile_qr_scan", "android": "https://dc.lft.to/lastmile_qr_scan"}, "type": "electric_scooter", "name": "b31dbcbdee4641505010ffa2b125f94a", "is_reserved": 0, "lon": -77.02151716666667, "is_disabled": 0, "fusion_lat": 0.0, "lat": 38.887441833333334, "bike_id": "b31dbcbdee4641505010ffa2b125f94a", "fusion_lon": 0.0}, {"rental_uris": {"ios": "https://dc.lft.to/lastmile_qr_scan", "android": "https://dc.lft.to/lastmile_qr_scan"}, "type": "electric_scooter", "name": "4c303e5d0836be93744c51147ddc8e1b", "is_reserved": 0, "lon": -77.0314775, "is_disabled": 0, "fusion_lat": 0.0, "lat": 38.90959266666667, "bike_id": "4c303e5d0836be93744c51147ddc8e1b", "fusion_lon": 0.0}, {"rental_uris": {"ios": "https://dc.lft.to/lastmile_qr_scan", "android": "https://dc.lft.to/lastmile_qr_scan"}, "type": "electric_scooter", "name": "293d82778ba82bd8682f41799be65e4a", "is_reserved": 0, "lon": -77.04659316666667, "is_disabled": 0, "fusion_lat": 0.0, "lat": 38.909559333333334, "bike_id": "293d82778ba82bd8682f41799be65e4a", "fusion_lon": 0.0}, {"rental_uris": {"ios": "https://dc.lft.to/lastmile_qr_scan", "android": "https://dc.lft.to/lastmile_qr_scan"}, "type": "electric_scooter", "name": "3f709f2ee4ed2e8c965d09c4ba10c5da", "is_reserved": 0, "lon": -77.03208016666666, "is_disabled": 0, "fusion_lat": 0.0, "lat": 38.90476916666667, "bike_id": "3f709f2ee4ed2e8c965d09c4ba10c5da", "fusion_lon": 0.0}, {"rental_uris": {"ios": "https://dc.lft.to/lastmile_qr_scan", "android": "https://dc.lft.to/lastmile_qr_scan"}, "type": "electric_bike", "name": "9961355556aad585de9c88405df15cac", "is_reserved": 0, "lon": -76.98248316666667, "is_disabled": 0, "fusion_lat": 0.0, "lat": 38.9524255, "bike_id": "9961355556aad585de9c88405df15cac", "fusion_lon": 0.0}, {"rental_uris": {"ios": "https://dc.lft.to/lastmile_qr_scan", "android": "https://dc.lft.to/lastmile_qr_scan"}, "type": "electric_scooter", "name": "b6bd7208bace5b5a68f9e354dca2439f", "is_reserved": 0, "lon": -76.98152266666666, "is_disabled": 0, "fusion_lat": 0.0, "lat": 38.89937066666667, "bike_id": "b6bd7208bace5b5a68f9e354dca2439f", "fusion_lon": 0.0}, {"rental_uris": {"ios": "https://dc.lft.to/lastmile_qr_scan", "android": "https://dc.lft.to/lastmile_qr_scan"}, "type": "electric_scooter", "name": "9ec8430519ca9b597b4a854607b21d85", "is_reserved": 0, "lon": -77.02137833333333, "is_disabled": 0, "fusion_lat": 0.0, "lat": 38.90304616666667, "bike_id": "9ec8430519ca9b597b4a854607b21d85", "fusion_lon": 0.0}, {"rental_uris": {"ios": "https://dc.lft.to/lastmile_qr_scan", "android": "https://dc.lft.to/lastmile_qr_scan"}, "type": "electric_bike", "name": "fd21ef5770915dfd10d4989293438725", "is_reserved": 0, "lon": -76.98024033333333, "is_disabled": 0, "fusion_lat": 0.0, "lat": 38.85316983333333, "bike_id": "fd21ef5770915dfd10d4989293438725", "fusion_lon": 0.0}, {"rental_uris": {"ios": "https://dc.lft.to/lastmile_qr_scan", "android": "https://dc.lft.to/lastmile_qr_scan"}, "type": "electric_scooter", "name": "489dfd016840df108914a81be00e54d8", "is_reserved": 0, "lon": -77.02281983333333, "is_disabled": 0, "fusion_lat": 0.0, "lat": 38.9165835, "bike_id": "489dfd016840df108914a81be00e54d8", "fusion_lon": 0.0}, {"rental_uris": {"ios": "https://dc.lft.to/lastmile_qr_scan", "android": "https://dc.lft.to/lastmile_qr_scan"}, "type": "electric_scooter", "name": "c30b849cb53e2c3b4326f297f475e391", "is_reserved": 0, "lon": -77.042126, "is_disabled": 0, "fusion_lat": 0.0, "lat": 38.92128966666667, "bike_id": "c30b849cb53e2c3b4326f297f475e391", "fusion_lon": 0.0}, {"rental_uris": {"ios": "https://dc.lft.to/lastmile_qr_scan", "android": "https://dc.lft.to/lastmile_qr_scan"}, "type": "electric_scooter", "name": "205b691cfbd11b63f7ce6d75c893ec42", "is_reserved": 0, "lon": -77.02967283333334, "is_disabled": 0, "fusion_lat": 0.0, "lat": 38.9252305, "bike_id": "205b691cfbd11b63f7ce6d75c893ec42", "fusion_lon": 0.0}, {"rental_uris": {"ios": "https://dc.lft.to/lastmile_qr_scan", "android": "https://dc.lft.to/lastmile_qr_scan"}, "type": "electric_scooter", "name": "9f1fb290fb30dc89e978bfaab4bc2458", "is_reserved": 0, "lon": -77.00626566666666, "is_disabled": 0, "fusion_lat": 0.0, "lat": 38.8717665, "bike_id": "9f1fb290fb30dc89e978bfaab4bc2458", "fusion_lon": 0.0}, {"rental_uris": {"ios": "https://dc.lft.to/lastmile_qr_scan", "android": "https://dc.lft.to/lastmile_qr_scan"}, "type": "electric_scooter", "name": "02751c14911697be2a871d2b432bd639", "is_reserved": 0, "lon": -77.02100566666667, "is_disabled": 0, "fusion_lat": 0.0, "lat": 38.932756, "bike_id": "02751c14911697be2a871d2b432bd639", "fusion_lon": 0.0}, {"rental_uris": {"ios": "https://dc.lft.to/lastmile_qr_scan", "android": "https://dc.lft.to/lastmile_qr_scan"}, "type": "electric_scooter", "name": "8dde408ebd5bc99dad8b9116da3af424", "is_reserved": 0, "lon": -77.005315, "is_disabled": 0, "fusion_lat": 0.0, "lat": 38.876565166666666, "bike_id": "8dde408ebd5bc99dad8b9116da3af424", "fusion_lon": 0.0}, {"rental_uris": {"ios": "https://dc.lft.to/lastmile_qr_scan", "android": "https://dc.lft.to/lastmile_qr_scan"}, "type": "electric_scooter", "name": "1377a097b097ab43dff90e7e069841a2", "is_reserved": 0, "lon": -77.03833, "is_disabled": 0, "fusion_lat": 0.0, "lat": 38.914137333333336, "bike_id": "1377a097b097ab43dff90e7e069841a2", "fusion_lon": 0.0}, {"rental_uris": {"ios": "https://dc.lft.to/lastmile_qr_scan", "android": "https://dc.lft.to/lastmile_qr_scan"}, "type": "electric_scooter", "name": "bce1e616e33d3123cfc5a4f7f8345435", "is_reserved": 0, "lon": -77.0408255, "is_disabled": 0, "fusion_lat": 0.0, "lat": 38.9478745, "bike_id": "bce1e616e33d3123cfc5a4f7f8345435", "fusion_lon": 0.0}, {"rental_uris": {"ios": "https://dc.lft.to/lastmile_qr_scan", "android": "https://dc.lft.to/lastmile_qr_scan"}, "type": "electric_scooter", "name": "25ccab159dbd4af0401f803907086a43", "is_reserved": 0, "lon": -77.03829316666666, "is_disabled": 0, "fusion_lat": 0.0, "lat": 38.921702333333336, "bike_id": "25ccab159dbd4af0401f803907086a43", "fusion_lon": 0.0}, {"rental_uris": {"ios": "https://dc.lft.to/lastmile_qr_scan", "android": "https://dc.lft.to/lastmile_qr_scan"}, "type": "electric_scooter", "name": "18ec709955090dc72f065d9e3b45997f", "is_reserved": 0, "lon": -77.02869083333333, "is_disabled": 0, "fusion_lat": 0.0, "lat": 38.925789333333334, "bike_id": "18ec709955090dc72f065d9e3b45997f", "fusion_lon": 0.0}, {"rental_uris": {"ios": "https://dc.lft.to/lastmile_qr_scan", "android": "https://dc.lft.to/lastmile_qr_scan"}, "type": "electric_scooter", "name": "02ec345efcadc1b597fdc4d836347933", "is_reserved": 0, "lon": -77.04504483333334, "is_disabled": 0, "fusion_lat": 0.0, "lat": 38.90019316666667, "bike_id": "02ec345efcadc1b597fdc4d836347933", "fusion_lon": 0.0}, {"rental_uris": {"ios": "https://dc.lft.to/lastmile_qr_scan", "android": "https://dc.lft.to/lastmile_qr_scan"}, "type": "electric_scooter", "name": "9e75a66ef305ac9682791669c4b02b9b", "is_reserved": 0, "lon": -77.016143, "is_disabled": 0, "fusion_lat": 0.0, "lat": 38.906056666666665, "bike_id": "9e75a66ef305ac9682791669c4b02b9b", "fusion_lon": 0.0}, {"rental_uris": {"ios": "https://dc.lft.to/lastmile_qr_scan", "android": "https://dc.lft.to/lastmile_qr_scan"}, "type": "electric_scooter", "name": "3a570089b10ce9ea12a8c77c744d2e46", "is_reserved": 0, "lon": -77.03392883333333, "is_disabled": 0, "fusion_lat": 0.0, "lat": 38.92874, "bike_id": "3a570089b10ce9ea12a8c77c744d2e46", "fusion_lon": 0.0}, {"rental_uris": {"ios": "https://dc.lft.to/lastmile_qr_scan", "android": "https://dc.lft.to/lastmile_qr_scan"}, "type": "electric_scooter", "name": "924c6d215cff46aedcbc6619b2d86258", "is_reserved": 0, "lon": -76.9947625, "is_disabled": 0, "fusion_lat": 0.0, "lat": 38.86216016666667, "bike_id": "924c6d215cff46aedcbc6619b2d86258", "fusion_lon": 0.0}, {"rental_uris": {"ios": "https://dc.lft.to/lastmile_qr_scan", "android": "https://dc.lft.to/lastmile_qr_scan"}, "type": "electric_scooter", "name": "5cf7d7fd149f88ea1a139f43011d56a5", "is_reserved": 0, "lon": -76.965268, "is_disabled": 0, "fusion_lat": 0.0, "lat": 38.87631483333333, "bike_id": "5cf7d7fd149f88ea1a139f43011d56a5", "fusion_lon": 0.0}, {"rental_uris": {"ios": "https://dc.lft.to/lastmile_qr_scan", "android": "https://dc.lft.to/lastmile_qr_scan"}, "type": "electric_scooter", "name": "b0b9068f4036ae74e36253e0f72c7075", "is_reserved": 0, "lon": -77.05588466666667, "is_disabled": 0, "fusion_lat": 0.0, "lat": 38.90534, "bike_id": "b0b9068f4036ae74e36253e0f72c7075", "fusion_lon": 0.0}, {"rental_uris": {"ios": "https://dc.lft.to/lastmile_qr_scan", "android": "https://dc.lft.to/lastmile_qr_scan"}, "type": "electric_scooter", "name": "6c0ecf24217c25a418b8892541671b86", "is_reserved": 0, "lon": -77.0377425, "is_disabled": 0, "fusion_lat": 0.0, "lat": 38.92540483333333, "bike_id": "6c0ecf24217c25a418b8892541671b86", "fusion_lon": 0.0}, {"rental_uris": {"ios": "https://dc.lft.to/lastmile_qr_scan", "android": "https://dc.lft.to/lastmile_qr_scan"}, "type": "electric_scooter", "name": "b13f91f1214b9e3a4c961cec4e90caaf", "is_reserved": 0, "lon": -76.99514466666666, "is_disabled": 0, "fusion_lat": 0.0, "lat": 38.88792483333334, "bike_id": "b13f91f1214b9e3a4c961cec4e90caaf", "fusion_lon": 0.0}, {"rental_uris": {"ios": "https://dc.lft.to/lastmile_qr_scan", "android": "https://dc.lft.to/lastmile_qr_scan"}, "type": "electric_scooter", "name": "400e787bb9e62c6b62f6fab1782039ec", "is_reserved": 0, "lon": -76.99021383333333, "is_disabled": 0, "fusion_lat": 0.0, "lat": 38.864287, "bike_id": "400e787bb9e62c6b62f6fab1782039ec", "fusion_lon": 0.0}, {"rental_uris": {"ios": "https://dc.lft.to/lastmile_qr_scan", "android": "https://dc.lft.to/lastmile_qr_scan"}, "type": "electric_scooter", "name": "8b64329de03c92713780d3ada920cd63", "is_reserved": 0, "lon": -77.03867416666667, "is_disabled": 0, "fusion_lat": 0.0, "lat": 38.90815116666667, "bike_id": "8b64329de03c92713780d3ada920cd63", "fusion_lon": 0.0}, {"rental_uris": {"ios": "https://dc.lft.to/lastmile_qr_scan", "android": "https://dc.lft.to/lastmile_qr_scan"}, "type": "electric_scooter", "name": "b9c445143c8dd73aa038438b2a96d7bb", "is_reserved": 0, "lon": -77.01466433333333, "is_disabled": 0, "fusion_lat": 0.0, "lat": 38.87941716666667, "bike_id": "b9c445143c8dd73aa038438b2a96d7bb", "fusion_lon": 0.0}, {"rental_uris": {"ios": "https://dc.lft.to/lastmile_qr_scan", "android": "https://dc.lft.to/lastmile_qr_scan"}, "type": "electric_scooter", "name": "2417eb82e8f9960fd7d75d689bc1fdef", "is_reserved": 0, "lon": -76.9292245, "is_disabled": 0, "fusion_lat": 0.0, "lat": 38.89273466666667, "bike_id": "2417eb82e8f9960fd7d75d689bc1fdef", "fusion_lon": 0.0}, {"rental_uris": {"ios": "https://dc.lft.to/lastmile_qr_scan", "android": "https://dc.lft.to/lastmile_qr_scan"}, "type": "electric_scooter", "name": "03218284cc2f20ab056a730f77167fca", "is_reserved": 0, "lon": -77.01988333333334, "is_disabled": 0, "fusion_lat": 0.0, "lat": 38.904988, "bike_id": "03218284cc2f20ab056a730f77167fca", "fusion_lon": 0.0}, {"rental_uris": {"ios": "https://dc.lft.to/lastmile_qr_scan", "android": "https://dc.lft.to/lastmile_qr_scan"}, "type": "electric_scooter", "name": "f5f3754c4d3622deb9a9f847545d1e5b", "is_reserved": 0, "lon": -76.97213366666666, "is_disabled": 0, "fusion_lat": 0.0, "lat": 38.917190833333336, "bike_id": "f5f3754c4d3622deb9a9f847545d1e5b", "fusion_lon": 0.0}, {"rental_uris": {"ios": "https://dc.lft.to/lastmile_qr_scan", "android": "https://dc.lft.to/lastmile_qr_scan"}, "type": "electric_bike", "name": "003332a27e57e2bf115f3ce14fa7618a", "is_reserved": 0, "lon": -77.09451916666667, "is_disabled": 0, "fusion_lat": 0.0, "lat": 38.807542, "bike_id": "003332a27e57e2bf115f3ce14fa7618a", "fusion_lon": 0.0}, {"rental_uris": {"ios": "https://dc.lft.to/lastmile_qr_scan", "android": "https://dc.lft.to/lastmile_qr_scan"}, "type": "electric_scooter", "name": "e52122e6cafe8383bed77f87d4c56a4c", "is_reserved": 0, "lon": -77.01380883333333, "is_disabled": 0, "fusion_lat": 0.0, "lat": 38.898274666666666, "bike_id": "e52122e6cafe8383bed77f87d4c56a4c", "fusion_lon": 0.0}, {"rental_uris": {"ios": "https://dc.lft.to/lastmile_qr_scan", "android": "https://dc.lft.to/lastmile_qr_scan"}, "type": "electric_scooter", "name": "800048898ac8b87eac3072faf9945cb0", "is_reserved": 0, "lon": -77.03211333333333, "is_disabled": 0, "fusion_lat": 0.0, "lat": 38.91578966666667, "bike_id": "800048898ac8b87eac3072faf9945cb0", "fusion_lon": 0.0}, {"rental_uris": {"ios": "https://dc.lft.to/lastmile_qr_scan", "android": "https://dc.lft.to/lastmile_qr_scan"}, "type": "electric_bike", "name": "89e346ad5f9e8cb7f7c7594aab4b9418", "is_reserved": 0, "lon": -77.07286083333334, "is_disabled": 0, "fusion_lat": 0.0, "lat": 38.917628, "bike_id": "89e346ad5f9e8cb7f7c7594aab4b9418", "fusion_lon": 0.0}, {"rental_uris": {"ios": "https://dc.lft.to/lastmile_qr_scan", "android": "https://dc.lft.to/lastmile_qr_scan"}, "type": "electric_scooter", "name": "911089cb73db5d811cc54d6e1ad5ed8a", "is_reserved": 0, "lon": -77.0441065, "is_disabled": 0, "fusion_lat": 0.0, "lat": 38.89593633333333, "bike_id": "911089cb73db5d811cc54d6e1ad5ed8a", "fusion_lon": 0.0}, {"rental_uris": {"ios": "https://dc.lft.to/lastmile_qr_scan", "android": "https://dc.lft.to/lastmile_qr_scan"}, "type": "electric_scooter", "name": "6ab5699590760f52f8bded9c604b458b", "is_reserved": 0, "lon": -77.02204016666667, "is_disabled": 0, "fusion_lat": 0.0, "lat": 38.9515645, "bike_id": "6ab5699590760f52f8bded9c604b458b", "fusion_lon": 0.0}, {"rental_uris": {"ios": "https://dc.lft.to/lastmile_qr_scan", "android": "https://dc.lft.to/lastmile_qr_scan"}, "type": "electric_scooter", "name": "240f1467265c097b8b2c7df4c0be54c3", "is_reserved": 0, "lon": -77.04274616666666, "is_disabled": 0, "fusion_lat": 0.0, "lat": 38.9223885, "bike_id": "240f1467265c097b8b2c7df4c0be54c3", "fusion_lon": 0.0}, {"rental_uris": {"ios": "https://dc.lft.to/lastmile_qr_scan", "android": "https://dc.lft.to/lastmile_qr_scan"}, "type": "electric_scooter", "name": "4417dfe20911fbded45436233fa8ddaa", "is_reserved": 0, "lon": -77.02391633333333, "is_disabled": 0, "fusion_lat": 0.0, "lat": 38.91599016666667, "bike_id": "4417dfe20911fbded45436233fa8ddaa", "fusion_lon": 0.0}, {"rental_uris": {"ios": "https://dc.lft.to/lastmile_qr_scan", "android": "https://dc.lft.to/lastmile_qr_scan"}, "type": "electric_bike", "name": "dd19a0982020e41f9e29cf2d1720d8f8", "is_reserved": 0, "lon": -77.08569, "is_disabled": 0, "fusion_lat": 0.0, "lat": 38.87422316666667, "bike_id": "dd19a0982020e41f9e29cf2d1720d8f8", "fusion_lon": 0.0}, {"rental_uris": {"ios": "https://dc.lft.to/lastmile_qr_scan", "android": "https://dc.lft.to/lastmile_qr_scan"}, "type": "electric_scooter", "name": "0725de83b0583d96031365d32eb4e372", "is_reserved": 0, "lon": -77.0210915, "is_disabled": 0, "fusion_lat": 0.0, "lat": 38.90938333333333, "bike_id": "0725de83b0583d96031365d32eb4e372", "fusion_lon": 0.0}, {"rental_uris": {"ios": "https://dc.lft.to/lastmile_qr_scan", "android": "https://dc.lft.to/lastmile_qr_scan"}, "type": "electric_scooter", "name": "2e5a2d3750af09f478a313bed6618cfe", "is_reserved": 0, "lon": -76.98339483333334, "is_disabled": 0, "fusion_lat": 0.0, "lat": 38.9009305, "bike_id": "2e5a2d3750af09f478a313bed6618cfe", "fusion_lon": 0.0}, {"rental_uris": {"ios": "https://dc.lft.to/lastmile_qr_scan", "android": "https://dc.lft.to/lastmile_qr_scan"}, "type": "electric_scooter", "name": "ecd2163c938f1fa745aee483a6a3e5d8", "is_reserved": 0, "lon": -77.02350466666667, "is_disabled": 0, "fusion_lat": 0.0, "lat": 38.935347166666666, "bike_id": "ecd2163c938f1fa745aee483a6a3e5d8", "fusion_lon": 0.0}, {"rental_uris": {"ios": "https://dc.lft.to/lastmile_qr_scan", "android": "https://dc.lft.to/lastmile_qr_scan"}, "type": "electric_bike", "name": "12ee0495c635170a2f89e4153811078c", "is_reserved": 0, "lon": -76.98842883333333, "is_disabled": 0, "fusion_lat": 0.0, "lat": 38.84280916666667, "bike_id": "12ee0495c635170a2f89e4153811078c", "fusion_lon": 0.0}, {"rental_uris": {"ios": "https://dc.lft.to/lastmile_qr_scan", "android": "https://dc.lft.to/lastmile_qr_scan"}, "type": "electric_scooter", "name": "029ae0ea52b9dc646217faca92a5f31e", "is_reserved": 0, "lon": -77.0325115, "is_disabled": 0, "fusion_lat": 0.0, "lat": 38.905592666666664, "bike_id": "029ae0ea52b9dc646217faca92a5f31e", "fusion_lon": 0.0}, {"rental_uris": {"ios": "https://dc.lft.to/lastmile_qr_scan", "android": "https://dc.lft.to/lastmile_qr_scan"}, "type": "electric_scooter", "name": "db82094d922a954294ce49835deda758", "is_reserved": 0, "lon": -77.02699533333333, "is_disabled": 0, "fusion_lat": 0.0, "lat": 38.89749483333333, "bike_id": "db82094d922a954294ce49835deda758", "fusion_lon": 0.0}, {"rental_uris": {"ios": "https://dc.lft.to/lastmile_qr_scan", "android": "https://dc.lft.to/lastmile_qr_scan"}, "type": "electric_scooter", "name": "82c07ecdd2ebb41e5256e07daacd81af", "is_reserved": 0, "lon": -77.0279105, "is_disabled": 0, "fusion_lat": 0.0, "lat": 38.8975515, "bike_id": "82c07ecdd2ebb41e5256e07daacd81af", "fusion_lon": 0.0}, {"rental_uris": {"ios": "https://dc.lft.to/lastmile_qr_scan", "android": "https://dc.lft.to/lastmile_qr_scan"}, "type": "electric_scooter", "name": "362c0a116cc5928523063bd9dcef6242", "is_reserved": 0, "lon": -77.048651, "is_disabled": 0, "fusion_lat": 0.0, "lat": 38.892231333333335, "bike_id": "362c0a116cc5928523063bd9dcef6242", "fusion_lon": 0.0}, {"rental_uris": {"ios": "https://dc.lft.to/lastmile_qr_scan", "android": "https://dc.lft.to/lastmile_qr_scan"}, "type": "electric_scooter", "name": "d20e3550ce2d118c2121ba8f77868239", "is_reserved": 0, "lon": -77.01700383333333, "is_disabled": 0, "fusion_lat": 0.0, "lat": 38.9047525, "bike_id": "d20e3550ce2d118c2121ba8f77868239", "fusion_lon": 0.0}, {"rental_uris": {"ios": "https://dc.lft.to/lastmile_qr_scan", "android": "https://dc.lft.to/lastmile_qr_scan"}, "type": "electric_scooter", "name": "58c7ebd21f0d1bbac716629614c9187f", "is_reserved": 0, "lon": -77.01766616666667, "is_disabled": 0, "fusion_lat": 0.0, "lat": 38.88617933333333, "bike_id": "58c7ebd21f0d1bbac716629614c9187f", "fusion_lon": 0.0}, {"rental_uris": {"ios": "https://dc.lft.to/lastmile_qr_scan", "android": "https://dc.lft.to/lastmile_qr_scan"}, "type": "electric_bike", "name": "a2da652cdb9b79f297f00536f35004b8", "is_reserved": 0, "lon": -76.96089183333333, "is_disabled": 0, "fusion_lat": 0.0, "lat": 38.918602166666666, "bike_id": "a2da652cdb9b79f297f00536f35004b8", "fusion_lon": 0.0}, {"rental_uris": {"ios": "https://dc.lft.to/lastmile_qr_scan", "android": "https://dc.lft.to/lastmile_qr_scan"}, "type": "electric_scooter", "name": "afdb40258faf33bbed15860cbc957ba1", "is_reserved": 0, "lon": -77.01517866666667, "is_disabled": 0, "fusion_lat": 0.0, "lat": 38.9105515, "bike_id": "afdb40258faf33bbed15860cbc957ba1", "fusion_lon": 0.0}, {"rental_uris": {"ios": "https://dc.lft.to/lastmile_qr_scan", "android": "https://dc.lft.to/lastmile_qr_scan"}, "type": "electric_scooter", "name": "1136abbacc7ddc9a2e35f68743d56574", "is_reserved": 0, "lon": -76.98696766666667, "is_disabled": 0, "fusion_lat": 0.0, "lat": 38.912979166666666, "bike_id": "1136abbacc7ddc9a2e35f68743d56574", "fusion_lon": 0.0}, {"rental_uris": {"ios": "https://dc.lft.to/lastmile_qr_scan", "android": "https://dc.lft.to/lastmile_qr_scan"}, "type": "electric_scooter", "name": "5933c5bd00bb8c69d45c3a91b2c65e2e", "is_reserved": 0, "lon": -77.01647516666667, "is_disabled": 0, "fusion_lat": 0.0, "lat": 38.92937383333334, "bike_id": "5933c5bd00bb8c69d45c3a91b2c65e2e", "fusion_lon": 0.0}, {"rental_uris": {"ios": "https://dc.lft.to/lastmile_qr_scan", "android": "https://dc.lft.to/lastmile_qr_scan"}, "type": "electric_scooter", "name": "d7fc963c98aa10e9c201bc728791a462", "is_reserved": 0, "lon": -77.036223, "is_disabled": 0, "fusion_lat": 0.0, "lat": 38.906105, "bike_id": "d7fc963c98aa10e9c201bc728791a462", "fusion_lon": 0.0}, {"rental_uris": {"ios": "https://dc.lft.to/lastmile_qr_scan", "android": "https://dc.lft.to/lastmile_qr_scan"}, "type": "electric_scooter", "name": "8d450daaa7a27aa0120980b853e30e4c", "is_reserved": 0, "lon": -77.06697066666666, "is_disabled": 0, "fusion_lat": 0.0, "lat": 38.90979383333333, "bike_id": "8d450daaa7a27aa0120980b853e30e4c", "fusion_lon": 0.0}, {"rental_uris": {"ios": "https://dc.lft.to/lastmile_qr_scan", "android": "https://dc.lft.to/lastmile_qr_scan"}, "type": "electric_scooter", "name": "f1d104745466bce800a80aa42a43c778", "is_reserved": 0, "lon": -77.02912283333333, "is_disabled": 0, "fusion_lat": 0.0, "lat": 38.933296666666664, "bike_id": "f1d104745466bce800a80aa42a43c778", "fusion_lon": 0.0}, {"rental_uris": {"ios": "https://dc.lft.to/lastmile_qr_scan", "android": "https://dc.lft.to/lastmile_qr_scan"}, "type": "electric_scooter", "name": "4c264429aa0c99a8795c45a4197e72d6", "is_reserved": 0, "lon": -77.03203183333333, "is_disabled": 0, "fusion_lat": 0.0, "lat": 38.91156133333333, "bike_id": "4c264429aa0c99a8795c45a4197e72d6", "fusion_lon": 0.0}, {"rental_uris": {"ios": "https://dc.lft.to/lastmile_qr_scan", "android": "https://dc.lft.to/lastmile_qr_scan"}, "type": "electric_scooter", "name": "b0c431a5c1c19d7364d26da8cb5e2ea1", "is_reserved": 0, "lon": -77.00009116666666, "is_disabled": 0, "fusion_lat": 0.0, "lat": 38.90748466666667, "bike_id": "b0c431a5c1c19d7364d26da8cb5e2ea1", "fusion_lon": 0.0}, {"rental_uris": {"ios": "https://dc.lft.to/lastmile_qr_scan", "android": "https://dc.lft.to/lastmile_qr_scan"}, "type": "electric_scooter", "name": "147621924d14fe94c6ecb774e32fa83d", "is_reserved": 0, "lon": -77.0006145, "is_disabled": 0, "fusion_lat": 0.0, "lat": 38.8811725, "bike_id": "147621924d14fe94c6ecb774e32fa83d", "fusion_lon": 0.0}, {"rental_uris": {"ios": "https://dc.lft.to/lastmile_qr_scan", "android": "https://dc.lft.to/lastmile_qr_scan"}, "type": "electric_scooter", "name": "55a6ab973399bc503cd168752f57402d", "is_reserved": 0, "lon": -77.04478883333333, "is_disabled": 0, "fusion_lat": 0.0, "lat": 38.91917383333333, "bike_id": "55a6ab973399bc503cd168752f57402d", "fusion_lon": 0.0}, {"rental_uris": {"ios": "https://dc.lft.to/lastmile_qr_scan", "android": "https://dc.lft.to/lastmile_qr_scan"}, "type": "electric_scooter", "name": "3e408d8084c6387f889ad175ef3d12f3", "is_reserved": 0, "lon": -77.038467, "is_disabled": 0, "fusion_lat": 0.0, "lat": 38.90994383333334, "bike_id": "3e408d8084c6387f889ad175ef3d12f3", "fusion_lon": 0.0}, {"rental_uris": {"ios": "https://dc.lft.to/lastmile_qr_scan", "android": "https://dc.lft.to/lastmile_qr_scan"}, "type": "electric_scooter", "name": "f535e74a3bcb34de3f3a3c8cdc919adc", "is_reserved": 0, "lon": -77.03478966666667, "is_disabled": 0, "fusion_lat": 0.0, "lat": 38.90569266666667, "bike_id": "f535e74a3bcb34de3f3a3c8cdc919adc", "fusion_lon": 0.0}, {"rental_uris": {"ios": "https://dc.lft.to/lastmile_qr_scan", "android": "https://dc.lft.to/lastmile_qr_scan"}, "type": "electric_scooter", "name": "e42eaa6e23cc5b0d66210efdeb242f34", "is_reserved": 0, "lon": -77.00216133333333, "is_disabled": 0, "fusion_lat": 0.0, "lat": 38.89820516666666, "bike_id": "e42eaa6e23cc5b0d66210efdeb242f34", "fusion_lon": 0.0}, {"rental_uris": {"ios": "https://dc.lft.to/lastmile_qr_scan", "android": "https://dc.lft.to/lastmile_qr_scan"}, "type": "electric_scooter", "name": "ee0dcbf52c2a03c6038182c71202b9ea", "is_reserved": 0, "lon": -77.03166833333333, "is_disabled": 0, "fusion_lat": 0.0, "lat": 38.90606666666667, "bike_id": "ee0dcbf52c2a03c6038182c71202b9ea", "fusion_lon": 0.0}, {"rental_uris": {"ios": "https://dc.lft.to/lastmile_qr_scan", "android": "https://dc.lft.to/lastmile_qr_scan"}, "type": "electric_bike", "name": "6392bbd66379541b890fed7a12bf761d", "is_reserved": 0, "lon": -77.221878, "is_disabled": 0, "fusion_lat": 0.0, "lat": 38.8717795, "bike_id": "6392bbd66379541b890fed7a12bf761d", "fusion_lon": 0.0}, {"rental_uris": {"ios": "https://dc.lft.to/lastmile_qr_scan", "android": "https://dc.lft.to/lastmile_qr_scan"}, "type": "electric_bike", "name": "71018767607c82ff2e7aba6bb8893b55", "is_reserved": 0, "lon": -76.97544083333334, "is_disabled": 0, "fusion_lat": 0.0, "lat": 38.9043205, "bike_id": "71018767607c82ff2e7aba6bb8893b55", "fusion_lon": 0.0}, {"rental_uris": {"ios": "https://dc.lft.to/lastmile_qr_scan", "android": "https://dc.lft.to/lastmile_qr_scan"}, "type": "electric_bike", "name": "1436d527b3f8d5a3fe907b332492970d", "is_reserved": 0, "lon": -76.9516045, "is_disabled": 0, "fusion_lat": 0.0, "lat": 39.084409, "bike_id": "1436d527b3f8d5a3fe907b332492970d", "fusion_lon": 0.0}, {"rental_uris": {"ios": "https://dc.lft.to/lastmile_qr_scan", "android": "https://dc.lft.to/lastmile_qr_scan"}, "type": "electric_scooter", "name": "695bbd582e2444debe5a6403e9c04a88", "is_reserved": 0, "lon": -77.0308895, "is_disabled": 0, "fusion_lat": 0.0, "lat": 38.89839716666667, "bike_id": "695bbd582e2444debe5a6403e9c04a88", "fusion_lon": 0.0}, {"rental_uris": {"ios": "https://dc.lft.to/lastmile_qr_scan", "android": "https://dc.lft.to/lastmile_qr_scan"}, "type": "electric_scooter", "name": "88a2249d095eabc629f72d2888db472f", "is_reserved": 0, "lon": -77.01952583333333, "is_disabled": 0, "fusion_lat": 0.0, "lat": 38.95043283333333, "bike_id": "88a2249d095eabc629f72d2888db472f", "fusion_lon": 0.0}, {"rental_uris": {"ios": "https://dc.lft.to/lastmile_qr_scan", "android": "https://dc.lft.to/lastmile_qr_scan"}, "type": "electric_scooter", "name": "d0c3bce55d4ebfa00ab5b143534155d8", "is_reserved": 0, "lon": -77.02656533333334, "is_disabled": 0, "fusion_lat": 0.0, "lat": 38.896063, "bike_id": "d0c3bce55d4ebfa00ab5b143534155d8", "fusion_lon": 0.0}, {"rental_uris": {"ios": "https://dc.lft.to/lastmile_qr_scan", "android": "https://dc.lft.to/lastmile_qr_scan"}, "type": "electric_scooter", "name": "ee311d5d81fa3c78bd823bf67682e6b8", "is_reserved": 0, "lon": -77.00155933333333, "is_disabled": 0, "fusion_lat": 0.0, "lat": 38.821322, "bike_id": "ee311d5d81fa3c78bd823bf67682e6b8", "fusion_lon": 0.0}, {"rental_uris": {"ios": "https://dc.lft.to/lastmile_qr_scan", "android": "https://dc.lft.to/lastmile_qr_scan"}, "type": "electric_scooter", "name": "d71352781d243660e983327eebc4650a", "is_reserved": 0, "lon": -76.99945033333333, "is_disabled": 0, "fusion_lat": 0.0, "lat": 38.890875, "bike_id": "d71352781d243660e983327eebc4650a", "fusion_lon": 0.0}, {"rental_uris": {"ios": "https://dc.lft.to/lastmile_qr_scan", "android": "https://dc.lft.to/lastmile_qr_scan"}, "type": "electric_scooter", "name": "c50be9a85b80f0811253b3af3de513b4", "is_reserved": 0, "lon": -77.075532, "is_disabled": 0, "fusion_lat": 0.0, "lat": 38.90636933333333, "bike_id": "c50be9a85b80f0811253b3af3de513b4", "fusion_lon": 0.0}, {"rental_uris": {"ios": "https://dc.lft.to/lastmile_qr_scan", "android": "https://dc.lft.to/lastmile_qr_scan"}, "type": "electric_scooter", "name": "c6991cd5bba0e9a509678e0e39312c8c", "is_reserved": 0, "lon": -77.01725533333334, "is_disabled": 0, "fusion_lat": 0.0, "lat": 38.89226416666666, "bike_id": "c6991cd5bba0e9a509678e0e39312c8c", "fusion_lon": 0.0}, {"rental_uris": {"ios": "https://dc.lft.to/lastmile_qr_scan", "android": "https://dc.lft.to/lastmile_qr_scan"}, "type": "electric_scooter", "name": "4eca605a814beed915d8041ea6cf7a83", "is_reserved": 0, "lon": -77.07248483333333, "is_disabled": 0, "fusion_lat": 0.0, "lat": 38.93438733333333, "bike_id": "4eca605a814beed915d8041ea6cf7a83", "fusion_lon": 0.0}, {"rental_uris": {"ios": "https://dc.lft.to/lastmile_qr_scan", "android": "https://dc.lft.to/lastmile_qr_scan"}, "type": "electric_scooter", "name": "57a36dc459c6e5ba25a4b23910d85dfb", "is_reserved": 0, "lon": -77.0033815, "is_disabled": 0, "fusion_lat": 0.0, "lat": 38.913367666666666, "bike_id": "57a36dc459c6e5ba25a4b23910d85dfb", "fusion_lon": 0.0}, {"rental_uris": {"ios": "https://dc.lft.to/lastmile_qr_scan", "android": "https://dc.lft.to/lastmile_qr_scan"}, "type": "electric_scooter", "name": "7df2ffd8f6ef3de890b52952a6d1f301", "is_reserved": 0, "lon": -77.0386535, "is_disabled": 0, "fusion_lat": 0.0, "lat": 38.91111466666667, "bike_id": "7df2ffd8f6ef3de890b52952a6d1f301", "fusion_lon": 0.0}, {"rental_uris": {"ios": "https://dc.lft.to/lastmile_qr_scan", "android": "https://dc.lft.to/lastmile_qr_scan"}, "type": "electric_scooter", "name": "e5920125b02047a9cb2a1e0c0975c663", "is_reserved": 0, "lon": -77.032603, "is_disabled": 0, "fusion_lat": 0.0, "lat": 38.9105065, "bike_id": "e5920125b02047a9cb2a1e0c0975c663", "fusion_lon": 0.0}, {"rental_uris": {"ios": "https://dc.lft.to/lastmile_qr_scan", "android": "https://dc.lft.to/lastmile_qr_scan"}, "type": "electric_scooter", "name": "d0ae159e19251cb0d48e667f1c3b53f9", "is_reserved": 0, "lon": -77.0578695, "is_disabled": 0, "fusion_lat": 0.0, "lat": 38.90098533333333, "bike_id": "d0ae159e19251cb0d48e667f1c3b53f9", "fusion_lon": 0.0}, {"rental_uris": {"ios": "https://dc.lft.to/lastmile_qr_scan", "android": "https://dc.lft.to/lastmile_qr_scan"}, "type": "electric_scooter", "name": "2f867bdca76d6dc57f1fcc9e280d040f", "is_reserved": 0, "lon": -77.04203666666666, "is_disabled": 0, "fusion_lat": 0.0, "lat": 38.90384316666667, "bike_id": "2f867bdca76d6dc57f1fcc9e280d040f", "fusion_lon": 0.0}, {"rental_uris": {"ios": "https://dc.lft.to/lastmile_qr_scan", "android": "https://dc.lft.to/lastmile_qr_scan"}, "type": "electric_scooter", "name": "2f8ca84c13362d281055699e0047ba31", "is_reserved": 0, "lon": -77.014688, "is_disabled": 0, "fusion_lat": 0.0, "lat": 38.92662966666666, "bike_id": "2f8ca84c13362d281055699e0047ba31", "fusion_lon": 0.0}, {"rental_uris": {"ios": "https://dc.lft.to/lastmile_qr_scan", "android": "https://dc.lft.to/lastmile_qr_scan"}, "type": "electric_scooter", "name": "e216e73acd1d1fa63eabe9452289f7db", "is_reserved": 0, "lon": -77.03988733333334, "is_disabled": 0, "fusion_lat": 0.0, "lat": 38.93397183333333, "bike_id": "e216e73acd1d1fa63eabe9452289f7db", "fusion_lon": 0.0}, {"rental_uris": {"ios": "https://dc.lft.to/lastmile_qr_scan", "android": "https://dc.lft.to/lastmile_qr_scan"}, "type": "electric_scooter", "name": "998ae0ed7eea1cd08bab0a0625557b83", "is_reserved": 0, "lon": -76.99887816666667, "is_disabled": 0, "fusion_lat": 0.0, "lat": 38.90755516666667, "bike_id": "998ae0ed7eea1cd08bab0a0625557b83", "fusion_lon": 0.0}, {"rental_uris": {"ios": "https://dc.lft.to/lastmile_qr_scan", "android": "https://dc.lft.to/lastmile_qr_scan"}, "type": "electric_scooter", "name": "ea9370b1198392969184ef06f7ca0b6b", "is_reserved": 0, "lon": -77.03976283333333, "is_disabled": 0, "fusion_lat": 0.0, "lat": 38.892238, "bike_id": "ea9370b1198392969184ef06f7ca0b6b", "fusion_lon": 0.0}, {"rental_uris": {"ios": "https://dc.lft.to/lastmile_qr_scan", "android": "https://dc.lft.to/lastmile_qr_scan"}, "type": "electric_bike", "name": "76ddcf5b3e1f14bd1124aa457fc24cdc", "is_reserved": 0, "lon": -77.0242505, "is_disabled": 0, "fusion_lat": 0.0, "lat": 38.949152, "bike_id": "76ddcf5b3e1f14bd1124aa457fc24cdc", "fusion_lon": 0.0}, {"rental_uris": {"ios": "https://dc.lft.to/lastmile_qr_scan", "android": "https://dc.lft.to/lastmile_qr_scan"}, "type": "electric_scooter", "name": "5ac16d9bdfb094d66ad2bb291323ab7a", "is_reserved": 0, "lon": -77.00619283333333, "is_disabled": 0, "fusion_lat": 0.0, "lat": 38.87177916666667, "bike_id": "5ac16d9bdfb094d66ad2bb291323ab7a", "fusion_lon": 0.0}, {"rental_uris": {"ios": "https://dc.lft.to/lastmile_qr_scan", "android": "https://dc.lft.to/lastmile_qr_scan"}, "type": "electric_scooter", "name": "a807309056ce68a2a1f88eaf72fc95cf", "is_reserved": 0, "lon": -77.00487233333334, "is_disabled": 0, "fusion_lat": 0.0, "lat": 38.87457066666666, "bike_id": "a807309056ce68a2a1f88eaf72fc95cf", "fusion_lon": 0.0}, {"rental_uris": {"ios": "https://dc.lft.to/lastmile_qr_scan", "android": "https://dc.lft.to/lastmile_qr_scan"}, "type": "electric_bike", "name": "c44322bdf8b03775ee9ce3b217c5b4ec", "is_reserved": 0, "lon": -77.004005, "is_disabled": 0, "fusion_lat": 0.0, "lat": 38.92117416666667, "bike_id": "c44322bdf8b03775ee9ce3b217c5b4ec", "fusion_lon": 0.0}, {"rental_uris": {"ios": "https://dc.lft.to/lastmile_qr_scan", "android": "https://dc.lft.to/lastmile_qr_scan"}, "type": "electric_scooter", "name": "72f7c3f8a9807e24715594d99b2078fc", "is_reserved": 0, "lon": -77.02387833333333, "is_disabled": 0, "fusion_lat": 0.0, "lat": 38.91737, "bike_id": "72f7c3f8a9807e24715594d99b2078fc", "fusion_lon": 0.0}, {"rental_uris": {"ios": "https://dc.lft.to/lastmile_qr_scan", "android": "https://dc.lft.to/lastmile_qr_scan"}, "type": "electric_bike", "name": "eb802cef1191fd86e012e884caf6927f", "is_reserved": 0, "lon": -76.98059866666667, "is_disabled": 0, "fusion_lat": 0.0, "lat": 38.972525833333336, "bike_id": "eb802cef1191fd86e012e884caf6927f", "fusion_lon": 0.0}, {"rental_uris": {"ios": "https://dc.lft.to/lastmile_qr_scan", "android": "https://dc.lft.to/lastmile_qr_scan"}, "type": "electric_scooter", "name": "ff3c5a6b1488c7a181ce43a57b383bb0", "is_reserved": 0, "lon": -77.036668, "is_disabled": 0, "fusion_lat": 0.0, "lat": 38.939231166666666, "bike_id": "ff3c5a6b1488c7a181ce43a57b383bb0", "fusion_lon": 0.0}, {"rental_uris": {"ios": "https://dc.lft.to/lastmile_qr_scan", "android": "https://dc.lft.to/lastmile_qr_scan"}, "type": "electric_bike", "name": "a530e9e82450b1782b49c172bdc63f80", "is_reserved": 0, "lon": -77.09018533333334, "is_disabled": 0, "fusion_lat": 0.0, "lat": 38.92644933333333, "bike_id": "a530e9e82450b1782b49c172bdc63f80", "fusion_lon": 0.0}, {"rental_uris": {"ios": "https://dc.lft.to/lastmile_qr_scan", "android": "https://dc.lft.to/lastmile_qr_scan"}, "type": "electric_scooter", "name": "f86a8fbf8825861354e3b2eedf2307db", "is_reserved": 0, "lon": -77.03195333333333, "is_disabled": 0, "fusion_lat": 0.0, "lat": 38.918123666666666, "bike_id": "f86a8fbf8825861354e3b2eedf2307db", "fusion_lon": 0.0}, {"rental_uris": {"ios": "https://dc.lft.to/lastmile_qr_scan", "android": "https://dc.lft.to/lastmile_qr_scan"}, "type": "electric_scooter", "name": "61ddfba9c33da8def64214d21700aeb8", "is_reserved": 0, "lon": -77.026703, "is_disabled": 0, "fusion_lat": 0.0, "lat": 38.884949666666664, "bike_id": "61ddfba9c33da8def64214d21700aeb8", "fusion_lon": 0.0}, {"rental_uris": {"ios": "https://dc.lft.to/lastmile_qr_scan", "android": "https://dc.lft.to/lastmile_qr_scan"}, "type": "electric_scooter", "name": "fc1d3659b0232525bfb483da0c9c3cdf", "is_reserved": 0, "lon": -77.03984266666667, "is_disabled": 0, "fusion_lat": 0.0, "lat": 38.8922175, "bike_id": "fc1d3659b0232525bfb483da0c9c3cdf", "fusion_lon": 0.0}, {"rental_uris": {"ios": "https://dc.lft.to/lastmile_qr_scan", "android": "https://dc.lft.to/lastmile_qr_scan"}, "type": "electric_bike", "name": "87bf7ad598ae6e9c04956a327148e50d", "is_reserved": 0, "lon": -77.127061, "is_disabled": 0, "fusion_lat": 0.0, "lat": 38.8956735, "bike_id": "87bf7ad598ae6e9c04956a327148e50d", "fusion_lon": 0.0}, {"rental_uris": {"ios": "https://dc.lft.to/lastmile_qr_scan", "android": "https://dc.lft.to/lastmile_qr_scan"}, "type": "electric_bike", "name": "6ca43369271d07295006d4c56d5f3d6f", "is_reserved": 0, "lon": -76.95698733333333, "is_disabled": 0, "fusion_lat": 0.0, "lat": 38.850921166666666, "bike_id": "6ca43369271d07295006d4c56d5f3d6f", "fusion_lon": 0.0}, {"rental_uris": {"ios": "https://dc.lft.to/lastmile_qr_scan", "android": "https://dc.lft.to/lastmile_qr_scan"}, "type": "electric_scooter", "name": "cd43bee0e34c11ad4351de9a0011f8b0", "is_reserved": 0, "lon": -77.02950916666667, "is_disabled": 0, "fusion_lat": 0.0, "lat": 38.91693383333333, "bike_id": "cd43bee0e34c11ad4351de9a0011f8b0", "fusion_lon": 0.0}, {"rental_uris": {"ios": "https://dc.lft.to/lastmile_qr_scan", "android": "https://dc.lft.to/lastmile_qr_scan"}, "type": "electric_scooter", "name": "15a8ffdd89502d8e9117f4d2527ab878", "is_reserved": 0, "lon": -77.023761, "is_disabled": 0, "fusion_lat": 0.0, "lat": 38.902234666666665, "bike_id": "15a8ffdd89502d8e9117f4d2527ab878", "fusion_lon": 0.0}, {"rental_uris": {"ios": "https://dc.lft.to/lastmile_qr_scan", "android": "https://dc.lft.to/lastmile_qr_scan"}, "type": "electric_scooter", "name": "fbeac12e4477e5c005b02891f669c5dd", "is_reserved": 0, "lon": -76.9574415, "is_disabled": 0, "fusion_lat": 0.0, "lat": 38.88392433333333, "bike_id": "fbeac12e4477e5c005b02891f669c5dd", "fusion_lon": 0.0}, {"rental_uris": {"ios": "https://dc.lft.to/lastmile_qr_scan", "android": "https://dc.lft.to/lastmile_qr_scan"}, "type": "electric_scooter", "name": "7f7bb63b5d434465662dc12fe8c28988", "is_reserved": 0, "lon": -76.98353833333333, "is_disabled": 0, "fusion_lat": 0.0, "lat": 38.88742716666667, "bike_id": "7f7bb63b5d434465662dc12fe8c28988", "fusion_lon": 0.0}, {"rental_uris": {"ios": "https://dc.lft.to/lastmile_qr_scan", "android": "https://dc.lft.to/lastmile_qr_scan"}, "type": "electric_scooter", "name": "4b29dd757d90281710b69b33cf17f613", "is_reserved": 0, "lon": -77.007572, "is_disabled": 0, "fusion_lat": 0.0, "lat": 38.92532666666666, "bike_id": "4b29dd757d90281710b69b33cf17f613", "fusion_lon": 0.0}, {"rental_uris": {"ios": "https://dc.lft.to/lastmile_qr_scan", "android": "https://dc.lft.to/lastmile_qr_scan"}, "type": "electric_scooter", "name": "42dd457bccb81dd65ff917c8329835bc", "is_reserved": 0, "lon": -76.98075783333333, "is_disabled": 0, "fusion_lat": 0.0, "lat": 38.90413266666667, "bike_id": "42dd457bccb81dd65ff917c8329835bc", "fusion_lon": 0.0}, {"rental_uris": {"ios": "https://dc.lft.to/lastmile_qr_scan", "android": "https://dc.lft.to/lastmile_qr_scan"}, "type": "electric_scooter", "name": "f40b7cd2742272d168558f112fbdec18", "is_reserved": 0, "lon": -77.031272, "is_disabled": 0, "fusion_lat": 0.0, "lat": 38.92024683333333, "bike_id": "f40b7cd2742272d168558f112fbdec18", "fusion_lon": 0.0}, {"rental_uris": {"ios": "https://dc.lft.to/lastmile_qr_scan", "android": "https://dc.lft.to/lastmile_qr_scan"}, "type": "electric_scooter", "name": "52d48668bc3130c21692eb83c22f8050", "is_reserved": 0, "lon": -77.0207055, "is_disabled": 0, "fusion_lat": 0.0, "lat": 38.92408366666667, "bike_id": "52d48668bc3130c21692eb83c22f8050", "fusion_lon": 0.0}, {"rental_uris": {"ios": "https://dc.lft.to/lastmile_qr_scan", "android": "https://dc.lft.to/lastmile_qr_scan"}, "type": "electric_scooter", "name": "56dd177bcb5ac37a139b88015901143b", "is_reserved": 0, "lon": -77.02155533333334, "is_disabled": 0, "fusion_lat": 0.0, "lat": 38.87919266666667, "bike_id": "56dd177bcb5ac37a139b88015901143b", "fusion_lon": 0.0}, {"rental_uris": {"ios": "https://dc.lft.to/lastmile_qr_scan", "android": "https://dc.lft.to/lastmile_qr_scan"}, "type": "electric_scooter", "name": "efe10daf24db6cc12906a73305beb65b", "is_reserved": 0, "lon": -77.02274216666666, "is_disabled": 0, "fusion_lat": 0.0, "lat": 38.926725, "bike_id": "efe10daf24db6cc12906a73305beb65b", "fusion_lon": 0.0}, {"rental_uris": {"ios": "https://dc.lft.to/lastmile_qr_scan", "android": "https://dc.lft.to/lastmile_qr_scan"}, "type": "electric_scooter", "name": "36007009372971669b85c200c8c1a043", "is_reserved": 0, "lon": -77.039678, "is_disabled": 0, "fusion_lat": 0.0, "lat": 38.931488333333334, "bike_id": "36007009372971669b85c200c8c1a043", "fusion_lon": 0.0}, {"rental_uris": {"ios": "https://dc.lft.to/lastmile_qr_scan", "android": "https://dc.lft.to/lastmile_qr_scan"}, "type": "electric_scooter", "name": "ecd0ddf2d7627201a3e7959de7b5cb89", "is_reserved": 0, "lon": -77.02171383333334, "is_disabled": 0, "fusion_lat": 0.0, "lat": 38.92493966666667, "bike_id": "ecd0ddf2d7627201a3e7959de7b5cb89", "fusion_lon": 0.0}, {"rental_uris": {"ios": "https://dc.lft.to/lastmile_qr_scan", "android": "https://dc.lft.to/lastmile_qr_scan"}, "type": "electric_scooter", "name": "c7f097545a1477dca09fc34ab8e02b65", "is_reserved": 0, "lon": -77.04554733333333, "is_disabled": 0, "fusion_lat": 0.0, "lat": 38.90074766666667, "bike_id": "c7f097545a1477dca09fc34ab8e02b65", "fusion_lon": 0.0}, {"rental_uris": {"ios": "https://dc.lft.to/lastmile_qr_scan", "android": "https://dc.lft.to/lastmile_qr_scan"}, "type": "electric_scooter", "name": "86f0787796b5620a2b5adc8e97a37b03", "is_reserved": 0, "lon": -77.03474033333333, "is_disabled": 0, "fusion_lat": 0.0, "lat": 38.930329666666665, "bike_id": "86f0787796b5620a2b5adc8e97a37b03", "fusion_lon": 0.0}, {"rental_uris": {"ios": "https://dc.lft.to/lastmile_qr_scan", "android": "https://dc.lft.to/lastmile_qr_scan"}, "type": "electric_scooter", "name": "ecd539821a58b09ca679baf1b1b4941f", "is_reserved": 0, "lon": -77.00726583333334, "is_disabled": 0, "fusion_lat": 0.0, "lat": 38.878365, "bike_id": "ecd539821a58b09ca679baf1b1b4941f", "fusion_lon": 0.0}, {"rental_uris": {"ios": "https://dc.lft.to/lastmile_qr_scan", "android": "https://dc.lft.to/lastmile_qr_scan"}, "type": "electric_scooter", "name": "5a5ba8e2bcc4b082458f47cfa6bb37a8", "is_reserved": 0, "lon": -77.03896283333333, "is_disabled": 0, "fusion_lat": 0.0, "lat": 38.9222435, "bike_id": "5a5ba8e2bcc4b082458f47cfa6bb37a8", "fusion_lon": 0.0}, {"rental_uris": {"ios": "https://dc.lft.to/lastmile_qr_scan", "android": "https://dc.lft.to/lastmile_qr_scan"}, "type": "electric_bike", "name": "7c001d7ea2fef38043ee5d5a4daad430", "is_reserved": 0, "lon": -76.961517, "is_disabled": 0, "fusion_lat": 0.0, "lat": 38.85618366666667, "bike_id": "7c001d7ea2fef38043ee5d5a4daad430", "fusion_lon": 0.0}, {"rental_uris": {"ios": "https://dc.lft.to/lastmile_qr_scan", "android": "https://dc.lft.to/lastmile_qr_scan"}, "type": "electric_scooter", "name": "71ba932dc582122d127d2a8c480e0f28", "is_reserved": 0, "lon": -77.04511466666666, "is_disabled": 0, "fusion_lat": 0.0, "lat": 38.90764983333333, "bike_id": "71ba932dc582122d127d2a8c480e0f28", "fusion_lon": 0.0}, {"rental_uris": {"ios": "https://dc.lft.to/lastmile_qr_scan", "android": "https://dc.lft.to/lastmile_qr_scan"}, "type": "electric_scooter", "name": "43dba351ecebe40dcdf6cf64374d1f91", "is_reserved": 0, "lon": -77.06142983333334, "is_disabled": 0, "fusion_lat": 0.0, "lat": 38.90256216666667, "bike_id": "43dba351ecebe40dcdf6cf64374d1f91", "fusion_lon": 0.0}, {"rental_uris": {"ios": "https://dc.lft.to/lastmile_qr_scan", "android": "https://dc.lft.to/lastmile_qr_scan"}, "type": "electric_scooter", "name": "db1b27d3b5b1a650a1d824c4d9e276be", "is_reserved": 0, "lon": -77.02814033333334, "is_disabled": 0, "fusion_lat": 0.0, "lat": 38.909213666666666, "bike_id": "db1b27d3b5b1a650a1d824c4d9e276be", "fusion_lon": 0.0}, {"rental_uris": {"ios": "https://dc.lft.to/lastmile_qr_scan", "android": "https://dc.lft.to/lastmile_qr_scan"}, "type": "electric_scooter", "name": "26d4c5c8779eaf697cd8b383a1d42ece", "is_reserved": 0, "lon": -76.9974805, "is_disabled": 0, "fusion_lat": 0.0, "lat": 38.885327, "bike_id": "26d4c5c8779eaf697cd8b383a1d42ece", "fusion_lon": 0.0}, {"rental_uris": {"ios": "https://dc.lft.to/lastmile_qr_scan", "android": "https://dc.lft.to/lastmile_qr_scan"}, "type": "electric_scooter", "name": "8052a52a16d5967d4ea3c199bcd29f7c", "is_reserved": 0, "lon": -76.98416516666667, "is_disabled": 0, "fusion_lat": 0.0, "lat": 38.87994, "bike_id": "8052a52a16d5967d4ea3c199bcd29f7c", "fusion_lon": 0.0}, {"rental_uris": {"ios": "https://dc.lft.to/lastmile_qr_scan", "android": "https://dc.lft.to/lastmile_qr_scan"}, "type": "electric_scooter", "name": "104368cedd83f984db9ab686a63dd9b7", "is_reserved": 0, "lon": -77.02808883333333, "is_disabled": 0, "fusion_lat": 0.0, "lat": 38.9308465, "bike_id": "104368cedd83f984db9ab686a63dd9b7", "fusion_lon": 0.0}, {"rental_uris": {"ios": "https://dc.lft.to/lastmile_qr_scan", "android": "https://dc.lft.to/lastmile_qr_scan"}, "type": "electric_scooter", "name": "6432d0342bd02bafea106d79822a04a1", "is_reserved": 0, "lon": -77.03900066666667, "is_disabled": 0, "fusion_lat": 0.0, "lat": 38.92319533333333, "bike_id": "6432d0342bd02bafea106d79822a04a1", "fusion_lon": 0.0}, {"rental_uris": {"ios": "https://dc.lft.to/lastmile_qr_scan", "android": "https://dc.lft.to/lastmile_qr_scan"}, "type": "electric_scooter", "name": "121fd875b9aa105ecf0ee8ceb78d3fee", "is_reserved": 0, "lon": -77.04097466666667, "is_disabled": 0, "fusion_lat": 0.0, "lat": 38.91727133333333, "bike_id": "121fd875b9aa105ecf0ee8ceb78d3fee", "fusion_lon": 0.0}, {"rental_uris": {"ios": "https://dc.lft.to/lastmile_qr_scan", "android": "https://dc.lft.to/lastmile_qr_scan"}, "type": "electric_scooter", "name": "6ee3c825a0041423d172029d32a5c4d0", "is_reserved": 0, "lon": -77.02711883333333, "is_disabled": 0, "fusion_lat": 0.0, "lat": 38.92290533333333, "bike_id": "6ee3c825a0041423d172029d32a5c4d0", "fusion_lon": 0.0}, {"rental_uris": {"ios": "https://dc.lft.to/lastmile_qr_scan", "android": "https://dc.lft.to/lastmile_qr_scan"}, "type": "electric_scooter", "name": "2919faf18a39728fa8b067fe661a9c99", "is_reserved": 0, "lon": -77.0348165, "is_disabled": 0, "fusion_lat": 0.0, "lat": 38.9056235, "bike_id": "2919faf18a39728fa8b067fe661a9c99", "fusion_lon": 0.0}, {"rental_uris": {"ios": "https://dc.lft.to/lastmile_qr_scan", "android": "https://dc.lft.to/lastmile_qr_scan"}, "type": "electric_scooter", "name": "ea175895afdda3cb01dae492c1b8fb1f", "is_reserved": 0, "lon": -77.04356216666666, "is_disabled": 0, "fusion_lat": 0.0, "lat": 38.9072205, "bike_id": "ea175895afdda3cb01dae492c1b8fb1f", "fusion_lon": 0.0}, {"rental_uris": {"ios": "https://dc.lft.to/lastmile_qr_scan", "android": "https://dc.lft.to/lastmile_qr_scan"}, "type": "electric_scooter", "name": "e4378ff36cc1853ad8eb59e66411bf24", "is_reserved": 0, "lon": -77.0406035, "is_disabled": 0, "fusion_lat": 0.0, "lat": 38.91765933333333, "bike_id": "e4378ff36cc1853ad8eb59e66411bf24", "fusion_lon": 0.0}, {"rental_uris": {"ios": "https://dc.lft.to/lastmile_qr_scan", "android": "https://dc.lft.to/lastmile_qr_scan"}, "type": "electric_scooter", "name": "93ca01bb93c0c952dcd46f264de6a8ad", "is_reserved": 0, "lon": -77.0065085, "is_disabled": 0, "fusion_lat": 0.0, "lat": 38.8766465, "bike_id": "93ca01bb93c0c952dcd46f264de6a8ad", "fusion_lon": 0.0}, {"rental_uris": {"ios": "https://dc.lft.to/lastmile_qr_scan", "android": "https://dc.lft.to/lastmile_qr_scan"}, "type": "electric_scooter", "name": "131583fb20f745897228a6588d4ef9ea", "is_reserved": 0, "lon": -77.043732, "is_disabled": 0, "fusion_lat": 0.0, "lat": 38.92243033333333, "bike_id": "131583fb20f745897228a6588d4ef9ea", "fusion_lon": 0.0}, {"rental_uris": {"ios": "https://dc.lft.to/lastmile_qr_scan", "android": "https://dc.lft.to/lastmile_qr_scan"}, "type": "electric_scooter", "name": "6262b10a188dccd0fee075a2c3a53230", "is_reserved": 0, "lon": -77.02194716666666, "is_disabled": 0, "fusion_lat": 0.0, "lat": 38.91083666666667, "bike_id": "6262b10a188dccd0fee075a2c3a53230", "fusion_lon": 0.0}, {"rental_uris": {"ios": "https://dc.lft.to/lastmile_qr_scan", "android": "https://dc.lft.to/lastmile_qr_scan"}, "type": "electric_bike", "name": "589bc7520c7ef21a8bde81800361678b", "is_reserved": 0, "lon": -77.129058, "is_disabled": 0, "fusion_lat": 0.0, "lat": 38.79969, "bike_id": "589bc7520c7ef21a8bde81800361678b", "fusion_lon": 0.0}, {"rental_uris": {"ios": "https://dc.lft.to/lastmile_qr_scan", "android": "https://dc.lft.to/lastmile_qr_scan"}, "type": "electric_scooter", "name": "07321d884c8a2fbb8f141e768e49c6d2", "is_reserved": 0, "lon": -77.03644516666667, "is_disabled": 0, "fusion_lat": 0.0, "lat": 38.92306766666667, "bike_id": "07321d884c8a2fbb8f141e768e49c6d2", "fusion_lon": 0.0}, {"rental_uris": {"ios": "https://dc.lft.to/lastmile_qr_scan", "android": "https://dc.lft.to/lastmile_qr_scan"}, "type": "electric_bike", "name": "55934a7af49fdd512fc8327f01b88318", "is_reserved": 0, "lon": -76.9180345, "is_disabled": 0, "fusion_lat": 0.0, "lat": 39.00005766666666, "bike_id": "55934a7af49fdd512fc8327f01b88318", "fusion_lon": 0.0}, {"rental_uris": {"ios": "https://dc.lft.to/lastmile_qr_scan", "android": "https://dc.lft.to/lastmile_qr_scan"}, "type": "electric_scooter", "name": "c262db2e2fb3c75a8ef37efa7ff0605c", "is_reserved": 0, "lon": -77.04740383333333, "is_disabled": 0, "fusion_lat": 0.0, "lat": 38.917743333333334, "bike_id": "c262db2e2fb3c75a8ef37efa7ff0605c", "fusion_lon": 0.0}, {"rental_uris": {"ios": "https://dc.lft.to/lastmile_qr_scan", "android": "https://dc.lft.to/lastmile_qr_scan"}, "type": "electric_scooter", "name": "2a6e393d61c5a6d100c513df9a315eef", "is_reserved": 0, "lon": -76.99490683333333, "is_disabled": 0, "fusion_lat": 0.0, "lat": 38.882263333333334, "bike_id": "2a6e393d61c5a6d100c513df9a315eef", "fusion_lon": 0.0}, {"rental_uris": {"ios": "https://dc.lft.to/lastmile_qr_scan", "android": "https://dc.lft.to/lastmile_qr_scan"}, "type": "electric_scooter", "name": "37364c6052045783383c8c21411fd3de", "is_reserved": 0, "lon": -77.0348595, "is_disabled": 0, "fusion_lat": 0.0, "lat": 38.9191475, "bike_id": "37364c6052045783383c8c21411fd3de", "fusion_lon": 0.0}, {"rental_uris": {"ios": "https://dc.lft.to/lastmile_qr_scan", "android": "https://dc.lft.to/lastmile_qr_scan"}, "type": "electric_scooter", "name": "e4a4fdca28827ba25ff0babd863f286e", "is_reserved": 0, "lon": -77.040326, "is_disabled": 0, "fusion_lat": 0.0, "lat": 38.899331, "bike_id": "e4a4fdca28827ba25ff0babd863f286e", "fusion_lon": 0.0}, {"rental_uris": {"ios": "https://dc.lft.to/lastmile_qr_scan", "android": "https://dc.lft.to/lastmile_qr_scan"}, "type": "electric_bike", "name": "412a394ce2ea8834aa9c2c2b0c031743", "is_reserved": 0, "lon": -76.9416855, "is_disabled": 0, "fusion_lat": 0.0, "lat": 38.8655655, "bike_id": "412a394ce2ea8834aa9c2c2b0c031743", "fusion_lon": 0.0}, {"rental_uris": {"ios": "https://dc.lft.to/lastmile_qr_scan", "android": "https://dc.lft.to/lastmile_qr_scan"}, "type": "electric_scooter", "name": "1486d0f4d29b85a6ddafe6ea0962d941", "is_reserved": 0, "lon": -77.03464316666667, "is_disabled": 0, "fusion_lat": 0.0, "lat": 38.90726866666667, "bike_id": "1486d0f4d29b85a6ddafe6ea0962d941", "fusion_lon": 0.0}, {"rental_uris": {"ios": "https://dc.lft.to/lastmile_qr_scan", "android": "https://dc.lft.to/lastmile_qr_scan"}, "type": "electric_scooter", "name": "fda3f79c5da27600e1ea4fd5dac9a7f6", "is_reserved": 0, "lon": -77.01839633333333, "is_disabled": 0, "fusion_lat": 0.0, "lat": 38.90959266666667, "bike_id": "fda3f79c5da27600e1ea4fd5dac9a7f6", "fusion_lon": 0.0}, {"rental_uris": {"ios": "https://dc.lft.to/lastmile_qr_scan", "android": "https://dc.lft.to/lastmile_qr_scan"}, "type": "electric_scooter", "name": "ba99fc576d5f020d71bf86083d915a87", "is_reserved": 0, "lon": -77.039723, "is_disabled": 0, "fusion_lat": 0.0, "lat": 38.90724816666667, "bike_id": "ba99fc576d5f020d71bf86083d915a87", "fusion_lon": 0.0}, {"rental_uris": {"ios": "https://dc.lft.to/lastmile_qr_scan", "android": "https://dc.lft.to/lastmile_qr_scan"}, "type": "electric_scooter", "name": "e37f960b339341a349a8b1e0f28f54ff", "is_reserved": 0, "lon": -77.04070716666666, "is_disabled": 0, "fusion_lat": 0.0, "lat": 38.92378266666667, "bike_id": "e37f960b339341a349a8b1e0f28f54ff", "fusion_lon": 0.0}, {"rental_uris": {"ios": "https://dc.lft.to/lastmile_qr_scan", "android": "https://dc.lft.to/lastmile_qr_scan"}, "type": "electric_scooter", "name": "263fee583fd0baae8090484ed381fdc3", "is_reserved": 0, "lon": -77.03361366666667, "is_disabled": 0, "fusion_lat": 0.0, "lat": 38.910649, "bike_id": "263fee583fd0baae8090484ed381fdc3", "fusion_lon": 0.0}, {"rental_uris": {"ios": "https://dc.lft.to/lastmile_qr_scan", "android": "https://dc.lft.to/lastmile_qr_scan"}, "type": "electric_scooter", "name": "a27c03955e70efc8411236f5ddc564de", "is_reserved": 0, "lon": -77.0386355, "is_disabled": 0, "fusion_lat": 0.0, "lat": 38.92149083333334, "bike_id": "a27c03955e70efc8411236f5ddc564de", "fusion_lon": 0.0}, {"rental_uris": {"ios": "https://dc.lft.to/lastmile_qr_scan", "android": "https://dc.lft.to/lastmile_qr_scan"}, "type": "electric_scooter", "name": "df254bd924486da17c7568dfa5a2b1c0", "is_reserved": 0, "lon": -76.98031266666666, "is_disabled": 0, "fusion_lat": 0.0, "lat": 38.916743, "bike_id": "df254bd924486da17c7568dfa5a2b1c0", "fusion_lon": 0.0}, {"rental_uris": {"ios": "https://dc.lft.to/lastmile_qr_scan", "android": "https://dc.lft.to/lastmile_qr_scan"}, "type": "electric_scooter", "name": "796ca91877b9b433165324f582e10489", "is_reserved": 0, "lon": -77.0174075, "is_disabled": 0, "fusion_lat": 0.0, "lat": 38.91243733333334, "bike_id": "796ca91877b9b433165324f582e10489", "fusion_lon": 0.0}, {"rental_uris": {"ios": "https://dc.lft.to/lastmile_qr_scan", "android": "https://dc.lft.to/lastmile_qr_scan"}, "type": "electric_scooter", "name": "b2b32a6799ee3b39ba87383aada86ee9", "is_reserved": 0, "lon": -77.04388733333333, "is_disabled": 0, "fusion_lat": 0.0, "lat": 38.923567166666665, "bike_id": "b2b32a6799ee3b39ba87383aada86ee9", "fusion_lon": 0.0}, {"rental_uris": {"ios": "https://dc.lft.to/lastmile_qr_scan", "android": "https://dc.lft.to/lastmile_qr_scan"}, "type": "electric_scooter", "name": "c4ea1e7b5f0fa8653e70fc07e041dafc", "is_reserved": 0, "lon": -77.00984866666667, "is_disabled": 0, "fusion_lat": 0.0, "lat": 38.87294133333333, "bike_id": "c4ea1e7b5f0fa8653e70fc07e041dafc", "fusion_lon": 0.0}, {"rental_uris": {"ios": "https://dc.lft.to/lastmile_qr_scan", "android": "https://dc.lft.to/lastmile_qr_scan"},