{"data": {"bikes": [{"lon": -77.03280516666666, "lat": 38.936841333333334, "name": "7cd6d43a7abde059ef7631fc651d8229", "fusion_lat": 0.0, "fusion_lon": 0.0, "rental_uris": {"android": "https://dc.lft.to/lastmile_qr_scan", "ios": "https://dc.lft.to/lastmile_qr_scan"}, "is_reserved": 0, "is_disabled": 0, "type": "electric_scooter", "bike_id": "7cd6d43a7abde059ef7631fc651d8229"}, {"lon": -77.03191116666666, "lat": 38.8999765, "name": "1f8958b8effb39ec7734dd39805fd4f5", "fusion_lat": 0.0, "fusion_lon": 0.0, "rental_uris": {"android": "https://dc.lft.to/lastmile_qr_scan", "ios": "https://dc.lft.to/lastmile_qr_scan"}, "is_reserved": 0, "is_disabled": 0, "type": "electric_scooter", "bike_id": "1f8958b8effb39ec7734dd39805fd4f5"}, {"lon": -77.01920466666667, "lat": 38.917278333333336, "name": "dadb10ea69c7a0a1defee19256f353cb", "fusion_lat": 0.0, "fusion_lon": 0.0, "rental_uris": {"android": "https://dc.lft.to/lastmile_qr_scan", "ios": "https://dc.lft.to/lastmile_qr_scan"}, "is_reserved": 0, "is_disabled": 0, "type": "electric_scooter", "bike_id": "dadb10ea69c7a0a1defee19256f353cb"}, {"lon": -77.02008516666666, "lat": 38.90223816666666, "name": "5efd2a23f5919906f42eea5f1b4e22fc", "fusion_lat": 0.0, "fusion_lon": 0.0, "rental_uris": {"android": "https://dc.lft.to/lastmile_qr_scan", "ios": "https://dc.lft.to/lastmile_qr_scan"}, "is_reserved": 0, "is_disabled": 0, "type": "electric_scooter", "bike_id": "5efd2a23f5919906f42eea5f1b4e22fc"}, {"lon": -77.002088, "lat": 38.89173433333333, "name": "3910cf611912887dd7726687fe1891e0", "fusion_lat": 0.0, "fusion_lon": 0.0, "rental_uris": {"android": "https://dc.lft.to/lastmile_qr_scan", "ios": "https://dc.lft.to/lastmile_qr_scan"}, "is_reserved": 0, "is_disabled": 0, "type": "electric_scooter", "bike_id": "3910cf611912887dd7726687fe1891e0"}, {"lon": -77.02709483333334, "lat": 38.950013, "name": "fbd869679112f67d849e23f7bda20ae0", "fusion_lat": 0.0, "fusion_lon": 0.0, "rental_uris": {"android": "https://dc.lft.to/lastmile_qr_scan", "ios": "https://dc.lft.to/lastmile_qr_scan"}, "is_reserved": 0, "is_disabled": 0, "type": "electric_scooter", "bike_id": "fbd869679112f67d849e23f7bda20ae0"}, {"lon": -77.03291333333334, "lat": 38.95646983333334, "name": "5cdc0284a101087a23f2b26bae9372f6", "fusion_lat": 0.0, "fusion_lon": 0.0, "rental_uris": {"android": "https://dc.lft.to/lastmile_qr_scan", "ios": "https://dc.lft.to/lastmile_qr_scan"}, "is_reserved": 0, "is_disabled": 0, "type": "electric_scooter", "bike_id": "5cdc0284a101087a23f2b26bae9372f6"}, {"lon": -77.07019, "lat": 38.92762666666667, "name": "fbeb89b80d95d33e552af43c0f90225e", "fusion_lat": 0.0, "fusion_lon": 0.0, "rental_uris": {"android": "https://dc.lft.to/lastmile_qr_scan", "ios": "https://dc.lft.to/lastmile_qr_scan"}, "is_reserved": 0, "is_disabled": 0, "type": "electric_bike", "bike_id": "fbeb89b80d95d33e552af43c0f90225e"}, {"lon": -77.0893815, "lat": 38.840857, "name": "f1282ed607d1d438201a42963cdc1c58", "fusion_lat": 0.0, "fusion_lon": 0.0, "rental_uris": {"android": "https://dc.lft.to/lastmile_qr_scan", "ios": "https://dc.lft.to/lastmile_qr_scan"}, "is_reserved": 0, "is_disabled": 0, "type": "electric_bike", "bike_id": "f1282ed607d1d438201a42963cdc1c58"}, {"lon": -77.04070483333334, "lat": 38.812379, "name": "6a3fc24951130b2593f7463d874ef837", "fusion_lat": 0.0, "fusion_lon": 0.0, "rental_uris": {"android": "https://dc.lft.to/lastmile_qr_scan", "ios": "https://dc.lft.to/lastmile_qr_scan"}, "is_reserved": 0, "is_disabled": 0, "type": "electric_bike", "bike_id": "6a3fc24951130b2593f7463d874ef837"}, {"lon": -77.03869066666667, "lat": 38.9325145, "name": "e86b6070378cb0f3b39eef294ff6422d", "fusion_lat": 0.0, "fusion_lon": 0.0, "rental_uris": {"android": "https://dc.lft.to/lastmile_qr_scan", "ios": "https://dc.lft.to/lastmile_qr_scan"}, "is_reserved": 0, "is_disabled": 0, "type": "electric_scooter", "bike_id": "e86b6070378cb0f3b39eef294ff6422d"}, {"lon": -77.03834016666667, "lat": 38.90489066666667, "name": "b7ca8e24daefd3c8edca7fa6c735fcf1", "fusion_lat": 0.0, "fusion_lon": 0.0, "rental_uris": {"android": "https://dc.lft.to/lastmile_qr_scan", "ios": "https://dc.lft.to/lastmile_qr_scan"}, "is_reserved": 0, "is_disabled": 0, "type": "electric_scooter", "bike_id": "b7ca8e24daefd3c8edca7fa6c735fcf1"}, {"lon": -77.02986866666667, "lat": 38.956279333333335, "name": "df3c46f8a9eb29a8e2a2bfb51227a2fd", "fusion_lat": 0.0, "fusion_lon": 0.0, "rental_uris": {"android": "https://dc.lft.to/lastmile_qr_scan", "ios": "https://dc.lft.to/lastmile_qr_scan"}, "is_reserved": 0, "is_disabled": 0, "type": "electric_scooter", "bike_id": "df3c46f8a9eb29a8e2a2bfb51227a2fd"}, {"lon": -77.03566483333333, "lat": 38.91813366666667, "name": "1f7ba0a76fb2c41e4756f1431c6acbdb", "fusion_lat": 0.0, "fusion_lon": 0.0, "rental_uris": {"android": "https://dc.lft.to/lastmile_qr_scan", "ios": "https://dc.lft.to/lastmile_qr_scan"}, "is_reserved": 0, "is_disabled": 0, "type": "electric_scooter", "bike_id": "1f7ba0a76fb2c41e4756f1431c6acbdb"}, {"lon": -76.93203866666667, "lat": 38.87231116666667, "name": "db5483a1a7f0cccb285f545e01aaa801", "fusion_lat": 0.0, "fusion_lon": 0.0, "rental_uris": {"android": "https://dc.lft.to/lastmile_qr_scan", "ios": "https://dc.lft.to/lastmile_qr_scan"}, "is_reserved": 0, "is_disabled": 0, "type": "electric_bike", "bike_id": "db5483a1a7f0cccb285f545e01aaa801"}, {"lon": -77.03698083333333, "lat": 38.9169255, "name": "985b4ff3f38d7a9ba3c78c11a4dfb19e", "fusion_lat": 0.0, "fusion_lon": 0.0, "rental_uris": {"android": "https://dc.lft.to/lastmile_qr_scan", "ios": "https://dc.lft.to/lastmile_qr_scan"}, "is_reserved": 0, "is_disabled": 0, "type": "electric_scooter", "bike_id": "985b4ff3f38d7a9ba3c78c11a4dfb19e"}, {"lon": -77.02251816666667, "lat": 38.925016166666666, "name": "c5219a1fbaecd1768aa382645bc8a61b", "fusion_lat": 0.0, "fusion_lon": 0.0, "rental_uris": {"android": "https://dc.lft.to/lastmile_qr_scan", "ios": "https://dc.lft.to/lastmile_qr_scan"}, "is_reserved": 0, "is_disabled": 0, "type": "electric_scooter", "bike_id": "c5219a1fbaecd1768aa382645bc8a61b"}, {"lon": -77.0364135, "lat": 38.91257183333333, "name": "6c9ad205e88352020caf15d0629ef0ed", "fusion_lat": 0.0, "fusion_lon": 0.0, "rental_uris": {"android": "https://dc.lft.to/lastmile_qr_scan", "ios": "https://dc.lft.to/lastmile_qr_scan"}, "is_reserved": 0, "is_disabled": 0, "type": "electric_scooter", "bike_id": "6c9ad205e88352020caf15d0629ef0ed"}, {"lon": -77.032919, "lat": 38.95654583333334, "name": "ae831d7b1a5155e4819f0f59a6912599", "fusion_lat": 0.0, "fusion_lon": 0.0, "rental_uris": {"android": "https://dc.lft.to/lastmile_qr_scan", "ios": "https://dc.lft.to/lastmile_qr_scan"}, "is_reserved": 0, "is_disabled": 0, "type": "electric_scooter", "bike_id": "ae831d7b1a5155e4819f0f59a6912599"}, {"lon": -77.095495, "lat": 38.8372795, "name": "958b8263b2701f55544a33adacb5bc02", "fusion_lat": 0.0, "fusion_lon": 0.0, "rental_uris": {"android": "https://dc.lft.to/lastmile_qr_scan", "ios": "https://dc.lft.to/lastmile_qr_scan"}, "is_reserved": 0, "is_disabled": 0, "type": "electric_bike", "bike_id": "958b8263b2701f55544a33adacb5bc02"}, {"lon": -77.0116325, "lat": 38.8934095, "name": "51dd35550ba3230ddbc51c6d1fc5911d", "fusion_lat": 0.0, "fusion_lon": 0.0, "rental_uris": {"android": "https://dc.lft.to/lastmile_qr_scan", "ios": "https://dc.lft.to/lastmile_qr_scan"}, "is_reserved": 0, "is_disabled": 0, "type": "electric_scooter", "bike_id": "51dd35550ba3230ddbc51c6d1fc5911d"}, {"lon": -76.94942533333334, "lat": 38.8831485, "name": "a7bfe0ccc9a83d7106e1c71c96b58047", "fusion_lat": 0.0, "fusion_lon": 0.0, "rental_uris": {"android": "https://dc.lft.to/lastmile_qr_scan", "ios": "https://dc.lft.to/lastmile_qr_scan"}, "is_reserved": 0, "is_disabled": 0, "type": "electric_scooter", "bike_id": "a7bfe0ccc9a83d7106e1c71c96b58047"}, {"lon": -77.02912016666667, "lat": 38.90042833333333, "name": "f1437c5d1e64699fea1ecab0ced270d7", "fusion_lat": 0.0, "fusion_lon": 0.0, "rental_uris": {"android": "https://dc.lft.to/lastmile_qr_scan", "ios": "https://dc.lft.to/lastmile_qr_scan"}, "is_reserved": 0, "is_disabled": 0, "type": "electric_scooter", "bike_id": "f1437c5d1e64699fea1ecab0ced270d7"}, {"lon": -76.9977735, "lat": 38.84420383333333, "name": "90e350c95cab8f1dc99efb3d7a0eadf1", "fusion_lat": 0.0, "fusion_lon": 0.0, "rental_uris": {"android": "https://dc.lft.to/lastmile_qr_scan", "ios": "https://dc.lft.to/lastmile_qr_scan"}, "is_reserved": 0, "is_disabled": 0, "type": "electric_scooter", "bike_id": "90e350c95cab8f1dc99efb3d7a0eadf1"}, {"lon": -77.00371783333334, "lat": 38.836072, "name": "c24f5da368a4cba96cf4e53d8d9df2fc", "fusion_lat": 0.0, "fusion_lon": 0.0, "rental_uris": {"android": "https://dc.lft.to/lastmile_qr_scan", "ios": "https://dc.lft.to/lastmile_qr_scan"}, "is_reserved": 0, "is_disabled": 0, "type": "electric_bike", "bike_id": "c24f5da368a4cba96cf4e53d8d9df2fc"}, {"lon": -77.03512166666667, "lat": 38.975862666666664, "name": "02644df2bc416c4b1a7efb836e0d3f7d", "fusion_lat": 0.0, "fusion_lon": 0.0, "rental_uris": {"android": "https://dc.lft.to/lastmile_qr_scan", "ios": "https://dc.lft.to/lastmile_qr_scan"}, "is_reserved": 0, "is_disabled": 0, "type": "electric_bike", "bike_id": "02644df2bc416c4b1a7efb836e0d3f7d"}, {"lon": -77.04274983333333, "lat": 38.907020833333334, "name": "46815aa4408f60903bb5cdb4c51e85b8", "fusion_lat": 0.0, "fusion_lon": 0.0, "rental_uris": {"android": "https://dc.lft.to/lastmile_qr_scan", "ios": "https://dc.lft.to/lastmile_qr_scan"}, "is_reserved": 0, "is_disabled": 0, "type": "electric_scooter", "bike_id": "46815aa4408f60903bb5cdb4c51e85b8"}, {"lon": -76.9803785, "lat": 38.889654166666666, "name": "5782b6c6678ed5af589f88f37a9358cd", "fusion_lat": 0.0, "fusion_lon": 0.0, "rental_uris": {"android": "https://dc.lft.to/lastmile_qr_scan", "ios": "https://dc.lft.to/lastmile_qr_scan"}, "is_reserved": 0, "is_disabled": 0, "type": "electric_scooter", "bike_id": "5782b6c6678ed5af589f88f37a9358cd"}, {"lon": -77.07350916666667, "lat": 38.91096233333333, "name": "dc145010c6c1e14117498471597bdf2d", "fusion_lat": 0.0, "fusion_lon": 0.0, "rental_uris": {"android": "https://dc.lft.to/lastmile_qr_scan", "ios": "https://dc.lft.to/lastmile_qr_scan"}, "is_reserved": 0, "is_disabled": 0, "type": "electric_scooter", "bike_id": "dc145010c6c1e14117498471597bdf2d"}, {"lon": -77.03176816666667, "lat": 38.91916766666667, "name": "0bd5b80da45dd3cd2ce453cbb0451191", "fusion_lat": 0.0, "fusion_lon": 0.0, "rental_uris": {"android": "https://dc.lft.to/lastmile_qr_scan", "ios": "https://dc.lft.to/lastmile_qr_scan"}, "is_reserved": 0, "is_disabled": 0, "type": "electric_scooter", "bike_id": "0bd5b80da45dd3cd2ce453cbb0451191"}, {"lon": -77.0212545, "lat": 38.923912333333334, "name": "d1e099132f43f28e0c5ea197c32ac107", "fusion_lat": 0.0, "fusion_lon": 0.0, "rental_uris": {"android": "https://dc.lft.to/lastmile_qr_scan", "ios": "https://dc.lft.to/lastmile_qr_scan"}, "is_reserved": 0, "is_disabled": 0, "type": "electric_scooter", "bike_id": "d1e099132f43f28e0c5ea197c32ac107"}, {"lon": -77.0071715, "lat": 38.904959833333336, "name": "c96791b20698ae5416f60be0ea5b39c4", "fusion_lat": 0.0, "fusion_lon": 0.0, "rental_uris": {"android": "https://dc.lft.to/lastmile_qr_scan", "ios": "https://dc.lft.to/lastmile_qr_scan"}, "is_reserved": 0, "is_disabled": 0, "type": "electric_scooter", "bike_id": "c96791b20698ae5416f60be0ea5b39c4"}, {"lon": -77.03329333333333, "lat": 38.89873683333333, "name": "77049a065c67af09405c4c2c43c6777f", "fusion_lat": 0.0, "fusion_lon": 0.0, "rental_uris": {"android": "https://dc.lft.to/lastmile_qr_scan", "ios": "https://dc.lft.to/lastmile_qr_scan"}, "is_reserved": 0, "is_disabled": 0, "type": "electric_scooter", "bike_id": "77049a065c67af09405c4c2c43c6777f"}, {"lon": -77.02828016666666, "lat": 38.892247833333336, "name": "440749deb2bd963e3216ae0903df314b", "fusion_lat": 0.0, "fusion_lon": 0.0, "rental_uris": {"android": "https://dc.lft.to/lastmile_qr_scan", "ios": "https://dc.lft.to/lastmile_qr_scan"}, "is_reserved": 0, "is_disabled": 0, "type": "electric_scooter", "bike_id": "440749deb2bd963e3216ae0903df314b"}, {"lon": -77.0218325, "lat": 38.909702833333334, "name": "725f8a4285448319e7feaf03eeae2c46", "fusion_lat": 0.0, "fusion_lon": 0.0, "rental_uris": {"android": "https://dc.lft.to/lastmile_qr_scan", "ios": "https://dc.lft.to/lastmile_qr_scan"}, "is_reserved": 0, "is_disabled": 0, "type": "electric_scooter", "bike_id": "725f8a4285448319e7feaf03eeae2c46"}, {"lon": -77.0603175, "lat": 38.93923266666667, "name": "3b51b240852bfe833c06d72fc59e8ba3", "fusion_lat": 0.0, "fusion_lon": 0.0, "rental_uris": {"android": "https://dc.lft.to/lastmile_qr_scan", "ios": "https://dc.lft.to/lastmile_qr_scan"}, "is_reserved": 0, "is_disabled": 0, "type": "electric_scooter", "bike_id": "3b51b240852bfe833c06d72fc59e8ba3"}, {"lon": -77.04524866666667, "lat": 38.903476833333336, "name": "046f4f969488bc000aedb3119cf713d4", "fusion_lat": 0.0, "fusion_lon": 0.0, "rental_uris": {"android": "https://dc.lft.to/lastmile_qr_scan", "ios": "https://dc.lft.to/lastmile_qr_scan"}, "is_reserved": 0, "is_disabled": 0, "type": "electric_scooter", "bike_id": "046f4f969488bc000aedb3119cf713d4"}, {"lon": -76.933469, "lat": 38.89902516666667, "name": "cbbeba5e4d82c15dbfb3e7106d16c134", "fusion_lat": 0.0, "fusion_lon": 0.0, "rental_uris": {"android": "https://dc.lft.to/lastmile_qr_scan", "ios": "https://dc.lft.to/lastmile_qr_scan"}, "is_reserved": 0, "is_disabled": 0, "type": "electric_scooter", "bike_id": "cbbeba5e4d82c15dbfb3e7106d16c134"}, {"lon": -77.04665416666667, "lat": 38.89336516666667, "name": "69dc9d33ea496800efee4a36f9a9c611", "fusion_lat": 0.0, "fusion_lon": 0.0, "rental_uris": {"android": "https://dc.lft.to/lastmile_qr_scan", "ios": "https://dc.lft.to/lastmile_qr_scan"}, "is_reserved": 0, "is_disabled": 0, "type": "electric_scooter", "bike_id": "69dc9d33ea496800efee4a36f9a9c611"}, {"lon": -77.03261183333333, "lat": 38.9044835, "name": "c2dbc6554f586f0fd39053e4c4719b1e", "fusion_lat": 0.0, "fusion_lon": 0.0, "rental_uris": {"android": "https://dc.lft.to/lastmile_qr_scan", "ios": "https://dc.lft.to/lastmile_qr_scan"}, "is_reserved": 0, "is_disabled": 0, "type": "electric_scooter", "bike_id": "c2dbc6554f586f0fd39053e4c4719b1e"}, {"lon": -76.93175766666667, "lat": 38.898870333333335, "name": "0f01352f83f001eb6967a985d9acc20f", "fusion_lat": 0.0, "fusion_lon": 0.0, "rental_uris": {"android": "https://dc.lft.to/lastmile_qr_scan", "ios": "https://dc.lft.to/lastmile_qr_scan"}, "is_reserved": 0, "is_disabled": 0, "type": "electric_scooter", "bike_id": "0f01352f83f001eb6967a985d9acc20f"}, {"lon": -77.01912866666666, "lat": 38.902453, "name": "4c6f5143ef12e03a7583b5211448a033", "fusion_lat": 0.0, "fusion_lon": 0.0, "rental_uris": {"android": "https://dc.lft.to/lastmile_qr_scan", "ios": "https://dc.lft.to/lastmile_qr_scan"}, "is_reserved": 0, "is_disabled": 0, "type": "electric_scooter", "bike_id": "4c6f5143ef12e03a7583b5211448a033"}, {"lon": -77.061177, "lat": 38.90198516666667, "name": "636f939ce0167e4c6353c9f011b4b3a0", "fusion_lat": 0.0, "fusion_lon": 0.0, "rental_uris": {"android": "https://dc.lft.to/lastmile_qr_scan", "ios": "https://dc.lft.to/lastmile_qr_scan"}, "is_reserved": 0, "is_disabled": 0, "type": "electric_scooter", "bike_id": "636f939ce0167e4c6353c9f011b4b3a0"}, {"lon": -77.0021025, "lat": 38.90216983333333, "name": "f8cddbe65a04264b28cec02897f00233", "fusion_lat": 0.0, "fusion_lon": 0.0, "rental_uris": {"android": "https://dc.lft.to/lastmile_qr_scan", "ios": "https://dc.lft.to/lastmile_qr_scan"}, "is_reserved": 0, "is_disabled": 0, "type": "electric_scooter", "bike_id": "f8cddbe65a04264b28cec02897f00233"}, {"lon": -77.03315166666667, "lat": 38.89881233333333, "name": "a438c4dfcee169b137352a8661b2945d", "fusion_lat": 0.0, "fusion_lon": 0.0, "rental_uris": {"android": "https://dc.lft.to/lastmile_qr_scan", "ios": "https://dc.lft.to/lastmile_qr_scan"}, "is_reserved": 0, "is_disabled": 0, "type": "electric_scooter", "bike_id": "a438c4dfcee169b137352a8661b2945d"}, {"lon": -76.99505783333333, "lat": 38.879750333333334, "name": "1398cb8fbc70a195ea5677d67daf8593", "fusion_lat": 0.0, "fusion_lon": 0.0, "rental_uris": {"android": "https://dc.lft.to/lastmile_qr_scan", "ios": "https://dc.lft.to/lastmile_qr_scan"}, "is_reserved": 0, "is_disabled": 0, "type": "electric_scooter", "bike_id": "1398cb8fbc70a195ea5677d67daf8593"}, {"lon": -77.03166866666666, "lat": 38.8863215, "name": "bb411cd1a2bed1f34ff6c12668135ceb", "fusion_lat": 0.0, "fusion_lon": 0.0, "rental_uris": {"android": "https://dc.lft.to/lastmile_qr_scan", "ios": "https://dc.lft.to/lastmile_qr_scan"}, "is_reserved": 0, "is_disabled": 0, "type": "electric_scooter", "bike_id": "bb411cd1a2bed1f34ff6c12668135ceb"}, {"lon": -77.031953, "lat": 38.92069983333333, "name": "8cd369dce183c8e14db87c64d7b03965", "fusion_lat": 0.0, "fusion_lon": 0.0, "rental_uris": {"android": "https://dc.lft.to/lastmile_qr_scan", "ios": "https://dc.lft.to/lastmile_qr_scan"}, "is_reserved": 0, "is_disabled": 0, "type": "electric_scooter", "bike_id": "8cd369dce183c8e14db87c64d7b03965"}, {"lon": -76.99957016666667, "lat": 38.908681666666666, "name": "4b6149f94d07fd70915e717e7cb7b428", "fusion_lat": 0.0, "fusion_lon": 0.0, "rental_uris": {"android": "https://dc.lft.to/lastmile_qr_scan", "ios": "https://dc.lft.to/lastmile_qr_scan"}, "is_reserved": 0, "is_disabled": 0, "type": "electric_scooter", "bike_id": "4b6149f94d07fd70915e717e7cb7b428"}, {"lon": -77.00903466666666, "lat": 38.8972665, "name": "952d4d96e1edf8d2ca2410bec1930d4c", "fusion_lat": 0.0, "fusion_lon": 0.0, "rental_uris": {"android": "https://dc.lft.to/lastmile_qr_scan", "ios": "https://dc.lft.to/lastmile_qr_scan"}, "is_reserved": 0, "is_disabled": 0, "type": "electric_scooter", "bike_id": "952d4d96e1edf8d2ca2410bec1930d4c"}, {"lon": -77.01889966666667, "lat": 38.911857166666664, "name": "9ecd7b46cd319df49e1b1812a8aeb43e", "fusion_lat": 0.0, "fusion_lon": 0.0, "rental_uris": {"android": "https://dc.lft.to/lastmile_qr_scan", "ios": "https://dc.lft.to/lastmile_qr_scan"}, "is_reserved": 0, "is_disabled": 0, "type": "electric_scooter", "bike_id": "9ecd7b46cd319df49e1b1812a8aeb43e"}, {"lon": -77.13231516666667, "lat": 38.869722, "name": "35e69f92c378c6e191f3f205fc40ce58", "fusion_lat": 0.0, "fusion_lon": 0.0, "rental_uris": {"android": "https://dc.lft.to/lastmile_qr_scan", "ios": "https://dc.lft.to/lastmile_qr_scan"}, "is_reserved": 0, "is_disabled": 0, "type": "electric_bike", "bike_id": "35e69f92c378c6e191f3f205fc40ce58"}, {"lon": -77.0330375, "lat": 38.8964275, "name": "3794988ffb4f214566af7a32ef7686ac", "fusion_lat": 0.0, "fusion_lon": 0.0, "rental_uris": {"android": "https://dc.lft.to/lastmile_qr_scan", "ios": "https://dc.lft.to/lastmile_qr_scan"}, "is_reserved": 0, "is_disabled": 0, "type": "electric_scooter", "bike_id": "3794988ffb4f214566af7a32ef7686ac"}, {"lon": -77.0383455, "lat": 38.9119295, "name": "71a9c1c652dec23d5c682b68535953ff", "fusion_lat": 0.0, "fusion_lon": 0.0, "rental_uris": {"android": "https://dc.lft.to/lastmile_qr_scan", "ios": "https://dc.lft.to/lastmile_qr_scan"}, "is_reserved": 0, "is_disabled": 0, "type": "electric_scooter", "bike_id": "71a9c1c652dec23d5c682b68535953ff"}, {"lon": -77.032565, "lat": 38.932438166666664, "name": "578b17f736980b1c45a44c69d28e84f7", "fusion_lat": 0.0, "fusion_lon": 0.0, "rental_uris": {"android": "https://dc.lft.to/lastmile_qr_scan", "ios": "https://dc.lft.to/lastmile_qr_scan"}, "is_reserved": 0, "is_disabled": 0, "type": "electric_scooter", "bike_id": "578b17f736980b1c45a44c69d28e84f7"}, {"lon": -77.03238466666667, "lat": 38.91474766666666, "name": "4e0a25b8cb2b134dae4eda6e90b517a4", "fusion_lat": 0.0, "fusion_lon": 0.0, "rental_uris": {"android": "https://dc.lft.to/lastmile_qr_scan", "ios": "https://dc.lft.to/lastmile_qr_scan"}, "is_reserved": 0, "is_disabled": 0, "type": "electric_scooter", "bike_id": "4e0a25b8cb2b134dae4eda6e90b517a4"}, {"lon": -77.03290866666667, "lat": 38.92842016666667, "name": "ffbddf8a84d96281c29054b5b5c7e5da", "fusion_lat": 0.0, "fusion_lon": 0.0, "rental_uris": {"android": "https://dc.lft.to/lastmile_qr_scan", "ios": "https://dc.lft.to/lastmile_qr_scan"}, "is_reserved": 0, "is_disabled": 0, "type": "electric_scooter", "bike_id": "ffbddf8a84d96281c29054b5b5c7e5da"}, {"lon": -76.98535466666667, "lat": 38.88390183333333, "name": "cfdb8fae69ec21f69805f43ffc51b8db", "fusion_lat": 0.0, "fusion_lon": 0.0, "rental_uris": {"android": "https://dc.lft.to/lastmile_qr_scan", "ios": "https://dc.lft.to/lastmile_qr_scan"}, "is_reserved": 0, "is_disabled": 0, "type": "electric_scooter", "bike_id": "cfdb8fae69ec21f69805f43ffc51b8db"}, {"lon": -77.02646533333333, "lat": 38.88089733333333, "name": "ee8260c9265307cc49092777a66bf2be", "fusion_lat": 0.0, "fusion_lon": 0.0, "rental_uris": {"android": "https://dc.lft.to/lastmile_qr_scan", "ios": "https://dc.lft.to/lastmile_qr_scan"}, "is_reserved": 0, "is_disabled": 0, "type": "electric_scooter", "bike_id": "ee8260c9265307cc49092777a66bf2be"}, {"lon": -77.033599, "lat": 38.89987166666667, "name": "38bbe47722e0a18b22d0870e888e2936", "fusion_lat": 0.0, "fusion_lon": 0.0, "rental_uris": {"android": "https://dc.lft.to/lastmile_qr_scan", "ios": "https://dc.lft.to/lastmile_qr_scan"}, "is_reserved": 0, "is_disabled": 0, "type": "electric_scooter", "bike_id": "38bbe47722e0a18b22d0870e888e2936"}, {"lon": -77.026997, "lat": 38.906724, "name": "97dd29c8b35ec1d7fa11699ebdd2ce66", "fusion_lat": 0.0, "fusion_lon": 0.0, "rental_uris": {"android": "https://dc.lft.to/lastmile_qr_scan", "ios": "https://dc.lft.to/lastmile_qr_scan"}, "is_reserved": 0, "is_disabled": 0, "type": "electric_scooter", "bike_id": "97dd29c8b35ec1d7fa11699ebdd2ce66"}, {"lon": -77.0422985, "lat": 38.911036833333334, "name": "93ef3a6e69f092c0b857745d17a1a30e", "fusion_lat": 0.0, "fusion_lon": 0.0, "rental_uris": {"android": "https://dc.lft.to/lastmile_qr_scan", "ios": "https://dc.lft.to/lastmile_qr_scan"}, "is_reserved": 0, "is_disabled": 0, "type": "electric_scooter", "bike_id": "93ef3a6e69f092c0b857745d17a1a30e"}, {"lon": -77.03478616666666, "lat": 38.90267683333333, "name": "f05e966f840487e17f26d00fd91c66c6", "fusion_lat": 0.0, "fusion_lon": 0.0, "rental_uris": {"android": "https://dc.lft.to/lastmile_qr_scan", "ios": "https://dc.lft.to/lastmile_qr_scan"}, "is_reserved": 0, "is_disabled": 0, "type": "electric_scooter", "bike_id": "f05e966f840487e17f26d00fd91c66c6"}, {"lon": -77.04478616666667, "lat": 38.899624333333335, "name": "7e760c51003666a84348ece6b8c9ec29", "fusion_lat": 0.0, "fusion_lon": 0.0, "rental_uris": {"android": "https://dc.lft.to/lastmile_qr_scan", "ios": "https://dc.lft.to/lastmile_qr_scan"}, "is_reserved": 0, "is_disabled": 0, "type": "electric_scooter", "bike_id": "7e760c51003666a84348ece6b8c9ec29"}, {"lon": -76.988282, "lat": 38.880243166666666, "name": "fb6f6b8a9003dd8ad78ad374e4eabf76", "fusion_lat": 0.0, "fusion_lon": 0.0, "rental_uris": {"android": "https://dc.lft.to/lastmile_qr_scan", "ios": "https://dc.lft.to/lastmile_qr_scan"}, "is_reserved": 0, "is_disabled": 0, "type": "electric_scooter", "bike_id": "fb6f6b8a9003dd8ad78ad374e4eabf76"}, {"lon": -77.0268485, "lat": 38.924869, "name": "d14bc2fcd7bfd2c7c53e2feb99e9beb2", "fusion_lat": 0.0, "fusion_lon": 0.0, "rental_uris": {"android": "https://dc.lft.to/lastmile_qr_scan", "ios": "https://dc.lft.to/lastmile_qr_scan"}, "is_reserved": 0, "is_disabled": 0, "type": "electric_scooter", "bike_id": "d14bc2fcd7bfd2c7c53e2feb99e9beb2"}, {"lon": -77.047898, "lat": 38.89377116666667, "name": "0627aeec95b8cc04a18879d3bf3c3227", "fusion_lat": 0.0, "fusion_lon": 0.0, "rental_uris": {"android": "https://dc.lft.to/lastmile_qr_scan", "ios": "https://dc.lft.to/lastmile_qr_scan"}, "is_reserved": 0, "is_disabled": 0, "type": "electric_scooter", "bike_id": "0627aeec95b8cc04a18879d3bf3c3227"}, {"lon": -77.06716616666667, "lat": 38.9107785, "name": "1d7d8e129a909239964ec2fd0fe9fed6", "fusion_lat": 0.0, "fusion_lon": 0.0, "rental_uris": {"android": "https://dc.lft.to/lastmile_qr_scan", "ios": "https://dc.lft.to/lastmile_qr_scan"}, "is_reserved": 0, "is_disabled": 0, "type": "electric_bike", "bike_id": "1d7d8e129a909239964ec2fd0fe9fed6"}, {"lon": -76.997625, "lat": 38.9228385, "name": "15a8d2d7929ed70c77eb97a6c9d6462e", "fusion_lat": 0.0, "fusion_lon": 0.0, "rental_uris": {"android": "https://dc.lft.to/lastmile_qr_scan", "ios": "https://dc.lft.to/lastmile_qr_scan"}, "is_reserved": 0, "is_disabled": 0, "type": "electric_scooter", "bike_id": "15a8d2d7929ed70c77eb97a6c9d6462e"}, {"lon": -76.99032583333333, "lat": 38.89850966666667, "name": "89b8538907d277dd2b2ec8d3ed4909a6", "fusion_lat": 0.0, "fusion_lon": 0.0, "rental_uris": {"android": "https://dc.lft.to/lastmile_qr_scan", "ios": "https://dc.lft.to/lastmile_qr_scan"}, "is_reserved": 0, "is_disabled": 0, "type": "electric_scooter", "bike_id": "89b8538907d277dd2b2ec8d3ed4909a6"}, {"lon": -77.0440975, "lat": 38.9058435, "name": "7487dcf1455af0ee28af8e7b432c211a", "fusion_lat": 0.0, "fusion_lon": 0.0, "rental_uris": {"android": "https://dc.lft.to/lastmile_qr_scan", "ios": "https://dc.lft.to/lastmile_qr_scan"}, "is_reserved": 0, "is_disabled": 0, "type": "electric_scooter", "bike_id": "7487dcf1455af0ee28af8e7b432c211a"}, {"lon": -77.01652816666666, "lat": 38.953293333333335, "name": "40608d00e83c300015de19b7f713adf5", "fusion_lat": 0.0, "fusion_lon": 0.0, "rental_uris": {"android": "https://dc.lft.to/lastmile_qr_scan", "ios": "https://dc.lft.to/lastmile_qr_scan"}, "is_reserved": 0, "is_disabled": 0, "type": "electric_scooter", "bike_id": "40608d00e83c300015de19b7f713adf5"}, {"lon": -76.97562866666667, "lat": 38.92459566666667, "name": "f7e5a820994d5ab8c5672b4456a5e1ad", "fusion_lat": 0.0, "fusion_lon": 0.0, "rental_uris": {"android": "https://dc.lft.to/lastmile_qr_scan", "ios": "https://dc.lft.to/lastmile_qr_scan"}, "is_reserved": 0, "is_disabled": 0, "type": "electric_bike", "bike_id": "f7e5a820994d5ab8c5672b4456a5e1ad"}, {"lon": -77.02201083333334, "lat": 38.931273, "name": "548e10e5957f6cf0d32791028f42877a", "fusion_lat": 0.0, "fusion_lon": 0.0, "rental_uris": {"android": "https://dc.lft.to/lastmile_qr_scan", "ios": "https://dc.lft.to/lastmile_qr_scan"}, "is_reserved": 0, "is_disabled": 0, "type": "electric_scooter", "bike_id": "548e10e5957f6cf0d32791028f42877a"}, {"lon": -77.06004883333334, "lat": 38.902976333333335, "name": "62014c305301d674179fc308d9703a40", "fusion_lat": 0.0, "fusion_lon": 0.0, "rental_uris": {"android": "https://dc.lft.to/lastmile_qr_scan", "ios": "https://dc.lft.to/lastmile_qr_scan"}, "is_reserved": 0, "is_disabled": 0, "type": "electric_bike", "bike_id": "62014c305301d674179fc308d9703a40"}, {"lon": -77.01837883333333, "lat": 38.90877283333333, "name": "6718a2f736ec94b13a44ced099270f23", "fusion_lat": 0.0, "fusion_lon": 0.0, "rental_uris": {"android": "https://dc.lft.to/lastmile_qr_scan", "ios": "https://dc.lft.to/lastmile_qr_scan"}, "is_reserved": 0, "is_disabled": 0, "type": "electric_scooter", "bike_id": "6718a2f736ec94b13a44ced099270f23"}, {"lon": -76.98266133333334, "lat": 38.863603166666664, "name": "7977df69f004390c90632476abda89cb", "fusion_lat": 0.0, "fusion_lon": 0.0, "rental_uris": {"android": "https://dc.lft.to/lastmile_qr_scan", "ios": "https://dc.lft.to/lastmile_qr_scan"}, "is_reserved": 0, "is_disabled": 0, "type": "electric_scooter", "bike_id": "7977df69f004390c90632476abda89cb"}, {"lon": -77.03263316666667, "lat": 38.938182166666664, "name": "669cdbfb66fe433b33690cbb0aa94329", "fusion_lat": 0.0, "fusion_lon": 0.0, "rental_uris": {"android": "https://dc.lft.to/lastmile_qr_scan", "ios": "https://dc.lft.to/lastmile_qr_scan"}, "is_reserved": 0, "is_disabled": 0, "type": "electric_scooter", "bike_id": "669cdbfb66fe433b33690cbb0aa94329"}, {"lon": -77.0423415, "lat": 38.938656333333334, "name": "dddc99ffdd5efebcc023df34258052e2", "fusion_lat": 0.0, "fusion_lon": 0.0, "rental_uris": {"android": "https://dc.lft.to/lastmile_qr_scan", "ios": "https://dc.lft.to/lastmile_qr_scan"}, "is_reserved": 0, "is_disabled": 0, "type": "electric_bike", "bike_id": "dddc99ffdd5efebcc023df34258052e2"}, {"lon": -77.052651, "lat": 38.91032283333333, "name": "ee9fac52aa182d11010acee2cd122b19", "fusion_lat": 0.0, "fusion_lon": 0.0, "rental_uris": {"android": "https://dc.lft.to/lastmile_qr_scan", "ios": "https://dc.lft.to/lastmile_qr_scan"}, "is_reserved": 0, "is_disabled": 0, "type": "electric_scooter", "bike_id": "ee9fac52aa182d11010acee2cd122b19"}, {"lon": -76.9733145, "lat": 38.850613, "name": "5fd6c40c58be5b5e4df8fa0e30e56d89", "fusion_lat": 0.0, "fusion_lon": 0.0, "rental_uris": {"android": "https://dc.lft.to/lastmile_qr_scan", "ios": "https://dc.lft.to/lastmile_qr_scan"}, "is_reserved": 0, "is_disabled": 0, "type": "electric_bike", "bike_id": "5fd6c40c58be5b5e4df8fa0e30e56d89"}, {"lon": -77.03807416666666, "lat": 38.914140833333335, "name": "10ba3438e3beb9329ce1b3c9509a1ba5", "fusion_lat": 0.0, "fusion_lon": 0.0, "rental_uris": {"android": "https://dc.lft.to/lastmile_qr_scan", "ios": "https://dc.lft.to/lastmile_qr_scan"}, "is_reserved": 0, "is_disabled": 0, "type": "electric_scooter", "bike_id": "10ba3438e3beb9329ce1b3c9509a1ba5"}, {"lon": -77.02184616666666, "lat": 38.91138633333333, "name": "796c165cb4510b6535edfd5efafac3ab", "fusion_lat": 0.0, "fusion_lon": 0.0, "rental_uris": {"android": "https://dc.lft.to/lastmile_qr_scan", "ios": "https://dc.lft.to/lastmile_qr_scan"}, "is_reserved": 0, "is_disabled": 0, "type": "electric_scooter", "bike_id": "796c165cb4510b6535edfd5efafac3ab"}, {"lon": -77.0270735, "lat": 38.92882766666666, "name": "45f6729d7409ca3a320d8723eb2583db", "fusion_lat": 0.0, "fusion_lon": 0.0, "rental_uris": {"android": "https://dc.lft.to/lastmile_qr_scan", "ios": "https://dc.lft.to/lastmile_qr_scan"}, "is_reserved": 0, "is_disabled": 0, "type": "electric_scooter", "bike_id": "45f6729d7409ca3a320d8723eb2583db"}, {"lon": -77.05321983333333, "lat": 38.90020716666667, "name": "90eb2ad6e613ca27f41d318db148eabc", "fusion_lat": 0.0, "fusion_lon": 0.0, "rental_uris": {"android": "https://dc.lft.to/lastmile_qr_scan", "ios": "https://dc.lft.to/lastmile_qr_scan"}, "is_reserved": 0, "is_disabled": 0, "type": "electric_scooter", "bike_id": "90eb2ad6e613ca27f41d318db148eabc"}, {"lon": -77.0376555, "lat": 38.918881166666665, "name": "47b7a437c6333a1da70205002de355b8", "fusion_lat": 0.0, "fusion_lon": 0.0, "rental_uris": {"android": "https://dc.lft.to/lastmile_qr_scan", "ios": "https://dc.lft.to/lastmile_qr_scan"}, "is_reserved": 0, "is_disabled": 0, "type": "electric_scooter", "bike_id": "47b7a437c6333a1da70205002de355b8"}, {"lon": -77.04474283333333, "lat": 38.90030183333333, "name": "55dd8d93fc2d40e0b9f932a9b32e606b", "fusion_lat": 0.0, "fusion_lon": 0.0, "rental_uris": {"android": "https://dc.lft.to/lastmile_qr_scan", "ios": "https://dc.lft.to/lastmile_qr_scan"}, "is_reserved": 0, "is_disabled": 0, "type": "electric_scooter", "bike_id": "55dd8d93fc2d40e0b9f932a9b32e606b"}, {"lon": -77.037959, "lat": 38.919764666666666, "name": "9d74b0134bc696d20460be5523964683", "fusion_lat": 0.0, "fusion_lon": 0.0, "rental_uris": {"android": "https://dc.lft.to/lastmile_qr_scan", "ios": "https://dc.lft.to/lastmile_qr_scan"}, "is_reserved": 0, "is_disabled": 0, "type": "electric_scooter", "bike_id": "9d74b0134bc696d20460be5523964683"}, {"lon": -77.05006083333333, "lat": 38.89225483333333, "name": "7ca205b54658c78a132207947f86a741", "fusion_lat": 0.0, "fusion_lon": 0.0, "rental_uris": {"android": "https://dc.lft.to/lastmile_qr_scan", "ios": "https://dc.lft.to/lastmile_qr_scan"}, "is_reserved": 0, "is_disabled": 0, "type": "electric_scooter", "bike_id": "7ca205b54658c78a132207947f86a741"}, {"lon": -77.03204166666667, "lat": 38.89346883333333, "name": "f81ad1782e2aacaaedea20f28acab345", "fusion_lat": 0.0, "fusion_lon": 0.0, "rental_uris": {"android": "https://dc.lft.to/lastmile_qr_scan", "ios": "https://dc.lft.to/lastmile_qr_scan"}, "is_reserved": 0, "is_disabled": 0, "type": "electric_scooter", "bike_id": "f81ad1782e2aacaaedea20f28acab345"}, {"lon": -77.023836, "lat": 38.91160466666667, "name": "97f1d12310163ea3bcc7ade478e7b42a", "fusion_lat": 0.0, "fusion_lon": 0.0, "rental_uris": {"android": "https://dc.lft.to/lastmile_qr_scan", "ios": "https://dc.lft.to/lastmile_qr_scan"}, "is_reserved": 0, "is_disabled": 0, "type": "electric_scooter", "bike_id": "97f1d12310163ea3bcc7ade478e7b42a"}, {"lon": -76.94899083333334, "lat": 38.895252666666664, "name": "ed52588f3112b91d7d4563afe6af860b", "fusion_lat": 0.0, "fusion_lon": 0.0, "rental_uris": {"android": "https://dc.lft.to/lastmile_qr_scan", "ios": "https://dc.lft.to/lastmile_qr_scan"}, "is_reserved": 0, "is_disabled": 0, "type": "electric_scooter", "bike_id": "ed52588f3112b91d7d4563afe6af860b"}, {"lon": -77.027031, "lat": 38.915979666666665, "name": "714a7f7c28ddb3011a2218903058e888", "fusion_lat": 0.0, "fusion_lon": 0.0, "rental_uris": {"android": "https://dc.lft.to/lastmile_qr_scan", "ios": "https://dc.lft.to/lastmile_qr_scan"}, "is_reserved": 0, "is_disabled": 0, "type": "electric_scooter", "bike_id": "714a7f7c28ddb3011a2218903058e888"}, {"lon": -77.024751, "lat": 38.926491166666665, "name": "47fe42f4fc3d5c38b7b8acd212b83326", "fusion_lat": 0.0, "fusion_lon": 0.0, "rental_uris": {"android": "https://dc.lft.to/lastmile_qr_scan", "ios": "https://dc.lft.to/lastmile_qr_scan"}, "is_reserved": 0, "is_disabled": 0, "type": "electric_scooter", "bike_id": "47fe42f4fc3d5c38b7b8acd212b83326"}, {"lon": -77.04183516666667, "lat": 38.90094033333333, "name": "4fa4a6e3d507cf2c317113425e131abe", "fusion_lat": 0.0, "fusion_lon": 0.0, "rental_uris": {"android": "https://dc.lft.to/lastmile_qr_scan", "ios": "https://dc.lft.to/lastmile_qr_scan"}, "is_reserved": 0, "is_disabled": 0, "type": "electric_scooter", "bike_id": "4fa4a6e3d507cf2c317113425e131abe"}, {"lon": -77.04229816666667, "lat": 38.901043333333334, "name": "55460d8e5c2e9c59cbf0e67dfa1847dc", "fusion_lat": 0.0, "fusion_lon": 0.0, "rental_uris": {"android": "https://dc.lft.to/lastmile_qr_scan", "ios": "https://dc.lft.to/lastmile_qr_scan"}, "is_reserved": 0, "is_disabled": 0, "type": "electric_scooter", "bike_id": "55460d8e5c2e9c59cbf0e67dfa1847dc"}, {"lon": -77.03368383333333, "lat": 38.88752916666667, "name": "9885a79f7e5de2316b76318e770eff8e", "fusion_lat": 0.0, "fusion_lon": 0.0, "rental_uris": {"android": "https://dc.lft.to/lastmile_qr_scan", "ios": "https://dc.lft.to/lastmile_qr_scan"}, "is_reserved": 0, "is_disabled": 0, "type": "electric_scooter", "bike_id": "9885a79f7e5de2316b76318e770eff8e"}, {"lon": -77.03263966666667, "lat": 38.9320985, "name": "9bd27e6e090c248366767efc6d5ba39a", "fusion_lat": 0.0, "fusion_lon": 0.0, "rental_uris": {"android": "https://dc.lft.to/lastmile_qr_scan", "ios": "https://dc.lft.to/lastmile_qr_scan"}, "is_reserved": 0, "is_disabled": 0, "type": "electric_scooter", "bike_id": "9bd27e6e090c248366767efc6d5ba39a"}, {"lon": -77.021348, "lat": 38.89690016666667, "name": "5c65a82fb940dc34d23a2a266699d2f3", "fusion_lat": 0.0, "fusion_lon": 0.0, "rental_uris": {"android": "https://dc.lft.to/lastmile_qr_scan", "ios": "https://dc.lft.to/lastmile_qr_scan"}, "is_reserved": 0, "is_disabled": 0, "type": "electric_scooter", "bike_id": "5c65a82fb940dc34d23a2a266699d2f3"}, {"lon": -77.02718783333333, "lat": 38.89960716666667, "name": "bc58f06d6995823d29f5e94e3596649f", "fusion_lat": 0.0, "fusion_lon": 0.0, "rental_uris": {"android": "https://dc.lft.to/lastmile_qr_scan", "ios": "https://dc.lft.to/lastmile_qr_scan"}, "is_reserved": 0, "is_disabled": 0, "type": "electric_scooter", "bike_id": "bc58f06d6995823d29f5e94e3596649f"}, {"lon": -77.04639733333333, "lat": 38.89216416666667, "name": "e3a09e59ccfb6a8ab435a93e9a9ed2a8", "fusion_lat": 0.0, "fusion_lon": 0.0, "rental_uris": {"android": "https://dc.lft.to/lastmile_qr_scan", "ios": "https://dc.lft.to/lastmile_qr_scan"}, "is_reserved": 0, "is_disabled": 0, "type": "electric_scooter", "bike_id": "e3a09e59ccfb6a8ab435a93e9a9ed2a8"}, {"lon": -77.06905566666667, "lat": 38.9074935, "name": "cea33020a4f5a235e9b1585015cd2775", "fusion_lat": 0.0, "fusion_lon": 0.0, "rental_uris": {"android": "https://dc.lft.to/lastmile_qr_scan", "ios": "https://dc.lft.to/lastmile_qr_scan"}, "is_reserved": 0, "is_disabled": 0, "type": "electric_scooter", "bike_id": "cea33020a4f5a235e9b1585015cd2775"}, {"lon": -77.02290066666667, "lat": 38.90151783333334, "name": "d8a44ee291873a0613bccd177268852b", "fusion_lat": 0.0, "fusion_lon": 0.0, "rental_uris": {"android": "https://dc.lft.to/lastmile_qr_scan", "ios": "https://dc.lft.to/lastmile_qr_scan"}, "is_reserved": 0, "is_disabled": 0, "type": "electric_scooter", "bike_id": "d8a44ee291873a0613bccd177268852b"}, {"lon": -77.10721716666667, "lat": 38.8552035, "name": "5c7245d321fe0b2c8342857d2149566d", "fusion_lat": 0.0, "fusion_lon": 0.0, "rental_uris": {"android": "https://dc.lft.to/lastmile_qr_scan", "ios": "https://dc.lft.to/lastmile_qr_scan"}, "is_reserved": 0, "is_disabled": 0, "type": "electric_bike", "bike_id": "5c7245d321fe0b2c8342857d2149566d"}, {"lon": -77.03436333333333, "lat": 38.918064, "name": "7620c27d4ff5e087ea836a992bd19ac5", "fusion_lat": 0.0, "fusion_lon": 0.0, "rental_uris": {"android": "https://dc.lft.to/lastmile_qr_scan", "ios": "https://dc.lft.to/lastmile_qr_scan"}, "is_reserved": 0, "is_disabled": 0, "type": "electric_scooter", "bike_id": "7620c27d4ff5e087ea836a992bd19ac5"}, {"lon": -76.97621616666666, "lat": 38.89579366666667, "name": "ff0645344c10a6c666cf03d2a1d9a507", "fusion_lat": 0.0, "fusion_lon": 0.0, "rental_uris": {"android": "https://dc.lft.to/lastmile_qr_scan", "ios": "https://dc.lft.to/lastmile_qr_scan"}, "is_reserved": 0, "is_disabled": 0, "type": "electric_bike", "bike_id": "ff0645344c10a6c666cf03d2a1d9a507"}, {"lon": -77.040279, "lat": 38.899965333333334, "name": "86b0d6839f79c0b8f862d0e1e3e4d046", "fusion_lat": 0.0, "fusion_lon": 0.0, "rental_uris": {"android": "https://dc.lft.to/lastmile_qr_scan", "ios": "https://dc.lft.to/lastmile_qr_scan"}, "is_reserved": 0, "is_disabled": 0, "type": "electric_scooter", "bike_id": "86b0d6839f79c0b8f862d0e1e3e4d046"}, {"lon": -77.0227835, "lat": 38.901419, "name": "5aaa5adaa20d356b1829f105bc0abf49", "fusion_lat": 0.0, "fusion_lon": 0.0, "rental_uris": {"android": "https://dc.lft.to/lastmile_qr_scan", "ios": "https://dc.lft.to/lastmile_qr_scan"}, "is_reserved": 0, "is_disabled": 0, "type": "electric_scooter", "bike_id": "5aaa5adaa20d356b1829f105bc0abf49"}, {"lon": -77.00799966666666, "lat": 38.9169905, "name": "03ef1d8e4639eaae450673283744de83", "fusion_lat": 0.0, "fusion_lon": 0.0, "rental_uris": {"android": "https://dc.lft.to/lastmile_qr_scan", "ios": "https://dc.lft.to/lastmile_qr_scan"}, "is_reserved": 0, "is_disabled": 0, "type": "electric_scooter", "bike_id": "03ef1d8e4639eaae450673283744de83"}, {"lon": -77.03855183333333, "lat": 38.91714483333333, "name": "7f7a42c2b742f229df71677a8e5a84d7", "fusion_lat": 0.0, "fusion_lon": 0.0, "rental_uris": {"android": "https://dc.lft.to/lastmile_qr_scan", "ios": "https://dc.lft.to/lastmile_qr_scan"}, "is_reserved": 0, "is_disabled": 0, "type": "electric_scooter", "bike_id": "7f7a42c2b742f229df71677a8e5a84d7"}, {"lon": -77.03214216666667, "lat": 38.907668666666666, "name": "78dd03e1414538813a2de5d7b0a5dd74", "fusion_lat": 0.0, "fusion_lon": 0.0, "rental_uris": {"android": "https://dc.lft.to/lastmile_qr_scan", "ios": "https://dc.lft.to/lastmile_qr_scan"}, "is_reserved": 0, "is_disabled": 0, "type": "electric_scooter", "bike_id": "78dd03e1414538813a2de5d7b0a5dd74"}, {"lon": -77.046372, "lat": 38.892199166666664, "name": "7c6ff8d0c712a1d74f5e51b9e152f643", "fusion_lat": 0.0, "fusion_lon": 0.0, "rental_uris": {"android": "https://dc.lft.to/lastmile_qr_scan", "ios": "https://dc.lft.to/lastmile_qr_scan"}, "is_reserved": 0, "is_disabled": 0, "type": "electric_scooter", "bike_id": "7c6ff8d0c712a1d74f5e51b9e152f643"}, {"lon": -77.00522966666666, "lat": 38.91693883333333, "name": "d71c2f109eb992ce7d37ff4bdcec37a4", "fusion_lat": 0.0, "fusion_lon": 0.0, "rental_uris": {"android": "https://dc.lft.to/lastmile_qr_scan", "ios": "https://dc.lft.to/lastmile_qr_scan"}, "is_reserved": 0, "is_disabled": 0, "type": "electric_scooter", "bike_id": "d71c2f109eb992ce7d37ff4bdcec37a4"}, {"lon": -77.03936133333333, "lat": 38.9141375, "name": "36c71ba9cc5250c48b7b2243f89c5c5a", "fusion_lat": 0.0, "fusion_lon": 0.0, "rental_uris": {"android": "https://dc.lft.to/lastmile_qr_scan", "ios": "https://dc.lft.to/lastmile_qr_scan"}, "is_reserved": 0, "is_disabled": 0, "type": "electric_scooter", "bike_id": "36c71ba9cc5250c48b7b2243f89c5c5a"}, {"lon": -77.07895716666667, "lat": 38.91917983333333, "name": "33ab249f241d33d4026cbab6dff07de2", "fusion_lat": 0.0, "fusion_lon": 0.0, "rental_uris": {"android": "https://dc.lft.to/lastmile_qr_scan", "ios": "https://dc.lft.to/lastmile_qr_scan"}, "is_reserved": 0, "is_disabled": 0, "type": "electric_scooter", "bike_id": "33ab249f241d33d4026cbab6dff07de2"}, {"lon": -77.037026, "lat": 38.926448666666666, "name": "82ddca5e535f025ec0559e8822279898", "fusion_lat": 0.0, "fusion_lon": 0.0, "rental_uris": {"android": "https://dc.lft.to/lastmile_qr_scan", "ios": "https://dc.lft.to/lastmile_qr_scan"}, "is_reserved": 0, "is_disabled": 0, "type": "electric_scooter", "bike_id": "82ddca5e535f025ec0559e8822279898"}, {"lon": -77.0199525, "lat": 38.96628316666666, "name": "f9c21d63b7569163dde78ff08b8c31ae", "fusion_lat": 0.0, "fusion_lon": 0.0, "rental_uris": {"android": "https://dc.lft.to/lastmile_qr_scan", "ios": "https://dc.lft.to/lastmile_qr_scan"}, "is_reserved": 0, "is_disabled": 0, "type": "electric_scooter", "bike_id": "f9c21d63b7569163dde78ff08b8c31ae"}, {"lon": -77.01580016666666, "lat": 38.928483166666666, "name": "d37a39b9304e7e22b5403890ada681ca", "fusion_lat": 0.0, "fusion_lon": 0.0, "rental_uris": {"android": "https://dc.lft.to/lastmile_qr_scan", "ios": "https://dc.lft.to/lastmile_qr_scan"}, "is_reserved": 0, "is_disabled": 0, "type": "electric_scooter", "bike_id": "d37a39b9304e7e22b5403890ada681ca"}, {"lon": -77.01058583333334, "lat": 38.872428, "name": "0ba6674ecb526a3353c565c4909be92c", "fusion_lat": 0.0, "fusion_lon": 0.0, "rental_uris": {"android": "https://dc.lft.to/lastmile_qr_scan", "ios": "https://dc.lft.to/lastmile_qr_scan"}, "is_reserved": 0, "is_disabled": 0, "type": "electric_scooter", "bike_id": "0ba6674ecb526a3353c565c4909be92c"}, {"lon": -77.021532, "lat": 38.926012166666666, "name": "36e128230e5d2c899c2c5d122be168f3", "fusion_lat": 0.0, "fusion_lon": 0.0, "rental_uris": {"android": "https://dc.lft.to/lastmile_qr_scan", "ios": "https://dc.lft.to/lastmile_qr_scan"}, "is_reserved": 0, "is_disabled": 0, "type": "electric_scooter", "bike_id": "36e128230e5d2c899c2c5d122be168f3"}, {"lon": -76.96102966666666, "lat": 38.928681, "name": "20044443ce2556a465afdeffe63c71a1", "fusion_lat": 0.0, "fusion_lon": 0.0, "rental_uris": {"android": "https://dc.lft.to/lastmile_qr_scan", "ios": "https://dc.lft.to/lastmile_qr_scan"}, "is_reserved": 0, "is_disabled": 0, "type": "electric_bike", "bike_id": "20044443ce2556a465afdeffe63c71a1"}, {"lon": -77.0019975, "lat": 38.8987875, "name": "49948baf9bca51dafb721c356ed004f5", "fusion_lat": 0.0, "fusion_lon": 0.0, "rental_uris": {"android": "https://dc.lft.to/lastmile_qr_scan", "ios": "https://dc.lft.to/lastmile_qr_scan"}, "is_reserved": 0, "is_disabled": 0, "type": "electric_scooter", "bike_id": "49948baf9bca51dafb721c356ed004f5"}, {"lon": -77.03646666666667, "lat": 38.902848666666664, "name": "1d28e9d74bb313762e7361a42ab0fcd1", "fusion_lat": 0.0, "fusion_lon": 0.0, "rental_uris": {"android": "https://dc.lft.to/lastmile_qr_scan", "ios": "https://dc.lft.to/lastmile_qr_scan"}, "is_reserved": 0, "is_disabled": 0, "type": "electric_scooter", "bike_id": "1d28e9d74bb313762e7361a42ab0fcd1"}, {"lon": -77.0322895, "lat": 38.921575, "name": "9ee3b4644426010bdb78c4c148c0a8bc", "fusion_lat": 0.0, "fusion_lon": 0.0, "rental_uris": {"android": "https://dc.lft.to/lastmile_qr_scan", "ios": "https://dc.lft.to/lastmile_qr_scan"}, "is_reserved": 0, "is_disabled": 0, "type": "electric_scooter", "bike_id": "9ee3b4644426010bdb78c4c148c0a8bc"}, {"lon": -77.03207016666667, "lat": 38.938624833333336, "name": "ff5d7f711c88baa2859e4a323c7145d5", "fusion_lat": 0.0, "fusion_lon": 0.0, "rental_uris": {"android": "https://dc.lft.to/lastmile_qr_scan", "ios": "https://dc.lft.to/lastmile_qr_scan"}, "is_reserved": 0, "is_disabled": 0, "type": "electric_scooter", "bike_id": "ff5d7f711c88baa2859e4a323c7145d5"}, {"lon": -77.00711083333333, "lat": 38.884890166666665, "name": "98600e3873caa51836eae2e5edcf886e", "fusion_lat": 0.0, "fusion_lon": 0.0, "rental_uris": {"android": "https://dc.lft.to/lastmile_qr_scan", "ios": "https://dc.lft.to/lastmile_qr_scan"}, "is_reserved": 0, "is_disabled": 0, "type": "electric_scooter", "bike_id": "98600e3873caa51836eae2e5edcf886e"}, {"lon": -77.003395, "lat": 38.8973675, "name": "214de29a02261b4e17b4d0475ece1e37", "fusion_lat": 0.0, "fusion_lon": 0.0, "rental_uris": {"android": "https://dc.lft.to/lastmile_qr_scan", "ios": "https://dc.lft.to/lastmile_qr_scan"}, "is_reserved": 0, "is_disabled": 0, "type": "electric_scooter", "bike_id": "214de29a02261b4e17b4d0475ece1e37"}, {"lon": -77.01179916666666, "lat": 38.90026833333334, "name": "79c0e7cff70f99ddaaf018e8b0254337", "fusion_lat": 0.0, "fusion_lon": 0.0, "rental_uris": {"android": "https://dc.lft.to/lastmile_qr_scan", "ios": "https://dc.lft.to/lastmile_qr_scan"}, "is_reserved": 0, "is_disabled": 0, "type": "electric_scooter", "bike_id": "79c0e7cff70f99ddaaf018e8b0254337"}, {"lon": -77.002212, "lat": 38.90749, "name": "e16eec221de930da29a81cd976ae56ce", "fusion_lat": 0.0, "fusion_lon": 0.0, "rental_uris": {"android": "https://dc.lft.to/lastmile_qr_scan", "ios": "https://dc.lft.to/lastmile_qr_scan"}, "is_reserved": 0, "is_disabled": 0, "type": "electric_scooter", "bike_id": "e16eec221de930da29a81cd976ae56ce"}, {"lon": -76.9836295, "lat": 38.86476116666667, "name": "eaeb96f5cbe9bee33ffd0956dbfda081", "fusion_lat": 0.0, "fusion_lon": 0.0, "rental_uris": {"android": "https://dc.lft.to/lastmile_qr_scan", "ios": "https://dc.lft.to/lastmile_qr_scan"}, "is_reserved": 0, "is_disabled": 0, "type": "electric_scooter", "bike_id": "eaeb96f5cbe9bee33ffd0956dbfda081"}, {"lon": -77.03210916666667, "lat": 38.91282533333333, "name": "c5a4f043e80037bef0ddc7904998fe1b", "fusion_lat": 0.0, "fusion_lon": 0.0, "rental_uris": {"android": "https://dc.lft.to/lastmile_qr_scan", "ios": "https://dc.lft.to/lastmile_qr_scan"}, "is_reserved": 0, "is_disabled": 0, "type": "electric_scooter", "bike_id": "c5a4f043e80037bef0ddc7904998fe1b"}, {"lon": -77.01148933333333, "lat": 38.956745, "name": "f3b1940b2c52b11d962711e071c9dea2", "fusion_lat": 0.0, "fusion_lon": 0.0, "rental_uris": {"android": "https://dc.lft.to/lastmile_qr_scan", "ios": "https://dc.lft.to/lastmile_qr_scan"}, "is_reserved": 0, "is_disabled": 0, "type": "electric_scooter", "bike_id": "f3b1940b2c52b11d962711e071c9dea2"}, {"lon": -77.07798516666666, "lat": 38.845165, "name": "9369ae5eebb13ee936da6613e6991dc0", "fusion_lat": 0.0, "fusion_lon": 0.0, "rental_uris": {"android": "https://dc.lft.to/lastmile_qr_scan", "ios": "https://dc.lft.to/lastmile_qr_scan"}, "is_reserved": 0, "is_disabled": 0, "type": "electric_bike", "bike_id": "9369ae5eebb13ee936da6613e6991dc0"}, {"lon": -77.01976033333334, "lat": 38.883603666666666, "name": "2a15c8a8173dedd52958726fecb9ae9b", "fusion_lat": 0.0, "fusion_lon": 0.0, "rental_uris": {"android": "https://dc.lft.to/lastmile_qr_scan", "ios": "https://dc.lft.to/lastmile_qr_scan"}, "is_reserved": 0, "is_disabled": 0, "type": "electric_scooter", "bike_id": "2a15c8a8173dedd52958726fecb9ae9b"}, {"lon": -77.04635983333333, "lat": 38.89220983333333, "name": "e4a592eb9fa5ed034ca81d2a49160466", "fusion_lat": 0.0, "fusion_lon": 0.0, "rental_uris": {"android": "https://dc.lft.to/lastmile_qr_scan", "ios": "https://dc.lft.to/lastmile_qr_scan"}, "is_reserved": 0, "is_disabled": 0, "type": "electric_scooter", "bike_id": "e4a592eb9fa5ed034ca81d2a49160466"}, {"lon": -77.00205983333333, "lat": 38.8226125, "name": "b27e487496d4c845d0862d563b2e4329", "fusion_lat": 0.0, "fusion_lon": 0.0, "rental_uris": {"android": "https://dc.lft.to/lastmile_qr_scan", "ios": "https://dc.lft.to/lastmile_qr_scan"}, "is_reserved": 0, "is_disabled": 0, "type": "electric_scooter", "bike_id": "b27e487496d4c845d0862d563b2e4329"}, {"lon": -77.02484266666667, "lat": 38.89222933333333, "name": "e8b9f89f829871381879d998baba3f89", "fusion_lat": 0.0, "fusion_lon": 0.0, "rental_uris": {"android": "https://dc.lft.to/lastmile_qr_scan", "ios": "https://dc.lft.to/lastmile_qr_scan"}, "is_reserved": 0, "is_disabled": 0, "type": "electric_scooter", "bike_id": "e8b9f89f829871381879d998baba3f89"}, {"lon": -77.0408955, "lat": 38.9201595, "name": "8dd7bd484444140f870d7f2cf6170d07", "fusion_lat": 0.0, "fusion_lon": 0.0, "rental_uris": {"android": "https://dc.lft.to/lastmile_qr_scan", "ios": "https://dc.lft.to/lastmile_qr_scan"}, "is_reserved": 0, "is_disabled": 0, "type": "electric_scooter", "bike_id": "8dd7bd484444140f870d7f2cf6170d07"}, {"lon": -77.01522266666667, "lat": 38.88742216666667, "name": "5f1b235dd0ebcbb45a34abb07cf18e54", "fusion_lat": 0.0, "fusion_lon": 0.0, "rental_uris": {"android": "https://dc.lft.to/lastmile_qr_scan", "ios": "https://dc.lft.to/lastmile_qr_scan"}, "is_reserved": 0, "is_disabled": 0, "type": "electric_scooter", "bike_id": "5f1b235dd0ebcbb45a34abb07cf18e54"}, {"lon": -77.02963916666667, "lat": 38.954208333333334, "name": "c936f2039b27a412f6381250fac5a153", "fusion_lat": 0.0, "fusion_lon": 0.0, "rental_uris": {"android": "https://dc.lft.to/lastmile_qr_scan", "ios": "https://dc.lft.to/lastmile_qr_scan"}, "is_reserved": 0, "is_disabled": 0, "type": "electric_scooter", "bike_id": "c936f2039b27a412f6381250fac5a153"}, {"lon": -77.0251675, "lat": 38.92641066666667, "name": "0a51c4ebbe9fa7422ca3219de8fe512b", "fusion_lat": 0.0, "fusion_lon": 0.0, "rental_uris": {"android": "https://dc.lft.to/lastmile_qr_scan", "ios": "https://dc.lft.to/lastmile_qr_scan"}, "is_reserved": 0, "is_disabled": 0, "type": "electric_scooter", "bike_id": "0a51c4ebbe9fa7422ca3219de8fe512b"}, {"lon": -77.015385, "lat": 38.89219, "name": "9c2571afda5aa9b88a1888db3f243de4", "fusion_lat": 0.0, "fusion_lon": 0.0, "rental_uris": {"android": "https://dc.lft.to/lastmile_qr_scan", "ios": "https://dc.lft.to/lastmile_qr_scan"}, "is_reserved": 0, "is_disabled": 0, "type": "electric_scooter", "bike_id": "9c2571afda5aa9b88a1888db3f243de4"}, {"lon": -76.98606416666667, "lat": 38.906211166666665, "name": "5fc56d6aacd9862bac0fd51f4ef09866", "fusion_lat": 0.0, "fusion_lon": 0.0, "rental_uris": {"android": "https://dc.lft.to/lastmile_qr_scan", "ios": "https://dc.lft.to/lastmile_qr_scan"}, "is_reserved": 0, "is_disabled": 0, "type": "electric_bike", "bike_id": "5fc56d6aacd9862bac0fd51f4ef09866"}, {"lon": -76.93765333333333, "lat": 38.899772666666664, "name": "c34009fc27aa87bd21ab0c0862d8d700", "fusion_lat": 0.0, "fusion_lon": 0.0, "rental_uris": {"android": "https://dc.lft.to/lastmile_qr_scan", "ios": "https://dc.lft.to/lastmile_qr_scan"}, "is_reserved": 0, "is_disabled": 0, "type": "electric_scooter", "bike_id": "c34009fc27aa87bd21ab0c0862d8d700"}, {"lon": -77.02961516666667, "lat": 38.9049685, "name": "b172065dd1f9390f7b12188529fc6dbb", "fusion_lat": 0.0, "fusion_lon": 0.0, "rental_uris": {"android": "https://dc.lft.to/lastmile_qr_scan", "ios": "https://dc.lft.to/lastmile_qr_scan"}, "is_reserved": 0, "is_disabled": 0, "type": "electric_scooter", "bike_id": "b172065dd1f9390f7b12188529fc6dbb"}, {"lon": -77.02582183333334, "lat": 38.90397316666667, "name": "18dbe9b5aa0456a8596799557d0c1c8e", "fusion_lat": 0.0, "fusion_lon": 0.0, "rental_uris": {"android": "https://dc.lft.to/lastmile_qr_scan", "ios": "https://dc.lft.to/lastmile_qr_scan"}, "is_reserved": 0, "is_disabled": 0, "type": "electric_scooter", "bike_id": "18dbe9b5aa0456a8596799557d0c1c8e"}, {"lon": -77.04731266666667, "lat": 38.911192166666666, "name": "3e17ff1cb13ec7822ffcd10a0ad3021b", "fusion_lat": 0.0, "fusion_lon": 0.0, "rental_uris": {"android": "https://dc.lft.to/lastmile_qr_scan", "ios": "https://dc.lft.to/lastmile_qr_scan"}, "is_reserved": 0, "is_disabled": 0, "type": "electric_scooter", "bike_id": "3e17ff1cb13ec7822ffcd10a0ad3021b"}, {"lon": -77.038244, "lat": 38.91268316666667, "name": "4024238ca3a2fb3e86b73a843823466a", "fusion_lat": 0.0, "fusion_lon": 0.0, "rental_uris": {"android": "https://dc.lft.to/lastmile_qr_scan", "ios": "https://dc.lft.to/lastmile_qr_scan"}, "is_reserved": 0, "is_disabled": 0, "type": "electric_scooter", "bike_id": "4024238ca3a2fb3e86b73a843823466a"}, {"lon": -77.069527, "lat": 38.990395666666664, "name": "40f9533fb492b3625260edbf4b4e02f9", "fusion_lat": 0.0, "fusion_lon": 0.0, "rental_uris": {"android": "https://dc.lft.to/lastmile_qr_scan", "ios": "https://dc.lft.to/lastmile_qr_scan"}, "is_reserved": 0, "is_disabled": 0, "type": "electric_bike", "bike_id": "40f9533fb492b3625260edbf4b4e02f9"}, {"lon": -77.00535616666667, "lat": 38.87466916666666, "name": "1758fab42ef6217372f328b41bf60ba4", "fusion_lat": 0.0, "fusion_lon": 0.0, "rental_uris": {"android": "https://dc.lft.to/lastmile_qr_scan", "ios": "https://dc.lft.to/lastmile_qr_scan"}, "is_reserved": 0, "is_disabled": 0, "type": "electric_scooter", "bike_id": "1758fab42ef6217372f328b41bf60ba4"}, {"lon": -77.36092133333334, "lat": 38.939625666666664, "name": "c81a1de675974b2773f9afd26b3fa901", "fusion_lat": 0.0, "fusion_lon": 0.0, "rental_uris": {"android": "https://dc.lft.to/lastmile_qr_scan", "ios": "https://dc.lft.to/lastmile_qr_scan"}, "is_reserved": 0, "is_disabled": 0, "type": "electric_bike", "bike_id": "c81a1de675974b2773f9afd26b3fa901"}, {"lon": -76.94781316666666, "lat": 38.894397833333336, "name": "6d8843aa6b4b972e7e04b2c74100a022", "fusion_lat": 0.0, "fusion_lon": 0.0, "rental_uris": {"android": "https://dc.lft.to/lastmile_qr_scan", "ios": "https://dc.lft.to/lastmile_qr_scan"}, "is_reserved": 0, "is_disabled": 0, "type": "electric_bike", "bike_id": "6d8843aa6b4b972e7e04b2c74100a022"}, {"lon": -77.01878266666667, "lat": 38.909736333333335, "name": "2804d331b0d9cef48c06e3e9939c2dc9", "fusion_lat": 0.0, "fusion_lon": 0.0, "rental_uris": {"android": "https://dc.lft.to/lastmile_qr_scan", "ios": "https://dc.lft.to/lastmile_qr_scan"}, "is_reserved": 0, "is_disabled": 0, "type": "electric_scooter", "bike_id": "2804d331b0d9cef48c06e3e9939c2dc9"}, {"lon": -77.025417, "lat": 38.94093683333333, "name": "a9f6fce9b4b9a523375ddb4c385c27a9", "fusion_lat": 0.0, "fusion_lon": 0.0, "rental_uris": {"android": "https://dc.lft.to/lastmile_qr_scan", "ios": "https://dc.lft.to/lastmile_qr_scan"}, "is_reserved": 0, "is_disabled": 0, "type": "electric_scooter", "bike_id": "a9f6fce9b4b9a523375ddb4c385c27a9"}, {"lon": -77.0122295, "lat": 38.91522533333333, "name": "f872c3fad78e4eebae9b8ca59efb914e", "fusion_lat": 0.0, "fusion_lon": 0.0, "rental_uris": {"android": "https://dc.lft.to/lastmile_qr_scan", "ios": "https://dc.lft.to/lastmile_qr_scan"}, "is_reserved": 0, "is_disabled": 0, "type": "electric_scooter", "bike_id": "f872c3fad78e4eebae9b8ca59efb914e"}, {"lon": -77.02113666666666, "lat": 38.917372, "name": "a1b88d53144e3e62b20affca3b37c258", "fusion_lat": 0.0, "fusion_lon": 0.0, "rental_uris": {"android": "https://dc.lft.to/lastmile_qr_scan", "ios": "https://dc.lft.to/lastmile_qr_scan"}, "is_reserved": 0, "is_disabled": 0, "type": "electric_scooter", "bike_id": "a1b88d53144e3e62b20affca3b37c258"}, {"lon": -77.045109, "lat": 38.903597166666664, "name": "dd93dd5058d9a3b39eca9fc26faa0b7b", "fusion_lat": 0.0, "fusion_lon": 0.0, "rental_uris": {"android": "https://dc.lft.to/lastmile_qr_scan", "ios": "https://dc.lft.to/lastmile_qr_scan"}, "is_reserved": 0, "is_disabled": 0, "type": "electric_scooter", "bike_id": "dd93dd5058d9a3b39eca9fc26faa0b7b"}, {"lon": -77.04577483333334, "lat": 38.902254666666664, "name": "13ba7a5d278a1b44a875038adf2ca28d", "fusion_lat": 0.0, "fusion_lon": 0.0, "rental_uris": {"android": "https://dc.lft.to/lastmile_qr_scan", "ios": "https://dc.lft.to/lastmile_qr_scan"}, "is_reserved": 0, "is_disabled": 0, "type": "electric_scooter", "bike_id": "13ba7a5d278a1b44a875038adf2ca28d"}, {"lon": -77.02395283333334, "lat": 38.908462166666666, "name": "19450d522265ac1f3bfecfc6768cccbf", "fusion_lat": 0.0, "fusion_lon": 0.0, "rental_uris": {"android": "https://dc.lft.to/lastmile_qr_scan", "ios": "https://dc.lft.to/lastmile_qr_scan"}, "is_reserved": 0, "is_disabled": 0, "type": "electric_scooter", "bike_id": "19450d522265ac1f3bfecfc6768cccbf"}, {"lon": -77.02829333333334, "lat": 38.93279916666667, "name": "4ad4a87067d0cd98c477a6d02f61d0bc", "fusion_lat": 0.0, "fusion_lon": 0.0, "rental_uris": {"android": "https://dc.lft.to/lastmile_qr_scan", "ios": "https://dc.lft.to/lastmile_qr_scan"}, "is_reserved": 0, "is_disabled": 0, "type": "electric_scooter", "bike_id": "4ad4a87067d0cd98c477a6d02f61d0bc"}, {"lon": -77.032962, "lat": 38.922090833333336, "name": "338b8f344ebf097caa374f96b4eba492", "fusion_lat": 0.0, "fusion_lon": 0.0, "rental_uris": {"android": "https://dc.lft.to/lastmile_qr_scan", "ios": "https://dc.lft.to/lastmile_qr_scan"}, "is_reserved": 0, "is_disabled": 0, "type": "electric_scooter", "bike_id": "338b8f344ebf097caa374f96b4eba492"}, {"lon": -77.03128833333334, "lat": 38.91564183333333, "name": "edf728513dd20514cdd437da4a08d50a", "fusion_lat": 0.0, "fusion_lon": 0.0, "rental_uris": {"android": "https://dc.lft.to/lastmile_qr_scan", "ios": "https://dc.lft.to/lastmile_qr_scan"}, "is_reserved": 0, "is_disabled": 0, "type": "electric_scooter", "bike_id": "edf728513dd20514cdd437da4a08d50a"}, {"lon": -77.03788566666667, "lat": 38.90530783333333, "name": "f46b495ff930c88fe2b077c20a3e701f", "fusion_lat": 0.0, "fusion_lon": 0.0, "rental_uris": {"android": "https://dc.lft.to/lastmile_qr_scan", "ios": "https://dc.lft.to/lastmile_qr_scan"}, "is_reserved": 0, "is_disabled": 0, "type": "electric_scooter", "bike_id": "f46b495ff930c88fe2b077c20a3e701f"}, {"lon": -76.979845, "lat": 38.87748283333333, "name": "2f6059ad20d928c2e02003b77e092b84", "fusion_lat": 0.0, "fusion_lon": 0.0, "rental_uris": {"android": "https://dc.lft.to/lastmile_qr_scan", "ios": "https://dc.lft.to/lastmile_qr_scan"}, "is_reserved": 0, "is_disabled": 0, "type": "electric_bike", "bike_id": "2f6059ad20d928c2e02003b77e092b84"}, {"lon": -77.04886333333333, "lat": 38.90183583333334, "name": "cbe848ab8dd8f75fa86785f2fb362b44", "fusion_lat": 0.0, "fusion_lon": 0.0, "rental_uris": {"android": "https://dc.lft.to/lastmile_qr_scan", "ios": "https://dc.lft.to/lastmile_qr_scan"}, "is_reserved": 0, "is_disabled": 0, "type": "electric_scooter", "bike_id": "cbe848ab8dd8f75fa86785f2fb362b44"}, {"lon": -76.977411, "lat": 38.9050275, "name": "85616237703294bd32b2d2ac47e4a9e9", "fusion_lat": 0.0, "fusion_lon": 0.0, "rental_uris": {"android": "https://dc.lft.to/lastmile_qr_scan", "ios": "https://dc.lft.to/lastmile_qr_scan"}, "is_reserved": 0, "is_disabled": 0, "type": "electric_scooter", "bike_id": "85616237703294bd32b2d2ac47e4a9e9"}, {"lon": -76.996856, "lat": 38.91085233333333, "name": "94388d28ad624321bf8c24aad85fe4ae", "fusion_lat": 0.0, "fusion_lon": 0.0, "rental_uris": {"android": "https://dc.lft.to/lastmile_qr_scan", "ios": "https://dc.lft.to/lastmile_qr_scan"}, "is_reserved": 0, "is_disabled": 0, "type": "electric_scooter", "bike_id": "94388d28ad624321bf8c24aad85fe4ae"}, {"lon": -77.02117583333333, "lat": 38.91408466666667, "name": "fbbb408e46b1c7721d5738b474b929bc", "fusion_lat": 0.0, "fusion_lon": 0.0, "rental_uris": {"android": "https://dc.lft.to/lastmile_qr_scan", "ios": "https://dc.lft.to/lastmile_qr_scan"}, "is_reserved": 0, "is_disabled": 0, "type": "electric_scooter", "bike_id": "fbbb408e46b1c7721d5738b474b929bc"}, {"lon": -77.03210666666666, "lat": 38.9089445, "name": "cc476e38c95e435b8f4c0b4cc6f67181", "fusion_lat": 0.0, "fusion_lon": 0.0, "rental_uris": {"android": "https://dc.lft.to/lastmile_qr_scan", "ios": "https://dc.lft.to/lastmile_qr_scan"}, "is_reserved": 0, "is_disabled": 0, "type": "electric_scooter", "bike_id": "cc476e38c95e435b8f4c0b4cc6f67181"}, {"lon": -76.99535, "lat": 38.900336333333335, "name": "af9168bc329268ef3dcf5649d03cdffa", "fusion_lat": 0.0, "fusion_lon": 0.0, "rental_uris": {"android": "https://dc.lft.to/lastmile_qr_scan", "ios": "https://dc.lft.to/lastmile_qr_scan"}, "is_reserved": 0, "is_disabled": 0, "type": "electric_scooter", "bike_id": "af9168bc329268ef3dcf5649d03cdffa"}, {"lon": -77.04350266666667, "lat": 38.90338883333333, "name": "178b2f6fb5283280a0d8c4ab03d9cdd0", "fusion_lat": 0.0, "fusion_lon": 0.0, "rental_uris": {"android": "https://dc.lft.to/lastmile_qr_scan", "ios": "https://dc.lft.to/lastmile_qr_scan"}, "is_reserved": 0, "is_disabled": 0, "type": "electric_scooter", "bike_id": "178b2f6fb5283280a0d8c4ab03d9cdd0"}, {"lon": -77.03207283333333, "lat": 38.90779216666667, "name": "18571979d36a4305f1bcf9e8e5402ff4", "fusion_lat": 0.0, "fusion_lon": 0.0, "rental_uris": {"android": "https://dc.lft.to/lastmile_qr_scan", "ios": "https://dc.lft.to/lastmile_qr_scan"}, "is_reserved": 0, "is_disabled": 0, "type": "electric_scooter", "bike_id": "18571979d36a4305f1bcf9e8e5402ff4"}, {"lon": -76.99181516666667, "lat": 38.905032166666665, "name": "67764f2ac8d0b44799ad6ab98ff8190e", "fusion_lat": 0.0, "fusion_lon": 0.0, "rental_uris": {"android": "https://dc.lft.to/lastmile_qr_scan", "ios": "https://dc.lft.to/lastmile_qr_scan"}, "is_reserved": 0, "is_disabled": 0, "type": "electric_scooter", "bike_id": "67764f2ac8d0b44799ad6ab98ff8190e"}, {"lon": -76.99019183333333, "lat": 38.85864616666667, "name": "fde5cd1db4e247d2b4ad604f217d3ac7", "fusion_lat": 0.0, "fusion_lon": 0.0, "rental_uris": {"android": "https://dc.lft.to/lastmile_qr_scan", "ios": "https://dc.lft.to/lastmile_qr_scan"}, "is_reserved": 0, "is_disabled": 0, "type": "electric_scooter", "bike_id": "fde5cd1db4e247d2b4ad604f217d3ac7"}, {"lon": -77.0375725, "lat": 38.9034985, "name": "fb42f949beb4bc26711eb9da0f8b66ed", "fusion_lat": 0.0, "fusion_lon": 0.0, "rental_uris": {"android": "https://dc.lft.to/lastmile_qr_scan", "ios": "https://dc.lft.to/lastmile_qr_scan"}, "is_reserved": 0, "is_disabled": 0, "type": "electric_scooter", "bike_id": "fb42f949beb4bc26711eb9da0f8b66ed"}, {"lon": -77.02587033333333, "lat": 38.9040625, "name": "99ee111c616ca8a5b371221fb6f31801", "fusion_lat": 0.0, "fusion_lon": 0.0, "rental_uris": {"android": "https://dc.lft.to/lastmile_qr_scan", "ios": "https://dc.lft.to/lastmile_qr_scan"}, "is_reserved": 0, "is_disabled": 0, "type": "electric_scooter", "bike_id": "99ee111c616ca8a5b371221fb6f31801"}, {"lon": -77.02151583333334, "lat": 38.8922155, "name": "6b2e0339980853a27c3eacc6ee306d74", "fusion_lat": 0.0, "fusion_lon": 0.0, "rental_uris": {"android": "https://dc.lft.to/lastmile_qr_scan", "ios": "https://dc.lft.to/lastmile_qr_scan"}, "is_reserved": 0, "is_disabled": 0, "type": "electric_scooter", "bike_id": "6b2e0339980853a27c3eacc6ee306d74"}, {"lon": -77.04853616666666, "lat": 38.91958916666667, "name": "c8328018b339b3027767e1b509baa197", "fusion_lat": 0.0, "fusion_lon": 0.0, "rental_uris": {"android": "https://dc.lft.to/lastmile_qr_scan", "ios": "https://dc.lft.to/lastmile_qr_scan"}, "is_reserved": 0, "is_disabled": 0, "type": "electric_scooter", "bike_id": "c8328018b339b3027767e1b509baa197"}, {"lon": -77.00285716666667, "lat": 38.91480166666667, "name": "51873225db795a7d0055cb42c92d9220", "fusion_lat": 0.0, "fusion_lon": 0.0, "rental_uris": {"android": "https://dc.lft.to/lastmile_qr_scan", "ios": "https://dc.lft.to/lastmile_qr_scan"}, "is_reserved": 0, "is_disabled": 0, "type": "electric_scooter", "bike_id": "51873225db795a7d0055cb42c92d9220"}, {"lon": -77.02770966666667, "lat": 38.894867833333336, "name": "da346ef4304eaf2fd8cb2b18ce6366f8", "fusion_lat": 0.0, "fusion_lon": 0.0, "rental_uris": {"android": "https://dc.lft.to/lastmile_qr_scan", "ios": "https://dc.lft.to/lastmile_qr_scan"}, "is_reserved": 0, "is_disabled": 0, "type": "electric_scooter", "bike_id": "da346ef4304eaf2fd8cb2b18ce6366f8"}, {"lon": -77.02547716666666, "lat": 38.89233616666667, "name": "8b1b6f1e81a8d82f4324be2fa13dc1e7", "fusion_lat": 0.0, "fusion_lon": 0.0, "rental_uris": {"android": "https://dc.lft.to/lastmile_qr_scan", "ios": "https://dc.lft.to/lastmile_qr_scan"}, "is_reserved": 0, "is_disabled": 0, "type": "electric_scooter", "bike_id": "8b1b6f1e81a8d82f4324be2fa13dc1e7"}, {"lon": -77.03986116666667, "lat": 38.8029575, "name": "9ad3966383174b86503fe4b3c68ceaca", "fusion_lat": 0.0, "fusion_lon": 0.0, "rental_uris": {"android": "https://dc.lft.to/lastmile_qr_scan", "ios": "https://dc.lft.to/lastmile_qr_scan"}, "is_reserved": 0, "is_disabled": 0, "type": "electric_bike", "bike_id": "9ad3966383174b86503fe4b3c68ceaca"}, {"lon": -77.032019, "lat": 38.89348, "name": "4d797af3f46ef7661131a26f516be619", "fusion_lat": 0.0, "fusion_lon": 0.0, "rental_uris": {"android": "https://dc.lft.to/lastmile_qr_scan", "ios": "https://dc.lft.to/lastmile_qr_scan"}, "is_reserved": 0, "is_disabled": 0, "type": "electric_scooter", "bike_id": "4d797af3f46ef7661131a26f516be619"}, {"lon": -76.97032316666666, "lat": 38.903081, "name": "1179657309523d184dfb39684346cc61", "fusion_lat": 0.0, "fusion_lon": 0.0, "rental_uris": {"android": "https://dc.lft.to/lastmile_qr_scan", "ios": "https://dc.lft.to/lastmile_qr_scan"}, "is_reserved": 0, "is_disabled": 0, "type": "electric_scooter", "bike_id": "1179657309523d184dfb39684346cc61"}, {"lon": -77.027167, "lat": 38.90075483333333, "name": "fcd8eea89b9eb9eb714caaf5ba95ee2c", "fusion_lat": 0.0, "fusion_lon": 0.0, "rental_uris": {"android": "https://dc.lft.to/lastmile_qr_scan", "ios": "https://dc.lft.to/lastmile_qr_scan"}, "is_reserved": 0, "is_disabled": 0, "type": "electric_scooter", "bike_id": "fcd8eea89b9eb9eb714caaf5ba95ee2c"}, {"lon": -77.02698233333334, "lat": 38.906727333333336, "name": "10ed52fdd30c4901628a5cfa33989e57", "fusion_lat": 0.0, "fusion_lon": 0.0, "rental_uris": {"android": "https://dc.lft.to/lastmile_qr_scan", "ios": "https://dc.lft.to/lastmile_qr_scan"}, "is_reserved": 0, "is_disabled": 0, "type": "electric_scooter", "bike_id": "10ed52fdd30c4901628a5cfa33989e57"}, {"lon": -77.02161783333334, "lat": 38.9283525, "name": "e52a7a5b0830580218c224b3a7bc328f", "fusion_lat": 0.0, "fusion_lon": 0.0, "rental_uris": {"android": "https://dc.lft.to/lastmile_qr_scan", "ios": "https://dc.lft.to/lastmile_qr_scan"}, "is_reserved": 0, "is_disabled": 0, "type": "electric_scooter", "bike_id": "e52a7a5b0830580218c224b3a7bc328f"}, {"lon": -77.02574283333334, "lat": 38.887433333333334, "name": "fa8df5be4a0439de9d81803703b7710d", "fusion_lat": 0.0, "fusion_lon": 0.0, "rental_uris": {"android": "https://dc.lft.to/lastmile_qr_scan", "ios": "https://dc.lft.to/lastmile_qr_scan"}, "is_reserved": 0, "is_disabled": 0, "type": "electric_scooter", "bike_id": "fa8df5be4a0439de9d81803703b7710d"}, {"lon": -77.03282933333334, "lat": 38.929210833333336, "name": "0048ee50ab13642fa315a7b85e51e77a", "fusion_lat": 0.0, "fusion_lon": 0.0, "rental_uris": {"android": "https://dc.lft.to/lastmile_qr_scan", "ios": "https://dc.lft.to/lastmile_qr_scan"}, "is_reserved": 0, "is_disabled": 0, "type": "electric_scooter", "bike_id": "0048ee50ab13642fa315a7b85e51e77a"}, {"lon": -76.9822715, "lat": 38.8668235, "name": "b561f8c1fa3c1db7d8aa1ff7498aa34c", "fusion_lat": 0.0, "fusion_lon": 0.0, "rental_uris": {"android": "https://dc.lft.to/lastmile_qr_scan", "ios": "https://dc.lft.to/lastmile_qr_scan"}, "is_reserved": 0, "is_disabled": 0, "type": "electric_bike", "bike_id": "b561f8c1fa3c1db7d8aa1ff7498aa34c"}, {"lon": -77.01183566666667, "lat": 38.9002995, "name": "7804018e19f3a7e1136711f33fca1b72", "fusion_lat": 0.0, "fusion_lon": 0.0, "rental_uris": {"android": "https://dc.lft.to/lastmile_qr_scan", "ios": "https://dc.lft.to/lastmile_qr_scan"}, "is_reserved": 0, "is_disabled": 0, "type": "electric_scooter", "bike_id": "7804018e19f3a7e1136711f33fca1b72"}, {"lon": -76.995116, "lat": 38.84469283333333, "name": "87929fc5bc852c8e5558c5d1dedbabed", "fusion_lat": 0.0, "fusion_lon": 0.0, "rental_uris": {"android": "https://dc.lft.to/lastmile_qr_scan", "ios": "https://dc.lft.to/lastmile_qr_scan"}, "is_reserved": 0, "is_disabled": 0, "type": "electric_scooter", "bike_id": "87929fc5bc852c8e5558c5d1dedbabed"}, {"lon": -76.999033, "lat": 38.9091545, "name": "2683237b4fcb9969b6c20c996dd94b44", "fusion_lat": 0.0, "fusion_lon": 0.0, "rental_uris": {"android": "https://dc.lft.to/lastmile_qr_scan", "ios": "https://dc.lft.to/lastmile_qr_scan"}, "is_reserved": 0, "is_disabled": 0, "type": "electric_scooter", "bike_id": "2683237b4fcb9969b6c20c996dd94b44"}, {"lon": -77.02397866666666, "lat": 38.908495, "name": "eb8a1d44c1da4c0e7d0ec44787bc94f8", "fusion_lat": 0.0, "fusion_lon": 0.0, "rental_uris": {"android": "https://dc.lft.to/lastmile_qr_scan", "ios": "https://dc.lft.to/lastmile_qr_scan"}, "is_reserved": 0, "is_disabled": 0, "type": "electric_scooter", "bike_id": "eb8a1d44c1da4c0e7d0ec44787bc94f8"}, {"lon": -77.02815883333334, "lat": 38.909298, "name": "95bd08abfccfe090e25ec5232564506f", "fusion_lat": 0.0, "fusion_lon": 0.0, "rental_uris": {"android": "https://dc.lft.to/lastmile_qr_scan", "ios": "https://dc.lft.to/lastmile_qr_scan"}, "is_reserved": 0, "is_disabled": 0, "type": "electric_scooter", "bike_id": "95bd08abfccfe090e25ec5232564506f"}, {"lon": -77.027458, "lat": 38.96629883333333, "name": "351783f0984734e3d8ef01dc140fc165", "fusion_lat": 0.0, "fusion_lon": 0.0, "rental_uris": {"android": "https://dc.lft.to/lastmile_qr_scan", "ios": "https://dc.lft.to/lastmile_qr_scan"}, "is_reserved": 0, "is_disabled": 0, "type": "electric_scooter", "bike_id": "351783f0984734e3d8ef01dc140fc165"}, {"lon": -77.03731216666667, "lat": 38.92899633333333, "name": "e805eea0a47d7261ad83b3aabd06c13d", "fusion_lat": 0.0, "fusion_lon": 0.0, "rental_uris": {"android": "https://dc.lft.to/lastmile_qr_scan", "ios": "https://dc.lft.to/lastmile_qr_scan"}, "is_reserved": 0, "is_disabled": 0, "type": "electric_scooter", "bike_id": "e805eea0a47d7261ad83b3aabd06c13d"}, {"lon": -77.04582733333334, "lat": 38.899933833333336, "name": "409cb914b11a5ec2609903774572e3f1", "fusion_lat": 0.0, "fusion_lon": 0.0, "rental_uris": {"android": "https://dc.lft.to/lastmile_qr_scan", "ios": "https://dc.lft.to/lastmile_qr_scan"}, "is_reserved": 0, "is_disabled": 0, "type": "electric_scooter", "bike_id": "409cb914b11a5ec2609903774572e3f1"}, {"lon": -77.04029916666667, "lat": 38.917067, "name": "ab6a38db7c1860ae2a35a9333ad850ed", "fusion_lat": 0.0, "fusion_lon": 0.0, "rental_uris": {"android": "https://dc.lft.to/lastmile_qr_scan", "ios": "https://dc.lft.to/lastmile_qr_scan"}, "is_reserved": 0, "is_disabled": 0, "type": "electric_scooter", "bike_id": "ab6a38db7c1860ae2a35a9333ad850ed"}, {"lon": -76.98802283333333, "lat": 38.892274, "name": "23e04215cb5308ba676b608e2bb4f226", "fusion_lat": 0.0, "fusion_lon": 0.0, "rental_uris": {"android": "https://dc.lft.to/lastmile_qr_scan", "ios": "https://dc.lft.to/lastmile_qr_scan"}, "is_reserved": 0, "is_disabled": 0, "type": "electric_scooter", "bike_id": "23e04215cb5308ba676b608e2bb4f226"}, {"lon": -77.07853066666667, "lat": 38.931518833333335, "name": "8b7b175e921ac9a94c6582aabf6a6854", "fusion_lat": 0.0, "fusion_lon": 0.0, "rental_uris": {"android": "https://dc.lft.to/lastmile_qr_scan", "ios": "https://dc.lft.to/lastmile_qr_scan"}, "is_reserved": 0, "is_disabled": 0, "type": "electric_scooter", "bike_id": "8b7b175e921ac9a94c6582aabf6a6854"}, {"lon": -77.04111383333333, "lat": 38.916935, "name": "5a4c8ccf88695f6269d7f3bc7f463274", "fusion_lat": 0.0, "fusion_lon": 0.0, "rental_uris": {"android": "https://dc.lft.to/lastmile_qr_scan", "ios": "https://dc.lft.to/lastmile_qr_scan"}, "is_reserved": 0, "is_disabled": 0, "type": "electric_scooter", "bike_id": "5a4c8ccf88695f6269d7f3bc7f463274"}, {"lon": -77.0217735, "lat": 38.9097435, "name": "3f316978402faf70f6eed0e92306a9f4", "fusion_lat": 0.0, "fusion_lon": 0.0, "rental_uris": {"android": "https://dc.lft.to/lastmile_qr_scan", "ios": "https://dc.lft.to/lastmile_qr_scan"}, "is_reserved": 0, "is_disabled": 0, "type": "electric_scooter", "bike_id": "3f316978402faf70f6eed0e92306a9f4"}, {"lon": -76.9655175, "lat": 38.9509715, "name": "58f8951ccb51a38dd7526b86f549c0e0", "fusion_lat": 0.0, "fusion_lon": 0.0, "rental_uris": {"android": "https://dc.lft.to/lastmile_qr_scan", "ios": "https://dc.lft.to/lastmile_qr_scan"}, "is_reserved": 0, "is_disabled": 0, "type": "electric_bike", "bike_id": "58f8951ccb51a38dd7526b86f549c0e0"}, {"lon": -77.04512583333333, "lat": 38.892208333333336, "name": "51db90ff503c860bda70f107aec0fe9b", "fusion_lat": 0.0, "fusion_lon": 0.0, "rental_uris": {"android": "https://dc.lft.to/lastmile_qr_scan", "ios": "https://dc.lft.to/lastmile_qr_scan"}, "is_reserved": 0, "is_disabled": 0, "type": "electric_scooter", "bike_id": "51db90ff503c860bda70f107aec0fe9b"}, {"lon": -77.02292183333333, "lat": 38.918363166666666, "name": "0721abb61e757e82c45cf654af638299", "fusion_lat": 0.0, "fusion_lon": 0.0, "rental_uris": {"android": "https://dc.lft.to/lastmile_qr_scan", "ios": "https://dc.lft.to/lastmile_qr_scan"}, "is_reserved": 0, "is_disabled": 0, "type": "electric_scooter", "bike_id": "0721abb61e757e82c45cf654af638299"}, {"lon": -76.983065, "lat": 38.86892616666667, "name": "6c56b761f2a030a5a7ffb52f6dc60aa9", "fusion_lat": 0.0, "fusion_lon": 0.0, "rental_uris": {"android": "https://dc.lft.to/lastmile_qr_scan", "ios": "https://dc.lft.to/lastmile_qr_scan"}, "is_reserved": 0, "is_disabled": 0, "type": "electric_scooter", "bike_id": "6c56b761f2a030a5a7ffb52f6dc60aa9"}, {"lon": -77.03831733333334, "lat": 38.91121866666667, "name": "5f65aed7bb0bb895fc2bc3269bda28bd", "fusion_lat": 0.0, "fusion_lon": 0.0, "rental_uris": {"android": "https://dc.lft.to/lastmile_qr_scan", "ios": "https://dc.lft.to/lastmile_qr_scan"}, "is_reserved": 0, "is_disabled": 0, "type": "electric_scooter", "bike_id": "5f65aed7bb0bb895fc2bc3269bda28bd"}, {"lon": -77.02474216666667, "lat": 38.93851683333333, "name": "65c9b3c5357a4c0a88c5dcc73a79e920", "fusion_lat": 0.0, "fusion_lon": 0.0, "rental_uris": {"android": "https://dc.lft.to/lastmile_qr_scan", "ios": "https://dc.lft.to/lastmile_qr_scan"}, "is_reserved": 0, "is_disabled": 0, "type": "electric_scooter", "bike_id": "65c9b3c5357a4c0a88c5dcc73a79e920"}, {"lon": -77.03851516666667, "lat": 38.932498, "name": "9a441339b45ea419633a3a8800526e5e", "fusion_lat": 0.0, "fusion_lon": 0.0, "rental_uris": {"android": "https://dc.lft.to/lastmile_qr_scan", "ios": "https://dc.lft.to/lastmile_qr_scan"}, "is_reserved": 0, "is_disabled": 0, "type": "electric_scooter", "bike_id": "9a441339b45ea419633a3a8800526e5e"}, {"lon": -77.031435, "lat": 38.89668566666667, "name": "7d62cbf52e118564d2ca28b9bd93b378", "fusion_lat": 0.0, "fusion_lon": 0.0, "rental_uris": {"android": "https://dc.lft.to/lastmile_qr_scan", "ios": "https://dc.lft.to/lastmile_qr_scan"}, "is_reserved": 0, "is_disabled": 0, "type": "electric_scooter", "bike_id": "7d62cbf52e118564d2ca28b9bd93b378"}, {"lon": -77.02835833333333, "lat": 38.887666333333335, "name": "ace7e05abf318fa2d196a0d986837f29", "fusion_lat": 0.0, "fusion_lon": 0.0, "rental_uris": {"android": "https://dc.lft.to/lastmile_qr_scan", "ios": "https://dc.lft.to/lastmile_qr_scan"}, "is_reserved": 0, "is_disabled": 0, "type": "electric_scooter", "bike_id": "ace7e05abf318fa2d196a0d986837f29"}, {"lon": -77.002005, "lat": 38.90237366666667, "name": "886f1175407a4369d4939dc46c7d6dc7", "fusion_lat": 0.0, "fusion_lon": 0.0, "rental_uris": {"android": "https://dc.lft.to/lastmile_qr_scan", "ios": "https://dc.lft.to/lastmile_qr_scan"}, "is_reserved": 0, "is_disabled": 0, "type": "electric_scooter", "bike_id": "886f1175407a4369d4939dc46c7d6dc7"}, {"lon": -77.06280633333333, "lat": 38.9059025, "name": "94fc8bc506113c8bcea7ce30f93ab9de", "fusion_lat": 0.0, "fusion_lon": 0.0, "rental_uris": {"android": "https://dc.lft.to/lastmile_qr_scan", "ios": "https://dc.lft.to/lastmile_qr_scan"}, "is_reserved": 0, "is_disabled": 0, "type": "electric_scooter", "bike_id": "94fc8bc506113c8bcea7ce30f93ab9de"}, {"lon": -77.0072195, "lat": 38.87708833333333, "name": "ceb1db6efa554132d4abef844c52f15f", "fusion_lat": 0.0, "fusion_lon": 0.0, "rental_uris": {"android": "https://dc.lft.to/lastmile_qr_scan", "ios": "https://dc.lft.to/lastmile_qr_scan"}, "is_reserved": 0, "is_disabled": 0, "type": "electric_scooter", "bike_id": "ceb1db6efa554132d4abef844c52f15f"}, {"lon": -77.034065, "lat": 38.9191895, "name": "4180ad5fa1ea67495ee0cc63a080d5fd", "fusion_lat": 0.0, "fusion_lon": 0.0, "rental_uris": {"android": "https://dc.lft.to/lastmile_qr_scan", "ios": "https://dc.lft.to/lastmile_qr_scan"}, "is_reserved": 0, "is_disabled": 0, "type": "electric_scooter", "bike_id": "4180ad5fa1ea67495ee0cc63a080d5fd"}, {"lon": -76.99918133333334, "lat": 38.90965466666667, "name": "82b74d0cf613c5332fb6dd30665067dc", "fusion_lat": 0.0, "fusion_lon": 0.0, "rental_uris": {"android": "https://dc.lft.to/lastmile_qr_scan", "ios": "https://dc.lft.to/lastmile_qr_scan"}, "is_reserved": 0, "is_disabled": 0, "type": "electric_scooter", "bike_id": "82b74d0cf613c5332fb6dd30665067dc"}, {"lon": -77.03825716666667, "lat": 38.931313333333335, "name": "e181bb2b110399eb56cb31c22378c085", "fusion_lat": 0.0, "fusion_lon": 0.0, "rental_uris": {"android": "https://dc.lft.to/lastmile_qr_scan", "ios": "https://dc.lft.to/lastmile_qr_scan"}, "is_reserved": 0, "is_disabled": 0, "type": "electric_scooter", "bike_id": "e181bb2b110399eb56cb31c22378c085"}, {"lon": -77.03671383333334, "lat": 38.931681, "name": "894733794be55530dcc4e3cbba1b6278", "fusion_lat": 0.0, "fusion_lon": 0.0, "rental_uris": {"android": "https://dc.lft.to/lastmile_qr_scan", "ios": "https://dc.lft.to/lastmile_qr_scan"}, "is_reserved": 0, "is_disabled": 0, "type": "electric_scooter", "bike_id": "894733794be55530dcc4e3cbba1b6278"}, {"lon": -77.130962, "lat": 38.861605, "name": "5f6116a7c9607cafe3ef69d7d634fc9d", "fusion_lat": 0.0, "fusion_lon": 0.0, "rental_uris": {"android": "https://dc.lft.to/lastmile_qr_scan", "ios": "https://dc.lft.to/lastmile_qr_scan"}, "is_reserved": 0, "is_disabled": 0, "type": "electric_bike", "bike_id": "5f6116a7c9607cafe3ef69d7d634fc9d"}, {"lon": -77.15268833333333, "lat": 39.10562066666667, "name": "567c585bad7d17d769e53443bf2a8293", "fusion_lat": 0.0, "fusion_lon": 0.0, "rental_uris": {"android": "https://dc.lft.to/lastmile_qr_scan", "ios": "https://dc.lft.to/lastmile_qr_scan"}, "is_reserved": 0, "is_disabled": 0, "type": "electric_bike", "bike_id": "567c585bad7d17d769e53443bf2a8293"}, {"lon": -77.0235905, "lat": 38.92511966666667, "name": "7b60b14711eb8dd98364684d511df3a5", "fusion_lat": 0.0, "fusion_lon": 0.0, "rental_uris": {"android": "https://dc.lft.to/lastmile_qr_scan", "ios": "https://dc.lft.to/lastmile_qr_scan"}, "is_reserved": 0, "is_disabled": 0, "type": "electric_scooter", "bike_id": "7b60b14711eb8dd98364684d511df3a5"}, {"lon": -76.98329, "lat": 38.86172666666667, "name": "9db77ed7048f7be2fb629fe2edae8622", "fusion_lat": 0.0, "fusion_lon": 0.0, "rental_uris": {"android": "https://dc.lft.to/lastmile_qr_scan", "ios": "https://dc.lft.to/lastmile_qr_scan"}, "is_reserved": 0, "is_disabled": 0, "type": "electric_scooter", "bike_id": "9db77ed7048f7be2fb629fe2edae8622"}, {"lon": -77.03456666666666, "lat": 38.9180755, "name": "a1c5950ecfa505dec35092d20cdb14e3", "fusion_lat": 0.0, "fusion_lon": 0.0, "rental_uris": {"android": "https://dc.lft.to/lastmile_qr_scan", "ios": "https://dc.lft.to/lastmile_qr_scan"}, "is_reserved": 0, "is_disabled": 0, "type": "electric_scooter", "bike_id": "a1c5950ecfa505dec35092d20cdb14e3"}, {"lon": -77.01425283333333, "lat": 38.92833316666667, "name": "e128b6064c6d6726ca9c6b8f1204ccb9", "fusion_lat": 0.0, "fusion_lon": 0.0, "rental_uris": {"android": "https://dc.lft.to/lastmile_qr_scan", "ios": "https://dc.lft.to/lastmile_qr_scan"}, "is_reserved": 0, "is_disabled": 0, "type": "electric_scooter", "bike_id": "e128b6064c6d6726ca9c6b8f1204ccb9"}, {"lon": -76.9650515, "lat": 38.8764685, "name": "2b8212a2562626b609ad3cdb12c2caf3", "fusion_lat": 0.0, "fusion_lon": 0.0, "rental_uris": {"android": "https://dc.lft.to/lastmile_qr_scan", "ios": "https://dc.lft.to/lastmile_qr_scan"}, "is_reserved": 0, "is_disabled": 0, "type": "electric_scooter", "bike_id": "2b8212a2562626b609ad3cdb12c2caf3"}, {"lon": -77.0320365, "lat": 38.90771866666667, "name": "0512e39fd5074ad24c542141f209477b", "fusion_lat": 0.0, "fusion_lon": 0.0, "rental_uris": {"android": "https://dc.lft.to/lastmile_qr_scan", "ios": "https://dc.lft.to/lastmile_qr_scan"}, "is_reserved": 0, "is_disabled": 0, "type": "electric_scooter", "bike_id": "0512e39fd5074ad24c542141f209477b"}, {"lon": -76.9575565, "lat": 38.884289333333335, "name": "36ba0f1a2bf24f15e848d121ef977268", "fusion_lat": 0.0, "fusion_lon": 0.0, "rental_uris": {"android": "https://dc.lft.to/lastmile_qr_scan", "ios": "https://dc.lft.to/lastmile_qr_scan"}, "is_reserved": 0, "is_disabled": 0, "type": "electric_scooter", "bike_id": "36ba0f1a2bf24f15e848d121ef977268"}, {"lon": -77.030307, "lat": 38.915481666666665, "name": "1f6b1a7eb9f2936cc30ee71aec62592e", "fusion_lat": 0.0, "fusion_lon": 0.0, "rental_uris": {"android": "https://dc.lft.to/lastmile_qr_scan", "ios": "https://dc.lft.to/lastmile_qr_scan"}, "is_reserved": 0, "is_disabled": 0, "type": "electric_scooter", "bike_id": "1f6b1a7eb9f2936cc30ee71aec62592e"}, {"lon": -77.0404995, "lat": 38.926950166666664, "name": "b1366150ca3c8b593a75ba8df730b4e0", "fusion_lat": 0.0, "fusion_lon": 0.0, "rental_uris": {"android": "https://dc.lft.to/lastmile_qr_scan", "ios": "https://dc.lft.to/lastmile_qr_scan"}, "is_reserved": 0, "is_disabled": 0, "type": "electric_scooter", "bike_id": "b1366150ca3c8b593a75ba8df730b4e0"}, {"lon": -77.041552, "lat": 38.91894466666667, "name": "a4deb32209da49d4f1faba91fc982ffc", "fusion_lat": 0.0, "fusion_lon": 0.0, "rental_uris": {"android": "https://dc.lft.to/lastmile_qr_scan", "ios": "https://dc.lft.to/lastmile_qr_scan"}, "is_reserved": 0, "is_disabled": 0, "type": "electric_scooter", "bike_id": "a4deb32209da49d4f1faba91fc982ffc"}, {"lon": -77.05299516666666, "lat": 38.9255485, "name": "9e62fef6a2e5efc477e437a59de56007", "fusion_lat": 0.0, "fusion_lon": 0.0, "rental_uris": {"android": "https://dc.lft.to/lastmile_qr_scan", "ios": "https://dc.lft.to/lastmile_qr_scan"}, "is_reserved": 0, "is_disabled": 0, "type": "electric_scooter", "bike_id": "9e62fef6a2e5efc477e437a59de56007"}, {"lon": -77.02211116666666, "lat": 38.88583916666666, "name": "1d4ae288f6e007c7cf4e9f2dce95acef", "fusion_lat": 0.0, "fusion_lon": 0.0, "rental_uris": {"android": "https://dc.lft.to/lastmile_qr_scan", "ios": "https://dc.lft.to/lastmile_qr_scan"}, "is_reserved": 0, "is_disabled": 0, "type": "electric_scooter", "bike_id": "1d4ae288f6e007c7cf4e9f2dce95acef"}, {"lon": -76.98699283333333, "lat": 38.90009416666667, "name": "6bd7143b8ac93fbf81c2d8a842974e87", "fusion_lat": 0.0, "fusion_lon": 0.0, "rental_uris": {"android": "https://dc.lft.to/lastmile_qr_scan", "ios": "https://dc.lft.to/lastmile_qr_scan"}, "is_reserved": 0, "is_disabled": 0, "type": "electric_scooter", "bike_id": "6bd7143b8ac93fbf81c2d8a842974e87"}, {"lon": -77.02651366666667, "lat": 38.93857916666666, "name": "58078c575db25da3d8ca3a3159a7b96f", "fusion_lat": 0.0, "fusion_lon": 0.0, "rental_uris": {"android": "https://dc.lft.to/lastmile_qr_scan", "ios": "https://dc.lft.to/lastmile_qr_scan"}, "is_reserved": 0, "is_disabled": 0, "type": "electric_scooter", "bike_id": "58078c575db25da3d8ca3a3159a7b96f"}, {"lon": -77.09960566666666, "lat": 38.922446, "name": "c377de8b57625e9092510d89d09616fe", "fusion_lat": 0.0, "fusion_lon": 0.0, "rental_uris": {"android": "https://dc.lft.to/lastmile_qr_scan", "ios": "https://dc.lft.to/lastmile_qr_scan"}, "is_reserved": 0, "is_disabled": 0, "type": "electric_scooter", "bike_id": "c377de8b57625e9092510d89d09616fe"}, {"lon": -77.0347285, "lat": 38.917065666666666, "name": "161f944ca2bb8ae6851bfb606ebf612f", "fusion_lat": 0.0, "fusion_lon": 0.0, "rental_uris": {"android": "https://dc.lft.to/lastmile_qr_scan", "ios": "https://dc.lft.to/lastmile_qr_scan"}, "is_reserved": 0, "is_disabled": 0, "type": "electric_scooter", "bike_id": "161f944ca2bb8ae6851bfb606ebf612f"}, {"lon": -77.043542, "lat": 38.91034466666667, "name": "2750adf6fed75d69ceb06427d4ced7f7", "fusion_lat": 0.0, "fusion_lon": 0.0, "rental_uris": {"android": "https://dc.lft.to/lastmile_qr_scan", "ios": "https://dc.lft.to/lastmile_qr_scan"}, "is_reserved": 0, "is_disabled": 0, "type": "electric_scooter", "bike_id": "2750adf6fed75d69ceb06427d4ced7f7"}, {"lon": -77.04647316666667, "lat": 38.922232, "name": "56fa0e4a5250184e8290298503d6913d", "fusion_lat": 0.0, "fusion_lon": 0.0, "rental_uris": {"android": "https://dc.lft.to/lastmile_qr_scan", "ios": "https://dc.lft.to/lastmile_qr_scan"}, "is_reserved": 0, "is_disabled": 0, "type": "electric_scooter", "bike_id": "56fa0e4a5250184e8290298503d6913d"}, {"lon": -77.07842583333333, "lat": 38.92677716666667, "name": "cb00eb18665da5edb77d5b0d61cfa47f", "fusion_lat": 0.0, "fusion_lon": 0.0, "rental_uris": {"android": "https://dc.lft.to/lastmile_qr_scan", "ios": "https://dc.lft.to/lastmile_qr_scan"}, "is_reserved": 0, "is_disabled": 0, "type": "electric_scooter", "bike_id": "cb00eb18665da5edb77d5b0d61cfa47f"}, {"lon": -77.02398883333333, "lat": 38.909843, "name": "eaf31ba08d959d9e4c367cf9b8e7a427", "fusion_lat": 0.0, "fusion_lon": 0.0, "rental_uris": {"android": "https://dc.lft.to/lastmile_qr_scan", "ios": "https://dc.lft.to/lastmile_qr_scan"}, "is_reserved": 0, "is_disabled": 0, "type": "electric_scooter", "bike_id": "eaf31ba08d959d9e4c367cf9b8e7a427"}, {"lon": -76.96627533333333, "lat": 38.9420225, "name": "36f3b2c2491803386574917d98cc3ec9", "fusion_lat": 0.0, "fusion_lon": 0.0, "rental_uris": {"android": "https://dc.lft.to/lastmile_qr_scan", "ios": "https://dc.lft.to/lastmile_qr_scan"}, "is_reserved": 0, "is_disabled": 0, "type": "electric_bike", "bike_id": "36f3b2c2491803386574917d98cc3ec9"}, {"lon": -77.03213466666666, "lat": 38.91431266666667, "name": "e9e20b40e1682048a7d75f8cbd8ce967", "fusion_lat": 0.0, "fusion_lon": 0.0, "rental_uris": {"android": "https://dc.lft.to/lastmile_qr_scan", "ios": "https://dc.lft.to/lastmile_qr_scan"}, "is_reserved": 0, "is_disabled": 0, "type": "electric_scooter", "bike_id": "e9e20b40e1682048a7d75f8cbd8ce967"}, {"lon": -77.02227733333334, "lat": 38.887437166666665, "name": "fa649b357ea01b86eb904c82ebdfac04", "fusion_lat": 0.0, "fusion_lon": 0.0, "rental_uris": {"android": "https://dc.lft.to/lastmile_qr_scan", "ios": "https://dc.lft.to/lastmile_qr_scan"}, "is_reserved": 0, "is_disabled": 0, "type": "electric_scooter", "bike_id": "fa649b357ea01b86eb904c82ebdfac04"}, {"lon": -77.02480166666666, "lat": 38.93882383333333, "name": "2a88fbeea0c395c18e8ca50bfae03fc8", "fusion_lat": 0.0, "fusion_lon": 0.0, "rental_uris": {"android": "https://dc.lft.to/lastmile_qr_scan", "ios": "https://dc.lft.to/lastmile_qr_scan"}, "is_reserved": 0, "is_disabled": 0, "type": "electric_scooter", "bike_id": "2a88fbeea0c395c18e8ca50bfae03fc8"}, {"lon": -77.0365415, "lat": 38.908401166666664, "name": "9650304f13dbcf1d1086f9ac035b3e68", "fusion_lat": 0.0, "fusion_lon": 0.0, "rental_uris": {"android": "https://dc.lft.to/lastmile_qr_scan", "ios": "https://dc.lft.to/lastmile_qr_scan"}, "is_reserved": 0, "is_disabled": 0, "type": "electric_scooter", "bike_id": "9650304f13dbcf1d1086f9ac035b3e68"}, {"lon": -77.072658, "lat": 38.934729833333336, "name": "b1029661d6bd4e9c770409a5a53c3a84", "fusion_lat": 0.0, "fusion_lon": 0.0, "rental_uris": {"android": "https://dc.lft.to/lastmile_qr_scan", "ios": "https://dc.lft.to/lastmile_qr_scan"}, "is_reserved": 0, "is_disabled": 0, "type": "electric_scooter", "bike_id": "b1029661d6bd4e9c770409a5a53c3a84"}, {"lon": -77.07366866666666, "lat": 38.9432435, "name": "40e7bdb9bae083086eb2daefebd1f5c2", "fusion_lat": 0.0, "fusion_lon": 0.0, "rental_uris": {"android": "https://dc.lft.to/lastmile_qr_scan", "ios": "https://dc.lft.to/lastmile_qr_scan"}, "is_reserved": 0, "is_disabled": 0, "type": "electric_scooter", "bike_id": "40e7bdb9bae083086eb2daefebd1f5c2"}, {"lon": -77.04150183333333, "lat": 38.907082333333335, "name": "4a297dec43374f32af121489fd2c6d41", "fusion_lat": 0.0, "fusion_lon": 0.0, "rental_uris": {"android": "https://dc.lft.to/lastmile_qr_scan", "ios": "https://dc.lft.to/lastmile_qr_scan"}, "is_reserved": 0, "is_disabled": 0, "type": "electric_scooter", "bike_id": "4a297dec43374f32af121489fd2c6d41"}, {"lon": -76.98569533333334, "lat": 38.855825333333335, "name": "0f41d5db4d9e81462f894b7ad6e3a0d6", "fusion_lat": 0.0, "fusion_lon": 0.0, "rental_uris": {"android": "https://dc.lft.to/lastmile_qr_scan", "ios": "https://dc.lft.to/lastmile_qr_scan"}, "is_reserved": 0, "is_disabled": 0, "type": "electric_scooter", "bike_id": "0f41d5db4d9e81462f894b7ad6e3a0d6"}, {"lon": -77.03207066666667, "lat": 38.91713883333333, "name": "de6b884e9cf60ac7a4804530a293143c", "fusion_lat": 0.0, "fusion_lon": 0.0, "rental_uris": {"android": "https://dc.lft.to/lastmile_qr_scan", "ios": "https://dc.lft.to/lastmile_qr_scan"}, "is_reserved": 0, "is_disabled": 0, "type": "electric_scooter", "bike_id": "de6b884e9cf60ac7a4804530a293143c"}, {"lon": -77.02593766666666, "lat": 38.900272666666666, "name": "ca40106e2f89545f7b220af12ce47ee3", "fusion_lat": 0.0, "fusion_lon": 0.0, "rental_uris": {"android": "https://dc.lft.to/lastmile_qr_scan", "ios": "https://dc.lft.to/lastmile_qr_scan"}, "is_reserved": 0, "is_disabled": 0, "type": "electric_scooter", "bike_id": "ca40106e2f89545f7b220af12ce47ee3"}, {"lon": -77.03356133333334, "lat": 38.8997, "name": "ce7b8b3bb16f963eb958f019fa16a65a", "fusion_lat": 0.0, "fusion_lon": 0.0, "rental_uris": {"android": "https://dc.lft.to/lastmile_qr_scan", "ios": "https://dc.lft.to/lastmile_qr_scan"}, "is_reserved": 0, "is_disabled": 0, "type": "electric_scooter", "bike_id": "ce7b8b3bb16f963eb958f019fa16a65a"}, {"lon": -77.03476083333334, "lat": 38.90880083333333, "name": "1a4c56a51cff8fab18de2d7c65c99232", "fusion_lat": 0.0, "fusion_lon": 0.0, "rental_uris": {"android": "https://dc.lft.to/lastmile_qr_scan", "ios": "https://dc.lft.to/lastmile_qr_scan"}, "is_reserved": 0, "is_disabled": 0, "type": "electric_scooter", "bike_id": "1a4c56a51cff8fab18de2d7c65c99232"}, {"lon": -77.00859783333334, "lat": 38.827267, "name": "d12155721a7b4feaf0faf0db241cd237", "fusion_lat": 0.0, "fusion_lon": 0.0, "rental_uris": {"android": "https://dc.lft.to/lastmile_qr_scan", "ios": "https://dc.lft.to/lastmile_qr_scan"}, "is_reserved": 0, "is_disabled": 0, "type": "electric_bike", "bike_id": "d12155721a7b4feaf0faf0db241cd237"}, {"lon": -77.00364216666667, "lat": 38.899246166666664, "name": "199fb7419bcbf47b57389f35dfdadd79", "fusion_lat": 0.0, "fusion_lon": 0.0, "rental_uris": {"android": "https://dc.lft.to/lastmile_qr_scan", "ios": "https://dc.lft.to/lastmile_qr_scan"}, "is_reserved": 0, "is_disabled": 0, "type": "electric_scooter", "bike_id": "199fb7419bcbf47b57389f35dfdadd79"}, {"lon": -77.05119916666666, "lat": 38.999610833333335, "name": "b52e5bc5320c2a3da2e80690bef610eb", "fusion_lat": 0.0, "fusion_lon": 0.0, "rental_uris": {"android": "https://dc.lft.to/lastmile_qr_scan", "ios": "https://dc.lft.to/lastmile_qr_scan"}, "is_reserved": 0, "is_disabled": 0, "type": "electric_bike", "bike_id": "b52e5bc5320c2a3da2e80690bef610eb"}, {"lon": -77.02715233333333, "lat": 38.89659066666667, "name": "faf75ba6a96a8610cae9493e45f6e21e", "fusion_lat": 0.0, "fusion_lon": 0.0, "rental_uris": {"android": "https://dc.lft.to/lastmile_qr_scan", "ios": "https://dc.lft.to/lastmile_qr_scan"}, "is_reserved": 0, "is_disabled": 0, "type": "electric_scooter", "bike_id": "faf75ba6a96a8610cae9493e45f6e21e"}, {"lon": -77.02485433333334, "lat": 38.918187833333334, "name": "51cf128129c41961c979d7380eca2580", "fusion_lat": 0.0, "fusion_lon": 0.0, "rental_uris": {"android": "https://dc.lft.to/lastmile_qr_scan", "ios": "https://dc.lft.to/lastmile_qr_scan"}, "is_reserved": 0, "is_disabled": 0, "type": "electric_scooter", "bike_id": "51cf128129c41961c979d7380eca2580"}, {"lon": -77.18795083333333, "lat": 39.09939766666667, "name": "d52e3b930ca0140f5e02f85d2c204861", "fusion_lat": 0.0, "fusion_lon": 0.0, "rental_uris": {"android": "https://dc.lft.to/lastmile_qr_scan", "ios": "https://dc.lft.to/lastmile_qr_scan"}, "is_reserved": 0, "is_disabled": 0, "type": "electric_bike", "bike_id": "d52e3b930ca0140f5e02f85d2c204861"}, {"lon": -76.968768, "lat": 38.92445683333333, "name": "40a158ca9d76e4cbcafec244091f3cd0", "fusion_lat": 0.0, "fusion_lon": 0.0, "rental_uris": {"android": "https://dc.lft.to/lastmile_qr_scan", "ios": "https://dc.lft.to/lastmile_qr_scan"}, "is_reserved": 0, "is_disabled": 0, "type": "electric_scooter", "bike_id": "40a158ca9d76e4cbcafec244091f3cd0"}, {"lon": -77.04584233333334, "lat": 38.91656733333333, "name": "d08d5bd8d8ba4d0b4f7b049bbb94cbf5", "fusion_lat": 0.0, "fusion_lon": 0.0, "rental_uris": {"android": "https://dc.lft.to/lastmile_qr_scan", "ios": "https://dc.lft.to/lastmile_qr_scan"}, "is_reserved": 0, "is_disabled": 0, "type": "electric_bike", "bike_id": "d08d5bd8d8ba4d0b4f7b049bbb94cbf5"}, {"lon": -77.023788, "lat": 38.9095845, "name": "1ed11a9190c14df04bc68bf271cdd0a6", "fusion_lat": 0.0, "fusion_lon": 0.0, "rental_uris": {"android": "https://dc.lft.to/lastmile_qr_scan", "ios": "https://dc.lft.to/lastmile_qr_scan"}, "is_reserved": 0, "is_disabled": 0, "type": "electric_scooter", "bike_id": "1ed11a9190c14df04bc68bf271cdd0a6"}, {"lon": -77.03351183333334, "lat": 38.895272, "name": "6513b98d2f0bda6371bad2a1c496942f", "fusion_lat": 0.0, "fusion_lon": 0.0, "rental_uris": {"android": "https://dc.lft.to/lastmile_qr_scan", "ios": "https://dc.lft.to/lastmile_qr_scan"}, "is_reserved": 0, "is_disabled": 0, "type": "electric_scooter", "bike_id": "6513b98d2f0bda6371bad2a1c496942f"}, {"lon": -77.02710183333333, "lat": 38.8997475, "name": "d08c94aa0b1281fc5972a300c63eee83", "fusion_lat": 0.0, "fusion_lon": 0.0, "rental_uris": {"android": "https://dc.lft.to/lastmile_qr_scan", "ios": "https://dc.lft.to/lastmile_qr_scan"}, "is_reserved": 0, "is_disabled": 0, "type": "electric_scooter", "bike_id": "d08c94aa0b1281fc5972a300c63eee83"}, {"lon": -76.90958266666667, "lat": 38.85415666666667, "name": "8ce0803a543ccc6726e837642c3bc2b1", "fusion_lat": 0.0, "fusion_lon": 0.0, "rental_uris": {"android": "https://dc.lft.to/lastmile_qr_scan", "ios": "https://dc.lft.to/lastmile_qr_scan"}, "is_reserved": 0, "is_disabled": 0, "type": "electric_bike", "bike_id": "8ce0803a543ccc6726e837642c3bc2b1"}, {"lon": -77.03552283333333, "lat": 38.908211, "name": "998552d9f74286d9080313e69fbe0e51", "fusion_lat": 0.0, "fusion_lon": 0.0, "rental_uris": {"android": "https://dc.lft.to/lastmile_qr_scan", "ios": "https://dc.lft.to/lastmile_qr_scan"}, "is_reserved": 0, "is_disabled": 0, "type": "electric_scooter", "bike_id": "998552d9f74286d9080313e69fbe0e51"}, {"lon": -77.02659866666667, "lat": 38.93863666666667, "name": "5f77948f8363daae6eab32412ae39684", "fusion_lat": 0.0, "fusion_lon": 0.0, "rental_uris": {"android": "https://dc.lft.to/lastmile_qr_scan", "ios": "https://dc.lft.to/lastmile_qr_scan"}, "is_reserved": 0, "is_disabled": 0, "type": "electric_scooter", "bike_id": "5f77948f8363daae6eab32412ae39684"}, {"lon": -77.00678116666667, "lat": 38.895909833333334, "name": "8499b72d778d0bb57fcc8b3e371f0787", "fusion_lat": 0.0, "fusion_lon": 0.0, "rental_uris": {"android": "https://dc.lft.to/lastmile_qr_scan", "ios": "https://dc.lft.to/lastmile_qr_scan"}, "is_reserved": 0, "is_disabled": 0, "type": "electric_scooter", "bike_id": "8499b72d778d0bb57fcc8b3e371f0787"}, {"lon": -77.04378316666667, "lat": 38.892214833333334, "name": "286d06e039ac40e8ac23e7d0943d8528", "fusion_lat": 0.0, "fusion_lon": 0.0, "rental_uris": {"android": "https://dc.lft.to/lastmile_qr_scan", "ios": "https://dc.lft.to/lastmile_qr_scan"}, "is_reserved": 0, "is_disabled": 0, "type": "electric_scooter", "bike_id": "286d06e039ac40e8ac23e7d0943d8528"}, {"lon": -77.01873283333333, "lat": 38.887473666666665, "name": "9516a1ae507acde39b80801a47291fa2", "fusion_lat": 0.0, "fusion_lon": 0.0, "rental_uris": {"android": "https://dc.lft.to/lastmile_qr_scan", "ios": "https://dc.lft.to/lastmile_qr_scan"}, "is_reserved": 0, "is_disabled": 0, "type": "electric_scooter", "bike_id": "9516a1ae507acde39b80801a47291fa2"}, {"lon": -77.02049516666666, "lat": 38.903133, "name": "c1ede6da9ec512729f12d038c0dae90e", "fusion_lat": 0.0, "fusion_lon": 0.0, "rental_uris": {"android": "https://dc.lft.to/lastmile_qr_scan", "ios": "https://dc.lft.to/lastmile_qr_scan"}, "is_reserved": 0, "is_disabled": 0, "type": "electric_scooter", "bike_id": "c1ede6da9ec512729f12d038c0dae90e"}, {"lon": -77.02351433333334, "lat": 38.92271733333333, "name": "cd561b45519c82d37b3d9ce67234616a", "fusion_lat": 0.0, "fusion_lon": 0.0, "rental_uris": {"android": "https://dc.lft.to/lastmile_qr_scan", "ios": "https://dc.lft.to/lastmile_qr_scan"}, "is_reserved": 0, "is_disabled": 0, "type": "electric_scooter", "bike_id": "cd561b45519c82d37b3d9ce67234616a"}, {"lon": -77.02010033333333, "lat": 38.924138, "name": "112c16fdb8aa78729c7d88fb03d1fcb7", "fusion_lat": 0.0, "fusion_lon": 0.0, "rental_uris": {"android": "https://dc.lft.to/lastmile_qr_scan", "ios": "https://dc.lft.to/lastmile_qr_scan"}, "is_reserved": 0, "is_disabled": 0, "type": "electric_scooter", "bike_id": "112c16fdb8aa78729c7d88fb03d1fcb7"}, {"lon": -77.01844266666667, "lat": 38.9499145, "name": "b1fc04340a1f89fdecd0498929059cc5", "fusion_lat": 0.0, "fusion_lon": 0.0, "rental_uris": {"android": "https://dc.lft.to/lastmile_qr_scan", "ios": "https://dc.lft.to/lastmile_qr_scan"}, "is_reserved": 0, "is_disabled": 0, "type": "electric_scooter", "bike_id": "b1fc04340a1f89fdecd0498929059cc5"}, {"lon": -77.00209066666666, "lat": 38.902116666666664, "name": "4c578db2ad1bc5e33bfbc36375d845dc", "fusion_lat": 0.0, "fusion_lon": 0.0, "rental_uris": {"android": "https://dc.lft.to/lastmile_qr_scan", "ios": "https://dc.lft.to/lastmile_qr_scan"}, "is_reserved": 0, "is_disabled": 0, "type": "electric_scooter", "bike_id": "4c578db2ad1bc5e33bfbc36375d845dc"}, {"lon": -77.0073565, "lat": 38.95517916666667, "name": "3eaab192e2994d1a68adf17172648926", "fusion_lat": 0.0, "fusion_lon": 0.0, "rental_uris": {"android": "https://dc.lft.to/lastmile_qr_scan", "ios": "https://dc.lft.to/lastmile_qr_scan"}, "is_reserved": 0, "is_disabled": 0, "type": "electric_scooter", "bike_id": "3eaab192e2994d1a68adf17172648926"}, {"lon": -77.03176733333333, "lat": 38.91911233333333, "name": "7f57a138446f75c2f5df69ef78f4d4fa", "fusion_lat": 0.0, "fusion_lon": 0.0, "rental_uris": {"android": "https://dc.lft.to/lastmile_qr_scan", "ios": "https://dc.lft.to/lastmile_qr_scan"}, "is_reserved": 0, "is_disabled": 0, "type": "electric_scooter", "bike_id": "7f57a138446f75c2f5df69ef78f4d4fa"}, {"lon": -77.03306, "lat": 38.930260833333335, "name": "d6f2a67d1fc135e111c09460266b8300", "fusion_lat": 0.0, "fusion_lon": 0.0, "rental_uris": {"android": "https://dc.lft.to/lastmile_qr_scan", "ios": "https://dc.lft.to/lastmile_qr_scan"}, "is_reserved": 0, "is_disabled": 0, "type": "electric_scooter", "bike_id": "d6f2a67d1fc135e111c09460266b8300"}, {"lon": -77.02492633333334, "lat": 38.93962533333333, "name": "f473d24be4fd2845101a83ee74de6aa1", "fusion_lat": 0.0, "fusion_lon": 0.0, "rental_uris": {"android": "https://dc.lft.to/lastmile_qr_scan", "ios": "https://dc.lft.to/lastmile_qr_scan"}, "is_reserved": 0, "is_disabled": 0, "type": "electric_scooter", "bike_id": "f473d24be4fd2845101a83ee74de6aa1"}, {"lon": -77.0321075, "lat": 38.919869, "name": "5b54b9feecd91c781d20d4d9ae267dce", "fusion_lat": 0.0, "fusion_lon": 0.0, "rental_uris": {"android": "https://dc.lft.to/lastmile_qr_scan", "ios": "https://dc.lft.to/lastmile_qr_scan"}, "is_reserved": 0, "is_disabled": 0, "type": "electric_scooter", "bike_id": "5b54b9feecd91c781d20d4d9ae267dce"}, {"lon": -77.067793, "lat": 38.9521235, "name": "a3870de1fc54bd0eec6fd683b7ba4bb6", "fusion_lat": 0.0, "fusion_lon": 0.0, "rental_uris": {"android": "https://dc.lft.to/lastmile_qr_scan", "ios": "https://dc.lft.to/lastmile_qr_scan"}, "is_reserved": 0, "is_disabled": 0, "type": "electric_scooter", "bike_id": "a3870de1fc54bd0eec6fd683b7ba4bb6"},