{"data": {"bikes": [{"lat": 38.9360265, "is_disabled": 0, "type": "electric_scooter", "lon": -77.03169433333333, "bike_id": "e7a7de4387dea2ef5c0b554bb2e6eece", "fusion_lat": 0.0, "name": "e7a7de4387dea2ef5c0b554bb2e6eece", "is_reserved": 0, "rental_uris": {"android": "https://dc.lft.to/lastmile_qr_scan", "ios": "https://dc.lft.to/lastmile_qr_scan"}, "fusion_lon": 0.0}, {"lat": 38.89495066666667, "is_disabled": 0, "type": "electric_scooter", "lon": -77.00210316666667, "bike_id": "edeeac000a99b544e4ca10431262401b", "fusion_lat": 0.0, "name": "edeeac000a99b544e4ca10431262401b", "is_reserved": 0, "rental_uris": {"android": "https://dc.lft.to/lastmile_qr_scan", "ios": "https://dc.lft.to/lastmile_qr_scan"}, "fusion_lon": 0.0}, {"lat": 38.893715666666665, "is_disabled": 0, "type": "electric_scooter", "lon": -77.02828066666666, "bike_id": "a6f6eee2d2ff203ec3696212a316a46e", "fusion_lat": 0.0, "name": "a6f6eee2d2ff203ec3696212a316a46e", "is_reserved": 0, "rental_uris": {"android": "https://dc.lft.to/lastmile_qr_scan", "ios": "https://dc.lft.to/lastmile_qr_scan"}, "fusion_lon": 0.0}, {"lat": 38.94423, "is_disabled": 0, "type": "electric_scooter", "lon": -77.06266183333334, "bike_id": "5c8ae1b89bf889a990436da0d847b3ea", "fusion_lat": 0.0, "name": "5c8ae1b89bf889a990436da0d847b3ea", "is_reserved": 0, "rental_uris": {"android": "https://dc.lft.to/lastmile_qr_scan", "ios": "https://dc.lft.to/lastmile_qr_scan"}, "fusion_lon": 0.0}, {"lat": 38.92606116666666, "is_disabled": 0, "type": "electric_scooter", "lon": -77.04178483333334, "bike_id": "6dbf7cf6d38a042edb6d41eb049a8598", "fusion_lat": 0.0, "name": "6dbf7cf6d38a042edb6d41eb049a8598", "is_reserved": 0, "rental_uris": {"android": "https://dc.lft.to/lastmile_qr_scan", "ios": "https://dc.lft.to/lastmile_qr_scan"}, "fusion_lon": 0.0}, {"lat": 38.8966195, "is_disabled": 0, "type": "electric_scooter", "lon": -77.02421083333333, "bike_id": "1477306fdf2fb1455c757a349a8ac381", "fusion_lat": 0.0, "name": "1477306fdf2fb1455c757a349a8ac381", "is_reserved": 0, "rental_uris": {"android": "https://dc.lft.to/lastmile_qr_scan", "ios": "https://dc.lft.to/lastmile_qr_scan"}, "fusion_lon": 0.0}, {"lat": 38.92031033333333, "is_disabled": 0, "type": "electric_scooter", "lon": -77.013291, "bike_id": "2218d6b38287d346631595886fd22d6a", "fusion_lat": 0.0, "name": "2218d6b38287d346631595886fd22d6a", "is_reserved": 0, "rental_uris": {"android": "https://dc.lft.to/lastmile_qr_scan", "ios": "https://dc.lft.to/lastmile_qr_scan"}, "fusion_lon": 0.0}, {"lat": 38.915623, "is_disabled": 0, "type": "electric_scooter", "lon": -77.00330816666667, "bike_id": "2aa81ddc6c24e217de4e17916ac16c89", "fusion_lat": 0.0, "name": "2aa81ddc6c24e217de4e17916ac16c89", "is_reserved": 0, "rental_uris": {"android": "https://dc.lft.to/lastmile_qr_scan", "ios": "https://dc.lft.to/lastmile_qr_scan"}, "fusion_lon": 0.0}, {"lat": 38.892229666666665, "is_disabled": 0, "type": "electric_scooter", "lon": -77.0334275, "bike_id": "9e181c4f8ae216795a57e3158d6ec719", "fusion_lat": 0.0, "name": "9e181c4f8ae216795a57e3158d6ec719", "is_reserved": 0, "rental_uris": {"android": "https://dc.lft.to/lastmile_qr_scan", "ios": "https://dc.lft.to/lastmile_qr_scan"}, "fusion_lon": 0.0}, {"lat": 38.90722933333333, "is_disabled": 0, "type": "electric_scooter", "lon": -77.01089716666667, "bike_id": "a22465e5b3df228397fe800ba5b437fe", "fusion_lat": 0.0, "name": "a22465e5b3df228397fe800ba5b437fe", "is_reserved": 0, "rental_uris": {"android": "https://dc.lft.to/lastmile_qr_scan", "ios": "https://dc.lft.to/lastmile_qr_scan"}, "fusion_lon": 0.0}, {"lat": 38.89506883333333, "is_disabled": 0, "type": "electric_scooter", "lon": -77.01104116666667, "bike_id": "5fae8952a3fb43aa21b95b598b64aaf9", "fusion_lat": 0.0, "name": "5fae8952a3fb43aa21b95b598b64aaf9", "is_reserved": 0, "rental_uris": {"android": "https://dc.lft.to/lastmile_qr_scan", "ios": "https://dc.lft.to/lastmile_qr_scan"}, "fusion_lon": 0.0}, {"lat": 38.91255616666667, "is_disabled": 0, "type": "electric_scooter", "lon": -77.03805733333333, "bike_id": "94f1d0471f30ec80abdc974f343ae3bb", "fusion_lat": 0.0, "name": "94f1d0471f30ec80abdc974f343ae3bb", "is_reserved": 0, "rental_uris": {"android": "https://dc.lft.to/lastmile_qr_scan", "ios": "https://dc.lft.to/lastmile_qr_scan"}, "fusion_lon": 0.0}, {"lat": 38.923445666666666, "is_disabled": 0, "type": "electric_scooter", "lon": -77.051199, "bike_id": "052a86bf4340108f07aed93e6bf0873a", "fusion_lat": 0.0, "name": "052a86bf4340108f07aed93e6bf0873a", "is_reserved": 0, "rental_uris": {"android": "https://dc.lft.to/lastmile_qr_scan", "ios": "https://dc.lft.to/lastmile_qr_scan"}, "fusion_lon": 0.0}, {"lat": 38.91684033333333, "is_disabled": 0, "type": "electric_scooter", "lon": -77.02906116666666, "bike_id": "ebe174987bed393978b179736159e309", "fusion_lat": 0.0, "name": "ebe174987bed393978b179736159e309", "is_reserved": 0, "rental_uris": {"android": "https://dc.lft.to/lastmile_qr_scan", "ios": "https://dc.lft.to/lastmile_qr_scan"}, "fusion_lon": 0.0}, {"lat": 38.934728666666665, "is_disabled": 0, "type": "electric_scooter", "lon": -77.04119283333333, "bike_id": "efc6500238f46069d72ec6660b7f71fd", "fusion_lat": 0.0, "name": "efc6500238f46069d72ec6660b7f71fd", "is_reserved": 0, "rental_uris": {"android": "https://dc.lft.to/lastmile_qr_scan", "ios": "https://dc.lft.to/lastmile_qr_scan"}, "fusion_lon": 0.0}, {"lat": 38.907929, "is_disabled": 0, "type": "electric_scooter", "lon": -76.9969445, "bike_id": "533f5a4ab64e396b83c5206c9839c2d5", "fusion_lat": 0.0, "name": "533f5a4ab64e396b83c5206c9839c2d5", "is_reserved": 0, "rental_uris": {"android": "https://dc.lft.to/lastmile_qr_scan", "ios": "https://dc.lft.to/lastmile_qr_scan"}, "fusion_lon": 0.0}, {"lat": 38.840977, "is_disabled": 0, "type": "electric_bike", "lon": -77.08946816666666, "bike_id": "7e1ce59de1d2999005931e34eae63de2", "fusion_lat": 0.0, "name": "7e1ce59de1d2999005931e34eae63de2", "is_reserved": 0, "rental_uris": {"android": "https://dc.lft.to/lastmile_qr_scan", "ios": "https://dc.lft.to/lastmile_qr_scan"}, "fusion_lon": 0.0}, {"lat": 38.926104333333335, "is_disabled": 0, "type": "electric_scooter", "lon": -77.02162416666667, "bike_id": "4c82257f0764a6108a3b8ec1731954e4", "fusion_lat": 0.0, "name": "4c82257f0764a6108a3b8ec1731954e4", "is_reserved": 0, "rental_uris": {"android": "https://dc.lft.to/lastmile_qr_scan", "ios": "https://dc.lft.to/lastmile_qr_scan"}, "fusion_lon": 0.0}, {"lat": 38.97084983333333, "is_disabled": 0, "type": "electric_bike", "lon": -77.06969333333333, "bike_id": "9771602921307de77fef082abb2f6f9b", "fusion_lat": 0.0, "name": "9771602921307de77fef082abb2f6f9b", "is_reserved": 0, "rental_uris": {"android": "https://dc.lft.to/lastmile_qr_scan", "ios": "https://dc.lft.to/lastmile_qr_scan"}, "fusion_lon": 0.0}, {"lat": 38.9144455, "is_disabled": 0, "type": "electric_scooter", "lon": -77.041595, "bike_id": "9cdd7c55209845941ab1eccd96a72d12", "fusion_lat": 0.0, "name": "9cdd7c55209845941ab1eccd96a72d12", "is_reserved": 0, "rental_uris": {"android": "https://dc.lft.to/lastmile_qr_scan", "ios": "https://dc.lft.to/lastmile_qr_scan"}, "fusion_lon": 0.0}, {"lat": 38.90730833333333, "is_disabled": 0, "type": "electric_scooter", "lon": -77.04339916666666, "bike_id": "5e9ce3a746050c811437d02eaa5b7a6b", "fusion_lat": 0.0, "name": "5e9ce3a746050c811437d02eaa5b7a6b", "is_reserved": 0, "rental_uris": {"android": "https://dc.lft.to/lastmile_qr_scan", "ios": "https://dc.lft.to/lastmile_qr_scan"}, "fusion_lon": 0.0}, {"lat": 38.902806, "is_disabled": 0, "type": "electric_scooter", "lon": -77.038719, "bike_id": "55ac3ee603c33b7896f422e19b20d81d", "fusion_lat": 0.0, "name": "55ac3ee603c33b7896f422e19b20d81d", "is_reserved": 0, "rental_uris": {"android": "https://dc.lft.to/lastmile_qr_scan", "ios": "https://dc.lft.to/lastmile_qr_scan"}, "fusion_lon": 0.0}, {"lat": 38.87913983333333, "is_disabled": 0, "type": "electric_scooter", "lon": -77.03101666666667, "bike_id": "980611edca2c380eb1ead7027b1d5918", "fusion_lat": 0.0, "name": "980611edca2c380eb1ead7027b1d5918", "is_reserved": 0, "rental_uris": {"android": "https://dc.lft.to/lastmile_qr_scan", "ios": "https://dc.lft.to/lastmile_qr_scan"}, "fusion_lon": 0.0}, {"lat": 38.89606233333333, "is_disabled": 0, "type": "electric_scooter", "lon": -77.0547225, "bike_id": "78e706b24ea5e31cfb477251007f8d35", "fusion_lat": 0.0, "name": "78e706b24ea5e31cfb477251007f8d35", "is_reserved": 0, "rental_uris": {"android": "https://dc.lft.to/lastmile_qr_scan", "ios": "https://dc.lft.to/lastmile_qr_scan"}, "fusion_lon": 0.0}, {"lat": 38.91742416666666, "is_disabled": 0, "type": "electric_scooter", "lon": -77.03607066666666, "bike_id": "308f3724b93263c536da1a35143e73c5", "fusion_lat": 0.0, "name": "308f3724b93263c536da1a35143e73c5", "is_reserved": 0, "rental_uris": {"android": "https://dc.lft.to/lastmile_qr_scan", "ios": "https://dc.lft.to/lastmile_qr_scan"}, "fusion_lon": 0.0}, {"lat": 38.90286, "is_disabled": 0, "type": "electric_scooter", "lon": -77.06244283333334, "bike_id": "3c6ebcefe734f29558f96cf5d4bc6d17", "fusion_lat": 0.0, "name": "3c6ebcefe734f29558f96cf5d4bc6d17", "is_reserved": 0, "rental_uris": {"android": "https://dc.lft.to/lastmile_qr_scan", "ios": "https://dc.lft.to/lastmile_qr_scan"}, "fusion_lon": 0.0}, {"lat": 38.90144133333333, "is_disabled": 0, "type": "electric_scooter", "lon": -77.00071666666666, "bike_id": "59e86c0dd927d543119e7cbdf1c321d1", "fusion_lat": 0.0, "name": "59e86c0dd927d543119e7cbdf1c321d1", "is_reserved": 0, "rental_uris": {"android": "https://dc.lft.to/lastmile_qr_scan", "ios": "https://dc.lft.to/lastmile_qr_scan"}, "fusion_lon": 0.0}, {"lat": 38.94634, "is_disabled": 0, "type": "electric_scooter", "lon": -77.02523666666667, "bike_id": "182d7060ac4e344c50fd8ef20c29df09", "fusion_lat": 0.0, "name": "182d7060ac4e344c50fd8ef20c29df09", "is_reserved": 0, "rental_uris": {"android": "https://dc.lft.to/lastmile_qr_scan", "ios": "https://dc.lft.to/lastmile_qr_scan"}, "fusion_lon": 0.0}, {"lat": 38.905236333333335, "is_disabled": 0, "type": "electric_scooter", "lon": -77.06496666666666, "bike_id": "b74b98b5109b883d805c9aac1823e9b3", "fusion_lat": 0.0, "name": "b74b98b5109b883d805c9aac1823e9b3", "is_reserved": 0, "rental_uris": {"android": "https://dc.lft.to/lastmile_qr_scan", "ios": "https://dc.lft.to/lastmile_qr_scan"}, "fusion_lon": 0.0}, {"lat": 38.911869833333334, "is_disabled": 0, "type": "electric_scooter", "lon": -77.04463483333333, "bike_id": "50cad62635dae47f12d2dcd8f0eedc55", "fusion_lat": 0.0, "name": "50cad62635dae47f12d2dcd8f0eedc55", "is_reserved": 0, "rental_uris": {"android": "https://dc.lft.to/lastmile_qr_scan", "ios": "https://dc.lft.to/lastmile_qr_scan"}, "fusion_lon": 0.0}, {"lat": 38.91801433333333, "is_disabled": 0, "type": "electric_scooter", "lon": -77.02705566666667, "bike_id": "c764fac4bdf37b0c852f3afc711cf2ab", "fusion_lat": 0.0, "name": "c764fac4bdf37b0c852f3afc711cf2ab", "is_reserved": 0, "rental_uris": {"android": "https://dc.lft.to/lastmile_qr_scan", "ios": "https://dc.lft.to/lastmile_qr_scan"}, "fusion_lon": 0.0}, {"lat": 38.919813, "is_disabled": 0, "type": "electric_scooter", "lon": -77.0237115, "bike_id": "232e706d372b93c8ec35212e029e7299", "fusion_lat": 0.0, "name": "232e706d372b93c8ec35212e029e7299", "is_reserved": 0, "rental_uris": {"android": "https://dc.lft.to/lastmile_qr_scan", "ios": "https://dc.lft.to/lastmile_qr_scan"}, "fusion_lon": 0.0}, {"lat": 38.902017, "is_disabled": 0, "type": "electric_scooter", "lon": -77.02320866666666, "bike_id": "1e3281e05d08a99e8dd48a47901ba26f", "fusion_lat": 0.0, "name": "1e3281e05d08a99e8dd48a47901ba26f", "is_reserved": 0, "rental_uris": {"android": "https://dc.lft.to/lastmile_qr_scan", "ios": "https://dc.lft.to/lastmile_qr_scan"}, "fusion_lon": 0.0}, {"lat": 38.902422666666666, "is_disabled": 0, "type": "electric_scooter", "lon": -77.03346166666667, "bike_id": "25352fde92c56180e6a4c536ce2ae0df", "fusion_lat": 0.0, "name": "25352fde92c56180e6a4c536ce2ae0df", "is_reserved": 0, "rental_uris": {"android": "https://dc.lft.to/lastmile_qr_scan", "ios": "https://dc.lft.to/lastmile_qr_scan"}, "fusion_lon": 0.0}, {"lat": 38.912627, "is_disabled": 0, "type": "electric_scooter", "lon": -77.02870716666666, "bike_id": "38dacea9834b4264c37592e1998d377e", "fusion_lat": 0.0, "name": "38dacea9834b4264c37592e1998d377e", "is_reserved": 0, "rental_uris": {"android": "https://dc.lft.to/lastmile_qr_scan", "ios": "https://dc.lft.to/lastmile_qr_scan"}, "fusion_lon": 0.0}, {"lat": 38.87471683333333, "is_disabled": 0, "type": "electric_scooter", "lon": -77.00520033333333, "bike_id": "043314b45d062d10a3ce50d66a2ba83e", "fusion_lat": 0.0, "name": "043314b45d062d10a3ce50d66a2ba83e", "is_reserved": 0, "rental_uris": {"android": "https://dc.lft.to/lastmile_qr_scan", "ios": "https://dc.lft.to/lastmile_qr_scan"}, "fusion_lon": 0.0}, {"lat": 38.926625, "is_disabled": 0, "type": "electric_scooter", "lon": -77.05596016666667, "bike_id": "8ecdbc2179a423b11bcaec5110d61914", "fusion_lat": 0.0, "name": "8ecdbc2179a423b11bcaec5110d61914", "is_reserved": 0, "rental_uris": {"android": "https://dc.lft.to/lastmile_qr_scan", "ios": "https://dc.lft.to/lastmile_qr_scan"}, "fusion_lon": 0.0}, {"lat": 38.914751, "is_disabled": 0, "type": "electric_scooter", "lon": -77.03235166666667, "bike_id": "10a74c8c1bd14bb97137390d5abe9faa", "fusion_lat": 0.0, "name": "10a74c8c1bd14bb97137390d5abe9faa", "is_reserved": 0, "rental_uris": {"android": "https://dc.lft.to/lastmile_qr_scan", "ios": "https://dc.lft.to/lastmile_qr_scan"}, "fusion_lon": 0.0}, {"lat": 38.89232583333333, "is_disabled": 0, "type": "electric_scooter", "lon": -77.028379, "bike_id": "6fb52374d7249999d8af0078625f959e", "fusion_lat": 0.0, "name": "6fb52374d7249999d8af0078625f959e", "is_reserved": 0, "rental_uris": {"android": "https://dc.lft.to/lastmile_qr_scan", "ios": "https://dc.lft.to/lastmile_qr_scan"}, "fusion_lon": 0.0}, {"lat": 38.960670666666665, "is_disabled": 0, "type": "electric_scooter", "lon": -77.07300866666667, "bike_id": "c5283f0ae6b095d650436d3b4216ae43", "fusion_lat": 0.0, "name": "c5283f0ae6b095d650436d3b4216ae43", "is_reserved": 0, "rental_uris": {"android": "https://dc.lft.to/lastmile_qr_scan", "ios": "https://dc.lft.to/lastmile_qr_scan"}, "fusion_lon": 0.0}, {"lat": 38.925923833333336, "is_disabled": 0, "type": "electric_scooter", "lon": -77.024923, "bike_id": "ac23be83d81c84ab716635067b108771", "fusion_lat": 0.0, "name": "ac23be83d81c84ab716635067b108771", "is_reserved": 0, "rental_uris": {"android": "https://dc.lft.to/lastmile_qr_scan", "ios": "https://dc.lft.to/lastmile_qr_scan"}, "fusion_lon": 0.0}, {"lat": 38.90384066666667, "is_disabled": 0, "type": "electric_scooter", "lon": -76.97615883333333, "bike_id": "902b75359d1c44e2452918cdfa5909bf", "fusion_lat": 0.0, "name": "902b75359d1c44e2452918cdfa5909bf", "is_reserved": 0, "rental_uris": {"android": "https://dc.lft.to/lastmile_qr_scan", "ios": "https://dc.lft.to/lastmile_qr_scan"}, "fusion_lon": 0.0}, {"lat": 38.90056916666666, "is_disabled": 0, "type": "electric_scooter", "lon": -77.04539183333333, "bike_id": "938a49faa80112dc266983b4a41f14dc", "fusion_lat": 0.0, "name": "938a49faa80112dc266983b4a41f14dc", "is_reserved": 0, "rental_uris": {"android": "https://dc.lft.to/lastmile_qr_scan", "ios": "https://dc.lft.to/lastmile_qr_scan"}, "fusion_lon": 0.0}, {"lat": 38.913462833333334, "is_disabled": 0, "type": "electric_scooter", "lon": -77.042823, "bike_id": "77f563044bc578887d81ebd97e407a88", "fusion_lat": 0.0, "name": "77f563044bc578887d81ebd97e407a88", "is_reserved": 0, "rental_uris": {"android": "https://dc.lft.to/lastmile_qr_scan", "ios": "https://dc.lft.to/lastmile_qr_scan"}, "fusion_lon": 0.0}, {"lat": 38.892277166666666, "is_disabled": 0, "type": "electric_scooter", "lon": -77.05005733333333, "bike_id": "9264251a40b8e7b624bdc4011729d858", "fusion_lat": 0.0, "name": "9264251a40b8e7b624bdc4011729d858", "is_reserved": 0, "rental_uris": {"android": "https://dc.lft.to/lastmile_qr_scan", "ios": "https://dc.lft.to/lastmile_qr_scan"}, "fusion_lon": 0.0}, {"lat": 38.886594833333334, "is_disabled": 0, "type": "electric_bike", "lon": -77.03390666666667, "bike_id": "16d02f5b4f95ac02bba2b559751c028b", "fusion_lat": 0.0, "name": "16d02f5b4f95ac02bba2b559751c028b", "is_reserved": 0, "rental_uris": {"android": "https://dc.lft.to/lastmile_qr_scan", "ios": "https://dc.lft.to/lastmile_qr_scan"}, "fusion_lon": 0.0}, {"lat": 38.917779833333334, "is_disabled": 0, "type": "electric_scooter", "lon": -77.02605783333334, "bike_id": "b3ac7bfe5d4a9fb19860b5ba11775731", "fusion_lat": 0.0, "name": "b3ac7bfe5d4a9fb19860b5ba11775731", "is_reserved": 0, "rental_uris": {"android": "https://dc.lft.to/lastmile_qr_scan", "ios": "https://dc.lft.to/lastmile_qr_scan"}, "fusion_lon": 0.0}, {"lat": 38.92855483333334, "is_disabled": 0, "type": "electric_scooter", "lon": -77.02998233333334, "bike_id": "9e36cba00936c72a7ebfe56b9dd7656b", "fusion_lat": 0.0, "name": "9e36cba00936c72a7ebfe56b9dd7656b", "is_reserved": 0, "rental_uris": {"android": "https://dc.lft.to/lastmile_qr_scan", "ios": "https://dc.lft.to/lastmile_qr_scan"}, "fusion_lon": 0.0}, {"lat": 38.9181765, "is_disabled": 0, "type": "electric_scooter", "lon": -77.03456416666667, "bike_id": "abf7f69e12db9f49cc2837c90aab2eb2", "fusion_lat": 0.0, "name": "abf7f69e12db9f49cc2837c90aab2eb2", "is_reserved": 0, "rental_uris": {"android": "https://dc.lft.to/lastmile_qr_scan", "ios": "https://dc.lft.to/lastmile_qr_scan"}, "fusion_lon": 0.0}, {"lat": 38.8767495, "is_disabled": 0, "type": "electric_bike", "lon": -77.01454383333333, "bike_id": "c02ca6be1d7c36a31c9d7b9ea2a74c57", "fusion_lat": 0.0, "name": "c02ca6be1d7c36a31c9d7b9ea2a74c57", "is_reserved": 0, "rental_uris": {"android": "https://dc.lft.to/lastmile_qr_scan", "ios": "https://dc.lft.to/lastmile_qr_scan"}, "fusion_lon": 0.0}, {"lat": 38.895546833333334, "is_disabled": 0, "type": "electric_scooter", "lon": -76.93389616666667, "bike_id": "4a13638617555359ba0994c202bdb13b", "fusion_lat": 0.0, "name": "4a13638617555359ba0994c202bdb13b", "is_reserved": 0, "rental_uris": {"android": "https://dc.lft.to/lastmile_qr_scan", "ios": "https://dc.lft.to/lastmile_qr_scan"}, "fusion_lon": 0.0}, {"lat": 38.92123216666667, "is_disabled": 0, "type": "electric_scooter", "lon": -77.03172366666666, "bike_id": "8f76b891200c8535746fd7b0729e865c", "fusion_lat": 0.0, "name": "8f76b891200c8535746fd7b0729e865c", "is_reserved": 0, "rental_uris": {"android": "https://dc.lft.to/lastmile_qr_scan", "ios": "https://dc.lft.to/lastmile_qr_scan"}, "fusion_lon": 0.0}, {"lat": 38.91565633333333, "is_disabled": 0, "type": "electric_scooter", "lon": -77.03172266666667, "bike_id": "d549dbc9100270ffa0732cc2ab1b7066", "fusion_lat": 0.0, "name": "d549dbc9100270ffa0732cc2ab1b7066", "is_reserved": 0, "rental_uris": {"android": "https://dc.lft.to/lastmile_qr_scan", "ios": "https://dc.lft.to/lastmile_qr_scan"}, "fusion_lon": 0.0}, {"lat": 38.93339666666667, "is_disabled": 0, "type": "electric_scooter", "lon": -76.99310216666666, "bike_id": "168a9587fe33d1f9c1f71d51c4f440f6", "fusion_lat": 0.0, "name": "168a9587fe33d1f9c1f71d51c4f440f6", "is_reserved": 0, "rental_uris": {"android": "https://dc.lft.to/lastmile_qr_scan", "ios": "https://dc.lft.to/lastmile_qr_scan"}, "fusion_lon": 0.0}, {"lat": 38.900064, "is_disabled": 0, "type": "electric_scooter", "lon": -76.92233666666667, "bike_id": "c988283a54f7b61e407b8ebc08c4a7e9", "fusion_lat": 0.0, "name": "c988283a54f7b61e407b8ebc08c4a7e9", "is_reserved": 0, "rental_uris": {"android": "https://dc.lft.to/lastmile_qr_scan", "ios": "https://dc.lft.to/lastmile_qr_scan"}, "fusion_lon": 0.0}, {"lat": 38.8994935, "is_disabled": 0, "type": "electric_scooter", "lon": -77.00370533333333, "bike_id": "f47c29c4944641f3df4b19ccb2d796d6", "fusion_lat": 0.0, "name": "f47c29c4944641f3df4b19ccb2d796d6", "is_reserved": 0, "rental_uris": {"android": "https://dc.lft.to/lastmile_qr_scan", "ios": "https://dc.lft.to/lastmile_qr_scan"}, "fusion_lon": 0.0}, {"lat": 38.931425833333336, "is_disabled": 0, "type": "electric_scooter", "lon": -77.02146266666666, "bike_id": "ca7ef7ec13adc4fa60faa110bb654583", "fusion_lat": 0.0, "name": "ca7ef7ec13adc4fa60faa110bb654583", "is_reserved": 0, "rental_uris": {"android": "https://dc.lft.to/lastmile_qr_scan", "ios": "https://dc.lft.to/lastmile_qr_scan"}, "fusion_lon": 0.0}, {"lat": 38.90068633333333, "is_disabled": 0, "type": "electric_scooter", "lon": -77.02595566666666, "bike_id": "04297450f8dd00f5ee53054f0d28f1b5", "fusion_lat": 0.0, "name": "04297450f8dd00f5ee53054f0d28f1b5", "is_reserved": 0, "rental_uris": {"android": "https://dc.lft.to/lastmile_qr_scan", "ios": "https://dc.lft.to/lastmile_qr_scan"}, "fusion_lon": 0.0}, {"lat": 38.91692283333333, "is_disabled": 0, "type": "electric_scooter", "lon": -77.02601616666666, "bike_id": "c9b902e57f1ed79540d10e31c7e85639", "fusion_lat": 0.0, "name": "c9b902e57f1ed79540d10e31c7e85639", "is_reserved": 0, "rental_uris": {"android": "https://dc.lft.to/lastmile_qr_scan", "ios": "https://dc.lft.to/lastmile_qr_scan"}, "fusion_lon": 0.0}, {"lat": 38.91448716666667, "is_disabled": 0, "type": "electric_scooter", "lon": -77.029724, "bike_id": "59a37bbfff38661e0f394cf27a79c25b", "fusion_lat": 0.0, "name": "59a37bbfff38661e0f394cf27a79c25b", "is_reserved": 0, "rental_uris": {"android": "https://dc.lft.to/lastmile_qr_scan", "ios": "https://dc.lft.to/lastmile_qr_scan"}, "fusion_lon": 0.0}, {"lat": 38.922402, "is_disabled": 0, "type": "electric_scooter", "lon": -77.04244716666666, "bike_id": "7c07ff9a41f0152d8ff3b6e4d33fa4a5", "fusion_lat": 0.0, "name": "7c07ff9a41f0152d8ff3b6e4d33fa4a5", "is_reserved": 0, "rental_uris": {"android": "https://dc.lft.to/lastmile_qr_scan", "ios": "https://dc.lft.to/lastmile_qr_scan"}, "fusion_lon": 0.0}, {"lat": 38.8904795, "is_disabled": 0, "type": "electric_scooter", "lon": -76.937602, "bike_id": "63ac07d237a1526ad12f2bb027547a6a", "fusion_lat": 0.0, "name": "63ac07d237a1526ad12f2bb027547a6a", "is_reserved": 0, "rental_uris": {"android": "https://dc.lft.to/lastmile_qr_scan", "ios": "https://dc.lft.to/lastmile_qr_scan"}, "fusion_lon": 0.0}, {"lat": 38.89717866666667, "is_disabled": 0, "type": "electric_scooter", "lon": -77.00798366666666, "bike_id": "ab985d87a00693dee900ba9f7540b817", "fusion_lat": 0.0, "name": "ab985d87a00693dee900ba9f7540b817", "is_reserved": 0, "rental_uris": {"android": "https://dc.lft.to/lastmile_qr_scan", "ios": "https://dc.lft.to/lastmile_qr_scan"}, "fusion_lon": 0.0}, {"lat": 38.897422666666664, "is_disabled": 0, "type": "electric_scooter", "lon": -77.04760316666666, "bike_id": "4617e64d07a7b02d4e60d6b12ba45224", "fusion_lat": 0.0, "name": "4617e64d07a7b02d4e60d6b12ba45224", "is_reserved": 0, "rental_uris": {"android": "https://dc.lft.to/lastmile_qr_scan", "ios": "https://dc.lft.to/lastmile_qr_scan"}, "fusion_lon": 0.0}, {"lat": 38.90831883333333, "is_disabled": 0, "type": "electric_scooter", "lon": -77.06387866666667, "bike_id": "9666bf6804e77f0c01812a1aa2bb7a8b", "fusion_lat": 0.0, "name": "9666bf6804e77f0c01812a1aa2bb7a8b", "is_reserved": 0, "rental_uris": {"android": "https://dc.lft.to/lastmile_qr_scan", "ios": "https://dc.lft.to/lastmile_qr_scan"}, "fusion_lon": 0.0}, {"lat": 38.8874405, "is_disabled": 0, "type": "electric_scooter", "lon": -77.01738316666666, "bike_id": "442003abab76dd5f07510fec14335405", "fusion_lat": 0.0, "name": "442003abab76dd5f07510fec14335405", "is_reserved": 0, "rental_uris": {"android": "https://dc.lft.to/lastmile_qr_scan", "ios": "https://dc.lft.to/lastmile_qr_scan"}, "fusion_lon": 0.0}, {"lat": 38.91931783333333, "is_disabled": 0, "type": "electric_scooter", "lon": -77.023043, "bike_id": "75bddfc1c560e7a385507d1007954976", "fusion_lat": 0.0, "name": "75bddfc1c560e7a385507d1007954976", "is_reserved": 0, "rental_uris": {"android": "https://dc.lft.to/lastmile_qr_scan", "ios": "https://dc.lft.to/lastmile_qr_scan"}, "fusion_lon": 0.0}, {"lat": 38.9068425, "is_disabled": 0, "type": "electric_scooter", "lon": -77.03756466666667, "bike_id": "dfcd8a51976fe4aec86200d7a622823d", "fusion_lat": 0.0, "name": "dfcd8a51976fe4aec86200d7a622823d", "is_reserved": 0, "rental_uris": {"android": "https://dc.lft.to/lastmile_qr_scan", "ios": "https://dc.lft.to/lastmile_qr_scan"}, "fusion_lon": 0.0}, {"lat": 38.922399166666665, "is_disabled": 0, "type": "electric_scooter", "lon": -77.04574583333333, "bike_id": "c66fd3fa941684717fd47966963909a4", "fusion_lat": 0.0, "name": "c66fd3fa941684717fd47966963909a4", "is_reserved": 0, "rental_uris": {"android": "https://dc.lft.to/lastmile_qr_scan", "ios": "https://dc.lft.to/lastmile_qr_scan"}, "fusion_lon": 0.0}, {"lat": 38.850486, "is_disabled": 0, "type": "electric_bike", "lon": -76.97319316666666, "bike_id": "333c431ff3a4015f83a5aa07069c6f5a", "fusion_lat": 0.0, "name": "333c431ff3a4015f83a5aa07069c6f5a", "is_reserved": 0, "rental_uris": {"android": "https://dc.lft.to/lastmile_qr_scan", "ios": "https://dc.lft.to/lastmile_qr_scan"}, "fusion_lon": 0.0}, {"lat": 38.902606666666664, "is_disabled": 0, "type": "electric_scooter", "lon": -77.05264883333334, "bike_id": "bc329d74fecb101fafd1643a95071165", "fusion_lat": 0.0, "name": "bc329d74fecb101fafd1643a95071165", "is_reserved": 0, "rental_uris": {"android": "https://dc.lft.to/lastmile_qr_scan", "ios": "https://dc.lft.to/lastmile_qr_scan"}, "fusion_lon": 0.0}, {"lat": 38.902842, "is_disabled": 0, "type": "electric_scooter", "lon": -77.03653566666667, "bike_id": "06f313e75b5c9a4b5f3891686d4fdb25", "fusion_lat": 0.0, "name": "06f313e75b5c9a4b5f3891686d4fdb25", "is_reserved": 0, "rental_uris": {"android": "https://dc.lft.to/lastmile_qr_scan", "ios": "https://dc.lft.to/lastmile_qr_scan"}, "fusion_lon": 0.0}, {"lat": 38.90345416666667, "is_disabled": 0, "type": "electric_scooter", "lon": -77.053261, "bike_id": "a2edbbb0f10310140bc74734b6c1a1a7", "fusion_lat": 0.0, "name": "a2edbbb0f10310140bc74734b6c1a1a7", "is_reserved": 0, "rental_uris": {"android": "https://dc.lft.to/lastmile_qr_scan", "ios": "https://dc.lft.to/lastmile_qr_scan"}, "fusion_lon": 0.0}, {"lat": 38.891637, "is_disabled": 0, "type": "electric_scooter", "lon": -77.015028, "bike_id": "65a868fb0d88632526d9f92f4c03172d", "fusion_lat": 0.0, "name": "65a868fb0d88632526d9f92f4c03172d", "is_reserved": 0, "rental_uris": {"android": "https://dc.lft.to/lastmile_qr_scan", "ios": "https://dc.lft.to/lastmile_qr_scan"}, "fusion_lon": 0.0}, {"lat": 38.93068616666667, "is_disabled": 0, "type": "electric_scooter", "lon": -76.990833, "bike_id": "02da447f402031e8be7f5180c8c97518", "fusion_lat": 0.0, "name": "02da447f402031e8be7f5180c8c97518", "is_reserved": 0, "rental_uris": {"android": "https://dc.lft.to/lastmile_qr_scan", "ios": "https://dc.lft.to/lastmile_qr_scan"}, "fusion_lon": 0.0}, {"lat": 38.916827, "is_disabled": 0, "type": "electric_scooter", "lon": -77.032071, "bike_id": "8dbff65baac6de7b849e74afa608cd72", "fusion_lat": 0.0, "name": "8dbff65baac6de7b849e74afa608cd72", "is_reserved": 0, "rental_uris": {"android": "https://dc.lft.to/lastmile_qr_scan", "ios": "https://dc.lft.to/lastmile_qr_scan"}, "fusion_lon": 0.0}, {"lat": 38.897774, "is_disabled": 0, "type": "electric_scooter", "lon": -77.009236, "bike_id": "6891ab85dc9c20127fe960c12bd4a03c", "fusion_lat": 0.0, "name": "6891ab85dc9c20127fe960c12bd4a03c", "is_reserved": 0, "rental_uris": {"android": "https://dc.lft.to/lastmile_qr_scan", "ios": "https://dc.lft.to/lastmile_qr_scan"}, "fusion_lon": 0.0}, {"lat": 38.919206333333335, "is_disabled": 0, "type": "electric_scooter", "lon": -77.0249645, "bike_id": "acca5be8ea312af172b5e56cfb65d563", "fusion_lat": 0.0, "name": "acca5be8ea312af172b5e56cfb65d563", "is_reserved": 0, "rental_uris": {"android": "https://dc.lft.to/lastmile_qr_scan", "ios": "https://dc.lft.to/lastmile_qr_scan"}, "fusion_lon": 0.0}, {"lat": 38.920638833333335, "is_disabled": 0, "type": "electric_scooter", "lon": -77.04376483333333, "bike_id": "9c0127b2adb814d2afd86f25e0f9a3e3", "fusion_lat": 0.0, "name": "9c0127b2adb814d2afd86f25e0f9a3e3", "is_reserved": 0, "rental_uris": {"android": "https://dc.lft.to/lastmile_qr_scan", "ios": "https://dc.lft.to/lastmile_qr_scan"}, "fusion_lon": 0.0}, {"lat": 38.9066785, "is_disabled": 0, "type": "electric_scooter", "lon": -77.02717083333333, "bike_id": "5454cb9ec477ef8ad5cd601fa9d43258", "fusion_lat": 0.0, "name": "5454cb9ec477ef8ad5cd601fa9d43258", "is_reserved": 0, "rental_uris": {"android": "https://dc.lft.to/lastmile_qr_scan", "ios": "https://dc.lft.to/lastmile_qr_scan"}, "fusion_lon": 0.0}, {"lat": 38.91695166666667, "is_disabled": 0, "type": "electric_scooter", "lon": -77.03110033333333, "bike_id": "63725def8ec4fb114d371615f91aa866", "fusion_lat": 0.0, "name": "63725def8ec4fb114d371615f91aa866", "is_reserved": 0, "rental_uris": {"android": "https://dc.lft.to/lastmile_qr_scan", "ios": "https://dc.lft.to/lastmile_qr_scan"}, "fusion_lon": 0.0}, {"lat": 38.90123783333333, "is_disabled": 0, "type": "electric_bike", "lon": -77.01581466666667, "bike_id": "0dc509dc99ff7f094978e2fa2419cbf6", "fusion_lat": 0.0, "name": "0dc509dc99ff7f094978e2fa2419cbf6", "is_reserved": 0, "rental_uris": {"android": "https://dc.lft.to/lastmile_qr_scan", "ios": "https://dc.lft.to/lastmile_qr_scan"}, "fusion_lon": 0.0}, {"lat": 38.880178, "is_disabled": 0, "type": "electric_scooter", "lon": -76.9601625, "bike_id": "5924f0ebfc0d8ecff7384fb7e9b371f7", "fusion_lat": 0.0, "name": "5924f0ebfc0d8ecff7384fb7e9b371f7", "is_reserved": 0, "rental_uris": {"android": "https://dc.lft.to/lastmile_qr_scan", "ios": "https://dc.lft.to/lastmile_qr_scan"}, "fusion_lon": 0.0}, {"lat": 38.93627266666667, "is_disabled": 0, "type": "electric_scooter", "lon": -77.03656233333334, "bike_id": "66efecc8f84105a904f6365827c6a25c", "fusion_lat": 0.0, "name": "66efecc8f84105a904f6365827c6a25c", "is_reserved": 0, "rental_uris": {"android": "https://dc.lft.to/lastmile_qr_scan", "ios": "https://dc.lft.to/lastmile_qr_scan"}, "fusion_lon": 0.0}, {"lat": 38.952931666666665, "is_disabled": 0, "type": "electric_scooter", "lon": -77.08155816666667, "bike_id": "de852462a1fae4f3c113ebfc230df7b2", "fusion_lat": 0.0, "name": "de852462a1fae4f3c113ebfc230df7b2", "is_reserved": 0, "rental_uris": {"android": "https://dc.lft.to/lastmile_qr_scan", "ios": "https://dc.lft.to/lastmile_qr_scan"}, "fusion_lon": 0.0}, {"lat": 38.866494833333334, "is_disabled": 0, "type": "electric_scooter", "lon": -76.98890233333333, "bike_id": "8c7ec5ac13a6cb9c9e2a44cfcf628b34", "fusion_lat": 0.0, "name": "8c7ec5ac13a6cb9c9e2a44cfcf628b34", "is_reserved": 0, "rental_uris": {"android": "https://dc.lft.to/lastmile_qr_scan", "ios": "https://dc.lft.to/lastmile_qr_scan"}, "fusion_lon": 0.0}, {"lat": 38.938763, "is_disabled": 0, "type": "electric_scooter", "lon": -77.03127183333334, "bike_id": "f550a1b86e82d1b0bcc937d5a0898ad9", "fusion_lat": 0.0, "name": "f550a1b86e82d1b0bcc937d5a0898ad9", "is_reserved": 0, "rental_uris": {"android": "https://dc.lft.to/lastmile_qr_scan", "ios": "https://dc.lft.to/lastmile_qr_scan"}, "fusion_lon": 0.0}, {"lat": 38.9264345, "is_disabled": 0, "type": "electric_scooter", "lon": -77.04319583333333, "bike_id": "0a4a5e6b8f10950eac201cb199e7c578", "fusion_lat": 0.0, "name": "0a4a5e6b8f10950eac201cb199e7c578", "is_reserved": 0, "rental_uris": {"android": "https://dc.lft.to/lastmile_qr_scan", "ios": "https://dc.lft.to/lastmile_qr_scan"}, "fusion_lon": 0.0}, {"lat": 38.908513666666664, "is_disabled": 0, "type": "electric_scooter", "lon": -77.006292, "bike_id": "586ac9accb5becb50e688e7efc24cf31", "fusion_lat": 0.0, "name": "586ac9accb5becb50e688e7efc24cf31", "is_reserved": 0, "rental_uris": {"android": "https://dc.lft.to/lastmile_qr_scan", "ios": "https://dc.lft.to/lastmile_qr_scan"}, "fusion_lon": 0.0}, {"lat": 38.9375665, "is_disabled": 0, "type": "electric_scooter", "lon": -77.0213685, "bike_id": "0ca331fc855823badd140aea57eef2cf", "fusion_lat": 0.0, "name": "0ca331fc855823badd140aea57eef2cf", "is_reserved": 0, "rental_uris": {"android": "https://dc.lft.to/lastmile_qr_scan", "ios": "https://dc.lft.to/lastmile_qr_scan"}, "fusion_lon": 0.0}, {"lat": 38.89680966666667, "is_disabled": 0, "type": "electric_scooter", "lon": -77.05131416666667, "bike_id": "7f02b2303cda662efbce7d63900d2296", "fusion_lat": 0.0, "name": "7f02b2303cda662efbce7d63900d2296", "is_reserved": 0, "rental_uris": {"android": "https://dc.lft.to/lastmile_qr_scan", "ios": "https://dc.lft.to/lastmile_qr_scan"}, "fusion_lon": 0.0}, {"lat": 38.918018000000004, "is_disabled": 0, "type": "electric_bike", "lon": -77.223465, "bike_id": "79a4e7efee345e128178340c635ada58", "fusion_lat": 0.0, "name": "79a4e7efee345e128178340c635ada58", "is_reserved": 0, "rental_uris": {"android": "https://dc.lft.to/lastmile_qr_scan", "ios": "https://dc.lft.to/lastmile_qr_scan"}, "fusion_lon": 0.0}, {"lat": 38.972341666666665, "is_disabled": 0, "type": "electric_bike", "lon": -76.9934135, "bike_id": "64d23dfbdbee29159e1feda73caa2114", "fusion_lat": 0.0, "name": "64d23dfbdbee29159e1feda73caa2114", "is_reserved": 0, "rental_uris": {"android": "https://dc.lft.to/lastmile_qr_scan", "ios": "https://dc.lft.to/lastmile_qr_scan"}, "fusion_lon": 0.0}, {"lat": 38.908342166666664, "is_disabled": 0, "type": "electric_scooter", "lon": -76.9969735, "bike_id": "00ea10f8ce3f0ca9c509ffcac61d31b1", "fusion_lat": 0.0, "name": "00ea10f8ce3f0ca9c509ffcac61d31b1", "is_reserved": 0, "rental_uris": {"android": "https://dc.lft.to/lastmile_qr_scan", "ios": "https://dc.lft.to/lastmile_qr_scan"}, "fusion_lon": 0.0}, {"lat": 38.90306533333333, "is_disabled": 0, "type": "electric_scooter", "lon": -77.03785333333333, "bike_id": "d6bf6eec8fd9a8255f929b754000a2c8", "fusion_lat": 0.0, "name": "d6bf6eec8fd9a8255f929b754000a2c8", "is_reserved": 0, "rental_uris": {"android": "https://dc.lft.to/lastmile_qr_scan", "ios": "https://dc.lft.to/lastmile_qr_scan"}, "fusion_lon": 0.0}, {"lat": 38.94893733333333, "is_disabled": 0, "type": "electric_scooter", "lon": -77.03049333333334, "bike_id": "1af9a820d4fdff9456b694238468ee52", "fusion_lat": 0.0, "name": "1af9a820d4fdff9456b694238468ee52", "is_reserved": 0, "rental_uris": {"android": "https://dc.lft.to/lastmile_qr_scan", "ios": "https://dc.lft.to/lastmile_qr_scan"}, "fusion_lon": 0.0}, {"lat": 38.922354, "is_disabled": 0, "type": "electric_scooter", "lon": -77.04570383333333, "bike_id": "17f329edfd0b303dc17da42d07d8a088", "fusion_lat": 0.0, "name": "17f329edfd0b303dc17da42d07d8a088", "is_reserved": 0, "rental_uris": {"android": "https://dc.lft.to/lastmile_qr_scan", "ios": "https://dc.lft.to/lastmile_qr_scan"}, "fusion_lon": 0.0}, {"lat": 38.901662333333334, "is_disabled": 0, "type": "electric_scooter", "lon": -77.02015216666666, "bike_id": "b1b495b01bb2a6a654cbb87f24a09617", "fusion_lat": 0.0, "name": "b1b495b01bb2a6a654cbb87f24a09617", "is_reserved": 0, "rental_uris": {"android": "https://dc.lft.to/lastmile_qr_scan", "ios": "https://dc.lft.to/lastmile_qr_scan"}, "fusion_lon": 0.0}, {"lat": 38.933173, "is_disabled": 0, "type": "electric_scooter", "lon": -77.0452175, "bike_id": "72630d0a534b0edf136c92effd0f84dd", "fusion_lat": 0.0, "name": "72630d0a534b0edf136c92effd0f84dd", "is_reserved": 0, "rental_uris": {"android": "https://dc.lft.to/lastmile_qr_scan", "ios": "https://dc.lft.to/lastmile_qr_scan"}, "fusion_lon": 0.0}, {"lat": 38.921839, "is_disabled": 0, "type": "electric_scooter", "lon": -77.03982816666667, "bike_id": "c13df58adb377305bf956ce75932af0b", "fusion_lat": 0.0, "name": "c13df58adb377305bf956ce75932af0b", "is_reserved": 0, "rental_uris": {"android": "https://dc.lft.to/lastmile_qr_scan", "ios": "https://dc.lft.to/lastmile_qr_scan"}, "fusion_lon": 0.0}, {"lat": 38.91452816666666, "is_disabled": 0, "type": "electric_scooter", "lon": -77.03217333333333, "bike_id": "fc48f7ef53c63f561364bdb614b94459", "fusion_lat": 0.0, "name": "fc48f7ef53c63f561364bdb614b94459", "is_reserved": 0, "rental_uris": {"android": "https://dc.lft.to/lastmile_qr_scan", "ios": "https://dc.lft.to/lastmile_qr_scan"}, "fusion_lon": 0.0}, {"lat": 38.92479266666667, "is_disabled": 0, "type": "electric_scooter", "lon": -77.02833716666666, "bike_id": "bca85749079660f4ff30ee1356529a93", "fusion_lat": 0.0, "name": "bca85749079660f4ff30ee1356529a93", "is_reserved": 0, "rental_uris": {"android": "https://dc.lft.to/lastmile_qr_scan", "ios": "https://dc.lft.to/lastmile_qr_scan"}, "fusion_lon": 0.0}, {"lat": 38.84424083333333, "is_disabled": 0, "type": "electric_scooter", "lon": -76.997774, "bike_id": "b9881b1f1114575224bbe1fc556d59d0", "fusion_lat": 0.0, "name": "b9881b1f1114575224bbe1fc556d59d0", "is_reserved": 0, "rental_uris": {"android": "https://dc.lft.to/lastmile_qr_scan", "ios": "https://dc.lft.to/lastmile_qr_scan"}, "fusion_lon": 0.0}, {"lat": 38.9227285, "is_disabled": 0, "type": "electric_scooter", "lon": -77.04255416666666, "bike_id": "d7b45ca76af703ec52d3e93e2f78df54", "fusion_lat": 0.0, "name": "d7b45ca76af703ec52d3e93e2f78df54", "is_reserved": 0, "rental_uris": {"android": "https://dc.lft.to/lastmile_qr_scan", "ios": "https://dc.lft.to/lastmile_qr_scan"}, "fusion_lon": 0.0}, {"lat": 38.90774866666667, "is_disabled": 0, "type": "electric_scooter", "lon": -77.0386585, "bike_id": "7e08b21307902648a07daeca73a16e45", "fusion_lat": 0.0, "name": "7e08b21307902648a07daeca73a16e45", "is_reserved": 0, "rental_uris": {"android": "https://dc.lft.to/lastmile_qr_scan", "ios": "https://dc.lft.to/lastmile_qr_scan"}, "fusion_lon": 0.0}, {"lat": 38.874699166666666, "is_disabled": 0, "type": "electric_scooter", "lon": -77.00519, "bike_id": "bf9ec4194c730ed22f0c713d5370f528", "fusion_lat": 0.0, "name": "bf9ec4194c730ed22f0c713d5370f528", "is_reserved": 0, "rental_uris": {"android": "https://dc.lft.to/lastmile_qr_scan", "ios": "https://dc.lft.to/lastmile_qr_scan"}, "fusion_lon": 0.0}, {"lat": 38.98652083333333, "is_disabled": 0, "type": "electric_bike", "lon": -77.05639516666666, "bike_id": "37f266a65e7e5d78486ff493e6c9b032", "fusion_lat": 0.0, "name": "37f266a65e7e5d78486ff493e6c9b032", "is_reserved": 0, "rental_uris": {"android": "https://dc.lft.to/lastmile_qr_scan", "ios": "https://dc.lft.to/lastmile_qr_scan"}, "fusion_lon": 0.0}, {"lat": 38.914722166666664, "is_disabled": 0, "type": "electric_scooter", "lon": -77.00358216666666, "bike_id": "2d00ff7742d72339d7132f01c5f10a80", "fusion_lat": 0.0, "name": "2d00ff7742d72339d7132f01c5f10a80", "is_reserved": 0, "rental_uris": {"android": "https://dc.lft.to/lastmile_qr_scan", "ios": "https://dc.lft.to/lastmile_qr_scan"}, "fusion_lon": 0.0}, {"lat": 38.901750666666665, "is_disabled": 0, "type": "electric_scooter", "lon": -77.021908, "bike_id": "6f52e28ee2f120f21dc4dd5d7045595e", "fusion_lat": 0.0, "name": "6f52e28ee2f120f21dc4dd5d7045595e", "is_reserved": 0, "rental_uris": {"android": "https://dc.lft.to/lastmile_qr_scan", "ios": "https://dc.lft.to/lastmile_qr_scan"}, "fusion_lon": 0.0}, {"lat": 38.94439, "is_disabled": 0, "type": "electric_scooter", "lon": -77.0234195, "bike_id": "a9b0653bfef338ebe7d824fa48f50a3c", "fusion_lat": 0.0, "name": "a9b0653bfef338ebe7d824fa48f50a3c", "is_reserved": 0, "rental_uris": {"android": "https://dc.lft.to/lastmile_qr_scan", "ios": "https://dc.lft.to/lastmile_qr_scan"}, "fusion_lon": 0.0}, {"lat": 38.90959333333333, "is_disabled": 0, "type": "electric_scooter", "lon": -77.018402, "bike_id": "3aa8d7e88be732fdda71dc086f18d61f", "fusion_lat": 0.0, "name": "3aa8d7e88be732fdda71dc086f18d61f", "is_reserved": 0, "rental_uris": {"android": "https://dc.lft.to/lastmile_qr_scan", "ios": "https://dc.lft.to/lastmile_qr_scan"}, "fusion_lon": 0.0}, {"lat": 38.920622, "is_disabled": 0, "type": "electric_scooter", "lon": -77.0423795, "bike_id": "2a5f7a24f5779d32761e0bc6d4702568", "fusion_lat": 0.0, "name": "2a5f7a24f5779d32761e0bc6d4702568", "is_reserved": 0, "rental_uris": {"android": "https://dc.lft.to/lastmile_qr_scan", "ios": "https://dc.lft.to/lastmile_qr_scan"}, "fusion_lon": 0.0}, {"lat": 38.857350833333335, "is_disabled": 0, "type": "electric_scooter", "lon": -76.9943665, "bike_id": "c056f614fc30747e8d81f844b84fe1ec", "fusion_lat": 0.0, "name": "c056f614fc30747e8d81f844b84fe1ec", "is_reserved": 0, "rental_uris": {"android": "https://dc.lft.to/lastmile_qr_scan", "ios": "https://dc.lft.to/lastmile_qr_scan"}, "fusion_lon": 0.0}, {"lat": 38.936656, "is_disabled": 0, "type": "electric_scooter", "lon": -77.03636216666666, "bike_id": "d6a2bd5763f0d74a79023640ab072c88", "fusion_lat": 0.0, "name": "d6a2bd5763f0d74a79023640ab072c88", "is_reserved": 0, "rental_uris": {"android": "https://dc.lft.to/lastmile_qr_scan", "ios": "https://dc.lft.to/lastmile_qr_scan"}, "fusion_lon": 0.0}, {"lat": 38.83984133333333, "is_disabled": 0, "type": "electric_bike", "lon": -77.00566683333334, "bike_id": "816838cd16df44f2803735742ae97bf8", "fusion_lat": 0.0, "name": "816838cd16df44f2803735742ae97bf8", "is_reserved": 0, "rental_uris": {"android": "https://dc.lft.to/lastmile_qr_scan", "ios": "https://dc.lft.to/lastmile_qr_scan"}, "fusion_lon": 0.0}, {"lat": 38.924044, "is_disabled": 0, "type": "electric_scooter", "lon": -77.05257616666667, "bike_id": "3f395b4c2d60327e83bdc872a5c8e6d2", "fusion_lat": 0.0, "name": "3f395b4c2d60327e83bdc872a5c8e6d2", "is_reserved": 0, "rental_uris": {"android": "https://dc.lft.to/lastmile_qr_scan", "ios": "https://dc.lft.to/lastmile_qr_scan"}, "fusion_lon": 0.0}, {"lat": 38.873009333333336, "is_disabled": 0, "type": "electric_bike", "lon": -77.01098316666666, "bike_id": "2557df2044802902721763ec79165f32", "fusion_lat": 0.0, "name": "2557df2044802902721763ec79165f32", "is_reserved": 0, "rental_uris": {"android": "https://dc.lft.to/lastmile_qr_scan", "ios": "https://dc.lft.to/lastmile_qr_scan"}, "fusion_lon": 0.0}, {"lat": 38.912538833333336, "is_disabled": 0, "type": "electric_scooter", "lon": -77.0386445, "bike_id": "585b8a7acc086a2a795d4fcd051d2405", "fusion_lat": 0.0, "name": "585b8a7acc086a2a795d4fcd051d2405", "is_reserved": 0, "rental_uris": {"android": "https://dc.lft.to/lastmile_qr_scan", "ios": "https://dc.lft.to/lastmile_qr_scan"}, "fusion_lon": 0.0}, {"lat": 38.90040966666667, "is_disabled": 0, "type": "electric_scooter", "lon": -76.9950695, "bike_id": "87a796c4bbd00a21967e1339b288712b", "fusion_lat": 0.0, "name": "87a796c4bbd00a21967e1339b288712b", "is_reserved": 0, "rental_uris": {"android": "https://dc.lft.to/lastmile_qr_scan", "ios": "https://dc.lft.to/lastmile_qr_scan"}, "fusion_lon": 0.0}, {"lat": 38.90421166666667, "is_disabled": 0, "type": "electric_scooter", "lon": -77.05905716666666, "bike_id": "429433bb4ea4be34b73d8c618f06248e", "fusion_lat": 0.0, "name": "429433bb4ea4be34b73d8c618f06248e", "is_reserved": 0, "rental_uris": {"android": "https://dc.lft.to/lastmile_qr_scan", "ios": "https://dc.lft.to/lastmile_qr_scan"}, "fusion_lon": 0.0}, {"lat": 38.933776333333334, "is_disabled": 0, "type": "electric_scooter", "lon": -77.0260345, "bike_id": "e23717d4e5ab612c7f2ce60f1f92d6fc", "fusion_lat": 0.0, "name": "e23717d4e5ab612c7f2ce60f1f92d6fc", "is_reserved": 0, "rental_uris": {"android": "https://dc.lft.to/lastmile_qr_scan", "ios": "https://dc.lft.to/lastmile_qr_scan"}, "fusion_lon": 0.0}, {"lat": 38.92926683333334, "is_disabled": 0, "type": "electric_scooter", "lon": -77.03279533333334, "bike_id": "8a773564f41b6ee1f85f5099a87fc503", "fusion_lat": 0.0, "name": "8a773564f41b6ee1f85f5099a87fc503", "is_reserved": 0, "rental_uris": {"android": "https://dc.lft.to/lastmile_qr_scan", "ios": "https://dc.lft.to/lastmile_qr_scan"}, "fusion_lon": 0.0}, {"lat": 38.909488, "is_disabled": 0, "type": "electric_scooter", "lon": -77.04172566666666, "bike_id": "b9609ff3d5a73b52c03734cc69e1d878", "fusion_lat": 0.0, "name": "b9609ff3d5a73b52c03734cc69e1d878", "is_reserved": 0, "rental_uris": {"android": "https://dc.lft.to/lastmile_qr_scan", "ios": "https://dc.lft.to/lastmile_qr_scan"}, "fusion_lon": 0.0}, {"lat": 38.909817, "is_disabled": 0, "type": "electric_scooter", "lon": -76.9847155, "bike_id": "a3c691bd231b6ee0434d4f6d8dbfedb3", "fusion_lat": 0.0, "name": "a3c691bd231b6ee0434d4f6d8dbfedb3", "is_reserved": 0, "rental_uris": {"android": "https://dc.lft.to/lastmile_qr_scan", "ios": "https://dc.lft.to/lastmile_qr_scan"}, "fusion_lon": 0.0}, {"lat": 38.90173866666667, "is_disabled": 0, "type": "electric_scooter", "lon": -77.0161225, "bike_id": "53dda58385c6116bce8a1f286626fc3c", "fusion_lat": 0.0, "name": "53dda58385c6116bce8a1f286626fc3c", "is_reserved": 0, "rental_uris": {"android": "https://dc.lft.to/lastmile_qr_scan", "ios": "https://dc.lft.to/lastmile_qr_scan"}, "fusion_lon": 0.0}, {"lat": 38.90976783333333, "is_disabled": 0, "type": "electric_scooter", "lon": -77.03212683333334, "bike_id": "d03f10dc6ecf7cb8ec6d611e5fc87977", "fusion_lat": 0.0, "name": "d03f10dc6ecf7cb8ec6d611e5fc87977", "is_reserved": 0, "rental_uris": {"android": "https://dc.lft.to/lastmile_qr_scan", "ios": "https://dc.lft.to/lastmile_qr_scan"}, "fusion_lon": 0.0}, {"lat": 38.907744, "is_disabled": 0, "type": "electric_scooter", "lon": -77.03865316666666, "bike_id": "385e991c142a557a2a6c7e9a978274a0", "fusion_lat": 0.0, "name": "385e991c142a557a2a6c7e9a978274a0", "is_reserved": 0, "rental_uris": {"android": "https://dc.lft.to/lastmile_qr_scan", "ios": "https://dc.lft.to/lastmile_qr_scan"}, "fusion_lon": 0.0}, {"lat": 38.868884, "is_disabled": 0, "type": "electric_scooter", "lon": -76.98316766666667, "bike_id": "03bdc73865787141fef07641f1a90fb9", "fusion_lat": 0.0, "name": "03bdc73865787141fef07641f1a90fb9", "is_reserved": 0, "rental_uris": {"android": "https://dc.lft.to/lastmile_qr_scan", "ios": "https://dc.lft.to/lastmile_qr_scan"}, "fusion_lon": 0.0}, {"lat": 38.882532833333336, "is_disabled": 0, "type": "electric_scooter", "lon": -77.00437433333333, "bike_id": "155e92d748e3491030d536e373819a1c", "fusion_lat": 0.0, "name": "155e92d748e3491030d536e373819a1c", "is_reserved": 0, "rental_uris": {"android": "https://dc.lft.to/lastmile_qr_scan", "ios": "https://dc.lft.to/lastmile_qr_scan"}, "fusion_lon": 0.0}, {"lat": 38.901051833333334, "is_disabled": 0, "type": "electric_scooter", "lon": -77.05038116666667, "bike_id": "1c47d1aa67cee22a34de25365c48df7d", "fusion_lat": 0.0, "name": "1c47d1aa67cee22a34de25365c48df7d", "is_reserved": 0, "rental_uris": {"android": "https://dc.lft.to/lastmile_qr_scan", "ios": "https://dc.lft.to/lastmile_qr_scan"}, "fusion_lon": 0.0}, {"lat": 38.8989895, "is_disabled": 0, "type": "electric_scooter", "lon": -76.99730033333333, "bike_id": "e85ec4e81f2bd51b7bc4ab17e863ddd1", "fusion_lat": 0.0, "name": "e85ec4e81f2bd51b7bc4ab17e863ddd1", "is_reserved": 0, "rental_uris": {"android": "https://dc.lft.to/lastmile_qr_scan", "ios": "https://dc.lft.to/lastmile_qr_scan"}, "fusion_lon": 0.0}, {"lat": 38.900521499999996, "is_disabled": 0, "type": "electric_scooter", "lon": -77.01316116666666, "bike_id": "cadd7a90302dbd32c154c2feb587a49d", "fusion_lat": 0.0, "name": "cadd7a90302dbd32c154c2feb587a49d", "is_reserved": 0, "rental_uris": {"android": "https://dc.lft.to/lastmile_qr_scan", "ios": "https://dc.lft.to/lastmile_qr_scan"}, "fusion_lon": 0.0}, {"lat": 38.90307716666667, "is_disabled": 0, "type": "electric_scooter", "lon": -77.00218266666667, "bike_id": "f8360c6cc31404f6bc68ad4b09525a7a", "fusion_lat": 0.0, "name": "f8360c6cc31404f6bc68ad4b09525a7a", "is_reserved": 0, "rental_uris": {"android": "https://dc.lft.to/lastmile_qr_scan", "ios": "https://dc.lft.to/lastmile_qr_scan"}, "fusion_lon": 0.0}, {"lat": 38.9279495, "is_disabled": 0, "type": "electric_scooter", "lon": -77.03700416666666, "bike_id": "2100fb53dcdf180200b74f1110b46413", "fusion_lat": 0.0, "name": "2100fb53dcdf180200b74f1110b46413", "is_reserved": 0, "rental_uris": {"android": "https://dc.lft.to/lastmile_qr_scan", "ios": "https://dc.lft.to/lastmile_qr_scan"}, "fusion_lon": 0.0}, {"lat": 39.00473483333333, "is_disabled": 0, "type": "electric_bike", "lon": -76.90134266666666, "bike_id": "c9196a644e7b2881975ff38add05fb72", "fusion_lat": 0.0, "name": "c9196a644e7b2881975ff38add05fb72", "is_reserved": 0, "rental_uris": {"android": "https://dc.lft.to/lastmile_qr_scan", "ios": "https://dc.lft.to/lastmile_qr_scan"}, "fusion_lon": 0.0}, {"lat": 38.9362445, "is_disabled": 0, "type": "electric_scooter", "lon": -77.05905183333333, "bike_id": "165e9d1c5d2b0257c9b55a6853b57bb2", "fusion_lat": 0.0, "name": "165e9d1c5d2b0257c9b55a6853b57bb2", "is_reserved": 0, "rental_uris": {"android": "https://dc.lft.to/lastmile_qr_scan", "ios": "https://dc.lft.to/lastmile_qr_scan"}, "fusion_lon": 0.0}, {"lat": 38.918069333333335, "is_disabled": 0, "type": "electric_scooter", "lon": -77.03567483333333, "bike_id": "3538d17f9644daa70e7ceb92e91cb85e", "fusion_lat": 0.0, "name": "3538d17f9644daa70e7ceb92e91cb85e", "is_reserved": 0, "rental_uris": {"android": "https://dc.lft.to/lastmile_qr_scan", "ios": "https://dc.lft.to/lastmile_qr_scan"}, "fusion_lon": 0.0}, {"lat": 38.902686833333334, "is_disabled": 0, "type": "electric_scooter", "lon": -77.033756, "bike_id": "a0ec3f1dae05c4d3eb2d2cafd2c1464c", "fusion_lat": 0.0, "name": "a0ec3f1dae05c4d3eb2d2cafd2c1464c", "is_reserved": 0, "rental_uris": {"android": "https://dc.lft.to/lastmile_qr_scan", "ios": "https://dc.lft.to/lastmile_qr_scan"}, "fusion_lon": 0.0}, {"lat": 38.828717, "is_disabled": 0, "type": "electric_bike", "lon": -77.11221583333334, "bike_id": "cdfe3e2fc01c82c744306cf33e3182b2", "fusion_lat": 0.0, "name": "cdfe3e2fc01c82c744306cf33e3182b2", "is_reserved": 0, "rental_uris": {"android": "https://dc.lft.to/lastmile_qr_scan", "ios": "https://dc.lft.to/lastmile_qr_scan"}, "fusion_lon": 0.0}, {"lat": 38.909886166666666, "is_disabled": 0, "type": "electric_scooter", "lon": -76.99739833333334, "bike_id": "9dff1feac9d6d906c2b7448bdc84e82c", "fusion_lat": 0.0, "name": "9dff1feac9d6d906c2b7448bdc84e82c", "is_reserved": 0, "rental_uris": {"android": "https://dc.lft.to/lastmile_qr_scan", "ios": "https://dc.lft.to/lastmile_qr_scan"}, "fusion_lon": 0.0}, {"lat": 38.93289816666667, "is_disabled": 0, "type": "electric_scooter", "lon": -77.03285916666667, "bike_id": "0461f4de705fd5c06d6c0ea6935d80bf", "fusion_lat": 0.0, "name": "0461f4de705fd5c06d6c0ea6935d80bf", "is_reserved": 0, "rental_uris": {"android": "https://dc.lft.to/lastmile_qr_scan", "ios": "https://dc.lft.to/lastmile_qr_scan"}, "fusion_lon": 0.0}, {"lat": 38.923180333333335, "is_disabled": 0, "type": "electric_scooter", "lon": -77.02798083333333, "bike_id": "2b42772f4ce4882c751983f04ad32eeb", "fusion_lat": 0.0, "name": "2b42772f4ce4882c751983f04ad32eeb", "is_reserved": 0, "rental_uris": {"android": "https://dc.lft.to/lastmile_qr_scan", "ios": "https://dc.lft.to/lastmile_qr_scan"}, "fusion_lon": 0.0}, {"lat": 38.893998833333335, "is_disabled": 0, "type": "electric_scooter", "lon": -77.0500455, "bike_id": "e83b5b4ddf4b213c99b9f1eb101f1d74", "fusion_lat": 0.0, "name": "e83b5b4ddf4b213c99b9f1eb101f1d74", "is_reserved": 0, "rental_uris": {"android": "https://dc.lft.to/lastmile_qr_scan", "ios": "https://dc.lft.to/lastmile_qr_scan"}, "fusion_lon": 0.0}, {"lat": 38.90068083333333, "is_disabled": 0, "type": "electric_scooter", "lon": -77.0020845, "bike_id": "50ba958783d2c8a5a0721e7689cb8fe5", "fusion_lat": 0.0, "name": "50ba958783d2c8a5a0721e7689cb8fe5", "is_reserved": 0, "rental_uris": {"android": "https://dc.lft.to/lastmile_qr_scan", "ios": "https://dc.lft.to/lastmile_qr_scan"}, "fusion_lon": 0.0}, {"lat": 38.911028333333334, "is_disabled": 0, "type": "electric_scooter", "lon": -77.04262716666666, "bike_id": "564ccc7854e907bfead8d42c0b8d9d70", "fusion_lat": 0.0, "name": "564ccc7854e907bfead8d42c0b8d9d70", "is_reserved": 0, "rental_uris": {"android": "https://dc.lft.to/lastmile_qr_scan", "ios": "https://dc.lft.to/lastmile_qr_scan"}, "fusion_lon": 0.0}, {"lat": 38.863669, "is_disabled": 0, "type": "electric_scooter", "lon": -76.99035933333333, "bike_id": "33c3a65708d70ce50797e25c3bad59c5", "fusion_lat": 0.0, "name": "33c3a65708d70ce50797e25c3bad59c5", "is_reserved": 0, "rental_uris": {"android": "https://dc.lft.to/lastmile_qr_scan", "ios": "https://dc.lft.to/lastmile_qr_scan"}, "fusion_lon": 0.0}, {"lat": 38.87577816666666, "is_disabled": 0, "type": "electric_scooter", "lon": -77.020876, "bike_id": "ce0dcd1d4c089ca06f026ebb3326f62d", "fusion_lat": 0.0, "name": "ce0dcd1d4c089ca06f026ebb3326f62d", "is_reserved": 0, "rental_uris": {"android": "https://dc.lft.to/lastmile_qr_scan", "ios": "https://dc.lft.to/lastmile_qr_scan"}, "fusion_lon": 0.0}, {"lat": 38.907796833333336, "is_disabled": 0, "type": "electric_scooter", "lon": -77.035499, "bike_id": "a9daba02a8b511aaafc874cc2c4e86b0", "fusion_lat": 0.0, "name": "a9daba02a8b511aaafc874cc2c4e86b0", "is_reserved": 0, "rental_uris": {"android": "https://dc.lft.to/lastmile_qr_scan", "ios": "https://dc.lft.to/lastmile_qr_scan"}, "fusion_lon": 0.0}, {"lat": 39.03048416666667, "is_disabled": 0, "type": "electric_bike", "lon": -77.09488166666667, "bike_id": "ddb9eee8106af332ce0d0ce3e8c3b220", "fusion_lat": 0.0, "name": "ddb9eee8106af332ce0d0ce3e8c3b220", "is_reserved": 0, "rental_uris": {"android": "https://dc.lft.to/lastmile_qr_scan", "ios": "https://dc.lft.to/lastmile_qr_scan"}, "fusion_lon": 0.0}, {"lat": 38.90773133333333, "is_disabled": 0, "type": "electric_scooter", "lon": -77.03865583333334, "bike_id": "ee0dce4af620e25f032ce879a3cc3857", "fusion_lat": 0.0, "name": "ee0dce4af620e25f032ce879a3cc3857", "is_reserved": 0, "rental_uris": {"android": "https://dc.lft.to/lastmile_qr_scan", "ios": "https://dc.lft.to/lastmile_qr_scan"}, "fusion_lon": 0.0}, {"lat": 38.91595916666667, "is_disabled": 0, "type": "electric_scooter", "lon": -77.03853183333334, "bike_id": "a2695c7e34b30762132f9132ff1591b2", "fusion_lat": 0.0, "name": "a2695c7e34b30762132f9132ff1591b2", "is_reserved": 0, "rental_uris": {"android": "https://dc.lft.to/lastmile_qr_scan", "ios": "https://dc.lft.to/lastmile_qr_scan"}, "fusion_lon": 0.0}, {"lat": 38.917085166666666, "is_disabled": 0, "type": "electric_scooter", "lon": -77.03724316666667, "bike_id": "5fbe040ff8212b742323d79fd759f36b", "fusion_lat": 0.0, "name": "5fbe040ff8212b742323d79fd759f36b", "is_reserved": 0, "rental_uris": {"android": "https://dc.lft.to/lastmile_qr_scan", "ios": "https://dc.lft.to/lastmile_qr_scan"}, "fusion_lon": 0.0}, {"lat": 38.918139, "is_disabled": 0, "type": "electric_scooter", "lon": -77.02476816666666, "bike_id": "bd54c471394692adfa04ac055a7975d0", "fusion_lat": 0.0, "name": "bd54c471394692adfa04ac055a7975d0", "is_reserved": 0, "rental_uris": {"android": "https://dc.lft.to/lastmile_qr_scan", "ios": "https://dc.lft.to/lastmile_qr_scan"}, "fusion_lon": 0.0}, {"lat": 38.91347733333333, "is_disabled": 0, "type": "electric_scooter", "lon": -77.04609266666667, "bike_id": "53e09ff0311e3f611a4f7cb8edaf5303", "fusion_lat": 0.0, "name": "53e09ff0311e3f611a4f7cb8edaf5303", "is_reserved": 0, "rental_uris": {"android": "https://dc.lft.to/lastmile_qr_scan", "ios": "https://dc.lft.to/lastmile_qr_scan"}, "fusion_lon": 0.0}, {"lat": 38.88513483333333, "is_disabled": 0, "type": "electric_scooter", "lon": -77.0068035, "bike_id": "d84f5652a616c5a9bd1525dba4e1cef4", "fusion_lat": 0.0, "name": "d84f5652a616c5a9bd1525dba4e1cef4", "is_reserved": 0, "rental_uris": {"android": "https://dc.lft.to/lastmile_qr_scan", "ios": "https://dc.lft.to/lastmile_qr_scan"}, "fusion_lon": 0.0}, {"lat": 38.92747166666667, "is_disabled": 0, "type": "electric_scooter", "lon": -76.99729733333334, "bike_id": "85dcdc877605d7d8f03a1fb59aa25dbb", "fusion_lat": 0.0, "name": "85dcdc877605d7d8f03a1fb59aa25dbb", "is_reserved": 0, "rental_uris": {"android": "https://dc.lft.to/lastmile_qr_scan", "ios": "https://dc.lft.to/lastmile_qr_scan"}, "fusion_lon": 0.0}, {"lat": 38.93839216666667, "is_disabled": 0, "type": "electric_bike", "lon": -76.98863216666666, "bike_id": "28ed4c2a600b59a962472e81381dcebe", "fusion_lat": 0.0, "name": "28ed4c2a600b59a962472e81381dcebe", "is_reserved": 0, "rental_uris": {"android": "https://dc.lft.to/lastmile_qr_scan", "ios": "https://dc.lft.to/lastmile_qr_scan"}, "fusion_lon": 0.0}, {"lat": 38.90106466666667, "is_disabled": 0, "type": "electric_scooter", "lon": -76.995493, "bike_id": "29f7e7799e06c4a09853fa735e752dfe", "fusion_lat": 0.0, "name": "29f7e7799e06c4a09853fa735e752dfe", "is_reserved": 0, "rental_uris": {"android": "https://dc.lft.to/lastmile_qr_scan", "ios": "https://dc.lft.to/lastmile_qr_scan"}, "fusion_lon": 0.0}, {"lat": 38.93883916666667, "is_disabled": 0, "type": "electric_scooter", "lon": -77.03282533333334, "bike_id": "ef253e751b2ddb79c62af392c628d12a", "fusion_lat": 0.0, "name": "ef253e751b2ddb79c62af392c628d12a", "is_reserved": 0, "rental_uris": {"android": "https://dc.lft.to/lastmile_qr_scan", "ios": "https://dc.lft.to/lastmile_qr_scan"}, "fusion_lon": 0.0}, {"lat": 38.90058966666667, "is_disabled": 0, "type": "electric_scooter", "lon": -77.00221866666666, "bike_id": "7bb4302c804fb4d790cb80ba7c542847", "fusion_lat": 0.0, "name": "7bb4302c804fb4d790cb80ba7c542847", "is_reserved": 0, "rental_uris": {"android": "https://dc.lft.to/lastmile_qr_scan", "ios": "https://dc.lft.to/lastmile_qr_scan"}, "fusion_lon": 0.0}, {"lat": 38.917240666666665, "is_disabled": 0, "type": "electric_scooter", "lon": -77.00216116666667, "bike_id": "c447f403e2f723b8a4d746a17996da0a", "fusion_lat": 0.0, "name": "c447f403e2f723b8a4d746a17996da0a", "is_reserved": 0, "rental_uris": {"android": "https://dc.lft.to/lastmile_qr_scan", "ios": "https://dc.lft.to/lastmile_qr_scan"}, "fusion_lon": 0.0}, {"lat": 38.912899333333336, "is_disabled": 0, "type": "electric_scooter", "lon": -77.023871, "bike_id": "2345d27ddd175dd2c6c2781327b7417f", "fusion_lat": 0.0, "name": "2345d27ddd175dd2c6c2781327b7417f", "is_reserved": 0, "rental_uris": {"android": "https://dc.lft.to/lastmile_qr_scan", "ios": "https://dc.lft.to/lastmile_qr_scan"}, "fusion_lon": 0.0}, {"lat": 38.904474666666665, "is_disabled": 0, "type": "electric_scooter", "lon": -76.9946125, "bike_id": "75f09d69335959dab7a854983c534f2b", "fusion_lat": 0.0, "name": "75f09d69335959dab7a854983c534f2b", "is_reserved": 0, "rental_uris": {"android": "https://dc.lft.to/lastmile_qr_scan", "ios": "https://dc.lft.to/lastmile_qr_scan"}, "fusion_lon": 0.0}, {"lat": 38.89659183333333, "is_disabled": 0, "type": "electric_scooter", "lon": -77.03976866666666, "bike_id": "7f421ac65d014cb711f5ef660e06e025", "fusion_lat": 0.0, "name": "7f421ac65d014cb711f5ef660e06e025", "is_reserved": 0, "rental_uris": {"android": "https://dc.lft.to/lastmile_qr_scan", "ios": "https://dc.lft.to/lastmile_qr_scan"}, "fusion_lon": 0.0}, {"lat": 38.920402333333335, "is_disabled": 0, "type": "electric_scooter", "lon": -77.033805, "bike_id": "b0a024632ecafe9bd60f059a163ac7f8", "fusion_lat": 0.0, "name": "b0a024632ecafe9bd60f059a163ac7f8", "is_reserved": 0, "rental_uris": {"android": "https://dc.lft.to/lastmile_qr_scan", "ios": "https://dc.lft.to/lastmile_qr_scan"}, "fusion_lon": 0.0}, {"lat": 38.918849333333334, "is_disabled": 0, "type": "electric_scooter", "lon": -77.03928866666666, "bike_id": "e306901f03dca6db98f903acddb27582", "fusion_lat": 0.0, "name": "e306901f03dca6db98f903acddb27582", "is_reserved": 0, "rental_uris": {"android": "https://dc.lft.to/lastmile_qr_scan", "ios": "https://dc.lft.to/lastmile_qr_scan"}, "fusion_lon": 0.0}, {"lat": 38.916038666666665, "is_disabled": 0, "type": "electric_scooter", "lon": -77.03857466666666, "bike_id": "5687c8353b0149ae246803114c991d65", "fusion_lat": 0.0, "name": "5687c8353b0149ae246803114c991d65", "is_reserved": 0, "rental_uris": {"android": "https://dc.lft.to/lastmile_qr_scan", "ios": "https://dc.lft.to/lastmile_qr_scan"}, "fusion_lon": 0.0}, {"lat": 38.917209666666665, "is_disabled": 0, "type": "electric_scooter", "lon": -77.02291333333334, "bike_id": "fb161f10f92b1504281ad835109b1e29", "fusion_lat": 0.0, "name": "fb161f10f92b1504281ad835109b1e29", "is_reserved": 0, "rental_uris": {"android": "https://dc.lft.to/lastmile_qr_scan", "ios": "https://dc.lft.to/lastmile_qr_scan"}, "fusion_lon": 0.0}, {"lat": 38.886525666666664, "is_disabled": 0, "type": "electric_bike", "lon": -77.16239916666666, "bike_id": "0f8a64056794eb5d139d6919babbc970", "fusion_lat": 0.0, "name": "0f8a64056794eb5d139d6919babbc970", "is_reserved": 0, "rental_uris": {"android": "https://dc.lft.to/lastmile_qr_scan", "ios": "https://dc.lft.to/lastmile_qr_scan"}, "fusion_lon": 0.0}, {"lat": 38.902604333333336, "is_disabled": 0, "type": "electric_scooter", "lon": -77.03152266666666, "bike_id": "453d6c7e2f4214f5453f0e7240430f1d", "fusion_lat": 0.0, "name": "453d6c7e2f4214f5453f0e7240430f1d", "is_reserved": 0, "rental_uris": {"android": "https://dc.lft.to/lastmile_qr_scan", "ios": "https://dc.lft.to/lastmile_qr_scan"}, "fusion_lon": 0.0}, {"lat": 38.904188, "is_disabled": 0, "type": "electric_scooter", "lon": -77.06890966666667, "bike_id": "c1b881a7c117fa351b77618722d63167", "fusion_lat": 0.0, "name": "c1b881a7c117fa351b77618722d63167", "is_reserved": 0, "rental_uris": {"android": "https://dc.lft.to/lastmile_qr_scan", "ios": "https://dc.lft.to/lastmile_qr_scan"}, "fusion_lon": 0.0}, {"lat": 38.92731416666667, "is_disabled": 0, "type": "electric_scooter", "lon": -77.02246883333333, "bike_id": "8ae0344deeaa4ed898e97cfa24ecbeed", "fusion_lat": 0.0, "name": "8ae0344deeaa4ed898e97cfa24ecbeed", "is_reserved": 0, "rental_uris": {"android": "https://dc.lft.to/lastmile_qr_scan", "ios": "https://dc.lft.to/lastmile_qr_scan"}, "fusion_lon": 0.0}, {"lat": 38.91311783333333, "is_disabled": 0, "type": "electric_scooter", "lon": -77.04492566666667, "bike_id": "ebed2b702d13f36e2ef027818e669ba1", "fusion_lat": 0.0, "name": "ebed2b702d13f36e2ef027818e669ba1", "is_reserved": 0, "rental_uris": {"android": "https://dc.lft.to/lastmile_qr_scan", "ios": "https://dc.lft.to/lastmile_qr_scan"}, "fusion_lon": 0.0}, {"lat": 38.88599816666667, "is_disabled": 0, "type": "electric_scooter", "lon": -77.02200316666666, "bike_id": "89db9a0bafaf0e83aef00c1cca5d36c9", "fusion_lat": 0.0, "name": "89db9a0bafaf0e83aef00c1cca5d36c9", "is_reserved": 0, "rental_uris": {"android": "https://dc.lft.to/lastmile_qr_scan", "ios": "https://dc.lft.to/lastmile_qr_scan"}, "fusion_lon": 0.0}, {"lat": 38.920389166666666, "is_disabled": 0, "type": "electric_scooter", "lon": -77.03393433333333, "bike_id": "67ff3cc00f2b8176f16d7e2bb437a77e", "fusion_lat": 0.0, "name": "67ff3cc00f2b8176f16d7e2bb437a77e", "is_reserved": 0, "rental_uris": {"android": "https://dc.lft.to/lastmile_qr_scan", "ios": "https://dc.lft.to/lastmile_qr_scan"}, "fusion_lon": 0.0}, {"lat": 38.90418483333333, "is_disabled": 0, "type": "electric_scooter", "lon": -77.053371, "bike_id": "0622dab478b3cefe34d2b3a4059b461b", "fusion_lat": 0.0, "name": "0622dab478b3cefe34d2b3a4059b461b", "is_reserved": 0, "rental_uris": {"android": "https://dc.lft.to/lastmile_qr_scan", "ios": "https://dc.lft.to/lastmile_qr_scan"}, "fusion_lon": 0.0}, {"lat": 38.933819666666665, "is_disabled": 0, "type": "electric_scooter", "lon": -77.03257066666667, "bike_id": "f1f2407b7e0d5128efab8640b8b19572", "fusion_lat": 0.0, "name": "f1f2407b7e0d5128efab8640b8b19572", "is_reserved": 0, "rental_uris": {"android": "https://dc.lft.to/lastmile_qr_scan", "ios": "https://dc.lft.to/lastmile_qr_scan"}, "fusion_lon": 0.0}, {"lat": 38.928424166666666, "is_disabled": 0, "type": "electric_scooter", "lon": -77.03274966666666, "bike_id": "2932ef6440ab03baed47943f85b7df13", "fusion_lat": 0.0, "name": "2932ef6440ab03baed47943f85b7df13", "is_reserved": 0, "rental_uris": {"android": "https://dc.lft.to/lastmile_qr_scan", "ios": "https://dc.lft.to/lastmile_qr_scan"}, "fusion_lon": 0.0}, {"lat": 38.91416316666667, "is_disabled": 0, "type": "electric_scooter", "lon": -77.029477, "bike_id": "4208a8a327cb461c52b01d79b3d1b1cf", "fusion_lat": 0.0, "name": "4208a8a327cb461c52b01d79b3d1b1cf", "is_reserved": 0, "rental_uris": {"android": "https://dc.lft.to/lastmile_qr_scan", "ios": "https://dc.lft.to/lastmile_qr_scan"}, "fusion_lon": 0.0}, {"lat": 38.910559166666665, "is_disabled": 0, "type": "electric_scooter", "lon": -77.0524795, "bike_id": "1775953ed68b5f8626f82e2193946de9", "fusion_lat": 0.0, "name": "1775953ed68b5f8626f82e2193946de9", "is_reserved": 0, "rental_uris": {"android": "https://dc.lft.to/lastmile_qr_scan", "ios": "https://dc.lft.to/lastmile_qr_scan"}, "fusion_lon": 0.0}, {"lat": 38.902676, "is_disabled": 0, "type": "electric_scooter", "lon": -77.03634083333333, "bike_id": "cfe027b5c2eab8c1808e4283fe3e9ad3", "fusion_lat": 0.0, "name": "cfe027b5c2eab8c1808e4283fe3e9ad3", "is_reserved": 0, "rental_uris": {"android": "https://dc.lft.to/lastmile_qr_scan", "ios": "https://dc.lft.to/lastmile_qr_scan"}, "fusion_lon": 0.0}, {"lat": 38.902728833333335, "is_disabled": 0, "type": "electric_scooter", "lon": -77.043852, "bike_id": "68a6c11001d8d1bab3f617573dab8f4f", "fusion_lat": 0.0, "name": "68a6c11001d8d1bab3f617573dab8f4f", "is_reserved": 0, "rental_uris": {"android": "https://dc.lft.to/lastmile_qr_scan", "ios": "https://dc.lft.to/lastmile_qr_scan"}, "fusion_lon": 0.0}, {"lat": 38.93228966666667, "is_disabled": 0, "type": "electric_scooter", "lon": -76.996031, "bike_id": "776b62dfb063bd175cd0d71c9310bab5", "fusion_lat": 0.0, "name": "776b62dfb063bd175cd0d71c9310bab5", "is_reserved": 0, "rental_uris": {"android": "https://dc.lft.to/lastmile_qr_scan", "ios": "https://dc.lft.to/lastmile_qr_scan"}, "fusion_lon": 0.0}, {"lat": 38.939901666666664, "is_disabled": 0, "type": "electric_scooter", "lon": -77.02085933333333, "bike_id": "3fefffbf024b5d5765b2adb4275a37ba", "fusion_lat": 0.0, "name": "3fefffbf024b5d5765b2adb4275a37ba", "is_reserved": 0, "rental_uris": {"android": "https://dc.lft.to/lastmile_qr_scan", "ios": "https://dc.lft.to/lastmile_qr_scan"}, "fusion_lon": 0.0}, {"lat": 38.93141216666667, "is_disabled": 0, "type": "electric_scooter", "lon": -77.021485, "bike_id": "9fc6a94f2686b4645e62155774237bee", "fusion_lat": 0.0, "name": "9fc6a94f2686b4645e62155774237bee", "is_reserved": 0, "rental_uris": {"android": "https://dc.lft.to/lastmile_qr_scan", "ios": "https://dc.lft.to/lastmile_qr_scan"}, "fusion_lon": 0.0}, {"lat": 38.901775666666666, "is_disabled": 0, "type": "electric_scooter", "lon": -77.02412183333334, "bike_id": "6dfe63758614f26337fcb6b5d9f260b0", "fusion_lat": 0.0, "name": "6dfe63758614f26337fcb6b5d9f260b0", "is_reserved": 0, "rental_uris": {"android": "https://dc.lft.to/lastmile_qr_scan", "ios": "https://dc.lft.to/lastmile_qr_scan"}, "fusion_lon": 0.0}, {"lat": 38.9406585, "is_disabled": 0, "type": "electric_scooter", "lon": -76.9947155, "bike_id": "fb0994a5d953e8efd31c9da71a88483b", "fusion_lat": 0.0, "name": "fb0994a5d953e8efd31c9da71a88483b", "is_reserved": 0, "rental_uris": {"android": "https://dc.lft.to/lastmile_qr_scan", "ios": "https://dc.lft.to/lastmile_qr_scan"}, "fusion_lon": 0.0}, {"lat": 38.91937583333333, "is_disabled": 0, "type": "electric_scooter", "lon": -77.03211333333333, "bike_id": "fc3fcb391bdf75df2a94a628b7895bf4", "fusion_lat": 0.0, "name": "fc3fcb391bdf75df2a94a628b7895bf4", "is_reserved": 0, "rental_uris": {"android": "https://dc.lft.to/lastmile_qr_scan", "ios": "https://dc.lft.to/lastmile_qr_scan"}, "fusion_lon": 0.0}, {"lat": 38.91745683333333, "is_disabled": 0, "type": "electric_scooter", "lon": -77.031895, "bike_id": "c562a29f1526f2b28f50857ddb24c51d", "fusion_lat": 0.0, "name": "c562a29f1526f2b28f50857ddb24c51d", "is_reserved": 0, "rental_uris": {"android": "https://dc.lft.to/lastmile_qr_scan", "ios": "https://dc.lft.to/lastmile_qr_scan"}, "fusion_lon": 0.0}, {"lat": 38.91741966666667, "is_disabled": 0, "type": "electric_scooter", "lon": -77.03206033333333, "bike_id": "91ab5df28f1ac2a8f6630cf61edf01e5", "fusion_lat": 0.0, "name": "91ab5df28f1ac2a8f6630cf61edf01e5", "is_reserved": 0, "rental_uris": {"android": "https://dc.lft.to/lastmile_qr_scan", "ios": "https://dc.lft.to/lastmile_qr_scan"}, "fusion_lon": 0.0}, {"lat": 38.902652333333336, "is_disabled": 0, "type": "electric_scooter", "lon": -77.05259966666667, "bike_id": "e46f54388855f9369c196b7304288541", "fusion_lat": 0.0, "name": "e46f54388855f9369c196b7304288541", "is_reserved": 0, "rental_uris": {"android": "https://dc.lft.to/lastmile_qr_scan", "ios": "https://dc.lft.to/lastmile_qr_scan"}, "fusion_lon": 0.0}, {"lat": 38.8848055, "is_disabled": 0, "type": "electric_scooter", "lon": -76.94523533333333, "bike_id": "5e1d77dcf7f3c9f52caa645193f301db", "fusion_lat": 0.0, "name": "5e1d77dcf7f3c9f52caa645193f301db", "is_reserved": 0, "rental_uris": {"android": "https://dc.lft.to/lastmile_qr_scan", "ios": "https://dc.lft.to/lastmile_qr_scan"}, "fusion_lon": 0.0}, {"lat": 38.90558733333334, "is_disabled": 0, "type": "electric_scooter", "lon": -77.01312533333333, "bike_id": "c3dfebfbfabdf62ab9fdc0c57ff4512f", "fusion_lat": 0.0, "name": "c3dfebfbfabdf62ab9fdc0c57ff4512f", "is_reserved": 0, "rental_uris": {"android": "https://dc.lft.to/lastmile_qr_scan", "ios": "https://dc.lft.to/lastmile_qr_scan"}, "fusion_lon": 0.0}, {"lat": 38.93078366666667, "is_disabled": 0, "type": "electric_scooter", "lon": -77.07764716666667, "bike_id": "fb43ac6ab72b2024fb8ef01b65cae503", "fusion_lat": 0.0, "name": "fb43ac6ab72b2024fb8ef01b65cae503", "is_reserved": 0, "rental_uris": {"android": "https://dc.lft.to/lastmile_qr_scan", "ios": "https://dc.lft.to/lastmile_qr_scan"}, "fusion_lon": 0.0}, {"lat": 38.91779433333333, "is_disabled": 0, "type": "electric_scooter", "lon": -77.0223435, "bike_id": "c325a06b7fcae1712040d518e334945b", "fusion_lat": 0.0, "name": "c325a06b7fcae1712040d518e334945b", "is_reserved": 0, "rental_uris": {"android": "https://dc.lft.to/lastmile_qr_scan", "ios": "https://dc.lft.to/lastmile_qr_scan"}, "fusion_lon": 0.0}, {"lat": 38.909479166666664, "is_disabled": 0, "type": "electric_scooter", "lon": -77.04424166666666, "bike_id": "2f34297d57b22dd39dcad0a9ac5547f9", "fusion_lat": 0.0, "name": "2f34297d57b22dd39dcad0a9ac5547f9", "is_reserved": 0, "rental_uris": {"android": "https://dc.lft.to/lastmile_qr_scan", "ios": "https://dc.lft.to/lastmile_qr_scan"}, "fusion_lon": 0.0}, {"lat": 38.900263833333334, "is_disabled": 0, "type": "electric_scooter", "lon": -76.98369766666667, "bike_id": "b6f061ecfbfbd58e91d4ada95272a988", "fusion_lat": 0.0, "name": "b6f061ecfbfbd58e91d4ada95272a988", "is_reserved": 0, "rental_uris": {"android": "https://dc.lft.to/lastmile_qr_scan", "ios": "https://dc.lft.to/lastmile_qr_scan"}, "fusion_lon": 0.0}, {"lat": 38.91404466666667, "is_disabled": 0, "type": "electric_scooter", "lon": -77.0386435, "bike_id": "2ca293f0ad286dbaa11932c06f6fac52", "fusion_lat": 0.0, "name": "2ca293f0ad286dbaa11932c06f6fac52", "is_reserved": 0, "rental_uris": {"android": "https://dc.lft.to/lastmile_qr_scan", "ios": "https://dc.lft.to/lastmile_qr_scan"}, "fusion_lon": 0.0}, {"lat": 38.91761833333333, "is_disabled": 0, "type": "electric_scooter", "lon": -77.02823816666667, "bike_id": "2eaecbf5b607933a30f3a3b1616d4c67", "fusion_lat": 0.0, "name": "2eaecbf5b607933a30f3a3b1616d4c67", "is_reserved": 0, "rental_uris": {"android": "https://dc.lft.to/lastmile_qr_scan", "ios": "https://dc.lft.to/lastmile_qr_scan"}, "fusion_lon": 0.0}, {"lat": 38.916821166666665, "is_disabled": 0, "type": "electric_scooter", "lon": -77.03777816666667, "bike_id": "c0510ed9667d23d6d3dfe08a4fa1f2ff", "fusion_lat": 0.0, "name": "c0510ed9667d23d6d3dfe08a4fa1f2ff", "is_reserved": 0, "rental_uris": {"android": "https://dc.lft.to/lastmile_qr_scan", "ios": "https://dc.lft.to/lastmile_qr_scan"}, "fusion_lon": 0.0}, {"lat": 38.90011, "is_disabled": 0, "type": "electric_scooter", "lon": -77.012023, "bike_id": "d775dfd2f85f04a63658214e6d82e170", "fusion_lat": 0.0, "name": "d775dfd2f85f04a63658214e6d82e170", "is_reserved": 0, "rental_uris": {"android": "https://dc.lft.to/lastmile_qr_scan", "ios": "https://dc.lft.to/lastmile_qr_scan"}, "fusion_lon": 0.0}, {"lat": 38.9331575, "is_disabled": 0, "type": "electric_scooter", "lon": -77.04520733333334, "bike_id": "32245780eaefb13b0e4f4a6a7fbc1e4d", "fusion_lat": 0.0, "name": "32245780eaefb13b0e4f4a6a7fbc1e4d", "is_reserved": 0, "rental_uris": {"android": "https://dc.lft.to/lastmile_qr_scan", "ios": "https://dc.lft.to/lastmile_qr_scan"}, "fusion_lon": 0.0}, {"lat": 38.907232, "is_disabled": 0, "type": "electric_scooter", "lon": -77.04349583333334, "bike_id": "4e311f930025087b77fd6c02c5dc51b2", "fusion_lat": 0.0, "name": "4e311f930025087b77fd6c02c5dc51b2", "is_reserved": 0, "rental_uris": {"android": "https://dc.lft.to/lastmile_qr_scan", "ios": "https://dc.lft.to/lastmile_qr_scan"}, "fusion_lon": 0.0}, {"lat": 38.8787135, "is_disabled": 0, "type": "electric_scooter", "lon": -77.00742183333334, "bike_id": "038db94f3dffd01b63d4be51b2978008", "fusion_lat": 0.0, "name": "038db94f3dffd01b63d4be51b2978008", "is_reserved": 0, "rental_uris": {"android": "https://dc.lft.to/lastmile_qr_scan", "ios": "https://dc.lft.to/lastmile_qr_scan"}, "fusion_lon": 0.0}, {"lat": 38.89864883333333, "is_disabled": 0, "type": "electric_scooter", "lon": -77.0202305, "bike_id": "19bdd9ae8a6c2c7004512862733bf758", "fusion_lat": 0.0, "name": "19bdd9ae8a6c2c7004512862733bf758", "is_reserved": 0, "rental_uris": {"android": "https://dc.lft.to/lastmile_qr_scan", "ios": "https://dc.lft.to/lastmile_qr_scan"}, "fusion_lon": 0.0}, {"lat": 38.901228, "is_disabled": 0, "type": "electric_scooter", "lon": -77.03207416666666, "bike_id": "fbbf255ae0e5f93c8e00fb03f4554227", "fusion_lat": 0.0, "name": "fbbf255ae0e5f93c8e00fb03f4554227", "is_reserved": 0, "rental_uris": {"android": "https://dc.lft.to/lastmile_qr_scan", "ios": "https://dc.lft.to/lastmile_qr_scan"}, "fusion_lon": 0.0}, {"lat": 38.8667575, "is_disabled": 0, "type": "electric_scooter", "lon": -76.985401, "bike_id": "2132b5a1cdb2bdff18439148fb534fb2", "fusion_lat": 0.0, "name": "2132b5a1cdb2bdff18439148fb534fb2", "is_reserved": 0, "rental_uris": {"android": "https://dc.lft.to/lastmile_qr_scan", "ios": "https://dc.lft.to/lastmile_qr_scan"}, "fusion_lon": 0.0}, {"lat": 38.877281333333336, "is_disabled": 0, "type": "electric_bike", "lon": -76.9811045, "bike_id": "b0eb926b26b13b7faafcb0f6fb0f84c1", "fusion_lat": 0.0, "name": "b0eb926b26b13b7faafcb0f6fb0f84c1", "is_reserved": 0, "rental_uris": {"android": "https://dc.lft.to/lastmile_qr_scan", "ios": "https://dc.lft.to/lastmile_qr_scan"}, "fusion_lon": 0.0}, {"lat": 38.897382666666665, "is_disabled": 0, "type": "electric_scooter", "lon": -77.00073, "bike_id": "b47e6b0bb3ca3eff192c52b58716e5e1", "fusion_lat": 0.0, "name": "b47e6b0bb3ca3eff192c52b58716e5e1", "is_reserved": 0, "rental_uris": {"android": "https://dc.lft.to/lastmile_qr_scan", "ios": "https://dc.lft.to/lastmile_qr_scan"}, "fusion_lon": 0.0}, {"lat": 38.832297, "is_disabled": 0, "type": "electric_bike", "lon": -77.04973266666667, "bike_id": "1add151910b5daa6f89a3bb907e34d79", "fusion_lat": 0.0, "name": "1add151910b5daa6f89a3bb907e34d79", "is_reserved": 0, "rental_uris": {"android": "https://dc.lft.to/lastmile_qr_scan", "ios": "https://dc.lft.to/lastmile_qr_scan"}, "fusion_lon": 0.0}, {"lat": 38.8868785, "is_disabled": 0, "type": "electric_scooter", "lon": -77.01770733333333, "bike_id": "cb31e5ca0f6fb4baf30344ef63ccac10", "fusion_lat": 0.0, "name": "cb31e5ca0f6fb4baf30344ef63ccac10", "is_reserved": 0, "rental_uris": {"android": "https://dc.lft.to/lastmile_qr_scan", "ios": "https://dc.lft.to/lastmile_qr_scan"}, "fusion_lon": 0.0}, {"lat": 38.898394333333336, "is_disabled": 0, "type": "electric_scooter", "lon": -76.995046, "bike_id": "83f0462dcd21104ec192216fe15ef3e8", "fusion_lat": 0.0, "name": "83f0462dcd21104ec192216fe15ef3e8", "is_reserved": 0, "rental_uris": {"android": "https://dc.lft.to/lastmile_qr_scan", "ios": "https://dc.lft.to/lastmile_qr_scan"}, "fusion_lon": 0.0}, {"lat": 38.894941, "is_disabled": 0, "type": "electric_scooter", "lon": -77.0021105, "bike_id": "e769e6b4809e429cca621da35466d669", "fusion_lat": 0.0, "name": "e769e6b4809e429cca621da35466d669", "is_reserved": 0, "rental_uris": {"android": "https://dc.lft.to/lastmile_qr_scan", "ios": "https://dc.lft.to/lastmile_qr_scan"}, "fusion_lon": 0.0}, {"lat": 38.90192616666667, "is_disabled": 0, "type": "electric_scooter", "lon": -77.02322666666667, "bike_id": "28d6a4fca29eb364457398804a601a7b", "fusion_lat": 0.0, "name": "28d6a4fca29eb364457398804a601a7b", "is_reserved": 0, "rental_uris": {"android": "https://dc.lft.to/lastmile_qr_scan", "ios": "https://dc.lft.to/lastmile_qr_scan"}, "fusion_lon": 0.0}, {"lat": 38.9113185, "is_disabled": 0, "type": "electric_scooter", "lon": -77.04416766666667, "bike_id": "d17b356e726a492c49dec7f5c64a724e", "fusion_lat": 0.0, "name": "d17b356e726a492c49dec7f5c64a724e", "is_reserved": 0, "rental_uris": {"android": "https://dc.lft.to/lastmile_qr_scan", "ios": "https://dc.lft.to/lastmile_qr_scan"}, "fusion_lon": 0.0}, {"lat": 38.892197333333336, "is_disabled": 0, "type": "electric_bike", "lon": -77.10782533333334, "bike_id": "70c9e7fd353cc4f363924ef8a97ab03f", "fusion_lat": 0.0, "name": "70c9e7fd353cc4f363924ef8a97ab03f", "is_reserved": 0, "rental_uris": {"android": "https://dc.lft.to/lastmile_qr_scan", "ios": "https://dc.lft.to/lastmile_qr_scan"}, "fusion_lon": 0.0}, {"lat": 38.9621915, "is_disabled": 0, "type": "electric_bike", "lon": -77.02631116666667, "bike_id": "159cf449016bd66e021eb8fa8c48fff5", "fusion_lat": 0.0, "name": "159cf449016bd66e021eb8fa8c48fff5", "is_reserved": 0, "rental_uris": {"android": "https://dc.lft.to/lastmile_qr_scan", "ios": "https://dc.lft.to/lastmile_qr_scan"}, "fusion_lon": 0.0}, {"lat": 38.931931166666665, "is_disabled": 0, "type": "electric_scooter", "lon": -77.02357366666666, "bike_id": "711940554480f4774f98ffe8c66ff811", "fusion_lat": 0.0, "name": "711940554480f4774f98ffe8c66ff811", "is_reserved": 0, "rental_uris": {"android": "https://dc.lft.to/lastmile_qr_scan", "ios": "https://dc.lft.to/lastmile_qr_scan"}, "fusion_lon": 0.0}, {"lat": 38.886566, "is_disabled": 0, "type": "electric_scooter", "lon": -77.0338825, "bike_id": "96c8a6dd216ccd88deef4e0373697f8f", "fusion_lat": 0.0, "name": "96c8a6dd216ccd88deef4e0373697f8f", "is_reserved": 0, "rental_uris": {"android": "https://dc.lft.to/lastmile_qr_scan", "ios": "https://dc.lft.to/lastmile_qr_scan"}, "fusion_lon": 0.0}, {"lat": 38.916089, "is_disabled": 0, "type": "electric_scooter", "lon": -77.02129766666667, "bike_id": "b8a365b2fc4878b6726487908ffd9e3e", "fusion_lat": 0.0, "name": "b8a365b2fc4878b6726487908ffd9e3e", "is_reserved": 0, "rental_uris": {"android": "https://dc.lft.to/lastmile_qr_scan", "ios": "https://dc.lft.to/lastmile_qr_scan"}, "fusion_lon": 0.0}, {"lat": 38.90656216666667, "is_disabled": 0, "type": "electric_scooter", "lon": -77.02594166666667, "bike_id": "8f70d1cd7e7fe3927a81b78374eb93dd", "fusion_lat": 0.0, "name": "8f70d1cd7e7fe3927a81b78374eb93dd", "is_reserved": 0, "rental_uris": {"android": "https://dc.lft.to/lastmile_qr_scan", "ios": "https://dc.lft.to/lastmile_qr_scan"}, "fusion_lon": 0.0}, {"lat": 38.869036333333334, "is_disabled": 0, "type": "electric_bike", "lon": -77.13178283333333, "bike_id": "e0c2eb37d8da2c132125675f8674b787", "fusion_lat": 0.0, "name": "e0c2eb37d8da2c132125675f8674b787", "is_reserved": 0, "rental_uris": {"android": "https://dc.lft.to/lastmile_qr_scan", "ios": "https://dc.lft.to/lastmile_qr_scan"}, "fusion_lon": 0.0}, {"lat": 38.95574283333333, "is_disabled": 0, "type": "electric_scooter", "lon": -77.07010583333333, "bike_id": "35ff564edf23b651c343edd035a7c803", "fusion_lat": 0.0, "name": "35ff564edf23b651c343edd035a7c803", "is_reserved": 0, "rental_uris": {"android": "https://dc.lft.to/lastmile_qr_scan", "ios": "https://dc.lft.to/lastmile_qr_scan"}, "fusion_lon": 0.0}, {"lat": 38.920026166666666, "is_disabled": 0, "type": "electric_scooter", "lon": -77.020623, "bike_id": "dca3b6ff89e5de053923d0bae6a2af18", "fusion_lat": 0.0, "name": "dca3b6ff89e5de053923d0bae6a2af18", "is_reserved": 0, "rental_uris": {"android": "https://dc.lft.to/lastmile_qr_scan", "ios": "https://dc.lft.to/lastmile_qr_scan"}, "fusion_lon": 0.0}, {"lat": 38.91788183333333, "is_disabled": 0, "type": "electric_scooter", "lon": -77.023081, "bike_id": "e0e26bbae509c30efa0430d932a959d4", "fusion_lat": 0.0, "name": "e0e26bbae509c30efa0430d932a959d4", "is_reserved": 0, "rental_uris": {"android": "https://dc.lft.to/lastmile_qr_scan", "ios": "https://dc.lft.to/lastmile_qr_scan"}, "fusion_lon": 0.0}, {"lat": 38.90784216666667, "is_disabled": 0, "type": "electric_scooter", "lon": -77.04232483333334, "bike_id": "27866e99c0d4d8540f254ef5bb593019", "fusion_lat": 0.0, "name": "27866e99c0d4d8540f254ef5bb593019", "is_reserved": 0, "rental_uris": {"android": "https://dc.lft.to/lastmile_qr_scan", "ios": "https://dc.lft.to/lastmile_qr_scan"}, "fusion_lon": 0.0}, {"lat": 38.89719516666667, "is_disabled": 0, "type": "electric_scooter", "lon": -77.008009, "bike_id": "b8240b57980ff44217e10d11b2200088", "fusion_lat": 0.0, "name": "b8240b57980ff44217e10d11b2200088", "is_reserved": 0, "rental_uris": {"android": "https://dc.lft.to/lastmile_qr_scan", "ios": "https://dc.lft.to/lastmile_qr_scan"}, "fusion_lon": 0.0}, {"lat": 38.927697333333334, "is_disabled": 0, "type": "electric_scooter", "lon": -77.02779816666667, "bike_id": "4d4c9f8e3e6aadddc3d7f165d0665653", "fusion_lat": 0.0, "name": "4d4c9f8e3e6aadddc3d7f165d0665653", "is_reserved": 0, "rental_uris": {"android": "https://dc.lft.to/lastmile_qr_scan", "ios": "https://dc.lft.to/lastmile_qr_scan"}, "fusion_lon": 0.0}, {"lat": 38.90579266666667, "is_disabled": 0, "type": "electric_scooter", "lon": -77.0296385, "bike_id": "4a361e1e3489ac0c27bd65e299441d00", "fusion_lat": 0.0, "name": "4a361e1e3489ac0c27bd65e299441d00", "is_reserved": 0, "rental_uris": {"android": "https://dc.lft.to/lastmile_qr_scan", "ios": "https://dc.lft.to/lastmile_qr_scan"}, "fusion_lon": 0.0}, {"lat": 38.907238666666665, "is_disabled": 0, "type": "electric_scooter", "lon": -77.04347983333334, "bike_id": "d9ddd4b6e058e11ff25825d4470e1710", "fusion_lat": 0.0, "name": "d9ddd4b6e058e11ff25825d4470e1710", "is_reserved": 0, "rental_uris": {"android": "https://dc.lft.to/lastmile_qr_scan", "ios": "https://dc.lft.to/lastmile_qr_scan"}, "fusion_lon": 0.0}, {"lat": 38.910463, "is_disabled": 0, "type": "electric_scooter", "lon": -77.015126, "bike_id": "95ca658105c13a6bb5e939962028ab55", "fusion_lat": 0.0, "name": "95ca658105c13a6bb5e939962028ab55", "is_reserved": 0, "rental_uris": {"android": "https://dc.lft.to/lastmile_qr_scan", "ios": "https://dc.lft.to/lastmile_qr_scan"}, "fusion_lon": 0.0}, {"lat": 38.897329, "is_disabled": 0, "type": "electric_scooter", "lon": -77.007535, "bike_id": "0d4eb44406b089f92de8c892e5e4096d", "fusion_lat": 0.0, "name": "0d4eb44406b089f92de8c892e5e4096d", "is_reserved": 0, "rental_uris": {"android": "https://dc.lft.to/lastmile_qr_scan", "ios": "https://dc.lft.to/lastmile_qr_scan"}, "fusion_lon": 0.0}, {"lat": 38.954054, "is_disabled": 0, "type": "electric_scooter", "lon": -77.0363335, "bike_id": "d0317a632d4b26952df5c25e3adb78d7", "fusion_lat": 0.0, "name": "d0317a632d4b26952df5c25e3adb78d7", "is_reserved": 0, "rental_uris": {"android": "https://dc.lft.to/lastmile_qr_scan", "ios": "https://dc.lft.to/lastmile_qr_scan"}, "fusion_lon": 0.0}, {"lat": 38.9220215, "is_disabled": 0, "type": "electric_scooter", "lon": -77.0401905, "bike_id": "3c72dd45392b22145e3ab85a3b7a92a7", "fusion_lat": 0.0, "name": "3c72dd45392b22145e3ab85a3b7a92a7", "is_reserved": 0, "rental_uris": {"android": "https://dc.lft.to/lastmile_qr_scan", "ios": "https://dc.lft.to/lastmile_qr_scan"}, "fusion_lon": 0.0}, {"lat": 38.90377066666667, "is_disabled": 0, "type": "electric_scooter", "lon": -77.04346166666667, "bike_id": "e94dd94dfc6cf4b1382cbb2d09e84bee", "fusion_lat": 0.0, "name": "e94dd94dfc6cf4b1382cbb2d09e84bee", "is_reserved": 0, "rental_uris": {"android": "https://dc.lft.to/lastmile_qr_scan", "ios": "https://dc.lft.to/lastmile_qr_scan"}, "fusion_lon": 0.0}, {"lat": 38.89040516666667, "is_disabled": 0, "type": "electric_scooter", "lon": -76.95141683333334, "bike_id": "229eaa455a7e1fd5dd86eda349f58245", "fusion_lat": 0.0, "name": "229eaa455a7e1fd5dd86eda349f58245", "is_reserved": 0, "rental_uris": {"android": "https://dc.lft.to/lastmile_qr_scan", "ios": "https://dc.lft.to/lastmile_qr_scan"}, "fusion_lon": 0.0}, {"lat": 38.917702, "is_disabled": 0, "type": "electric_scooter", "lon": -77.02885433333333, "bike_id": "ee744ded49ccf754b03ae4e4c689ef0e", "fusion_lat": 0.0, "name": "ee744ded49ccf754b03ae4e4c689ef0e", "is_reserved": 0, "rental_uris": {"android": "https://dc.lft.to/lastmile_qr_scan", "ios": "https://dc.lft.to/lastmile_qr_scan"}, "fusion_lon": 0.0}, {"lat": 38.92859083333333, "is_disabled": 0, "type": "electric_bike", "lon": -77.22227583333333, "bike_id": "79ccbb1631a7dac1625c657c5052872b", "fusion_lat": 0.0, "name": "79ccbb1631a7dac1625c657c5052872b", "is_reserved": 0, "rental_uris": {"android": "https://dc.lft.to/lastmile_qr_scan", "ios": "https://dc.lft.to/lastmile_qr_scan"}, "fusion_lon": 0.0}, {"lat": 38.922054833333334, "is_disabled": 0, "type": "electric_scooter", "lon": -76.95662566666667, "bike_id": "dd4809e3a96df75b03cdba40febf12e8", "fusion_lat": 0.0, "name": "dd4809e3a96df75b03cdba40febf12e8", "is_reserved": 0, "rental_uris": {"android": "https://dc.lft.to/lastmile_qr_scan", "ios": "https://dc.lft.to/lastmile_qr_scan"}, "fusion_lon": 0.0}, {"lat": 39.088558, "is_disabled": 0, "type": "electric_bike", "lon": -77.17844266666667, "bike_id": "21fc8a98bc09f376998a0dc406b7efb5", "fusion_lat": 0.0, "name": "21fc8a98bc09f376998a0dc406b7efb5", "is_reserved": 0, "rental_uris": {"android": "https://dc.lft.to/lastmile_qr_scan", "ios": "https://dc.lft.to/lastmile_qr_scan"}, "fusion_lon": 0.0}, {"lat": 38.96557683333333, "is_disabled": 0, "type": "electric_bike", "lon": -77.0204275, "bike_id": "e1681cde8170de99be357bea064b3a12", "fusion_lat": 0.0, "name": "e1681cde8170de99be357bea064b3a12", "is_reserved": 0, "rental_uris": {"android": "https://dc.lft.to/lastmile_qr_scan", "ios": "https://dc.lft.to/lastmile_qr_scan"}, "fusion_lon": 0.0}, {"lat": 38.90638283333333, "is_disabled": 0, "type": "electric_scooter", "lon": -77.031636, "bike_id": "7e5ce853783fa856a5527deafde1c85e", "fusion_lat": 0.0, "name": "7e5ce853783fa856a5527deafde1c85e", "is_reserved": 0, "rental_uris": {"android": "https://dc.lft.to/lastmile_qr_scan", "ios": "https://dc.lft.to/lastmile_qr_scan"}, "fusion_lon": 0.0}, {"lat": 38.90312433333333, "is_disabled": 0, "type": "electric_scooter", "lon": -77.02890016666667, "bike_id": "00260dcf5627b82709570cb614126a03", "fusion_lat": 0.0, "name": "00260dcf5627b82709570cb614126a03", "is_reserved": 0, "rental_uris": {"android": "https://dc.lft.to/lastmile_qr_scan", "ios": "https://dc.lft.to/lastmile_qr_scan"}, "fusion_lon": 0.0}, {"lat": 38.901757833333335, "is_disabled": 0, "type": "electric_scooter", "lon": -77.0500645, "bike_id": "213a2b744d96969c050ec14488836e1e", "fusion_lat": 0.0, "name": "213a2b744d96969c050ec14488836e1e", "is_reserved": 0, "rental_uris": {"android": "https://dc.lft.to/lastmile_qr_scan", "ios": "https://dc.lft.to/lastmile_qr_scan"}, "fusion_lon": 0.0}, {"lat": 38.92256416666667, "is_disabled": 0, "type": "electric_scooter", "lon": -77.042962, "bike_id": "3e4d4f5aff522fa54a1d9c8f64baca25", "fusion_lat": 0.0, "name": "3e4d4f5aff522fa54a1d9c8f64baca25", "is_reserved": 0, "rental_uris": {"android": "https://dc.lft.to/lastmile_qr_scan", "ios": "https://dc.lft.to/lastmile_qr_scan"}, "fusion_lon": 0.0}, {"lat": 38.9153705, "is_disabled": 0, "type": "electric_scooter", "lon": -77.031938, "bike_id": "08caffcc0edaf266ee914328d0c07cfe", "fusion_lat": 0.0, "name": "08caffcc0edaf266ee914328d0c07cfe", "is_reserved": 0, "rental_uris": {"android": "https://dc.lft.to/lastmile_qr_scan", "ios": "https://dc.lft.to/lastmile_qr_scan"}, "fusion_lon": 0.0}, {"lat": 38.917463166666664, "is_disabled": 0, "type": "electric_scooter", "lon": -77.03187033333333, "bike_id": "901ee4d64b3ec46b312796442ea390f6", "fusion_lat": 0.0, "name": "901ee4d64b3ec46b312796442ea390f6", "is_reserved": 0, "rental_uris": {"android": "https://dc.lft.to/lastmile_qr_scan", "ios": "https://dc.lft.to/lastmile_qr_scan"}, "fusion_lon": 0.0}, {"lat": 38.948229166666664, "is_disabled": 0, "type": "electric_scooter", "lon": -76.9990555, "bike_id": "4e406a822df3df1fd53e952ecad9cef6", "fusion_lat": 0.0, "name": "4e406a822df3df1fd53e952ecad9cef6", "is_reserved": 0, "rental_uris": {"android": "https://dc.lft.to/lastmile_qr_scan", "ios": "https://dc.lft.to/lastmile_qr_scan"}, "fusion_lon": 0.0}, {"lat": 38.902657166666664, "is_disabled": 0, "type": "electric_scooter", "lon": -77.03953716666666, "bike_id": "98fb09de9380332e5c861ff794ae170b", "fusion_lat": 0.0, "name": "98fb09de9380332e5c861ff794ae170b", "is_reserved": 0, "rental_uris": {"android": "https://dc.lft.to/lastmile_qr_scan", "ios": "https://dc.lft.to/lastmile_qr_scan"}, "fusion_lon": 0.0}, {"lat": 38.94456733333333, "is_disabled": 0, "type": "electric_scooter", "lon": -77.0602565, "bike_id": "e588e9aba95020de4b5bd6a80deeadc5", "fusion_lat": 0.0, "name": "e588e9aba95020de4b5bd6a80deeadc5", "is_reserved": 0, "rental_uris": {"android": "https://dc.lft.to/lastmile_qr_scan", "ios": "https://dc.lft.to/lastmile_qr_scan"}, "fusion_lon": 0.0}, {"lat": 38.924498666666665, "is_disabled": 0, "type": "electric_scooter", "lon": -77.04205716666667, "bike_id": "e93a73e9448e42418eef4cee862d9ad7", "fusion_lat": 0.0, "name": "e93a73e9448e42418eef4cee862d9ad7", "is_reserved": 0, "rental_uris": {"android": "https://dc.lft.to/lastmile_qr_scan", "ios": "https://dc.lft.to/lastmile_qr_scan"}, "fusion_lon": 0.0}, {"lat": 38.988142, "is_disabled": 0, "type": "electric_bike", "lon": -77.026592, "bike_id": "722a9dfb44a91db10c51861505418958", "fusion_lat": 0.0, "name": "722a9dfb44a91db10c51861505418958", "is_reserved": 0, "rental_uris": {"android": "https://dc.lft.to/lastmile_qr_scan", "ios": "https://dc.lft.to/lastmile_qr_scan"}, "fusion_lon": 0.0}, {"lat": 38.89681066666667, "is_disabled": 0, "type": "electric_scooter", "lon": -76.93608533333334, "bike_id": "b586ca904329e9bc97c3eb4495e640d0", "fusion_lat": 0.0, "name": "b586ca904329e9bc97c3eb4495e640d0", "is_reserved": 0, "rental_uris": {"android": "https://dc.lft.to/lastmile_qr_scan", "ios": "https://dc.lft.to/lastmile_qr_scan"}, "fusion_lon": 0.0}, {"lat": 38.9307215, "is_disabled": 0, "type": "electric_scooter", "lon": -77.03409433333333, "bike_id": "b0b70b6aa4f2412d496b2fa57e50016d", "fusion_lat": 0.0, "name": "b0b70b6aa4f2412d496b2fa57e50016d", "is_reserved": 0, "rental_uris": {"android": "https://dc.lft.to/lastmile_qr_scan", "ios": "https://dc.lft.to/lastmile_qr_scan"}, "fusion_lon": 0.0}, {"lat": 38.884489333333335, "is_disabled": 0, "type": "electric_scooter", "lon": -76.95098316666666, "bike_id": "5e60608db7afeb24aae0a6fb55e2f44e", "fusion_lat": 0.0, "name": "5e60608db7afeb24aae0a6fb55e2f44e", "is_reserved": 0, "rental_uris": {"android": "https://dc.lft.to/lastmile_qr_scan", "ios": "https://dc.lft.to/lastmile_qr_scan"}, "fusion_lon": 0.0}, {"lat": 38.9211805, "is_disabled": 0, "type": "electric_scooter", "lon": -77.0416675, "bike_id": "f8b6b10cf8148996ff679128e5eea12d", "fusion_lat": 0.0, "name": "f8b6b10cf8148996ff679128e5eea12d", "is_reserved": 0, "rental_uris": {"android": "https://dc.lft.to/lastmile_qr_scan", "ios": "https://dc.lft.to/lastmile_qr_scan"}, "fusion_lon": 0.0}, {"lat": 38.912153833333335, "is_disabled": 0, "type": "electric_scooter", "lon": -77.07594133333333, "bike_id": "187650cddf48a04edb8fac632ebfacf0", "fusion_lat": 0.0, "name": "187650cddf48a04edb8fac632ebfacf0", "is_reserved": 0, "rental_uris": {"android": "https://dc.lft.to/lastmile_qr_scan", "ios": "https://dc.lft.to/lastmile_qr_scan"}, "fusion_lon": 0.0}, {"lat": 38.89729616666666, "is_disabled": 0, "type": "electric_scooter", "lon": -77.020082, "bike_id": "6434c2ac24cf730ba5499165102be72c", "fusion_lat": 0.0, "name": "6434c2ac24cf730ba5499165102be72c", "is_reserved": 0, "rental_uris": {"android": "https://dc.lft.to/lastmile_qr_scan", "ios": "https://dc.lft.to/lastmile_qr_scan"}, "fusion_lon": 0.0}, {"lat": 38.94628933333333, "is_disabled": 0, "type": "electric_scooter", "lon": -77.0184715, "bike_id": "b51815be339f7ed1869c44b0163070f7", "fusion_lat": 0.0, "name": "b51815be339f7ed1869c44b0163070f7", "is_reserved": 0, "rental_uris": {"android": "https://dc.lft.to/lastmile_qr_scan", "ios": "https://dc.lft.to/lastmile_qr_scan"}, "fusion_lon": 0.0}, {"lat": 38.86249383333333, "is_disabled": 0, "type": "electric_scooter", "lon": -76.98705933333333, "bike_id": "f0788552d49f5403c557d6320fb05953", "fusion_lat": 0.0, "name": "f0788552d49f5403c557d6320fb05953", "is_reserved": 0, "rental_uris": {"android": "https://dc.lft.to/lastmile_qr_scan", "ios": "https://dc.lft.to/lastmile_qr_scan"}, "fusion_lon": 0.0}, {"lat": 38.910488, "is_disabled": 0, "type": "electric_scooter", "lon": -77.01530966666667, "bike_id": "56869e625f6d65e910dca037cda1ecd1", "fusion_lat": 0.0, "name": "56869e625f6d65e910dca037cda1ecd1", "is_reserved": 0, "rental_uris": {"android": "https://dc.lft.to/lastmile_qr_scan", "ios": "https://dc.lft.to/lastmile_qr_scan"}, "fusion_lon": 0.0}, {"lat": 38.951842, "is_disabled": 0, "type": "electric_bike", "lon": -76.935463, "bike_id": "3c777d878ae86b36d144d8137b624b74", "fusion_lat": 0.0, "name": "3c777d878ae86b36d144d8137b624b74", "is_reserved": 0, "rental_uris": {"android": "https://dc.lft.to/lastmile_qr_scan", "ios": "https://dc.lft.to/lastmile_qr_scan"}, "fusion_lon": 0.0}, {"lat": 38.86746866666667, "is_disabled": 0, "type": "electric_scooter", "lon": -76.97666316666667, "bike_id": "69c0b2e640dd86c2e43d9db82c75bbaa", "fusion_lat": 0.0, "name": "69c0b2e640dd86c2e43d9db82c75bbaa", "is_reserved": 0, "rental_uris": {"android": "https://dc.lft.to/lastmile_qr_scan", "ios": "https://dc.lft.to/lastmile_qr_scan"}, "fusion_lon": 0.0}, {"lat": 38.919427166666665, "is_disabled": 0, "type": "electric_scooter", "lon": -77.03210583333333, "bike_id": "18188a064ddb95bf051cd450914f7f64", "fusion_lat": 0.0, "name": "18188a064ddb95bf051cd450914f7f64", "is_reserved": 0, "rental_uris": {"android": "https://dc.lft.to/lastmile_qr_scan", "ios": "https://dc.lft.to/lastmile_qr_scan"}, "fusion_lon": 0.0}, {"lat": 38.911051666666665, "is_disabled": 0, "type": "electric_scooter", "lon": -77.02138583333333, "bike_id": "3d3df485651d40a38003b419dfb65f15", "fusion_lat": 0.0, "name": "3d3df485651d40a38003b419dfb65f15", "is_reserved": 0, "rental_uris": {"android": "https://dc.lft.to/lastmile_qr_scan", "ios": "https://dc.lft.to/lastmile_qr_scan"}, "fusion_lon": 0.0}, {"lat": 38.8773115, "is_disabled": 0, "type": "electric_bike", "lon": -77.11853566666667, "bike_id": "9fd9cb2d3bb9cf24f069156432a65865", "fusion_lat": 0.0, "name": "9fd9cb2d3bb9cf24f069156432a65865", "is_reserved": 0, "rental_uris": {"android": "https://dc.lft.to/lastmile_qr_scan", "ios": "https://dc.lft.to/lastmile_qr_scan"}, "fusion_lon": 0.0}, {"lat": 38.90233666666666, "is_disabled": 0, "type": "electric_scooter", "lon": -77.0161385, "bike_id": "aec0b5fdd5443392c2d4863b727655cc", "fusion_lat": 0.0, "name": "aec0b5fdd5443392c2d4863b727655cc", "is_reserved": 0, "rental_uris": {"android": "https://dc.lft.to/lastmile_qr_scan", "ios": "https://dc.lft.to/lastmile_qr_scan"}, "fusion_lon": 0.0}, {"lat": 38.870822833333335, "is_disabled": 0, "type": "electric_scooter", "lon": -77.01117283333333, "bike_id": "9933e5a95d7daa02f5e456af33aad37d", "fusion_lat": 0.0, "name": "9933e5a95d7daa02f5e456af33aad37d", "is_reserved": 0, "rental_uris": {"android": "https://dc.lft.to/lastmile_qr_scan", "ios": "https://dc.lft.to/lastmile_qr_scan"}, "fusion_lon": 0.0}, {"lat": 38.9323115, "is_disabled": 0, "type": "electric_bike", "lon": -76.9742155, "bike_id": "3ea172574abeb9c5ad0f8739d2fc6cd6", "fusion_lat": 0.0, "name": "3ea172574abeb9c5ad0f8739d2fc6cd6", "is_reserved": 0, "rental_uris": {"android": "https://dc.lft.to/lastmile_qr_scan", "ios": "https://dc.lft.to/lastmile_qr_scan"}, "fusion_lon": 0.0}, {"lat": 38.916831, "is_disabled": 0, "type": "electric_scooter", "lon": -77.029652, "bike_id": "e19615618c97cbbb67d9e0478dab73f0", "fusion_lat": 0.0, "name": "e19615618c97cbbb67d9e0478dab73f0", "is_reserved": 0, "rental_uris": {"android": "https://dc.lft.to/lastmile_qr_scan", "ios": "https://dc.lft.to/lastmile_qr_scan"}, "fusion_lon": 0.0}, {"lat": 38.92094133333333, "is_disabled": 0, "type": "electric_scooter", "lon": -77.02560133333333, "bike_id": "625c7d54a27a63a5e2eadfcc52e01cee", "fusion_lat": 0.0, "name": "625c7d54a27a63a5e2eadfcc52e01cee", "is_reserved": 0, "rental_uris": {"android": "https://dc.lft.to/lastmile_qr_scan", "ios": "https://dc.lft.to/lastmile_qr_scan"}, "fusion_lon": 0.0}, {"lat": 38.94821683333333, "is_disabled": 0, "type": "electric_scooter", "lon": -76.99906316666667, "bike_id": "ea29e18eb9dc3b6b1338f7acdaeddcb5", "fusion_lat": 0.0, "name": "ea29e18eb9dc3b6b1338f7acdaeddcb5", "is_reserved": 0, "rental_uris": {"android": "https://dc.lft.to/lastmile_qr_scan", "ios": "https://dc.lft.to/lastmile_qr_scan"}, "fusion_lon": 0.0}, {"lat": 38.91415283333333, "is_disabled": 0, "type": "electric_scooter", "lon": -77.02212, "bike_id": "828eb9ff82d692ee817f125a1172056b", "fusion_lat": 0.0, "name": "828eb9ff82d692ee817f125a1172056b", "is_reserved": 0, "rental_uris": {"android": "https://dc.lft.to/lastmile_qr_scan", "ios": "https://dc.lft.to/lastmile_qr_scan"}, "fusion_lon": 0.0}, {"lat": 38.876653166666664, "is_disabled": 0, "type": "electric_scooter", "lon": -76.99612216666667, "bike_id": "cd1a697283ec464c16a5f65b3b184fef", "fusion_lat": 0.0, "name": "cd1a697283ec464c16a5f65b3b184fef", "is_reserved": 0, "rental_uris": {"android": "https://dc.lft.to/lastmile_qr_scan", "ios": "https://dc.lft.to/lastmile_qr_scan"}, "fusion_lon": 0.0}, {"lat": 38.962183, "is_disabled": 0, "type": "electric_bike", "lon": -77.02628183333333, "bike_id": "5cd5110d67e219643646a2e0a3e3eb0e", "fusion_lat": 0.0, "name": "5cd5110d67e219643646a2e0a3e3eb0e", "is_reserved": 0, "rental_uris": {"android": "https://dc.lft.to/lastmile_qr_scan", "ios": "https://dc.lft.to/lastmile_qr_scan"}, "fusion_lon": 0.0}, {"lat": 38.90200083333333, "is_disabled": 0, "type": "electric_scooter", "lon": -76.9995225, "bike_id": "861250d0580238dacb01b26ccd5384e8", "fusion_lat": 0.0, "name": "861250d0580238dacb01b26ccd5384e8", "is_reserved": 0, "rental_uris": {"android": "https://dc.lft.to/lastmile_qr_scan", "ios": "https://dc.lft.to/lastmile_qr_scan"}, "fusion_lon": 0.0}, {"lat": 38.91703533333333, "is_disabled": 0, "type": "electric_scooter", "lon": -77.032281, "bike_id": "a415fec4b343bbc28939b0035a9be7c0", "fusion_lat": 0.0, "name": "a415fec4b343bbc28939b0035a9be7c0", "is_reserved": 0, "rental_uris": {"android": "https://dc.lft.to/lastmile_qr_scan", "ios": "https://dc.lft.to/lastmile_qr_scan"}, "fusion_lon": 0.0}, {"lat": 38.921480833333334, "is_disabled": 0, "type": "electric_scooter", "lon": -77.03866683333334, "bike_id": "d070a08ad8b1037fcbda6a4156c9217e", "fusion_lat": 0.0, "name": "d070a08ad8b1037fcbda6a4156c9217e", "is_reserved": 0, "rental_uris": {"android": "https://dc.lft.to/lastmile_qr_scan", "ios": "https://dc.lft.to/lastmile_qr_scan"}, "fusion_lon": 0.0}, {"lat": 38.91657816666667, "is_disabled": 0, "type": "electric_scooter", "lon": -77.038571, "bike_id": "5b794e76c54a74c8d44e454e221f5c49", "fusion_lat": 0.0, "name": "5b794e76c54a74c8d44e454e221f5c49", "is_reserved": 0, "rental_uris": {"android": "https://dc.lft.to/lastmile_qr_scan", "ios": "https://dc.lft.to/lastmile_qr_scan"}, "fusion_lon": 0.0}, {"lat": 38.87626316666667, "is_disabled": 0, "type": "electric_scooter", "lon": -76.9652475, "bike_id": "60d6ea9d8d5118c675b6bccad544c2c9", "fusion_lat": 0.0, "name": "60d6ea9d8d5118c675b6bccad544c2c9", "is_reserved": 0, "rental_uris": {"android": "https://dc.lft.to/lastmile_qr_scan", "ios": "https://dc.lft.to/lastmile_qr_scan"}, "fusion_lon": 0.0}, {"lat": 38.9195825, "is_disabled": 0, "type": "electric_scooter", "lon": -77.0488925, "bike_id": "f3784cd1f984049ac65ca9231c90df4a", "fusion_lat": 0.0, "name": "f3784cd1f984049ac65ca9231c90df4a", "is_reserved": 0, "rental_uris": {"android": "https://dc.lft.to/lastmile_qr_scan", "ios": "https://dc.lft.to/lastmile_qr_scan"}, "fusion_lon": 0.0}, {"lat": 38.901236833333336, "is_disabled": 0, "type": "electric_scooter", "lon": -77.03306666666667, "bike_id": "75a5731db28ba535084cbd2ba2809ef6", "fusion_lat": 0.0, "name": "75a5731db28ba535084cbd2ba2809ef6", "is_reserved": 0, "rental_uris": {"android": "https://dc.lft.to/lastmile_qr_scan", "ios": "https://dc.lft.to/lastmile_qr_scan"}, "fusion_lon": 0.0},