{"data": {"bikes": [{"name": "0edf7a7d71d1a03f5543cb4fc780f7df", "fusion_lon": 0.0, "lat": 38.923451, "is_reserved": 0, "type": "electric_scooter", "bike_id": "0edf7a7d71d1a03f5543cb4fc780f7df", "is_disabled": 0, "rental_uris": {"android": "https://dc.lft.to/lastmile_qr_scan", "ios": "https://dc.lft.to/lastmile_qr_scan"}, "lon": -77.0507625, "fusion_lat": 0.0}, {"name": "2d854d586f25a8b139c6ac22a35ed948", "fusion_lon": 0.0, "lat": 38.924203166666665, "is_reserved": 0, "type": "electric_scooter", "bike_id": "2d854d586f25a8b139c6ac22a35ed948", "is_disabled": 0, "rental_uris": {"android": "https://dc.lft.to/lastmile_qr_scan", "ios": "https://dc.lft.to/lastmile_qr_scan"}, "lon": -77.05055983333334, "fusion_lat": 0.0}, {"name": "b06326c2b3bbbffb270aa799d020cfbb", "fusion_lon": 0.0, "lat": 38.8843805, "is_reserved": 0, "type": "electric_scooter", "bike_id": "b06326c2b3bbbffb270aa799d020cfbb", "is_disabled": 0, "rental_uris": {"android": "https://dc.lft.to/lastmile_qr_scan", "ios": "https://dc.lft.to/lastmile_qr_scan"}, "lon": -77.0296305, "fusion_lat": 0.0}, {"name": "74272637187cc14cab09bf0c9a4d8b32", "fusion_lon": 0.0, "lat": 38.87475933333333, "is_reserved": 0, "type": "electric_bike", "bike_id": "74272637187cc14cab09bf0c9a4d8b32", "is_disabled": 0, "rental_uris": {"android": "https://dc.lft.to/lastmile_qr_scan", "ios": "https://dc.lft.to/lastmile_qr_scan"}, "lon": -77.0023815, "fusion_lat": 0.0}, {"name": "eb0331d16e176e6f1696cb01c76a8b81", "fusion_lon": 0.0, "lat": 38.8624255, "is_reserved": 0, "type": "electric_scooter", "bike_id": "eb0331d16e176e6f1696cb01c76a8b81", "is_disabled": 0, "rental_uris": {"android": "https://dc.lft.to/lastmile_qr_scan", "ios": "https://dc.lft.to/lastmile_qr_scan"}, "lon": -76.9949155, "fusion_lat": 0.0}, {"name": "a2e2a34ee9fdc9f3e7aab02bc5841418", "fusion_lon": 0.0, "lat": 38.9257425, "is_reserved": 0, "type": "electric_scooter", "bike_id": "a2e2a34ee9fdc9f3e7aab02bc5841418", "is_disabled": 0, "rental_uris": {"android": "https://dc.lft.to/lastmile_qr_scan", "ios": "https://dc.lft.to/lastmile_qr_scan"}, "lon": -77.039113, "fusion_lat": 0.0}, {"name": "2dbe64fc26ca565a28d8e536fd989806", "fusion_lon": 0.0, "lat": 38.91744466666667, "is_reserved": 0, "type": "electric_scooter", "bike_id": "2dbe64fc26ca565a28d8e536fd989806", "is_disabled": 0, "rental_uris": {"android": "https://dc.lft.to/lastmile_qr_scan", "ios": "https://dc.lft.to/lastmile_qr_scan"}, "lon": -77.01460583333333, "fusion_lat": 0.0}, {"name": "66a14a62c30308f0236dfabac261d1a5", "fusion_lon": 0.0, "lat": 38.95745183333333, "is_reserved": 0, "type": "electric_scooter", "bike_id": "66a14a62c30308f0236dfabac261d1a5", "is_disabled": 0, "rental_uris": {"android": "https://dc.lft.to/lastmile_qr_scan", "ios": "https://dc.lft.to/lastmile_qr_scan"}, "lon": -77.02067766666667, "fusion_lat": 0.0}, {"name": "8db3d92d1b01e24a181cb3a31ced26c2", "fusion_lon": 0.0, "lat": 38.93151183333333, "is_reserved": 0, "type": "electric_bike", "bike_id": "8db3d92d1b01e24a181cb3a31ced26c2", "is_disabled": 0, "rental_uris": {"android": "https://dc.lft.to/lastmile_qr_scan", "ios": "https://dc.lft.to/lastmile_qr_scan"}, "lon": -77.02721483333333, "fusion_lat": 0.0}, {"name": "20926d795f6390d0750d81ba2bc6d61d", "fusion_lon": 0.0, "lat": 38.89719483333333, "is_reserved": 0, "type": "electric_scooter", "bike_id": "20926d795f6390d0750d81ba2bc6d61d", "is_disabled": 0, "rental_uris": {"android": "https://dc.lft.to/lastmile_qr_scan", "ios": "https://dc.lft.to/lastmile_qr_scan"}, "lon": -76.97348783333334, "fusion_lat": 0.0}, {"name": "f7c04d019246e411b32a679fd8a5df94", "fusion_lon": 0.0, "lat": 38.831453, "is_reserved": 0, "type": "electric_scooter", "bike_id": "f7c04d019246e411b32a679fd8a5df94", "is_disabled": 0, "rental_uris": {"android": "https://dc.lft.to/lastmile_qr_scan", "ios": "https://dc.lft.to/lastmile_qr_scan"}, "lon": -77.05130616666666, "fusion_lat": 0.0}, {"name": "f0dee9f0874aa292843396824b96f7e3", "fusion_lon": 0.0, "lat": 38.9182205, "is_reserved": 0, "type": "electric_scooter", "bike_id": "f0dee9f0874aa292843396824b96f7e3", "is_disabled": 0, "rental_uris": {"android": "https://dc.lft.to/lastmile_qr_scan", "ios": "https://dc.lft.to/lastmile_qr_scan"}, "lon": -77.02703966666667, "fusion_lat": 0.0}, {"name": "ccba9f7d2ce36c04312ca4d429f86473", "fusion_lon": 0.0, "lat": 38.983622833333335, "is_reserved": 0, "type": "electric_bike", "bike_id": "ccba9f7d2ce36c04312ca4d429f86473", "is_disabled": 0, "rental_uris": {"android": "https://dc.lft.to/lastmile_qr_scan", "ios": "https://dc.lft.to/lastmile_qr_scan"}, "lon": -76.97212733333333, "fusion_lat": 0.0}, {"name": "da5d783851c419372ebcb5703cd845bf", "fusion_lon": 0.0, "lat": 38.915582666666666, "is_reserved": 0, "type": "electric_scooter", "bike_id": "da5d783851c419372ebcb5703cd845bf", "is_disabled": 0, "rental_uris": {"android": "https://dc.lft.to/lastmile_qr_scan", "ios": "https://dc.lft.to/lastmile_qr_scan"}, "lon": -77.01044766666666, "fusion_lat": 0.0}, {"name": "420ef8c44757c6310b384ffbb4ced4aa", "fusion_lon": 0.0, "lat": 38.9036945, "is_reserved": 0, "type": "electric_scooter", "bike_id": "420ef8c44757c6310b384ffbb4ced4aa", "is_disabled": 0, "rental_uris": {"android": "https://dc.lft.to/lastmile_qr_scan", "ios": "https://dc.lft.to/lastmile_qr_scan"}, "lon": -77.04510916666666, "fusion_lat": 0.0}, {"name": "b2408ef3fb58ca305be5a6a338670ce8", "fusion_lon": 0.0, "lat": 38.866264, "is_reserved": 0, "type": "electric_scooter", "bike_id": "b2408ef3fb58ca305be5a6a338670ce8", "is_disabled": 0, "rental_uris": {"android": "https://dc.lft.to/lastmile_qr_scan", "ios": "https://dc.lft.to/lastmile_qr_scan"}, "lon": -76.989073, "fusion_lat": 0.0}, {"name": "371f504a2cfda4a31d831c5670174d8a", "fusion_lon": 0.0, "lat": 38.9084865, "is_reserved": 0, "type": "electric_scooter", "bike_id": "371f504a2cfda4a31d831c5670174d8a", "is_disabled": 0, "rental_uris": {"android": "https://dc.lft.to/lastmile_qr_scan", "ios": "https://dc.lft.to/lastmile_qr_scan"}, "lon": -77.002189, "fusion_lat": 0.0}, {"name": "daad48f1a95f2b8b46efa547c28ef2a8", "fusion_lon": 0.0, "lat": 38.92248766666667, "is_reserved": 0, "type": "electric_scooter", "bike_id": "daad48f1a95f2b8b46efa547c28ef2a8", "is_disabled": 0, "rental_uris": {"android": "https://dc.lft.to/lastmile_qr_scan", "ios": "https://dc.lft.to/lastmile_qr_scan"}, "lon": -77.0303005, "fusion_lat": 0.0}, {"name": "ebfd51761aeb9570cde982b8ecbb9637", "fusion_lon": 0.0, "lat": 38.91555366666667, "is_reserved": 0, "type": "electric_scooter", "bike_id": "ebfd51761aeb9570cde982b8ecbb9637", "is_disabled": 0, "rental_uris": {"android": "https://dc.lft.to/lastmile_qr_scan", "ios": "https://dc.lft.to/lastmile_qr_scan"}, "lon": -77.04179333333333, "fusion_lat": 0.0}, {"name": "3b309eafd357b9fccfaec5007a8933d8", "fusion_lon": 0.0, "lat": 38.897048166666664, "is_reserved": 0, "type": "electric_scooter", "bike_id": "3b309eafd357b9fccfaec5007a8933d8", "is_disabled": 0, "rental_uris": {"android": "https://dc.lft.to/lastmile_qr_scan", "ios": "https://dc.lft.to/lastmile_qr_scan"}, "lon": -76.93000033333334, "fusion_lat": 0.0}, {"name": "f2d3f02dd885952e166ace94694b7731", "fusion_lon": 0.0, "lat": 38.919998666666665, "is_reserved": 0, "type": "electric_scooter", "bike_id": "f2d3f02dd885952e166ace94694b7731", "is_disabled": 0, "rental_uris": {"android": "https://dc.lft.to/lastmile_qr_scan", "ios": "https://dc.lft.to/lastmile_qr_scan"}, "lon": -77.03226866666667, "fusion_lat": 0.0}, {"name": "631e96cd1ca2197dfc6113da5c583892", "fusion_lon": 0.0, "lat": 38.90093666666667, "is_reserved": 0, "type": "electric_scooter", "bike_id": "631e96cd1ca2197dfc6113da5c583892", "is_disabled": 0, "rental_uris": {"android": "https://dc.lft.to/lastmile_qr_scan", "ios": "https://dc.lft.to/lastmile_qr_scan"}, "lon": -77.024626, "fusion_lat": 0.0}, {"name": "a20ace2ac451c7433b565c9095d49962", "fusion_lon": 0.0, "lat": 38.91632833333333, "is_reserved": 0, "type": "electric_scooter", "bike_id": "a20ace2ac451c7433b565c9095d49962", "is_disabled": 0, "rental_uris": {"android": "https://dc.lft.to/lastmile_qr_scan", "ios": "https://dc.lft.to/lastmile_qr_scan"}, "lon": -77.02410066666667, "fusion_lat": 0.0}, {"name": "0300635a694fa06ba768e95a032cdee0", "fusion_lon": 0.0, "lat": 38.9237595, "is_reserved": 0, "type": "electric_scooter", "bike_id": "0300635a694fa06ba768e95a032cdee0", "is_disabled": 0, "rental_uris": {"android": "https://dc.lft.to/lastmile_qr_scan", "ios": "https://dc.lft.to/lastmile_qr_scan"}, "lon": -77.03090366666666, "fusion_lat": 0.0}, {"name": "2ee061307d73f97338c3e5bd5a156d32", "fusion_lon": 0.0, "lat": 38.899218833333336, "is_reserved": 0, "type": "electric_scooter", "bike_id": "2ee061307d73f97338c3e5bd5a156d32", "is_disabled": 0, "rental_uris": {"android": "https://dc.lft.to/lastmile_qr_scan", "ios": "https://dc.lft.to/lastmile_qr_scan"}, "lon": -77.070633, "fusion_lat": 0.0}, {"name": "d0a7a453a1d174c2658fc552cfc2beb0", "fusion_lon": 0.0, "lat": 38.899557333333334, "is_reserved": 0, "type": "electric_bike", "bike_id": "d0a7a453a1d174c2658fc552cfc2beb0", "is_disabled": 0, "rental_uris": {"android": "https://dc.lft.to/lastmile_qr_scan", "ios": "https://dc.lft.to/lastmile_qr_scan"}, "lon": -76.98562966666667, "fusion_lat": 0.0}, {"name": "9ef7aa27cca5bac443bfa45333cc59d8", "fusion_lon": 0.0, "lat": 38.911727666666664, "is_reserved": 0, "type": "electric_scooter", "bike_id": "9ef7aa27cca5bac443bfa45333cc59d8", "is_disabled": 0, "rental_uris": {"android": "https://dc.lft.to/lastmile_qr_scan", "ios": "https://dc.lft.to/lastmile_qr_scan"}, "lon": -77.00442433333333, "fusion_lat": 0.0}, {"name": "635000ccefc9d2e5edb7936b88b4361e", "fusion_lon": 0.0, "lat": 38.89220666666667, "is_reserved": 0, "type": "electric_scooter", "bike_id": "635000ccefc9d2e5edb7936b88b4361e", "is_disabled": 0, "rental_uris": {"android": "https://dc.lft.to/lastmile_qr_scan", "ios": "https://dc.lft.to/lastmile_qr_scan"}, "lon": -77.04868216666667, "fusion_lat": 0.0}, {"name": "36b76508f2b837982fb741b8341b3b17", "fusion_lon": 0.0, "lat": 38.90144983333333, "is_reserved": 0, "type": "electric_scooter", "bike_id": "36b76508f2b837982fb741b8341b3b17", "is_disabled": 0, "rental_uris": {"android": "https://dc.lft.to/lastmile_qr_scan", "ios": "https://dc.lft.to/lastmile_qr_scan"}, "lon": -76.9298615, "fusion_lat": 0.0}, {"name": "35eefe139a4686b0a0a39659195208b0", "fusion_lon": 0.0, "lat": 38.902163333333334, "is_reserved": 0, "type": "electric_scooter", "bike_id": "35eefe139a4686b0a0a39659195208b0", "is_disabled": 0, "rental_uris": {"android": "https://dc.lft.to/lastmile_qr_scan", "ios": "https://dc.lft.to/lastmile_qr_scan"}, "lon": -77.0237705, "fusion_lat": 0.0}, {"name": "b893a4f6a483bcef761d019055e13fd1", "fusion_lon": 0.0, "lat": 38.927713, "is_reserved": 0, "type": "electric_scooter", "bike_id": "b893a4f6a483bcef761d019055e13fd1", "is_disabled": 0, "rental_uris": {"android": "https://dc.lft.to/lastmile_qr_scan", "ios": "https://dc.lft.to/lastmile_qr_scan"}, "lon": -77.04064133333334, "fusion_lat": 0.0}, {"name": "4047d4aad668da5d5d70b3657b57e2f1", "fusion_lon": 0.0, "lat": 38.94799233333333, "is_reserved": 0, "type": "electric_bike", "bike_id": "4047d4aad668da5d5d70b3657b57e2f1", "is_disabled": 0, "rental_uris": {"android": "https://dc.lft.to/lastmile_qr_scan", "ios": "https://dc.lft.to/lastmile_qr_scan"}, "lon": -76.9553885, "fusion_lat": 0.0}, {"name": "d31b64b9412e30d6ec368c6f59c97baa", "fusion_lon": 0.0, "lat": 38.9211615, "is_reserved": 0, "type": "electric_scooter", "bike_id": "d31b64b9412e30d6ec368c6f59c97baa", "is_disabled": 0, "rental_uris": {"android": "https://dc.lft.to/lastmile_qr_scan", "ios": "https://dc.lft.to/lastmile_qr_scan"}, "lon": -77.039304, "fusion_lat": 0.0}, {"name": "25e51409e12ea83717eb2560035defc5", "fusion_lon": 0.0, "lat": 38.91764383333334, "is_reserved": 0, "type": "electric_scooter", "bike_id": "25e51409e12ea83717eb2560035defc5", "is_disabled": 0, "rental_uris": {"android": "https://dc.lft.to/lastmile_qr_scan", "ios": "https://dc.lft.to/lastmile_qr_scan"}, "lon": -77.04774966666666, "fusion_lat": 0.0}, {"name": "ac49d1219d099e7b300ac980c849b331", "fusion_lon": 0.0, "lat": 38.87666866666667, "is_reserved": 0, "type": "electric_scooter", "bike_id": "ac49d1219d099e7b300ac980c849b331", "is_disabled": 0, "rental_uris": {"android": "https://dc.lft.to/lastmile_qr_scan", "ios": "https://dc.lft.to/lastmile_qr_scan"}, "lon": -77.00441716666667, "fusion_lat": 0.0}, {"name": "44dc36466bd38931603656927e1b8bac", "fusion_lon": 0.0, "lat": 38.874171833333335, "is_reserved": 0, "type": "electric_scooter", "bike_id": "44dc36466bd38931603656927e1b8bac", "is_disabled": 0, "rental_uris": {"android": "https://dc.lft.to/lastmile_qr_scan", "ios": "https://dc.lft.to/lastmile_qr_scan"}, "lon": -76.96773433333334, "fusion_lat": 0.0}, {"name": "c6e713681fcf447e40d76128c163a4bb", "fusion_lon": 0.0, "lat": 38.92662883333333, "is_reserved": 0, "type": "electric_scooter", "bike_id": "c6e713681fcf447e40d76128c163a4bb", "is_disabled": 0, "rental_uris": {"android": "https://dc.lft.to/lastmile_qr_scan", "ios": "https://dc.lft.to/lastmile_qr_scan"}, "lon": -77.02301633333333, "fusion_lat": 0.0}, {"name": "8b7228dd1f722c71ddb20a315f803711", "fusion_lon": 0.0, "lat": 38.92360816666667, "is_reserved": 0, "type": "electric_scooter", "bike_id": "8b7228dd1f722c71ddb20a315f803711", "is_disabled": 0, "rental_uris": {"android": "https://dc.lft.to/lastmile_qr_scan", "ios": "https://dc.lft.to/lastmile_qr_scan"}, "lon": -77.029848, "fusion_lat": 0.0}, {"name": "5dd43408a408d5335404269333e20faa", "fusion_lon": 0.0, "lat": 38.907976833333336, "is_reserved": 0, "type": "electric_scooter", "bike_id": "5dd43408a408d5335404269333e20faa", "is_disabled": 0, "rental_uris": {"android": "https://dc.lft.to/lastmile_qr_scan", "ios": "https://dc.lft.to/lastmile_qr_scan"}, "lon": -76.98733183333333, "fusion_lat": 0.0}, {"name": "e193ca342dce8bf514e6b9c70112716b", "fusion_lon": 0.0, "lat": 38.91731166666667, "is_reserved": 0, "type": "electric_scooter", "bike_id": "e193ca342dce8bf514e6b9c70112716b", "is_disabled": 0, "rental_uris": {"android": "https://dc.lft.to/lastmile_qr_scan", "ios": "https://dc.lft.to/lastmile_qr_scan"}, "lon": -77.03661016666666, "fusion_lat": 0.0}, {"name": "b8762e5e1b976913e6f6504f14f59166", "fusion_lon": 0.0, "lat": 38.97392216666667, "is_reserved": 0, "type": "electric_bike", "bike_id": "b8762e5e1b976913e6f6504f14f59166", "is_disabled": 0, "rental_uris": {"android": "https://dc.lft.to/lastmile_qr_scan", "ios": "https://dc.lft.to/lastmile_qr_scan"}, "lon": -77.06451033333333, "fusion_lat": 0.0}, {"name": "94656905ee51f2ab678fa3e2e2135e5d", "fusion_lon": 0.0, "lat": 38.915451166666664, "is_reserved": 0, "type": "electric_scooter", "bike_id": "94656905ee51f2ab678fa3e2e2135e5d", "is_disabled": 0, "rental_uris": {"android": "https://dc.lft.to/lastmile_qr_scan", "ios": "https://dc.lft.to/lastmile_qr_scan"}, "lon": -77.0531805, "fusion_lat": 0.0}, {"name": "70a49eee46d34f6453bf95f1dab6d678", "fusion_lon": 0.0, "lat": 38.91697633333333, "is_reserved": 0, "type": "electric_scooter", "bike_id": "70a49eee46d34f6453bf95f1dab6d678", "is_disabled": 0, "rental_uris": {"android": "https://dc.lft.to/lastmile_qr_scan", "ios": "https://dc.lft.to/lastmile_qr_scan"}, "lon": -77.03117216666666, "fusion_lat": 0.0}, {"name": "0ca3cdf6ed694c470691daa51beb10a4", "fusion_lon": 0.0, "lat": 38.957358666666664, "is_reserved": 0, "type": "electric_scooter", "bike_id": "0ca3cdf6ed694c470691daa51beb10a4", "is_disabled": 0, "rental_uris": {"android": "https://dc.lft.to/lastmile_qr_scan", "ios": "https://dc.lft.to/lastmile_qr_scan"}, "lon": -77.02429316666667, "fusion_lat": 0.0}, {"name": "5f57b9fbb1886e6bed624215a1b891b6", "fusion_lon": 0.0, "lat": 38.951319833333336, "is_reserved": 0, "type": "electric_scooter", "bike_id": "5f57b9fbb1886e6bed624215a1b891b6", "is_disabled": 0, "rental_uris": {"android": "https://dc.lft.to/lastmile_qr_scan", "ios": "https://dc.lft.to/lastmile_qr_scan"}, "lon": -77.027231, "fusion_lat": 0.0}, {"name": "6d511c57d36f7a379a8bec9effc18042", "fusion_lon": 0.0, "lat": 38.876499, "is_reserved": 0, "type": "electric_scooter", "bike_id": "6d511c57d36f7a379a8bec9effc18042", "is_disabled": 0, "rental_uris": {"android": "https://dc.lft.to/lastmile_qr_scan", "ios": "https://dc.lft.to/lastmile_qr_scan"}, "lon": -76.9650765, "fusion_lat": 0.0}, {"name": "4816cbda7ff289e5fc707e9ccbea84ec", "fusion_lon": 0.0, "lat": 38.914119, "is_reserved": 0, "type": "electric_scooter", "bike_id": "4816cbda7ff289e5fc707e9ccbea84ec", "is_disabled": 0, "rental_uris": {"android": "https://dc.lft.to/lastmile_qr_scan", "ios": "https://dc.lft.to/lastmile_qr_scan"}, "lon": -77.04181533333333, "fusion_lat": 0.0}, {"name": "ad21c35b651b4fd732f6b9262e34e48d", "fusion_lon": 0.0, "lat": 38.919463666666665, "is_reserved": 0, "type": "electric_scooter", "bike_id": "ad21c35b651b4fd732f6b9262e34e48d", "is_disabled": 0, "rental_uris": {"android": "https://dc.lft.to/lastmile_qr_scan", "ios": "https://dc.lft.to/lastmile_qr_scan"}, "lon": -77.02888133333333, "fusion_lat": 0.0}, {"name": "094c8e8bd84079115c75b2b220aba421", "fusion_lon": 0.0, "lat": 38.958356, "is_reserved": 0, "type": "electric_scooter", "bike_id": "094c8e8bd84079115c75b2b220aba421", "is_disabled": 0, "rental_uris": {"android": "https://dc.lft.to/lastmile_qr_scan", "ios": "https://dc.lft.to/lastmile_qr_scan"}, "lon": -77.0151225, "fusion_lat": 0.0}, {"name": "3fd5114db7915d47e47eeb2b6f7705ac", "fusion_lon": 0.0, "lat": 38.89219883333333, "is_reserved": 0, "type": "electric_scooter", "bike_id": "3fd5114db7915d47e47eeb2b6f7705ac", "is_disabled": 0, "rental_uris": {"android": "https://dc.lft.to/lastmile_qr_scan", "ios": "https://dc.lft.to/lastmile_qr_scan"}, "lon": -77.043065, "fusion_lat": 0.0}, {"name": "eba7763544f5f23d37adc1606be5b40f", "fusion_lon": 0.0, "lat": 38.898492166666664, "is_reserved": 0, "type": "electric_scooter", "bike_id": "eba7763544f5f23d37adc1606be5b40f", "is_disabled": 0, "rental_uris": {"android": "https://dc.lft.to/lastmile_qr_scan", "ios": "https://dc.lft.to/lastmile_qr_scan"}, "lon": -76.99035616666667, "fusion_lat": 0.0}, {"name": "58825094d8e6c8921140b5b31e1cde71", "fusion_lon": 0.0, "lat": 38.899131, "is_reserved": 0, "type": "electric_scooter", "bike_id": "58825094d8e6c8921140b5b31e1cde71", "is_disabled": 0, "rental_uris": {"android": "https://dc.lft.to/lastmile_qr_scan", "ios": "https://dc.lft.to/lastmile_qr_scan"}, "lon": -77.02500716666667, "fusion_lat": 0.0}, {"name": "2a3e294500cef7b3480ce9425a29bf63", "fusion_lon": 0.0, "lat": 39.042336666666664, "is_reserved": 0, "type": "electric_bike", "bike_id": "2a3e294500cef7b3480ce9425a29bf63", "is_disabled": 0, "rental_uris": {"android": "https://dc.lft.to/lastmile_qr_scan", "ios": "https://dc.lft.to/lastmile_qr_scan"}, "lon": -77.03078, "fusion_lat": 0.0}, {"name": "0ac47d136256dd4805d7a593806f4c25", "fusion_lon": 0.0, "lat": 38.900283333333334, "is_reserved": 0, "type": "electric_scooter", "bike_id": "0ac47d136256dd4805d7a593806f4c25", "is_disabled": 0, "rental_uris": {"android": "https://dc.lft.to/lastmile_qr_scan", "ios": "https://dc.lft.to/lastmile_qr_scan"}, "lon": -76.995313, "fusion_lat": 0.0}, {"name": "9d2a44d507f6be8a46bde44aa637e9c6", "fusion_lon": 0.0, "lat": 38.93483033333333, "is_reserved": 0, "type": "electric_scooter", "bike_id": "9d2a44d507f6be8a46bde44aa637e9c6", "is_disabled": 0, "rental_uris": {"android": "https://dc.lft.to/lastmile_qr_scan", "ios": "https://dc.lft.to/lastmile_qr_scan"}, "lon": -77.03406816666667, "fusion_lat": 0.0}, {"name": "a79f77a1e94c020a4ce28ed15ad70405", "fusion_lon": 0.0, "lat": 38.86975866666667, "is_reserved": 0, "type": "electric_scooter", "bike_id": "a79f77a1e94c020a4ce28ed15ad70405", "is_disabled": 0, "rental_uris": {"android": "https://dc.lft.to/lastmile_qr_scan", "ios": "https://dc.lft.to/lastmile_qr_scan"}, "lon": -77.01229883333333, "fusion_lat": 0.0}, {"name": "7ed7f2cf968d88c831a39aea191e05d4", "fusion_lon": 0.0, "lat": 38.9550305, "is_reserved": 0, "type": "electric_bike", "bike_id": "7ed7f2cf968d88c831a39aea191e05d4", "is_disabled": 0, "rental_uris": {"android": "https://dc.lft.to/lastmile_qr_scan", "ios": "https://dc.lft.to/lastmile_qr_scan"}, "lon": -76.99353233333333, "fusion_lat": 0.0}, {"name": "a329f40cc9977c7a9d910e4f4ae9bef3", "fusion_lon": 0.0, "lat": 38.92445216666667, "is_reserved": 0, "type": "electric_scooter", "bike_id": "a329f40cc9977c7a9d910e4f4ae9bef3", "is_disabled": 0, "rental_uris": {"android": "https://dc.lft.to/lastmile_qr_scan", "ios": "https://dc.lft.to/lastmile_qr_scan"}, "lon": -77.02259566666666, "fusion_lat": 0.0}, {"name": "5d57561e9462e723975ba956ad30bbf7", "fusion_lon": 0.0, "lat": 38.92753866666666, "is_reserved": 0, "type": "electric_scooter", "bike_id": "5d57561e9462e723975ba956ad30bbf7", "is_disabled": 0, "rental_uris": {"android": "https://dc.lft.to/lastmile_qr_scan", "ios": "https://dc.lft.to/lastmile_qr_scan"}, "lon": -77.023062, "fusion_lat": 0.0}, {"name": "5189ba2e79898ad98e7cda345c8217c5", "fusion_lon": 0.0, "lat": 38.90057816666667, "is_reserved": 0, "type": "electric_scooter", "bike_id": "5189ba2e79898ad98e7cda345c8217c5", "is_disabled": 0, "rental_uris": {"android": "https://dc.lft.to/lastmile_qr_scan", "ios": "https://dc.lft.to/lastmile_qr_scan"}, "lon": -76.99016616666667, "fusion_lat": 0.0}, {"name": "6813ac20dcead8ba1dad8c993c7935e4", "fusion_lon": 0.0, "lat": 38.911316, "is_reserved": 0, "type": "electric_bike", "bike_id": "6813ac20dcead8ba1dad8c993c7935e4", "is_disabled": 0, "rental_uris": {"android": "https://dc.lft.to/lastmile_qr_scan", "ios": "https://dc.lft.to/lastmile_qr_scan"}, "lon": -77.06578266666666, "fusion_lat": 0.0}, {"name": "dde49b250adf62af545fcca595041bd4", "fusion_lon": 0.0, "lat": 38.93708733333333, "is_reserved": 0, "type": "electric_scooter", "bike_id": "dde49b250adf62af545fcca595041bd4", "is_disabled": 0, "rental_uris": {"android": "https://dc.lft.to/lastmile_qr_scan", "ios": "https://dc.lft.to/lastmile_qr_scan"}, "lon": -77.06103616666667, "fusion_lat": 0.0}, {"name": "52665de79e4c3783f9ac8aa1b5d5cedc", "fusion_lon": 0.0, "lat": 38.915753333333335, "is_reserved": 0, "type": "electric_scooter", "bike_id": "52665de79e4c3783f9ac8aa1b5d5cedc", "is_disabled": 0, "rental_uris": {"android": "https://dc.lft.to/lastmile_qr_scan", "ios": "https://dc.lft.to/lastmile_qr_scan"}, "lon": -77.01251216666667, "fusion_lat": 0.0}, {"name": "56c3e40c9f0fef305dd0a5ce86180f02", "fusion_lon": 0.0, "lat": 38.854471833333335, "is_reserved": 0, "type": "electric_scooter", "bike_id": "56c3e40c9f0fef305dd0a5ce86180f02", "is_disabled": 0, "rental_uris": {"android": "https://dc.lft.to/lastmile_qr_scan", "ios": "https://dc.lft.to/lastmile_qr_scan"}, "lon": -76.98609666666667, "fusion_lat": 0.0}, {"name": "3f9b23841d03e4be019f1405c039d68d", "fusion_lon": 0.0, "lat": 39.0563515, "is_reserved": 0, "type": "electric_bike", "bike_id": "3f9b23841d03e4be019f1405c039d68d", "is_disabled": 0, "rental_uris": {"android": "https://dc.lft.to/lastmile_qr_scan", "ios": "https://dc.lft.to/lastmile_qr_scan"}, "lon": -77.1252515, "fusion_lat": 0.0}, {"name": "017bec1abb6b811eaa4b7d106f8e9c65", "fusion_lon": 0.0, "lat": 38.8922195, "is_reserved": 0, "type": "electric_scooter", "bike_id": "017bec1abb6b811eaa4b7d106f8e9c65", "is_disabled": 0, "rental_uris": {"android": "https://dc.lft.to/lastmile_qr_scan", "ios": "https://dc.lft.to/lastmile_qr_scan"}, "lon": -77.04683616666667, "fusion_lat": 0.0}, {"name": "c8dc86ba7830e84248adc28b531ef48d", "fusion_lon": 0.0, "lat": 38.90671183333333, "is_reserved": 0, "type": "electric_scooter", "bike_id": "c8dc86ba7830e84248adc28b531ef48d", "is_disabled": 0, "rental_uris": {"android": "https://dc.lft.to/lastmile_qr_scan", "ios": "https://dc.lft.to/lastmile_qr_scan"}, "lon": -77.07195, "fusion_lat": 0.0}, {"name": "56811198e39226c0eb55b880bbe93739", "fusion_lon": 0.0, "lat": 38.909685, "is_reserved": 0, "type": "electric_scooter", "bike_id": "56811198e39226c0eb55b880bbe93739", "is_disabled": 0, "rental_uris": {"android": "https://dc.lft.to/lastmile_qr_scan", "ios": "https://dc.lft.to/lastmile_qr_scan"}, "lon": -77.00935583333333, "fusion_lat": 0.0}, {"name": "74cb1311fd98944e05fd10c29f098e24", "fusion_lon": 0.0, "lat": 38.91180383333333, "is_reserved": 0, "type": "electric_scooter", "bike_id": "74cb1311fd98944e05fd10c29f098e24", "is_disabled": 0, "rental_uris": {"android": "https://dc.lft.to/lastmile_qr_scan", "ios": "https://dc.lft.to/lastmile_qr_scan"}, "lon": -77.03509783333334, "fusion_lat": 0.0}, {"name": "729a7efe04c68fefa227a71290c1739b", "fusion_lon": 0.0, "lat": 38.93227016666667, "is_reserved": 0, "type": "electric_scooter", "bike_id": "729a7efe04c68fefa227a71290c1739b", "is_disabled": 0, "rental_uris": {"android": "https://dc.lft.to/lastmile_qr_scan", "ios": "https://dc.lft.to/lastmile_qr_scan"}, "lon": -76.99606416666667, "fusion_lat": 0.0}, {"name": "80765f9787ea1814aecf6c965e1cbe67", "fusion_lon": 0.0, "lat": 38.92318816666667, "is_reserved": 0, "type": "electric_scooter", "bike_id": "80765f9787ea1814aecf6c965e1cbe67", "is_disabled": 0, "rental_uris": {"android": "https://dc.lft.to/lastmile_qr_scan", "ios": "https://dc.lft.to/lastmile_qr_scan"}, "lon": -77.02956, "fusion_lat": 0.0}, {"name": "dbf80a6cb1b8536ff5da759a308dfe02", "fusion_lon": 0.0, "lat": 38.966272333333336, "is_reserved": 0, "type": "electric_scooter", "bike_id": "dbf80a6cb1b8536ff5da759a308dfe02", "is_disabled": 0, "rental_uris": {"android": "https://dc.lft.to/lastmile_qr_scan", "ios": "https://dc.lft.to/lastmile_qr_scan"}, "lon": -77.02250816666667, "fusion_lat": 0.0}, {"name": "2c6fc1397d62b9d887bab3cdfc2db61b", "fusion_lon": 0.0, "lat": 38.92226816666667, "is_reserved": 0, "type": "electric_scooter", "bike_id": "2c6fc1397d62b9d887bab3cdfc2db61b", "is_disabled": 0, "rental_uris": {"android": "https://dc.lft.to/lastmile_qr_scan", "ios": "https://dc.lft.to/lastmile_qr_scan"}, "lon": -77.04714883333334, "fusion_lat": 0.0}, {"name": "d11385e8061b9f1e8bc4819d8b4df541", "fusion_lon": 0.0, "lat": 38.86620933333333, "is_reserved": 0, "type": "electric_scooter", "bike_id": "d11385e8061b9f1e8bc4819d8b4df541", "is_disabled": 0, "rental_uris": {"android": "https://dc.lft.to/lastmile_qr_scan", "ios": "https://dc.lft.to/lastmile_qr_scan"}, "lon": -76.98229116666667, "fusion_lat": 0.0}, {"name": "f730bb39dc44a65cf4e7ae06114ba3c7", "fusion_lon": 0.0, "lat": 38.8861185, "is_reserved": 0, "type": "electric_scooter", "bike_id": "f730bb39dc44a65cf4e7ae06114ba3c7", "is_disabled": 0, "rental_uris": {"android": "https://dc.lft.to/lastmile_qr_scan", "ios": "https://dc.lft.to/lastmile_qr_scan"}, "lon": -77.00135766666666, "fusion_lat": 0.0}, {"name": "dcb9358edfad5d98ced7a7f0f3841444", "fusion_lon": 0.0, "lat": 38.958458, "is_reserved": 0, "type": "electric_scooter", "bike_id": "dcb9358edfad5d98ced7a7f0f3841444", "is_disabled": 0, "rental_uris": {"android": "https://dc.lft.to/lastmile_qr_scan", "ios": "https://dc.lft.to/lastmile_qr_scan"}, "lon": -77.02740566666667, "fusion_lat": 0.0}, {"name": "19df8efeabc662cdb1b45296e7b5f2ed", "fusion_lon": 0.0, "lat": 38.949807, "is_reserved": 0, "type": "electric_scooter", "bike_id": "19df8efeabc662cdb1b45296e7b5f2ed", "is_disabled": 0, "rental_uris": {"android": "https://dc.lft.to/lastmile_qr_scan", "ios": "https://dc.lft.to/lastmile_qr_scan"}, "lon": -77.02649616666666, "fusion_lat": 0.0}, {"name": "736fa54f34acc0c373b2edf803561b90", "fusion_lon": 0.0, "lat": 38.87658966666667, "is_reserved": 0, "type": "electric_scooter", "bike_id": "736fa54f34acc0c373b2edf803561b90", "is_disabled": 0, "rental_uris": {"android": "https://dc.lft.to/lastmile_qr_scan", "ios": "https://dc.lft.to/lastmile_qr_scan"}, "lon": -77.00431733333333, "fusion_lat": 0.0}, {"name": "5a769fbd4bbd34af08c9c73c736e2417", "fusion_lon": 0.0, "lat": 38.8236575, "is_reserved": 0, "type": "electric_bike", "bike_id": "5a769fbd4bbd34af08c9c73c736e2417", "is_disabled": 0, "rental_uris": {"android": "https://dc.lft.to/lastmile_qr_scan", "ios": "https://dc.lft.to/lastmile_qr_scan"}, "lon": -77.00217116666667, "fusion_lat": 0.0}, {"name": "5d835b5752ff70e449ef752f84b4b5d8", "fusion_lon": 0.0, "lat": 38.91812783333334, "is_reserved": 0, "type": "electric_scooter", "bike_id": "5d835b5752ff70e449ef752f84b4b5d8", "is_disabled": 0, "rental_uris": {"android": "https://dc.lft.to/lastmile_qr_scan", "ios": "https://dc.lft.to/lastmile_qr_scan"}, "lon": -77.03668033333334, "fusion_lat": 0.0}, {"name": "9bcf1d90de79a09e584147025d9cc063", "fusion_lon": 0.0, "lat": 38.85936016666667, "is_reserved": 0, "type": "electric_bike", "bike_id": "9bcf1d90de79a09e584147025d9cc063", "is_disabled": 0, "rental_uris": {"android": "https://dc.lft.to/lastmile_qr_scan", "ios": "https://dc.lft.to/lastmile_qr_scan"}, "lon": -77.11829, "fusion_lat": 0.0}, {"name": "d0567dac3d176dd8ad30304e45a72481", "fusion_lon": 0.0, "lat": 38.918690166666664, "is_reserved": 0, "type": "electric_scooter", "bike_id": "d0567dac3d176dd8ad30304e45a72481", "is_disabled": 0, "rental_uris": {"android": "https://dc.lft.to/lastmile_qr_scan", "ios": "https://dc.lft.to/lastmile_qr_scan"}, "lon": -77.04381766666667, "fusion_lat": 0.0}, {"name": "7ad26df7844faa6bc32ebe9eb6bbd647", "fusion_lon": 0.0, "lat": 38.91684933333333, "is_reserved": 0, "type": "electric_scooter", "bike_id": "7ad26df7844faa6bc32ebe9eb6bbd647", "is_disabled": 0, "rental_uris": {"android": "https://dc.lft.to/lastmile_qr_scan", "ios": "https://dc.lft.to/lastmile_qr_scan"}, "lon": -77.02695016666667, "fusion_lat": 0.0}, {"name": "f2a551ba1b993ac835413da2edebc7ac", "fusion_lon": 0.0, "lat": 38.915496, "is_reserved": 0, "type": "electric_scooter", "bike_id": "f2a551ba1b993ac835413da2edebc7ac", "is_disabled": 0, "rental_uris": {"android": "https://dc.lft.to/lastmile_qr_scan", "ios": "https://dc.lft.to/lastmile_qr_scan"}, "lon": -77.04123933333334, "fusion_lat": 0.0}, {"name": "41549cbf5dfd0d02c12cf8bc937bec00", "fusion_lon": 0.0, "lat": 38.922580833333335, "is_reserved": 0, "type": "electric_scooter", "bike_id": "41549cbf5dfd0d02c12cf8bc937bec00", "is_disabled": 0, "rental_uris": {"android": "https://dc.lft.to/lastmile_qr_scan", "ios": "https://dc.lft.to/lastmile_qr_scan"}, "lon": -77.0732695, "fusion_lat": 0.0}, {"name": "88119efe787a6466e6f45b32cfe376b7", "fusion_lon": 0.0, "lat": 38.9176905, "is_reserved": 0, "type": "electric_scooter", "bike_id": "88119efe787a6466e6f45b32cfe376b7", "is_disabled": 0, "rental_uris": {"android": "https://dc.lft.to/lastmile_qr_scan", "ios": "https://dc.lft.to/lastmile_qr_scan"}, "lon": -77.04061766666666, "fusion_lat": 0.0}, {"name": "b8f5f4ff9465bd3eefdbaeb2a3a5faa0", "fusion_lon": 0.0, "lat": 38.958708333333334, "is_reserved": 0, "type": "electric_bike", "bike_id": "b8f5f4ff9465bd3eefdbaeb2a3a5faa0", "is_disabled": 0, "rental_uris": {"android": "https://dc.lft.to/lastmile_qr_scan", "ios": "https://dc.lft.to/lastmile_qr_scan"}, "lon": -77.00139266666666, "fusion_lat": 0.0}, {"name": "5a908c654c54fb242cebede6ea19067a", "fusion_lon": 0.0, "lat": 38.8618795, "is_reserved": 0, "type": "electric_scooter", "bike_id": "5a908c654c54fb242cebede6ea19067a", "is_disabled": 0, "rental_uris": {"android": "https://dc.lft.to/lastmile_qr_scan", "ios": "https://dc.lft.to/lastmile_qr_scan"}, "lon": -77.08832566666666, "fusion_lat": 0.0}, {"name": "052dee2d56246797f6fca547b084788d", "fusion_lon": 0.0, "lat": 38.932278833333335, "is_reserved": 0, "type": "electric_bike", "bike_id": "052dee2d56246797f6fca547b084788d", "is_disabled": 0, "rental_uris": {"android": "https://dc.lft.to/lastmile_qr_scan", "ios": "https://dc.lft.to/lastmile_qr_scan"}, "lon": -77.18121783333333, "fusion_lat": 0.0}, {"name": "3aaa466823f520d7bbb52965105022bc", "fusion_lon": 0.0, "lat": 38.896069, "is_reserved": 0, "type": "electric_scooter", "bike_id": "3aaa466823f520d7bbb52965105022bc", "is_disabled": 0, "rental_uris": {"android": "https://dc.lft.to/lastmile_qr_scan", "ios": "https://dc.lft.to/lastmile_qr_scan"}, "lon": -77.05440066666667, "fusion_lat": 0.0}, {"name": "a8b72d2f09abfe805e824e482e6141f7", "fusion_lon": 0.0, "lat": 38.913174, "is_reserved": 0, "type": "electric_scooter", "bike_id": "a8b72d2f09abfe805e824e482e6141f7", "is_disabled": 0, "rental_uris": {"android": "https://dc.lft.to/lastmile_qr_scan", "ios": "https://dc.lft.to/lastmile_qr_scan"}, "lon": -77.06250133333333, "fusion_lat": 0.0}, {"name": "141003067bf99cefd69befb74bdb5f63", "fusion_lon": 0.0, "lat": 38.876321833333336, "is_reserved": 0, "type": "electric_scooter", "bike_id": "141003067bf99cefd69befb74bdb5f63", "is_disabled": 0, "rental_uris": {"android": "https://dc.lft.to/lastmile_qr_scan", "ios": "https://dc.lft.to/lastmile_qr_scan"}, "lon": -77.004597, "fusion_lat": 0.0}, {"name": "fbfda0a8760ceb881727a2a651a3d29d", "fusion_lon": 0.0, "lat": 38.95191, "is_reserved": 0, "type": "electric_scooter", "bike_id": "fbfda0a8760ceb881727a2a651a3d29d", "is_disabled": 0, "rental_uris": {"android": "https://dc.lft.to/lastmile_qr_scan", "ios": "https://dc.lft.to/lastmile_qr_scan"}, "lon": -77.02610783333333, "fusion_lat": 0.0}, {"name": "9189c6b948f1f92d03ee88be75e623ae", "fusion_lon": 0.0, "lat": 38.918373333333335, "is_reserved": 0, "type": "electric_scooter", "bike_id": "9189c6b948f1f92d03ee88be75e623ae", "is_disabled": 0, "rental_uris": {"android": "https://dc.lft.to/lastmile_qr_scan", "ios": "https://dc.lft.to/lastmile_qr_scan"}, "lon": -77.0595225, "fusion_lat": 0.0}, {"name": "fffaa2f3948f2968a1be642a5ea331ad", "fusion_lon": 0.0, "lat": 38.878558, "is_reserved": 0, "type": "electric_bike", "bike_id": "fffaa2f3948f2968a1be642a5ea331ad", "is_disabled": 0, "rental_uris": {"android": "https://dc.lft.to/lastmile_qr_scan", "ios": "https://dc.lft.to/lastmile_qr_scan"}, "lon": -77.01771116666667, "fusion_lat": 0.0}, {"name": "408b8c8a11c4800d3582395fcde6ccc1", "fusion_lon": 0.0, "lat": 39.000311333333336, "is_reserved": 0, "type": "electric_bike", "bike_id": "408b8c8a11c4800d3582395fcde6ccc1", "is_disabled": 0, "rental_uris": {"android": "https://dc.lft.to/lastmile_qr_scan", "ios": "https://dc.lft.to/lastmile_qr_scan"}, "lon": -77.04744816666667, "fusion_lat": 0.0}, {"name": "26bb2e6f3d19a407f24549c381b15614", "fusion_lon": 0.0, "lat": 38.878195166666664, "is_reserved": 0, "type": "electric_scooter", "bike_id": "26bb2e6f3d19a407f24549c381b15614", "is_disabled": 0, "rental_uris": {"android": "https://dc.lft.to/lastmile_qr_scan", "ios": "https://dc.lft.to/lastmile_qr_scan"}, "lon": -76.93100616666666, "fusion_lat": 0.0}, {"name": "790e5ca3e07d23d628e863641d2954d5", "fusion_lon": 0.0, "lat": 38.904076, "is_reserved": 0, "type": "electric_scooter", "bike_id": "790e5ca3e07d23d628e863641d2954d5", "is_disabled": 0, "rental_uris": {"android": "https://dc.lft.to/lastmile_qr_scan", "ios": "https://dc.lft.to/lastmile_qr_scan"}, "lon": -76.973271, "fusion_lat": 0.0}, {"name": "71fb101c93a5ad3832b1e3f32cdacd6c", "fusion_lon": 0.0, "lat": 38.87295816666666, "is_reserved": 0, "type": "electric_bike", "bike_id": "71fb101c93a5ad3832b1e3f32cdacd6c", "is_disabled": 0, "rental_uris": {"android": "https://dc.lft.to/lastmile_qr_scan", "ios": "https://dc.lft.to/lastmile_qr_scan"}, "lon": -76.96977183333334, "fusion_lat": 0.0}, {"name": "5706948614e94c4c5e1891935a0d78de", "fusion_lon": 0.0, "lat": 38.9151835, "is_reserved": 0, "type": "electric_scooter", "bike_id": "5706948614e94c4c5e1891935a0d78de", "is_disabled": 0, "rental_uris": {"android": "https://dc.lft.to/lastmile_qr_scan", "ios": "https://dc.lft.to/lastmile_qr_scan"}, "lon": -77.01227433333334, "fusion_lat": 0.0}, {"name": "473bfc5850d2ec31c3efdfc4889ccb43", "fusion_lon": 0.0, "lat": 38.971826, "is_reserved": 0, "type": "electric_scooter", "bike_id": "473bfc5850d2ec31c3efdfc4889ccb43", "is_disabled": 0, "rental_uris": {"android": "https://dc.lft.to/lastmile_qr_scan", "ios": "https://dc.lft.to/lastmile_qr_scan"}, "lon": -77.02689433333333, "fusion_lat": 0.0}, {"name": "5b7a9fca4ce0ace29ad65d96691922a4", "fusion_lon": 0.0, "lat": 38.92120533333333, "is_reserved": 0, "type": "electric_scooter", "bike_id": "5b7a9fca4ce0ace29ad65d96691922a4", "is_disabled": 0, "rental_uris": {"android": "https://dc.lft.to/lastmile_qr_scan", "ios": "https://dc.lft.to/lastmile_qr_scan"}, "lon": -77.03654316666666, "fusion_lat": 0.0}, {"name": "5e0961d0cac2da92cab3c111d451e4d4", "fusion_lon": 0.0, "lat": 38.949912166666664, "is_reserved": 0, "type": "electric_scooter", "bike_id": "5e0961d0cac2da92cab3c111d451e4d4", "is_disabled": 0, "rental_uris": {"android": "https://dc.lft.to/lastmile_qr_scan", "ios": "https://dc.lft.to/lastmile_qr_scan"}, "lon": -77.02700683333333, "fusion_lat": 0.0}, {"name": "e1e0a21b8e7b9cf7f3bec6f99635d6b5", "fusion_lon": 0.0, "lat": 38.911195, "is_reserved": 0, "type": "electric_scooter", "bike_id": "e1e0a21b8e7b9cf7f3bec6f99635d6b5", "is_disabled": 0, "rental_uris": {"android": "https://dc.lft.to/lastmile_qr_scan", "ios": "https://dc.lft.to/lastmile_qr_scan"}, "lon": -77.02242333333334, "fusion_lat": 0.0}, {"name": "0913205da98be1adbbed3ce81980efa1", "fusion_lon": 0.0, "lat": 38.883897166666664, "is_reserved": 0, "type": "electric_scooter", "bike_id": "0913205da98be1adbbed3ce81980efa1", "is_disabled": 0, "rental_uris": {"android": "https://dc.lft.to/lastmile_qr_scan", "ios": "https://dc.lft.to/lastmile_qr_scan"}, "lon": -77.02592566666667, "fusion_lat": 0.0}, {"name": "38323a50a3cedad6dd0a5829e93b63bb", "fusion_lon": 0.0, "lat": 38.936428166666666, "is_reserved": 0, "type": "electric_bike", "bike_id": "38323a50a3cedad6dd0a5829e93b63bb", "is_disabled": 0, "rental_uris": {"android": "https://dc.lft.to/lastmile_qr_scan", "ios": "https://dc.lft.to/lastmile_qr_scan"}, "lon": -77.0901395, "fusion_lat": 0.0}, {"name": "e6bd22afe2c027178747d810ca2213e8", "fusion_lon": 0.0, "lat": 38.9108485, "is_reserved": 0, "type": "electric_scooter", "bike_id": "e6bd22afe2c027178747d810ca2213e8", "is_disabled": 0, "rental_uris": {"android": "https://dc.lft.to/lastmile_qr_scan", "ios": "https://dc.lft.to/lastmile_qr_scan"}, "lon": -76.992708, "fusion_lat": 0.0}, {"name": "be426b9aacc7ca2744bfa0af86d3e3b6", "fusion_lon": 0.0, "lat": 38.883982833333334, "is_reserved": 0, "type": "electric_scooter", "bike_id": "be426b9aacc7ca2744bfa0af86d3e3b6", "is_disabled": 0, "rental_uris": {"android": "https://dc.lft.to/lastmile_qr_scan", "ios": "https://dc.lft.to/lastmile_qr_scan"}, "lon": -76.93039466666667, "fusion_lat": 0.0}, {"name": "22fc86818ce35f25c6aa1e7e1a5b33e6", "fusion_lon": 0.0, "lat": 38.94516933333333, "is_reserved": 0, "type": "electric_bike", "bike_id": "22fc86818ce35f25c6aa1e7e1a5b33e6", "is_disabled": 0, "rental_uris": {"android": "https://dc.lft.to/lastmile_qr_scan", "ios": "https://dc.lft.to/lastmile_qr_scan"}, "lon": -77.00676866666667, "fusion_lat": 0.0}, {"name": "aa278e4b2ba55bd4eeae646ee1820b7d", "fusion_lon": 0.0, "lat": 38.83141466666667, "is_reserved": 0, "type": "electric_scooter", "bike_id": "aa278e4b2ba55bd4eeae646ee1820b7d", "is_disabled": 0, "rental_uris": {"android": "https://dc.lft.to/lastmile_qr_scan", "ios": "https://dc.lft.to/lastmile_qr_scan"}, "lon": -77.0511705, "fusion_lat": 0.0}, {"name": "31c64cb3b10366437f1d6c1ed136244a", "fusion_lon": 0.0, "lat": 38.92892033333333, "is_reserved": 0, "type": "electric_scooter", "bike_id": "31c64cb3b10366437f1d6c1ed136244a", "is_disabled": 0, "rental_uris": {"android": "https://dc.lft.to/lastmile_qr_scan", "ios": "https://dc.lft.to/lastmile_qr_scan"}, "lon": -77.026132, "fusion_lat": 0.0}, {"name": "3816d360e8dfe56f118805543c0a5576", "fusion_lon": 0.0, "lat": 38.928409333333335, "is_reserved": 0, "type": "electric_bike", "bike_id": "3816d360e8dfe56f118805543c0a5576", "is_disabled": 0, "rental_uris": {"android": "https://dc.lft.to/lastmile_qr_scan", "ios": "https://dc.lft.to/lastmile_qr_scan"}, "lon": -77.05514516666666, "fusion_lat": 0.0}, {"name": "67c03202756aed628626d05265d58ff3", "fusion_lon": 0.0, "lat": 38.928319, "is_reserved": 0, "type": "electric_scooter", "bike_id": "67c03202756aed628626d05265d58ff3", "is_disabled": 0, "rental_uris": {"android": "https://dc.lft.to/lastmile_qr_scan", "ios": "https://dc.lft.to/lastmile_qr_scan"}, "lon": -77.01421416666666, "fusion_lat": 0.0}, {"name": "b6a4690298ae9deaa79a1875675c467a", "fusion_lon": 0.0, "lat": 38.87921983333333, "is_reserved": 0, "type": "electric_scooter", "bike_id": "b6a4690298ae9deaa79a1875675c467a", "is_disabled": 0, "rental_uris": {"android": "https://dc.lft.to/lastmile_qr_scan", "ios": "https://dc.lft.to/lastmile_qr_scan"}, "lon": -77.00535566666667, "fusion_lat": 0.0}, {"name": "c9c4c705ddcd3c58e746cca2ff5f2be8", "fusion_lon": 0.0, "lat": 38.80114316666667, "is_reserved": 0, "type": "electric_bike", "bike_id": "c9c4c705ddcd3c58e746cca2ff5f2be8", "is_disabled": 0, "rental_uris": {"android": "https://dc.lft.to/lastmile_qr_scan", "ios": "https://dc.lft.to/lastmile_qr_scan"}, "lon": -77.07054816666667, "fusion_lat": 0.0}, {"name": "4d5e8e5dbc93296a96b31c7d8ac11f5c", "fusion_lon": 0.0, "lat": 38.9154305, "is_reserved": 0, "type": "electric_scooter", "bike_id": "4d5e8e5dbc93296a96b31c7d8ac11f5c", "is_disabled": 0, "rental_uris": {"android": "https://dc.lft.to/lastmile_qr_scan", "ios": "https://dc.lft.to/lastmile_qr_scan"}, "lon": -77.0385135, "fusion_lat": 0.0}, {"name": "9b48134b8df59577e221895a2a9bfe51", "fusion_lon": 0.0, "lat": 38.90125833333333, "is_reserved": 0, "type": "electric_scooter", "bike_id": "9b48134b8df59577e221895a2a9bfe51", "is_disabled": 0, "rental_uris": {"android": "https://dc.lft.to/lastmile_qr_scan", "ios": "https://dc.lft.to/lastmile_qr_scan"}, "lon": -77.041948, "fusion_lat": 0.0}, {"name": "bad5b543f898e36fb0d9c4c5b3ac23ee", "fusion_lon": 0.0, "lat": 38.879356, "is_reserved": 0, "type": "electric_scooter", "bike_id": "bad5b543f898e36fb0d9c4c5b3ac23ee", "is_disabled": 0, "rental_uris": {"android": "https://dc.lft.to/lastmile_qr_scan", "ios": "https://dc.lft.to/lastmile_qr_scan"}, "lon": -77.0006395, "fusion_lat": 0.0}, {"name": "4766254c3da9aadc6fab5a0f1ed3dd37", "fusion_lon": 0.0, "lat": 38.905947, "is_reserved": 0, "type": "electric_scooter", "bike_id": "4766254c3da9aadc6fab5a0f1ed3dd37", "is_disabled": 0, "rental_uris": {"android": "https://dc.lft.to/lastmile_qr_scan", "ios": "https://dc.lft.to/lastmile_qr_scan"}, "lon": -77.04111383333333, "fusion_lat": 0.0}, {"name": "57b12d5cd40d74b8dc7c1b1b3b951882", "fusion_lon": 0.0, "lat": 38.863886, "is_reserved": 0, "type": "electric_scooter", "bike_id": "57b12d5cd40d74b8dc7c1b1b3b951882", "is_disabled": 0, "rental_uris": {"android": "https://dc.lft.to/lastmile_qr_scan", "ios": "https://dc.lft.to/lastmile_qr_scan"}, "lon": -76.99045116666667, "fusion_lat": 0.0}, {"name": "6a98eb1a411c9460794458517116bb5a", "fusion_lon": 0.0, "lat": 38.9055745, "is_reserved": 0, "type": "electric_scooter", "bike_id": "6a98eb1a411c9460794458517116bb5a", "is_disabled": 0, "rental_uris": {"android": "https://dc.lft.to/lastmile_qr_scan", "ios": "https://dc.lft.to/lastmile_qr_scan"}, "lon": -77.005838, "fusion_lat": 0.0}, {"name": "a04c1f8d843e1b72fe6e5f7dc67a1623", "fusion_lon": 0.0, "lat": 38.92413066666667, "is_reserved": 0, "type": "electric_scooter", "bike_id": "a04c1f8d843e1b72fe6e5f7dc67a1623", "is_disabled": 0, "rental_uris": {"android": "https://dc.lft.to/lastmile_qr_scan", "ios": "https://dc.lft.to/lastmile_qr_scan"}, "lon": -77.01950616666667, "fusion_lat": 0.0}, {"name": "1cfa06cde8a22971745ac7bb08ffea26", "fusion_lon": 0.0, "lat": 38.9245315, "is_reserved": 0, "type": "electric_scooter", "bike_id": "1cfa06cde8a22971745ac7bb08ffea26", "is_disabled": 0, "rental_uris": {"android": "https://dc.lft.to/lastmile_qr_scan", "ios": "https://dc.lft.to/lastmile_qr_scan"}, "lon": -77.04001583333333, "fusion_lat": 0.0}, {"name": "027dfa4e173ee0e4b16d0388ed1d1c2c", "fusion_lon": 0.0, "lat": 38.89383133333333, "is_reserved": 0, "type": "electric_scooter", "bike_id": "027dfa4e173ee0e4b16d0388ed1d1c2c", "is_disabled": 0, "rental_uris": {"android": "https://dc.lft.to/lastmile_qr_scan", "ios": "https://dc.lft.to/lastmile_qr_scan"}, "lon": -77.0317065, "fusion_lat": 0.0}, {"name": "e63fcd19af791dd728b3bd7be287f454", "fusion_lon": 0.0, "lat": 38.8946055, "is_reserved": 0, "type": "electric_scooter", "bike_id": "e63fcd19af791dd728b3bd7be287f454", "is_disabled": 0, "rental_uris": {"android": "https://dc.lft.to/lastmile_qr_scan", "ios": "https://dc.lft.to/lastmile_qr_scan"}, "lon": -77.02797883333334, "fusion_lat": 0.0}, {"name": "b336dea9a8e58906d065f68435e94b2b", "fusion_lon": 0.0, "lat": 38.905351833333334, "is_reserved": 0, "type": "electric_scooter", "bike_id": "b336dea9a8e58906d065f68435e94b2b", "is_disabled": 0, "rental_uris": {"android": "https://dc.lft.to/lastmile_qr_scan", "ios": "https://dc.lft.to/lastmile_qr_scan"}, "lon": -76.98111, "fusion_lat": 0.0}, {"name": "ed2d543867ada2c77ca661fb9894fe0b", "fusion_lon": 0.0, "lat": 38.91884566666667, "is_reserved": 0, "type": "electric_scooter", "bike_id": "ed2d543867ada2c77ca661fb9894fe0b", "is_disabled": 0, "rental_uris": {"android": "https://dc.lft.to/lastmile_qr_scan", "ios": "https://dc.lft.to/lastmile_qr_scan"}, "lon": -77.03486816666667, "fusion_lat": 0.0}, {"name": "ecf236134fdf3136548625a0b816a8e8", "fusion_lon": 0.0, "lat": 38.860558166666664, "is_reserved": 0, "type": "electric_scooter", "bike_id": "ecf236134fdf3136548625a0b816a8e8", "is_disabled": 0, "rental_uris": {"android": "https://dc.lft.to/lastmile_qr_scan", "ios": "https://dc.lft.to/lastmile_qr_scan"}, "lon": -76.98422116666667, "fusion_lat": 0.0}, {"name": "30b3fcd9ec3a2f069373031798c99f9b", "fusion_lon": 0.0, "lat": 38.86241833333333, "is_reserved": 0, "type": "electric_scooter", "bike_id": "30b3fcd9ec3a2f069373031798c99f9b", "is_disabled": 0, "rental_uris": {"android": "https://dc.lft.to/lastmile_qr_scan", "ios": "https://dc.lft.to/lastmile_qr_scan"}, "lon": -76.99492716666667, "fusion_lat": 0.0}, {"name": "79150768e7612b6806efe1e46e956e01", "fusion_lon": 0.0, "lat": 38.87634466666667, "is_reserved": 0, "type": "electric_scooter", "bike_id": "79150768e7612b6806efe1e46e956e01", "is_disabled": 0, "rental_uris": {"android": "https://dc.lft.to/lastmile_qr_scan", "ios": "https://dc.lft.to/lastmile_qr_scan"}, "lon": -77.00457833333333, "fusion_lat": 0.0}, {"name": "a0169600779f1b3250a023d7389f295c", "fusion_lon": 0.0, "lat": 38.875722833333334, "is_reserved": 0, "type": "electric_scooter", "bike_id": "a0169600779f1b3250a023d7389f295c", "is_disabled": 0, "rental_uris": {"android": "https://dc.lft.to/lastmile_qr_scan", "ios": "https://dc.lft.to/lastmile_qr_scan"}, "lon": -77.0059545, "fusion_lat": 0.0}, {"name": "3407cd44121c5fc618d360245959d7c6", "fusion_lon": 0.0, "lat": 38.8995895, "is_reserved": 0, "type": "electric_scooter", "bike_id": "3407cd44121c5fc618d360245959d7c6", "is_disabled": 0, "rental_uris": {"android": "https://dc.lft.to/lastmile_qr_scan", "ios": "https://dc.lft.to/lastmile_qr_scan"}, "lon": -77.0163065, "fusion_lat": 0.0}, {"name": "1460c913f3f128d54ff870611a8e401e", "fusion_lon": 0.0, "lat": 38.9310025, "is_reserved": 0, "type": "electric_scooter", "bike_id": "1460c913f3f128d54ff870611a8e401e", "is_disabled": 0, "rental_uris": {"android": "https://dc.lft.to/lastmile_qr_scan", "ios": "https://dc.lft.to/lastmile_qr_scan"}, "lon": -77.03433833333334, "fusion_lat": 0.0}, {"name": "8ab39360300df15ec2511d8da69817a0", "fusion_lon": 0.0, "lat": 38.9168375, "is_reserved": 0, "type": "electric_scooter", "bike_id": "8ab39360300df15ec2511d8da69817a0", "is_disabled": 0, "rental_uris": {"android": "https://dc.lft.to/lastmile_qr_scan", "ios": "https://dc.lft.to/lastmile_qr_scan"}, "lon": -77.0252485, "fusion_lat": 0.0}, {"name": "b51490f654939e9e8cc40d0c541bcbb9", "fusion_lon": 0.0, "lat": 38.893550833333336, "is_reserved": 0, "type": "electric_scooter", "bike_id": "b51490f654939e9e8cc40d0c541bcbb9", "is_disabled": 0, "rental_uris": {"android": "https://dc.lft.to/lastmile_qr_scan", "ios": "https://dc.lft.to/lastmile_qr_scan"}, "lon": -77.00329733333334, "fusion_lat": 0.0}, {"name": "6edef9a275e19951d7c22806c32796d3", "fusion_lon": 0.0, "lat": 38.913818666666664, "is_reserved": 0, "type": "electric_scooter", "bike_id": "6edef9a275e19951d7c22806c32796d3", "is_disabled": 0, "rental_uris": {"android": "https://dc.lft.to/lastmile_qr_scan", "ios": "https://dc.lft.to/lastmile_qr_scan"}, "lon": -77.03652016666666, "fusion_lat": 0.0}, {"name": "237fd347e57e3a86e3342c7e95a7e6ba", "fusion_lon": 0.0, "lat": 38.925407666666665, "is_reserved": 0, "type": "electric_bike", "bike_id": "237fd347e57e3a86e3342c7e95a7e6ba", "is_disabled": 0, "rental_uris": {"android": "https://dc.lft.to/lastmile_qr_scan", "ios": "https://dc.lft.to/lastmile_qr_scan"}, "lon": -77.00127166666667, "fusion_lat": 0.0}, {"name": "2ac7a736238f9d4a9cc0a79b67b2fc84", "fusion_lon": 0.0, "lat": 38.908470666666666, "is_reserved": 0, "type": "electric_bike", "bike_id": "2ac7a736238f9d4a9cc0a79b67b2fc84", "is_disabled": 0, "rental_uris": {"android": "https://dc.lft.to/lastmile_qr_scan", "ios": "https://dc.lft.to/lastmile_qr_scan"}, "lon": -77.02711383333333, "fusion_lat": 0.0}, {"name": "4da9fecd8b5966336e009cbdda2ef0fd", "fusion_lon": 0.0, "lat": 38.89972383333333, "is_reserved": 0, "type": "electric_bike", "bike_id": "4da9fecd8b5966336e009cbdda2ef0fd", "is_disabled": 0, "rental_uris": {"android": "https://dc.lft.to/lastmile_qr_scan", "ios": "https://dc.lft.to/lastmile_qr_scan"}, "lon": -76.986683, "fusion_lat": 0.0}, {"name": "6fcfeb88f371dfce4cc25a33b1bab5e9", "fusion_lon": 0.0, "lat": 38.858914166666665, "is_reserved": 0, "type": "electric_scooter", "bike_id": "6fcfeb88f371dfce4cc25a33b1bab5e9", "is_disabled": 0, "rental_uris": {"android": "https://dc.lft.to/lastmile_qr_scan", "ios": "https://dc.lft.to/lastmile_qr_scan"}, "lon": -76.99733216666667, "fusion_lat": 0.0}, {"name": "64840d0cc1aa8f4b011a9948c058dd26", "fusion_lon": 0.0, "lat": 38.904290333333336, "is_reserved": 0, "type": "electric_scooter", "bike_id": "64840d0cc1aa8f4b011a9948c058dd26", "is_disabled": 0, "rental_uris": {"android": "https://dc.lft.to/lastmile_qr_scan", "ios": "https://dc.lft.to/lastmile_qr_scan"}, "lon": -76.97907366666666, "fusion_lat": 0.0}, {"name": "2f54321d4272173636d747266ab013e2", "fusion_lon": 0.0, "lat": 38.929367666666664, "is_reserved": 0, "type": "electric_scooter", "bike_id": "2f54321d4272173636d747266ab013e2", "is_disabled": 0, "rental_uris": {"android": "https://dc.lft.to/lastmile_qr_scan", "ios": "https://dc.lft.to/lastmile_qr_scan"}, "lon": -77.01991116666666, "fusion_lat": 0.0}, {"name": "a72bdf60f06b00c88a4fd0bacd7a7ab2", "fusion_lon": 0.0, "lat": 38.916347333333334, "is_reserved": 0, "type": "electric_scooter", "bike_id": "a72bdf60f06b00c88a4fd0bacd7a7ab2", "is_disabled": 0, "rental_uris": {"android": "https://dc.lft.to/lastmile_qr_scan", "ios": "https://dc.lft.to/lastmile_qr_scan"}, "lon": -77.0398405, "fusion_lat": 0.0}, {"name": "ae4d0450c9ee6e16df3718a61c915045", "fusion_lon": 0.0, "lat": 38.9305005, "is_reserved": 0, "type": "electric_scooter", "bike_id": "ae4d0450c9ee6e16df3718a61c915045", "is_disabled": 0, "rental_uris": {"android": "https://dc.lft.to/lastmile_qr_scan", "ios": "https://dc.lft.to/lastmile_qr_scan"}, "lon": -77.03231616666666, "fusion_lat": 0.0}, {"name": "843390ef019ab7d7acfde3180e29b9dc", "fusion_lon": 0.0, "lat": 38.9095525, "is_reserved": 0, "type": "electric_scooter", "bike_id": "843390ef019ab7d7acfde3180e29b9dc", "is_disabled": 0, "rental_uris": {"android": "https://dc.lft.to/lastmile_qr_scan", "ios": "https://dc.lft.to/lastmile_qr_scan"}, "lon": -77.0118245, "fusion_lat": 0.0}, {"name": "9786197b5b0be317c51bb65891281b8f", "fusion_lon": 0.0, "lat": 38.8931295, "is_reserved": 0, "type": "electric_scooter", "bike_id": "9786197b5b0be317c51bb65891281b8f", "is_disabled": 0, "rental_uris": {"android": "https://dc.lft.to/lastmile_qr_scan", "ios": "https://dc.lft.to/lastmile_qr_scan"}, "lon": -77.012005, "fusion_lat": 0.0}, {"name": "50915d7a2f7210b1288e033464a50cd1", "fusion_lon": 0.0, "lat": 38.899151, "is_reserved": 0, "type": "electric_scooter", "bike_id": "50915d7a2f7210b1288e033464a50cd1", "is_disabled": 0, "rental_uris": {"android": "https://dc.lft.to/lastmile_qr_scan", "ios": "https://dc.lft.to/lastmile_qr_scan"}, "lon": -76.95066383333334, "fusion_lat": 0.0}, {"name": "bac762187c8309e82c06d0549e8feb79", "fusion_lon": 0.0, "lat": 38.9617725, "is_reserved": 0, "type": "electric_bike", "bike_id": "bac762187c8309e82c06d0549e8feb79", "is_disabled": 0, "rental_uris": {"android": "https://dc.lft.to/lastmile_qr_scan", "ios": "https://dc.lft.to/lastmile_qr_scan"}, "lon": -77.073955, "fusion_lat": 0.0}, {"name": "8c89461cef51ff8d8dfcb80705621da9", "fusion_lon": 0.0, "lat": 38.9155655, "is_reserved": 0, "type": "electric_scooter", "bike_id": "8c89461cef51ff8d8dfcb80705621da9", "is_disabled": 0, "rental_uris": {"android": "https://dc.lft.to/lastmile_qr_scan", "ios": "https://dc.lft.to/lastmile_qr_scan"}, "lon": -77.05316266666667, "fusion_lat": 0.0}, {"name": "a72b42b71f7e603e1376a0259ba8acd7", "fusion_lon": 0.0, "lat": 38.926079666666666, "is_reserved": 0, "type": "electric_scooter", "bike_id": "a72b42b71f7e603e1376a0259ba8acd7", "is_disabled": 0, "rental_uris": {"android": "https://dc.lft.to/lastmile_qr_scan", "ios": "https://dc.lft.to/lastmile_qr_scan"}, "lon": -77.0241445, "fusion_lat": 0.0}, {"name": "fd9ac66f0125fe3637e575c16e56fda1", "fusion_lon": 0.0, "lat": 38.90011466666667, "is_reserved": 0, "type": "electric_scooter", "bike_id": "fd9ac66f0125fe3637e575c16e56fda1", "is_disabled": 0, "rental_uris": {"android": "https://dc.lft.to/lastmile_qr_scan", "ios": "https://dc.lft.to/lastmile_qr_scan"}, "lon": -76.93030766666666, "fusion_lat": 0.0}, {"name": "fa7bc2b238ecca017525f8b54534c9e9", "fusion_lon": 0.0, "lat": 38.92022733333334, "is_reserved": 0, "type": "electric_scooter", "bike_id": "fa7bc2b238ecca017525f8b54534c9e9", "is_disabled": 0, "rental_uris": {"android": "https://dc.lft.to/lastmile_qr_scan", "ios": "https://dc.lft.to/lastmile_qr_scan"}, "lon": -77.01123133333333, "fusion_lat": 0.0}, {"name": "850a348a0aa78bfd68e8470fad403faf", "fusion_lon": 0.0, "lat": 38.87609666666667, "is_reserved": 0, "type": "electric_scooter", "bike_id": "850a348a0aa78bfd68e8470fad403faf", "is_disabled": 0, "rental_uris": {"android": "https://dc.lft.to/lastmile_qr_scan", "ios": "https://dc.lft.to/lastmile_qr_scan"}, "lon": -77.00091183333333, "fusion_lat": 0.0}, {"name": "64bff48ecf6163002c7c9ad2803a3a45", "fusion_lon": 0.0, "lat": 38.93393533333333, "is_reserved": 0, "type": "electric_scooter", "bike_id": "64bff48ecf6163002c7c9ad2803a3a45", "is_disabled": 0, "rental_uris": {"android": "https://dc.lft.to/lastmile_qr_scan", "ios": "https://dc.lft.to/lastmile_qr_scan"}, "lon": -77.02328216666666, "fusion_lat": 0.0}, {"name": "8576be045628455b4453fe5c4ae44155", "fusion_lon": 0.0, "lat": 38.930017166666666, "is_reserved": 0, "type": "electric_scooter", "bike_id": "8576be045628455b4453fe5c4ae44155", "is_disabled": 0, "rental_uris": {"android": "https://dc.lft.to/lastmile_qr_scan", "ios": "https://dc.lft.to/lastmile_qr_scan"}, "lon": -77.03800416666667, "fusion_lat": 0.0}, {"name": "21357fc5157b9eb307de0df81026ad5b", "fusion_lon": 0.0, "lat": 38.92762416666667, "is_reserved": 0, "type": "electric_scooter", "bike_id": "21357fc5157b9eb307de0df81026ad5b", "is_disabled": 0, "rental_uris": {"android": "https://dc.lft.to/lastmile_qr_scan", "ios": "https://dc.lft.to/lastmile_qr_scan"}, "lon": -77.02785, "fusion_lat": 0.0}, {"name": "92edf291e4efa8f478ff315be801a1f4", "fusion_lon": 0.0, "lat": 38.87924616666667, "is_reserved": 0, "type": "electric_scooter", "bike_id": "92edf291e4efa8f478ff315be801a1f4", "is_disabled": 0, "rental_uris": {"android": "https://dc.lft.to/lastmile_qr_scan", "ios": "https://dc.lft.to/lastmile_qr_scan"}, "lon": -77.00537633333333, "fusion_lat": 0.0}, {"name": "11d41730e0785f6adcb15e2f2e2c415d", "fusion_lon": 0.0, "lat": 38.904764, "is_reserved": 0, "type": "electric_bike", "bike_id": "11d41730e0785f6adcb15e2f2e2c415d", "is_disabled": 0, "rental_uris": {"android": "https://dc.lft.to/lastmile_qr_scan", "ios": "https://dc.lft.to/lastmile_qr_scan"}, "lon": -76.973248, "fusion_lat": 0.0}, {"name": "a55dea9b2848c9dfaed9e67d2e111249", "fusion_lon": 0.0, "lat": 38.924603833333336, "is_reserved": 0, "type": "electric_scooter", "bike_id": "a55dea9b2848c9dfaed9e67d2e111249", "is_disabled": 0, "rental_uris": {"android": "https://dc.lft.to/lastmile_qr_scan", "ios": "https://dc.lft.to/lastmile_qr_scan"}, "lon": -77.081648, "fusion_lat": 0.0}, {"name": "58632a3f418e415fda3610f8c10d0ce6", "fusion_lon": 0.0, "lat": 38.924291333333336, "is_reserved": 0, "type": "electric_scooter", "bike_id": "58632a3f418e415fda3610f8c10d0ce6", "is_disabled": 0, "rental_uris": {"android": "https://dc.lft.to/lastmile_qr_scan", "ios": "https://dc.lft.to/lastmile_qr_scan"}, "lon": -77.0424405, "fusion_lat": 0.0}, {"name": "18942b55070d8f698170c7baf445e80e", "fusion_lon": 0.0, "lat": 38.92538066666667, "is_reserved": 0, "type": "electric_scooter", "bike_id": "18942b55070d8f698170c7baf445e80e", "is_disabled": 0, "rental_uris": {"android": "https://dc.lft.to/lastmile_qr_scan", "ios": "https://dc.lft.to/lastmile_qr_scan"}, "lon": -76.972193, "fusion_lat": 0.0}, {"name": "9cd02b232e8f25a2e9dafd6c071e6324", "fusion_lon": 0.0, "lat": 38.92232516666667, "is_reserved": 0, "type": "electric_scooter", "bike_id": "9cd02b232e8f25a2e9dafd6c071e6324", "is_disabled": 0, "rental_uris": {"android": "https://dc.lft.to/lastmile_qr_scan", "ios": "https://dc.lft.to/lastmile_qr_scan"}, "lon": -77.03517766666667, "fusion_lat": 0.0}, {"name": "022bd4c7723be5ff9c8d05ecf1d2d89f", "fusion_lon": 0.0, "lat": 38.92617166666667, "is_reserved": 0, "type": "electric_scooter", "bike_id": "022bd4c7723be5ff9c8d05ecf1d2d89f", "is_disabled": 0, "rental_uris": {"android": "https://dc.lft.to/lastmile_qr_scan", "ios": "https://dc.lft.to/lastmile_qr_scan"}, "lon": -77.0432065, "fusion_lat": 0.0}, {"name": "0d976ca8b3522b153110abd293bd1ca6", "fusion_lon": 0.0, "lat": 38.93245316666667, "is_reserved": 0, "type": "electric_scooter", "bike_id": "0d976ca8b3522b153110abd293bd1ca6", "is_disabled": 0, "rental_uris": {"android": "https://dc.lft.to/lastmile_qr_scan", "ios": "https://dc.lft.to/lastmile_qr_scan"}, "lon": -77.038588, "fusion_lat": 0.0}, {"name": "840772745bc0efb289bfb3c886d2e3e1", "fusion_lon": 0.0, "lat": 38.88714233333334, "is_reserved": 0, "type": "electric_scooter", "bike_id": "840772745bc0efb289bfb3c886d2e3e1", "is_disabled": 0, "rental_uris": {"android": "https://dc.lft.to/lastmile_qr_scan", "ios": "https://dc.lft.to/lastmile_qr_scan"}, "lon": -77.0177265, "fusion_lat": 0.0}, {"name": "a5a0b1341ea06200fcfa0a04a8f4ff40", "fusion_lon": 0.0, "lat": 38.90435766666667, "is_reserved": 0, "type": "electric_scooter", "bike_id": "a5a0b1341ea06200fcfa0a04a8f4ff40", "is_disabled": 0, "rental_uris": {"android": "https://dc.lft.to/lastmile_qr_scan", "ios": "https://dc.lft.to/lastmile_qr_scan"}, "lon": -77.0434195, "fusion_lat": 0.0}, {"name": "37a50defc387c792f4af6d456407d881", "fusion_lon": 0.0, "lat": 38.9026305, "is_reserved": 0, "type": "electric_scooter", "bike_id": "37a50defc387c792f4af6d456407d881", "is_disabled": 0, "rental_uris": {"android": "https://dc.lft.to/lastmile_qr_scan", "ios": "https://dc.lft.to/lastmile_qr_scan"}, "lon": -77.00328733333333, "fusion_lat": 0.0}, {"name": "71acc7bcff67809de2d0d13c79898427", "fusion_lon": 0.0, "lat": 38.901918333333334, "is_reserved": 0, "type": "electric_scooter", "bike_id": "71acc7bcff67809de2d0d13c79898427", "is_disabled": 0, "rental_uris": {"android": "https://dc.lft.to/lastmile_qr_scan", "ios": "https://dc.lft.to/lastmile_qr_scan"}, "lon": -77.02075433333333, "fusion_lat": 0.0}, {"name": "ba0dd665f295e90793b7a897a16d92f3", "fusion_lon": 0.0, "lat": 38.901168, "is_reserved": 0, "type": "electric_scooter", "bike_id": "ba0dd665f295e90793b7a897a16d92f3", "is_disabled": 0, "rental_uris": {"android": "https://dc.lft.to/lastmile_qr_scan", "ios": "https://dc.lft.to/lastmile_qr_scan"}, "lon": -77.02694116666666, "fusion_lat": 0.0}, {"name": "7848b4a8c6c351538a92d164934d8633", "fusion_lon": 0.0, "lat": 38.880594, "is_reserved": 0, "type": "electric_scooter", "bike_id": "7848b4a8c6c351538a92d164934d8633", "is_disabled": 0, "rental_uris": {"android": "https://dc.lft.to/lastmile_qr_scan", "ios": "https://dc.lft.to/lastmile_qr_scan"}, "lon": -76.93217816666666, "fusion_lat": 0.0}, {"name": "934635fae792bd5c55bf5e36c404af92", "fusion_lon": 0.0, "lat": 38.932241166666664, "is_reserved": 0, "type": "electric_scooter", "bike_id": "934635fae792bd5c55bf5e36c404af92", "is_disabled": 0, "rental_uris": {"android": "https://dc.lft.to/lastmile_qr_scan", "ios": "https://dc.lft.to/lastmile_qr_scan"}, "lon": -76.99609716666667, "fusion_lat": 0.0}, {"name": "f35488938d791ae77e41d9ff1dc1b99c", "fusion_lon": 0.0, "lat": 38.92149033333333, "is_reserved": 0, "type": "electric_scooter", "bike_id": "f35488938d791ae77e41d9ff1dc1b99c", "is_disabled": 0, "rental_uris": {"android": "https://dc.lft.to/lastmile_qr_scan", "ios": "https://dc.lft.to/lastmile_qr_scan"}, "lon": -77.033837, "fusion_lat": 0.0}, {"name": "1539a2d7983f555c7d785ea2f90a28d0", "fusion_lon": 0.0, "lat": 38.90856633333333, "is_reserved": 0, "type": "electric_scooter", "bike_id": "1539a2d7983f555c7d785ea2f90a28d0", "is_disabled": 0, "rental_uris": {"android": "https://dc.lft.to/lastmile_qr_scan", "ios": "https://dc.lft.to/lastmile_qr_scan"}, "lon": -77.04296666666667, "fusion_lat": 0.0}, {"name": "622b3eae83ec5d530ea607129be05df7", "fusion_lon": 0.0, "lat": 38.86510066666666, "is_reserved": 0, "type": "electric_bike", "bike_id": "622b3eae83ec5d530ea607129be05df7", "is_disabled": 0, "rental_uris": {"android": "https://dc.lft.to/lastmile_qr_scan", "ios": "https://dc.lft.to/lastmile_qr_scan"}, "lon": -76.973332, "fusion_lat": 0.0}, {"name": "2aef8e0be53985007178fa6e8085c6f2", "fusion_lon": 0.0, "lat": 38.900091833333335, "is_reserved": 0, "type": "electric_scooter", "bike_id": "2aef8e0be53985007178fa6e8085c6f2", "is_disabled": 0, "rental_uris": {"android": "https://dc.lft.to/lastmile_qr_scan", "ios": "https://dc.lft.to/lastmile_qr_scan"}, "lon": -77.006854, "fusion_lat": 0.0}, {"name": "a7e51b9f7cf8265cb106174b835a518d", "fusion_lon": 0.0, "lat": 38.91415116666667, "is_reserved": 0, "type": "electric_scooter", "bike_id": "a7e51b9f7cf8265cb106174b835a518d", "is_disabled": 0, "rental_uris": {"android": "https://dc.lft.to/lastmile_qr_scan", "ios": "https://dc.lft.to/lastmile_qr_scan"}, "lon": -77.0307075, "fusion_lat": 0.0}, {"name": "80348bde5af4cda4a06abcfbb8ca109e", "fusion_lon": 0.0, "lat": 38.92413416666667, "is_reserved": 0, "type": "electric_scooter", "bike_id": "80348bde5af4cda4a06abcfbb8ca109e", "is_disabled": 0, "rental_uris": {"android": "https://dc.lft.to/lastmile_qr_scan", "ios": "https://dc.lft.to/lastmile_qr_scan"}, "lon": -77.05068533333333, "fusion_lat": 0.0}, {"name": "4630650731e7f06a19a92c72bd125ad6", "fusion_lon": 0.0, "lat": 38.9135475, "is_reserved": 0, "type": "electric_bike", "bike_id": "4630650731e7f06a19a92c72bd125ad6", "is_disabled": 0, "rental_uris": {"android": "https://dc.lft.to/lastmile_qr_scan", "ios": "https://dc.lft.to/lastmile_qr_scan"}, "lon": -77.02815833333334, "fusion_lat": 0.0}, {"name": "97a2378cbb6eb0a8c9a0122b7f1b3110", "fusion_lon": 0.0, "lat": 38.918187833333334, "is_reserved": 0, "type": "electric_scooter", "bike_id": "97a2378cbb6eb0a8c9a0122b7f1b3110", "is_disabled": 0, "rental_uris": {"android": "https://dc.lft.to/lastmile_qr_scan", "ios": "https://dc.lft.to/lastmile_qr_scan"}, "lon": -77.03188416666667, "fusion_lat": 0.0}, {"name": "74234222286db6dab2ef1ffc233ffcef", "fusion_lon": 0.0, "lat": 38.875971666666665, "is_reserved": 0, "type": "electric_scooter", "bike_id": "74234222286db6dab2ef1ffc233ffcef", "is_disabled": 0, "rental_uris": {"android": "https://dc.lft.to/lastmile_qr_scan", "ios": "https://dc.lft.to/lastmile_qr_scan"}, "lon": -77.00090083333333, "fusion_lat": 0.0}, {"name": "e18872f1035ed32c37f52338cedef717", "fusion_lon": 0.0, "lat": 38.854387833333334, "is_reserved": 0, "type": "electric_bike", "bike_id": "e18872f1035ed32c37f52338cedef717", "is_disabled": 0, "rental_uris": {"android": "https://dc.lft.to/lastmile_qr_scan", "ios": "https://dc.lft.to/lastmile_qr_scan"}, "lon": -77.0830355, "fusion_lat": 0.0}, {"name": "f711881015e4b643e28e6ac1d63af910", "fusion_lon": 0.0, "lat": 38.911019833333334, "is_reserved": 0, "type": "electric_scooter", "bike_id": "f711881015e4b643e28e6ac1d63af910", "is_disabled": 0, "rental_uris": {"android": "https://dc.lft.to/lastmile_qr_scan", "ios": "https://dc.lft.to/lastmile_qr_scan"}, "lon": -77.04203066666666, "fusion_lat": 0.0}, {"name": "26633a0ece8dd082356e68389a7f1ab2", "fusion_lon": 0.0, "lat": 38.928641666666664, "is_reserved": 0, "type": "electric_scooter", "bike_id": "26633a0ece8dd082356e68389a7f1ab2", "is_disabled": 0, "rental_uris": {"android": "https://dc.lft.to/lastmile_qr_scan", "ios": "https://dc.lft.to/lastmile_qr_scan"}, "lon": -77.02177516666667, "fusion_lat": 0.0}, {"name": "494e139974062d15edff671935a513ed", "fusion_lon": 0.0, "lat": 38.90131683333333, "is_reserved": 0, "type": "electric_scooter", "bike_id": "494e139974062d15edff671935a513ed", "is_disabled": 0, "rental_uris": {"android": "https://dc.lft.to/lastmile_qr_scan", "ios": "https://dc.lft.to/lastmile_qr_scan"}, "lon": -77.04426383333333, "fusion_lat": 0.0}, {"name": "43857dfc52e99185965ac0e5bc5be1c4", "fusion_lon": 0.0, "lat": 38.9276665, "is_reserved": 0, "type": "electric_scooter", "bike_id": "43857dfc52e99185965ac0e5bc5be1c4", "is_disabled": 0, "rental_uris": {"android": "https://dc.lft.to/lastmile_qr_scan", "ios": "https://dc.lft.to/lastmile_qr_scan"}, "lon": -77.027098, "fusion_lat": 0.0}, {"name": "0723fb0eb76762372ed28f61a76258bf", "fusion_lon": 0.0, "lat": 38.9001425, "is_reserved": 0, "type": "electric_scooter", "bike_id": "0723fb0eb76762372ed28f61a76258bf", "is_disabled": 0, "rental_uris": {"android": "https://dc.lft.to/lastmile_qr_scan", "ios": "https://dc.lft.to/lastmile_qr_scan"}, "lon": -76.99914083333333, "fusion_lat": 0.0}, {"name": "3fa676ee34a9fd03168aa72224bc5209", "fusion_lon": 0.0, "lat": 38.9165985, "is_reserved": 0, "type": "electric_scooter", "bike_id": "3fa676ee34a9fd03168aa72224bc5209", "is_disabled": 0, "rental_uris": {"android": "https://dc.lft.to/lastmile_qr_scan", "ios": "https://dc.lft.to/lastmile_qr_scan"}, "lon": -77.02968333333334, "fusion_lat": 0.0}, {"name": "e22bd723e391ea31897d1e5b9286fd2c", "fusion_lon": 0.0, "lat": 38.893178, "is_reserved": 0, "type": "electric_scooter", "bike_id": "e22bd723e391ea31897d1e5b9286fd2c", "is_disabled": 0, "rental_uris": {"android": "https://dc.lft.to/lastmile_qr_scan", "ios": "https://dc.lft.to/lastmile_qr_scan"}, "lon": -77.0486825, "fusion_lat": 0.0}, {"name": "2ed4ede1776164a77dd190e7e5e3cb80", "fusion_lon": 0.0, "lat": 38.9515065, "is_reserved": 0, "type": "electric_scooter", "bike_id": "2ed4ede1776164a77dd190e7e5e3cb80", "is_disabled": 0, "rental_uris": {"android": "https://dc.lft.to/lastmile_qr_scan", "ios": "https://dc.lft.to/lastmile_qr_scan"}, "lon": -77.0186575, "fusion_lat": 0.0}, {"name": "de1ae044a76468a5027fce6586cf0497", "fusion_lon": 0.0, "lat": 38.923334, "is_reserved": 0, "type": "electric_scooter", "bike_id": "de1ae044a76468a5027fce6586cf0497", "is_disabled": 0, "rental_uris": {"android": "https://dc.lft.to/lastmile_qr_scan", "ios": "https://dc.lft.to/lastmile_qr_scan"}, "lon": -77.05680816666667, "fusion_lat": 0.0}, {"name": "f408dcb3a7035c39e24ff0118b965695", "fusion_lon": 0.0, "lat": 38.9055355, "is_reserved": 0, "type": "electric_scooter", "bike_id": "f408dcb3a7035c39e24ff0118b965695", "is_disabled": 0, "rental_uris": {"android": "https://dc.lft.to/lastmile_qr_scan", "ios": "https://dc.lft.to/lastmile_qr_scan"}, "lon": -77.04507433333333, "fusion_lat": 0.0}, {"name": "192a6e719b181152d3893d264bcd58fb", "fusion_lon": 0.0, "lat": 38.926427333333336, "is_reserved": 0, "type": "electric_scooter", "bike_id": "192a6e719b181152d3893d264bcd58fb", "is_disabled": 0, "rental_uris": {"android": "https://dc.lft.to/lastmile_qr_scan", "ios": "https://dc.lft.to/lastmile_qr_scan"}, "lon": -77.04139716666667, "fusion_lat": 0.0}, {"name": "edff5d98dc5524d9b2f3b524c9ef1f84", "fusion_lon": 0.0, "lat": 38.880802333333335, "is_reserved": 0, "type": "electric_scooter", "bike_id": "edff5d98dc5524d9b2f3b524c9ef1f84", "is_disabled": 0, "rental_uris": {"android": "https://dc.lft.to/lastmile_qr_scan", "ios": "https://dc.lft.to/lastmile_qr_scan"}, "lon": -76.98508683333333, "fusion_lat": 0.0}, {"name": "321904a3fcb8c5ec0f0b5012b95cf307", "fusion_lon": 0.0, "lat": 38.91656583333334, "is_reserved": 0, "type": "electric_scooter", "bike_id": "321904a3fcb8c5ec0f0b5012b95cf307", "is_disabled": 0, "rental_uris": {"android": "https://dc.lft.to/lastmile_qr_scan", "ios": "https://dc.lft.to/lastmile_qr_scan"}, "lon": -77.0296755, "fusion_lat": 0.0}, {"name": "f7172be8fa7b4056d8f9216b1421c777", "fusion_lon": 0.0, "lat": 38.92430316666667, "is_reserved": 0, "type": "electric_scooter", "bike_id": "f7172be8fa7b4056d8f9216b1421c777", "is_disabled": 0, "rental_uris": {"android": "https://dc.lft.to/lastmile_qr_scan", "ios": "https://dc.lft.to/lastmile_qr_scan"}, "lon": -77.0424525, "fusion_lat": 0.0}, {"name": "5835658177b94c81d4059d546c309c8a", "fusion_lon": 0.0, "lat": 38.918163666666665, "is_reserved": 0, "type": "electric_scooter", "bike_id": "5835658177b94c81d4059d546c309c8a", "is_disabled": 0, "rental_uris": {"android": "https://dc.lft.to/lastmile_qr_scan", "ios": "https://dc.lft.to/lastmile_qr_scan"}, "lon": -77.027025, "fusion_lat": 0.0}, {"name": "29630d2a7697fb41d1c99ea0c22bd565", "fusion_lon": 0.0, "lat": 38.89732216666667, "is_reserved": 0, "type": "electric_scooter", "bike_id": "29630d2a7697fb41d1c99ea0c22bd565", "is_disabled": 0, "rental_uris": {"android": "https://dc.lft.to/lastmile_qr_scan", "ios": "https://dc.lft.to/lastmile_qr_scan"}, "lon": -77.05523716666667, "fusion_lat": 0.0}, {"name": "fc1e735fec91e2ec20c6ce25c358ab8f", "fusion_lon": 0.0, "lat": 38.913371, "is_reserved": 0, "type": "electric_scooter", "bike_id": "fc1e735fec91e2ec20c6ce25c358ab8f", "is_disabled": 0, "rental_uris": {"android": "https://dc.lft.to/lastmile_qr_scan", "ios": "https://dc.lft.to/lastmile_qr_scan"}, "lon": -77.03166816666666, "fusion_lat": 0.0}, {"name": "653b4560b67ed09e671f19111773966c", "fusion_lon": 0.0, "lat": 38.888674, "is_reserved": 0, "type": "electric_scooter", "bike_id": "653b4560b67ed09e671f19111773966c", "is_disabled": 0, "rental_uris": {"android": "https://dc.lft.to/lastmile_qr_scan", "ios": "https://dc.lft.to/lastmile_qr_scan"}, "lon": -77.00002416666666, "fusion_lat": 0.0}, {"name": "152814aa08a64e700e654dea542b7540", "fusion_lon": 0.0, "lat": 38.92225633333334, "is_reserved": 0, "type": "electric_scooter", "bike_id": "152814aa08a64e700e654dea542b7540", "is_disabled": 0, "rental_uris": {"android": "https://dc.lft.to/lastmile_qr_scan", "ios": "https://dc.lft.to/lastmile_qr_scan"}, "lon": -77.0329145, "fusion_lat": 0.0}, {"name": "c170b7242c176bf8a5bfeb5ecff8aeef", "fusion_lon": 0.0, "lat": 38.9490235, "is_reserved": 0, "type": "electric_scooter", "bike_id": "c170b7242c176bf8a5bfeb5ecff8aeef", "is_disabled": 0, "rental_uris": {"android": "https://dc.lft.to/lastmile_qr_scan", "ios": "https://dc.lft.to/lastmile_qr_scan"}, "lon": -77.00649316666667, "fusion_lat": 0.0}, {"name": "57a7a695b7fe0b51d33aa9d7123887d2", "fusion_lon": 0.0, "lat": 38.9214085, "is_reserved": 0, "type": "electric_scooter", "bike_id": "57a7a695b7fe0b51d33aa9d7123887d2", "is_disabled": 0, "rental_uris": {"android": "https://dc.lft.to/lastmile_qr_scan", "ios": "https://dc.lft.to/lastmile_qr_scan"}, "lon": -77.0366215, "fusion_lat": 0.0}, {"name": "e2d707883eedea624a652e1ed6ed198d", "fusion_lon": 0.0, "lat": 38.92132516666667, "is_reserved": 0, "type": "electric_scooter", "bike_id": "e2d707883eedea624a652e1ed6ed198d", "is_disabled": 0, "rental_uris": {"android": "https://dc.lft.to/lastmile_qr_scan", "ios": "https://dc.lft.to/lastmile_qr_scan"}, "lon": -77.04132516666667, "fusion_lat": 0.0}, {"name": "3fcee6ac3631242a4d3edd1d76923ac5", "fusion_lon": 0.0, "lat": 38.945265166666665, "is_reserved": 0, "type": "electric_scooter", "bike_id": "3fcee6ac3631242a4d3edd1d76923ac5", "is_disabled": 0, "rental_uris": {"android": "https://dc.lft.to/lastmile_qr_scan", "ios": "https://dc.lft.to/lastmile_qr_scan"}, "lon": -77.02090633333333, "fusion_lat": 0.0}, {"name": "778474bc622eb147aa332fbfc7d3192a", "fusion_lon": 0.0, "lat": 38.90741516666667, "is_reserved": 0, "type": "electric_scooter", "bike_id": "778474bc622eb147aa332fbfc7d3192a", "is_disabled": 0, "rental_uris": {"android": "https://dc.lft.to/lastmile_qr_scan", "ios": "https://dc.lft.to/lastmile_qr_scan"}, "lon": -77.0013755, "fusion_lat": 0.0}, {"name": "5e137e1ee0b426c1425323fd0bd3e414", "fusion_lon": 0.0, "lat": 38.91542583333333, "is_reserved": 0, "type": "electric_scooter", "bike_id": "5e137e1ee0b426c1425323fd0bd3e414", "is_disabled": 0, "rental_uris": {"android": "https://dc.lft.to/lastmile_qr_scan", "ios": "https://dc.lft.to/lastmile_qr_scan"}, "lon": -77.038496, "fusion_lat": 0.0}, {"name": "920fc1fc6072e9c03211d94dfa170144", "fusion_lon": 0.0, "lat": 38.918306, "is_reserved": 0, "type": "electric_scooter", "bike_id": "920fc1fc6072e9c03211d94dfa170144", "is_disabled": 0, "rental_uris": {"android": "https://dc.lft.to/lastmile_qr_scan", "ios": "https://dc.lft.to/lastmile_qr_scan"}, "lon": -77.02301283333334, "fusion_lat": 0.0}, {"name": "27b1d033dc0ad18c9daa8ad51de10b9d", "fusion_lon": 0.0, "lat": 38.9187715, "is_reserved": 0, "type": "electric_scooter", "bike_id": "27b1d033dc0ad18c9daa8ad51de10b9d", "is_disabled": 0, "rental_uris": {"android": "https://dc.lft.to/lastmile_qr_scan", "ios": "https://dc.lft.to/lastmile_qr_scan"}, "lon": -77.02951166666666, "fusion_lat": 0.0}, {"name": "58abec91dbf12c9a7df082ff2ab7b7e2", "fusion_lon": 0.0, "lat": 38.925543833333336, "is_reserved": 0, "type": "electric_scooter", "bike_id": "58abec91dbf12c9a7df082ff2ab7b7e2", "is_disabled": 0, "rental_uris": {"android": "https://dc.lft.to/lastmile_qr_scan", "ios": "https://dc.lft.to/lastmile_qr_scan"}, "lon": -77.038039, "fusion_lat": 0.0}, {"name": "c6ef980dd2c254a0dda8c7f9dc1d8975", "fusion_lon": 0.0, "lat": 38.88990833333333, "is_reserved": 0, "type": "electric_scooter", "bike_id": "c6ef980dd2c254a0dda8c7f9dc1d8975", "is_disabled": 0, "rental_uris": {"android": "https://dc.lft.to/lastmile_qr_scan", "ios": "https://dc.lft.to/lastmile_qr_scan"}, "lon": -76.931102, "fusion_lat": 0.0}, {"name": "adc6d5311163736da169f23f0b3da278", "fusion_lon": 0.0, "lat": 38.94185183333333, "is_reserved": 0, "type": "electric_scooter", "bike_id": "adc6d5311163736da169f23f0b3da278", "is_disabled": 0, "rental_uris": {"android": "https://dc.lft.to/lastmile_qr_scan", "ios": "https://dc.lft.to/lastmile_qr_scan"}, "lon": -77.02485983333334, "fusion_lat": 0.0}, {"name": "55e73d348a24d889b2403c3eeb7ff598", "fusion_lon": 0.0, "lat": 38.9461615, "is_reserved": 0, "type": "electric_scooter", "bike_id": "55e73d348a24d889b2403c3eeb7ff598", "is_disabled": 0, "rental_uris": {"android": "https://dc.lft.to/lastmile_qr_scan", "ios": "https://dc.lft.to/lastmile_qr_scan"}, "lon": -77.02170666666666, "fusion_lat": 0.0}, {"name": "e31bc066d22171774b3ceb997762c86a", "fusion_lon": 0.0, "lat": 38.865039333333335, "is_reserved": 0, "type": "electric_scooter", "bike_id": "e31bc066d22171774b3ceb997762c86a", "is_disabled": 0, "rental_uris": {"android": "https://dc.lft.to/lastmile_qr_scan", "ios": "https://dc.lft.to/lastmile_qr_scan"}, "lon": -76.99002233333333, "fusion_lat": 0.0}, {"name": "1b76be70948d2d553592ccfd24c6f409", "fusion_lon": 0.0, "lat": 38.91695983333334, "is_reserved": 0, "type": "electric_scooter", "bike_id": "1b76be70948d2d553592ccfd24c6f409", "is_disabled": 0, "rental_uris": {"android": "https://dc.lft.to/lastmile_qr_scan", "ios": "https://dc.lft.to/lastmile_qr_scan"}, "lon": -77.025145, "fusion_lat": 0.0}, {"name": "e9305a7ddd54359a3aab2e5ee5d97a75", "fusion_lon": 0.0, "lat": 38.921692666666665, "is_reserved": 0, "type": "electric_scooter", "bike_id": "e9305a7ddd54359a3aab2e5ee5d97a75", "is_disabled": 0, "rental_uris": {"android": "https://dc.lft.to/lastmile_qr_scan", "ios": "https://dc.lft.to/lastmile_qr_scan"}, "lon": -77.04243433333333, "fusion_lat": 0.0}, {"name": "457538c78485f504832b1683d8d84806", "fusion_lon": 0.0, "lat": 38.920520833333335, "is_reserved": 0, "type": "electric_scooter", "bike_id": "457538c78485f504832b1683d8d84806", "is_disabled": 0, "rental_uris": {"android": "https://dc.lft.to/lastmile_qr_scan", "ios": "https://dc.lft.to/lastmile_qr_scan"}, "lon": -77.029897, "fusion_lat": 0.0}, {"name": "c33120e9f85887c189168206a5c8f717", "fusion_lon": 0.0, "lat": 38.9269945, "is_reserved": 0, "type": "electric_scooter", "bike_id": "c33120e9f85887c189168206a5c8f717", "is_disabled": 0, "rental_uris": {"android": "https://dc.lft.to/lastmile_qr_scan", "ios": "https://dc.lft.to/lastmile_qr_scan"}, "lon": -77.024266, "fusion_lat": 0.0}, {"name": "9eb4ebfea45f0ccc555fa2040e3b76cd", "fusion_lon": 0.0, "lat": 38.922174, "is_reserved": 0, "type": "electric_scooter", "bike_id": "9eb4ebfea45f0ccc555fa2040e3b76cd", "is_disabled": 0, "rental_uris": {"android": "https://dc.lft.to/lastmile_qr_scan", "ios": "https://dc.lft.to/lastmile_qr_scan"}, "lon": -77.03296066666667, "fusion_lat": 0.0}, {"name": "ca975962c23ef66be90c8a03ee8a51aa", "fusion_lon": 0.0, "lat": 38.807631, "is_reserved": 0, "type": "electric_bike", "bike_id": "ca975962c23ef66be90c8a03ee8a51aa", "is_disabled": 0, "rental_uris": {"android": "https://dc.lft.to/lastmile_qr_scan", "ios": "https://dc.lft.to/lastmile_qr_scan"}, "lon": -77.09468216666667, "fusion_lat": 0.0}, {"name": "f8ce08eca89915448c7121c44d6fb54d", "fusion_lon": 0.0, "lat": 38.99346166666667, "is_reserved": 0, "type": "electric_bike", "bike_id": "f8ce08eca89915448c7121c44d6fb54d", "is_disabled": 0, "rental_uris": {"android": "https://dc.lft.to/lastmile_qr_scan", "ios": "https://dc.lft.to/lastmile_qr_scan"}, "lon": -77.11575433333333, "fusion_lat": 0.0}, {"name": "be3d96fa181be99c8b552720b31dd9ec", "fusion_lon": 0.0, "lat": 38.91412283333333, "is_reserved": 0, "type": "electric_scooter", "bike_id": "be3d96fa181be99c8b552720b31dd9ec", "is_disabled": 0, "rental_uris": {"android": "https://dc.lft.to/lastmile_qr_scan", "ios": "https://dc.lft.to/lastmile_qr_scan"}, "lon": -77.0214795, "fusion_lat": 0.0}, {"name": "b0380117276c5b88c9c33e2a643baa66", "fusion_lon": 0.0, "lat": 38.91953216666667, "is_reserved": 0, "type": "electric_scooter", "bike_id": "b0380117276c5b88c9c33e2a643baa66", "is_disabled": 0, "rental_uris": {"android": "https://dc.lft.to/lastmile_qr_scan", "ios": "https://dc.lft.to/lastmile_qr_scan"}, "lon": -77.03478183333333, "fusion_lat": 0.0}, {"name": "ba168486e51e95d300a2cb2a0436348c", "fusion_lon": 0.0, "lat": 38.956623, "is_reserved": 0, "type": "electric_scooter", "bike_id": "ba168486e51e95d300a2cb2a0436348c", "is_disabled": 0, "rental_uris": {"android": "https://dc.lft.to/lastmile_qr_scan", "ios": "https://dc.lft.to/lastmile_qr_scan"}, "lon": -77.01283233333334, "fusion_lat": 0.0}, {"name": "98e34ee97f43cefcf84def6251da1cfd", "fusion_lon": 0.0, "lat": 38.865058833333336, "is_reserved": 0, "type": "electric_scooter", "bike_id": "98e34ee97f43cefcf84def6251da1cfd", "is_disabled": 0, "rental_uris": {"android": "https://dc.lft.to/lastmile_qr_scan", "ios": "https://dc.lft.to/lastmile_qr_scan"}, "lon": -76.9900275, "fusion_lat": 0.0}, {"name": "b99254cb1e09ca98399f1df34a241916", "fusion_lon": 0.0, "lat": 38.938654166666666, "is_reserved": 0, "type": "electric_scooter", "bike_id": "b99254cb1e09ca98399f1df34a241916", "is_disabled": 0, "rental_uris": {"android": "https://dc.lft.to/lastmile_qr_scan", "ios": "https://dc.lft.to/lastmile_qr_scan"}, "lon": -77.03082266666667, "fusion_lat": 0.0}, {"name": "7a8161e6a2007ad6079760fa1ccec5bd", "fusion_lon": 0.0, "lat": 38.90654816666667, "is_reserved": 0, "type": "electric_scooter", "bike_id": "7a8161e6a2007ad6079760fa1ccec5bd", "is_disabled": 0, "rental_uris": {"android": "https://dc.lft.to/lastmile_qr_scan", "ios": "https://dc.lft.to/lastmile_qr_scan"}, "lon": -77.001934, "fusion_lat": 0.0}, {"name": "a3bc1cb61a2ba8fc35293cedd06ae891", "fusion_lon": 0.0, "lat": 38.863848, "is_reserved": 0, "type": "electric_scooter", "bike_id": "a3bc1cb61a2ba8fc35293cedd06ae891", "is_disabled": 0, "rental_uris": {"android": "https://dc.lft.to/lastmile_qr_scan", "ios": "https://dc.lft.to/lastmile_qr_scan"}, "lon": -76.99045916666667, "fusion_lat": 0.0}, {"name": "a5e5e5a0c88dc02ba6b623420e872a9d", "fusion_lon": 0.0, "lat": 38.904007666666665, "is_reserved": 0, "type": "electric_scooter", "bike_id": "a5e5e5a0c88dc02ba6b623420e872a9d", "is_disabled": 0, "rental_uris": {"android": "https://dc.lft.to/lastmile_qr_scan", "ios": "https://dc.lft.to/lastmile_qr_scan"}, "lon": -77.06771066666667, "fusion_lat": 0.0}, {"name": "c91c90484430dde91f1f72d75f9c8a90", "fusion_lon": 0.0, "lat": 38.902410833333334, "is_reserved": 0, "type": "electric_scooter", "bike_id": "c91c90484430dde91f1f72d75f9c8a90", "is_disabled": 0, "rental_uris": {"android": "https://dc.lft.to/lastmile_qr_scan", "ios": "https://dc.lft.to/lastmile_qr_scan"}, "lon": -77.00198916666666, "fusion_lat": 0.0}, {"name": "35bccde2b7b6389e2609b4c2c4c84b16", "fusion_lon": 0.0, "lat": 38.93109616666667, "is_reserved": 0, "type": "electric_scooter", "bike_id": "35bccde2b7b6389e2609b4c2c4c84b16", "is_disabled": 0, "rental_uris": {"android": "https://dc.lft.to/lastmile_qr_scan", "ios": "https://dc.lft.to/lastmile_qr_scan"}, "lon": -77.03031066666667, "fusion_lat": 0.0}, {"name": "c227247e06ecb2dabd9d9116165201d0", "fusion_lon": 0.0, "lat": 38.916504, "is_reserved": 0, "type": "electric_scooter", "bike_id": "c227247e06ecb2dabd9d9116165201d0", "is_disabled": 0, "rental_uris": {"android": "https://dc.lft.to/lastmile_qr_scan", "ios": "https://dc.lft.to/lastmile_qr_scan"}, "lon": -77.02005016666666, "fusion_lat": 0.0}, {"name": "560e0f2f2e142ee2c904bf8b49857615", "fusion_lon": 0.0, "lat": 38.9283105, "is_reserved": 0, "type": "electric_scooter", "bike_id": "560e0f2f2e142ee2c904bf8b49857615", "is_disabled": 0, "rental_uris": {"android": "https://dc.lft.to/lastmile_qr_scan", "ios": "https://dc.lft.to/lastmile_qr_scan"}, "lon": -77.037235, "fusion_lat": 0.0}, {"name": "6431e7b65033843fa039913835d7041f", "fusion_lon": 0.0, "lat": 38.8975905, "is_reserved": 0, "type": "electric_scooter", "bike_id": "6431e7b65033843fa039913835d7041f", "is_disabled": 0, "rental_uris": {"android": "https://dc.lft.to/lastmile_qr_scan", "ios": "https://dc.lft.to/lastmile_qr_scan"}, "lon": -77.04877733333333, "fusion_lat": 0.0}, {"name": "46ee4bd0f539f2ab70cf0fc489232bbd", "fusion_lon": 0.0, "lat": 38.91706283333333, "is_reserved": 0, "type": "electric_scooter", "bike_id": "46ee4bd0f539f2ab70cf0fc489232bbd", "is_disabled": 0, "rental_uris": {"android": "https://dc.lft.to/lastmile_qr_scan", "ios": "https://dc.lft.to/lastmile_qr_scan"}, "lon": -77.0220475, "fusion_lat": 0.0}, {"name": "d4ae4ea81eb0c391c728eda6b965074f", "fusion_lon": 0.0, "lat": 38.932768833333334, "is_reserved": 0, "type": "electric_scooter", "bike_id": "d4ae4ea81eb0c391c728eda6b965074f", "is_disabled": 0, "rental_uris": {"android": "https://dc.lft.to/lastmile_qr_scan", "ios": "https://dc.lft.to/lastmile_qr_scan"}, "lon": -77.04532533333334, "fusion_lat": 0.0}, {"name": "5882d591f1cfb5e85f13a6165c715944", "fusion_lon": 0.0, "lat": 38.900443333333335, "is_reserved": 0, "type": "electric_scooter", "bike_id": "5882d591f1cfb5e85f13a6165c715944", "is_disabled": 0, "rental_uris": {"android": "https://dc.lft.to/lastmile_qr_scan", "ios": "https://dc.lft.to/lastmile_qr_scan"}, "lon": -76.98841533333334, "fusion_lat": 0.0}, {"name": "032013b3041e0b500dc8f589b4c81d09", "fusion_lon": 0.0, "lat": 38.933571, "is_reserved": 0, "type": "electric_scooter", "bike_id": "032013b3041e0b500dc8f589b4c81d09", "is_disabled": 0, "rental_uris": {"android": "https://dc.lft.to/lastmile_qr_scan", "ios": "https://dc.lft.to/lastmile_qr_scan"}, "lon": -77.07371266666667, "fusion_lat": 0.0}, {"name": "b816d8b470ab88bf670a4c51fd8a2416", "fusion_lon": 0.0, "lat": 38.8975655, "is_reserved": 0, "type": "electric_scooter", "bike_id": "b816d8b470ab88bf670a4c51fd8a2416", "is_disabled": 0, "rental_uris": {"android": "https://dc.lft.to/lastmile_qr_scan", "ios": "https://dc.lft.to/lastmile_qr_scan"}, "lon": -77.0441115, "fusion_lat": 0.0}, {"name": "f014125474f4dae466ccfbf9919593a5", "fusion_lon": 0.0, "lat": 38.917419333333335, "is_reserved": 0, "type": "electric_scooter", "bike_id": "f014125474f4dae466ccfbf9919593a5", "is_disabled": 0, "rental_uris": {"android": "https://dc.lft.to/lastmile_qr_scan", "ios": "https://dc.lft.to/lastmile_qr_scan"}, "lon": -77.03459416666666, "fusion_lat": 0.0}, {"name": "998f49f304dbbf586aeb24a845492c72", "fusion_lon": 0.0, "lat": 38.87293416666667, "is_reserved": 0, "type": "electric_bike", "bike_id": "998f49f304dbbf586aeb24a845492c72", "is_disabled": 0, "rental_uris": {"android": "https://dc.lft.to/lastmile_qr_scan", "ios": "https://dc.lft.to/lastmile_qr_scan"}, "lon": -77.13927566666666, "fusion_lat": 0.0}, {"name": "19ce6d6b0dc759b3909423048b6e7ab0", "fusion_lon": 0.0, "lat": 38.892212666666666, "is_reserved": 0, "type": "electric_scooter", "bike_id": "19ce6d6b0dc759b3909423048b6e7ab0", "is_disabled": 0, "rental_uris": {"android": "https://dc.lft.to/lastmile_qr_scan", "ios": "https://dc.lft.to/lastmile_qr_scan"}, "lon": -77.04808583333333, "fusion_lat": 0.0}, {"name": "0cac7b69a6dbe432d171303816f8a4ab", "fusion_lon": 0.0, "lat": 38.942033333333335, "is_reserved": 0, "type": "electric_scooter", "bike_id": "0cac7b69a6dbe432d171303816f8a4ab", "is_disabled": 0, "rental_uris": {"android": "https://dc.lft.to/lastmile_qr_scan", "ios": "https://dc.lft.to/lastmile_qr_scan"}, "lon": -77.02514416666666, "fusion_lat": 0.0}, {"name": "c00a6e4989252cff69a23dc17460402d", "fusion_lon": 0.0, "lat": 38.917782833333334, "is_reserved": 0, "type": "electric_scooter", "bike_id": "c00a6e4989252cff69a23dc17460402d", "is_disabled": 0, "rental_uris": {"android": "https://dc.lft.to/lastmile_qr_scan", "ios": "https://dc.lft.to/lastmile_qr_scan"}, "lon": -77.036431, "fusion_lat": 0.0}, {"name": "fbca2c6b43c274cb5d4f55f52e5a7e47", "fusion_lon": 0.0, "lat": 38.9127005, "is_reserved": 0, "type": "electric_scooter", "bike_id": "fbca2c6b43c274cb5d4f55f52e5a7e47", "is_disabled": 0, "rental_uris": {"android": "https://dc.lft.to/lastmile_qr_scan", "ios": "https://dc.lft.to/lastmile_qr_scan"}, "lon": -77.02693, "fusion_lat": 0.0}, {"name": "f8b18662ddf5072cf05e783d33581ced", "fusion_lon": 0.0, "lat": 38.944371, "is_reserved": 0, "type": "electric_scooter", "bike_id": "f8b18662ddf5072cf05e783d33581ced", "is_disabled": 0, "rental_uris": {"android": "https://dc.lft.to/lastmile_qr_scan", "ios": "https://dc.lft.to/lastmile_qr_scan"}, "lon": -77.0634875, "fusion_lat": 0.0}, {"name": "2e0d5eecfc9a34e011e65df20a3a6ddd", "fusion_lon": 0.0, "lat": 38.91092483333333, "is_reserved": 0, "type": "electric_scooter", "bike_id": "2e0d5eecfc9a34e011e65df20a3a6ddd", "is_disabled": 0, "rental_uris": {"android": "https://dc.lft.to/lastmile_qr_scan", "ios": "https://dc.lft.to/lastmile_qr_scan"}, "lon": -77.04484433333333, "fusion_lat": 0.0}, {"name": "38b38d8545a6d015c510fbdf6dfde417", "fusion_lon": 0.0, "lat": 38.936156, "is_reserved": 0, "type": "electric_scooter", "bike_id": "38b38d8545a6d015c510fbdf6dfde417", "is_disabled": 0, "rental_uris": {"android": "https://dc.lft.to/lastmile_qr_scan", "ios": "https://dc.lft.to/lastmile_qr_scan"}, "lon": -77.06751416666667, "fusion_lat": 0.0}, {"name": "68c540ee874dc43fd480f04f9e564f01", "fusion_lon": 0.0, "lat": 38.96142116666667, "is_reserved": 0, "type": "electric_scooter", "bike_id": "68c540ee874dc43fd480f04f9e564f01", "is_disabled": 0, "rental_uris": {"android": "https://dc.lft.to/lastmile_qr_scan", "ios": "https://dc.lft.to/lastmile_qr_scan"}, "lon": -77.03241533333333, "fusion_lat": 0.0}, {"name": "5b5b28186bb20b905dbf6397bc78a9eb", "fusion_lon": 0.0, "lat": 38.937636833333336, "is_reserved": 0, "type": "electric_scooter", "bike_id": "5b5b28186bb20b905dbf6397bc78a9eb", "is_disabled": 0, "rental_uris": {"android": "https://dc.lft.to/lastmile_qr_scan", "ios": "https://dc.lft.to/lastmile_qr_scan"}, "lon": -77.0251505, "fusion_lat": 0.0}, {"name": "160de464baee94da7431ac932f68faf7", "fusion_lon": 0.0, "lat": 38.89594733333333, "is_reserved": 0, "type": "electric_scooter", "bike_id": "160de464baee94da7431ac932f68faf7", "is_disabled": 0, "rental_uris": {"android": "https://dc.lft.to/lastmile_qr_scan", "ios": "https://dc.lft.to/lastmile_qr_scan"}, "lon": -77.00768566666666, "fusion_lat": 0.0}, {"name": "e03bb332cee855ec6708ba2e4b7910d2", "fusion_lon": 0.0, "lat": 38.91038433333333, "is_reserved": 0, "type": "electric_scooter", "bike_id": "e03bb332cee855ec6708ba2e4b7910d2", "is_disabled": 0, "rental_uris": {"android": "https://dc.lft.to/lastmile_qr_scan", "ios": "https://dc.lft.to/lastmile_qr_scan"}, "lon": -77.0133905, "fusion_lat": 0.0}, {"name": "f6bfd691833333daff898c9cc818015f", "fusion_lon": 0.0, "lat": 38.905606166666665, "is_reserved": 0, "type": "electric_scooter", "bike_id": "f6bfd691833333daff898c9cc818015f", "is_disabled": 0, "rental_uris": {"android": "https://dc.lft.to/lastmile_qr_scan", "ios": "https://dc.lft.to/lastmile_qr_scan"}, "lon": -77.00727583333334, "fusion_lat": 0.0}, {"name": "93ee698e5965809b1a405f84ff351e6d", "fusion_lon": 0.0, "lat": 38.9049765, "is_reserved": 0, "type": "electric_scooter", "bike_id": "93ee698e5965809b1a405f84ff351e6d", "is_disabled": 0, "rental_uris": {"android": "https://dc.lft.to/lastmile_qr_scan", "ios": "https://dc.lft.to/lastmile_qr_scan"}, "lon": -77.026012, "fusion_lat": 0.0}, {"name": "aea795d2cf3f41e93171301fcc960a93", "fusion_lon": 0.0, "lat": 38.905135, "is_reserved": 0, "type": "electric_scooter", "bike_id": "aea795d2cf3f41e93171301fcc960a93", "is_disabled": 0, "rental_uris": {"android": "https://dc.lft.to/lastmile_qr_scan", "ios": "https://dc.lft.to/lastmile_qr_scan"}, "lon": -77.0013625, "fusion_lat": 0.0}, {"name": "7a0791e6d116ed4b7a90ee0415c85600", "fusion_lon": 0.0, "lat": 38.92354916666667, "is_reserved": 0, "type": "electric_scooter", "bike_id": "7a0791e6d116ed4b7a90ee0415c85600", "is_disabled": 0, "rental_uris": {"android": "https://dc.lft.to/lastmile_qr_scan", "ios": "https://dc.lft.to/lastmile_qr_scan"}, "lon": -77.0415915, "fusion_lat": 0.0}, {"name": "ea733e00ea0791ea7ad38c8831874583", "fusion_lon": 0.0, "lat": 38.9037045, "is_reserved": 0, "type": "electric_scooter", "bike_id": "ea733e00ea0791ea7ad38c8831874583", "is_disabled": 0, "rental_uris": {"android": "https://dc.lft.to/lastmile_qr_scan", "ios": "https://dc.lft.to/lastmile_qr_scan"}, "lon": -77.02562016666667, "fusion_lat": 0.0}, {"name": "8b3b437b46addbb0a1c6d3272d8cb3c1", "fusion_lon": 0.0, "lat": 38.897694, "is_reserved": 0, "type": "electric_scooter", "bike_id": "8b3b437b46addbb0a1c6d3272d8cb3c1", "is_disabled": 0, "rental_uris": {"android": "https://dc.lft.to/lastmile_qr_scan", "ios": "https://dc.lft.to/lastmile_qr_scan"}, "lon": -77.05173683333334, "fusion_lat": 0.0}, {"name": "6053c4b9b7e8eb548b1003b9f0c1c026", "fusion_lon": 0.0, "lat": 39.03994133333333, "is_reserved": 0, "type": "electric_bike", "bike_id": "6053c4b9b7e8eb548b1003b9f0c1c026", "is_disabled": 0, "rental_uris": {"android": "https://dc.lft.to/lastmile_qr_scan", "ios": "https://dc.lft.to/lastmile_qr_scan"}, "lon": -76.99930016666667, "fusion_lat": 0.0}, {"name": "c986d328addc82dfb1bdac108ff80cab", "fusion_lon": 0.0, "lat": 38.8767905, "is_reserved": 0, "type": "electric_scooter", "bike_id": "c986d328addc82dfb1bdac108ff80cab", "is_disabled": 0, "rental_uris": {"android": "https://dc.lft.to/lastmile_qr_scan", "ios": "https://dc.lft.to/lastmile_qr_scan"}, "lon": -76.99825583333333, "fusion_lat": 0.0}, {"name": "33f6e02868082b7f29c518795c48bcdf", "fusion_lon": 0.0, "lat": 38.93546083333333, "is_reserved": 0, "type": "electric_scooter", "bike_id": "33f6e02868082b7f29c518795c48bcdf", "is_disabled": 0, "rental_uris": {"android": "https://dc.lft.to/lastmile_qr_scan", "ios": "https://dc.lft.to/lastmile_qr_scan"}, "lon": -77.05857116666667, "fusion_lat": 0.0}, {"name": "4e7142187b48818b87284a7b39f629ab", "fusion_lon": 0.0, "lat": 38.903249833333334, "is_reserved": 0, "type": "electric_scooter", "bike_id": "4e7142187b48818b87284a7b39f629ab", "is_disabled": 0, "rental_uris": {"android": "https://dc.lft.to/lastmile_qr_scan", "ios": "https://dc.lft.to/lastmile_qr_scan"}, "lon": -77.02739133333333, "fusion_lat": 0.0}, {"name": "2bafbd5de7546a036c6d9e635e3cdf56", "fusion_lon": 0.0, "lat": 38.9189885, "is_reserved": 0, "type": "electric_scooter", "bike_id": "2bafbd5de7546a036c6d9e635e3cdf56", "is_disabled": 0, "rental_uris": {"android": "https://dc.lft.to/lastmile_qr_scan", "ios": "https://dc.lft.to/lastmile_qr_scan"}, "lon": -76.9874585, "fusion_lat": 0.0}, {"name": "ce4e19423b78421e847a7b4b473220ff", "fusion_lon": 0.0, "lat": 38.900739, "is_reserved": 0, "type": "electric_scooter", "bike_id": "ce4e19423b78421e847a7b4b473220ff", "is_disabled": 0, "rental_uris": {"android": "https://dc.lft.to/lastmile_qr_scan", "ios": "https://dc.lft.to/lastmile_qr_scan"}, "lon": -77.04682083333333, "fusion_lat": 0.0}, {"name": "536209ce92539cf86c35df95d443ebc5", "fusion_lon": 0.0, "lat": 38.91704416666666, "is_reserved": 0, "type": "electric_scooter", "bike_id": "536209ce92539cf86c35df95d443ebc5", "is_disabled": 0, "rental_uris": {"android": "https://dc.lft.to/lastmile_qr_scan", "ios": "https://dc.lft.to/lastmile_qr_scan"}, "lon": -77.03134716666666, "fusion_lat": 0.0}, {"name": "e909d086268009f0a4331bbcffdda616", "fusion_lon": 0.0, "lat": 38.892230833333336, "is_reserved": 0, "type": "electric_scooter", "bike_id": "e909d086268009f0a4331bbcffdda616", "is_disabled": 0, "rental_uris": {"android": "https://dc.lft.to/lastmile_qr_scan", "ios": "https://dc.lft.to/lastmile_qr_scan"}, "lon": -77.02365366666666, "fusion_lat": 0.0}, {"name": "858bc7764ceffffc0a0efbb8e13ee022", "fusion_lon": 0.0, "lat": 38.908163333333334, "is_reserved": 0, "type": "electric_scooter", "bike_id": "858bc7764ceffffc0a0efbb8e13ee022", "is_disabled": 0, "rental_uris": {"android": "https://dc.lft.to/lastmile_qr_scan", "ios": "https://dc.lft.to/lastmile_qr_scan"}, "lon": -76.93154766666666, "fusion_lat": 0.0}, {"name": "ca28727a1f3d6063788237166fe17f7d", "fusion_lon": 0.0, "lat": 38.918506, "is_reserved": 0, "type": "electric_scooter", "bike_id": "ca28727a1f3d6063788237166fe17f7d", "is_disabled": 0, "rental_uris": {"android": "https://dc.lft.to/lastmile_qr_scan", "ios": "https://dc.lft.to/lastmile_qr_scan"}, "lon": -77.03873566666667, "fusion_lat": 0.0}, {"name": "f44f7eb47d319cb8d93c15be7a4b0a44", "fusion_lon": 0.0, "lat": 38.918933833333334, "is_reserved": 0, "type": "electric_scooter", "bike_id": "f44f7eb47d319cb8d93c15be7a4b0a44", "is_disabled": 0, "rental_uris": {"android": "https://dc.lft.to/lastmile_qr_scan", "ios": "https://dc.lft.to/lastmile_qr_scan"}, "lon": -77.02300766666667, "fusion_lat": 0.0}, {"name": "5639ea4268d3a127a4cc934869e2ee7d", "fusion_lon": 0.0, "lat": 38.90770783333333, "is_reserved": 0, "type": "electric_scooter", "bike_id": "5639ea4268d3a127a4cc934869e2ee7d", "is_disabled": 0, "rental_uris": {"android": "https://dc.lft.to/lastmile_qr_scan", "ios": "https://dc.lft.to/lastmile_qr_scan"}, "lon": -76.9783035, "fusion_lat": 0.0}, {"name": "48814aa4b1c9e87e0ce7a8d3e2236809", "fusion_lon": 0.0, "lat": 38.897520166666666, "is_reserved": 0, "type": "electric_scooter", "bike_id": "48814aa4b1c9e87e0ce7a8d3e2236809", "is_disabled": 0, "rental_uris": {"android": "https://dc.lft.to/lastmile_qr_scan", "ios": "https://dc.lft.to/lastmile_qr_scan"}, "lon": -77.0515775, "fusion_lat": 0.0}, {"name": "286bd5d94bba374315a07ef83c3083eb", "fusion_lon": 0.0, "lat": 38.946275666666665, "is_reserved": 0, "type": "electric_scooter", "bike_id": "286bd5d94bba374315a07ef83c3083eb", "is_disabled": 0, "rental_uris": {"android": "https://dc.lft.to/lastmile_qr_scan", "ios": "https://dc.lft.to/lastmile_qr_scan"}, "lon": -77.018445, "fusion_lat": 0.0}, {"name": "873c4cd94e7f44c74397ee86926ec839", "fusion_lon": 0.0, "lat": 38.904111, "is_reserved": 0, "type": "electric_scooter", "bike_id": "873c4cd94e7f44c74397ee86926ec839", "is_disabled": 0, "rental_uris": {"android": "https://dc.lft.to/lastmile_qr_scan", "ios": "https://dc.lft.to/lastmile_qr_scan"}, "lon": -77.02498983333334, "fusion_lat": 0.0}, {"name": "d76bf0d810fe9aae20f438c7f51881aa", "fusion_lon": 0.0, "lat": 38.913144, "is_reserved": 0, "type": "electric_scooter", "bike_id": "d76bf0d810fe9aae20f438c7f51881aa", "is_disabled": 0, "rental_uris": {"android": "https://dc.lft.to/lastmile_qr_scan", "ios": "https://dc.lft.to/lastmile_qr_scan"}, "lon": -77.01433316666666, "fusion_lat": 0.0}, {"name": "e8b43a8c34f91e43c92c441386bf05e0", "fusion_lon": 0.0, "lat": 38.91867583333333, "is_reserved": 0, "type": "electric_scooter", "bike_id": "e8b43a8c34f91e43c92c441386bf05e0", "is_disabled": 0, "rental_uris": {"android": "https://dc.lft.to/lastmile_qr_scan", "ios": "https://dc.lft.to/lastmile_qr_scan"}, "lon": -77.04447316666666, "fusion_lat": 0.0}, {"name": "ddb549d00e557f0796e8325eb20666fe", "fusion_lon": 0.0, "lat": 38.90733433333333, "is_reserved": 0, "type": "electric_scooter", "bike_id": "ddb549d00e557f0796e8325eb20666fe", "is_disabled": 0, "rental_uris": {"android": "https://dc.lft.to/lastmile_qr_scan", "ios": "https://dc.lft.to/lastmile_qr_scan"}, "lon": -77.01132083333333, "fusion_lat": 0.0}, {"name": "cd0db478f48462f49974a7980dff6961", "fusion_lon": 0.0, "lat": 38.90314083333333, "is_reserved": 0, "type": "electric_scooter", "bike_id": "cd0db478f48462f49974a7980dff6961", "is_disabled": 0, "rental_uris": {"android": "https://dc.lft.to/lastmile_qr_scan", "ios": "https://dc.lft.to/lastmile_qr_scan"}, "lon": -76.978032, "fusion_lat": 0.0}, {"name": "c716d3198c44ba7e75dbfc442e482d31", "fusion_lon": 0.0, "lat": 38.92048, "is_reserved": 0, "type": "electric_scooter", "bike_id": "c716d3198c44ba7e75dbfc442e482d31", "is_disabled": 0, "rental_uris": {"android": "https://dc.lft.to/lastmile_qr_scan", "ios": "https://dc.lft.to/lastmile_qr_scan"}, "lon": -77.04180616666666, "fusion_lat": 0.0}, {"name": "36478f1dce2090c531c1a53d858cc5c2", "fusion_lon": 0.0, "lat": 38.92651433333333, "is_reserved": 0, "type": "electric_scooter", "bike_id": "36478f1dce2090c531c1a53d858cc5c2", "is_disabled": 0, "rental_uris": {"android": "https://dc.lft.to/lastmile_qr_scan", "ios": "https://dc.lft.to/lastmile_qr_scan"}, "lon": -77.03708916666666, "fusion_lat": 0.0}, {"name": "69b84eebb4edfc3c213227032dbe7658", "fusion_lon": 0.0, "lat": 38.8983945, "is_reserved": 0, "type": "electric_scooter", "bike_id": "69b84eebb4edfc3c213227032dbe7658", "is_disabled": 0, "rental_uris": {"android": "https://dc.lft.to/lastmile_qr_scan", "ios": "https://dc.lft.to/lastmile_qr_scan"}, "lon": -77.022806, "fusion_lat": 0.0}, {"name": "44ba1d5402d535b36fa21b58f8d1e4b9", "fusion_lon": 0.0, "lat": 38.906110166666664, "is_reserved": 0, "type": "electric_scooter", "bike_id": "44ba1d5402d535b36fa21b58f8d1e4b9", "is_disabled": 0, "rental_uris": {"android": "https://dc.lft.to/lastmile_qr_scan", "ios": "https://dc.lft.to/lastmile_qr_scan"}, "lon": -76.99275583333333, "fusion_lat": 0.0}, {"name": "6c3a54af73393ac653004f83fcb7bac2", "fusion_lon": 0.0, "lat": 38.90064516666666, "is_reserved": 0, "type": "electric_scooter", "bike_id": "6c3a54af73393ac653004f83fcb7bac2", "is_disabled": 0, "rental_uris": {"android": "https://dc.lft.to/lastmile_qr_scan", "ios": "https://dc.lft.to/lastmile_qr_scan"}, "lon": -77.04650483333333, "fusion_lat": 0.0}, {"name": "05850346c653c0024d672ca2ec8284ea", "fusion_lon": 0.0, "lat": 38.91917566666667, "is_reserved": 0, "type": "electric_scooter", "bike_id": "05850346c653c0024d672ca2ec8284ea", "is_disabled": 0, "rental_uris": {"android": "https://dc.lft.to/lastmile_qr_scan", "ios": "https://dc.lft.to/lastmile_qr_scan"}, "lon": -77.04808083333333, "fusion_lat": 0.0},