{"data": {"bikes": [{"lon": -76.99155766666667, "rental_uris": {"android": "https://dc.lft.to/lastmile_qr_scan", "ios": "https://dc.lft.to/lastmile_qr_scan"}, "fusion_lon": 0.0, "is_reserved": 0, "is_disabled": 0, "fusion_lat": 0.0, "type": "electric_scooter", "name": "f3765e4499f6ca37b67f3f4248ab4808", "lat": 38.8976875, "bike_id": "f3765e4499f6ca37b67f3f4248ab4808"}, {"lon": -76.91716883333333, "rental_uris": {"android": "https://dc.lft.to/lastmile_qr_scan", "ios": "https://dc.lft.to/lastmile_qr_scan"}, "fusion_lon": 0.0, "is_reserved": 0, "is_disabled": 0, "fusion_lat": 0.0, "type": "electric_bike", "name": "37ebd514aa0eaa2793aa741c1761b849", "lat": 38.8802455, "bike_id": "37ebd514aa0eaa2793aa741c1761b849"}, {"lon": -77.021793, "rental_uris": {"android": "https://dc.lft.to/lastmile_qr_scan", "ios": "https://dc.lft.to/lastmile_qr_scan"}, "fusion_lon": 0.0, "is_reserved": 0, "is_disabled": 0, "fusion_lat": 0.0, "type": "electric_scooter", "name": "1fbe1782ef680aefed7311170dce8585", "lat": 38.89232716666667, "bike_id": "1fbe1782ef680aefed7311170dce8585"}, {"lon": -77.06745866666667, "rental_uris": {"android": "https://dc.lft.to/lastmile_qr_scan", "ios": "https://dc.lft.to/lastmile_qr_scan"}, "fusion_lon": 0.0, "is_reserved": 0, "is_disabled": 0, "fusion_lat": 0.0, "type": "electric_scooter", "name": "19370f15785db4f47d12f97cf0f888c0", "lat": 38.904907, "bike_id": "19370f15785db4f47d12f97cf0f888c0"}, {"lon": -77.03208033333334, "rental_uris": {"android": "https://dc.lft.to/lastmile_qr_scan", "ios": "https://dc.lft.to/lastmile_qr_scan"}, "fusion_lon": 0.0, "is_reserved": 0, "is_disabled": 0, "fusion_lat": 0.0, "type": "electric_scooter", "name": "b4344208fa16074084311f395f1ec4e2", "lat": 38.925785, "bike_id": "b4344208fa16074084311f395f1ec4e2"}, {"lon": -77.023863, "rental_uris": {"android": "https://dc.lft.to/lastmile_qr_scan", "ios": "https://dc.lft.to/lastmile_qr_scan"}, "fusion_lon": 0.0, "is_reserved": 0, "is_disabled": 0, "fusion_lat": 0.0, "type": "electric_scooter", "name": "3d9231cd951e439f5e5ee1bcd75de22e", "lat": 38.91286216666666, "bike_id": "3d9231cd951e439f5e5ee1bcd75de22e"}, {"lon": -77.00558783333334, "rental_uris": {"android": "https://dc.lft.to/lastmile_qr_scan", "ios": "https://dc.lft.to/lastmile_qr_scan"}, "fusion_lon": 0.0, "is_reserved": 0, "is_disabled": 0, "fusion_lat": 0.0, "type": "electric_scooter", "name": "244feac813fcfb969a548e2c35ff1773", "lat": 38.902297833333336, "bike_id": "244feac813fcfb969a548e2c35ff1773"}, {"lon": -77.05045016666666, "rental_uris": {"android": "https://dc.lft.to/lastmile_qr_scan", "ios": "https://dc.lft.to/lastmile_qr_scan"}, "fusion_lon": 0.0, "is_reserved": 0, "is_disabled": 0, "fusion_lat": 0.0, "type": "electric_scooter", "name": "a3c13b44f4810b2c942ec7fce6aa163c", "lat": 38.9234955, "bike_id": "a3c13b44f4810b2c942ec7fce6aa163c"}, {"lon": -77.01398416666666, "rental_uris": {"android": "https://dc.lft.to/lastmile_qr_scan", "ios": "https://dc.lft.to/lastmile_qr_scan"}, "fusion_lon": 0.0, "is_reserved": 0, "is_disabled": 0, "fusion_lat": 0.0, "type": "electric_scooter", "name": "660c6584bce3fc03c3d901b1f80ed304", "lat": 38.974706166666664, "bike_id": "660c6584bce3fc03c3d901b1f80ed304"}, {"lon": -76.99387, "rental_uris": {"android": "https://dc.lft.to/lastmile_qr_scan", "ios": "https://dc.lft.to/lastmile_qr_scan"}, "fusion_lon": 0.0, "is_reserved": 0, "is_disabled": 0, "fusion_lat": 0.0, "type": "electric_scooter", "name": "2cbad58ea2867e252656b00d9f68fdd7", "lat": 38.89190933333333, "bike_id": "2cbad58ea2867e252656b00d9f68fdd7"}, {"lon": -77.032004, "rental_uris": {"android": "https://dc.lft.to/lastmile_qr_scan", "ios": "https://dc.lft.to/lastmile_qr_scan"}, "fusion_lon": 0.0, "is_reserved": 0, "is_disabled": 0, "fusion_lat": 0.0, "type": "electric_scooter", "name": "f81108cf2b9ffa12da2245c8c2e92774", "lat": 38.90111266666667, "bike_id": "f81108cf2b9ffa12da2245c8c2e92774"}, {"lon": -77.00598733333334, "rental_uris": {"android": "https://dc.lft.to/lastmile_qr_scan", "ios": "https://dc.lft.to/lastmile_qr_scan"}, "fusion_lon": 0.0, "is_reserved": 0, "is_disabled": 0, "fusion_lat": 0.0, "type": "electric_scooter", "name": "4dd3b2bbeef0608621ac9101152ec537", "lat": 38.9055715, "bike_id": "4dd3b2bbeef0608621ac9101152ec537"}, {"lon": -77.03341483333334, "rental_uris": {"android": "https://dc.lft.to/lastmile_qr_scan", "ios": "https://dc.lft.to/lastmile_qr_scan"}, "fusion_lon": 0.0, "is_reserved": 0, "is_disabled": 0, "fusion_lat": 0.0, "type": "electric_scooter", "name": "82d79f9484570038a9de810066646b56", "lat": 38.90238166666666, "bike_id": "82d79f9484570038a9de810066646b56"}, {"lon": -77.00204116666667, "rental_uris": {"android": "https://dc.lft.to/lastmile_qr_scan", "ios": "https://dc.lft.to/lastmile_qr_scan"}, "fusion_lon": 0.0, "is_reserved": 0, "is_disabled": 0, "fusion_lat": 0.0, "type": "electric_scooter", "name": "6b6df4348c37a5cb1db5cc65c4790ad5", "lat": 38.895245333333335, "bike_id": "6b6df4348c37a5cb1db5cc65c4790ad5"}, {"lon": -77.00576283333334, "rental_uris": {"android": "https://dc.lft.to/lastmile_qr_scan", "ios": "https://dc.lft.to/lastmile_qr_scan"}, "fusion_lon": 0.0, "is_reserved": 0, "is_disabled": 0, "fusion_lat": 0.0, "type": "electric_scooter", "name": "74025a5a00e348c0bcabbe523272875c", "lat": 38.885115166666665, "bike_id": "74025a5a00e348c0bcabbe523272875c"}, {"lon": -76.93387316666667, "rental_uris": {"android": "https://dc.lft.to/lastmile_qr_scan", "ios": "https://dc.lft.to/lastmile_qr_scan"}, "fusion_lon": 0.0, "is_reserved": 0, "is_disabled": 0, "fusion_lat": 0.0, "type": "electric_scooter", "name": "f9c1d73c3b8d35293fbc98374d699827", "lat": 38.89908616666666, "bike_id": "f9c1d73c3b8d35293fbc98374d699827"}, {"lon": -77.00109166666667, "rental_uris": {"android": "https://dc.lft.to/lastmile_qr_scan", "ios": "https://dc.lft.to/lastmile_qr_scan"}, "fusion_lon": 0.0, "is_reserved": 0, "is_disabled": 0, "fusion_lat": 0.0, "type": "electric_scooter", "name": "1c2b63c32f9148d4758557907abf4a2d", "lat": 38.876555833333335, "bike_id": "1c2b63c32f9148d4758557907abf4a2d"}, {"lon": -77.02154983333334, "rental_uris": {"android": "https://dc.lft.to/lastmile_qr_scan", "ios": "https://dc.lft.to/lastmile_qr_scan"}, "fusion_lon": 0.0, "is_reserved": 0, "is_disabled": 0, "fusion_lat": 0.0, "type": "electric_scooter", "name": "feffa3acc2e27f67669056dd33f39a19", "lat": 38.92434883333333, "bike_id": "feffa3acc2e27f67669056dd33f39a19"}, {"lon": -76.91064316666667, "rental_uris": {"android": "https://dc.lft.to/lastmile_qr_scan", "ios": "https://dc.lft.to/lastmile_qr_scan"}, "fusion_lon": 0.0, "is_reserved": 0, "is_disabled": 0, "fusion_lat": 0.0, "type": "electric_bike", "name": "c22cd47e6c43bb14730fa52886511967", "lat": 39.010693333333336, "bike_id": "c22cd47e6c43bb14730fa52886511967"}, {"lon": -77.0508035, "rental_uris": {"android": "https://dc.lft.to/lastmile_qr_scan", "ios": "https://dc.lft.to/lastmile_qr_scan"}, "fusion_lon": 0.0, "is_reserved": 0, "is_disabled": 0, "fusion_lat": 0.0, "type": "electric_bike", "name": "48271dc8ae081f73dfee5128ed41bc5d", "lat": 38.81324983333333, "bike_id": "48271dc8ae081f73dfee5128ed41bc5d"}, {"lon": -77.01249833333334, "rental_uris": {"android": "https://dc.lft.to/lastmile_qr_scan", "ios": "https://dc.lft.to/lastmile_qr_scan"}, "fusion_lon": 0.0, "is_reserved": 0, "is_disabled": 0, "fusion_lat": 0.0, "type": "electric_scooter", "name": "e74fae0bda14310d02618868e49cb2ea", "lat": 38.9001285, "bike_id": "e74fae0bda14310d02618868e49cb2ea"}, {"lon": -77.018949, "rental_uris": {"android": "https://dc.lft.to/lastmile_qr_scan", "ios": "https://dc.lft.to/lastmile_qr_scan"}, "fusion_lon": 0.0, "is_reserved": 0, "is_disabled": 0, "fusion_lat": 0.0, "type": "electric_scooter", "name": "fc132e845367458ef24f578ca84af4a6", "lat": 38.8998285, "bike_id": "fc132e845367458ef24f578ca84af4a6"}, {"lon": -77.03413283333333, "rental_uris": {"android": "https://dc.lft.to/lastmile_qr_scan", "ios": "https://dc.lft.to/lastmile_qr_scan"}, "fusion_lon": 0.0, "is_reserved": 0, "is_disabled": 0, "fusion_lat": 0.0, "type": "electric_scooter", "name": "58b64dbc9faffa2b50c7ae22eb6bf78a", "lat": 38.91915183333333, "bike_id": "58b64dbc9faffa2b50c7ae22eb6bf78a"}, {"lon": -77.04199283333334, "rental_uris": {"android": "https://dc.lft.to/lastmile_qr_scan", "ios": "https://dc.lft.to/lastmile_qr_scan"}, "fusion_lon": 0.0, "is_reserved": 0, "is_disabled": 0, "fusion_lat": 0.0, "type": "electric_scooter", "name": "21d11766c6d8b8c030745c5d23dbc652", "lat": 38.89218016666667, "bike_id": "21d11766c6d8b8c030745c5d23dbc652"}, {"lon": -77.0438515, "rental_uris": {"android": "https://dc.lft.to/lastmile_qr_scan", "ios": "https://dc.lft.to/lastmile_qr_scan"}, "fusion_lon": 0.0, "is_reserved": 0, "is_disabled": 0, "fusion_lat": 0.0, "type": "electric_scooter", "name": "d10cd1495c455c0945079f22211a3350", "lat": 38.9210625, "bike_id": "d10cd1495c455c0945079f22211a3350"}, {"lon": -77.07163766666666, "rental_uris": {"android": "https://dc.lft.to/lastmile_qr_scan", "ios": "https://dc.lft.to/lastmile_qr_scan"}, "fusion_lon": 0.0, "is_reserved": 0, "is_disabled": 0, "fusion_lat": 0.0, "type": "electric_bike", "name": "f73ac5ec57f24f86bc89c44a2b9e8f2a", "lat": 38.907705666666665, "bike_id": "f73ac5ec57f24f86bc89c44a2b9e8f2a"}, {"lon": -77.0326415, "rental_uris": {"android": "https://dc.lft.to/lastmile_qr_scan", "ios": "https://dc.lft.to/lastmile_qr_scan"}, "fusion_lon": 0.0, "is_reserved": 0, "is_disabled": 0, "fusion_lat": 0.0, "type": "electric_scooter", "name": "5acc473b41756fa026add9785c169921", "lat": 38.92761183333333, "bike_id": "5acc473b41756fa026add9785c169921"}, {"lon": -77.03798816666666, "rental_uris": {"android": "https://dc.lft.to/lastmile_qr_scan", "ios": "https://dc.lft.to/lastmile_qr_scan"}, "fusion_lon": 0.0, "is_reserved": 0, "is_disabled": 0, "fusion_lat": 0.0, "type": "electric_scooter", "name": "48b6df358a8ac643e76da0a96f670435", "lat": 38.9067335, "bike_id": "48b6df358a8ac643e76da0a96f670435"}, {"lon": -77.01406483333334, "rental_uris": {"android": "https://dc.lft.to/lastmile_qr_scan", "ios": "https://dc.lft.to/lastmile_qr_scan"}, "fusion_lon": 0.0, "is_reserved": 0, "is_disabled": 0, "fusion_lat": 0.0, "type": "electric_scooter", "name": "af247118a0ee5ef2f47d68e263050b5b", "lat": 38.887345833333335, "bike_id": "af247118a0ee5ef2f47d68e263050b5b"}, {"lon": -76.98076616666667, "rental_uris": {"android": "https://dc.lft.to/lastmile_qr_scan", "ios": "https://dc.lft.to/lastmile_qr_scan"}, "fusion_lon": 0.0, "is_reserved": 0, "is_disabled": 0, "fusion_lat": 0.0, "type": "electric_scooter", "name": "54c8a110a023e01844a24308293ae85b", "lat": 38.88011316666667, "bike_id": "54c8a110a023e01844a24308293ae85b"}, {"lon": -77.03534966666666, "rental_uris": {"android": "https://dc.lft.to/lastmile_qr_scan", "ios": "https://dc.lft.to/lastmile_qr_scan"}, "fusion_lon": 0.0, "is_reserved": 0, "is_disabled": 0, "fusion_lat": 0.0, "type": "electric_scooter", "name": "4a7b8b00c7302274731eb46441f6133b", "lat": 38.907321833333334, "bike_id": "4a7b8b00c7302274731eb46441f6133b"}, {"lon": -77.03439616666667, "rental_uris": {"android": "https://dc.lft.to/lastmile_qr_scan", "ios": "https://dc.lft.to/lastmile_qr_scan"}, "fusion_lon": 0.0, "is_reserved": 0, "is_disabled": 0, "fusion_lat": 0.0, "type": "electric_scooter", "name": "7c734bc32f5395b5e3e86db018c931b7", "lat": 38.9027525, "bike_id": "7c734bc32f5395b5e3e86db018c931b7"}, {"lon": -77.00535366666666, "rental_uris": {"android": "https://dc.lft.to/lastmile_qr_scan", "ios": "https://dc.lft.to/lastmile_qr_scan"}, "fusion_lon": 0.0, "is_reserved": 0, "is_disabled": 0, "fusion_lat": 0.0, "type": "electric_scooter", "name": "d3fb0bd35385c0b11b3159db05eb8dbf", "lat": 38.875403166666665, "bike_id": "d3fb0bd35385c0b11b3159db05eb8dbf"}, {"lon": -77.00606916666666, "rental_uris": {"android": "https://dc.lft.to/lastmile_qr_scan", "ios": "https://dc.lft.to/lastmile_qr_scan"}, "fusion_lon": 0.0, "is_reserved": 0, "is_disabled": 0, "fusion_lat": 0.0, "type": "electric_scooter", "name": "499cc4e6d1d2f08bfacaf0aed7fb7b43", "lat": 38.8756805, "bike_id": "499cc4e6d1d2f08bfacaf0aed7fb7b43"}, {"lon": -76.94611633333334, "rental_uris": {"android": "https://dc.lft.to/lastmile_qr_scan", "ios": "https://dc.lft.to/lastmile_qr_scan"}, "fusion_lon": 0.0, "is_reserved": 0, "is_disabled": 0, "fusion_lat": 0.0, "type": "electric_scooter", "name": "3f1e3392b7201fa21025ce7277b2a551", "lat": 38.898240333333334, "bike_id": "3f1e3392b7201fa21025ce7277b2a551"}, {"lon": -77.02954683333333, "rental_uris": {"android": "https://dc.lft.to/lastmile_qr_scan", "ios": "https://dc.lft.to/lastmile_qr_scan"}, "fusion_lon": 0.0, "is_reserved": 0, "is_disabled": 0, "fusion_lat": 0.0, "type": "electric_scooter", "name": "1bee5d98b1282378f8aaab32ad4528af", "lat": 38.917226, "bike_id": "1bee5d98b1282378f8aaab32ad4528af"}, {"lon": -77.0222185, "rental_uris": {"android": "https://dc.lft.to/lastmile_qr_scan", "ios": "https://dc.lft.to/lastmile_qr_scan"}, "fusion_lon": 0.0, "is_reserved": 0, "is_disabled": 0, "fusion_lat": 0.0, "type": "electric_scooter", "name": "8d464b12a03b72e1ac63a06ee54b1be1", "lat": 38.92462966666667, "bike_id": "8d464b12a03b72e1ac63a06ee54b1be1"}, {"lon": -76.9949645, "rental_uris": {"android": "https://dc.lft.to/lastmile_qr_scan", "ios": "https://dc.lft.to/lastmile_qr_scan"}, "fusion_lon": 0.0, "is_reserved": 0, "is_disabled": 0, "fusion_lat": 0.0, "type": "electric_bike", "name": "68d62eabf1d356b4164bcfcc9cd0371c", "lat": 38.86203666666667, "bike_id": "68d62eabf1d356b4164bcfcc9cd0371c"}, {"lon": -77.0281605, "rental_uris": {"android": "https://dc.lft.to/lastmile_qr_scan", "ios": "https://dc.lft.to/lastmile_qr_scan"}, "fusion_lon": 0.0, "is_reserved": 0, "is_disabled": 0, "fusion_lat": 0.0, "type": "electric_scooter", "name": "815aaa4823f4f173af804e86832e6ae0", "lat": 38.89526733333334, "bike_id": "815aaa4823f4f173af804e86832e6ae0"}, {"lon": -77.002045, "rental_uris": {"android": "https://dc.lft.to/lastmile_qr_scan", "ios": "https://dc.lft.to/lastmile_qr_scan"}, "fusion_lon": 0.0, "is_reserved": 0, "is_disabled": 0, "fusion_lat": 0.0, "type": "electric_scooter", "name": "27e7308c3098686a2ba4cdf7fc3c9f38", "lat": 38.90035533333333, "bike_id": "27e7308c3098686a2ba4cdf7fc3c9f38"}, {"lon": -77.05247183333333, "rental_uris": {"android": "https://dc.lft.to/lastmile_qr_scan", "ios": "https://dc.lft.to/lastmile_qr_scan"}, "fusion_lon": 0.0, "is_reserved": 0, "is_disabled": 0, "fusion_lat": 0.0, "type": "electric_scooter", "name": "814ee7633b4092cbf6bed25070d8e531", "lat": 38.92543166666667, "bike_id": "814ee7633b4092cbf6bed25070d8e531"}, {"lon": -77.04552766666667, "rental_uris": {"android": "https://dc.lft.to/lastmile_qr_scan", "ios": "https://dc.lft.to/lastmile_qr_scan"}, "fusion_lon": 0.0, "is_reserved": 0, "is_disabled": 0, "fusion_lat": 0.0, "type": "electric_scooter", "name": "5e1fc1f734df7f4c09b04feb94d02867", "lat": 38.91307233333333, "bike_id": "5e1fc1f734df7f4c09b04feb94d02867"}, {"lon": -77.0710695, "rental_uris": {"android": "https://dc.lft.to/lastmile_qr_scan", "ios": "https://dc.lft.to/lastmile_qr_scan"}, "fusion_lon": 0.0, "is_reserved": 0, "is_disabled": 0, "fusion_lat": 0.0, "type": "electric_scooter", "name": "189243333ff87fb91748aa1ab6f44399", "lat": 38.9197855, "bike_id": "189243333ff87fb91748aa1ab6f44399"}, {"lon": -77.03535233333334, "rental_uris": {"android": "https://dc.lft.to/lastmile_qr_scan", "ios": "https://dc.lft.to/lastmile_qr_scan"}, "fusion_lon": 0.0, "is_reserved": 0, "is_disabled": 0, "fusion_lat": 0.0, "type": "electric_scooter", "name": "1808bc3674293e67a800b94b9e4320a0", "lat": 38.9082485, "bike_id": "1808bc3674293e67a800b94b9e4320a0"}, {"lon": -76.98377183333334, "rental_uris": {"android": "https://dc.lft.to/lastmile_qr_scan", "ios": "https://dc.lft.to/lastmile_qr_scan"}, "fusion_lon": 0.0, "is_reserved": 0, "is_disabled": 0, "fusion_lat": 0.0, "type": "electric_scooter", "name": "67175f29cf3575120f4e4c7f118aa760", "lat": 38.88994733333333, "bike_id": "67175f29cf3575120f4e4c7f118aa760"}, {"lon": -77.01551383333333, "rental_uris": {"android": "https://dc.lft.to/lastmile_qr_scan", "ios": "https://dc.lft.to/lastmile_qr_scan"}, "fusion_lon": 0.0, "is_reserved": 0, "is_disabled": 0, "fusion_lat": 0.0, "type": "electric_scooter", "name": "d244b9aae58978f80a905f3a3cd01cad", "lat": 38.89172666666666, "bike_id": "d244b9aae58978f80a905f3a3cd01cad"}, {"lon": -77.02691116666666, "rental_uris": {"android": "https://dc.lft.to/lastmile_qr_scan", "ios": "https://dc.lft.to/lastmile_qr_scan"}, "fusion_lon": 0.0, "is_reserved": 0, "is_disabled": 0, "fusion_lat": 0.0, "type": "electric_scooter", "name": "ea5713e91b33acf4a273f860be4efbff", "lat": 38.90942066666667, "bike_id": "ea5713e91b33acf4a273f860be4efbff"}, {"lon": -77.0292745, "rental_uris": {"android": "https://dc.lft.to/lastmile_qr_scan", "ios": "https://dc.lft.to/lastmile_qr_scan"}, "fusion_lon": 0.0, "is_reserved": 0, "is_disabled": 0, "fusion_lat": 0.0, "type": "electric_scooter", "name": "66087064453189734f136ad6b0970984", "lat": 38.91679883333333, "bike_id": "66087064453189734f136ad6b0970984"}, {"lon": -77.02621866666667, "rental_uris": {"android": "https://dc.lft.to/lastmile_qr_scan", "ios": "https://dc.lft.to/lastmile_qr_scan"}, "fusion_lon": 0.0, "is_reserved": 0, "is_disabled": 0, "fusion_lat": 0.0, "type": "electric_scooter", "name": "d1829c61fcb5171ed22c7b7980acbdae", "lat": 38.89478416666667, "bike_id": "d1829c61fcb5171ed22c7b7980acbdae"}, {"lon": -77.03824233333333, "rental_uris": {"android": "https://dc.lft.to/lastmile_qr_scan", "ios": "https://dc.lft.to/lastmile_qr_scan"}, "fusion_lon": 0.0, "is_reserved": 0, "is_disabled": 0, "fusion_lat": 0.0, "type": "electric_scooter", "name": "af574228a984874e19c497019c5a5058", "lat": 38.900302, "bike_id": "af574228a984874e19c497019c5a5058"}, {"lon": -77.04361533333334, "rental_uris": {"android": "https://dc.lft.to/lastmile_qr_scan", "ios": "https://dc.lft.to/lastmile_qr_scan"}, "fusion_lon": 0.0, "is_reserved": 0, "is_disabled": 0, "fusion_lat": 0.0, "type": "electric_scooter", "name": "99cf283fa854301cb92774dc5e96def3", "lat": 38.903751166666666, "bike_id": "99cf283fa854301cb92774dc5e96def3"}, {"lon": -77.060967, "rental_uris": {"android": "https://dc.lft.to/lastmile_qr_scan", "ios": "https://dc.lft.to/lastmile_qr_scan"}, "fusion_lon": 0.0, "is_reserved": 0, "is_disabled": 0, "fusion_lat": 0.0, "type": "electric_scooter", "name": "637ebd328e148f963dd8d669a0f938e0", "lat": 38.902348333333336, "bike_id": "637ebd328e148f963dd8d669a0f938e0"}, {"lon": -77.02842, "rental_uris": {"android": "https://dc.lft.to/lastmile_qr_scan", "ios": "https://dc.lft.to/lastmile_qr_scan"}, "fusion_lon": 0.0, "is_reserved": 0, "is_disabled": 0, "fusion_lat": 0.0, "type": "electric_scooter", "name": "76559eb750a739fdbdb3233b6a5a1e11", "lat": 38.935835166666664, "bike_id": "76559eb750a739fdbdb3233b6a5a1e11"}, {"lon": -76.95092816666667, "rental_uris": {"android": "https://dc.lft.to/lastmile_qr_scan", "ios": "https://dc.lft.to/lastmile_qr_scan"}, "fusion_lon": 0.0, "is_reserved": 0, "is_disabled": 0, "fusion_lat": 0.0, "type": "electric_scooter", "name": "592d66d3f3f6720946d85f6a8a7732bf", "lat": 38.88444766666667, "bike_id": "592d66d3f3f6720946d85f6a8a7732bf"}, {"lon": -77.03675016666666, "rental_uris": {"android": "https://dc.lft.to/lastmile_qr_scan", "ios": "https://dc.lft.to/lastmile_qr_scan"}, "fusion_lon": 0.0, "is_reserved": 0, "is_disabled": 0, "fusion_lat": 0.0, "type": "electric_scooter", "name": "312e04f9ebec8e8e98fc59e1039a0efe", "lat": 38.900259, "bike_id": "312e04f9ebec8e8e98fc59e1039a0efe"}, {"lon": -77.0474935, "rental_uris": {"android": "https://dc.lft.to/lastmile_qr_scan", "ios": "https://dc.lft.to/lastmile_qr_scan"}, "fusion_lon": 0.0, "is_reserved": 0, "is_disabled": 0, "fusion_lat": 0.0, "type": "electric_scooter", "name": "eef4f111d842b79d53f2072a234ad44e", "lat": 38.90534816666667, "bike_id": "eef4f111d842b79d53f2072a234ad44e"}, {"lon": -77.01027633333334, "rental_uris": {"android": "https://dc.lft.to/lastmile_qr_scan", "ios": "https://dc.lft.to/lastmile_qr_scan"}, "fusion_lon": 0.0, "is_reserved": 0, "is_disabled": 0, "fusion_lat": 0.0, "type": "electric_scooter", "name": "25941f041fd24824ddc06738fecfe368", "lat": 38.89737866666667, "bike_id": "25941f041fd24824ddc06738fecfe368"}, {"lon": -77.04999233333334, "rental_uris": {"android": "https://dc.lft.to/lastmile_qr_scan", "ios": "https://dc.lft.to/lastmile_qr_scan"}, "fusion_lon": 0.0, "is_reserved": 0, "is_disabled": 0, "fusion_lat": 0.0, "type": "electric_scooter", "name": "ff8cba123ba44800c8a05978d1a1cc77", "lat": 38.9011845, "bike_id": "ff8cba123ba44800c8a05978d1a1cc77"}, {"lon": -77.00538066666667, "rental_uris": {"android": "https://dc.lft.to/lastmile_qr_scan", "ios": "https://dc.lft.to/lastmile_qr_scan"}, "fusion_lon": 0.0, "is_reserved": 0, "is_disabled": 0, "fusion_lat": 0.0, "type": "electric_scooter", "name": "51d6c7e63b804ec3aa253e6b4eabbf82", "lat": 38.900203833333336, "bike_id": "51d6c7e63b804ec3aa253e6b4eabbf82"}, {"lon": -77.03179666666666, "rental_uris": {"android": "https://dc.lft.to/lastmile_qr_scan", "ios": "https://dc.lft.to/lastmile_qr_scan"}, "fusion_lon": 0.0, "is_reserved": 0, "is_disabled": 0, "fusion_lat": 0.0, "type": "electric_scooter", "name": "458cf642e44fc6ea868c7f4ef66d38d7", "lat": 38.9010605, "bike_id": "458cf642e44fc6ea868c7f4ef66d38d7"}, {"lon": -77.04149066666666, "rental_uris": {"android": "https://dc.lft.to/lastmile_qr_scan", "ios": "https://dc.lft.to/lastmile_qr_scan"}, "fusion_lon": 0.0, "is_reserved": 0, "is_disabled": 0, "fusion_lat": 0.0, "type": "electric_scooter", "name": "43ffbf89ff4f223fa45d10a2a0fc623b", "lat": 38.92333033333333, "bike_id": "43ffbf89ff4f223fa45d10a2a0fc623b"}, {"lon": -77.0310625, "rental_uris": {"android": "https://dc.lft.to/lastmile_qr_scan", "ios": "https://dc.lft.to/lastmile_qr_scan"}, "fusion_lon": 0.0, "is_reserved": 0, "is_disabled": 0, "fusion_lat": 0.0, "type": "electric_scooter", "name": "625efef721edd8fdbbcd471ff0a0bdfc", "lat": 38.92380566666667, "bike_id": "625efef721edd8fdbbcd471ff0a0bdfc"}, {"lon": -76.96155183333333, "rental_uris": {"android": "https://dc.lft.to/lastmile_qr_scan", "ios": "https://dc.lft.to/lastmile_qr_scan"}, "fusion_lon": 0.0, "is_reserved": 0, "is_disabled": 0, "fusion_lat": 0.0, "type": "electric_bike", "name": "67c761885ed18574e06fffa59bbfec05", "lat": 38.85612866666666, "bike_id": "67c761885ed18574e06fffa59bbfec05"}, {"lon": -76.9996495, "rental_uris": {"android": "https://dc.lft.to/lastmile_qr_scan", "ios": "https://dc.lft.to/lastmile_qr_scan"}, "fusion_lon": 0.0, "is_reserved": 0, "is_disabled": 0, "fusion_lat": 0.0, "type": "electric_scooter", "name": "91694bb1716589c8423c673679fbd60c", "lat": 38.90941466666666, "bike_id": "91694bb1716589c8423c673679fbd60c"}, {"lon": -77.03184166666666, "rental_uris": {"android": "https://dc.lft.to/lastmile_qr_scan", "ios": "https://dc.lft.to/lastmile_qr_scan"}, "fusion_lon": 0.0, "is_reserved": 0, "is_disabled": 0, "fusion_lat": 0.0, "type": "electric_scooter", "name": "98fbcc3e2e80bdf9e1d5d5a8851322ef", "lat": 38.9361095, "bike_id": "98fbcc3e2e80bdf9e1d5d5a8851322ef"}, {"lon": -77.05052566666667, "rental_uris": {"android": "https://dc.lft.to/lastmile_qr_scan", "ios": "https://dc.lft.to/lastmile_qr_scan"}, "fusion_lon": 0.0, "is_reserved": 0, "is_disabled": 0, "fusion_lat": 0.0, "type": "electric_scooter", "name": "c105ed095a3f404af3bbeafcf5b8906c", "lat": 38.899617, "bike_id": "c105ed095a3f404af3bbeafcf5b8906c"}, {"lon": -77.01191333333334, "rental_uris": {"android": "https://dc.lft.to/lastmile_qr_scan", "ios": "https://dc.lft.to/lastmile_qr_scan"}, "fusion_lon": 0.0, "is_reserved": 0, "is_disabled": 0, "fusion_lat": 0.0, "type": "electric_scooter", "name": "490958b07402f2a8d867947f726624fb", "lat": 38.897986, "bike_id": "490958b07402f2a8d867947f726624fb"}, {"lon": -77.02965583333334, "rental_uris": {"android": "https://dc.lft.to/lastmile_qr_scan", "ios": "https://dc.lft.to/lastmile_qr_scan"}, "fusion_lon": 0.0, "is_reserved": 0, "is_disabled": 0, "fusion_lat": 0.0, "type": "electric_scooter", "name": "10295ff47e25c5a5141c5626048305fd", "lat": 38.916827, "bike_id": "10295ff47e25c5a5141c5626048305fd"}, {"lon": -76.99408983333333, "rental_uris": {"android": "https://dc.lft.to/lastmile_qr_scan", "ios": "https://dc.lft.to/lastmile_qr_scan"}, "fusion_lon": 0.0, "is_reserved": 0, "is_disabled": 0, "fusion_lat": 0.0, "type": "electric_scooter", "name": "ed63643e7a0d5cd38aa98dc0df2561d6", "lat": 38.8778475, "bike_id": "ed63643e7a0d5cd38aa98dc0df2561d6"}, {"lon": -77.04864033333334, "rental_uris": {"android": "https://dc.lft.to/lastmile_qr_scan", "ios": "https://dc.lft.to/lastmile_qr_scan"}, "fusion_lon": 0.0, "is_reserved": 0, "is_disabled": 0, "fusion_lat": 0.0, "type": "electric_scooter", "name": "821fce9e2c1aa2fc031b5b703c839afb", "lat": 38.892223, "bike_id": "821fce9e2c1aa2fc031b5b703c839afb"}, {"lon": -77.04872866666666, "rental_uris": {"android": "https://dc.lft.to/lastmile_qr_scan", "ios": "https://dc.lft.to/lastmile_qr_scan"}, "fusion_lon": 0.0, "is_reserved": 0, "is_disabled": 0, "fusion_lat": 0.0, "type": "electric_scooter", "name": "96c2fbcebe7826df306502f3e2781c0c", "lat": 38.89221933333334, "bike_id": "96c2fbcebe7826df306502f3e2781c0c"}, {"lon": -77.0499975, "rental_uris": {"android": "https://dc.lft.to/lastmile_qr_scan", "ios": "https://dc.lft.to/lastmile_qr_scan"}, "fusion_lon": 0.0, "is_reserved": 0, "is_disabled": 0, "fusion_lat": 0.0, "type": "electric_scooter", "name": "7d55ad8ca27543c0faaae612ccbdfcdc", "lat": 38.89226433333333, "bike_id": "7d55ad8ca27543c0faaae612ccbdfcdc"}, {"lon": -77.03423966666666, "rental_uris": {"android": "https://dc.lft.to/lastmile_qr_scan", "ios": "https://dc.lft.to/lastmile_qr_scan"}, "fusion_lon": 0.0, "is_reserved": 0, "is_disabled": 0, "fusion_lat": 0.0, "type": "electric_bike", "name": "c9db14edeef3f2edb496eeb8b292404c", "lat": 38.966195, "bike_id": "c9db14edeef3f2edb496eeb8b292404c"}, {"lon": -76.99775833333334, "rental_uris": {"android": "https://dc.lft.to/lastmile_qr_scan", "ios": "https://dc.lft.to/lastmile_qr_scan"}, "fusion_lon": 0.0, "is_reserved": 0, "is_disabled": 0, "fusion_lat": 0.0, "type": "electric_scooter", "name": "c695afc45ed11a7fe25d06b6769d61cd", "lat": 38.844240666666664, "bike_id": "c695afc45ed11a7fe25d06b6769d61cd"}, {"lon": -77.03476733333333, "rental_uris": {"android": "https://dc.lft.to/lastmile_qr_scan", "ios": "https://dc.lft.to/lastmile_qr_scan"}, "fusion_lon": 0.0, "is_reserved": 0, "is_disabled": 0, "fusion_lat": 0.0, "type": "electric_scooter", "name": "be78628a6294deb6b00c1ef036cee5d9", "lat": 38.88485883333333, "bike_id": "be78628a6294deb6b00c1ef036cee5d9"}, {"lon": -77.00706733333334, "rental_uris": {"android": "https://dc.lft.to/lastmile_qr_scan", "ios": "https://dc.lft.to/lastmile_qr_scan"}, "fusion_lon": 0.0, "is_reserved": 0, "is_disabled": 0, "fusion_lat": 0.0, "type": "electric_scooter", "name": "934820ddf42ffdae6a23bf48c81ec907", "lat": 38.884856, "bike_id": "934820ddf42ffdae6a23bf48c81ec907"}, {"lon": -77.04335416666666, "rental_uris": {"android": "https://dc.lft.to/lastmile_qr_scan", "ios": "https://dc.lft.to/lastmile_qr_scan"}, "fusion_lon": 0.0, "is_reserved": 0, "is_disabled": 0, "fusion_lat": 0.0, "type": "electric_scooter", "name": "f549100c49f7ccc3c1d866d47b912888", "lat": 38.89223116666667, "bike_id": "f549100c49f7ccc3c1d866d47b912888"}, {"lon": -77.0215075, "rental_uris": {"android": "https://dc.lft.to/lastmile_qr_scan", "ios": "https://dc.lft.to/lastmile_qr_scan"}, "fusion_lon": 0.0, "is_reserved": 0, "is_disabled": 0, "fusion_lat": 0.0, "type": "electric_scooter", "name": "33290af1b243b6663ab3e368918e7bbd", "lat": 38.9259655, "bike_id": "33290af1b243b6663ab3e368918e7bbd"}, {"lon": -77.03624166666667, "rental_uris": {"android": "https://dc.lft.to/lastmile_qr_scan", "ios": "https://dc.lft.to/lastmile_qr_scan"}, "fusion_lon": 0.0, "is_reserved": 0, "is_disabled": 0, "fusion_lat": 0.0, "type": "electric_scooter", "name": "24c4ab358e85137fea5dc41055bb72f9", "lat": 38.95280416666667, "bike_id": "24c4ab358e85137fea5dc41055bb72f9"}, {"lon": -77.02880616666667, "rental_uris": {"android": "https://dc.lft.to/lastmile_qr_scan", "ios": "https://dc.lft.to/lastmile_qr_scan"}, "fusion_lon": 0.0, "is_reserved": 0, "is_disabled": 0, "fusion_lat": 0.0, "type": "electric_scooter", "name": "d3cacb441a2e1d49dff59d099e63e350", "lat": 38.96080466666667, "bike_id": "d3cacb441a2e1d49dff59d099e63e350"}, {"lon": -77.01780833333333, "rental_uris": {"android": "https://dc.lft.to/lastmile_qr_scan", "ios": "https://dc.lft.to/lastmile_qr_scan"}, "fusion_lon": 0.0, "is_reserved": 0, "is_disabled": 0, "fusion_lat": 0.0, "type": "electric_bike", "name": "c66b5dd85267d4491b75fd14237c54de", "lat": 38.9199185, "bike_id": "c66b5dd85267d4491b75fd14237c54de"}, {"lon": -77.03315083333334, "rental_uris": {"android": "https://dc.lft.to/lastmile_qr_scan", "ios": "https://dc.lft.to/lastmile_qr_scan"}, "fusion_lon": 0.0, "is_reserved": 0, "is_disabled": 0, "fusion_lat": 0.0, "type": "electric_scooter", "name": "ca2deeec14e1688173ac9d575408e949", "lat": 38.928805, "bike_id": "ca2deeec14e1688173ac9d575408e949"}, {"lon": -77.04469183333333, "rental_uris": {"android": "https://dc.lft.to/lastmile_qr_scan", "ios": "https://dc.lft.to/lastmile_qr_scan"}, "fusion_lon": 0.0, "is_reserved": 0, "is_disabled": 0, "fusion_lat": 0.0, "type": "electric_scooter", "name": "d40d816d21ab6a0b87d7d1ae0cfc5073", "lat": 38.89222933333333, "bike_id": "d40d816d21ab6a0b87d7d1ae0cfc5073"}, {"lon": -77.04309883333333, "rental_uris": {"android": "https://dc.lft.to/lastmile_qr_scan", "ios": "https://dc.lft.to/lastmile_qr_scan"}, "fusion_lon": 0.0, "is_reserved": 0, "is_disabled": 0, "fusion_lat": 0.0, "type": "electric_scooter", "name": "86a379fded83d9ec333cfbc625d4dd60", "lat": 38.9056605, "bike_id": "86a379fded83d9ec333cfbc625d4dd60"}, {"lon": -76.99533616666666, "rental_uris": {"android": "https://dc.lft.to/lastmile_qr_scan", "ios": "https://dc.lft.to/lastmile_qr_scan"}, "fusion_lon": 0.0, "is_reserved": 0, "is_disabled": 0, "fusion_lat": 0.0, "type": "electric_scooter", "name": "e23b0f0f07630605137b6c48e6976e72", "lat": 38.86262166666667, "bike_id": "e23b0f0f07630605137b6c48e6976e72"}, {"lon": -77.03455816666667, "rental_uris": {"android": "https://dc.lft.to/lastmile_qr_scan", "ios": "https://dc.lft.to/lastmile_qr_scan"}, "fusion_lon": 0.0, "is_reserved": 0, "is_disabled": 0, "fusion_lat": 0.0, "type": "electric_scooter", "name": "1c5345162470ea89a05ef9520bf2a83d", "lat": 38.9055135, "bike_id": "1c5345162470ea89a05ef9520bf2a83d"}, {"lon": -77.030416, "rental_uris": {"android": "https://dc.lft.to/lastmile_qr_scan", "ios": "https://dc.lft.to/lastmile_qr_scan"}, "fusion_lon": 0.0, "is_reserved": 0, "is_disabled": 0, "fusion_lat": 0.0, "type": "electric_scooter", "name": "3a0200225dcab75f14c67440b5117deb", "lat": 38.91668466666667, "bike_id": "3a0200225dcab75f14c67440b5117deb"}, {"lon": -77.0387015, "rental_uris": {"android": "https://dc.lft.to/lastmile_qr_scan", "ios": "https://dc.lft.to/lastmile_qr_scan"}, "fusion_lon": 0.0, "is_reserved": 0, "is_disabled": 0, "fusion_lat": 0.0, "type": "electric_scooter", "name": "2afd95d36efdb2be230d6c76755c3fc7", "lat": 38.90353316666667, "bike_id": "2afd95d36efdb2be230d6c76755c3fc7"}, {"lon": -77.030344, "rental_uris": {"android": "https://dc.lft.to/lastmile_qr_scan", "ios": "https://dc.lft.to/lastmile_qr_scan"}, "fusion_lon": 0.0, "is_reserved": 0, "is_disabled": 0, "fusion_lat": 0.0, "type": "electric_scooter", "name": "c62ad4ad619f5deac24993619abaaf8f", "lat": 38.898083666666665, "bike_id": "c62ad4ad619f5deac24993619abaaf8f"}, {"lon": -77.02204733333333, "rental_uris": {"android": "https://dc.lft.to/lastmile_qr_scan", "ios": "https://dc.lft.to/lastmile_qr_scan"}, "fusion_lon": 0.0, "is_reserved": 0, "is_disabled": 0, "fusion_lat": 0.0, "type": "electric_scooter", "name": "cf02eaf47cf8ede45d9dcf28c98814ea", "lat": 38.9035495, "bike_id": "cf02eaf47cf8ede45d9dcf28c98814ea"}, {"lon": -77.027036, "rental_uris": {"android": "https://dc.lft.to/lastmile_qr_scan", "ios": "https://dc.lft.to/lastmile_qr_scan"}, "fusion_lon": 0.0, "is_reserved": 0, "is_disabled": 0, "fusion_lat": 0.0, "type": "electric_scooter", "name": "6a8cc821e411d5871b5f0604b8d5916e", "lat": 38.9172015, "bike_id": "6a8cc821e411d5871b5f0604b8d5916e"}, {"lon": -77.03992166666667, "rental_uris": {"android": "https://dc.lft.to/lastmile_qr_scan", "ios": "https://dc.lft.to/lastmile_qr_scan"}, "fusion_lon": 0.0, "is_reserved": 0, "is_disabled": 0, "fusion_lat": 0.0, "type": "electric_scooter", "name": "d21472a66edd53d35d29b801564c72bf", "lat": 38.89835216666667, "bike_id": "d21472a66edd53d35d29b801564c72bf"}, {"lon": -77.019457, "rental_uris": {"android": "https://dc.lft.to/lastmile_qr_scan", "ios": "https://dc.lft.to/lastmile_qr_scan"}, "fusion_lon": 0.0, "is_reserved": 0, "is_disabled": 0, "fusion_lat": 0.0, "type": "electric_scooter", "name": "61ddacd440eb25449e7df88314f6b220", "lat": 38.9240925, "bike_id": "61ddacd440eb25449e7df88314f6b220"}, {"lon": -77.02942933333334, "rental_uris": {"android": "https://dc.lft.to/lastmile_qr_scan", "ios": "https://dc.lft.to/lastmile_qr_scan"}, "fusion_lon": 0.0, "is_reserved": 0, "is_disabled": 0, "fusion_lat": 0.0, "type": "electric_scooter", "name": "ee44c10c63856dc9484cb76098037eec", "lat": 38.916866, "bike_id": "ee44c10c63856dc9484cb76098037eec"}, {"lon": -76.93182766666666, "rental_uris": {"android": "https://dc.lft.to/lastmile_qr_scan", "ios": "https://dc.lft.to/lastmile_qr_scan"}, "fusion_lon": 0.0, "is_reserved": 0, "is_disabled": 0, "fusion_lat": 0.0, "type": "electric_scooter", "name": "58c126994303261662d502e6f7b2c3d8", "lat": 38.89877033333333, "bike_id": "58c126994303261662d502e6f7b2c3d8"}, {"lon": -77.03210416666667, "rental_uris": {"android": "https://dc.lft.to/lastmile_qr_scan", "ios": "https://dc.lft.to/lastmile_qr_scan"}, "fusion_lon": 0.0, "is_reserved": 0, "is_disabled": 0, "fusion_lat": 0.0, "type": "electric_scooter", "name": "2d501af8ba24c832c62b47d7e0ba9943", "lat": 38.8921605, "bike_id": "2d501af8ba24c832c62b47d7e0ba9943"}, {"lon": -76.97772916666666, "rental_uris": {"android": "https://dc.lft.to/lastmile_qr_scan", "ios": "https://dc.lft.to/lastmile_qr_scan"}, "fusion_lon": 0.0, "is_reserved": 0, "is_disabled": 0, "fusion_lat": 0.0, "type": "electric_bike", "name": "a5735c9d42e52b6edc64a440285295a6", "lat": 38.857218833333334, "bike_id": "a5735c9d42e52b6edc64a440285295a6"}, {"lon": -77.0298145, "rental_uris": {"android": "https://dc.lft.to/lastmile_qr_scan", "ios": "https://dc.lft.to/lastmile_qr_scan"}, "fusion_lon": 0.0, "is_reserved": 0, "is_disabled": 0, "fusion_lat": 0.0, "type": "electric_scooter", "name": "25b720af1e32135c483eba6eb2e0a165", "lat": 38.949781333333334, "bike_id": "25b720af1e32135c483eba6eb2e0a165"}, {"lon": -77.02943166666667, "rental_uris": {"android": "https://dc.lft.to/lastmile_qr_scan", "ios": "https://dc.lft.to/lastmile_qr_scan"}, "fusion_lon": 0.0, "is_reserved": 0, "is_disabled": 0, "fusion_lat": 0.0, "type": "electric_scooter", "name": "af0344b1f973f5c726d951876bdeb38d", "lat": 38.942818333333335, "bike_id": "af0344b1f973f5c726d951876bdeb38d"}, {"lon": -77.0230375, "rental_uris": {"android": "https://dc.lft.to/lastmile_qr_scan", "ios": "https://dc.lft.to/lastmile_qr_scan"}, "fusion_lon": 0.0, "is_reserved": 0, "is_disabled": 0, "fusion_lat": 0.0, "type": "electric_scooter", "name": "a17b135e764340a0c2d2869838988ec1", "lat": 38.91780216666667, "bike_id": "a17b135e764340a0c2d2869838988ec1"}, {"lon": -77.0316635, "rental_uris": {"android": "https://dc.lft.to/lastmile_qr_scan", "ios": "https://dc.lft.to/lastmile_qr_scan"}, "fusion_lon": 0.0, "is_reserved": 0, "is_disabled": 0, "fusion_lat": 0.0, "type": "electric_scooter", "name": "626411f742dacd11abc5913bf98ef59a", "lat": 38.88720633333333, "bike_id": "626411f742dacd11abc5913bf98ef59a"}, {"lon": -77.04716983333333, "rental_uris": {"android": "https://dc.lft.to/lastmile_qr_scan", "ios": "https://dc.lft.to/lastmile_qr_scan"}, "fusion_lon": 0.0, "is_reserved": 0, "is_disabled": 0, "fusion_lat": 0.0, "type": "electric_bike", "name": "57563e55544f8b086af1a6b8826b2520", "lat": 38.9976955, "bike_id": "57563e55544f8b086af1a6b8826b2520"}, {"lon": -77.02178216666667, "rental_uris": {"android": "https://dc.lft.to/lastmile_qr_scan", "ios": "https://dc.lft.to/lastmile_qr_scan"}, "fusion_lon": 0.0, "is_reserved": 0, "is_disabled": 0, "fusion_lat": 0.0, "type": "electric_scooter", "name": "1bd6ad088afb0d6193f8df5c92908efe", "lat": 38.9105295, "bike_id": "1bd6ad088afb0d6193f8df5c92908efe"}, {"lon": -77.018222, "rental_uris": {"android": "https://dc.lft.to/lastmile_qr_scan", "ios": "https://dc.lft.to/lastmile_qr_scan"}, "fusion_lon": 0.0, "is_reserved": 0, "is_disabled": 0, "fusion_lat": 0.0, "type": "electric_scooter", "name": "36098ead52f538a834c1faae5d176ab3", "lat": 38.922534166666665, "bike_id": "36098ead52f538a834c1faae5d176ab3"}, {"lon": -77.03449533333334, "rental_uris": {"android": "https://dc.lft.to/lastmile_qr_scan", "ios": "https://dc.lft.to/lastmile_qr_scan"}, "fusion_lon": 0.0, "is_reserved": 0, "is_disabled": 0, "fusion_lat": 0.0, "type": "electric_scooter", "name": "4e7ce775aef1ca0eb175bad24aed6e1a", "lat": 38.904871166666666, "bike_id": "4e7ce775aef1ca0eb175bad24aed6e1a"}, {"lon": -77.04653883333333, "rental_uris": {"android": "https://dc.lft.to/lastmile_qr_scan", "ios": "https://dc.lft.to/lastmile_qr_scan"}, "fusion_lon": 0.0, "is_reserved": 0, "is_disabled": 0, "fusion_lat": 0.0, "type": "electric_scooter", "name": "1c6445390706aa80a4994c6c7355430a", "lat": 38.910223, "bike_id": "1c6445390706aa80a4994c6c7355430a"}, {"lon": -77.00284716666667, "rental_uris": {"android": "https://dc.lft.to/lastmile_qr_scan", "ios": "https://dc.lft.to/lastmile_qr_scan"}, "fusion_lon": 0.0, "is_reserved": 0, "is_disabled": 0, "fusion_lat": 0.0, "type": "electric_scooter", "name": "a3dabcc4e40b1ae4537a882f5fa33296", "lat": 38.892239833333335, "bike_id": "a3dabcc4e40b1ae4537a882f5fa33296"}, {"lon": -76.99572816666667, "rental_uris": {"android": "https://dc.lft.to/lastmile_qr_scan", "ios": "https://dc.lft.to/lastmile_qr_scan"}, "fusion_lon": 0.0, "is_reserved": 0, "is_disabled": 0, "fusion_lat": 0.0, "type": "electric_scooter", "name": "e80262a44bf674223531bb08d1f725e8", "lat": 38.86270183333333, "bike_id": "e80262a44bf674223531bb08d1f725e8"}, {"lon": -77.04521883333334, "rental_uris": {"android": "https://dc.lft.to/lastmile_qr_scan", "ios": "https://dc.lft.to/lastmile_qr_scan"}, "fusion_lon": 0.0, "is_reserved": 0, "is_disabled": 0, "fusion_lat": 0.0, "type": "electric_scooter", "name": "4cfd114692167649ea182f03a0462d45", "lat": 38.901408, "bike_id": "4cfd114692167649ea182f03a0462d45"}, {"lon": -77.01172116666666, "rental_uris": {"android": "https://dc.lft.to/lastmile_qr_scan", "ios": "https://dc.lft.to/lastmile_qr_scan"}, "fusion_lon": 0.0, "is_reserved": 0, "is_disabled": 0, "fusion_lat": 0.0, "type": "electric_scooter", "name": "4edc39358cbe82c345924b1c7b0eaec1", "lat": 38.916856333333335, "bike_id": "4edc39358cbe82c345924b1c7b0eaec1"}, {"lon": -77.0318355, "rental_uris": {"android": "https://dc.lft.to/lastmile_qr_scan", "ios": "https://dc.lft.to/lastmile_qr_scan"}, "fusion_lon": 0.0, "is_reserved": 0, "is_disabled": 0, "fusion_lat": 0.0, "type": "electric_scooter", "name": "f4ba21da1177916124a8e7660f621fec", "lat": 38.891861666666664, "bike_id": "f4ba21da1177916124a8e7660f621fec"}, {"lon": -76.98440816666667, "rental_uris": {"android": "https://dc.lft.to/lastmile_qr_scan", "ios": "https://dc.lft.to/lastmile_qr_scan"}, "fusion_lon": 0.0, "is_reserved": 0, "is_disabled": 0, "fusion_lat": 0.0, "type": "electric_scooter", "name": "24ab6daeac69fcee65be28b195cf8bea", "lat": 38.9143315, "bike_id": "24ab6daeac69fcee65be28b195cf8bea"}, {"lon": -77.04075833333333, "rental_uris": {"android": "https://dc.lft.to/lastmile_qr_scan", "ios": "https://dc.lft.to/lastmile_qr_scan"}, "fusion_lon": 0.0, "is_reserved": 0, "is_disabled": 0, "fusion_lat": 0.0, "type": "electric_scooter", "name": "16eac3d2f46b20fd9a99f90663db19a8", "lat": 38.93275583333333, "bike_id": "16eac3d2f46b20fd9a99f90663db19a8"}, {"lon": -77.03569916666666, "rental_uris": {"android": "https://dc.lft.to/lastmile_qr_scan", "ios": "https://dc.lft.to/lastmile_qr_scan"}, "fusion_lon": 0.0, "is_reserved": 0, "is_disabled": 0, "fusion_lat": 0.0, "type": "electric_scooter", "name": "4f11723a529c30a7d9d65f1bd2cb43a7", "lat": 38.926834666666664, "bike_id": "4f11723a529c30a7d9d65f1bd2cb43a7"}, {"lon": -77.0102595, "rental_uris": {"android": "https://dc.lft.to/lastmile_qr_scan", "ios": "https://dc.lft.to/lastmile_qr_scan"}, "fusion_lon": 0.0, "is_reserved": 0, "is_disabled": 0, "fusion_lat": 0.0, "type": "electric_scooter", "name": "1a6f71814cc7d5a61929b4ed64077d73", "lat": 38.89827183333333, "bike_id": "1a6f71814cc7d5a61929b4ed64077d73"}, {"lon": -76.9575795, "rental_uris": {"android": "https://dc.lft.to/lastmile_qr_scan", "ios": "https://dc.lft.to/lastmile_qr_scan"}, "fusion_lon": 0.0, "is_reserved": 0, "is_disabled": 0, "fusion_lat": 0.0, "type": "electric_scooter", "name": "105f8eb8cbed6b7d24eeab6177578839", "lat": 38.884245166666666, "bike_id": "105f8eb8cbed6b7d24eeab6177578839"}, {"lon": -77.0238335, "rental_uris": {"android": "https://dc.lft.to/lastmile_qr_scan", "ios": "https://dc.lft.to/lastmile_qr_scan"}, "fusion_lon": 0.0, "is_reserved": 0, "is_disabled": 0, "fusion_lat": 0.0, "type": "electric_scooter", "name": "0b227c06eed324dd85b83546babfd60d", "lat": 38.88735166666667, "bike_id": "0b227c06eed324dd85b83546babfd60d"}, {"lon": -77.03846983333334, "rental_uris": {"android": "https://dc.lft.to/lastmile_qr_scan", "ios": "https://dc.lft.to/lastmile_qr_scan"}, "fusion_lon": 0.0, "is_reserved": 0, "is_disabled": 0, "fusion_lat": 0.0, "type": "electric_scooter", "name": "e6ce5e124a7b7d710bba4891fa496b52", "lat": 38.941911, "bike_id": "e6ce5e124a7b7d710bba4891fa496b52"}, {"lon": -77.012557, "rental_uris": {"android": "https://dc.lft.to/lastmile_qr_scan", "ios": "https://dc.lft.to/lastmile_qr_scan"}, "fusion_lon": 0.0, "is_reserved": 0, "is_disabled": 0, "fusion_lat": 0.0, "type": "electric_scooter", "name": "c5dbf7e3d950c4dd86cd4064680cc912", "lat": 38.908402333333335, "bike_id": "c5dbf7e3d950c4dd86cd4064680cc912"}, {"lon": -77.02202333333334, "rental_uris": {"android": "https://dc.lft.to/lastmile_qr_scan", "ios": "https://dc.lft.to/lastmile_qr_scan"}, "fusion_lon": 0.0, "is_reserved": 0, "is_disabled": 0, "fusion_lat": 0.0, "type": "electric_scooter", "name": "8343dbf35790d2cbeacf384dc1f7d7c1", "lat": 38.9153675, "bike_id": "8343dbf35790d2cbeacf384dc1f7d7c1"}, {"lon": -77.02173283333333, "rental_uris": {"android": "https://dc.lft.to/lastmile_qr_scan", "ios": "https://dc.lft.to/lastmile_qr_scan"}, "fusion_lon": 0.0, "is_reserved": 0, "is_disabled": 0, "fusion_lat": 0.0, "type": "electric_scooter", "name": "5b559654cd41fa0ce04556a281fafbc8", "lat": 38.9428375, "bike_id": "5b559654cd41fa0ce04556a281fafbc8"}, {"lon": -76.98359566666667, "rental_uris": {"android": "https://dc.lft.to/lastmile_qr_scan", "ios": "https://dc.lft.to/lastmile_qr_scan"}, "fusion_lon": 0.0, "is_reserved": 0, "is_disabled": 0, "fusion_lat": 0.0, "type": "electric_scooter", "name": "2cb185028e0e2f590bbc7d68c7b3332b", "lat": 38.887234, "bike_id": "2cb185028e0e2f590bbc7d68c7b3332b"}, {"lon": -77.02051433333334, "rental_uris": {"android": "https://dc.lft.to/lastmile_qr_scan", "ios": "https://dc.lft.to/lastmile_qr_scan"}, "fusion_lon": 0.0, "is_reserved": 0, "is_disabled": 0, "fusion_lat": 0.0, "type": "electric_scooter", "name": "ee4267a282b6ceae6ea4351526c2d82b", "lat": 38.9190265, "bike_id": "ee4267a282b6ceae6ea4351526c2d82b"}, {"lon": -77.04990983333333, "rental_uris": {"android": "https://dc.lft.to/lastmile_qr_scan", "ios": "https://dc.lft.to/lastmile_qr_scan"}, "fusion_lon": 0.0, "is_reserved": 0, "is_disabled": 0, "fusion_lat": 0.0, "type": "electric_scooter", "name": "b91a9bf77796ef41177dd8e805239d81", "lat": 38.90110833333333, "bike_id": "b91a9bf77796ef41177dd8e805239d81"}, {"lon": -76.99987066666667, "rental_uris": {"android": "https://dc.lft.to/lastmile_qr_scan", "ios": "https://dc.lft.to/lastmile_qr_scan"}, "fusion_lon": 0.0, "is_reserved": 0, "is_disabled": 0, "fusion_lat": 0.0, "type": "electric_scooter", "name": "cc77023fb7d069ee5aa8dd1549face23", "lat": 38.908587, "bike_id": "cc77023fb7d069ee5aa8dd1549face23"}, {"lon": -77.073164, "rental_uris": {"android": "https://dc.lft.to/lastmile_qr_scan", "ios": "https://dc.lft.to/lastmile_qr_scan"}, "fusion_lon": 0.0, "is_reserved": 0, "is_disabled": 0, "fusion_lat": 0.0, "type": "electric_scooter", "name": "6462ddfc4fd5d4769212276ac7b65ee7", "lat": 38.936078333333334, "bike_id": "6462ddfc4fd5d4769212276ac7b65ee7"}, {"lon": -77.053532, "rental_uris": {"android": "https://dc.lft.to/lastmile_qr_scan", "ios": "https://dc.lft.to/lastmile_qr_scan"}, "fusion_lon": 0.0, "is_reserved": 0, "is_disabled": 0, "fusion_lat": 0.0, "type": "electric_scooter", "name": "7705426e44886c9c64920a536ff9c160", "lat": 38.927237166666664, "bike_id": "7705426e44886c9c64920a536ff9c160"}, {"lon": -77.03791816666667, "rental_uris": {"android": "https://dc.lft.to/lastmile_qr_scan", "ios": "https://dc.lft.to/lastmile_qr_scan"}, "fusion_lon": 0.0, "is_reserved": 0, "is_disabled": 0, "fusion_lat": 0.0, "type": "electric_bike", "name": "d418e44dbd1ebe094a0a6e628135e71b", "lat": 38.996557333333335, "bike_id": "d418e44dbd1ebe094a0a6e628135e71b"}, {"lon": -76.93726483333333, "rental_uris": {"android": "https://dc.lft.to/lastmile_qr_scan", "ios": "https://dc.lft.to/lastmile_qr_scan"}, "fusion_lon": 0.0, "is_reserved": 0, "is_disabled": 0, "fusion_lat": 0.0, "type": "electric_scooter", "name": "7e77111faa1e22ced3cf0023cc3e806f", "lat": 38.8903045, "bike_id": "7e77111faa1e22ced3cf0023cc3e806f"}, {"lon": -77.02374833333333, "rental_uris": {"android": "https://dc.lft.to/lastmile_qr_scan", "ios": "https://dc.lft.to/lastmile_qr_scan"}, "fusion_lon": 0.0, "is_reserved": 0, "is_disabled": 0, "fusion_lat": 0.0, "type": "electric_scooter", "name": "d9d128ee6534b6651ee8b43c312d3b86", "lat": 38.8918635, "bike_id": "d9d128ee6534b6651ee8b43c312d3b86"}, {"lon": -77.0176245, "rental_uris": {"android": "https://dc.lft.to/lastmile_qr_scan", "ios": "https://dc.lft.to/lastmile_qr_scan"}, "fusion_lon": 0.0, "is_reserved": 0, "is_disabled": 0, "fusion_lat": 0.0, "type": "electric_scooter", "name": "36b9c838b94620c997be3e5aff032c60", "lat": 38.88429416666666, "bike_id": "36b9c838b94620c997be3e5aff032c60"}, {"lon": -77.04154466666667, "rental_uris": {"android": "https://dc.lft.to/lastmile_qr_scan", "ios": "https://dc.lft.to/lastmile_qr_scan"}, "fusion_lon": 0.0, "is_reserved": 0, "is_disabled": 0, "fusion_lat": 0.0, "type": "electric_scooter", "name": "62f7fdc7ca2b0b5b6e85ce3fcce6614e", "lat": 38.89226883333333, "bike_id": "62f7fdc7ca2b0b5b6e85ce3fcce6614e"}, {"lon": -77.04333633333333, "rental_uris": {"android": "https://dc.lft.to/lastmile_qr_scan", "ios": "https://dc.lft.to/lastmile_qr_scan"}, "fusion_lon": 0.0, "is_reserved": 0, "is_disabled": 0, "fusion_lat": 0.0, "type": "electric_scooter", "name": "e1f11f7bec98ee97c2221424d020bfc3", "lat": 38.9221575, "bike_id": "e1f11f7bec98ee97c2221424d020bfc3"}, {"lon": -77.043698, "rental_uris": {"android": "https://dc.lft.to/lastmile_qr_scan", "ios": "https://dc.lft.to/lastmile_qr_scan"}, "fusion_lon": 0.0, "is_reserved": 0, "is_disabled": 0, "fusion_lat": 0.0, "type": "electric_scooter", "name": "7dc50f8290dcefada097fc2bb1f8c04c", "lat": 38.9042385, "bike_id": "7dc50f8290dcefada097fc2bb1f8c04c"}, {"lon": -77.01368166666667, "rental_uris": {"android": "https://dc.lft.to/lastmile_qr_scan", "ios": "https://dc.lft.to/lastmile_qr_scan"}, "fusion_lon": 0.0, "is_reserved": 0, "is_disabled": 0, "fusion_lat": 0.0, "type": "electric_scooter", "name": "6b3f0e685349044106125c9df22ad862", "lat": 38.92886383333333, "bike_id": "6b3f0e685349044106125c9df22ad862"}, {"lon": -76.93184966666666, "rental_uris": {"android": "https://dc.lft.to/lastmile_qr_scan", "ios": "https://dc.lft.to/lastmile_qr_scan"}, "fusion_lon": 0.0, "is_reserved": 0, "is_disabled": 0, "fusion_lat": 0.0, "type": "electric_scooter", "name": "16785ec582537c7dfe928af169dfc3d4", "lat": 38.898736666666665, "bike_id": "16785ec582537c7dfe928af169dfc3d4"}, {"lon": -76.9733195, "rental_uris": {"android": "https://dc.lft.to/lastmile_qr_scan", "ios": "https://dc.lft.to/lastmile_qr_scan"}, "fusion_lon": 0.0, "is_reserved": 0, "is_disabled": 0, "fusion_lat": 0.0, "type": "electric_scooter", "name": "d3c50a7123b21ea3d44ea2bf6f16d1ec", "lat": 38.904812166666666, "bike_id": "d3c50a7123b21ea3d44ea2bf6f16d1ec"}, {"lon": -77.04675166666667, "rental_uris": {"android": "https://dc.lft.to/lastmile_qr_scan", "ios": "https://dc.lft.to/lastmile_qr_scan"}, "fusion_lon": 0.0, "is_reserved": 0, "is_disabled": 0, "fusion_lat": 0.0, "type": "electric_scooter", "name": "3b2b04d738aa4a1ec6f35a86ba9cf32d", "lat": 38.892645333333334, "bike_id": "3b2b04d738aa4a1ec6f35a86ba9cf32d"}, {"lon": -77.0246665, "rental_uris": {"android": "https://dc.lft.to/lastmile_qr_scan", "ios": "https://dc.lft.to/lastmile_qr_scan"}, "fusion_lon": 0.0, "is_reserved": 0, "is_disabled": 0, "fusion_lat": 0.0, "type": "electric_scooter", "name": "0cefffba09eac85013eed539f758ed1e", "lat": 38.9063885, "bike_id": "0cefffba09eac85013eed539f758ed1e"}, {"lon": -77.043623, "rental_uris": {"android": "https://dc.lft.to/lastmile_qr_scan", "ios": "https://dc.lft.to/lastmile_qr_scan"}, "fusion_lon": 0.0, "is_reserved": 0, "is_disabled": 0, "fusion_lat": 0.0, "type": "electric_scooter", "name": "a5df9d9cee7d4532b2e0c85d4be11ae8", "lat": 38.89742716666667, "bike_id": "a5df9d9cee7d4532b2e0c85d4be11ae8"}, {"lon": -77.1265235, "rental_uris": {"android": "https://dc.lft.to/lastmile_qr_scan", "ios": "https://dc.lft.to/lastmile_qr_scan"}, "fusion_lon": 0.0, "is_reserved": 0, "is_disabled": 0, "fusion_lat": 0.0, "type": "electric_bike", "name": "6da19ce6716d68beb1288bb17aec7951", "lat": 38.81907833333333, "bike_id": "6da19ce6716d68beb1288bb17aec7951"}, {"lon": -77.026954, "rental_uris": {"android": "https://dc.lft.to/lastmile_qr_scan", "ios": "https://dc.lft.to/lastmile_qr_scan"}, "fusion_lon": 0.0, "is_reserved": 0, "is_disabled": 0, "fusion_lat": 0.0, "type": "electric_scooter", "name": "c7a21933e769223f9a9a1b9783a1a977", "lat": 38.89633933333333, "bike_id": "c7a21933e769223f9a9a1b9783a1a977"}, {"lon": -76.93445033333333, "rental_uris": {"android": "https://dc.lft.to/lastmile_qr_scan", "ios": "https://dc.lft.to/lastmile_qr_scan"}, "fusion_lon": 0.0, "is_reserved": 0, "is_disabled": 0, "fusion_lat": 0.0, "type": "electric_scooter", "name": "7206f11388a201b75ffd7819985fcdad", "lat": 38.9084385, "bike_id": "7206f11388a201b75ffd7819985fcdad"}, {"lon": -77.03054216666666, "rental_uris": {"android": "https://dc.lft.to/lastmile_qr_scan", "ios": "https://dc.lft.to/lastmile_qr_scan"}, "fusion_lon": 0.0, "is_reserved": 0, "is_disabled": 0, "fusion_lat": 0.0, "type": "electric_bike", "name": "835915dd6094d8280d341312af402b35", "lat": 38.959555333333334, "bike_id": "835915dd6094d8280d341312af402b35"}, {"lon": -76.998141, "rental_uris": {"android": "https://dc.lft.to/lastmile_qr_scan", "ios": "https://dc.lft.to/lastmile_qr_scan"}, "fusion_lon": 0.0, "is_reserved": 0, "is_disabled": 0, "fusion_lat": 0.0, "type": "electric_bike", "name": "1994a6c74a048144725b770eb2905f1b", "lat": 38.837382, "bike_id": "1994a6c74a048144725b770eb2905f1b"}, {"lon": -77.03179, "rental_uris": {"android": "https://dc.lft.to/lastmile_qr_scan", "ios": "https://dc.lft.to/lastmile_qr_scan"}, "fusion_lon": 0.0, "is_reserved": 0, "is_disabled": 0, "fusion_lat": 0.0, "type": "electric_scooter", "name": "b88e186375dc0e157ed91f96e50b8cfd", "lat": 38.884133, "bike_id": "b88e186375dc0e157ed91f96e50b8cfd"}, {"lon": -77.024095, "rental_uris": {"android": "https://dc.lft.to/lastmile_qr_scan", "ios": "https://dc.lft.to/lastmile_qr_scan"}, "fusion_lon": 0.0, "is_reserved": 0, "is_disabled": 0, "fusion_lat": 0.0, "type": "electric_scooter", "name": "20275996e6f5064480bf20f4a632580b", "lat": 38.892114666666664, "bike_id": "20275996e6f5064480bf20f4a632580b"}, {"lon": -76.98250733333333, "rental_uris": {"android": "https://dc.lft.to/lastmile_qr_scan", "ios": "https://dc.lft.to/lastmile_qr_scan"}, "fusion_lon": 0.0, "is_reserved": 0, "is_disabled": 0, "fusion_lat": 0.0, "type": "electric_bike", "name": "f76cdd128dc63acc44bf4fb1158dd517", "lat": 38.9532605, "bike_id": "f76cdd128dc63acc44bf4fb1158dd517"}, {"lon": -77.0437515, "rental_uris": {"android": "https://dc.lft.to/lastmile_qr_scan", "ios": "https://dc.lft.to/lastmile_qr_scan"}, "fusion_lon": 0.0, "is_reserved": 0, "is_disabled": 0, "fusion_lat": 0.0, "type": "electric_scooter", "name": "442c0e35d7707c20a2730bf9afdf4f6c", "lat": 38.897397833333336, "bike_id": "442c0e35d7707c20a2730bf9afdf4f6c"}, {"lon": -77.02431783333333, "rental_uris": {"android": "https://dc.lft.to/lastmile_qr_scan", "ios": "https://dc.lft.to/lastmile_qr_scan"}, "fusion_lon": 0.0, "is_reserved": 0, "is_disabled": 0, "fusion_lat": 0.0, "type": "electric_scooter", "name": "b5ef6eae3df234c538ceb8e999429e28", "lat": 38.967903166666666, "bike_id": "b5ef6eae3df234c538ceb8e999429e28"}, {"lon": -76.9833325, "rental_uris": {"android": "https://dc.lft.to/lastmile_qr_scan", "ios": "https://dc.lft.to/lastmile_qr_scan"}, "fusion_lon": 0.0, "is_reserved": 0, "is_disabled": 0, "fusion_lat": 0.0, "type": "electric_scooter", "name": "ae827aa0e088ce0c2b844ccae604cac9", "lat": 38.89544633333333, "bike_id": "ae827aa0e088ce0c2b844ccae604cac9"}, {"lon": -76.95754033333333, "rental_uris": {"android": "https://dc.lft.to/lastmile_qr_scan", "ios": "https://dc.lft.to/lastmile_qr_scan"}, "fusion_lon": 0.0, "is_reserved": 0, "is_disabled": 0, "fusion_lat": 0.0, "type": "electric_scooter", "name": "f8a838d7eb04ea1ad82bbfd7cc5519d2", "lat": 38.884233, "bike_id": "f8a838d7eb04ea1ad82bbfd7cc5519d2"}, {"lon": -77.02121566666666, "rental_uris": {"android": "https://dc.lft.to/lastmile_qr_scan", "ios": "https://dc.lft.to/lastmile_qr_scan"}, "fusion_lon": 0.0, "is_reserved": 0, "is_disabled": 0, "fusion_lat": 0.0, "type": "electric_scooter", "name": "42b7435350467df83e198ffe4cd8d142", "lat": 38.936315, "bike_id": "42b7435350467df83e198ffe4cd8d142"}, {"lon": -77.04350666666667, "rental_uris": {"android": "https://dc.lft.to/lastmile_qr_scan", "ios": "https://dc.lft.to/lastmile_qr_scan"}, "fusion_lon": 0.0, "is_reserved": 0, "is_disabled": 0, "fusion_lat": 0.0, "type": "electric_scooter", "name": "b7e1cacd71642c20420a8338aa48abe3", "lat": 38.902355, "bike_id": "b7e1cacd71642c20420a8338aa48abe3"}, {"lon": -77.02145416666667, "rental_uris": {"android": "https://dc.lft.to/lastmile_qr_scan", "ios": "https://dc.lft.to/lastmile_qr_scan"}, "fusion_lon": 0.0, "is_reserved": 0, "is_disabled": 0, "fusion_lat": 0.0, "type": "electric_scooter", "name": "15709db6befa610b30d2138d52d7ca79", "lat": 38.89708433333333, "bike_id": "15709db6befa610b30d2138d52d7ca79"}, {"lon": -77.03664716666667, "rental_uris": {"android": "https://dc.lft.to/lastmile_qr_scan", "ios": "https://dc.lft.to/lastmile_qr_scan"}, "fusion_lon": 0.0, "is_reserved": 0, "is_disabled": 0, "fusion_lat": 0.0, "type": "electric_scooter", "name": "27074f0c03439b884f935cb3d47fddc9", "lat": 38.93197966666666, "bike_id": "27074f0c03439b884f935cb3d47fddc9"}, {"lon": -77.00341766666666, "rental_uris": {"android": "https://dc.lft.to/lastmile_qr_scan", "ios": "https://dc.lft.to/lastmile_qr_scan"}, "fusion_lon": 0.0, "is_reserved": 0, "is_disabled": 0, "fusion_lat": 0.0, "type": "electric_scooter", "name": "f4e27c561d9e113b3302401462fb1e69", "lat": 38.895339, "bike_id": "f4e27c561d9e113b3302401462fb1e69"}, {"lon": -77.034658, "rental_uris": {"android": "https://dc.lft.to/lastmile_qr_scan", "ios": "https://dc.lft.to/lastmile_qr_scan"}, "fusion_lon": 0.0, "is_reserved": 0, "is_disabled": 0, "fusion_lat": 0.0, "type": "electric_scooter", "name": "19947b2f1f98248485833d46e62024c7", "lat": 38.9039605, "bike_id": "19947b2f1f98248485833d46e62024c7"}, {"lon": -76.99508616666667, "rental_uris": {"android": "https://dc.lft.to/lastmile_qr_scan", "ios": "https://dc.lft.to/lastmile_qr_scan"}, "fusion_lon": 0.0, "is_reserved": 0, "is_disabled": 0, "fusion_lat": 0.0, "type": "electric_scooter", "name": "aa8fe963885a3539a8bc994c7b8d253b", "lat": 38.87893433333333, "bike_id": "aa8fe963885a3539a8bc994c7b8d253b"}, {"lon": -76.952893, "rental_uris": {"android": "https://dc.lft.to/lastmile_qr_scan", "ios": "https://dc.lft.to/lastmile_qr_scan"}, "fusion_lon": 0.0, "is_reserved": 0, "is_disabled": 0, "fusion_lat": 0.0, "type": "electric_scooter", "name": "7ef08e1f4113fe8cf604527d35f37acf", "lat": 38.88508266666667, "bike_id": "7ef08e1f4113fe8cf604527d35f37acf"}, {"lon": -77.021984, "rental_uris": {"android": "https://dc.lft.to/lastmile_qr_scan", "ios": "https://dc.lft.to/lastmile_qr_scan"}, "fusion_lon": 0.0, "is_reserved": 0, "is_disabled": 0, "fusion_lat": 0.0, "type": "electric_scooter", "name": "a8f62c67d1bf211d7d26587f3358a84a", "lat": 38.90192316666667, "bike_id": "a8f62c67d1bf211d7d26587f3358a84a"}, {"lon": -76.99637583333333, "rental_uris": {"android": "https://dc.lft.to/lastmile_qr_scan", "ios": "https://dc.lft.to/lastmile_qr_scan"}, "fusion_lon": 0.0, "is_reserved": 0, "is_disabled": 0, "fusion_lat": 0.0, "type": "electric_scooter", "name": "1e2b548536a2684e6725f80411f0aa5b", "lat": 38.92515133333333, "bike_id": "1e2b548536a2684e6725f80411f0aa5b"}, {"lon": -77.03342883333333, "rental_uris": {"android": "https://dc.lft.to/lastmile_qr_scan", "ios": "https://dc.lft.to/lastmile_qr_scan"}, "fusion_lon": 0.0, "is_reserved": 0, "is_disabled": 0, "fusion_lat": 0.0, "type": "electric_scooter", "name": "bdb4abfd4419a6ac795945a7136b2ec7", "lat": 38.928688, "bike_id": "bdb4abfd4419a6ac795945a7136b2ec7"}, {"lon": -77.02387316666666, "rental_uris": {"android": "https://dc.lft.to/lastmile_qr_scan", "ios": "https://dc.lft.to/lastmile_qr_scan"}, "fusion_lon": 0.0, "is_reserved": 0, "is_disabled": 0, "fusion_lat": 0.0, "type": "electric_scooter", "name": "f6f6a9cbe49855367e6d8d2aff45ae18", "lat": 38.920067, "bike_id": "f6f6a9cbe49855367e6d8d2aff45ae18"}, {"lon": -77.04006283333334, "rental_uris": {"android": "https://dc.lft.to/lastmile_qr_scan", "ios": "https://dc.lft.to/lastmile_qr_scan"}, "fusion_lon": 0.0, "is_reserved": 0, "is_disabled": 0, "fusion_lat": 0.0, "type": "electric_scooter", "name": "fcf30ab27e5498c727e582fcb4d1143c", "lat": 38.899192166666666, "bike_id": "fcf30ab27e5498c727e582fcb4d1143c"}, {"lon": -77.03282883333334, "rental_uris": {"android": "https://dc.lft.to/lastmile_qr_scan", "ios": "https://dc.lft.to/lastmile_qr_scan"}, "fusion_lon": 0.0, "is_reserved": 0, "is_disabled": 0, "fusion_lat": 0.0, "type": "electric_scooter", "name": "ee19c1a69ac2eea62087945544c0183b", "lat": 38.928699333333334, "bike_id": "ee19c1a69ac2eea62087945544c0183b"}, {"lon": -77.0403145, "rental_uris": {"android": "https://dc.lft.to/lastmile_qr_scan", "ios": "https://dc.lft.to/lastmile_qr_scan"}, "fusion_lon": 0.0, "is_reserved": 0, "is_disabled": 0, "fusion_lat": 0.0, "type": "electric_scooter", "name": "2c610b60104fd4748a7f751b817e4d67", "lat": 38.924636166666666, "bike_id": "2c610b60104fd4748a7f751b817e4d67"}, {"lon": -77.05311583333334, "rental_uris": {"android": "https://dc.lft.to/lastmile_qr_scan", "ios": "https://dc.lft.to/lastmile_qr_scan"}, "fusion_lon": 0.0, "is_reserved": 0, "is_disabled": 0, "fusion_lat": 0.0, "type": "electric_scooter", "name": "959ce6d755385ea8d49cec8d397373ca", "lat": 38.90272066666667, "bike_id": "959ce6d755385ea8d49cec8d397373ca"}, {"lon": -77.04489033333333, "rental_uris": {"android": "https://dc.lft.to/lastmile_qr_scan", "ios": "https://dc.lft.to/lastmile_qr_scan"}, "fusion_lon": 0.0, "is_reserved": 0, "is_disabled": 0, "fusion_lat": 0.0, "type": "electric_scooter", "name": "2f1609e610d8b8ef8d08e67bc79eddd5", "lat": 38.9151955, "bike_id": "2f1609e610d8b8ef8d08e67bc79eddd5"}, {"lon": -77.04315283333334, "rental_uris": {"android": "https://dc.lft.to/lastmile_qr_scan", "ios": "https://dc.lft.to/lastmile_qr_scan"}, "fusion_lon": 0.0, "is_reserved": 0, "is_disabled": 0, "fusion_lat": 0.0, "type": "electric_bike", "name": "fdb428fdbab8d0a8a3d36207a68dee3f", "lat": 39.03423866666667, "bike_id": "fdb428fdbab8d0a8a3d36207a68dee3f"}, {"lon": -77.01825683333334, "rental_uris": {"android": "https://dc.lft.to/lastmile_qr_scan", "ios": "https://dc.lft.to/lastmile_qr_scan"}, "fusion_lon": 0.0, "is_reserved": 0, "is_disabled": 0, "fusion_lat": 0.0, "type": "electric_scooter", "name": "84326f1d2adb38fbcdda50bd5bf67847", "lat": 38.92126116666667, "bike_id": "84326f1d2adb38fbcdda50bd5bf67847"}, {"lon": -77.041451, "rental_uris": {"android": "https://dc.lft.to/lastmile_qr_scan", "ios": "https://dc.lft.to/lastmile_qr_scan"}, "fusion_lon": 0.0, "is_reserved": 0, "is_disabled": 0, "fusion_lat": 0.0, "type": "electric_scooter", "name": "25ec0bf05de7cb710e2bd7c49e88cc9f", "lat": 38.92348766666667, "bike_id": "25ec0bf05de7cb710e2bd7c49e88cc9f"}, {"lon": -76.984598, "rental_uris": {"android": "https://dc.lft.to/lastmile_qr_scan", "ios": "https://dc.lft.to/lastmile_qr_scan"}, "fusion_lon": 0.0, "is_reserved": 0, "is_disabled": 0, "fusion_lat": 0.0, "type": "electric_scooter", "name": "ce53178241bf7a798406cef4aad59719", "lat": 38.89768466666666, "bike_id": "ce53178241bf7a798406cef4aad59719"}, {"lon": -77.01794766666667, "rental_uris": {"android": "https://dc.lft.to/lastmile_qr_scan", "ios": "https://dc.lft.to/lastmile_qr_scan"}, "fusion_lon": 0.0, "is_reserved": 0, "is_disabled": 0, "fusion_lat": 0.0, "type": "electric_scooter", "name": "dc6665666c3f32cc7fc06a2506827f2b", "lat": 38.9064235, "bike_id": "dc6665666c3f32cc7fc06a2506827f2b"}, {"lon": -77.01767033333333, "rental_uris": {"android": "https://dc.lft.to/lastmile_qr_scan", "ios": "https://dc.lft.to/lastmile_qr_scan"}, "fusion_lon": 0.0, "is_reserved": 0, "is_disabled": 0, "fusion_lat": 0.0, "type": "electric_scooter", "name": "5e10c8954abdafc0fe2b4f11182c1177", "lat": 38.8922135, "bike_id": "5e10c8954abdafc0fe2b4f11182c1177"}, {"lon": -77.03783933333334, "rental_uris": {"android": "https://dc.lft.to/lastmile_qr_scan", "ios": "https://dc.lft.to/lastmile_qr_scan"}, "fusion_lon": 0.0, "is_reserved": 0, "is_disabled": 0, "fusion_lat": 0.0, "type": "electric_scooter", "name": "0dae73d9894c4011b64bc26884d1557b", "lat": 38.92191416666667, "bike_id": "0dae73d9894c4011b64bc26884d1557b"}, {"lon": -77.0365565, "rental_uris": {"android": "https://dc.lft.to/lastmile_qr_scan", "ios": "https://dc.lft.to/lastmile_qr_scan"}, "fusion_lon": 0.0, "is_reserved": 0, "is_disabled": 0, "fusion_lat": 0.0, "type": "electric_scooter", "name": "95651aa227a3e393a3136d42c052695b", "lat": 38.9067405, "bike_id": "95651aa227a3e393a3136d42c052695b"}, {"lon": -77.01701133333333, "rental_uris": {"android": "https://dc.lft.to/lastmile_qr_scan", "ios": "https://dc.lft.to/lastmile_qr_scan"}, "fusion_lon": 0.0, "is_reserved": 0, "is_disabled": 0, "fusion_lat": 0.0, "type": "electric_scooter", "name": "6b599574182e5ca6e1fdf2068ec11915", "lat": 38.9204385, "bike_id": "6b599574182e5ca6e1fdf2068ec11915"}, {"lon": -77.00632166666666, "rental_uris": {"android": "https://dc.lft.to/lastmile_qr_scan", "ios": "https://dc.lft.to/lastmile_qr_scan"}, "fusion_lon": 0.0, "is_reserved": 0, "is_disabled": 0, "fusion_lat": 0.0, "type": "electric_scooter", "name": "8c575226918a0d0d9cd5c4125cd9e686", "lat": 38.9124575, "bike_id": "8c575226918a0d0d9cd5c4125cd9e686"}, {"lon": -76.96718733333333, "rental_uris": {"android": "https://dc.lft.to/lastmile_qr_scan", "ios": "https://dc.lft.to/lastmile_qr_scan"}, "fusion_lon": 0.0, "is_reserved": 0, "is_disabled": 0, "fusion_lat": 0.0, "type": "electric_scooter", "name": "a6b9ac854dfed742622e4c9409e2352e", "lat": 38.86054566666667, "bike_id": "a6b9ac854dfed742622e4c9409e2352e"}, {"lon": -77.01151983333334, "rental_uris": {"android": "https://dc.lft.to/lastmile_qr_scan", "ios": "https://dc.lft.to/lastmile_qr_scan"}, "fusion_lon": 0.0, "is_reserved": 0, "is_disabled": 0, "fusion_lat": 0.0, "type": "electric_scooter", "name": "8f9ea927296350425519dbca465eebf9", "lat": 38.91609366666667, "bike_id": "8f9ea927296350425519dbca465eebf9"}, {"lon": -77.03989383333334, "rental_uris": {"android": "https://dc.lft.to/lastmile_qr_scan", "ios": "https://dc.lft.to/lastmile_qr_scan"}, "fusion_lon": 0.0, "is_reserved": 0, "is_disabled": 0, "fusion_lat": 0.0, "type": "electric_scooter", "name": "b0d7ca99a122fc353d9eef99cd8f73aa", "lat": 38.90835933333334, "bike_id": "b0d7ca99a122fc353d9eef99cd8f73aa"}, {"lon": -77.03665366666667, "rental_uris": {"android": "https://dc.lft.to/lastmile_qr_scan", "ios": "https://dc.lft.to/lastmile_qr_scan"}, "fusion_lon": 0.0, "is_reserved": 0, "is_disabled": 0, "fusion_lat": 0.0, "type": "electric_scooter", "name": "a81231cb987702804e0de9b0082c5805", "lat": 38.931746, "bike_id": "a81231cb987702804e0de9b0082c5805"}, {"lon": -77.01759766666666, "rental_uris": {"android": "https://dc.lft.to/lastmile_qr_scan", "ios": "https://dc.lft.to/lastmile_qr_scan"}, "fusion_lon": 0.0, "is_reserved": 0, "is_disabled": 0, "fusion_lat": 0.0, "type": "electric_scooter", "name": "ad1628726d18664264a48e671a5960a0", "lat": 38.877233, "bike_id": "ad1628726d18664264a48e671a5960a0"}, {"lon": -77.0218195, "rental_uris": {"android": "https://dc.lft.to/lastmile_qr_scan", "ios": "https://dc.lft.to/lastmile_qr_scan"}, "fusion_lon": 0.0, "is_reserved": 0, "is_disabled": 0, "fusion_lat": 0.0, "type": "electric_scooter", "name": "2fbdbde5366c6797ef29e1b6040f46e3", "lat": 38.895677666666664, "bike_id": "2fbdbde5366c6797ef29e1b6040f46e3"}, {"lon": -77.0486965, "rental_uris": {"android": "https://dc.lft.to/lastmile_qr_scan", "ios": "https://dc.lft.to/lastmile_qr_scan"}, "fusion_lon": 0.0, "is_reserved": 0, "is_disabled": 0, "fusion_lat": 0.0, "type": "electric_scooter", "name": "9345996f590d08b464cf178fcbd7da05", "lat": 38.9004105, "bike_id": "9345996f590d08b464cf178fcbd7da05"}, {"lon": -77.02623083333333, "rental_uris": {"android": "https://dc.lft.to/lastmile_qr_scan", "ios": "https://dc.lft.to/lastmile_qr_scan"}, "fusion_lon": 0.0, "is_reserved": 0, "is_disabled": 0, "fusion_lat": 0.0, "type": "electric_scooter", "name": "bd48b52ac07139adaf2110732912f6b3", "lat": 38.892187, "bike_id": "bd48b52ac07139adaf2110732912f6b3"}, {"lon": -77.020764, "rental_uris": {"android": "https://dc.lft.to/lastmile_qr_scan", "ios": "https://dc.lft.to/lastmile_qr_scan"}, "fusion_lon": 0.0, "is_reserved": 0, "is_disabled": 0, "fusion_lat": 0.0, "type": "electric_scooter", "name": "85e6f80d90b756fa3e06ef023d2fbe32", "lat": 38.92410816666667, "bike_id": "85e6f80d90b756fa3e06ef023d2fbe32"}, {"lon": -77.06779416666667, "rental_uris": {"android": "https://dc.lft.to/lastmile_qr_scan", "ios": "https://dc.lft.to/lastmile_qr_scan"}, "fusion_lon": 0.0, "is_reserved": 0, "is_disabled": 0, "fusion_lat": 0.0, "type": "electric_scooter", "name": "7b19532abc5dba4414b982632a46bebd", "lat": 38.90883766666666, "bike_id": "7b19532abc5dba4414b982632a46bebd"}, {"lon": -77.04343766666666, "rental_uris": {"android": "https://dc.lft.to/lastmile_qr_scan", "ios": "https://dc.lft.to/lastmile_qr_scan"}, "fusion_lon": 0.0, "is_reserved": 0, "is_disabled": 0, "fusion_lat": 0.0, "type": "electric_scooter", "name": "602dbb4faa92d8765efaf199cbff18ad", "lat": 38.910131666666665, "bike_id": "602dbb4faa92d8765efaf199cbff18ad"}, {"lon": -77.02731566666667, "rental_uris": {"android": "https://dc.lft.to/lastmile_qr_scan", "ios": "https://dc.lft.to/lastmile_qr_scan"}, "fusion_lon": 0.0, "is_reserved": 0, "is_disabled": 0, "fusion_lat": 0.0, "type": "electric_scooter", "name": "13df1def08a4a6a803637cd679b908ab", "lat": 38.9520025, "bike_id": "13df1def08a4a6a803637cd679b908ab"}, {"lon": -77.02908916666667, "rental_uris": {"android": "https://dc.lft.to/lastmile_qr_scan", "ios": "https://dc.lft.to/lastmile_qr_scan"}, "fusion_lon": 0.0, "is_reserved": 0, "is_disabled": 0, "fusion_lat": 0.0, "type": "electric_scooter", "name": "9ee1b856e36eab1c2e99c350782cc3e7", "lat": 38.93327566666667, "bike_id": "9ee1b856e36eab1c2e99c350782cc3e7"}, {"lon": -77.029741, "rental_uris": {"android": "https://dc.lft.to/lastmile_qr_scan", "ios": "https://dc.lft.to/lastmile_qr_scan"}, "fusion_lon": 0.0, "is_reserved": 0, "is_disabled": 0, "fusion_lat": 0.0, "type": "electric_scooter", "name": "46fc1a84296f085a9824d59dfbb050da", "lat": 38.923059333333335, "bike_id": "46fc1a84296f085a9824d59dfbb050da"}, {"lon": -77.03283283333333, "rental_uris": {"android": "https://dc.lft.to/lastmile_qr_scan", "ios": "https://dc.lft.to/lastmile_qr_scan"}, "fusion_lon": 0.0, "is_reserved": 0, "is_disabled": 0, "fusion_lat": 0.0, "type": "electric_scooter", "name": "e83155541159ce5733eb37f09cedb8f7", "lat": 38.93880716666666, "bike_id": "e83155541159ce5733eb37f09cedb8f7"}, {"lon": -77.05331983333333, "rental_uris": {"android": "https://dc.lft.to/lastmile_qr_scan", "ios": "https://dc.lft.to/lastmile_qr_scan"}, "fusion_lon": 0.0, "is_reserved": 0, "is_disabled": 0, "fusion_lat": 0.0, "type": "electric_scooter", "name": "acaa9c228a6b10e0d5b6d798992f805b", "lat": 38.904126166666664, "bike_id": "acaa9c228a6b10e0d5b6d798992f805b"}, {"lon": -77.01229066666667, "rental_uris": {"android": "https://dc.lft.to/lastmile_qr_scan", "ios": "https://dc.lft.to/lastmile_qr_scan"}, "fusion_lon": 0.0, "is_reserved": 0, "is_disabled": 0, "fusion_lat": 0.0, "type": "electric_scooter", "name": "ffadb97faf76e7c1b9cb16155adbfb59", "lat": 38.89331766666667, "bike_id": "ffadb97faf76e7c1b9cb16155adbfb59"}, {"lon": -77.01679716666666, "rental_uris": {"android": "https://dc.lft.to/lastmile_qr_scan", "ios": "https://dc.lft.to/lastmile_qr_scan"}, "fusion_lon": 0.0, "is_reserved": 0, "is_disabled": 0, "fusion_lat": 0.0, "type": "electric_scooter", "name": "143a8c195f982f5bada9a3d3c5b77ccc", "lat": 38.92046916666666, "bike_id": "143a8c195f982f5bada9a3d3c5b77ccc"}, {"lon": -77.05134516666666, "rental_uris": {"android": "https://dc.lft.to/lastmile_qr_scan", "ios": "https://dc.lft.to/lastmile_qr_scan"}, "fusion_lon": 0.0, "is_reserved": 0, "is_disabled": 0, "fusion_lat": 0.0, "type": "electric_scooter", "name": "2ff8360446d46406562eedd4a2818414", "lat": 38.90636383333333, "bike_id": "2ff8360446d46406562eedd4a2818414"}, {"lon": -77.02384066666667, "rental_uris": {"android": "https://dc.lft.to/lastmile_qr_scan", "ios": "https://dc.lft.to/lastmile_qr_scan"}, "fusion_lon": 0.0, "is_reserved": 0, "is_disabled": 0, "fusion_lat": 0.0, "type": "electric_scooter", "name": "edc0a7f8682dd36308399d1ae716e595", "lat": 38.8994585, "bike_id": "edc0a7f8682dd36308399d1ae716e595"}, {"lon": -77.02006116666666, "rental_uris": {"android": "https://dc.lft.to/lastmile_qr_scan", "ios": "https://dc.lft.to/lastmile_qr_scan"}, "fusion_lon": 0.0, "is_reserved": 0, "is_disabled": 0, "fusion_lat": 0.0, "type": "electric_scooter", "name": "fbc5d4f6a298b89d46058845330a5611", "lat": 38.964418333333334, "bike_id": "fbc5d4f6a298b89d46058845330a5611"}, {"lon": -77.02174966666666, "rental_uris": {"android": "https://dc.lft.to/lastmile_qr_scan", "ios": "https://dc.lft.to/lastmile_qr_scan"}, "fusion_lon": 0.0, "is_reserved": 0, "is_disabled": 0, "fusion_lat": 0.0, "type": "electric_scooter", "name": "4d207b988b8033484eff10e052e00fa5", "lat": 38.942828666666664, "bike_id": "4d207b988b8033484eff10e052e00fa5"}, {"lon": -77.04731833333334, "rental_uris": {"android": "https://dc.lft.to/lastmile_qr_scan", "ios": "https://dc.lft.to/lastmile_qr_scan"}, "fusion_lon": 0.0, "is_reserved": 0, "is_disabled": 0, "fusion_lat": 0.0, "type": "electric_scooter", "name": "b3ad6ac42b5c9ef33933445c83745848", "lat": 38.90172233333333, "bike_id": "b3ad6ac42b5c9ef33933445c83745848"}, {"lon": -77.04176133333333, "rental_uris": {"android": "https://dc.lft.to/lastmile_qr_scan", "ios": "https://dc.lft.to/lastmile_qr_scan"}, "fusion_lon": 0.0, "is_reserved": 0, "is_disabled": 0, "fusion_lat": 0.0, "type": "electric_scooter", "name": "e130ba2edf34698be471974f86cab135", "lat": 38.899413, "bike_id": "e130ba2edf34698be471974f86cab135"}, {"lon": -77.02839766666666, "rental_uris": {"android": "https://dc.lft.to/lastmile_qr_scan", "ios": "https://dc.lft.to/lastmile_qr_scan"}, "fusion_lon": 0.0, "is_reserved": 0, "is_disabled": 0, "fusion_lat": 0.0, "type": "electric_bike", "name": "5f33566380a3eb82f16a10b8afd1b3c7", "lat": 38.94260216666667, "bike_id": "5f33566380a3eb82f16a10b8afd1b3c7"}, {"lon": -77.01557733333334, "rental_uris": {"android": "https://dc.lft.to/lastmile_qr_scan", "ios": "https://dc.lft.to/lastmile_qr_scan"}, "fusion_lon": 0.0, "is_reserved": 0, "is_disabled": 0, "fusion_lat": 0.0, "type": "electric_scooter", "name": "790cc5d6dadb2110f05c7b3df5884aa1", "lat": 38.914671166666665, "bike_id": "790cc5d6dadb2110f05c7b3df5884aa1"}, {"lon": -76.95697033333333, "rental_uris": {"android": "https://dc.lft.to/lastmile_qr_scan", "ios": "https://dc.lft.to/lastmile_qr_scan"}, "fusion_lon": 0.0, "is_reserved": 0, "is_disabled": 0, "fusion_lat": 0.0, "type": "electric_bike", "name": "f0d622a31e5d962fe4ce3fc8fdddefdb", "lat": 38.85089516666667, "bike_id": "f0d622a31e5d962fe4ce3fc8fdddefdb"}, {"lon": -77.02870966666667, "rental_uris": {"android": "https://dc.lft.to/lastmile_qr_scan", "ios": "https://dc.lft.to/lastmile_qr_scan"}, "fusion_lon": 0.0, "is_reserved": 0, "is_disabled": 0, "fusion_lat": 0.0, "type": "electric_scooter", "name": "894b158afd9e562c72d5340783c4a60c", "lat": 38.93278216666667, "bike_id": "894b158afd9e562c72d5340783c4a60c"}, {"lon": -77.00171966666667, "rental_uris": {"android": "https://dc.lft.to/lastmile_qr_scan", "ios": "https://dc.lft.to/lastmile_qr_scan"}, "fusion_lon": 0.0, "is_reserved": 0, "is_disabled": 0, "fusion_lat": 0.0, "type": "electric_scooter", "name": "b48bee3338c82595f3b8cf849e759d36", "lat": 38.873687333333336, "bike_id": "b48bee3338c82595f3b8cf849e759d36"}, {"lon": -77.01951933333333, "rental_uris": {"android": "https://dc.lft.to/lastmile_qr_scan", "ios": "https://dc.lft.to/lastmile_qr_scan"}, "fusion_lon": 0.0, "is_reserved": 0, "is_disabled": 0, "fusion_lat": 0.0, "type": "electric_scooter", "name": "938c07188ba5b62867a1fbbf2cfd659e", "lat": 38.92319716666667, "bike_id": "938c07188ba5b62867a1fbbf2cfd659e"}, {"lon": -77.04491433333334, "rental_uris": {"android": "https://dc.lft.to/lastmile_qr_scan", "ios": "https://dc.lft.to/lastmile_qr_scan"}, "fusion_lon": 0.0, "is_reserved": 0, "is_disabled": 0, "fusion_lat": 0.0, "type": "electric_scooter", "name": "cb4a3a6b4833596062cbcd7ac63d08c0", "lat": 38.90368466666666, "bike_id": "cb4a3a6b4833596062cbcd7ac63d08c0"}, {"lon": -77.2394425, "rental_uris": {"android": "https://dc.lft.to/lastmile_qr_scan", "ios": "https://dc.lft.to/lastmile_qr_scan"}, "fusion_lon": 0.0, "is_reserved": 0, "is_disabled": 0, "fusion_lat": 0.0, "type": "electric_bike", "name": "d59afdcfc1a2314427f3a5ec9fb379d7", "lat": 38.92474433333334, "bike_id": "d59afdcfc1a2314427f3a5ec9fb379d7"}, {"lon": -77.03295133333333, "rental_uris": {"android": "https://dc.lft.to/lastmile_qr_scan", "ios": "https://dc.lft.to/lastmile_qr_scan"}, "fusion_lon": 0.0, "is_reserved": 0, "is_disabled": 0, "fusion_lat": 0.0, "type": "electric_bike", "name": "e3027767756b7758bf9f953c6cad6ec2", "lat": 38.95646033333333, "bike_id": "e3027767756b7758bf9f953c6cad6ec2"}, {"lon": -77.03059766666667, "rental_uris": {"android": "https://dc.lft.to/lastmile_qr_scan", "ios": "https://dc.lft.to/lastmile_qr_scan"}, "fusion_lon": 0.0, "is_reserved": 0, "is_disabled": 0, "fusion_lat": 0.0, "type": "electric_scooter", "name": "f63ed3a41cb0876df0ed19a5829ec953", "lat": 38.9192115, "bike_id": "f63ed3a41cb0876df0ed19a5829ec953"}, {"lon": -77.02728366666666, "rental_uris": {"android": "https://dc.lft.to/lastmile_qr_scan", "ios": "https://dc.lft.to/lastmile_qr_scan"}, "fusion_lon": 0.0, "is_reserved": 0, "is_disabled": 0, "fusion_lat": 0.0, "type": "electric_scooter", "name": "e1eb61a6d369fbda6f4375d140c5fccf", "lat": 38.897982999999996, "bike_id": "e1eb61a6d369fbda6f4375d140c5fccf"}, {"lon": -77.0277555, "rental_uris": {"android": "https://dc.lft.to/lastmile_qr_scan", "ios": "https://dc.lft.to/lastmile_qr_scan"}, "fusion_lon": 0.0, "is_reserved": 0, "is_disabled": 0, "fusion_lat": 0.0, "type": "electric_scooter", "name": "281bdb068fa06cbdae60df85467c9c26", "lat": 38.91714183333333, "bike_id": "281bdb068fa06cbdae60df85467c9c26"}, {"lon": -77.07902466666667, "rental_uris": {"android": "https://dc.lft.to/lastmile_qr_scan", "ios": "https://dc.lft.to/lastmile_qr_scan"}, "fusion_lon": 0.0, "is_reserved": 0, "is_disabled": 0, "fusion_lat": 0.0, "type": "electric_scooter", "name": "4972d2bb67fe5ff47313cdc2f6ed39eb", "lat": 38.92467516666667, "bike_id": "4972d2bb67fe5ff47313cdc2f6ed39eb"}, {"lon": -76.99410116666667, "rental_uris": {"android": "https://dc.lft.to/lastmile_qr_scan", "ios": "https://dc.lft.to/lastmile_qr_scan"}, "fusion_lon": 0.0, "is_reserved": 0, "is_disabled": 0, "fusion_lat": 0.0, "type": "electric_scooter", "name": "a78a01d372c6c70c741ef52dafc10c93", "lat": 38.8778035, "bike_id": "a78a01d372c6c70c741ef52dafc10c93"}, {"lon": -77.03240383333333, "rental_uris": {"android": "https://dc.lft.to/lastmile_qr_scan", "ios": "https://dc.lft.to/lastmile_qr_scan"}, "fusion_lon": 0.0, "is_reserved": 0, "is_disabled": 0, "fusion_lat": 0.0, "type": "electric_scooter", "name": "c074856e7617f3c985c4143a5d61a80f", "lat": 38.91695033333333, "bike_id": "c074856e7617f3c985c4143a5d61a80f"}, {"lon": -77.03954366666666, "rental_uris": {"android": "https://dc.lft.to/lastmile_qr_scan", "ios": "https://dc.lft.to/lastmile_qr_scan"}, "fusion_lon": 0.0, "is_reserved": 0, "is_disabled": 0, "fusion_lat": 0.0, "type": "electric_scooter", "name": "ec3b1f730c1f84f06057de82b7582304", "lat": 38.91589333333334, "bike_id": "ec3b1f730c1f84f06057de82b7582304"}, {"lon": -77.0241855, "rental_uris": {"android": "https://dc.lft.to/lastmile_qr_scan", "ios": "https://dc.lft.to/lastmile_qr_scan"}, "fusion_lon": 0.0, "is_reserved": 0, "is_disabled": 0, "fusion_lat": 0.0, "type": "electric_scooter", "name": "17473c925255ff0ce149b4041a982538", "lat": 38.90043816666667, "bike_id": "17473c925255ff0ce149b4041a982538"}, {"lon": -77.07289533333334, "rental_uris": {"android": "https://dc.lft.to/lastmile_qr_scan", "ios": "https://dc.lft.to/lastmile_qr_scan"}, "fusion_lon": 0.0, "is_reserved": 0, "is_disabled": 0, "fusion_lat": 0.0, "type": "electric_bike", "name": "ddf1054a6beadf9ec2952573a916a91c", "lat": 38.935396833333336, "bike_id": "ddf1054a6beadf9ec2952573a916a91c"}, {"lon": -77.02587166666666, "rental_uris": {"android": "https://dc.lft.to/lastmile_qr_scan", "ios": "https://dc.lft.to/lastmile_qr_scan"}, "fusion_lon": 0.0, "is_reserved": 0, "is_disabled": 0, "fusion_lat": 0.0, "type": "electric_scooter", "name": "8e3d0bccb2904ceda288f5153fbe72ac", "lat": 38.94197316666666, "bike_id": "8e3d0bccb2904ceda288f5153fbe72ac"}, {"lon": -77.05172833333333, "rental_uris": {"android": "https://dc.lft.to/lastmile_qr_scan", "ios": "https://dc.lft.to/lastmile_qr_scan"}, "fusion_lon": 0.0, "is_reserved": 0, "is_disabled": 0, "fusion_lat": 0.0, "type": "electric_scooter", "name": "efb8d3232d81e595a97265d4a64bb550", "lat": 38.92427833333333, "bike_id": "efb8d3232d81e595a97265d4a64bb550"}, {"lon": -77.0288245, "rental_uris": {"android": "https://dc.lft.to/lastmile_qr_scan", "ios": "https://dc.lft.to/lastmile_qr_scan"}, "fusion_lon": 0.0, "is_reserved": 0, "is_disabled": 0, "fusion_lat": 0.0, "type": "electric_scooter", "name": "b4584741fd3bff7f620212dadc27e961", "lat": 38.899772, "bike_id": "b4584741fd3bff7f620212dadc27e961"}, {"lon": -77.0029685, "rental_uris": {"android": "https://dc.lft.to/lastmile_qr_scan", "ios": "https://dc.lft.to/lastmile_qr_scan"}, "fusion_lon": 0.0, "is_reserved": 0, "is_disabled": 0, "fusion_lat": 0.0, "type": "electric_scooter", "name": "90b5505cadee831cd1bd4d249b3d3ad4", "lat": 38.8922325, "bike_id": "90b5505cadee831cd1bd4d249b3d3ad4"}, {"lon": -77.01940866666666, "rental_uris": {"android": "https://dc.lft.to/lastmile_qr_scan", "ios": "https://dc.lft.to/lastmile_qr_scan"}, "fusion_lon": 0.0, "is_reserved": 0, "is_disabled": 0, "fusion_lat": 0.0, "type": "electric_scooter", "name": "9f00ecb348a1ba4820d781f41c21f7e9", "lat": 38.90855883333333, "bike_id": "9f00ecb348a1ba4820d781f41c21f7e9"}, {"lon": -77.01677633333334, "rental_uris": {"android": "https://dc.lft.to/lastmile_qr_scan", "ios": "https://dc.lft.to/lastmile_qr_scan"}, "fusion_lon": 0.0, "is_reserved": 0, "is_disabled": 0, "fusion_lat": 0.0, "type": "electric_scooter", "name": "58d8043486cbac65a2373991ee5df71d", "lat": 38.920417666666665, "bike_id": "58d8043486cbac65a2373991ee5df71d"}, {"lon": -76.93747683333333, "rental_uris": {"android": "https://dc.lft.to/lastmile_qr_scan", "ios": "https://dc.lft.to/lastmile_qr_scan"}, "fusion_lon": 0.0, "is_reserved": 0, "is_disabled": 0, "fusion_lat": 0.0, "type": "electric_scooter", "name": "70b93afbad98366e9d5a637917fdabb6", "lat": 38.89005733333333, "bike_id": "70b93afbad98366e9d5a637917fdabb6"}, {"lon": -77.18306383333334, "rental_uris": {"android": "https://dc.lft.to/lastmile_qr_scan", "ios": "https://dc.lft.to/lastmile_qr_scan"}, "fusion_lon": 0.0, "is_reserved": 0, "is_disabled": 0, "fusion_lat": 0.0, "type": "electric_bike", "name": "291db040cab746fede83e3afc4ff95b7", "lat": 39.09960016666667, "bike_id": "291db040cab746fede83e3afc4ff95b7"}, {"lon": -77.03807366666666, "rental_uris": {"android": "https://dc.lft.to/lastmile_qr_scan", "ios": "https://dc.lft.to/lastmile_qr_scan"}, "fusion_lon": 0.0, "is_reserved": 0, "is_disabled": 0, "fusion_lat": 0.0, "type": "electric_scooter", "name": "7fda876f1c593581d303b18859965ea5", "lat": 38.930326, "bike_id": "7fda876f1c593581d303b18859965ea5"}, {"lon": -76.96464416666667, "rental_uris": {"android": "https://dc.lft.to/lastmile_qr_scan", "ios": "https://dc.lft.to/lastmile_qr_scan"}, "fusion_lon": 0.0, "is_reserved": 0, "is_disabled": 0, "fusion_lat": 0.0, "type": "electric_bike", "name": "06411aee6f7855b178f52d0abc853b97", "lat": 38.91870483333334, "bike_id": "06411aee6f7855b178f52d0abc853b97"}, {"lon": -77.04690833333333, "rental_uris": {"android": "https://dc.lft.to/lastmile_qr_scan", "ios": "https://dc.lft.to/lastmile_qr_scan"}, "fusion_lon": 0.0, "is_reserved": 0, "is_disabled": 0, "fusion_lat": 0.0, "type": "electric_scooter", "name": "4f6b77056e4609a85b9199c3a5323fe7", "lat": 38.90982316666667, "bike_id": "4f6b77056e4609a85b9199c3a5323fe7"}, {"lon": -77.0343375, "rental_uris": {"android": "https://dc.lft.to/lastmile_qr_scan", "ios": "https://dc.lft.to/lastmile_qr_scan"}, "fusion_lon": 0.0, "is_reserved": 0, "is_disabled": 0, "fusion_lat": 0.0, "type": "electric_scooter", "name": "674203c407e3ee719ee5115a7b02643d", "lat": 38.90552116666667, "bike_id": "674203c407e3ee719ee5115a7b02643d"}, {"lon": -76.99505716666667, "rental_uris": {"android": "https://dc.lft.to/lastmile_qr_scan", "ios": "https://dc.lft.to/lastmile_qr_scan"}, "fusion_lon": 0.0, "is_reserved": 0, "is_disabled": 0, "fusion_lat": 0.0, "type": "electric_scooter", "name": "d48ea8c234ceca1bf56ca771e9749376", "lat": 38.88361283333333, "bike_id": "d48ea8c234ceca1bf56ca771e9749376"}, {"lon": -77.03862983333333, "rental_uris": {"android": "https://dc.lft.to/lastmile_qr_scan", "ios": "https://dc.lft.to/lastmile_qr_scan"}, "fusion_lon": 0.0, "is_reserved": 0, "is_disabled": 0, "fusion_lat": 0.0, "type": "electric_scooter", "name": "8237088d27ee00bc063c221a53495506", "lat": 38.9076445, "bike_id": "8237088d27ee00bc063c221a53495506"}, {"lon": -77.02574516666667, "rental_uris": {"android": "https://dc.lft.to/lastmile_qr_scan", "ios": "https://dc.lft.to/lastmile_qr_scan"}, "fusion_lon": 0.0, "is_reserved": 0, "is_disabled": 0, "fusion_lat": 0.0, "type": "electric_scooter", "name": "4c8b9fae75d9a70fa3aa417e8462fc69", "lat": 38.88736183333333, "bike_id": "4c8b9fae75d9a70fa3aa417e8462fc69"}, {"lon": -77.0233705, "rental_uris": {"android": "https://dc.lft.to/lastmile_qr_scan", "ios": "https://dc.lft.to/lastmile_qr_scan"}, "fusion_lon": 0.0, "is_reserved": 0, "is_disabled": 0, "fusion_lat": 0.0, "type": "electric_scooter", "name": "b808b2e8965ed04795cf4176ba539240", "lat": 38.945026, "bike_id": "b808b2e8965ed04795cf4176ba539240"}, {"lon": -77.01737783333333, "rental_uris": {"android": "https://dc.lft.to/lastmile_qr_scan", "ios": "https://dc.lft.to/lastmile_qr_scan"}, "fusion_lon": 0.0, "is_reserved": 0, "is_disabled": 0, "fusion_lat": 0.0, "type": "electric_scooter", "name": "1c8b1f8bce94bef18e1fc0c3c91af4d7", "lat": 38.975174333333335, "bike_id": "1c8b1f8bce94bef18e1fc0c3c91af4d7"}, {"lon": -77.03945933333334, "rental_uris": {"android": "https://dc.lft.to/lastmile_qr_scan", "ios": "https://dc.lft.to/lastmile_qr_scan"}, "fusion_lon": 0.0, "is_reserved": 0, "is_disabled": 0, "fusion_lat": 0.0, "type": "electric_scooter", "name": "358c173a3d387249a69d1743038da238", "lat": 38.93057, "bike_id": "358c173a3d387249a69d1743038da238"}, {"lon": -77.03461633333333, "rental_uris": {"android": "https://dc.lft.to/lastmile_qr_scan", "ios": "https://dc.lft.to/lastmile_qr_scan"}, "fusion_lon": 0.0, "is_reserved": 0, "is_disabled": 0, "fusion_lat": 0.0, "type": "electric_scooter", "name": "c4103195f874fa3cd2e601737f7e011b", "lat": 38.90823016666667, "bike_id": "c4103195f874fa3cd2e601737f7e011b"}, {"lon": -77.04356333333334, "rental_uris": {"android": "https://dc.lft.to/lastmile_qr_scan", "ios": "https://dc.lft.to/lastmile_qr_scan"}, "fusion_lon": 0.0, "is_reserved": 0, "is_disabled": 0, "fusion_lat": 0.0, "type": "electric_scooter", "name": "4218e6966161dd48608e462cb4c4ce92", "lat": 38.9213645, "bike_id": "4218e6966161dd48608e462cb4c4ce92"}, {"lon": -77.0031275, "rental_uris": {"android": "https://dc.lft.to/lastmile_qr_scan", "ios": "https://dc.lft.to/lastmile_qr_scan"}, "fusion_lon": 0.0, "is_reserved": 0, "is_disabled": 0, "fusion_lat": 0.0, "type": "electric_scooter", "name": "955ba5edfc5e7ea62c7736744d48915f", "lat": 38.89217083333333, "bike_id": "955ba5edfc5e7ea62c7736744d48915f"}, {"lon": -77.06949233333333, "rental_uris": {"android": "https://dc.lft.to/lastmile_qr_scan", "ios": "https://dc.lft.to/lastmile_qr_scan"}, "fusion_lon": 0.0, "is_reserved": 0, "is_disabled": 0, "fusion_lat": 0.0, "type": "electric_bike", "name": "f56c60337dc06b7d1f9a0f8188c06c03", "lat": 38.83625083333333, "bike_id": "f56c60337dc06b7d1f9a0f8188c06c03"}, {"lon": -77.00341516666667, "rental_uris": {"android": "https://dc.lft.to/lastmile_qr_scan", "ios": "https://dc.lft.to/lastmile_qr_scan"}, "fusion_lon": 0.0, "is_reserved": 0, "is_disabled": 0, "fusion_lat": 0.0, "type": "electric_scooter", "name": "8c9784e19933f7b310a49aa8b45f957d", "lat": 38.89617233333333, "bike_id": "8c9784e19933f7b310a49aa8b45f957d"}, {"lon": -76.97449333333333, "rental_uris": {"android": "https://dc.lft.to/lastmile_qr_scan", "ios": "https://dc.lft.to/lastmile_qr_scan"}, "fusion_lon": 0.0, "is_reserved": 0, "is_disabled": 0, "fusion_lat": 0.0, "type": "electric_scooter", "name": "171a5a35e041b551baa324773015fe0c", "lat": 38.90257183333333, "bike_id": "171a5a35e041b551baa324773015fe0c"}, {"lon": -77.0318165, "rental_uris": {"android": "https://dc.lft.to/lastmile_qr_scan", "ios": "https://dc.lft.to/lastmile_qr_scan"}, "fusion_lon": 0.0, "is_reserved": 0, "is_disabled": 0, "fusion_lat": 0.0, "type": "electric_scooter", "name": "4644f52148dbafd853e3a4d61dacfb97", "lat": 38.891851833333334, "bike_id": "4644f52148dbafd853e3a4d61dacfb97"}, {"lon": -77.03869983333334, "rental_uris": {"android": "https://dc.lft.to/lastmile_qr_scan", "ios": "https://dc.lft.to/lastmile_qr_scan"}, "fusion_lon": 0.0, "is_reserved": 0, "is_disabled": 0, "fusion_lat": 0.0, "type": "electric_scooter", "name": "a4077db7f4cc33b0e285237775b1a3bc", "lat": 38.91258783333333, "bike_id": "a4077db7f4cc33b0e285237775b1a3bc"}, {"lon": -77.038204, "rental_uris": {"android": "https://dc.lft.to/lastmile_qr_scan", "ios": "https://dc.lft.to/lastmile_qr_scan"}, "fusion_lon": 0.0, "is_reserved": 0, "is_disabled": 0, "fusion_lat": 0.0, "type": "electric_scooter", "name": "ad57fd693b8fe7932bce830cc1b9de4e", "lat": 38.90685366666666, "bike_id": "ad57fd693b8fe7932bce830cc1b9de4e"}, {"lon": -77.045935, "rental_uris": {"android": "https://dc.lft.to/lastmile_qr_scan", "ios": "https://dc.lft.to/lastmile_qr_scan"}, "fusion_lon": 0.0, "is_reserved": 0, "is_disabled": 0, "fusion_lat": 0.0, "type": "electric_scooter", "name": "e25347cbf6e323450943867ce4c0ed06", "lat": 38.9025895, "bike_id": "e25347cbf6e323450943867ce4c0ed06"}, {"lon": -77.0347455, "rental_uris": {"android": "https://dc.lft.to/lastmile_qr_scan", "ios": "https://dc.lft.to/lastmile_qr_scan"}, "fusion_lon": 0.0, "is_reserved": 0, "is_disabled": 0, "fusion_lat": 0.0, "type": "electric_scooter", "name": "8f914fe0ccae64c200c61357db2c96fc", "lat": 38.92869966666667, "bike_id": "8f914fe0ccae64c200c61357db2c96fc"}, {"lon": -77.04219183333333, "rental_uris": {"android": "https://dc.lft.to/lastmile_qr_scan", "ios": "https://dc.lft.to/lastmile_qr_scan"}, "fusion_lon": 0.0, "is_reserved": 0, "is_disabled": 0, "fusion_lat": 0.0, "type": "electric_scooter", "name": "b6baabd4c23008aebf24bde95ab25e61", "lat": 38.921054166666664, "bike_id": "b6baabd4c23008aebf24bde95ab25e61"}, {"lon": -77.02327433333333, "rental_uris": {"android": "https://dc.lft.to/lastmile_qr_scan", "ios": "https://dc.lft.to/lastmile_qr_scan"}, "fusion_lon": 0.0, "is_reserved": 0, "is_disabled": 0, "fusion_lat": 0.0, "type": "electric_scooter", "name": "9b840a3a262e756eafb10225946bc090", "lat": 38.899892, "bike_id": "9b840a3a262e756eafb10225946bc090"}, {"lon": -77.0426875, "rental_uris": {"android": "https://dc.lft.to/lastmile_qr_scan", "ios": "https://dc.lft.to/lastmile_qr_scan"}, "fusion_lon": 0.0, "is_reserved": 0, "is_disabled": 0, "fusion_lat": 0.0, "type": "electric_scooter", "name": "6673c30a5378727f70626827794c0e72", "lat": 38.9229625, "bike_id": "6673c30a5378727f70626827794c0e72"}, {"lon": -77.01559016666667, "rental_uris": {"android": "https://dc.lft.to/lastmile_qr_scan", "ios": "https://dc.lft.to/lastmile_qr_scan"}, "fusion_lon": 0.0, "is_reserved": 0, "is_disabled": 0, "fusion_lat": 0.0, "type": "electric_scooter", "name": "15460cee7f33d5eff789dc268273a43e", "lat": 38.914643, "bike_id": "15460cee7f33d5eff789dc268273a43e"}, {"lon": -76.9856525, "rental_uris": {"android": "https://dc.lft.to/lastmile_qr_scan", "ios": "https://dc.lft.to/lastmile_qr_scan"}, "fusion_lon": 0.0, "is_reserved": 0, "is_disabled": 0, "fusion_lat": 0.0, "type": "electric_scooter", "name": "d1f40e0de761f00ad0663ba9bf2b33a7", "lat": 38.89617116666667, "bike_id": "d1f40e0de761f00ad0663ba9bf2b33a7"}, {"lon": -77.02821233333333, "rental_uris": {"android": "https://dc.lft.to/lastmile_qr_scan", "ios": "https://dc.lft.to/lastmile_qr_scan"}, "fusion_lon": 0.0, "is_reserved": 0, "is_disabled": 0, "fusion_lat": 0.0, "type": "electric_scooter", "name": "ead4011f6732fdfe9215fb1bb67628de", "lat": 38.894872666666664, "bike_id": "ead4011f6732fdfe9215fb1bb67628de"}, {"lon": -77.05116433333333, "rental_uris": {"android": "https://dc.lft.to/lastmile_qr_scan", "ios": "https://dc.lft.to/lastmile_qr_scan"}, "fusion_lon": 0.0, "is_reserved": 0, "is_disabled": 0, "fusion_lat": 0.0, "type": "electric_scooter", "name": "9e95c9fb1925f3d2afc18782bfc74237", "lat": 38.9233935, "bike_id": "9e95c9fb1925f3d2afc18782bfc74237"}, {"lon": -77.01997566666667, "rental_uris": {"android": "https://dc.lft.to/lastmile_qr_scan", "ios": "https://dc.lft.to/lastmile_qr_scan"}, "fusion_lon": 0.0, "is_reserved": 0, "is_disabled": 0, "fusion_lat": 0.0, "type": "electric_scooter", "name": "35e961c650144f0f63091b2c411da775", "lat": 38.914914333333336, "bike_id": "35e961c650144f0f63091b2c411da775"}, {"lon": -77.042526, "rental_uris": {"android": "https://dc.lft.to/lastmile_qr_scan", "ios": "https://dc.lft.to/lastmile_qr_scan"}, "fusion_lon": 0.0, "is_reserved": 0, "is_disabled": 0, "fusion_lat": 0.0, "type": "electric_scooter", "name": "c71b45e80d38ae1297d45f6abfaed863", "lat": 38.921822, "bike_id": "c71b45e80d38ae1297d45f6abfaed863"}, {"lon": -77.02307916666666, "rental_uris": {"android": "https://dc.lft.to/lastmile_qr_scan", "ios": "https://dc.lft.to/lastmile_qr_scan"}, "fusion_lon": 0.0, "is_reserved": 0, "is_disabled": 0, "fusion_lat": 0.0, "type": "electric_scooter", "name": "cfce67ff05cdc8cfc1c5b5bf137d0218", "lat": 38.9019995, "bike_id": "cfce67ff05cdc8cfc1c5b5bf137d0218"}, {"lon": -76.98436566666666, "rental_uris": {"android": "https://dc.lft.to/lastmile_qr_scan", "ios": "https://dc.lft.to/lastmile_qr_scan"}, "fusion_lon": 0.0, "is_reserved": 0, "is_disabled": 0, "fusion_lat": 0.0, "type": "electric_scooter", "name": "8c3b61105bda868d39ac6a73469eab96", "lat": 38.93269633333333, "bike_id": "8c3b61105bda868d39ac6a73469eab96"}, {"lon": -77.02802866666667, "rental_uris": {"android": "https://dc.lft.to/lastmile_qr_scan", "ios": "https://dc.lft.to/lastmile_qr_scan"}, "fusion_lon": 0.0, "is_reserved": 0, "is_disabled": 0, "fusion_lat": 0.0, "type": "electric_scooter", "name": "0e2741f34d0e78e8ac63db04c4c0890f", "lat": 38.94451866666667, "bike_id": "0e2741f34d0e78e8ac63db04c4c0890f"}, {"lon": -77.01955983333333, "rental_uris": {"android": "https://dc.lft.to/lastmile_qr_scan", "ios": "https://dc.lft.to/lastmile_qr_scan"}, "fusion_lon": 0.0, "is_reserved": 0, "is_disabled": 0, "fusion_lat": 0.0, "type": "electric_scooter", "name": "cc0e020805d8a1a1600c3204c1350879", "lat": 38.92242266666667, "bike_id": "cc0e020805d8a1a1600c3204c1350879"}, {"lon": -76.99612183333333, "rental_uris": {"android": "https://dc.lft.to/lastmile_qr_scan", "ios": "https://dc.lft.to/lastmile_qr_scan"}, "fusion_lon": 0.0, "is_reserved": 0, "is_disabled": 0, "fusion_lat": 0.0, "type": "electric_scooter", "name": "2bda7bab92c6238af8965678f288e728", "lat": 38.930832333333335, "bike_id": "2bda7bab92c6238af8965678f288e728"}, {"lon": -77.05257016666667, "rental_uris": {"android": "https://dc.lft.to/lastmile_qr_scan", "ios": "https://dc.lft.to/lastmile_qr_scan"}, "fusion_lon": 0.0, "is_reserved": 0, "is_disabled": 0, "fusion_lat": 0.0, "type": "electric_scooter", "name": "c71f89d5fbf6de6e5e8afa3dc1bcebbc", "lat": 38.92750816666667, "bike_id": "c71f89d5fbf6de6e5e8afa3dc1bcebbc"}, {"lon": -77.0218235, "rental_uris": {"android": "https://dc.lft.to/lastmile_qr_scan", "ios": "https://dc.lft.to/lastmile_qr_scan"}, "fusion_lon": 0.0, "is_reserved": 0, "is_disabled": 0, "fusion_lat": 0.0, "type": "electric_bike", "name": "8991ab2c806a61969e765cbdba004687", "lat": 38.89564766666667, "bike_id": "8991ab2c806a61969e765cbdba004687"}, {"lon": -77.041889, "rental_uris": {"android": "https://dc.lft.to/lastmile_qr_scan", "ios": "https://dc.lft.to/lastmile_qr_scan"}, "fusion_lon": 0.0, "is_reserved": 0, "is_disabled": 0, "fusion_lat": 0.0, "type": "electric_scooter", "name": "eadfc6d4f1a7aa9c4f45d6d7c8ec18ab", "lat": 38.9112675, "bike_id": "eadfc6d4f1a7aa9c4f45d6d7c8ec18ab"}, {"lon": -77.01016066666666, "rental_uris": {"android": "https://dc.lft.to/lastmile_qr_scan", "ios": "https://dc.lft.to/lastmile_qr_scan"}, "fusion_lon": 0.0, "is_reserved": 0, "is_disabled": 0, "fusion_lat": 0.0, "type": "electric_scooter", "name": "5c0dbf14967479845568885d0207a51d", "lat": 38.91395416666667, "bike_id": "5c0dbf14967479845568885d0207a51d"}, {"lon": -77.02376566666666, "rental_uris": {"android": "https://dc.lft.to/lastmile_qr_scan", "ios": "https://dc.lft.to/lastmile_qr_scan"}, "fusion_lon": 0.0, "is_reserved": 0, "is_disabled": 0, "fusion_lat": 0.0, "type": "electric_scooter", "name": "e41cb8ec5f8ff7e0e23e4d10378e5e91", "lat": 38.891921833333335, "bike_id": "e41cb8ec5f8ff7e0e23e4d10378e5e91"}, {"lon": -77.0243975, "rental_uris": {"android": "https://dc.lft.to/lastmile_qr_scan", "ios": "https://dc.lft.to/lastmile_qr_scan"}, "fusion_lon": 0.0, "is_reserved": 0, "is_disabled": 0, "fusion_lat": 0.0, "type": "electric_scooter", "name": "bf62ef05d5215e9f57b84f4e9705fb08", "lat": 38.922867333333336, "bike_id": "bf62ef05d5215e9f57b84f4e9705fb08"}, {"lon": -77.05268383333333, "rental_uris": {"android": "https://dc.lft.to/lastmile_qr_scan", "ios": "https://dc.lft.to/lastmile_qr_scan"}, "fusion_lon": 0.0, "is_reserved": 0, "is_disabled": 0, "fusion_lat": 0.0, "type": "electric_scooter", "name": "dfe257af852404a1a0f8d535c032f58e", "lat": 38.911282166666666, "bike_id": "dfe257af852404a1a0f8d535c032f58e"}, {"lon": -76.93175866666667, "rental_uris": {"android": "https://dc.lft.to/lastmile_qr_scan", "ios": "https://dc.lft.to/lastmile_qr_scan"}, "fusion_lon": 0.0, "is_reserved": 0, "is_disabled": 0, "fusion_lat": 0.0, "type": "electric_scooter", "name": "c2ffbf2a80b2fbc17354eb1726abf5fe", "lat": 38.898877666666664, "bike_id": "c2ffbf2a80b2fbc17354eb1726abf5fe"}, {"lon": -77.076731, "rental_uris": {"android": "https://dc.lft.to/lastmile_qr_scan", "ios": "https://dc.lft.to/lastmile_qr_scan"}, "fusion_lon": 0.0, "is_reserved": 0, "is_disabled": 0, "fusion_lat": 0.0, "type": "electric_bike", "name": "17853f9365fb3b78f0090e83deb61778", "lat": 38.86490083333333, "bike_id": "17853f9365fb3b78f0090e83deb61778"}, {"lon": -77.0189995, "rental_uris": {"android": "https://dc.lft.to/lastmile_qr_scan", "ios": "https://dc.lft.to/lastmile_qr_scan"}, "fusion_lon": 0.0, "is_reserved": 0, "is_disabled": 0, "fusion_lat": 0.0, "type": "electric_scooter", "name": "21bd7bd22f8ea56a14956d9f65d974df", "lat": 38.92331183333334, "bike_id": "21bd7bd22f8ea56a14956d9f65d974df"}, {"lon": -77.07273666666667, "rental_uris": {"android": "https://dc.lft.to/lastmile_qr_scan", "ios": "https://dc.lft.to/lastmile_qr_scan"}, "fusion_lon": 0.0, "is_reserved": 0, "is_disabled": 0, "fusion_lat": 0.0, "type": "electric_scooter", "name": "41db52c978ee9ccd43d170f8f95fc4f9", "lat": 38.93467966666667, "bike_id": "41db52c978ee9ccd43d170f8f95fc4f9"}, {"lon": -77.05211083333333, "rental_uris": {"android": "https://dc.lft.to/lastmile_qr_scan", "ios": "https://dc.lft.to/lastmile_qr_scan"}, "fusion_lon": 0.0, "is_reserved": 0, "is_disabled": 0, "fusion_lat": 0.0, "type": "electric_scooter", "name": "1654f73273577cf592a9020f718f702b", "lat": 38.92486066666667, "bike_id": "1654f73273577cf592a9020f718f702b"}, {"lon": -77.0899065, "rental_uris": {"android": "https://dc.lft.to/lastmile_qr_scan", "ios": "https://dc.lft.to/lastmile_qr_scan"}, "fusion_lon": 0.0, "is_reserved": 0, "is_disabled": 0, "fusion_lat": 0.0, "type": "electric_scooter", "name": "1cb652616b8ef824718c89f9206002a5", "lat": 38.9370515, "bike_id": "1cb652616b8ef824718c89f9206002a5"}, {"lon": -77.02802733333333, "rental_uris": {"android": "https://dc.lft.to/lastmile_qr_scan", "ios": "https://dc.lft.to/lastmile_qr_scan"}, "fusion_lon": 0.0, "is_reserved": 0, "is_disabled": 0, "fusion_lat": 0.0, "type": "electric_scooter", "name": "2fe8f4d0d3d1e6751a965c78655c4783", "lat": 38.8979685, "bike_id": "2fe8f4d0d3d1e6751a965c78655c4783"}, {"lon": -77.02363516666666, "rental_uris": {"android": "https://dc.lft.to/lastmile_qr_scan", "ios": "https://dc.lft.to/lastmile_qr_scan"}, "fusion_lon": 0.0, "is_reserved": 0, "is_disabled": 0, "fusion_lat": 0.0, "type": "electric_scooter", "name": "662cc85a4f7fa230206e865f2cae44fc", "lat": 38.91948816666667, "bike_id": "662cc85a4f7fa230206e865f2cae44fc"}, {"lon": -76.99572816666667, "rental_uris": {"android": "https://dc.lft.to/lastmile_qr_scan", "ios": "https://dc.lft.to/lastmile_qr_scan"}, "fusion_lon": 0.0, "is_reserved": 0, "is_disabled": 0, "fusion_lat": 0.0, "type": "electric_scooter", "name": "b77cb88210d1260be604d9059566e521", "lat": 38.8627105, "bike_id": "b77cb88210d1260be604d9059566e521"}, {"lon": -77.12652966666667, "rental_uris": {"android": "https://dc.lft.to/lastmile_qr_scan", "ios": "https://dc.lft.to/lastmile_qr_scan"}, "fusion_lon": 0.0, "is_reserved": 0, "is_disabled": 0, "fusion_lat": 0.0, "type": "electric_bike", "name": "27ce327ddda36e2fd9a5aaace289b4f1", "lat": 38.81906816666667, "bike_id": "27ce327ddda36e2fd9a5aaace289b4f1"}, {"lon": -76.99854566666667, "rental_uris": {"android": "https://dc.lft.to/lastmile_qr_scan", "ios": "https://dc.lft.to/lastmile_qr_scan"}, "fusion_lon": 0.0, "is_reserved": 0, "is_disabled": 0, "fusion_lat": 0.0, "type": "electric_scooter", "name": "e1969694b1591691c712378ecb9212f6", "lat": 38.8919045, "bike_id": "e1969694b1591691c712378ecb9212f6"},