{"data": {"bikes": [{"lat": 38.911939, "is_disabled": 0, "type": "electric_scooter", "lon": -77.03217633333334, "bike_id": "dacc6a89f12501f71082cc801a6a5d2b", "fusion_lat": 0.0, "name": "dacc6a89f12501f71082cc801a6a5d2b", "is_reserved": 0, "rental_uris": {"android": "https://dc.lft.to/lastmile_qr_scan", "ios": "https://dc.lft.to/lastmile_qr_scan"}, "fusion_lon": 0.0}, {"lat": 38.91685183333333, "is_disabled": 0, "type": "electric_scooter", "lon": -77.00198416666667, "bike_id": "ce5fef9b78f56aa49ef6d7b202918168", "fusion_lat": 0.0, "name": "ce5fef9b78f56aa49ef6d7b202918168", "is_reserved": 0, "rental_uris": {"android": "https://dc.lft.to/lastmile_qr_scan", "ios": "https://dc.lft.to/lastmile_qr_scan"}, "fusion_lon": 0.0}, {"lat": 38.9589275, "is_disabled": 0, "type": "electric_bike", "lon": -76.92482816666667, "bike_id": "e217092c0f4f3b5e03941823385048f9", "fusion_lat": 0.0, "name": "e217092c0f4f3b5e03941823385048f9", "is_reserved": 0, "rental_uris": {"android": "https://dc.lft.to/lastmile_qr_scan", "ios": "https://dc.lft.to/lastmile_qr_scan"}, "fusion_lon": 0.0}, {"lat": 38.9253585, "is_disabled": 0, "type": "electric_scooter", "lon": -77.02634783333333, "bike_id": "a1f7435836ffd99b8559583d3f3f1dd3", "fusion_lat": 0.0, "name": "a1f7435836ffd99b8559583d3f3f1dd3", "is_reserved": 0, "rental_uris": {"android": "https://dc.lft.to/lastmile_qr_scan", "ios": "https://dc.lft.to/lastmile_qr_scan"}, "fusion_lon": 0.0}, {"lat": 38.883626666666665, "is_disabled": 0, "type": "electric_scooter", "lon": -76.94154533333334, "bike_id": "5416c03f3268e0c899f46275bc2355d3", "fusion_lat": 0.0, "name": "5416c03f3268e0c899f46275bc2355d3", "is_reserved": 0, "rental_uris": {"android": "https://dc.lft.to/lastmile_qr_scan", "ios": "https://dc.lft.to/lastmile_qr_scan"}, "fusion_lon": 0.0}, {"lat": 38.94118783333333, "is_disabled": 0, "type": "electric_scooter", "lon": -77.0007295, "bike_id": "cd32cf773f562d75b3b3165d44ff6e57", "fusion_lat": 0.0, "name": "cd32cf773f562d75b3b3165d44ff6e57", "is_reserved": 0, "rental_uris": {"android": "https://dc.lft.to/lastmile_qr_scan", "ios": "https://dc.lft.to/lastmile_qr_scan"}, "fusion_lon": 0.0}, {"lat": 38.931054833333334, "is_disabled": 0, "type": "electric_scooter", "lon": -77.03401683333334, "bike_id": "e061f74cad342d6405c6fb0603020eef", "fusion_lat": 0.0, "name": "e061f74cad342d6405c6fb0603020eef", "is_reserved": 0, "rental_uris": {"android": "https://dc.lft.to/lastmile_qr_scan", "ios": "https://dc.lft.to/lastmile_qr_scan"}, "fusion_lon": 0.0}, {"lat": 38.91175466666667, "is_disabled": 0, "type": "electric_scooter", "lon": -77.03843716666667, "bike_id": "7ca7da4e1e0a2b507785cf16969217bf", "fusion_lat": 0.0, "name": "7ca7da4e1e0a2b507785cf16969217bf", "is_reserved": 0, "rental_uris": {"android": "https://dc.lft.to/lastmile_qr_scan", "ios": "https://dc.lft.to/lastmile_qr_scan"}, "fusion_lon": 0.0}, {"lat": 38.916833833333335, "is_disabled": 0, "type": "electric_scooter", "lon": -77.029721, "bike_id": "2a879d70f54e057e0c54a440d2a9f7c1", "fusion_lat": 0.0, "name": "2a879d70f54e057e0c54a440d2a9f7c1", "is_reserved": 0, "rental_uris": {"android": "https://dc.lft.to/lastmile_qr_scan", "ios": "https://dc.lft.to/lastmile_qr_scan"}, "fusion_lon": 0.0}, {"lat": 38.920727666666664, "is_disabled": 0, "type": "electric_scooter", "lon": -77.0142525, "bike_id": "23b543109ec78ccecfe478e1be07683c", "fusion_lat": 0.0, "name": "23b543109ec78ccecfe478e1be07683c", "is_reserved": 0, "rental_uris": {"android": "https://dc.lft.to/lastmile_qr_scan", "ios": "https://dc.lft.to/lastmile_qr_scan"}, "fusion_lon": 0.0}, {"lat": 38.91184666666667, "is_disabled": 0, "type": "electric_scooter", "lon": -77.04325833333333, "bike_id": "71435277aef2066c67175052b6bb053c", "fusion_lat": 0.0, "name": "71435277aef2066c67175052b6bb053c", "is_reserved": 0, "rental_uris": {"android": "https://dc.lft.to/lastmile_qr_scan", "ios": "https://dc.lft.to/lastmile_qr_scan"}, "fusion_lon": 0.0}, {"lat": 38.91706883333333, "is_disabled": 0, "type": "electric_scooter", "lon": -77.02462933333334, "bike_id": "3eece962f11126367c77768aa50ffa51", "fusion_lat": 0.0, "name": "3eece962f11126367c77768aa50ffa51", "is_reserved": 0, "rental_uris": {"android": "https://dc.lft.to/lastmile_qr_scan", "ios": "https://dc.lft.to/lastmile_qr_scan"}, "fusion_lon": 0.0}, {"lat": 38.925722666666665, "is_disabled": 0, "type": "electric_scooter", "lon": -77.03782733333334, "bike_id": "11da95c36f649044b92e0e714b80ee16", "fusion_lat": 0.0, "name": "11da95c36f649044b92e0e714b80ee16", "is_reserved": 0, "rental_uris": {"android": "https://dc.lft.to/lastmile_qr_scan", "ios": "https://dc.lft.to/lastmile_qr_scan"}, "fusion_lon": 0.0}, {"lat": 38.93467033333334, "is_disabled": 0, "type": "electric_scooter", "lon": -77.0241405, "bike_id": "d103419f49a22d7cac73f71899c2a8f0", "fusion_lat": 0.0, "name": "d103419f49a22d7cac73f71899c2a8f0", "is_reserved": 0, "rental_uris": {"android": "https://dc.lft.to/lastmile_qr_scan", "ios": "https://dc.lft.to/lastmile_qr_scan"}, "fusion_lon": 0.0}, {"lat": 38.8410565, "is_disabled": 0, "type": "electric_bike", "lon": -77.08939516666666, "bike_id": "b794e7369e313ec678c6e37b749cb3b1", "fusion_lat": 0.0, "name": "b794e7369e313ec678c6e37b749cb3b1", "is_reserved": 0, "rental_uris": {"android": "https://dc.lft.to/lastmile_qr_scan", "ios": "https://dc.lft.to/lastmile_qr_scan"}, "fusion_lon": 0.0}, {"lat": 38.893483833333335, "is_disabled": 0, "type": "electric_scooter", "lon": -77.04136233333334, "bike_id": "2307f102956528e6b3d7d2c89d3d5c4b", "fusion_lat": 0.0, "name": "2307f102956528e6b3d7d2c89d3d5c4b", "is_reserved": 0, "rental_uris": {"android": "https://dc.lft.to/lastmile_qr_scan", "ios": "https://dc.lft.to/lastmile_qr_scan"}, "fusion_lon": 0.0}, {"lat": 38.921111, "is_disabled": 0, "type": "electric_bike", "lon": -76.98577066666667, "bike_id": "0bb11d6c21f1add417dc6251121ce417", "fusion_lat": 0.0, "name": "0bb11d6c21f1add417dc6251121ce417", "is_reserved": 0, "rental_uris": {"android": "https://dc.lft.to/lastmile_qr_scan", "ios": "https://dc.lft.to/lastmile_qr_scan"}, "fusion_lon": 0.0}, {"lat": 38.912846, "is_disabled": 0, "type": "electric_scooter", "lon": -77.03209383333333, "bike_id": "764ed25bab02d9399c9d8ad9720c935e", "fusion_lat": 0.0, "name": "764ed25bab02d9399c9d8ad9720c935e", "is_reserved": 0, "rental_uris": {"android": "https://dc.lft.to/lastmile_qr_scan", "ios": "https://dc.lft.to/lastmile_qr_scan"}, "fusion_lon": 0.0}, {"lat": 38.9171615, "is_disabled": 0, "type": "electric_scooter", "lon": -77.023909, "bike_id": "c0515338dbc06a572bb184f78625f634", "fusion_lat": 0.0, "name": "c0515338dbc06a572bb184f78625f634", "is_reserved": 0, "rental_uris": {"android": "https://dc.lft.to/lastmile_qr_scan", "ios": "https://dc.lft.to/lastmile_qr_scan"}, "fusion_lon": 0.0}, {"lat": 38.958897666666665, "is_disabled": 0, "type": "electric_bike", "lon": -76.9248685, "bike_id": "3ab1f2c0c1cb0828f139b7163961e3f6", "fusion_lat": 0.0, "name": "3ab1f2c0c1cb0828f139b7163961e3f6", "is_reserved": 0, "rental_uris": {"android": "https://dc.lft.to/lastmile_qr_scan", "ios": "https://dc.lft.to/lastmile_qr_scan"}, "fusion_lon": 0.0}, {"lat": 38.91420166666666, "is_disabled": 0, "type": "electric_scooter", "lon": -77.03183783333333, "bike_id": "56154187adc6b764160af41cfcb6fbb1", "fusion_lat": 0.0, "name": "56154187adc6b764160af41cfcb6fbb1", "is_reserved": 0, "rental_uris": {"android": "https://dc.lft.to/lastmile_qr_scan", "ios": "https://dc.lft.to/lastmile_qr_scan"}, "fusion_lon": 0.0}, {"lat": 38.90275183333333, "is_disabled": 0, "type": "electric_scooter", "lon": -77.06356433333333, "bike_id": "47d1571014669d7dbfa05577a71e0e75", "fusion_lat": 0.0, "name": "47d1571014669d7dbfa05577a71e0e75", "is_reserved": 0, "rental_uris": {"android": "https://dc.lft.to/lastmile_qr_scan", "ios": "https://dc.lft.to/lastmile_qr_scan"}, "fusion_lon": 0.0}, {"lat": 38.91705416666667, "is_disabled": 0, "type": "electric_scooter", "lon": -77.02952, "bike_id": "26b9b5d65d8e6498bf558531c823243c", "fusion_lat": 0.0, "name": "26b9b5d65d8e6498bf558531c823243c", "is_reserved": 0, "rental_uris": {"android": "https://dc.lft.to/lastmile_qr_scan", "ios": "https://dc.lft.to/lastmile_qr_scan"}, "fusion_lon": 0.0}, {"lat": 38.956519, "is_disabled": 0, "type": "electric_scooter", "lon": -77.02396233333333, "bike_id": "2591fadd67f280dc98b7393d7f4ef917", "fusion_lat": 0.0, "name": "2591fadd67f280dc98b7393d7f4ef917", "is_reserved": 0, "rental_uris": {"android": "https://dc.lft.to/lastmile_qr_scan", "ios": "https://dc.lft.to/lastmile_qr_scan"}, "fusion_lon": 0.0}, {"lat": 38.900783, "is_disabled": 0, "type": "electric_scooter", "lon": -77.04920733333333, "bike_id": "c20d84e7f00f3af2b76134e0b6950cd3", "fusion_lat": 0.0, "name": "c20d84e7f00f3af2b76134e0b6950cd3", "is_reserved": 0, "rental_uris": {"android": "https://dc.lft.to/lastmile_qr_scan", "ios": "https://dc.lft.to/lastmile_qr_scan"}, "fusion_lon": 0.0}, {"lat": 38.953039833333335, "is_disabled": 0, "type": "electric_bike", "lon": -76.997693, "bike_id": "2eb0edeb998986e794ac67747f4d6163", "fusion_lat": 0.0, "name": "2eb0edeb998986e794ac67747f4d6163", "is_reserved": 0, "rental_uris": {"android": "https://dc.lft.to/lastmile_qr_scan", "ios": "https://dc.lft.to/lastmile_qr_scan"}, "fusion_lon": 0.0}, {"lat": 38.919751166666664, "is_disabled": 0, "type": "electric_scooter", "lon": -77.02387083333333, "bike_id": "be0d24dcf23874fc4bcb9ef23a5bd067", "fusion_lat": 0.0, "name": "be0d24dcf23874fc4bcb9ef23a5bd067", "is_reserved": 0, "rental_uris": {"android": "https://dc.lft.to/lastmile_qr_scan", "ios": "https://dc.lft.to/lastmile_qr_scan"}, "fusion_lon": 0.0}, {"lat": 38.917745, "is_disabled": 0, "type": "electric_scooter", "lon": -77.0433795, "bike_id": "9f07595f4c8bc80a9f7ae1ab30d835b2", "fusion_lat": 0.0, "name": "9f07595f4c8bc80a9f7ae1ab30d835b2", "is_reserved": 0, "rental_uris": {"android": "https://dc.lft.to/lastmile_qr_scan", "ios": "https://dc.lft.to/lastmile_qr_scan"}, "fusion_lon": 0.0}, {"lat": 38.957763166666666, "is_disabled": 0, "type": "electric_scooter", "lon": -77.02759683333333, "bike_id": "73e5733a39b652c66dff1a431ac80697", "fusion_lat": 0.0, "name": "73e5733a39b652c66dff1a431ac80697", "is_reserved": 0, "rental_uris": {"android": "https://dc.lft.to/lastmile_qr_scan", "ios": "https://dc.lft.to/lastmile_qr_scan"}, "fusion_lon": 0.0}, {"lat": 38.90873366666667, "is_disabled": 0, "type": "electric_scooter", "lon": -77.03672766666666, "bike_id": "502c5de604a4839088310fea7c84616e", "fusion_lat": 0.0, "name": "502c5de604a4839088310fea7c84616e", "is_reserved": 0, "rental_uris": {"android": "https://dc.lft.to/lastmile_qr_scan", "ios": "https://dc.lft.to/lastmile_qr_scan"}, "fusion_lon": 0.0}, {"lat": 38.955609, "is_disabled": 0, "type": "electric_scooter", "lon": -77.0223135, "bike_id": "03cf5c5f0773c1d4ee5ed614fb12c343", "fusion_lat": 0.0, "name": "03cf5c5f0773c1d4ee5ed614fb12c343", "is_reserved": 0, "rental_uris": {"android": "https://dc.lft.to/lastmile_qr_scan", "ios": "https://dc.lft.to/lastmile_qr_scan"}, "fusion_lon": 0.0}, {"lat": 39.05635683333333, "is_disabled": 0, "type": "electric_bike", "lon": -77.12526166666666, "bike_id": "c5dd95475a8f4501e2e9da560696f916", "fusion_lat": 0.0, "name": "c5dd95475a8f4501e2e9da560696f916", "is_reserved": 0, "rental_uris": {"android": "https://dc.lft.to/lastmile_qr_scan", "ios": "https://dc.lft.to/lastmile_qr_scan"}, "fusion_lon": 0.0}, {"lat": 38.902781833333336, "is_disabled": 0, "type": "electric_scooter", "lon": -77.04388666666667, "bike_id": "7a9de439798c15b706ec83f2e36993ca", "fusion_lat": 0.0, "name": "7a9de439798c15b706ec83f2e36993ca", "is_reserved": 0, "rental_uris": {"android": "https://dc.lft.to/lastmile_qr_scan", "ios": "https://dc.lft.to/lastmile_qr_scan"}, "fusion_lon": 0.0}, {"lat": 38.8904255, "is_disabled": 0, "type": "electric_scooter", "lon": -76.95244466666666, "bike_id": "feb5524211ac773499ea735e0045833c", "fusion_lat": 0.0, "name": "feb5524211ac773499ea735e0045833c", "is_reserved": 0, "rental_uris": {"android": "https://dc.lft.to/lastmile_qr_scan", "ios": "https://dc.lft.to/lastmile_qr_scan"}, "fusion_lon": 0.0}, {"lat": 38.9321115, "is_disabled": 0, "type": "electric_scooter", "lon": -77.02245183333334, "bike_id": "f5ad562622533336f5946a52e69cda87", "fusion_lat": 0.0, "name": "f5ad562622533336f5946a52e69cda87", "is_reserved": 0, "rental_uris": {"android": "https://dc.lft.to/lastmile_qr_scan", "ios": "https://dc.lft.to/lastmile_qr_scan"}, "fusion_lon": 0.0}, {"lat": 38.888869166666666, "is_disabled": 0, "type": "electric_scooter", "lon": -76.93155283333333, "bike_id": "7d22a5d80972f3d699a2d5409a71f699", "fusion_lat": 0.0, "name": "7d22a5d80972f3d699a2d5409a71f699", "is_reserved": 0, "rental_uris": {"android": "https://dc.lft.to/lastmile_qr_scan", "ios": "https://dc.lft.to/lastmile_qr_scan"}, "fusion_lon": 0.0}, {"lat": 38.88736166666666, "is_disabled": 0, "type": "electric_scooter", "lon": -77.01530466666667, "bike_id": "6373d572035f923278a3cd316aeb21d9", "fusion_lat": 0.0, "name": "6373d572035f923278a3cd316aeb21d9", "is_reserved": 0, "rental_uris": {"android": "https://dc.lft.to/lastmile_qr_scan", "ios": "https://dc.lft.to/lastmile_qr_scan"}, "fusion_lon": 0.0}, {"lat": 38.884125, "is_disabled": 0, "type": "electric_bike", "lon": -76.95403583333334, "bike_id": "2ca6102f88f5f3cc7c0436d75ad3133e", "fusion_lat": 0.0, "name": "2ca6102f88f5f3cc7c0436d75ad3133e", "is_reserved": 0, "rental_uris": {"android": "https://dc.lft.to/lastmile_qr_scan", "ios": "https://dc.lft.to/lastmile_qr_scan"}, "fusion_lon": 0.0}, {"lat": 38.91194516666667, "is_disabled": 0, "type": "electric_scooter", "lon": -77.04286483333334, "bike_id": "54ca4adfef6fe0ae82ca17d446baff14", "fusion_lat": 0.0, "name": "54ca4adfef6fe0ae82ca17d446baff14", "is_reserved": 0, "rental_uris": {"android": "https://dc.lft.to/lastmile_qr_scan", "ios": "https://dc.lft.to/lastmile_qr_scan"}, "fusion_lon": 0.0}, {"lat": 38.91967233333333, "is_disabled": 0, "type": "electric_scooter", "lon": -77.01211016666667, "bike_id": "24a834eabf659e6700bb7f236bee5b61", "fusion_lat": 0.0, "name": "24a834eabf659e6700bb7f236bee5b61", "is_reserved": 0, "rental_uris": {"android": "https://dc.lft.to/lastmile_qr_scan", "ios": "https://dc.lft.to/lastmile_qr_scan"}, "fusion_lon": 0.0}, {"lat": 38.9116675, "is_disabled": 0, "type": "electric_scooter", "lon": -77.04668016666666, "bike_id": "700ecde5ae25684aba4e68c3dc1adee1", "fusion_lat": 0.0, "name": "700ecde5ae25684aba4e68c3dc1adee1", "is_reserved": 0, "rental_uris": {"android": "https://dc.lft.to/lastmile_qr_scan", "ios": "https://dc.lft.to/lastmile_qr_scan"}, "fusion_lon": 0.0}, {"lat": 38.90152633333334, "is_disabled": 0, "type": "electric_scooter", "lon": -77.0437905, "bike_id": "173bbf4b216b06e2df54ce1e0a161b6e", "fusion_lat": 0.0, "name": "173bbf4b216b06e2df54ce1e0a161b6e", "is_reserved": 0, "rental_uris": {"android": "https://dc.lft.to/lastmile_qr_scan", "ios": "https://dc.lft.to/lastmile_qr_scan"}, "fusion_lon": 0.0}, {"lat": 38.898095166666664, "is_disabled": 0, "type": "electric_scooter", "lon": -77.0309665, "bike_id": "9a8c2173dc6392aef3cf410ca0c1ee92", "fusion_lat": 0.0, "name": "9a8c2173dc6392aef3cf410ca0c1ee92", "is_reserved": 0, "rental_uris": {"android": "https://dc.lft.to/lastmile_qr_scan", "ios": "https://dc.lft.to/lastmile_qr_scan"}, "fusion_lon": 0.0}, {"lat": 38.916333, "is_disabled": 0, "type": "electric_scooter", "lon": -77.02241483333333, "bike_id": "3a67b3ead00bc2692c1e7f18639513c9", "fusion_lat": 0.0, "name": "3a67b3ead00bc2692c1e7f18639513c9", "is_reserved": 0, "rental_uris": {"android": "https://dc.lft.to/lastmile_qr_scan", "ios": "https://dc.lft.to/lastmile_qr_scan"}, "fusion_lon": 0.0}, {"lat": 38.8909005, "is_disabled": 0, "type": "electric_scooter", "lon": -76.952674, "bike_id": "2071e4886edf4d328846c29eee82ef6a", "fusion_lat": 0.0, "name": "2071e4886edf4d328846c29eee82ef6a", "is_reserved": 0, "rental_uris": {"android": "https://dc.lft.to/lastmile_qr_scan", "ios": "https://dc.lft.to/lastmile_qr_scan"}, "fusion_lon": 0.0}, {"lat": 38.91116616666667, "is_disabled": 0, "type": "electric_scooter", "lon": -77.03720883333334, "bike_id": "d11cb2f48ea4187bc82fe3b4fa4051c5", "fusion_lat": 0.0, "name": "d11cb2f48ea4187bc82fe3b4fa4051c5", "is_reserved": 0, "rental_uris": {"android": "https://dc.lft.to/lastmile_qr_scan", "ios": "https://dc.lft.to/lastmile_qr_scan"}, "fusion_lon": 0.0}, {"lat": 38.952166, "is_disabled": 0, "type": "electric_scooter", "lon": -77.08599516666666, "bike_id": "4af192e6bd63786e975c611705d08489", "fusion_lat": 0.0, "name": "4af192e6bd63786e975c611705d08489", "is_reserved": 0, "rental_uris": {"android": "https://dc.lft.to/lastmile_qr_scan", "ios": "https://dc.lft.to/lastmile_qr_scan"}, "fusion_lon": 0.0}, {"lat": 38.93092166666667, "is_disabled": 0, "type": "electric_scooter", "lon": -77.03126316666666, "bike_id": "0fc06cb75498453f0e093689bcbc1dd2", "fusion_lat": 0.0, "name": "0fc06cb75498453f0e093689bcbc1dd2", "is_reserved": 0, "rental_uris": {"android": "https://dc.lft.to/lastmile_qr_scan", "ios": "https://dc.lft.to/lastmile_qr_scan"}, "fusion_lon": 0.0}, {"lat": 38.91304366666667, "is_disabled": 0, "type": "electric_scooter", "lon": -77.03190883333333, "bike_id": "64e432e39d778412ed5e09fbb4febca6", "fusion_lat": 0.0, "name": "64e432e39d778412ed5e09fbb4febca6", "is_reserved": 0, "rental_uris": {"android": "https://dc.lft.to/lastmile_qr_scan", "ios": "https://dc.lft.to/lastmile_qr_scan"}, "fusion_lon": 0.0}, {"lat": 38.999929333333334, "is_disabled": 0, "type": "electric_bike", "lon": -76.92494883333333, "bike_id": "d19636286bd2f281e6f697f4e2d3d24b", "fusion_lat": 0.0, "name": "d19636286bd2f281e6f697f4e2d3d24b", "is_reserved": 0, "rental_uris": {"android": "https://dc.lft.to/lastmile_qr_scan", "ios": "https://dc.lft.to/lastmile_qr_scan"}, "fusion_lon": 0.0}, {"lat": 38.916726833333335, "is_disabled": 0, "type": "electric_scooter", "lon": -77.0239535, "bike_id": "67e23b48bbe57171d2c71c8947637a21", "fusion_lat": 0.0, "name": "67e23b48bbe57171d2c71c8947637a21", "is_reserved": 0, "rental_uris": {"android": "https://dc.lft.to/lastmile_qr_scan", "ios": "https://dc.lft.to/lastmile_qr_scan"}, "fusion_lon": 0.0}, {"lat": 38.805769166666664, "is_disabled": 0, "type": "electric_bike", "lon": -77.06857766666667, "bike_id": "5cb260856ea54095f840a007510015c1", "fusion_lat": 0.0, "name": "5cb260856ea54095f840a007510015c1", "is_reserved": 0, "rental_uris": {"android": "https://dc.lft.to/lastmile_qr_scan", "ios": "https://dc.lft.to/lastmile_qr_scan"}, "fusion_lon": 0.0}, {"lat": 38.919969, "is_disabled": 0, "type": "electric_scooter", "lon": -77.025273, "bike_id": "2b34e4adcf72b2cad316ce8d45613dc8", "fusion_lat": 0.0, "name": "2b34e4adcf72b2cad316ce8d45613dc8", "is_reserved": 0, "rental_uris": {"android": "https://dc.lft.to/lastmile_qr_scan", "ios": "https://dc.lft.to/lastmile_qr_scan"}, "fusion_lon": 0.0}, {"lat": 38.890921166666665, "is_disabled": 0, "type": "electric_scooter", "lon": -76.99923, "bike_id": "7bf0653c115cf7e07fa117f6ed13b929", "fusion_lat": 0.0, "name": "7bf0653c115cf7e07fa117f6ed13b929", "is_reserved": 0, "rental_uris": {"android": "https://dc.lft.to/lastmile_qr_scan", "ios": "https://dc.lft.to/lastmile_qr_scan"}, "fusion_lon": 0.0}, {"lat": 38.9070715, "is_disabled": 0, "type": "electric_scooter", "lon": -77.03202, "bike_id": "56437c99c1325fb1d59ad9c1bf2f2bf5", "fusion_lat": 0.0, "name": "56437c99c1325fb1d59ad9c1bf2f2bf5", "is_reserved": 0, "rental_uris": {"android": "https://dc.lft.to/lastmile_qr_scan", "ios": "https://dc.lft.to/lastmile_qr_scan"}, "fusion_lon": 0.0}, {"lat": 38.88831016666666, "is_disabled": 0, "type": "electric_scooter", "lon": -76.99414166666666, "bike_id": "9e5ebdf014c91d246b215af6b8303a2e", "fusion_lat": 0.0, "name": "9e5ebdf014c91d246b215af6b8303a2e", "is_reserved": 0, "rental_uris": {"android": "https://dc.lft.to/lastmile_qr_scan", "ios": "https://dc.lft.to/lastmile_qr_scan"}, "fusion_lon": 0.0}, {"lat": 38.9173985, "is_disabled": 0, "type": "electric_scooter", "lon": -77.03194666666667, "bike_id": "9e9778d0c1541e49286fbd365cf3a0b3", "fusion_lat": 0.0, "name": "9e9778d0c1541e49286fbd365cf3a0b3", "is_reserved": 0, "rental_uris": {"android": "https://dc.lft.to/lastmile_qr_scan", "ios": "https://dc.lft.to/lastmile_qr_scan"}, "fusion_lon": 0.0}, {"lat": 38.9229805, "is_disabled": 0, "type": "electric_scooter", "lon": -77.0472305, "bike_id": "df7c4d14492d2be9e7724937732acbf2", "fusion_lat": 0.0, "name": "df7c4d14492d2be9e7724937732acbf2", "is_reserved": 0, "rental_uris": {"android": "https://dc.lft.to/lastmile_qr_scan", "ios": "https://dc.lft.to/lastmile_qr_scan"}, "fusion_lon": 0.0}, {"lat": 38.98276666666667, "is_disabled": 0, "type": "electric_bike", "lon": -77.0177275, "bike_id": "3dc57baa7fa0845f178a9e52df561016", "fusion_lat": 0.0, "name": "3dc57baa7fa0845f178a9e52df561016", "is_reserved": 0, "rental_uris": {"android": "https://dc.lft.to/lastmile_qr_scan", "ios": "https://dc.lft.to/lastmile_qr_scan"}, "fusion_lon": 0.0}, {"lat": 38.920142, "is_disabled": 0, "type": "electric_scooter", "lon": -77.01954183333334, "bike_id": "7ab7c149dbfbfd859ec5ecbcd965facd", "fusion_lat": 0.0, "name": "7ab7c149dbfbfd859ec5ecbcd965facd", "is_reserved": 0, "rental_uris": {"android": "https://dc.lft.to/lastmile_qr_scan", "ios": "https://dc.lft.to/lastmile_qr_scan"}, "fusion_lon": 0.0}, {"lat": 38.91416016666667, "is_disabled": 0, "type": "electric_scooter", "lon": -77.04506333333333, "bike_id": "f92cd81abec67f3fdbd77c2adc365b3a", "fusion_lat": 0.0, "name": "f92cd81abec67f3fdbd77c2adc365b3a", "is_reserved": 0, "rental_uris": {"android": "https://dc.lft.to/lastmile_qr_scan", "ios": "https://dc.lft.to/lastmile_qr_scan"}, "fusion_lon": 0.0}, {"lat": 38.9850745, "is_disabled": 0, "type": "electric_bike", "lon": -76.9820085, "bike_id": "cd10501c2bb16b4ccf6f052141c1f3da", "fusion_lat": 0.0, "name": "cd10501c2bb16b4ccf6f052141c1f3da", "is_reserved": 0, "rental_uris": {"android": "https://dc.lft.to/lastmile_qr_scan", "ios": "https://dc.lft.to/lastmile_qr_scan"}, "fusion_lon": 0.0}, {"lat": 38.923629, "is_disabled": 0, "type": "electric_scooter", "lon": -77.02975633333334, "bike_id": "1ddb2c36f66c4748c66d3bbdda529020", "fusion_lat": 0.0, "name": "1ddb2c36f66c4748c66d3bbdda529020", "is_reserved": 0, "rental_uris": {"android": "https://dc.lft.to/lastmile_qr_scan", "ios": "https://dc.lft.to/lastmile_qr_scan"}, "fusion_lon": 0.0}, {"lat": 38.88467466666667, "is_disabled": 0, "type": "electric_scooter", "lon": -77.02413916666667, "bike_id": "5f78d2328869f13a2ee509f6993dfecf", "fusion_lat": 0.0, "name": "5f78d2328869f13a2ee509f6993dfecf", "is_reserved": 0, "rental_uris": {"android": "https://dc.lft.to/lastmile_qr_scan", "ios": "https://dc.lft.to/lastmile_qr_scan"}, "fusion_lon": 0.0}, {"lat": 38.865078, "is_disabled": 0, "type": "electric_scooter", "lon": -76.99005866666667, "bike_id": "2a807aa91bfe9b5f9020ed4dc96e3458", "fusion_lat": 0.0, "name": "2a807aa91bfe9b5f9020ed4dc96e3458", "is_reserved": 0, "rental_uris": {"android": "https://dc.lft.to/lastmile_qr_scan", "ios": "https://dc.lft.to/lastmile_qr_scan"}, "fusion_lon": 0.0}, {"lat": 38.905603166666666, "is_disabled": 0, "type": "electric_scooter", "lon": -76.99872983333333, "bike_id": "e4106f2d2de7ce3d83dc44ba5c069344", "fusion_lat": 0.0, "name": "e4106f2d2de7ce3d83dc44ba5c069344", "is_reserved": 0, "rental_uris": {"android": "https://dc.lft.to/lastmile_qr_scan", "ios": "https://dc.lft.to/lastmile_qr_scan"}, "fusion_lon": 0.0}, {"lat": 38.88025433333333, "is_disabled": 0, "type": "electric_scooter", "lon": -77.02469833333333, "bike_id": "850f4f163247c4113dd1a639445ea313", "fusion_lat": 0.0, "name": "850f4f163247c4113dd1a639445ea313", "is_reserved": 0, "rental_uris": {"android": "https://dc.lft.to/lastmile_qr_scan", "ios": "https://dc.lft.to/lastmile_qr_scan"}, "fusion_lon": 0.0}, {"lat": 38.867122, "is_disabled": 0, "type": "electric_scooter", "lon": -76.98723483333333, "bike_id": "681f687043e8fe29599c85a6a497eded", "fusion_lat": 0.0, "name": "681f687043e8fe29599c85a6a497eded", "is_reserved": 0, "rental_uris": {"android": "https://dc.lft.to/lastmile_qr_scan", "ios": "https://dc.lft.to/lastmile_qr_scan"}, "fusion_lon": 0.0}, {"lat": 39.003831, "is_disabled": 0, "type": "electric_bike", "lon": -77.01286166666667, "bike_id": "cbb77ee0e9495e6d363a13beec5b594b", "fusion_lat": 0.0, "name": "cbb77ee0e9495e6d363a13beec5b594b", "is_reserved": 0, "rental_uris": {"android": "https://dc.lft.to/lastmile_qr_scan", "ios": "https://dc.lft.to/lastmile_qr_scan"}, "fusion_lon": 0.0}, {"lat": 38.928977, "is_disabled": 0, "type": "electric_scooter", "lon": -77.0240295, "bike_id": "8937b532bffd4cfe18a2a13e8cc54db5", "fusion_lat": 0.0, "name": "8937b532bffd4cfe18a2a13e8cc54db5", "is_reserved": 0, "rental_uris": {"android": "https://dc.lft.to/lastmile_qr_scan", "ios": "https://dc.lft.to/lastmile_qr_scan"}, "fusion_lon": 0.0}, {"lat": 38.92879116666667, "is_disabled": 0, "type": "electric_scooter", "lon": -77.03250533333333, "bike_id": "2a2aa244a30429f0cef88c33de58d02f", "fusion_lat": 0.0, "name": "2a2aa244a30429f0cef88c33de58d02f", "is_reserved": 0, "rental_uris": {"android": "https://dc.lft.to/lastmile_qr_scan", "ios": "https://dc.lft.to/lastmile_qr_scan"}, "fusion_lon": 0.0}, {"lat": 38.93356416666666, "is_disabled": 0, "type": "electric_scooter", "lon": -77.02488083333333, "bike_id": "4adcdc92d6639724641674df3564241b", "fusion_lat": 0.0, "name": "4adcdc92d6639724641674df3564241b", "is_reserved": 0, "rental_uris": {"android": "https://dc.lft.to/lastmile_qr_scan", "ios": "https://dc.lft.to/lastmile_qr_scan"}, "fusion_lon": 0.0}, {"lat": 38.9002865, "is_disabled": 0, "type": "electric_scooter", "lon": -76.99904016666666, "bike_id": "1b570e4f0cfd6f575ad09cdb5b8cad84", "fusion_lat": 0.0, "name": "1b570e4f0cfd6f575ad09cdb5b8cad84", "is_reserved": 0, "rental_uris": {"android": "https://dc.lft.to/lastmile_qr_scan", "ios": "https://dc.lft.to/lastmile_qr_scan"}, "fusion_lon": 0.0}, {"lat": 38.862586666666665, "is_disabled": 0, "type": "electric_scooter", "lon": -76.9951725, "bike_id": "679c11cfa5c1103017d7d1873a3b1ad0", "fusion_lat": 0.0, "name": "679c11cfa5c1103017d7d1873a3b1ad0", "is_reserved": 0, "rental_uris": {"android": "https://dc.lft.to/lastmile_qr_scan", "ios": "https://dc.lft.to/lastmile_qr_scan"}, "fusion_lon": 0.0}, {"lat": 38.8026885, "is_disabled": 0, "type": "electric_bike", "lon": -77.0811035, "bike_id": "ee858f449b9070307ae2492f22c6bb5d", "fusion_lat": 0.0, "name": "ee858f449b9070307ae2492f22c6bb5d", "is_reserved": 0, "rental_uris": {"android": "https://dc.lft.to/lastmile_qr_scan", "ios": "https://dc.lft.to/lastmile_qr_scan"}, "fusion_lon": 0.0}, {"lat": 38.90637233333333, "is_disabled": 0, "type": "electric_scooter", "lon": -77.0249875, "bike_id": "a78c1d425b6e899ff09c05c420d089d1", "fusion_lat": 0.0, "name": "a78c1d425b6e899ff09c05c420d089d1", "is_reserved": 0, "rental_uris": {"android": "https://dc.lft.to/lastmile_qr_scan", "ios": "https://dc.lft.to/lastmile_qr_scan"}, "fusion_lon": 0.0}, {"lat": 38.92466, "is_disabled": 0, "type": "electric_scooter", "lon": -77.05228666666666, "bike_id": "f671ba53b1ec1a74ed2e3ab2b7369de0", "fusion_lat": 0.0, "name": "f671ba53b1ec1a74ed2e3ab2b7369de0", "is_reserved": 0, "rental_uris": {"android": "https://dc.lft.to/lastmile_qr_scan", "ios": "https://dc.lft.to/lastmile_qr_scan"}, "fusion_lon": 0.0}, {"lat": 38.92427983333333, "is_disabled": 0, "type": "electric_scooter", "lon": -77.0518435, "bike_id": "7575bd8e92a059f53f5631d0b36b58ee", "fusion_lat": 0.0, "name": "7575bd8e92a059f53f5631d0b36b58ee", "is_reserved": 0, "rental_uris": {"android": "https://dc.lft.to/lastmile_qr_scan", "ios": "https://dc.lft.to/lastmile_qr_scan"}, "fusion_lon": 0.0}, {"lat": 38.9006765, "is_disabled": 0, "type": "electric_scooter", "lon": -77.05058533333333, "bike_id": "5c9d4b9036e5350f11b3093cbde539ec", "fusion_lat": 0.0, "name": "5c9d4b9036e5350f11b3093cbde539ec", "is_reserved": 0, "rental_uris": {"android": "https://dc.lft.to/lastmile_qr_scan", "ios": "https://dc.lft.to/lastmile_qr_scan"}, "fusion_lon": 0.0}, {"lat": 38.836941, "is_disabled": 0, "type": "electric_scooter", "lon": -77.10305733333334, "bike_id": "a5a0ae195c931b3165a13b5c90a70944", "fusion_lat": 0.0, "name": "a5a0ae195c931b3165a13b5c90a70944", "is_reserved": 0, "rental_uris": {"android": "https://dc.lft.to/lastmile_qr_scan", "ios": "https://dc.lft.to/lastmile_qr_scan"}, "fusion_lon": 0.0}, {"lat": 38.91609716666667, "is_disabled": 0, "type": "electric_scooter", "lon": -77.0332655, "bike_id": "bfc2e0f1c6939fa1fc4853f90004f2a1", "fusion_lat": 0.0, "name": "bfc2e0f1c6939fa1fc4853f90004f2a1", "is_reserved": 0, "rental_uris": {"android": "https://dc.lft.to/lastmile_qr_scan", "ios": "https://dc.lft.to/lastmile_qr_scan"}, "fusion_lon": 0.0}, {"lat": 38.881160666666666, "is_disabled": 0, "type": "electric_scooter", "lon": -76.983338, "bike_id": "ed8af9f762d467b44bd96f038eddc1fc", "fusion_lat": 0.0, "name": "ed8af9f762d467b44bd96f038eddc1fc", "is_reserved": 0, "rental_uris": {"android": "https://dc.lft.to/lastmile_qr_scan", "ios": "https://dc.lft.to/lastmile_qr_scan"}, "fusion_lon": 0.0}, {"lat": 38.868310666666666, "is_disabled": 0, "type": "electric_scooter", "lon": -76.9773955, "bike_id": "a2dc2684e673d481c417ded46b0df79f", "fusion_lat": 0.0, "name": "a2dc2684e673d481c417ded46b0df79f", "is_reserved": 0, "rental_uris": {"android": "https://dc.lft.to/lastmile_qr_scan", "ios": "https://dc.lft.to/lastmile_qr_scan"}, "fusion_lon": 0.0}, {"lat": 38.927157666666666, "is_disabled": 0, "type": "electric_scooter", "lon": -77.02087516666667, "bike_id": "a135cce15e25422ad2b76c479a018cad", "fusion_lat": 0.0, "name": "a135cce15e25422ad2b76c479a018cad", "is_reserved": 0, "rental_uris": {"android": "https://dc.lft.to/lastmile_qr_scan", "ios": "https://dc.lft.to/lastmile_qr_scan"}, "fusion_lon": 0.0}, {"lat": 38.87140483333334, "is_disabled": 0, "type": "electric_bike", "lon": -76.9370785, "bike_id": "e82c679a6ce3c34a78293f063aa50560", "fusion_lat": 0.0, "name": "e82c679a6ce3c34a78293f063aa50560", "is_reserved": 0, "rental_uris": {"android": "https://dc.lft.to/lastmile_qr_scan", "ios": "https://dc.lft.to/lastmile_qr_scan"}, "fusion_lon": 0.0}, {"lat": 38.8442825, "is_disabled": 0, "type": "electric_scooter", "lon": -76.99779733333334, "bike_id": "83e1479c9b0ceb0d11e641572fcb02a5", "fusion_lat": 0.0, "name": "83e1479c9b0ceb0d11e641572fcb02a5", "is_reserved": 0, "rental_uris": {"android": "https://dc.lft.to/lastmile_qr_scan", "ios": "https://dc.lft.to/lastmile_qr_scan"}, "fusion_lon": 0.0}, {"lat": 38.924839, "is_disabled": 0, "type": "electric_scooter", "lon": -77.02830433333334, "bike_id": "f7739896ef81b6fad2036179abc24157", "fusion_lat": 0.0, "name": "f7739896ef81b6fad2036179abc24157", "is_reserved": 0, "rental_uris": {"android": "https://dc.lft.to/lastmile_qr_scan", "ios": "https://dc.lft.to/lastmile_qr_scan"}, "fusion_lon": 0.0}, {"lat": 38.914471, "is_disabled": 0, "type": "electric_scooter", "lon": -77.03205466666667, "bike_id": "b58d38fd4e1c15b8e0707dbaf8e78246", "fusion_lat": 0.0, "name": "b58d38fd4e1c15b8e0707dbaf8e78246", "is_reserved": 0, "rental_uris": {"android": "https://dc.lft.to/lastmile_qr_scan", "ios": "https://dc.lft.to/lastmile_qr_scan"}, "fusion_lon": 0.0}, {"lat": 38.907748, "is_disabled": 0, "type": "electric_scooter", "lon": -77.03857916666666, "bike_id": "dc48c1daa8db30f7dd29c0ef380c4f63", "fusion_lat": 0.0, "name": "dc48c1daa8db30f7dd29c0ef380c4f63", "is_reserved": 0, "rental_uris": {"android": "https://dc.lft.to/lastmile_qr_scan", "ios": "https://dc.lft.to/lastmile_qr_scan"}, "fusion_lon": 0.0}, {"lat": 38.914759333333336, "is_disabled": 0, "type": "electric_scooter", "lon": -77.0035125, "bike_id": "e3572f4f53d6b1df85f3e4b60a24b5fc", "fusion_lat": 0.0, "name": "e3572f4f53d6b1df85f3e4b60a24b5fc", "is_reserved": 0, "rental_uris": {"android": "https://dc.lft.to/lastmile_qr_scan", "ios": "https://dc.lft.to/lastmile_qr_scan"}, "fusion_lon": 0.0}, {"lat": 38.986490833333335, "is_disabled": 0, "type": "electric_bike", "lon": -77.05632716666666, "bike_id": "53d32c7713387b355ed4a74d52a8101b", "fusion_lat": 0.0, "name": "53d32c7713387b355ed4a74d52a8101b", "is_reserved": 0, "rental_uris": {"android": "https://dc.lft.to/lastmile_qr_scan", "ios": "https://dc.lft.to/lastmile_qr_scan"}, "fusion_lon": 0.0}, {"lat": 38.900929, "is_disabled": 0, "type": "electric_scooter", "lon": -76.9949215, "bike_id": "0e02b347fd4e28d4ad39dc056a930d8b", "fusion_lat": 0.0, "name": "0e02b347fd4e28d4ad39dc056a930d8b", "is_reserved": 0, "rental_uris": {"android": "https://dc.lft.to/lastmile_qr_scan", "ios": "https://dc.lft.to/lastmile_qr_scan"}, "fusion_lon": 0.0}, {"lat": 38.92182916666667, "is_disabled": 0, "type": "electric_scooter", "lon": -77.03983116666667, "bike_id": "fb70beb88f95c94c25ed6e156c081b1c", "fusion_lat": 0.0, "name": "fb70beb88f95c94c25ed6e156c081b1c", "is_reserved": 0, "rental_uris": {"android": "https://dc.lft.to/lastmile_qr_scan", "ios": "https://dc.lft.to/lastmile_qr_scan"}, "fusion_lon": 0.0}, {"lat": 38.90979016666667, "is_disabled": 0, "type": "electric_scooter", "lon": -77.03438566666667, "bike_id": "613e6833171fcf1634bf8840df6eeea9", "fusion_lat": 0.0, "name": "613e6833171fcf1634bf8840df6eeea9", "is_reserved": 0, "rental_uris": {"android": "https://dc.lft.to/lastmile_qr_scan", "ios": "https://dc.lft.to/lastmile_qr_scan"}, "fusion_lon": 0.0}, {"lat": 38.956355333333335, "is_disabled": 0, "type": "electric_bike", "lon": -76.93882816666667, "bike_id": "01ef0b035cb87efaab3210531371bc29", "fusion_lat": 0.0, "name": "01ef0b035cb87efaab3210531371bc29", "is_reserved": 0, "rental_uris": {"android": "https://dc.lft.to/lastmile_qr_scan", "ios": "https://dc.lft.to/lastmile_qr_scan"}, "fusion_lon": 0.0}, {"lat": 38.84276933333334, "is_disabled": 0, "type": "electric_bike", "lon": -76.98844783333334, "bike_id": "80b32e173482d3c99427e621da23bdaa", "fusion_lat": 0.0, "name": "80b32e173482d3c99427e621da23bdaa", "is_reserved": 0, "rental_uris": {"android": "https://dc.lft.to/lastmile_qr_scan", "ios": "https://dc.lft.to/lastmile_qr_scan"}, "fusion_lon": 0.0}, {"lat": 38.90514316666667, "is_disabled": 0, "type": "electric_scooter", "lon": -77.051177, "bike_id": "9f04a409b8bd8d377b1c7992c5dc5731", "fusion_lat": 0.0, "name": "9f04a409b8bd8d377b1c7992c5dc5731", "is_reserved": 0, "rental_uris": {"android": "https://dc.lft.to/lastmile_qr_scan", "ios": "https://dc.lft.to/lastmile_qr_scan"}, "fusion_lon": 0.0}, {"lat": 38.9267105, "is_disabled": 0, "type": "electric_scooter", "lon": -76.995329, "bike_id": "13b3518a5a23bffdd6f7f6fe152447f4", "fusion_lat": 0.0, "name": "13b3518a5a23bffdd6f7f6fe152447f4", "is_reserved": 0, "rental_uris": {"android": "https://dc.lft.to/lastmile_qr_scan", "ios": "https://dc.lft.to/lastmile_qr_scan"}, "fusion_lon": 0.0}, {"lat": 38.92565916666667, "is_disabled": 0, "type": "electric_scooter", "lon": -77.0576045, "bike_id": "d5b282cd24073253b38e56de713b991c", "fusion_lat": 0.0, "name": "d5b282cd24073253b38e56de713b991c", "is_reserved": 0, "rental_uris": {"android": "https://dc.lft.to/lastmile_qr_scan", "ios": "https://dc.lft.to/lastmile_qr_scan"}, "fusion_lon": 0.0}, {"lat": 38.91501433333333, "is_disabled": 0, "type": "electric_scooter", "lon": -77.0122045, "bike_id": "86fcfc6a096315b74519c977a6767110", "fusion_lat": 0.0, "name": "86fcfc6a096315b74519c977a6767110", "is_reserved": 0, "rental_uris": {"android": "https://dc.lft.to/lastmile_qr_scan", "ios": "https://dc.lft.to/lastmile_qr_scan"}, "fusion_lon": 0.0}, {"lat": 38.898031833333334, "is_disabled": 0, "type": "electric_scooter", "lon": -77.00059483333334, "bike_id": "d42cb528bdc7dd2693d094a828df60f5", "fusion_lat": 0.0, "name": "d42cb528bdc7dd2693d094a828df60f5", "is_reserved": 0, "rental_uris": {"android": "https://dc.lft.to/lastmile_qr_scan", "ios": "https://dc.lft.to/lastmile_qr_scan"}, "fusion_lon": 0.0}, {"lat": 38.914605, "is_disabled": 0, "type": "electric_scooter", "lon": -77.04156033333334, "bike_id": "8ff49c2e8a861609a989d0d37e78e414", "fusion_lat": 0.0, "name": "8ff49c2e8a861609a989d0d37e78e414", "is_reserved": 0, "rental_uris": {"android": "https://dc.lft.to/lastmile_qr_scan", "ios": "https://dc.lft.to/lastmile_qr_scan"}, "fusion_lon": 0.0}, {"lat": 38.89769533333333, "is_disabled": 0, "type": "electric_bike", "lon": -76.90432283333334, "bike_id": "0e110a13439cf2aa370247dc62d19b63", "fusion_lat": 0.0, "name": "0e110a13439cf2aa370247dc62d19b63", "is_reserved": 0, "rental_uris": {"android": "https://dc.lft.to/lastmile_qr_scan", "ios": "https://dc.lft.to/lastmile_qr_scan"}, "fusion_lon": 0.0}, {"lat": 38.91542466666667, "is_disabled": 0, "type": "electric_scooter", "lon": -77.02201683333334, "bike_id": "917bcac8575ee0f00643abcc812f636b", "fusion_lat": 0.0, "name": "917bcac8575ee0f00643abcc812f636b", "is_reserved": 0, "rental_uris": {"android": "https://dc.lft.to/lastmile_qr_scan", "ios": "https://dc.lft.to/lastmile_qr_scan"}, "fusion_lon": 0.0}, {"lat": 38.9141915, "is_disabled": 0, "type": "electric_scooter", "lon": -77.03903566666666, "bike_id": "078161ba622660cb0d1c16fe96f4fe6c", "fusion_lat": 0.0, "name": "078161ba622660cb0d1c16fe96f4fe6c", "is_reserved": 0, "rental_uris": {"android": "https://dc.lft.to/lastmile_qr_scan", "ios": "https://dc.lft.to/lastmile_qr_scan"}, "fusion_lon": 0.0}, {"lat": 38.90045033333333, "is_disabled": 0, "type": "electric_scooter", "lon": -76.995049, "bike_id": "efdb8cb5806fdcdfa85b32ad48b9a674", "fusion_lat": 0.0, "name": "efdb8cb5806fdcdfa85b32ad48b9a674", "is_reserved": 0, "rental_uris": {"android": "https://dc.lft.to/lastmile_qr_scan", "ios": "https://dc.lft.to/lastmile_qr_scan"}, "fusion_lon": 0.0}, {"lat": 38.926814, "is_disabled": 0, "type": "electric_scooter", "lon": -77.02116283333334, "bike_id": "5f025bf88d8059a78241d5d22311873f", "fusion_lat": 0.0, "name": "5f025bf88d8059a78241d5d22311873f", "is_reserved": 0, "rental_uris": {"android": "https://dc.lft.to/lastmile_qr_scan", "ios": "https://dc.lft.to/lastmile_qr_scan"}, "fusion_lon": 0.0}, {"lat": 38.83987616666667, "is_disabled": 0, "type": "electric_bike", "lon": -77.00566666666667, "bike_id": "15efbfa678c8e6a4987e48244eef1ac6", "fusion_lat": 0.0, "name": "15efbfa678c8e6a4987e48244eef1ac6", "is_reserved": 0, "rental_uris": {"android": "https://dc.lft.to/lastmile_qr_scan", "ios": "https://dc.lft.to/lastmile_qr_scan"}, "fusion_lon": 0.0}, {"lat": 38.90421666666667, "is_disabled": 0, "type": "electric_scooter", "lon": -77.05913633333333, "bike_id": "0abccbd21cad42b89033d0ceebcca596", "fusion_lat": 0.0, "name": "0abccbd21cad42b89033d0ceebcca596", "is_reserved": 0, "rental_uris": {"android": "https://dc.lft.to/lastmile_qr_scan", "ios": "https://dc.lft.to/lastmile_qr_scan"}, "fusion_lon": 0.0}, {"lat": 38.873042166666664, "is_disabled": 0, "type": "electric_bike", "lon": -77.01093433333334, "bike_id": "809212c99c4b0fb64d8a5bf4abd23081", "fusion_lat": 0.0, "name": "809212c99c4b0fb64d8a5bf4abd23081", "is_reserved": 0, "rental_uris": {"android": "https://dc.lft.to/lastmile_qr_scan", "ios": "https://dc.lft.to/lastmile_qr_scan"}, "fusion_lon": 0.0}, {"lat": 38.916906166666664, "is_disabled": 0, "type": "electric_scooter", "lon": -77.03716933333334, "bike_id": "5dc318265bd907117be3e2922b98fb95", "fusion_lat": 0.0, "name": "5dc318265bd907117be3e2922b98fb95", "is_reserved": 0, "rental_uris": {"android": "https://dc.lft.to/lastmile_qr_scan", "ios": "https://dc.lft.to/lastmile_qr_scan"}, "fusion_lon": 0.0}, {"lat": 38.92399733333333, "is_disabled": 0, "type": "electric_scooter", "lon": -77.05263, "bike_id": "10a3e54ed42f9fd351d80d945dbf1933", "fusion_lat": 0.0, "name": "10a3e54ed42f9fd351d80d945dbf1933", "is_reserved": 0, "rental_uris": {"android": "https://dc.lft.to/lastmile_qr_scan", "ios": "https://dc.lft.to/lastmile_qr_scan"}, "fusion_lon": 0.0}, {"lat": 38.909483333333334, "is_disabled": 0, "type": "electric_scooter", "lon": -77.03207483333334, "bike_id": "c9eaf1040d3135b5e40b42e158ad148c", "fusion_lat": 0.0, "name": "c9eaf1040d3135b5e40b42e158ad148c", "is_reserved": 0, "rental_uris": {"android": "https://dc.lft.to/lastmile_qr_scan", "ios": "https://dc.lft.to/lastmile_qr_scan"}, "fusion_lon": 0.0}, {"lat": 38.909816, "is_disabled": 0, "type": "electric_scooter", "lon": -76.98467216666667, "bike_id": "592c30e87b040bbce4373e3ec4744e2f", "fusion_lat": 0.0, "name": "592c30e87b040bbce4373e3ec4744e2f", "is_reserved": 0, "rental_uris": {"android": "https://dc.lft.to/lastmile_qr_scan", "ios": "https://dc.lft.to/lastmile_qr_scan"}, "fusion_lon": 0.0}, {"lat": 38.90852983333333, "is_disabled": 0, "type": "electric_scooter", "lon": -76.99946033333333, "bike_id": "a828f97036e4c02d11968d3477b276d2", "fusion_lat": 0.0, "name": "a828f97036e4c02d11968d3477b276d2", "is_reserved": 0, "rental_uris": {"android": "https://dc.lft.to/lastmile_qr_scan", "ios": "https://dc.lft.to/lastmile_qr_scan"}, "fusion_lon": 0.0}, {"lat": 38.8802685, "is_disabled": 0, "type": "electric_scooter", "lon": -77.02475533333333, "bike_id": "90914426562f15cf4bc7586345834930", "fusion_lat": 0.0, "name": "90914426562f15cf4bc7586345834930", "is_reserved": 0, "rental_uris": {"android": "https://dc.lft.to/lastmile_qr_scan", "ios": "https://dc.lft.to/lastmile_qr_scan"}, "fusion_lon": 0.0}, {"lat": 38.902649333333336, "is_disabled": 0, "type": "electric_scooter", "lon": -77.06228966666667, "bike_id": "14b159afb6de9ed87a0cdc30181f7897", "fusion_lat": 0.0, "name": "14b159afb6de9ed87a0cdc30181f7897", "is_reserved": 0, "rental_uris": {"android": "https://dc.lft.to/lastmile_qr_scan", "ios": "https://dc.lft.to/lastmile_qr_scan"}, "fusion_lon": 0.0}, {"lat": 38.91706283333333, "is_disabled": 0, "type": "electric_scooter", "lon": -77.04043216666666, "bike_id": "c5626ce1238cff6938bc5873e4172cb3", "fusion_lat": 0.0, "name": "c5626ce1238cff6938bc5873e4172cb3", "is_reserved": 0, "rental_uris": {"android": "https://dc.lft.to/lastmile_qr_scan", "ios": "https://dc.lft.to/lastmile_qr_scan"}, "fusion_lon": 0.0}, {"lat": 38.907048333333336, "is_disabled": 0, "type": "electric_scooter", "lon": -77.03199833333333, "bike_id": "3bf058ca1042e483cbed0b54b5a837a1", "fusion_lat": 0.0, "name": "3bf058ca1042e483cbed0b54b5a837a1", "is_reserved": 0, "rental_uris": {"android": "https://dc.lft.to/lastmile_qr_scan", "ios": "https://dc.lft.to/lastmile_qr_scan"}, "fusion_lon": 0.0}, {"lat": 38.934121166666664, "is_disabled": 0, "type": "electric_scooter", "lon": -77.03268766666666, "bike_id": "5967dda48f9df1c67540fe582b5f405a", "fusion_lat": 0.0, "name": "5967dda48f9df1c67540fe582b5f405a", "is_reserved": 0, "rental_uris": {"android": "https://dc.lft.to/lastmile_qr_scan", "ios": "https://dc.lft.to/lastmile_qr_scan"}, "fusion_lon": 0.0}, {"lat": 38.92114933333333, "is_disabled": 0, "type": "electric_scooter", "lon": -77.01803033333333, "bike_id": "e5cec28bc8c84a12089e08ed47ff3def", "fusion_lat": 0.0, "name": "e5cec28bc8c84a12089e08ed47ff3def", "is_reserved": 0, "rental_uris": {"android": "https://dc.lft.to/lastmile_qr_scan", "ios": "https://dc.lft.to/lastmile_qr_scan"}, "fusion_lon": 0.0}, {"lat": 38.91031983333333, "is_disabled": 0, "type": "electric_scooter", "lon": -77.03869433333334, "bike_id": "7ac5e3a7405f2f9c60bbaf440611a61b", "fusion_lat": 0.0, "name": "7ac5e3a7405f2f9c60bbaf440611a61b", "is_reserved": 0, "rental_uris": {"android": "https://dc.lft.to/lastmile_qr_scan", "ios": "https://dc.lft.to/lastmile_qr_scan"}, "fusion_lon": 0.0}, {"lat": 38.896068166666666, "is_disabled": 0, "type": "electric_scooter", "lon": -77.05465316666667, "bike_id": "6aa3c1242d82bd765a0029469b8997ea", "fusion_lat": 0.0, "name": "6aa3c1242d82bd765a0029469b8997ea", "is_reserved": 0, "rental_uris": {"android": "https://dc.lft.to/lastmile_qr_scan", "ios": "https://dc.lft.to/lastmile_qr_scan"}, "fusion_lon": 0.0}, {"lat": 38.90145, "is_disabled": 0, "type": "electric_scooter", "lon": -77.000633, "bike_id": "f65a1dd144a0ca9a4aa2f150d4ef2570", "fusion_lat": 0.0, "name": "f65a1dd144a0ca9a4aa2f150d4ef2570", "is_reserved": 0, "rental_uris": {"android": "https://dc.lft.to/lastmile_qr_scan", "ios": "https://dc.lft.to/lastmile_qr_scan"}, "fusion_lon": 0.0}, {"lat": 38.911885166666664, "is_disabled": 0, "type": "electric_scooter", "lon": -77.04462183333334, "bike_id": "9635ed3c6b8964b4600848acabfffbf8", "fusion_lat": 0.0, "name": "9635ed3c6b8964b4600848acabfffbf8", "is_reserved": 0, "rental_uris": {"android": "https://dc.lft.to/lastmile_qr_scan", "ios": "https://dc.lft.to/lastmile_qr_scan"}, "fusion_lon": 0.0}, {"lat": 38.90738433333333, "is_disabled": 0, "type": "electric_scooter", "lon": -77.03466266666666, "bike_id": "58cf4d70c63b56fed51a6963324dd468", "fusion_lat": 0.0, "name": "58cf4d70c63b56fed51a6963324dd468", "is_reserved": 0, "rental_uris": {"android": "https://dc.lft.to/lastmile_qr_scan", "ios": "https://dc.lft.to/lastmile_qr_scan"}, "fusion_lon": 0.0}, {"lat": 38.881082666666664, "is_disabled": 0, "type": "electric_scooter", "lon": -77.02634966666666, "bike_id": "ea93151ff369489d3b0229e767b8f3ff", "fusion_lat": 0.0, "name": "ea93151ff369489d3b0229e767b8f3ff", "is_reserved": 0, "rental_uris": {"android": "https://dc.lft.to/lastmile_qr_scan", "ios": "https://dc.lft.to/lastmile_qr_scan"}, "fusion_lon": 0.0}, {"lat": 38.9203135, "is_disabled": 0, "type": "electric_scooter", "lon": -76.9934185, "bike_id": "89039d7dc18663d8b2d5c198338484e2", "fusion_lat": 0.0, "name": "89039d7dc18663d8b2d5c198338484e2", "is_reserved": 0, "rental_uris": {"android": "https://dc.lft.to/lastmile_qr_scan", "ios": "https://dc.lft.to/lastmile_qr_scan"}, "fusion_lon": 0.0}, {"lat": 38.865089833333336, "is_disabled": 0, "type": "electric_scooter", "lon": -76.99003733333333, "bike_id": "3bb2d0470c38d5ac643cb0312f2de775", "fusion_lat": 0.0, "name": "3bb2d0470c38d5ac643cb0312f2de775", "is_reserved": 0, "rental_uris": {"android": "https://dc.lft.to/lastmile_qr_scan", "ios": "https://dc.lft.to/lastmile_qr_scan"}, "fusion_lon": 0.0}, {"lat": 38.893408, "is_disabled": 0, "type": "electric_scooter", "lon": -77.01227633333333, "bike_id": "af4e6970ce7d18f856a06fd17d83eaf3", "fusion_lat": 0.0, "name": "af4e6970ce7d18f856a06fd17d83eaf3", "is_reserved": 0, "rental_uris": {"android": "https://dc.lft.to/lastmile_qr_scan", "ios": "https://dc.lft.to/lastmile_qr_scan"}, "fusion_lon": 0.0}, {"lat": 38.90308016666667, "is_disabled": 0, "type": "electric_scooter", "lon": -77.02884716666667, "bike_id": "b9e35d805aec18317669a81254ef4583", "fusion_lat": 0.0, "name": "b9e35d805aec18317669a81254ef4583", "is_reserved": 0, "rental_uris": {"android": "https://dc.lft.to/lastmile_qr_scan", "ios": "https://dc.lft.to/lastmile_qr_scan"}, "fusion_lon": 0.0}, {"lat": 38.84267833333333, "is_disabled": 0, "type": "electric_bike", "lon": -76.98844733333334, "bike_id": "6b031d6dd147f5733e15a225312b0ab7", "fusion_lat": 0.0, "name": "6b031d6dd147f5733e15a225312b0ab7", "is_reserved": 0, "rental_uris": {"android": "https://dc.lft.to/lastmile_qr_scan", "ios": "https://dc.lft.to/lastmile_qr_scan"}, "fusion_lon": 0.0}, {"lat": 38.85679833333333, "is_disabled": 0, "type": "electric_scooter", "lon": -76.98179533333334, "bike_id": "c3b99915f9bf3e25c2d2a29a573187fa", "fusion_lat": 0.0, "name": "c3b99915f9bf3e25c2d2a29a573187fa", "is_reserved": 0, "rental_uris": {"android": "https://dc.lft.to/lastmile_qr_scan", "ios": "https://dc.lft.to/lastmile_qr_scan"}, "fusion_lon": 0.0}, {"lat": 38.895470833333334, "is_disabled": 0, "type": "electric_scooter", "lon": -77.00437483333333, "bike_id": "6d94a0b5ee4ad85d1824514d3b13e787", "fusion_lat": 0.0, "name": "6d94a0b5ee4ad85d1824514d3b13e787", "is_reserved": 0, "rental_uris": {"android": "https://dc.lft.to/lastmile_qr_scan", "ios": "https://dc.lft.to/lastmile_qr_scan"}, "fusion_lon": 0.0}, {"lat": 38.83726433333333, "is_disabled": 0, "type": "electric_bike", "lon": -76.9976575, "bike_id": "171d3ced38aa4b34d3e507ece03cbf71", "fusion_lat": 0.0, "name": "171d3ced38aa4b34d3e507ece03cbf71", "is_reserved": 0, "rental_uris": {"android": "https://dc.lft.to/lastmile_qr_scan", "ios": "https://dc.lft.to/lastmile_qr_scan"}, "fusion_lon": 0.0}, {"lat": 38.93408266666667, "is_disabled": 0, "type": "electric_scooter", "lon": -77.024635, "bike_id": "922a34af71c390963fd27bbfd8e25b79", "fusion_lat": 0.0, "name": "922a34af71c390963fd27bbfd8e25b79", "is_reserved": 0, "rental_uris": {"android": "https://dc.lft.to/lastmile_qr_scan", "ios": "https://dc.lft.to/lastmile_qr_scan"}, "fusion_lon": 0.0}, {"lat": 38.93601983333333, "is_disabled": 0, "type": "electric_scooter", "lon": -77.025306, "bike_id": "ff3439700d6ed0ad6f9bc109d7fd1fde", "fusion_lat": 0.0, "name": "ff3439700d6ed0ad6f9bc109d7fd1fde", "is_reserved": 0, "rental_uris": {"android": "https://dc.lft.to/lastmile_qr_scan", "ios": "https://dc.lft.to/lastmile_qr_scan"}, "fusion_lon": 0.0}, {"lat": 38.9098535, "is_disabled": 0, "type": "electric_scooter", "lon": -77.0317655, "bike_id": "eaedc372f0ac0389aec6b7536beac196", "fusion_lat": 0.0, "name": "eaedc372f0ac0389aec6b7536beac196", "is_reserved": 0, "rental_uris": {"android": "https://dc.lft.to/lastmile_qr_scan", "ios": "https://dc.lft.to/lastmile_qr_scan"}, "fusion_lon": 0.0}, {"lat": 38.914996, "is_disabled": 0, "type": "electric_scooter", "lon": -77.0678765, "bike_id": "2615925988f2bbe1e0de74e655316bbf", "fusion_lat": 0.0, "name": "2615925988f2bbe1e0de74e655316bbf", "is_reserved": 0, "rental_uris": {"android": "https://dc.lft.to/lastmile_qr_scan", "ios": "https://dc.lft.to/lastmile_qr_scan"}, "fusion_lon": 0.0}, {"lat": 38.91610216666667, "is_disabled": 0, "type": "electric_scooter", "lon": -77.0230375, "bike_id": "d50de2f131b6a6bca3d73aab8cb2d020", "fusion_lat": 0.0, "name": "d50de2f131b6a6bca3d73aab8cb2d020", "is_reserved": 0, "rental_uris": {"android": "https://dc.lft.to/lastmile_qr_scan", "ios": "https://dc.lft.to/lastmile_qr_scan"}, "fusion_lon": 0.0}, {"lat": 38.8670005, "is_disabled": 0, "type": "electric_scooter", "lon": -76.9870775, "bike_id": "66751869428576a700facd9de46dd600", "fusion_lat": 0.0, "name": "66751869428576a700facd9de46dd600", "is_reserved": 0, "rental_uris": {"android": "https://dc.lft.to/lastmile_qr_scan", "ios": "https://dc.lft.to/lastmile_qr_scan"}, "fusion_lon": 0.0}, {"lat": 38.92842366666667, "is_disabled": 0, "type": "electric_scooter", "lon": -77.01406633333333, "bike_id": "9b4485159d3f526fdd56378041affbed", "fusion_lat": 0.0, "name": "9b4485159d3f526fdd56378041affbed", "is_reserved": 0, "rental_uris": {"android": "https://dc.lft.to/lastmile_qr_scan", "ios": "https://dc.lft.to/lastmile_qr_scan"}, "fusion_lon": 0.0}, {"lat": 38.89848766666667, "is_disabled": 0, "type": "electric_scooter", "lon": -77.01996816666667, "bike_id": "8462b2a65441f696c5b8a68773f8dd39", "fusion_lat": 0.0, "name": "8462b2a65441f696c5b8a68773f8dd39", "is_reserved": 0, "rental_uris": {"android": "https://dc.lft.to/lastmile_qr_scan", "ios": "https://dc.lft.to/lastmile_qr_scan"}, "fusion_lon": 0.0}, {"lat": 38.884439, "is_disabled": 0, "type": "electric_scooter", "lon": -77.0005595, "bike_id": "d1764869695d164ebbc5d8da2e0762d1", "fusion_lat": 0.0, "name": "d1764869695d164ebbc5d8da2e0762d1", "is_reserved": 0, "rental_uris": {"android": "https://dc.lft.to/lastmile_qr_scan", "ios": "https://dc.lft.to/lastmile_qr_scan"}, "fusion_lon": 0.0}, {"lat": 38.91641683333334, "is_disabled": 0, "type": "electric_scooter", "lon": -77.047813, "bike_id": "c52320b9e7d706fa8d1c8da7585db8fd", "fusion_lat": 0.0, "name": "c52320b9e7d706fa8d1c8da7585db8fd", "is_reserved": 0, "rental_uris": {"android": "https://dc.lft.to/lastmile_qr_scan", "ios": "https://dc.lft.to/lastmile_qr_scan"}, "fusion_lon": 0.0}, {"lat": 38.916864333333336, "is_disabled": 0, "type": "electric_scooter", "lon": -77.0255465, "bike_id": "aafece36e40edb42862269be2724b00d", "fusion_lat": 0.0, "name": "aafece36e40edb42862269be2724b00d", "is_reserved": 0, "rental_uris": {"android": "https://dc.lft.to/lastmile_qr_scan", "ios": "https://dc.lft.to/lastmile_qr_scan"}, "fusion_lon": 0.0}, {"lat": 38.914858333333335, "is_disabled": 0, "type": "electric_scooter", "lon": -77.03253583333333, "bike_id": "4c5152411a6da00934db42c0dff462dd", "fusion_lat": 0.0, "name": "4c5152411a6da00934db42c0dff462dd", "is_reserved": 0, "rental_uris": {"android": "https://dc.lft.to/lastmile_qr_scan", "ios": "https://dc.lft.to/lastmile_qr_scan"}, "fusion_lon": 0.0}, {"lat": 38.925362, "is_disabled": 0, "type": "electric_scooter", "lon": -77.04426466666666, "bike_id": "15b9335c4917f394b87404f18ccf13d2", "fusion_lat": 0.0, "name": "15b9335c4917f394b87404f18ccf13d2", "is_reserved": 0, "rental_uris": {"android": "https://dc.lft.to/lastmile_qr_scan", "ios": "https://dc.lft.to/lastmile_qr_scan"}, "fusion_lon": 0.0}, {"lat": 38.9320375, "is_disabled": 0, "type": "electric_scooter", "lon": -77.03659616666667, "bike_id": "5ee1900af3f68ca56dae6880b1a46a22", "fusion_lat": 0.0, "name": "5ee1900af3f68ca56dae6880b1a46a22", "is_reserved": 0, "rental_uris": {"android": "https://dc.lft.to/lastmile_qr_scan", "ios": "https://dc.lft.to/lastmile_qr_scan"}, "fusion_lon": 0.0}, {"lat": 38.900343666666664, "is_disabled": 0, "type": "electric_scooter", "lon": -76.9937205, "bike_id": "3d44ae99650501e02070018b77c0243b", "fusion_lat": 0.0, "name": "3d44ae99650501e02070018b77c0243b", "is_reserved": 0, "rental_uris": {"android": "https://dc.lft.to/lastmile_qr_scan", "ios": "https://dc.lft.to/lastmile_qr_scan"}, "fusion_lon": 0.0}, {"lat": 38.900712, "is_disabled": 0, "type": "electric_scooter", "lon": -77.01831216666666, "bike_id": "9a4a0f4a365d07362cdf770a5b106359", "fusion_lat": 0.0, "name": "9a4a0f4a365d07362cdf770a5b106359", "is_reserved": 0, "rental_uris": {"android": "https://dc.lft.to/lastmile_qr_scan", "ios": "https://dc.lft.to/lastmile_qr_scan"}, "fusion_lon": 0.0}, {"lat": 38.936381, "is_disabled": 0, "type": "electric_scooter", "lon": -77.02496533333333, "bike_id": "e4ede63fac935a1b0a2f322b8f531eb3", "fusion_lat": 0.0, "name": "e4ede63fac935a1b0a2f322b8f531eb3", "is_reserved": 0, "rental_uris": {"android": "https://dc.lft.to/lastmile_qr_scan", "ios": "https://dc.lft.to/lastmile_qr_scan"}, "fusion_lon": 0.0}, {"lat": 38.92257, "is_disabled": 0, "type": "electric_scooter", "lon": -77.04294783333333, "bike_id": "afbf623edac16b5420f88e90f45f863b", "fusion_lat": 0.0, "name": "afbf623edac16b5420f88e90f45f863b", "is_reserved": 0, "rental_uris": {"android": "https://dc.lft.to/lastmile_qr_scan", "ios": "https://dc.lft.to/lastmile_qr_scan"}, "fusion_lon": 0.0}, {"lat": 38.89349633333333, "is_disabled": 0, "type": "electric_scooter", "lon": -77.041383, "bike_id": "a16a19e799f2080cbeaae9eeb0b5562b", "fusion_lat": 0.0, "name": "a16a19e799f2080cbeaae9eeb0b5562b", "is_reserved": 0, "rental_uris": {"android": "https://dc.lft.to/lastmile_qr_scan", "ios": "https://dc.lft.to/lastmile_qr_scan"}, "fusion_lon": 0.0}, {"lat": 38.928504, "is_disabled": 0, "type": "electric_bike", "lon": -77.10673716666666, "bike_id": "0ad912926acdb74a823e2e135c63fa33", "fusion_lat": 0.0, "name": "0ad912926acdb74a823e2e135c63fa33", "is_reserved": 0, "rental_uris": {"android": "https://dc.lft.to/lastmile_qr_scan", "ios": "https://dc.lft.to/lastmile_qr_scan"}, "fusion_lon": 0.0}, {"lat": 38.87243816666667, "is_disabled": 0, "type": "electric_scooter", "lon": -76.97729083333333, "bike_id": "b84841d50b99051be999e8186fa4c554", "fusion_lat": 0.0, "name": "b84841d50b99051be999e8186fa4c554", "is_reserved": 0, "rental_uris": {"android": "https://dc.lft.to/lastmile_qr_scan", "ios": "https://dc.lft.to/lastmile_qr_scan"}, "fusion_lon": 0.0}, {"lat": 38.916935, "is_disabled": 0, "type": "electric_scooter", "lon": -77.02688816666667, "bike_id": "5aad70f9758d7f39329b982dd9adef12", "fusion_lat": 0.0, "name": "5aad70f9758d7f39329b982dd9adef12", "is_reserved": 0, "rental_uris": {"android": "https://dc.lft.to/lastmile_qr_scan", "ios": "https://dc.lft.to/lastmile_qr_scan"}, "fusion_lon": 0.0}, {"lat": 38.8936605, "is_disabled": 0, "type": "electric_bike", "lon": -76.99328516666667, "bike_id": "b4d6a2f5aeb397ccc37eb6e2301c0440", "fusion_lat": 0.0, "name": "b4d6a2f5aeb397ccc37eb6e2301c0440", "is_reserved": 0, "rental_uris": {"android": "https://dc.lft.to/lastmile_qr_scan", "ios": "https://dc.lft.to/lastmile_qr_scan"}, "fusion_lon": 0.0}, {"lat": 38.916854, "is_disabled": 0, "type": "electric_scooter", "lon": -77.03341383333333, "bike_id": "a69654e8be6985d3684a6615108e9479", "fusion_lat": 0.0, "name": "a69654e8be6985d3684a6615108e9479", "is_reserved": 0, "rental_uris": {"android": "https://dc.lft.to/lastmile_qr_scan", "ios": "https://dc.lft.to/lastmile_qr_scan"}, "fusion_lon": 0.0}, {"lat": 38.94408716666667, "is_disabled": 0, "type": "electric_scooter", "lon": -77.026442, "bike_id": "ddd2d395211cf77059bda68060a50435", "fusion_lat": 0.0, "name": "ddd2d395211cf77059bda68060a50435", "is_reserved": 0, "rental_uris": {"android": "https://dc.lft.to/lastmile_qr_scan", "ios": "https://dc.lft.to/lastmile_qr_scan"}, "fusion_lon": 0.0}, {"lat": 38.90667966666667, "is_disabled": 0, "type": "electric_bike", "lon": -77.02686316666667, "bike_id": "1908ad9aad2bcaee0bc69e733f7e6be9", "fusion_lat": 0.0, "name": "1908ad9aad2bcaee0bc69e733f7e6be9", "is_reserved": 0, "rental_uris": {"android": "https://dc.lft.to/lastmile_qr_scan", "ios": "https://dc.lft.to/lastmile_qr_scan"}, "fusion_lon": 0.0}, {"lat": 38.9006325, "is_disabled": 0, "type": "electric_scooter", "lon": -77.00204933333333, "bike_id": "dcf67b6ce3fb40a98ed752bf9444560f", "fusion_lat": 0.0, "name": "dcf67b6ce3fb40a98ed752bf9444560f", "is_reserved": 0, "rental_uris": {"android": "https://dc.lft.to/lastmile_qr_scan", "ios": "https://dc.lft.to/lastmile_qr_scan"}, "fusion_lon": 0.0}, {"lat": 38.88927116666667, "is_disabled": 0, "type": "electric_scooter", "lon": -76.973713, "bike_id": "d8e07323f8b22474abd6c8d39e1e3c09", "fusion_lat": 0.0, "name": "d8e07323f8b22474abd6c8d39e1e3c09", "is_reserved": 0, "rental_uris": {"android": "https://dc.lft.to/lastmile_qr_scan", "ios": "https://dc.lft.to/lastmile_qr_scan"}, "fusion_lon": 0.0}, {"lat": 38.90851333333333, "is_disabled": 0, "type": "electric_scooter", "lon": -77.04772783333334, "bike_id": "4f3407154bbe640485667c70e22eb888", "fusion_lat": 0.0, "name": "4f3407154bbe640485667c70e22eb888", "is_reserved": 0, "rental_uris": {"android": "https://dc.lft.to/lastmile_qr_scan", "ios": "https://dc.lft.to/lastmile_qr_scan"}, "fusion_lon": 0.0}, {"lat": 38.89554433333333, "is_disabled": 0, "type": "electric_scooter", "lon": -77.00362583333333, "bike_id": "1921a28c03010448485483b2650290a0", "fusion_lat": 0.0, "name": "1921a28c03010448485483b2650290a0", "is_reserved": 0, "rental_uris": {"android": "https://dc.lft.to/lastmile_qr_scan", "ios": "https://dc.lft.to/lastmile_qr_scan"}, "fusion_lon": 0.0}, {"lat": 38.90792966666667, "is_disabled": 0, "type": "electric_scooter", "lon": -77.0110135, "bike_id": "0cc2060bbad2ed76255192a9a3feee1e", "fusion_lat": 0.0, "name": "0cc2060bbad2ed76255192a9a3feee1e", "is_reserved": 0, "rental_uris": {"android": "https://dc.lft.to/lastmile_qr_scan", "ios": "https://dc.lft.to/lastmile_qr_scan"}, "fusion_lon": 0.0}, {"lat": 38.896103333333336, "is_disabled": 0, "type": "electric_scooter", "lon": -76.9565405, "bike_id": "029f7c94b1e3f66ec3147fcf3eb7e38c", "fusion_lat": 0.0, "name": "029f7c94b1e3f66ec3147fcf3eb7e38c", "is_reserved": 0, "rental_uris": {"android": "https://dc.lft.to/lastmile_qr_scan", "ios": "https://dc.lft.to/lastmile_qr_scan"}, "fusion_lon": 0.0}, {"lat": 38.96202066666667, "is_disabled": 0, "type": "electric_bike", "lon": -77.035109, "bike_id": "da78a41538310ac65a51aacc9ece76de", "fusion_lat": 0.0, "name": "da78a41538310ac65a51aacc9ece76de", "is_reserved": 0, "rental_uris": {"android": "https://dc.lft.to/lastmile_qr_scan", "ios": "https://dc.lft.to/lastmile_qr_scan"}, "fusion_lon": 0.0}, {"lat": 38.871686833333335, "is_disabled": 0, "type": "electric_scooter", "lon": -77.01354683333334, "bike_id": "9c5a9bafce25ac3249c197a33e3abb55", "fusion_lat": 0.0, "name": "9c5a9bafce25ac3249c197a33e3abb55", "is_reserved": 0, "rental_uris": {"android": "https://dc.lft.to/lastmile_qr_scan", "ios": "https://dc.lft.to/lastmile_qr_scan"}, "fusion_lon": 0.0}, {"lat": 38.90016033333333, "is_disabled": 0, "type": "electric_scooter", "lon": -77.033033, "bike_id": "5e365fd47857b576c710fb58ea333163", "fusion_lat": 0.0, "name": "5e365fd47857b576c710fb58ea333163", "is_reserved": 0, "rental_uris": {"android": "https://dc.lft.to/lastmile_qr_scan", "ios": "https://dc.lft.to/lastmile_qr_scan"}, "fusion_lon": 0.0}, {"lat": 38.813435166666665, "is_disabled": 0, "type": "electric_bike", "lon": -77.04920166666666, "bike_id": "d960ce584ca96c4dfa39942908d619ba", "fusion_lat": 0.0, "name": "d960ce584ca96c4dfa39942908d619ba", "is_reserved": 0, "rental_uris": {"android": "https://dc.lft.to/lastmile_qr_scan", "ios": "https://dc.lft.to/lastmile_qr_scan"}, "fusion_lon": 0.0}, {"lat": 38.925819, "is_disabled": 0, "type": "electric_scooter", "lon": -77.04012316666666, "bike_id": "03b88f407f07fbc124f9ed2d2cc55cc5", "fusion_lat": 0.0, "name": "03b88f407f07fbc124f9ed2d2cc55cc5", "is_reserved": 0, "rental_uris": {"android": "https://dc.lft.to/lastmile_qr_scan", "ios": "https://dc.lft.to/lastmile_qr_scan"}, "fusion_lon": 0.0}, {"lat": 38.8532075, "is_disabled": 0, "type": "electric_scooter", "lon": -76.98027, "bike_id": "80ff5833ce42b7e23f9673fd070eb9a4", "fusion_lat": 0.0, "name": "80ff5833ce42b7e23f9673fd070eb9a4", "is_reserved": 0, "rental_uris": {"android": "https://dc.lft.to/lastmile_qr_scan", "ios": "https://dc.lft.to/lastmile_qr_scan"}, "fusion_lon": 0.0}, {"lat": 38.91117533333333, "is_disabled": 0, "type": "electric_scooter", "lon": -77.03813, "bike_id": "eaf311c487d93a997b4acfaaebb6ce1d", "fusion_lat": 0.0, "name": "eaf311c487d93a997b4acfaaebb6ce1d", "is_reserved": 0, "rental_uris": {"android": "https://dc.lft.to/lastmile_qr_scan", "ios": "https://dc.lft.to/lastmile_qr_scan"}, "fusion_lon": 0.0}, {"lat": 38.921291833333335, "is_disabled": 0, "type": "electric_scooter", "lon": -77.0422185, "bike_id": "f4b11dfa003cd72f131e6410ef07db84", "fusion_lat": 0.0, "name": "f4b11dfa003cd72f131e6410ef07db84", "is_reserved": 0, "rental_uris": {"android": "https://dc.lft.to/lastmile_qr_scan", "ios": "https://dc.lft.to/lastmile_qr_scan"}, "fusion_lon": 0.0}, {"lat": 38.9043355, "is_disabled": 0, "type": "electric_scooter", "lon": -77.00210566666667, "bike_id": "cf7731f906ade73350140fbaabdadceb", "fusion_lat": 0.0, "name": "cf7731f906ade73350140fbaabdadceb", "is_reserved": 0, "rental_uris": {"android": "https://dc.lft.to/lastmile_qr_scan", "ios": "https://dc.lft.to/lastmile_qr_scan"}, "fusion_lon": 0.0}, {"lat": 38.94519366666667, "is_disabled": 0, "type": "electric_scooter", "lon": -77.063999, "bike_id": "17c1ead4450ae68e7a75425ad07bcfa6", "fusion_lat": 0.0, "name": "17c1ead4450ae68e7a75425ad07bcfa6", "is_reserved": 0, "rental_uris": {"android": "https://dc.lft.to/lastmile_qr_scan", "ios": "https://dc.lft.to/lastmile_qr_scan"}, "fusion_lon": 0.0}, {"lat": 38.905307666666666, "is_disabled": 0, "type": "electric_scooter", "lon": -77.029457, "bike_id": "66e34dcd8ba177079e7367541cdfcc9d", "fusion_lat": 0.0, "name": "66e34dcd8ba177079e7367541cdfcc9d", "is_reserved": 0, "rental_uris": {"android": "https://dc.lft.to/lastmile_qr_scan", "ios": "https://dc.lft.to/lastmile_qr_scan"}, "fusion_lon": 0.0}, {"lat": 38.907149, "is_disabled": 0, "type": "electric_scooter", "lon": -77.02982816666666, "bike_id": "9f991bf401c3263c544e6ea4f6c966ef", "fusion_lat": 0.0, "name": "9f991bf401c3263c544e6ea4f6c966ef", "is_reserved": 0, "rental_uris": {"android": "https://dc.lft.to/lastmile_qr_scan", "ios": "https://dc.lft.to/lastmile_qr_scan"}, "fusion_lon": 0.0}, {"lat": 38.912901833333336, "is_disabled": 0, "type": "electric_scooter", "lon": -77.03848633333334, "bike_id": "6ebe5fc9838b8873ada411508f6fbfc1", "fusion_lat": 0.0, "name": "6ebe5fc9838b8873ada411508f6fbfc1", "is_reserved": 0, "rental_uris": {"android": "https://dc.lft.to/lastmile_qr_scan", "ios": "https://dc.lft.to/lastmile_qr_scan"}, "fusion_lon": 0.0}, {"lat": 38.94113083333333, "is_disabled": 0, "type": "electric_scooter", "lon": -77.00048383333333, "bike_id": "290bc568d43c51eb2a79e69479963926", "fusion_lat": 0.0, "name": "290bc568d43c51eb2a79e69479963926", "is_reserved": 0, "rental_uris": {"android": "https://dc.lft.to/lastmile_qr_scan", "ios": "https://dc.lft.to/lastmile_qr_scan"}, "fusion_lon": 0.0}, {"lat": 38.91680266666667, "is_disabled": 0, "type": "electric_scooter", "lon": -77.0271695, "bike_id": "28fa147948035f77d183a9294ff5fbb0", "fusion_lat": 0.0, "name": "28fa147948035f77d183a9294ff5fbb0", "is_reserved": 0, "rental_uris": {"android": "https://dc.lft.to/lastmile_qr_scan", "ios": "https://dc.lft.to/lastmile_qr_scan"}, "fusion_lon": 0.0}, {"lat": 38.899687666666665, "is_disabled": 0, "type": "electric_scooter", "lon": -76.92655616666667, "bike_id": "69665320404f5aae0c3cf552a649da7d", "fusion_lat": 0.0, "name": "69665320404f5aae0c3cf552a649da7d", "is_reserved": 0, "rental_uris": {"android": "https://dc.lft.to/lastmile_qr_scan", "ios": "https://dc.lft.to/lastmile_qr_scan"}, "fusion_lon": 0.0}, {"lat": 38.903225666666664, "is_disabled": 0, "type": "electric_scooter", "lon": -77.01190383333334, "bike_id": "97b05d577e5e03052e98376d668e6138", "fusion_lat": 0.0, "name": "97b05d577e5e03052e98376d668e6138", "is_reserved": 0, "rental_uris": {"android": "https://dc.lft.to/lastmile_qr_scan", "ios": "https://dc.lft.to/lastmile_qr_scan"}, "fusion_lon": 0.0}, {"lat": 38.902303333333336, "is_disabled": 0, "type": "electric_scooter", "lon": -77.03975766666667, "bike_id": "98bb0f72014fd3d45f08aad3e027097e", "fusion_lat": 0.0, "name": "98bb0f72014fd3d45f08aad3e027097e", "is_reserved": 0, "rental_uris": {"android": "https://dc.lft.to/lastmile_qr_scan", "ios": "https://dc.lft.to/lastmile_qr_scan"}, "fusion_lon": 0.0}, {"lat": 38.902578166666665, "is_disabled": 0, "type": "electric_scooter", "lon": -77.0386075, "bike_id": "6c82edc2251a1afde32979f39d80391a", "fusion_lat": 0.0, "name": "6c82edc2251a1afde32979f39d80391a", "is_reserved": 0, "rental_uris": {"android": "https://dc.lft.to/lastmile_qr_scan", "ios": "https://dc.lft.to/lastmile_qr_scan"}, "fusion_lon": 0.0}, {"lat": 38.90550433333333, "is_disabled": 0, "type": "electric_scooter", "lon": -77.00265666666667, "bike_id": "5d01b35b246f3357f94ab31e1c4c2c8a", "fusion_lat": 0.0, "name": "5d01b35b246f3357f94ab31e1c4c2c8a", "is_reserved": 0, "rental_uris": {"android": "https://dc.lft.to/lastmile_qr_scan", "ios": "https://dc.lft.to/lastmile_qr_scan"}, "fusion_lon": 0.0}, {"lat": 38.89765966666667, "is_disabled": 0, "type": "electric_scooter", "lon": -77.0318565, "bike_id": "cc1550dd201d476edbf6a832f310e221", "fusion_lat": 0.0, "name": "cc1550dd201d476edbf6a832f310e221", "is_reserved": 0, "rental_uris": {"android": "https://dc.lft.to/lastmile_qr_scan", "ios": "https://dc.lft.to/lastmile_qr_scan"}, "fusion_lon": 0.0}, {"lat": 38.887321166666666, "is_disabled": 0, "type": "electric_scooter", "lon": -77.03213283333334, "bike_id": "d05175e3c2161249edec36c6ced85347", "fusion_lat": 0.0, "name": "d05175e3c2161249edec36c6ced85347", "is_reserved": 0, "rental_uris": {"android": "https://dc.lft.to/lastmile_qr_scan", "ios": "https://dc.lft.to/lastmile_qr_scan"}, "fusion_lon": 0.0}, {"lat": 38.917081, "is_disabled": 0, "type": "electric_scooter", "lon": -77.03870716666667, "bike_id": "93b0d22bd25986a8d30c922eade72f03", "fusion_lat": 0.0, "name": "93b0d22bd25986a8d30c922eade72f03", "is_reserved": 0, "rental_uris": {"android": "https://dc.lft.to/lastmile_qr_scan", "ios": "https://dc.lft.to/lastmile_qr_scan"}, "fusion_lon": 0.0}, {"lat": 39.052032833333335, "is_disabled": 0, "type": "electric_bike", "lon": -77.10920516666667, "bike_id": "664c21a4d755fffe4ec02d683cfa2ab0", "fusion_lat": 0.0, "name": "664c21a4d755fffe4ec02d683cfa2ab0", "is_reserved": 0, "rental_uris": {"android": "https://dc.lft.to/lastmile_qr_scan", "ios": "https://dc.lft.to/lastmile_qr_scan"}, "fusion_lon": 0.0}, {"lat": 38.91805183333334, "is_disabled": 0, "type": "electric_scooter", "lon": -77.02491033333334, "bike_id": "e384cf04e3d3dad3727b1e41d7ea17ca", "fusion_lat": 0.0, "name": "e384cf04e3d3dad3727b1e41d7ea17ca", "is_reserved": 0, "rental_uris": {"android": "https://dc.lft.to/lastmile_qr_scan", "ios": "https://dc.lft.to/lastmile_qr_scan"}, "fusion_lon": 0.0}, {"lat": 38.85809016666666, "is_disabled": 0, "type": "electric_scooter", "lon": -76.98724233333333, "bike_id": "4fdfb10b96a640ae904ee9c8bd861ef0", "fusion_lat": 0.0, "name": "4fdfb10b96a640ae904ee9c8bd861ef0", "is_reserved": 0, "rental_uris": {"android": "https://dc.lft.to/lastmile_qr_scan", "ios": "https://dc.lft.to/lastmile_qr_scan"}, "fusion_lon": 0.0}, {"lat": 38.892339, "is_disabled": 0, "type": "electric_scooter", "lon": -77.0500015, "bike_id": "76409429d8f38c2ad54a8120b0906cb3", "fusion_lat": 0.0, "name": "76409429d8f38c2ad54a8120b0906cb3", "is_reserved": 0, "rental_uris": {"android": "https://dc.lft.to/lastmile_qr_scan", "ios": "https://dc.lft.to/lastmile_qr_scan"}, "fusion_lon": 0.0}, {"lat": 38.9132705, "is_disabled": 0, "type": "electric_scooter", "lon": -77.04003916666667, "bike_id": "83a29164dd4ed4524ac16f923d9c7ab7", "fusion_lat": 0.0, "name": "83a29164dd4ed4524ac16f923d9c7ab7", "is_reserved": 0, "rental_uris": {"android": "https://dc.lft.to/lastmile_qr_scan", "ios": "https://dc.lft.to/lastmile_qr_scan"}, "fusion_lon": 0.0}, {"lat": 38.918662, "is_disabled": 0, "type": "electric_scooter", "lon": -77.04046, "bike_id": "ff5dc31fb72bc9c06f8748f123bbb653", "fusion_lat": 0.0, "name": "ff5dc31fb72bc9c06f8748f123bbb653", "is_reserved": 0, "rental_uris": {"android": "https://dc.lft.to/lastmile_qr_scan", "ios": "https://dc.lft.to/lastmile_qr_scan"}, "fusion_lon": 0.0}, {"lat": 38.8833885, "is_disabled": 0, "type": "electric_scooter", "lon": -77.03145316666667, "bike_id": "b38b3f1e433af263beab08acbf1ab592", "fusion_lat": 0.0, "name": "b38b3f1e433af263beab08acbf1ab592", "is_reserved": 0, "rental_uris": {"android": "https://dc.lft.to/lastmile_qr_scan", "ios": "https://dc.lft.to/lastmile_qr_scan"}, "fusion_lon": 0.0}, {"lat": 38.92275933333333, "is_disabled": 0, "type": "electric_scooter", "lon": -77.04469583333334, "bike_id": "08918dea6037f17438afa539fff13118", "fusion_lat": 0.0, "name": "08918dea6037f17438afa539fff13118", "is_reserved": 0, "rental_uris": {"android": "https://dc.lft.to/lastmile_qr_scan", "ios": "https://dc.lft.to/lastmile_qr_scan"}, "fusion_lon": 0.0}, {"lat": 38.86116366666667, "is_disabled": 0, "type": "electric_scooter", "lon": -76.96758383333334, "bike_id": "f333deb7d1a52caba3b4de9932fe8d8c", "fusion_lat": 0.0, "name": "f333deb7d1a52caba3b4de9932fe8d8c", "is_reserved": 0, "rental_uris": {"android": "https://dc.lft.to/lastmile_qr_scan", "ios": "https://dc.lft.to/lastmile_qr_scan"}, "fusion_lon": 0.0}, {"lat": 38.92391583333333, "is_disabled": 0, "type": "electric_scooter", "lon": -77.00067366666667, "bike_id": "2047c5c55d17cf0a4b87e6eeac024ebd", "fusion_lat": 0.0, "name": "2047c5c55d17cf0a4b87e6eeac024ebd", "is_reserved": 0, "rental_uris": {"android": "https://dc.lft.to/lastmile_qr_scan", "ios": "https://dc.lft.to/lastmile_qr_scan"}, "fusion_lon": 0.0}, {"lat": 38.880390166666665, "is_disabled": 0, "type": "electric_scooter", "lon": -77.00367866666667, "bike_id": "d189e534aaa2cb40ee03d436afb60321", "fusion_lat": 0.0, "name": "d189e534aaa2cb40ee03d436afb60321", "is_reserved": 0, "rental_uris": {"android": "https://dc.lft.to/lastmile_qr_scan", "ios": "https://dc.lft.to/lastmile_qr_scan"}, "fusion_lon": 0.0}, {"lat": 38.9142765, "is_disabled": 0, "type": "electric_scooter", "lon": -77.0318145, "bike_id": "8d445bcff5dff5a8cba72f8fc651658a", "fusion_lat": 0.0, "name": "8d445bcff5dff5a8cba72f8fc651658a", "is_reserved": 0, "rental_uris": {"android": "https://dc.lft.to/lastmile_qr_scan", "ios": "https://dc.lft.to/lastmile_qr_scan"}, "fusion_lon": 0.0}, {"lat": 38.906998, "is_disabled": 0, "type": "electric_scooter", "lon": -77.06300866666666, "bike_id": "cd4b53d9a1b12b4a31aa7d2ef340d464", "fusion_lat": 0.0, "name": "cd4b53d9a1b12b4a31aa7d2ef340d464", "is_reserved": 0, "rental_uris": {"android": "https://dc.lft.to/lastmile_qr_scan", "ios": "https://dc.lft.to/lastmile_qr_scan"}, "fusion_lon": 0.0}, {"lat": 38.91810616666667, "is_disabled": 0, "type": "electric_scooter", "lon": -77.0343685, "bike_id": "2eef5120dde0649d0141b1973db9c9b1", "fusion_lat": 0.0, "name": "2eef5120dde0649d0141b1973db9c9b1", "is_reserved": 0, "rental_uris": {"android": "https://dc.lft.to/lastmile_qr_scan", "ios": "https://dc.lft.to/lastmile_qr_scan"}, "fusion_lon": 0.0}, {"lat": 38.9052185, "is_disabled": 0, "type": "electric_scooter", "lon": -77.05136783333333, "bike_id": "d8fda6265d7791e9df170b75432c511f", "fusion_lat": 0.0, "name": "d8fda6265d7791e9df170b75432c511f", "is_reserved": 0, "rental_uris": {"android": "https://dc.lft.to/lastmile_qr_scan", "ios": "https://dc.lft.to/lastmile_qr_scan"}, "fusion_lon": 0.0}, {"lat": 38.9009305, "is_disabled": 0, "type": "electric_scooter", "lon": -77.05610766666666, "bike_id": "8d870ca2b1cbd6792f69f3b12639e2ae", "fusion_lat": 0.0, "name": "8d870ca2b1cbd6792f69f3b12639e2ae", "is_reserved": 0, "rental_uris": {"android": "https://dc.lft.to/lastmile_qr_scan", "ios": "https://dc.lft.to/lastmile_qr_scan"}, "fusion_lon": 0.0}, {"lat": 38.9105205, "is_disabled": 0, "type": "electric_scooter", "lon": -77.04244616666666, "bike_id": "50c8b05babdd72815d2561e730f80f21", "fusion_lat": 0.0, "name": "50c8b05babdd72815d2561e730f80f21", "is_reserved": 0, "rental_uris": {"android": "https://dc.lft.to/lastmile_qr_scan", "ios": "https://dc.lft.to/lastmile_qr_scan"}, "fusion_lon": 0.0}, {"lat": 38.89213766666667, "is_disabled": 0, "type": "electric_scooter", "lon": -77.0281405, "bike_id": "c9a5aa51d667a734d9076b48890d2744", "fusion_lat": 0.0, "name": "c9a5aa51d667a734d9076b48890d2744", "is_reserved": 0, "rental_uris": {"android": "https://dc.lft.to/lastmile_qr_scan", "ios": "https://dc.lft.to/lastmile_qr_scan"}, "fusion_lon": 0.0}, {"lat": 38.913552333333335, "is_disabled": 0, "type": "electric_scooter", "lon": -77.03360033333334, "bike_id": "fb21ab3ada37e39a89561ffcd0d8e30d", "fusion_lat": 0.0, "name": "fb21ab3ada37e39a89561ffcd0d8e30d", "is_reserved": 0, "rental_uris": {"android": "https://dc.lft.to/lastmile_qr_scan", "ios": "https://dc.lft.to/lastmile_qr_scan"}, "fusion_lon": 0.0}, {"lat": 38.90374666666666, "is_disabled": 0, "type": "electric_scooter", "lon": -77.050752, "bike_id": "45f08cdbbfde98255c8d0dceedb5a5fa", "fusion_lat": 0.0, "name": "45f08cdbbfde98255c8d0dceedb5a5fa", "is_reserved": 0, "rental_uris": {"android": "https://dc.lft.to/lastmile_qr_scan", "ios": "https://dc.lft.to/lastmile_qr_scan"}, "fusion_lon": 0.0}, {"lat": 38.90230616666667, "is_disabled": 0, "type": "electric_scooter", "lon": -77.05898183333333, "bike_id": "6734fc63e815207858801477087e11bd", "fusion_lat": 0.0, "name": "6734fc63e815207858801477087e11bd", "is_reserved": 0, "rental_uris": {"android": "https://dc.lft.to/lastmile_qr_scan", "ios": "https://dc.lft.to/lastmile_qr_scan"}, "fusion_lon": 0.0}, {"lat": 38.912713, "is_disabled": 0, "type": "electric_scooter", "lon": -77.01974466666667, "bike_id": "556a304c11eac1e5047a17f99532bebe", "fusion_lat": 0.0, "name": "556a304c11eac1e5047a17f99532bebe", "is_reserved": 0, "rental_uris": {"android": "https://dc.lft.to/lastmile_qr_scan", "ios": "https://dc.lft.to/lastmile_qr_scan"}, "fusion_lon": 0.0}, {"lat": 38.929204166666665, "is_disabled": 0, "type": "electric_scooter", "lon": -77.03750283333333, "bike_id": "8caeaf1ce9505937b30f087a007d0687", "fusion_lat": 0.0, "name": "8caeaf1ce9505937b30f087a007d0687", "is_reserved": 0, "rental_uris": {"android": "https://dc.lft.to/lastmile_qr_scan", "ios": "https://dc.lft.to/lastmile_qr_scan"}, "fusion_lon": 0.0}, {"lat": 38.865069, "is_disabled": 0, "type": "electric_scooter", "lon": -76.99003383333333, "bike_id": "51307ba4763881a9675d141a9c7c0061", "fusion_lat": 0.0, "name": "51307ba4763881a9675d141a9c7c0061", "is_reserved": 0, "rental_uris": {"android": "https://dc.lft.to/lastmile_qr_scan", "ios": "https://dc.lft.to/lastmile_qr_scan"}, "fusion_lon": 0.0}, {"lat": 38.91748233333333, "is_disabled": 0, "type": "electric_scooter", "lon": -77.03601416666666, "bike_id": "43d79c5e6764d582fdb2590aa8394040", "fusion_lat": 0.0, "name": "43d79c5e6764d582fdb2590aa8394040", "is_reserved": 0, "rental_uris": {"android": "https://dc.lft.to/lastmile_qr_scan", "ios": "https://dc.lft.to/lastmile_qr_scan"}, "fusion_lon": 0.0}, {"lat": 38.89220866666667, "is_disabled": 0, "type": "electric_scooter", "lon": -76.93293533333333, "bike_id": "66a17fd8fe78ff41e48caedbe657c5fc", "fusion_lat": 0.0, "name": "66a17fd8fe78ff41e48caedbe657c5fc", "is_reserved": 0, "rental_uris": {"android": "https://dc.lft.to/lastmile_qr_scan", "ios": "https://dc.lft.to/lastmile_qr_scan"}, "fusion_lon": 0.0}, {"lat": 38.900376333333334, "is_disabled": 0, "type": "electric_scooter", "lon": -77.0332185, "bike_id": "b506b2d13572e480984c5d0e4589b1f2", "fusion_lat": 0.0, "name": "b506b2d13572e480984c5d0e4589b1f2", "is_reserved": 0, "rental_uris": {"android": "https://dc.lft.to/lastmile_qr_scan", "ios": "https://dc.lft.to/lastmile_qr_scan"}, "fusion_lon": 0.0}, {"lat": 38.955618666666666, "is_disabled": 0, "type": "electric_scooter", "lon": -77.02233416666667, "bike_id": "58e2aa7664a9daa81daa2f62b268350d", "fusion_lat": 0.0, "name": "58e2aa7664a9daa81daa2f62b268350d", "is_reserved": 0, "rental_uris": {"android": "https://dc.lft.to/lastmile_qr_scan", "ios": "https://dc.lft.to/lastmile_qr_scan"}, "fusion_lon": 0.0}, {"lat": 38.90771433333333, "is_disabled": 0, "type": "electric_scooter", "lon": -76.98304583333334, "bike_id": "73f043ec086931700b268444216a33a2", "fusion_lat": 0.0, "name": "73f043ec086931700b268444216a33a2", "is_reserved": 0, "rental_uris": {"android": "https://dc.lft.to/lastmile_qr_scan", "ios": "https://dc.lft.to/lastmile_qr_scan"}, "fusion_lon": 0.0}, {"lat": 38.865627, "is_disabled": 0, "type": "electric_scooter", "lon": -76.9894835, "bike_id": "32ede6bfe52c85b7cdf2b9da48379e25", "fusion_lat": 0.0, "name": "32ede6bfe52c85b7cdf2b9da48379e25", "is_reserved": 0, "rental_uris": {"android": "https://dc.lft.to/lastmile_qr_scan", "ios": "https://dc.lft.to/lastmile_qr_scan"}, "fusion_lon": 0.0}, {"lat": 38.909411, "is_disabled": 0, "type": "electric_scooter", "lon": -76.9896005, "bike_id": "215d5bdc1ee856ce0a1b3bd30dba7217", "fusion_lat": 0.0, "name": "215d5bdc1ee856ce0a1b3bd30dba7217", "is_reserved": 0, "rental_uris": {"android": "https://dc.lft.to/lastmile_qr_scan", "ios": "https://dc.lft.to/lastmile_qr_scan"}, "fusion_lon": 0.0}, {"lat": 38.898354, "is_disabled": 0, "type": "electric_scooter", "lon": -77.02600616666666, "bike_id": "3c3b9384e1f96bc8726079ec3e87a318", "fusion_lat": 0.0, "name": "3c3b9384e1f96bc8726079ec3e87a318", "is_reserved": 0, "rental_uris": {"android": "https://dc.lft.to/lastmile_qr_scan", "ios": "https://dc.lft.to/lastmile_qr_scan"}, "fusion_lon": 0.0}, {"lat": 38.95784316666666, "is_disabled": 0, "type": "electric_bike", "lon": -77.0274835, "bike_id": "1b101e767ff7be11c1ad5eb8a1afe030", "fusion_lat": 0.0, "name": "1b101e767ff7be11c1ad5eb8a1afe030", "is_reserved": 0, "rental_uris": {"android": "https://dc.lft.to/lastmile_qr_scan", "ios": "https://dc.lft.to/lastmile_qr_scan"}, "fusion_lon": 0.0}, {"lat": 38.840300166666665, "is_disabled": 0, "type": "electric_bike", "lon": -76.97582966666667, "bike_id": "f004ab1dec27e1cdce3deda2f026dd12", "fusion_lat": 0.0, "name": "f004ab1dec27e1cdce3deda2f026dd12", "is_reserved": 0, "rental_uris": {"android": "https://dc.lft.to/lastmile_qr_scan", "ios": "https://dc.lft.to/lastmile_qr_scan"}, "fusion_lon": 0.0}, {"lat": 38.90083166666667, "is_disabled": 0, "type": "electric_scooter", "lon": -77.02712116666666, "bike_id": "1506e2d90146fb270db3034a28370b14", "fusion_lat": 0.0, "name": "1506e2d90146fb270db3034a28370b14", "is_reserved": 0, "rental_uris": {"android": "https://dc.lft.to/lastmile_qr_scan", "ios": "https://dc.lft.to/lastmile_qr_scan"}, "fusion_lon": 0.0}, {"lat": 38.90017666666667, "is_disabled": 0, "type": "electric_scooter", "lon": -76.99895583333333, "bike_id": "16ea7530ebf9e4b852f6ec10b60d9e29", "fusion_lat": 0.0, "name": "16ea7530ebf9e4b852f6ec10b60d9e29", "is_reserved": 0, "rental_uris": {"android": "https://dc.lft.to/lastmile_qr_scan", "ios": "https://dc.lft.to/lastmile_qr_scan"}, "fusion_lon": 0.0}, {"lat": 38.902825, "is_disabled": 0, "type": "electric_scooter", "lon": -77.05804683333334, "bike_id": "cb39792f4715bf3e9cbb1da5c4789623", "fusion_lat": 0.0, "name": "cb39792f4715bf3e9cbb1da5c4789623", "is_reserved": 0, "rental_uris": {"android": "https://dc.lft.to/lastmile_qr_scan", "ios": "https://dc.lft.to/lastmile_qr_scan"}, "fusion_lon": 0.0}, {"lat": 38.9309205, "is_disabled": 0, "type": "electric_scooter", "lon": -77.07746666666667, "bike_id": "9148e0c85dc7be3b24267bd306c38b03", "fusion_lat": 0.0, "name": "9148e0c85dc7be3b24267bd306c38b03", "is_reserved": 0, "rental_uris": {"android": "https://dc.lft.to/lastmile_qr_scan", "ios": "https://dc.lft.to/lastmile_qr_scan"}, "fusion_lon": 0.0}, {"lat": 38.900637833333334, "is_disabled": 0, "type": "electric_scooter", "lon": -77.050047, "bike_id": "b9cfc416a2d56d69c61370cf2fd1ce5c", "fusion_lat": 0.0, "name": "b9cfc416a2d56d69c61370cf2fd1ce5c", "is_reserved": 0, "rental_uris": {"android": "https://dc.lft.to/lastmile_qr_scan", "ios": "https://dc.lft.to/lastmile_qr_scan"}, "fusion_lon": 0.0}, {"lat": 38.8669715, "is_disabled": 0, "type": "electric_scooter", "lon": -76.98704933333333, "bike_id": "eec79a98ae1ddc997ec7bd9c9e12c4c6", "fusion_lat": 0.0, "name": "eec79a98ae1ddc997ec7bd9c9e12c4c6", "is_reserved": 0, "rental_uris": {"android": "https://dc.lft.to/lastmile_qr_scan", "ios": "https://dc.lft.to/lastmile_qr_scan"}, "fusion_lon": 0.0}, {"lat": 38.912584, "is_disabled": 0, "type": "electric_scooter", "lon": -77.03806766666666, "bike_id": "8a8cd9fca861fa705ccd1c1490dbea66", "fusion_lat": 0.0, "name": "8a8cd9fca861fa705ccd1c1490dbea66", "is_reserved": 0, "rental_uris": {"android": "https://dc.lft.to/lastmile_qr_scan", "ios": "https://dc.lft.to/lastmile_qr_scan"}, "fusion_lon": 0.0}, {"lat": 38.90372516666667, "is_disabled": 0, "type": "electric_scooter", "lon": -76.992253, "bike_id": "9dfd8350c9d8d4ba522025b2ae2fc1d7", "fusion_lat": 0.0, "name": "9dfd8350c9d8d4ba522025b2ae2fc1d7", "is_reserved": 0, "rental_uris": {"android": "https://dc.lft.to/lastmile_qr_scan", "ios": "https://dc.lft.to/lastmile_qr_scan"}, "fusion_lon": 0.0}, {"lat": 38.9081935, "is_disabled": 0, "type": "electric_scooter", "lon": -77.000937, "bike_id": "2aab9abb44e4b1a6dcd6efa5213a92cb", "fusion_lat": 0.0, "name": "2aab9abb44e4b1a6dcd6efa5213a92cb", "is_reserved": 0, "rental_uris": {"android": "https://dc.lft.to/lastmile_qr_scan", "ios": "https://dc.lft.to/lastmile_qr_scan"}, "fusion_lon": 0.0}, {"lat": 38.91704816666667, "is_disabled": 0, "type": "electric_scooter", "lon": -77.0334105, "bike_id": "46e2216a2ce45488779466d1967ad7ce", "fusion_lat": 0.0, "name": "46e2216a2ce45488779466d1967ad7ce", "is_reserved": 0, "rental_uris": {"android": "https://dc.lft.to/lastmile_qr_scan", "ios": "https://dc.lft.to/lastmile_qr_scan"}, "fusion_lon": 0.0}, {"lat": 38.89550466666667, "is_disabled": 0, "type": "electric_scooter", "lon": -77.00918266666666, "bike_id": "d516b5022ae7e68f3adc20ca4c11c318", "fusion_lat": 0.0, "name": "d516b5022ae7e68f3adc20ca4c11c318", "is_reserved": 0, "rental_uris": {"android": "https://dc.lft.to/lastmile_qr_scan", "ios": "https://dc.lft.to/lastmile_qr_scan"}, "fusion_lon": 0.0}, {"lat": 38.934758, "is_disabled": 0, "type": "electric_scooter", "lon": -77.04117066666667, "bike_id": "33fd0362736cde97a67a758fe65e88a6", "fusion_lat": 0.0, "name": "33fd0362736cde97a67a758fe65e88a6", "is_reserved": 0, "rental_uris": {"android": "https://dc.lft.to/lastmile_qr_scan", "ios": "https://dc.lft.to/lastmile_qr_scan"}, "fusion_lon": 0.0}, {"lat": 38.892520166666664, "is_disabled": 0, "type": "electric_scooter", "lon": -77.02380483333333, "bike_id": "9cd7ed3c2ea3a1f35ab098a998bbd1e5", "fusion_lat": 0.0, "name": "9cd7ed3c2ea3a1f35ab098a998bbd1e5", "is_reserved": 0, "rental_uris": {"android": "https://dc.lft.to/lastmile_qr_scan", "ios": "https://dc.lft.to/lastmile_qr_scan"}, "fusion_lon": 0.0}, {"lat": 38.934992, "is_disabled": 0, "type": "electric_scooter", "lon": -77.0271995, "bike_id": "8b72f75109ea8e18e05ae878b64a9c34", "fusion_lat": 0.0, "name": "8b72f75109ea8e18e05ae878b64a9c34", "is_reserved": 0, "rental_uris": {"android": "https://dc.lft.to/lastmile_qr_scan", "ios": "https://dc.lft.to/lastmile_qr_scan"}, "fusion_lon": 0.0}, {"lat": 38.916345, "is_disabled": 0, "type": "electric_scooter", "lon": -77.025506, "bike_id": "e9c266482f2fec1d255809c345367c0d", "fusion_lat": 0.0, "name": "e9c266482f2fec1d255809c345367c0d", "is_reserved": 0, "rental_uris": {"android": "https://dc.lft.to/lastmile_qr_scan", "ios": "https://dc.lft.to/lastmile_qr_scan"}, "fusion_lon": 0.0}, {"lat": 38.954823166666664, "is_disabled": 0, "type": "electric_scooter", "lon": -77.06554833333334, "bike_id": "f0c76462c47a18e33b5dd6698eb2ddff", "fusion_lat": 0.0, "name": "f0c76462c47a18e33b5dd6698eb2ddff", "is_reserved": 0, "rental_uris": {"android": "https://dc.lft.to/lastmile_qr_scan", "ios": "https://dc.lft.to/lastmile_qr_scan"}, "fusion_lon": 0.0}, {"lat": 38.905117, "is_disabled": 0, "type": "electric_scooter", "lon": -77.04818016666667, "bike_id": "951f74490ab5696b8d20dd54d4433aea", "fusion_lat": 0.0, "name": "951f74490ab5696b8d20dd54d4433aea", "is_reserved": 0, "rental_uris": {"android": "https://dc.lft.to/lastmile_qr_scan", "ios": "https://dc.lft.to/lastmile_qr_scan"}, "fusion_lon": 0.0}, {"lat": 38.91854983333333, "is_disabled": 0, "type": "electric_scooter", "lon": -77.03176333333333, "bike_id": "f78a579aa65f66d11d2bcd9b41ff2d38", "fusion_lat": 0.0, "name": "f78a579aa65f66d11d2bcd9b41ff2d38", "is_reserved": 0, "rental_uris": {"android": "https://dc.lft.to/lastmile_qr_scan", "ios": "https://dc.lft.to/lastmile_qr_scan"}, "fusion_lon": 0.0}, {"lat": 38.92286883333333, "is_disabled": 0, "type": "electric_scooter", "lon": -77.02974033333334, "bike_id": "cf0d7ebb00c06ee373f6898e9906bb04", "fusion_lat": 0.0, "name": "cf0d7ebb00c06ee373f6898e9906bb04", "is_reserved": 0, "rental_uris": {"android": "https://dc.lft.to/lastmile_qr_scan", "ios": "https://dc.lft.to/lastmile_qr_scan"}, "fusion_lon": 0.0}, {"lat": 38.91201483333333, "is_disabled": 0, "type": "electric_scooter", "lon": -77.01463416666667, "bike_id": "c65ecae0a1eda228d39f7f9a01278310", "fusion_lat": 0.0, "name": "c65ecae0a1eda228d39f7f9a01278310", "is_reserved": 0, "rental_uris": {"android": "https://dc.lft.to/lastmile_qr_scan", "ios": "https://dc.lft.to/lastmile_qr_scan"}, "fusion_lon": 0.0}, {"lat": 38.8934675, "is_disabled": 0, "type": "electric_scooter", "lon": -77.04153766666667, "bike_id": "9e685c8d5e87cff8fafa6bafc64acf8b", "fusion_lat": 0.0, "name": "9e685c8d5e87cff8fafa6bafc64acf8b", "is_reserved": 0, "rental_uris": {"android": "https://dc.lft.to/lastmile_qr_scan", "ios": "https://dc.lft.to/lastmile_qr_scan"}, "fusion_lon": 0.0}, {"lat": 38.90280116666667, "is_disabled": 0, "type": "electric_scooter", "lon": -77.036536, "bike_id": "c08b9d0ea18827c7ada0772a13e27a10", "fusion_lat": 0.0, "name": "c08b9d0ea18827c7ada0772a13e27a10", "is_reserved": 0, "rental_uris": {"android": "https://dc.lft.to/lastmile_qr_scan", "ios": "https://dc.lft.to/lastmile_qr_scan"}, "fusion_lon": 0.0}, {"lat": 38.911908833333335, "is_disabled": 0, "type": "electric_scooter", "lon": -77.03421816666666, "bike_id": "58867b3e46c055136b56c8ae079d6f0f", "fusion_lat": 0.0, "name": "58867b3e46c055136b56c8ae079d6f0f", "is_reserved": 0, "rental_uris": {"android": "https://dc.lft.to/lastmile_qr_scan", "ios": "https://dc.lft.to/lastmile_qr_scan"}, "fusion_lon": 0.0}, {"lat": 38.90075016666667, "is_disabled": 0, "type": "electric_scooter", "lon": -77.05042966666667, "bike_id": "9b02aeb19642fb506f2ba833a2d0c349", "fusion_lat": 0.0, "name": "9b02aeb19642fb506f2ba833a2d0c349", "is_reserved": 0, "rental_uris": {"android": "https://dc.lft.to/lastmile_qr_scan", "ios": "https://dc.lft.to/lastmile_qr_scan"}, "fusion_lon": 0.0}, {"lat": 38.91615016666667, "is_disabled": 0, "type": "electric_scooter", "lon": -77.0364165, "bike_id": "fa571147c26f3c35524f929bf77948d9", "fusion_lat": 0.0, "name": "fa571147c26f3c35524f929bf77948d9", "is_reserved": 0, "rental_uris": {"android": "https://dc.lft.to/lastmile_qr_scan", "ios": "https://dc.lft.to/lastmile_qr_scan"}, "fusion_lon": 0.0}, {"lat": 38.923710166666666, "is_disabled": 0, "type": "electric_scooter", "lon": -77.05177533333334, "bike_id": "8e2ab890b35c722200f3fc4a3a40a183", "fusion_lat": 0.0, "name": "8e2ab890b35c722200f3fc4a3a40a183", "is_reserved": 0, "rental_uris": {"android": "https://dc.lft.to/lastmile_qr_scan", "ios": "https://dc.lft.to/lastmile_qr_scan"}, "fusion_lon": 0.0}, {"lat": 38.947184666666665, "is_disabled": 0, "type": "electric_scooter", "lon": -77.02259266666667, "bike_id": "266d64d196fd98ac09a9548f0e3e6a9e", "fusion_lat": 0.0, "name": "266d64d196fd98ac09a9548f0e3e6a9e", "is_reserved": 0, "rental_uris": {"android": "https://dc.lft.to/lastmile_qr_scan", "ios": "https://dc.lft.to/lastmile_qr_scan"}, "fusion_lon": 0.0}, {"lat": 38.919629, "is_disabled": 0, "type": "electric_bike", "lon": -76.97264716666666, "bike_id": "ddd830029e167316d11664992b514701", "fusion_lat": 0.0, "name": "ddd830029e167316d11664992b514701", "is_reserved": 0, "rental_uris": {"android": "https://dc.lft.to/lastmile_qr_scan", "ios": "https://dc.lft.to/lastmile_qr_scan"}, "fusion_lon": 0.0}, {"lat": 38.9301035, "is_disabled": 0, "type": "electric_bike", "lon": -77.21643283333333, "bike_id": "1aa4e90d3e7fdcbcc1f2a0d5d630fb8d", "fusion_lat": 0.0, "name": "1aa4e90d3e7fdcbcc1f2a0d5d630fb8d", "is_reserved": 0, "rental_uris": {"android": "https://dc.lft.to/lastmile_qr_scan", "ios": "https://dc.lft.to/lastmile_qr_scan"}, "fusion_lon": 0.0}, {"lat": 38.912047, "is_disabled": 0, "type": "electric_scooter", "lon": -77.027606, "bike_id": "a21c04c9cffe10aeb91e7a17ecd3120b", "fusion_lat": 0.0, "name": "a21c04c9cffe10aeb91e7a17ecd3120b", "is_reserved": 0, "rental_uris": {"android": "https://dc.lft.to/lastmile_qr_scan", "ios": "https://dc.lft.to/lastmile_qr_scan"}, "fusion_lon": 0.0}, {"lat": 38.91422, "is_disabled": 0, "type": "electric_scooter", "lon": -77.00506133333333, "bike_id": "67ade9085bd3691da48249a7cb6eb328", "fusion_lat": 0.0, "name": "67ade9085bd3691da48249a7cb6eb328", "is_reserved": 0, "rental_uris": {"android": "https://dc.lft.to/lastmile_qr_scan", "ios": "https://dc.lft.to/lastmile_qr_scan"}, "fusion_lon": 0.0}, {"lat": 38.932808333333334, "is_disabled": 0, "type": "electric_scooter", "lon": -77.02540866666666, "bike_id": "aef059dbd989599d4f2c97d99e7a730b", "fusion_lat": 0.0, "name": "aef059dbd989599d4f2c97d99e7a730b", "is_reserved": 0, "rental_uris": {"android": "https://dc.lft.to/lastmile_qr_scan", "ios": "https://dc.lft.to/lastmile_qr_scan"}, "fusion_lon": 0.0}, {"lat": 38.9021845, "is_disabled": 0, "type": "electric_scooter", "lon": -76.94592516666667, "bike_id": "9399629b53469d5ed6e27b7fafe9d054", "fusion_lat": 0.0, "name": "9399629b53469d5ed6e27b7fafe9d054", "is_reserved": 0, "rental_uris": {"android": "https://dc.lft.to/lastmile_qr_scan", "ios": "https://dc.lft.to/lastmile_qr_scan"}, "fusion_lon": 0.0}, {"lat": 38.901511, "is_disabled": 0, "type": "electric_scooter", "lon": -77.03980866666667, "bike_id": "132b1cc81c56983341ac8e6c7c847f72", "fusion_lat": 0.0, "name": "132b1cc81c56983341ac8e6c7c847f72", "is_reserved": 0, "rental_uris": {"android": "https://dc.lft.to/lastmile_qr_scan", "ios": "https://dc.lft.to/lastmile_qr_scan"}, "fusion_lon": 0.0}, {"lat": 38.90060866666666, "is_disabled": 0, "type": "electric_scooter", "lon": -77.0020115, "bike_id": "048bb95be3d51a026a63878586d34a39", "fusion_lat": 0.0, "name": "048bb95be3d51a026a63878586d34a39", "is_reserved": 0, "rental_uris": {"android": "https://dc.lft.to/lastmile_qr_scan", "ios": "https://dc.lft.to/lastmile_qr_scan"}, "fusion_lon": 0.0}, {"lat": 38.904542, "is_disabled": 0, "type": "electric_scooter", "lon": -76.994567, "bike_id": "273a7b5a944e8da983d21517d3a4720e", "fusion_lat": 0.0, "name": "273a7b5a944e8da983d21517d3a4720e", "is_reserved": 0, "rental_uris": {"android": "https://dc.lft.to/lastmile_qr_scan", "ios": "https://dc.lft.to/lastmile_qr_scan"}, "fusion_lon": 0.0}, {"lat": 38.9053395, "is_disabled": 0, "type": "electric_scooter", "lon": -77.031451, "bike_id": "abce4fb81e902861dd5abb9983da2576", "fusion_lat": 0.0, "name": "abce4fb81e902861dd5abb9983da2576", "is_reserved": 0, "rental_uris": {"android": "https://dc.lft.to/lastmile_qr_scan", "ios": "https://dc.lft.to/lastmile_qr_scan"}, "fusion_lon": 0.0}, {"lat": 38.91725233333333, "is_disabled": 0, "type": "electric_scooter", "lon": -77.02290133333334, "bike_id": "bdafe40d448b37ea429b2e8bd4a2089a", "fusion_lat": 0.0, "name": "bdafe40d448b37ea429b2e8bd4a2089a", "is_reserved": 0, "rental_uris": {"android": "https://dc.lft.to/lastmile_qr_scan", "ios": "https://dc.lft.to/lastmile_qr_scan"}, "fusion_lon": 0.0}, {"lat": 38.916008, "is_disabled": 0, "type": "electric_scooter", "lon": -77.0385365, "bike_id": "ab1f7518198931226ade578e7be98aba", "fusion_lat": 0.0, "name": "ab1f7518198931226ade578e7be98aba", "is_reserved": 0, "rental_uris": {"android": "https://dc.lft.to/lastmile_qr_scan", "ios": "https://dc.lft.to/lastmile_qr_scan"}, "fusion_lon": 0.0}, {"lat": 38.90417716666666, "is_disabled": 0, "type": "electric_scooter", "lon": -77.06886883333334, "bike_id": "5bad970e52439fcb410ab64ed1179658", "fusion_lat": 0.0, "name": "5bad970e52439fcb410ab64ed1179658", "is_reserved": 0, "rental_uris": {"android": "https://dc.lft.to/lastmile_qr_scan", "ios": "https://dc.lft.to/lastmile_qr_scan"}, "fusion_lon": 0.0}, {"lat": 38.91287883333333, "is_disabled": 0, "type": "electric_scooter", "lon": -77.0238355, "bike_id": "c8b9d6c9f4c8cbdb1b48563cd0332280", "fusion_lat": 0.0, "name": "c8b9d6c9f4c8cbdb1b48563cd0332280", "is_reserved": 0, "rental_uris": {"android": "https://dc.lft.to/lastmile_qr_scan", "ios": "https://dc.lft.to/lastmile_qr_scan"}, "fusion_lon": 0.0}, {"lat": 38.8873785, "is_disabled": 0, "type": "electric_scooter", "lon": -77.01526866666667, "bike_id": "a6e239738d01c2ba930c84c9769ac16f", "fusion_lat": 0.0, "name": "a6e239738d01c2ba930c84c9769ac16f", "is_reserved": 0, "rental_uris": {"android": "https://dc.lft.to/lastmile_qr_scan", "ios": "https://dc.lft.to/lastmile_qr_scan"}, "fusion_lon": 0.0}, {"lat": 38.91138616666667, "is_disabled": 0, "type": "electric_scooter", "lon": -77.02687966666667, "bike_id": "fab56df7cb66fd30b4265cbbc3cbb40f", "fusion_lat": 0.0, "name": "fab56df7cb66fd30b4265cbbc3cbb40f", "is_reserved": 0, "rental_uris": {"android": "https://dc.lft.to/lastmile_qr_scan", "ios": "https://dc.lft.to/lastmile_qr_scan"}, "fusion_lon": 0.0}, {"lat": 38.88649183333333, "is_disabled": 0, "type": "electric_bike", "lon": -77.16229966666667, "bike_id": "ac218d1817cd0dd7a456161d88eefe66", "fusion_lat": 0.0, "name": "ac218d1817cd0dd7a456161d88eefe66", "is_reserved": 0, "rental_uris": {"android": "https://dc.lft.to/lastmile_qr_scan", "ios": "https://dc.lft.to/lastmile_qr_scan"}, "fusion_lon": 0.0}, {"lat": 38.91542183333333, "is_disabled": 0, "type": "electric_scooter", "lon": -77.03792583333333, "bike_id": "f4e012333419eb3592cdf15eb5dfe61e", "fusion_lat": 0.0, "name": "f4e012333419eb3592cdf15eb5dfe61e", "is_reserved": 0, "rental_uris": {"android": "https://dc.lft.to/lastmile_qr_scan", "ios": "https://dc.lft.to/lastmile_qr_scan"}, "fusion_lon": 0.0}, {"lat": 38.9240905, "is_disabled": 0, "type": "electric_scooter", "lon": -77.0352535, "bike_id": "8902aae4ddf4e3456155f46841acd0ac", "fusion_lat": 0.0, "name": "8902aae4ddf4e3456155f46841acd0ac", "is_reserved": 0, "rental_uris": {"android": "https://dc.lft.to/lastmile_qr_scan", "ios": "https://dc.lft.to/lastmile_qr_scan"}, "fusion_lon": 0.0}, {"lat": 38.9388505, "is_disabled": 0, "type": "electric_scooter", "lon": -77.0328005, "bike_id": "d8c7f5c9bc357a92c9590ab84f973501", "fusion_lat": 0.0, "name": "d8c7f5c9bc357a92c9590ab84f973501", "is_reserved": 0, "rental_uris": {"android": "https://dc.lft.to/lastmile_qr_scan", "ios": "https://dc.lft.to/lastmile_qr_scan"}, "fusion_lon": 0.0}, {"lat": 38.901106166666665, "is_disabled": 0, "type": "electric_scooter", "lon": -76.9954955, "bike_id": "09f8c177f82ee305aee8a7105efc4291", "fusion_lat": 0.0, "name": "09f8c177f82ee305aee8a7105efc4291", "is_reserved": 0, "rental_uris": {"android": "https://dc.lft.to/lastmile_qr_scan", "ios": "https://dc.lft.to/lastmile_qr_scan"}, "fusion_lon": 0.0}, {"lat": 38.921679833333336, "is_disabled": 0, "type": "electric_scooter", "lon": -77.040206, "bike_id": "0ea9d8d57f3cb76fc0bc5aa3208c272a", "fusion_lat": 0.0, "name": "0ea9d8d57f3cb76fc0bc5aa3208c272a", "is_reserved": 0, "rental_uris": {"android": "https://dc.lft.to/lastmile_qr_scan", "ios": "https://dc.lft.to/lastmile_qr_scan"}, "fusion_lon": 0.0}, {"lat": 38.904807166666664, "is_disabled": 0, "type": "electric_scooter", "lon": -76.9731945, "bike_id": "7015b742e6dd112baa115584bc0ae7e3", "fusion_lat": 0.0, "name": "7015b742e6dd112baa115584bc0ae7e3", "is_reserved": 0, "rental_uris": {"android": "https://dc.lft.to/lastmile_qr_scan", "ios": "https://dc.lft.to/lastmile_qr_scan"}, "fusion_lon": 0.0}, {"lat": 38.9028045, "is_disabled": 0, "type": "electric_scooter", "lon": -77.0366835, "bike_id": "e6a751398145cdee3623505c0d98315f", "fusion_lat": 0.0, "name": "e6a751398145cdee3623505c0d98315f", "is_reserved": 0, "rental_uris": {"android": "https://dc.lft.to/lastmile_qr_scan", "ios": "https://dc.lft.to/lastmile_qr_scan"}, "fusion_lon": 0.0}, {"lat": 38.9147875, "is_disabled": 0, "type": "electric_scooter", "lon": -77.02180383333334, "bike_id": "c0a30ef8ed15eefbcdf1ac805cbe745c", "fusion_lat": 0.0, "name": "c0a30ef8ed15eefbcdf1ac805cbe745c", "is_reserved": 0, "rental_uris": {"android": "https://dc.lft.to/lastmile_qr_scan", "ios": "https://dc.lft.to/lastmile_qr_scan"}, "fusion_lon": 0.0}, {"lat": 38.92482, "is_disabled": 0, "type": "electric_scooter", "lon": -77.03484416666667, "bike_id": "1830731900c80e9f59e422d36f80a6f7", "fusion_lat": 0.0, "name": "1830731900c80e9f59e422d36f80a6f7", "is_reserved": 0, "rental_uris": {"android": "https://dc.lft.to/lastmile_qr_scan", "ios": "https://dc.lft.to/lastmile_qr_scan"}, "fusion_lon": 0.0}, {"lat": 38.892238, "is_disabled": 0, "type": "electric_scooter", "lon": -77.04860633333334, "bike_id": "26e547f7b3ed3a5a3d9ee7c7dd3cd7c5", "fusion_lat": 0.0, "name": "26e547f7b3ed3a5a3d9ee7c7dd3cd7c5", "is_reserved": 0, "rental_uris": {"android": "https://dc.lft.to/lastmile_qr_scan", "ios": "https://dc.lft.to/lastmile_qr_scan"}, "fusion_lon": 0.0}, {"lat": 38.894893833333334, "is_disabled": 0, "type": "electric_scooter", "lon": -77.00224716666666, "bike_id": "7eaf17ad24f842f484764676ad103ae9", "fusion_lat": 0.0, "name": "7eaf17ad24f842f484764676ad103ae9", "is_reserved": 0, "rental_uris": {"android": "https://dc.lft.to/lastmile_qr_scan", "ios": "https://dc.lft.to/lastmile_qr_scan"}, "fusion_lon": 0.0}, {"lat": 38.88626683333333, "is_disabled": 0, "type": "electric_scooter", "lon": -76.955159, "bike_id": "859f24ec822dc933da38d5b419dce205", "fusion_lat": 0.0, "name": "859f24ec822dc933da38d5b419dce205", "is_reserved": 0, "rental_uris": {"android": "https://dc.lft.to/lastmile_qr_scan", "ios": "https://dc.lft.to/lastmile_qr_scan"}, "fusion_lon": 0.0}, {"lat": 38.921165333333335, "is_disabled": 0, "type": "electric_scooter", "lon": -77.04184416666666, "bike_id": "018a241a6a908123d4f9e6ab25c8e9a6", "fusion_lat": 0.0, "name": "018a241a6a908123d4f9e6ab25c8e9a6", "is_reserved": 0, "rental_uris": {"android": "https://dc.lft.to/lastmile_qr_scan", "ios": "https://dc.lft.to/lastmile_qr_scan"}, "fusion_lon": 0.0}, {"lat": 38.92666833333333, "is_disabled": 0, "type": "electric_scooter", "lon": -77.01499933333334, "bike_id": "9436b45eac74493eab6bd2515e23c309", "fusion_lat": 0.0, "name": "9436b45eac74493eab6bd2515e23c309", "is_reserved": 0, "rental_uris": {"android": "https://dc.lft.to/lastmile_qr_scan", "ios": "https://dc.lft.to/lastmile_qr_scan"}, "fusion_lon": 0.0},