{"data": {"bikes": [{"fusion_lat": 0.0, "name": "ab3b4dbc1c98354d6c44de272a2ceb0f", "lon": -77.0260145, "rental_uris": {"android": "https://dc.lft.to/lastmile_qr_scan", "ios": "https://dc.lft.to/lastmile_qr_scan"}, "fusion_lon": 0.0, "bike_id": "ab3b4dbc1c98354d6c44de272a2ceb0f", "is_disabled": 0, "lat": 38.9441355, "is_reserved": 0, "type": "electric_scooter"}, {"fusion_lat": 0.0, "name": "cb85089393e5ea9671d6dcaf84c1705e", "lon": -77.0710485, "rental_uris": {"android": "https://dc.lft.to/lastmile_qr_scan", "ios": "https://dc.lft.to/lastmile_qr_scan"}, "fusion_lon": 0.0, "bike_id": "cb85089393e5ea9671d6dcaf84c1705e", "is_disabled": 0, "lat": 38.93176866666667, "is_reserved": 0, "type": "electric_scooter"}, {"fusion_lat": 0.0, "name": "25fd1de965933fdfa6ed2915840e441a", "lon": -77.01909066666667, "rental_uris": {"android": "https://dc.lft.to/lastmile_qr_scan", "ios": "https://dc.lft.to/lastmile_qr_scan"}, "fusion_lon": 0.0, "bike_id": "25fd1de965933fdfa6ed2915840e441a", "is_disabled": 0, "lat": 38.92266983333333, "is_reserved": 0, "type": "electric_scooter"}, {"fusion_lat": 0.0, "name": "15e35b3c7ed4e06627a7c0a34ac97666", "lon": -76.9302075, "rental_uris": {"android": "https://dc.lft.to/lastmile_qr_scan", "ios": "https://dc.lft.to/lastmile_qr_scan"}, "fusion_lon": 0.0, "bike_id": "15e35b3c7ed4e06627a7c0a34ac97666", "is_disabled": 0, "lat": 38.900818, "is_reserved": 0, "type": "electric_scooter"}, {"fusion_lat": 0.0, "name": "72a26f0d5492ef949494073ffe38fe33", "lon": -77.0240575, "rental_uris": {"android": "https://dc.lft.to/lastmile_qr_scan", "ios": "https://dc.lft.to/lastmile_qr_scan"}, "fusion_lon": 0.0, "bike_id": "72a26f0d5492ef949494073ffe38fe33", "is_disabled": 0, "lat": 38.898193, "is_reserved": 0, "type": "electric_scooter"}, {"fusion_lat": 0.0, "name": "ba0845dcecb951fdeae254739653c4ff", "lon": -76.97839933333333, "rental_uris": {"android": "https://dc.lft.to/lastmile_qr_scan", "ios": "https://dc.lft.to/lastmile_qr_scan"}, "fusion_lon": 0.0, "bike_id": "ba0845dcecb951fdeae254739653c4ff", "is_disabled": 0, "lat": 38.872048, "is_reserved": 0, "type": "electric_scooter"}, {"fusion_lat": 0.0, "name": "c6323e71614ece09fc1de781acc3090a", "lon": -77.08013266666667, "rental_uris": {"android": "https://dc.lft.to/lastmile_qr_scan", "ios": "https://dc.lft.to/lastmile_qr_scan"}, "fusion_lon": 0.0, "bike_id": "c6323e71614ece09fc1de781acc3090a", "is_disabled": 0, "lat": 38.9506275, "is_reserved": 0, "type": "electric_scooter"}, {"fusion_lat": 0.0, "name": "c9c316332ac82dd15b9951e783e3123f", "lon": -76.98420066666667, "rental_uris": {"android": "https://dc.lft.to/lastmile_qr_scan", "ios": "https://dc.lft.to/lastmile_qr_scan"}, "fusion_lon": 0.0, "bike_id": "c9c316332ac82dd15b9951e783e3123f", "is_disabled": 0, "lat": 38.855368666666664, "is_reserved": 0, "type": "electric_scooter"}, {"fusion_lat": 0.0, "name": "739dbd935a3299244a57af61abdad2ca", "lon": -77.0173905, "rental_uris": {"android": "https://dc.lft.to/lastmile_qr_scan", "ios": "https://dc.lft.to/lastmile_qr_scan"}, "fusion_lon": 0.0, "bike_id": "739dbd935a3299244a57af61abdad2ca", "is_disabled": 0, "lat": 38.90284166666667, "is_reserved": 0, "type": "electric_scooter"}, {"fusion_lat": 0.0, "name": "c1d919bf36cf015dba1ba44c770945f4", "lon": -77.08116533333333, "rental_uris": {"android": "https://dc.lft.to/lastmile_qr_scan", "ios": "https://dc.lft.to/lastmile_qr_scan"}, "fusion_lon": 0.0, "bike_id": "c1d919bf36cf015dba1ba44c770945f4", "is_disabled": 0, "lat": 38.93576516666667, "is_reserved": 0, "type": "electric_scooter"}, {"fusion_lat": 0.0, "name": "48286c0ca8489f86f45e762deb449fa1", "lon": -77.04877083333334, "rental_uris": {"android": "https://dc.lft.to/lastmile_qr_scan", "ios": "https://dc.lft.to/lastmile_qr_scan"}, "fusion_lon": 0.0, "bike_id": "48286c0ca8489f86f45e762deb449fa1", "is_disabled": 0, "lat": 38.892774833333334, "is_reserved": 0, "type": "electric_scooter"}, {"fusion_lat": 0.0, "name": "8853d82bc24b61d01f3f6fdd07dbb3c6", "lon": -76.97304566666666, "rental_uris": {"android": "https://dc.lft.to/lastmile_qr_scan", "ios": "https://dc.lft.to/lastmile_qr_scan"}, "fusion_lon": 0.0, "bike_id": "8853d82bc24b61d01f3f6fdd07dbb3c6", "is_disabled": 0, "lat": 38.916439833333335, "is_reserved": 0, "type": "electric_bike"}, {"fusion_lat": 0.0, "name": "3a34aed314024641602e9c8bd8d75bc1", "lon": -76.926209, "rental_uris": {"android": "https://dc.lft.to/lastmile_qr_scan", "ios": "https://dc.lft.to/lastmile_qr_scan"}, "fusion_lon": 0.0, "bike_id": "3a34aed314024641602e9c8bd8d75bc1", "is_disabled": 0, "lat": 38.88486066666667, "is_reserved": 0, "type": "electric_scooter"}, {"fusion_lat": 0.0, "name": "03353340abdf79fd37fb84c504f7ab25", "lon": -77.00623683333333, "rental_uris": {"android": "https://dc.lft.to/lastmile_qr_scan", "ios": "https://dc.lft.to/lastmile_qr_scan"}, "fusion_lon": 0.0, "bike_id": "03353340abdf79fd37fb84c504f7ab25", "is_disabled": 0, "lat": 38.90586183333333, "is_reserved": 0, "type": "electric_scooter"}, {"fusion_lat": 0.0, "name": "a6fd81f3d5077d99efd4d91ad291f690", "lon": -77.02206033333333, "rental_uris": {"android": "https://dc.lft.to/lastmile_qr_scan", "ios": "https://dc.lft.to/lastmile_qr_scan"}, "fusion_lon": 0.0, "bike_id": "a6fd81f3d5077d99efd4d91ad291f690", "is_disabled": 0, "lat": 38.921062166666665, "is_reserved": 0, "type": "electric_scooter"}, {"fusion_lat": 0.0, "name": "73c9e1b29a9c1c33fa921bc86ba9a67d", "lon": -76.9989165, "rental_uris": {"android": "https://dc.lft.to/lastmile_qr_scan", "ios": "https://dc.lft.to/lastmile_qr_scan"}, "fusion_lon": 0.0, "bike_id": "73c9e1b29a9c1c33fa921bc86ba9a67d", "is_disabled": 0, "lat": 38.953154, "is_reserved": 0, "type": "electric_bike"}, {"fusion_lat": 0.0, "name": "ac469103e6c3c9941f90f39f5fec578a", "lon": -77.01512133333334, "rental_uris": {"android": "https://dc.lft.to/lastmile_qr_scan", "ios": "https://dc.lft.to/lastmile_qr_scan"}, "fusion_lon": 0.0, "bike_id": "ac469103e6c3c9941f90f39f5fec578a", "is_disabled": 0, "lat": 38.926416, "is_reserved": 0, "type": "electric_scooter"}, {"fusion_lat": 0.0, "name": "25bdc88ada46aa29f5498e5d2b2131d2", "lon": -77.1248965, "rental_uris": {"android": "https://dc.lft.to/lastmile_qr_scan", "ios": "https://dc.lft.to/lastmile_qr_scan"}, "fusion_lon": 0.0, "bike_id": "25bdc88ada46aa29f5498e5d2b2131d2", "is_disabled": 0, "lat": 38.82783, "is_reserved": 0, "type": "electric_bike"}, {"fusion_lat": 0.0, "name": "1e33048efba1c249a4ac17a469289fe2", "lon": -77.04307533333333, "rental_uris": {"android": "https://dc.lft.to/lastmile_qr_scan", "ios": "https://dc.lft.to/lastmile_qr_scan"}, "fusion_lon": 0.0, "bike_id": "1e33048efba1c249a4ac17a469289fe2", "is_disabled": 0, "lat": 38.923295833333334, "is_reserved": 0, "type": "electric_scooter"}, {"fusion_lat": 0.0, "name": "6aea99ee8334f53eea6b803e3c24c2fb", "lon": -77.026987, "rental_uris": {"android": "https://dc.lft.to/lastmile_qr_scan", "ios": "https://dc.lft.to/lastmile_qr_scan"}, "fusion_lon": 0.0, "bike_id": "6aea99ee8334f53eea6b803e3c24c2fb", "is_disabled": 0, "lat": 38.908414, "is_reserved": 0, "type": "electric_scooter"}, {"fusion_lat": 0.0, "name": "16bbc7dfd70c1ed0d90c7b119ec0a5b5", "lon": -77.053141, "rental_uris": {"android": "https://dc.lft.to/lastmile_qr_scan", "ios": "https://dc.lft.to/lastmile_qr_scan"}, "fusion_lon": 0.0, "bike_id": "16bbc7dfd70c1ed0d90c7b119ec0a5b5", "is_disabled": 0, "lat": 38.91064866666667, "is_reserved": 0, "type": "electric_scooter"}, {"fusion_lat": 0.0, "name": "bf720e9e0cb235e6bc53a61eaceeb207", "lon": -77.0271295, "rental_uris": {"android": "https://dc.lft.to/lastmile_qr_scan", "ios": "https://dc.lft.to/lastmile_qr_scan"}, "fusion_lon": 0.0, "bike_id": "bf720e9e0cb235e6bc53a61eaceeb207", "is_disabled": 0, "lat": 38.917122666666664, "is_reserved": 0, "type": "electric_scooter"}, {"fusion_lat": 0.0, "name": "0428e504260492e1ad49e45de72ec09b", "lon": -77.029858, "rental_uris": {"android": "https://dc.lft.to/lastmile_qr_scan", "ios": "https://dc.lft.to/lastmile_qr_scan"}, "fusion_lon": 0.0, "bike_id": "0428e504260492e1ad49e45de72ec09b", "is_disabled": 0, "lat": 38.931413, "is_reserved": 0, "type": "electric_scooter"}, {"fusion_lat": 0.0, "name": "c6e95351985ebca9704bbc3c0174cac9", "lon": -77.07615716666666, "rental_uris": {"android": "https://dc.lft.to/lastmile_qr_scan", "ios": "https://dc.lft.to/lastmile_qr_scan"}, "fusion_lon": 0.0, "bike_id": "c6e95351985ebca9704bbc3c0174cac9", "is_disabled": 0, "lat": 38.907223, "is_reserved": 0, "type": "electric_scooter"}, {"fusion_lat": 0.0, "name": "b9b7653c847b7d2bf5cdfa565c37a27f", "lon": -77.04123033333333, "rental_uris": {"android": "https://dc.lft.to/lastmile_qr_scan", "ios": "https://dc.lft.to/lastmile_qr_scan"}, "fusion_lon": 0.0, "bike_id": "b9b7653c847b7d2bf5cdfa565c37a27f", "is_disabled": 0, "lat": 38.917079333333334, "is_reserved": 0, "type": "electric_scooter"}, {"fusion_lat": 0.0, "name": "8ad0475b7b0b029f2fd850d1f9e0840c", "lon": -77.00998483333333, "rental_uris": {"android": "https://dc.lft.to/lastmile_qr_scan", "ios": "https://dc.lft.to/lastmile_qr_scan"}, "fusion_lon": 0.0, "bike_id": "8ad0475b7b0b029f2fd850d1f9e0840c", "is_disabled": 0, "lat": 38.8722485, "is_reserved": 0, "type": "electric_scooter"}, {"fusion_lat": 0.0, "name": "df4ece1fa9b0e433b468608ec4e57773", "lon": -77.02147333333333, "rental_uris": {"android": "https://dc.lft.to/lastmile_qr_scan", "ios": "https://dc.lft.to/lastmile_qr_scan"}, "fusion_lon": 0.0, "bike_id": "df4ece1fa9b0e433b468608ec4e57773", "is_disabled": 0, "lat": 38.9274735, "is_reserved": 0, "type": "electric_scooter"}, {"fusion_lat": 0.0, "name": "80612e6608b0f6da31225b6d965f6b2a", "lon": -77.0312175, "rental_uris": {"android": "https://dc.lft.to/lastmile_qr_scan", "ios": "https://dc.lft.to/lastmile_qr_scan"}, "fusion_lon": 0.0, "bike_id": "80612e6608b0f6da31225b6d965f6b2a", "is_disabled": 0, "lat": 38.91921766666667, "is_reserved": 0, "type": "electric_bike"}, {"fusion_lat": 0.0, "name": "d81adea959eff7336d061b2552e95807", "lon": -77.021188, "rental_uris": {"android": "https://dc.lft.to/lastmile_qr_scan", "ios": "https://dc.lft.to/lastmile_qr_scan"}, "fusion_lon": 0.0, "bike_id": "d81adea959eff7336d061b2552e95807", "is_disabled": 0, "lat": 38.924048, "is_reserved": 0, "type": "electric_scooter"}, {"fusion_lat": 0.0, "name": "844e7f59698a42931ef2ce9a2d1bcd3d", "lon": -77.04277583333334, "rental_uris": {"android": "https://dc.lft.to/lastmile_qr_scan", "ios": "https://dc.lft.to/lastmile_qr_scan"}, "fusion_lon": 0.0, "bike_id": "844e7f59698a42931ef2ce9a2d1bcd3d", "is_disabled": 0, "lat": 38.9087175, "is_reserved": 0, "type": "electric_scooter"}, {"fusion_lat": 0.0, "name": "0da6d66cf061e4a14048aa6d44fb2b8e", "lon": -77.00921066666666, "rental_uris": {"android": "https://dc.lft.to/lastmile_qr_scan", "ios": "https://dc.lft.to/lastmile_qr_scan"}, "fusion_lon": 0.0, "bike_id": "0da6d66cf061e4a14048aa6d44fb2b8e", "is_disabled": 0, "lat": 38.91619016666667, "is_reserved": 0, "type": "electric_scooter"}, {"fusion_lat": 0.0, "name": "86236c8d09b1697dc0ee55cf409c4862", "lon": -77.02533833333334, "rental_uris": {"android": "https://dc.lft.to/lastmile_qr_scan", "ios": "https://dc.lft.to/lastmile_qr_scan"}, "fusion_lon": 0.0, "bike_id": "86236c8d09b1697dc0ee55cf409c4862", "is_disabled": 0, "lat": 38.9274285, "is_reserved": 0, "type": "electric_scooter"}, {"fusion_lat": 0.0, "name": "1123085d7c5c341a63681fcb30dd86bb", "lon": -77.02964266666666, "rental_uris": {"android": "https://dc.lft.to/lastmile_qr_scan", "ios": "https://dc.lft.to/lastmile_qr_scan"}, "fusion_lon": 0.0, "bike_id": "1123085d7c5c341a63681fcb30dd86bb", "is_disabled": 0, "lat": 38.916721, "is_reserved": 0, "type": "electric_scooter"}, {"fusion_lat": 0.0, "name": "49099c86d279df5997cb100e5312d742", "lon": -77.04246716666667, "rental_uris": {"android": "https://dc.lft.to/lastmile_qr_scan", "ios": "https://dc.lft.to/lastmile_qr_scan"}, "fusion_lon": 0.0, "bike_id": "49099c86d279df5997cb100e5312d742", "is_disabled": 0, "lat": 38.92224933333333, "is_reserved": 0, "type": "electric_scooter"}, {"fusion_lat": 0.0, "name": "e98daa7a4bb0560b2d69395a0af752c1", "lon": -77.05854066666667, "rental_uris": {"android": "https://dc.lft.to/lastmile_qr_scan", "ios": "https://dc.lft.to/lastmile_qr_scan"}, "fusion_lon": 0.0, "bike_id": "e98daa7a4bb0560b2d69395a0af752c1", "is_disabled": 0, "lat": 38.93050066666667, "is_reserved": 0, "type": "electric_scooter"}, {"fusion_lat": 0.0, "name": "d70734af6b832db4fd5c26a0b8ec41dc", "lon": -77.02628133333333, "rental_uris": {"android": "https://dc.lft.to/lastmile_qr_scan", "ios": "https://dc.lft.to/lastmile_qr_scan"}, "fusion_lon": 0.0, "bike_id": "d70734af6b832db4fd5c26a0b8ec41dc", "is_disabled": 0, "lat": 38.96233, "is_reserved": 0, "type": "electric_bike"}, {"fusion_lat": 0.0, "name": "6c14e2454f9b18e2f26a85132f2e3fc2", "lon": -76.98595966666667, "rental_uris": {"android": "https://dc.lft.to/lastmile_qr_scan", "ios": "https://dc.lft.to/lastmile_qr_scan"}, "fusion_lon": 0.0, "bike_id": "6c14e2454f9b18e2f26a85132f2e3fc2", "is_disabled": 0, "lat": 38.8668625, "is_reserved": 0, "type": "electric_scooter"}, {"fusion_lat": 0.0, "name": "6bd9b7a69933ff9314c767cba9c5a821", "lon": -77.0441205, "rental_uris": {"android": "https://dc.lft.to/lastmile_qr_scan", "ios": "https://dc.lft.to/lastmile_qr_scan"}, "fusion_lon": 0.0, "bike_id": "6bd9b7a69933ff9314c767cba9c5a821", "is_disabled": 0, "lat": 38.910470833333335, "is_reserved": 0, "type": "electric_scooter"}, {"fusion_lat": 0.0, "name": "45e1e289712520fbff201529ad631789", "lon": -76.99368316666667, "rental_uris": {"android": "https://dc.lft.to/lastmile_qr_scan", "ios": "https://dc.lft.to/lastmile_qr_scan"}, "fusion_lon": 0.0, "bike_id": "45e1e289712520fbff201529ad631789", "is_disabled": 0, "lat": 38.88833916666667, "is_reserved": 0, "type": "electric_scooter"}, {"fusion_lat": 0.0, "name": "e4448b02beab1dec42dbdc5762e49060", "lon": -76.9948235, "rental_uris": {"android": "https://dc.lft.to/lastmile_qr_scan", "ios": "https://dc.lft.to/lastmile_qr_scan"}, "fusion_lon": 0.0, "bike_id": "e4448b02beab1dec42dbdc5762e49060", "is_disabled": 0, "lat": 38.88607966666667, "is_reserved": 0, "type": "electric_scooter"}, {"fusion_lat": 0.0, "name": "22ed40fdc52ba600eeccb88ab9f23a81", "lon": -77.013105, "rental_uris": {"android": "https://dc.lft.to/lastmile_qr_scan", "ios": "https://dc.lft.to/lastmile_qr_scan"}, "fusion_lon": 0.0, "bike_id": "22ed40fdc52ba600eeccb88ab9f23a81", "is_disabled": 0, "lat": 38.89737483333333, "is_reserved": 0, "type": "electric_scooter"}, {"fusion_lat": 0.0, "name": "d3de1d14fb3e35c54fc285dbf853e8f3", "lon": -77.0094565, "rental_uris": {"android": "https://dc.lft.to/lastmile_qr_scan", "ios": "https://dc.lft.to/lastmile_qr_scan"}, "fusion_lon": 0.0, "bike_id": "d3de1d14fb3e35c54fc285dbf853e8f3", "is_disabled": 0, "lat": 38.89498533333333, "is_reserved": 0, "type": "electric_scooter"}, {"fusion_lat": 0.0, "name": "d29099ecd2ec4c0994ddd7dfef1b6563", "lon": -77.04397816666666, "rental_uris": {"android": "https://dc.lft.to/lastmile_qr_scan", "ios": "https://dc.lft.to/lastmile_qr_scan"}, "fusion_lon": 0.0, "bike_id": "d29099ecd2ec4c0994ddd7dfef1b6563", "is_disabled": 0, "lat": 38.90940766666667, "is_reserved": 0, "type": "electric_scooter"}, {"fusion_lat": 0.0, "name": "41e632494fdb150e0091d35d5955e3b9", "lon": -77.02842766666667, "rental_uris": {"android": "https://dc.lft.to/lastmile_qr_scan", "ios": "https://dc.lft.to/lastmile_qr_scan"}, "fusion_lon": 0.0, "bike_id": "41e632494fdb150e0091d35d5955e3b9", "is_disabled": 0, "lat": 38.925716333333334, "is_reserved": 0, "type": "electric_scooter"}, {"fusion_lat": 0.0, "name": "1c150fd968e09c81e19e66fd8751dd87", "lon": -76.95575983333333, "rental_uris": {"android": "https://dc.lft.to/lastmile_qr_scan", "ios": "https://dc.lft.to/lastmile_qr_scan"}, "fusion_lon": 0.0, "bike_id": "1c150fd968e09c81e19e66fd8751dd87", "is_disabled": 0, "lat": 38.88768266666666, "is_reserved": 0, "type": "electric_scooter"}, {"fusion_lat": 0.0, "name": "79e267bd20dacbeeb718c007dd0275cd", "lon": -77.04391, "rental_uris": {"android": "https://dc.lft.to/lastmile_qr_scan", "ios": "https://dc.lft.to/lastmile_qr_scan"}, "fusion_lon": 0.0, "bike_id": "79e267bd20dacbeeb718c007dd0275cd", "is_disabled": 0, "lat": 39.0471535, "is_reserved": 0, "type": "electric_bike"}, {"fusion_lat": 0.0, "name": "207c7e9f0578ee6dfb25dc2bccb70681", "lon": -77.05825416666667, "rental_uris": {"android": "https://dc.lft.to/lastmile_qr_scan", "ios": "https://dc.lft.to/lastmile_qr_scan"}, "fusion_lon": 0.0, "bike_id": "207c7e9f0578ee6dfb25dc2bccb70681", "is_disabled": 0, "lat": 38.935397, "is_reserved": 0, "type": "electric_scooter"}, {"fusion_lat": 0.0, "name": "7b7f057e55517c7710eaaf244984ea4d", "lon": -77.01999216666667, "rental_uris": {"android": "https://dc.lft.to/lastmile_qr_scan", "ios": "https://dc.lft.to/lastmile_qr_scan"}, "fusion_lon": 0.0, "bike_id": "7b7f057e55517c7710eaaf244984ea4d", "is_disabled": 0, "lat": 38.915294, "is_reserved": 0, "type": "electric_scooter"}, {"fusion_lat": 0.0, "name": "9f25fd6b904fd1a3d6347a7d2e2c31b7", "lon": -77.025329, "rental_uris": {"android": "https://dc.lft.to/lastmile_qr_scan", "ios": "https://dc.lft.to/lastmile_qr_scan"}, "fusion_lon": 0.0, "bike_id": "9f25fd6b904fd1a3d6347a7d2e2c31b7", "is_disabled": 0, "lat": 38.94180733333334, "is_reserved": 0, "type": "electric_scooter"}, {"fusion_lat": 0.0, "name": "f05ac0dc7d37bb9b6079c955a8774608", "lon": -76.9854915, "rental_uris": {"android": "https://dc.lft.to/lastmile_qr_scan", "ios": "https://dc.lft.to/lastmile_qr_scan"}, "fusion_lon": 0.0, "bike_id": "f05ac0dc7d37bb9b6079c955a8774608", "is_disabled": 0, "lat": 38.9201445, "is_reserved": 0, "type": "electric_scooter"}, {"fusion_lat": 0.0, "name": "b73ccc9f6ca8ee916ba856a93441c93c", "lon": -77.03209466666667, "rental_uris": {"android": "https://dc.lft.to/lastmile_qr_scan", "ios": "https://dc.lft.to/lastmile_qr_scan"}, "fusion_lon": 0.0, "bike_id": "b73ccc9f6ca8ee916ba856a93441c93c", "is_disabled": 0, "lat": 38.89221916666666, "is_reserved": 0, "type": "electric_scooter"}, {"fusion_lat": 0.0, "name": "a843befd4a2ab605ecbea0435254cc33", "lon": -77.029758, "rental_uris": {"android": "https://dc.lft.to/lastmile_qr_scan", "ios": "https://dc.lft.to/lastmile_qr_scan"}, "fusion_lon": 0.0, "bike_id": "a843befd4a2ab605ecbea0435254cc33", "is_disabled": 0, "lat": 38.9172625, "is_reserved": 0, "type": "electric_scooter"}, {"fusion_lat": 0.0, "name": "cf0dabb8455df334496030ccf00dca87", "lon": -77.03715033333333, "rental_uris": {"android": "https://dc.lft.to/lastmile_qr_scan", "ios": "https://dc.lft.to/lastmile_qr_scan"}, "fusion_lon": 0.0, "bike_id": "cf0dabb8455df334496030ccf00dca87", "is_disabled": 0, "lat": 38.91652583333333, "is_reserved": 0, "type": "electric_scooter"}, {"fusion_lat": 0.0, "name": "d62ab0ba39cdde8de845e2b176a9739d", "lon": -77.00551883333333, "rental_uris": {"android": "https://dc.lft.to/lastmile_qr_scan", "ios": "https://dc.lft.to/lastmile_qr_scan"}, "fusion_lon": 0.0, "bike_id": "d62ab0ba39cdde8de845e2b176a9739d", "is_disabled": 0, "lat": 38.8800155, "is_reserved": 0, "type": "electric_scooter"}, {"fusion_lat": 0.0, "name": "bdd8062b5e5ec74917685d5395d5acd9", "lon": -76.91760233333333, "rental_uris": {"android": "https://dc.lft.to/lastmile_qr_scan", "ios": "https://dc.lft.to/lastmile_qr_scan"}, "fusion_lon": 0.0, "bike_id": "bdd8062b5e5ec74917685d5395d5acd9", "is_disabled": 0, "lat": 38.88837816666667, "is_reserved": 0, "type": "electric_scooter"}, {"fusion_lat": 0.0, "name": "6edc9f9211706f1f63adb399b013a3e5", "lon": -77.04698716666667, "rental_uris": {"android": "https://dc.lft.to/lastmile_qr_scan", "ios": "https://dc.lft.to/lastmile_qr_scan"}, "fusion_lon": 0.0, "bike_id": "6edc9f9211706f1f63adb399b013a3e5", "is_disabled": 0, "lat": 38.921026499999996, "is_reserved": 0, "type": "electric_scooter"}, {"fusion_lat": 0.0, "name": "d63e9b5a6f57db675ba316e69452dda1", "lon": -77.03505316666667, "rental_uris": {"android": "https://dc.lft.to/lastmile_qr_scan", "ios": "https://dc.lft.to/lastmile_qr_scan"}, "fusion_lon": 0.0, "bike_id": "d63e9b5a6f57db675ba316e69452dda1", "is_disabled": 0, "lat": 38.9187405, "is_reserved": 0, "type": "electric_scooter"}, {"fusion_lat": 0.0, "name": "2c6e405201cc8a8145cf2043ab34030d", "lon": -77.02216066666666, "rental_uris": {"android": "https://dc.lft.to/lastmile_qr_scan", "ios": "https://dc.lft.to/lastmile_qr_scan"}, "fusion_lon": 0.0, "bike_id": "2c6e405201cc8a8145cf2043ab34030d", "is_disabled": 0, "lat": 38.905354333333335, "is_reserved": 0, "type": "electric_scooter"}, {"fusion_lat": 0.0, "name": "8bfddd542700a21e128308b45c15689f", "lon": -77.034422, "rental_uris": {"android": "https://dc.lft.to/lastmile_qr_scan", "ios": "https://dc.lft.to/lastmile_qr_scan"}, "fusion_lon": 0.0, "bike_id": "8bfddd542700a21e128308b45c15689f", "is_disabled": 0, "lat": 38.9287025, "is_reserved": 0, "type": "electric_scooter"}, {"fusion_lat": 0.0, "name": "85033a01cdb3bae9dfc8e06af9d1848e", "lon": -77.07028416666667, "rental_uris": {"android": "https://dc.lft.to/lastmile_qr_scan", "ios": "https://dc.lft.to/lastmile_qr_scan"}, "fusion_lon": 0.0, "bike_id": "85033a01cdb3bae9dfc8e06af9d1848e", "is_disabled": 0, "lat": 38.92255733333333, "is_reserved": 0, "type": "electric_scooter"}, {"fusion_lat": 0.0, "name": "45218aa69587dfa0135c867d1f26f033", "lon": -77.032807, "rental_uris": {"android": "https://dc.lft.to/lastmile_qr_scan", "ios": "https://dc.lft.to/lastmile_qr_scan"}, "fusion_lon": 0.0, "bike_id": "45218aa69587dfa0135c867d1f26f033", "is_disabled": 0, "lat": 38.909609333333336, "is_reserved": 0, "type": "electric_scooter"}, {"fusion_lat": 0.0, "name": "03474336bcd653c6b120c8f6e50a8be7", "lon": -77.041753, "rental_uris": {"android": "https://dc.lft.to/lastmile_qr_scan", "ios": "https://dc.lft.to/lastmile_qr_scan"}, "fusion_lon": 0.0, "bike_id": "03474336bcd653c6b120c8f6e50a8be7", "is_disabled": 0, "lat": 38.9186655, "is_reserved": 0, "type": "electric_scooter"}, {"fusion_lat": 0.0, "name": "4c340fb6c80b3f1182d12711d0383ca5", "lon": -76.99061916666666, "rental_uris": {"android": "https://dc.lft.to/lastmile_qr_scan", "ios": "https://dc.lft.to/lastmile_qr_scan"}, "fusion_lon": 0.0, "bike_id": "4c340fb6c80b3f1182d12711d0383ca5", "is_disabled": 0, "lat": 38.86372333333333, "is_reserved": 0, "type": "electric_scooter"}, {"fusion_lat": 0.0, "name": "837d3b256ada0f38d05f7a0b3eed6f72", "lon": -77.03213683333334, "rental_uris": {"android": "https://dc.lft.to/lastmile_qr_scan", "ios": "https://dc.lft.to/lastmile_qr_scan"}, "fusion_lon": 0.0, "bike_id": "837d3b256ada0f38d05f7a0b3eed6f72", "is_disabled": 0, "lat": 38.8921815, "is_reserved": 0, "type": "electric_scooter"}, {"fusion_lat": 0.0, "name": "16fbdae40a4e825a4c6c49b77603055c", "lon": -77.00680133333333, "rental_uris": {"android": "https://dc.lft.to/lastmile_qr_scan", "ios": "https://dc.lft.to/lastmile_qr_scan"}, "fusion_lon": 0.0, "bike_id": "16fbdae40a4e825a4c6c49b77603055c", "is_disabled": 0, "lat": 38.89997866666667, "is_reserved": 0, "type": "electric_scooter"}, {"fusion_lat": 0.0, "name": "64924db9132e0aa761d1eee58d5d505e", "lon": -77.03003933333333, "rental_uris": {"android": "https://dc.lft.to/lastmile_qr_scan", "ios": "https://dc.lft.to/lastmile_qr_scan"}, "fusion_lon": 0.0, "bike_id": "64924db9132e0aa761d1eee58d5d505e", "is_disabled": 0, "lat": 38.9170465, "is_reserved": 0, "type": "electric_scooter"}, {"fusion_lat": 0.0, "name": "2419a6835ff233c87ffe5b6e3de61457", "lon": -77.0368765, "rental_uris": {"android": "https://dc.lft.to/lastmile_qr_scan", "ios": "https://dc.lft.to/lastmile_qr_scan"}, "fusion_lon": 0.0, "bike_id": "2419a6835ff233c87ffe5b6e3de61457", "is_disabled": 0, "lat": 38.916812666666665, "is_reserved": 0, "type": "electric_scooter"}, {"fusion_lat": 0.0, "name": "ee513e9e48996f676ef3a75e10bd428e", "lon": -77.06111133333333, "rental_uris": {"android": "https://dc.lft.to/lastmile_qr_scan", "ios": "https://dc.lft.to/lastmile_qr_scan"}, "fusion_lon": 0.0, "bike_id": "ee513e9e48996f676ef3a75e10bd428e", "is_disabled": 0, "lat": 38.9035065, "is_reserved": 0, "type": "electric_scooter"}, {"fusion_lat": 0.0, "name": "b0166e6793b1b24c1086770aee31d357", "lon": -77.0153875, "rental_uris": {"android": "https://dc.lft.to/lastmile_qr_scan", "ios": "https://dc.lft.to/lastmile_qr_scan"}, "fusion_lon": 0.0, "bike_id": "b0166e6793b1b24c1086770aee31d357", "is_disabled": 0, "lat": 38.9411425, "is_reserved": 0, "type": "electric_scooter"}, {"fusion_lat": 0.0, "name": "4f93484789b3360c499c9c2afd1992a1", "lon": -77.03024433333333, "rental_uris": {"android": "https://dc.lft.to/lastmile_qr_scan", "ios": "https://dc.lft.to/lastmile_qr_scan"}, "fusion_lon": 0.0, "bike_id": "4f93484789b3360c499c9c2afd1992a1", "is_disabled": 0, "lat": 38.91799, "is_reserved": 0, "type": "electric_scooter"}, {"fusion_lat": 0.0, "name": "69067ccf8d7482fbac5e0ea2abdf3d62", "lon": -76.9978135, "rental_uris": {"android": "https://dc.lft.to/lastmile_qr_scan", "ios": "https://dc.lft.to/lastmile_qr_scan"}, "fusion_lon": 0.0, "bike_id": "69067ccf8d7482fbac5e0ea2abdf3d62", "is_disabled": 0, "lat": 38.844217666666665, "is_reserved": 0, "type": "electric_scooter"}, {"fusion_lat": 0.0, "name": "426a7733dd257daae5bb452151f5eb8f", "lon": -77.04143233333333, "rental_uris": {"android": "https://dc.lft.to/lastmile_qr_scan", "ios": "https://dc.lft.to/lastmile_qr_scan"}, "fusion_lon": 0.0, "bike_id": "426a7733dd257daae5bb452151f5eb8f", "is_disabled": 0, "lat": 38.92645133333333, "is_reserved": 0, "type": "electric_scooter"}, {"fusion_lat": 0.0, "name": "8f1dacb97667f84ce4e7ac139f82e855", "lon": -77.00576966666667, "rental_uris": {"android": "https://dc.lft.to/lastmile_qr_scan", "ios": "https://dc.lft.to/lastmile_qr_scan"}, "fusion_lon": 0.0, "bike_id": "8f1dacb97667f84ce4e7ac139f82e855", "is_disabled": 0, "lat": 38.8369945, "is_reserved": 0, "type": "electric_scooter"}, {"fusion_lat": 0.0, "name": "fa7cbfccd741c2a6805a0565a14048ff", "lon": -77.0076345, "rental_uris": {"android": "https://dc.lft.to/lastmile_qr_scan", "ios": "https://dc.lft.to/lastmile_qr_scan"}, "fusion_lon": 0.0, "bike_id": "fa7cbfccd741c2a6805a0565a14048ff", "is_disabled": 0, "lat": 38.90707733333333, "is_reserved": 0, "type": "electric_scooter"}, {"fusion_lat": 0.0, "name": "c94b18ab0ee21ef6e43ce17764986007", "lon": -77.02729633333334, "rental_uris": {"android": "https://dc.lft.to/lastmile_qr_scan", "ios": "https://dc.lft.to/lastmile_qr_scan"}, "fusion_lon": 0.0, "bike_id": "c94b18ab0ee21ef6e43ce17764986007", "is_disabled": 0, "lat": 38.9339665, "is_reserved": 0, "type": "electric_scooter"}, {"fusion_lat": 0.0, "name": "c54c8dd040587271b6b0bbe7dab02b62", "lon": -77.03594, "rental_uris": {"android": "https://dc.lft.to/lastmile_qr_scan", "ios": "https://dc.lft.to/lastmile_qr_scan"}, "fusion_lon": 0.0, "bike_id": "c54c8dd040587271b6b0bbe7dab02b62", "is_disabled": 0, "lat": 38.936756, "is_reserved": 0, "type": "electric_scooter"}, {"fusion_lat": 0.0, "name": "5d0c9ab467166005560b33f50a9e552d", "lon": -77.01761, "rental_uris": {"android": "https://dc.lft.to/lastmile_qr_scan", "ios": "https://dc.lft.to/lastmile_qr_scan"}, "fusion_lon": 0.0, "bike_id": "5d0c9ab467166005560b33f50a9e552d", "is_disabled": 0, "lat": 38.90244466666667, "is_reserved": 0, "type": "electric_scooter"}, {"fusion_lat": 0.0, "name": "91b89ea50393dd62fde399f4b05302e3", "lon": -77.062782, "rental_uris": {"android": "https://dc.lft.to/lastmile_qr_scan", "ios": "https://dc.lft.to/lastmile_qr_scan"}, "fusion_lon": 0.0, "bike_id": "91b89ea50393dd62fde399f4b05302e3", "is_disabled": 0, "lat": 38.905038833333336, "is_reserved": 0, "type": "electric_scooter"}, {"fusion_lat": 0.0, "name": "ab1bbcc114f045bb70f5840e6a2aaa69", "lon": -76.98490866666667, "rental_uris": {"android": "https://dc.lft.to/lastmile_qr_scan", "ios": "https://dc.lft.to/lastmile_qr_scan"}, "fusion_lon": 0.0, "bike_id": "ab1bbcc114f045bb70f5840e6a2aaa69", "is_disabled": 0, "lat": 38.9044085, "is_reserved": 0, "type": "electric_scooter"}, {"fusion_lat": 0.0, "name": "36e24575a28025dab24c0abcfc62f5d3", "lon": -77.00109233333333, "rental_uris": {"android": "https://dc.lft.to/lastmile_qr_scan", "ios": "https://dc.lft.to/lastmile_qr_scan"}, "fusion_lon": 0.0, "bike_id": "36e24575a28025dab24c0abcfc62f5d3", "is_disabled": 0, "lat": 38.90722133333333, "is_reserved": 0, "type": "electric_bike"}, {"fusion_lat": 0.0, "name": "604322ada6f02dfe27c70bde4bbabd16", "lon": -77.07228666666667, "rental_uris": {"android": "https://dc.lft.to/lastmile_qr_scan", "ios": "https://dc.lft.to/lastmile_qr_scan"}, "fusion_lon": 0.0, "bike_id": "604322ada6f02dfe27c70bde4bbabd16", "is_disabled": 0, "lat": 38.96811316666667, "is_reserved": 0, "type": "electric_bike"}, {"fusion_lat": 0.0, "name": "e4d51081e50aa381d82551ba99b26f2c", "lon": -77.04508383333334, "rental_uris": {"android": "https://dc.lft.to/lastmile_qr_scan", "ios": "https://dc.lft.to/lastmile_qr_scan"}, "fusion_lon": 0.0, "bike_id": "e4d51081e50aa381d82551ba99b26f2c", "is_disabled": 0, "lat": 38.907801166666665, "is_reserved": 0, "type": "electric_scooter"}, {"fusion_lat": 0.0, "name": "8fa2766c8c0207cc2a2acde186af62cf", "lon": -77.04245333333333, "rental_uris": {"android": "https://dc.lft.to/lastmile_qr_scan", "ios": "https://dc.lft.to/lastmile_qr_scan"}, "fusion_lon": 0.0, "bike_id": "8fa2766c8c0207cc2a2acde186af62cf", "is_disabled": 0, "lat": 38.92225166666667, "is_reserved": 0, "type": "electric_scooter"}, {"fusion_lat": 0.0, "name": "c6a2942b501a51df8864e9f45cba8256", "lon": -77.009295, "rental_uris": {"android": "https://dc.lft.to/lastmile_qr_scan", "ios": "https://dc.lft.to/lastmile_qr_scan"}, "fusion_lon": 0.0, "bike_id": "c6a2942b501a51df8864e9f45cba8256", "is_disabled": 0, "lat": 38.87448416666667, "is_reserved": 0, "type": "electric_scooter"}, {"fusion_lat": 0.0, "name": "f72e0660d62dd832715db6350d517efd", "lon": -77.01891716666667, "rental_uris": {"android": "https://dc.lft.to/lastmile_qr_scan", "ios": "https://dc.lft.to/lastmile_qr_scan"}, "fusion_lon": 0.0, "bike_id": "f72e0660d62dd832715db6350d517efd", "is_disabled": 0, "lat": 38.914564166666665, "is_reserved": 0, "type": "electric_scooter"}, {"fusion_lat": 0.0, "name": "b6dadd4cdfdedbdcbd97accd99f98db4", "lon": -77.065923, "rental_uris": {"android": "https://dc.lft.to/lastmile_qr_scan", "ios": "https://dc.lft.to/lastmile_qr_scan"}, "fusion_lon": 0.0, "bike_id": "b6dadd4cdfdedbdcbd97accd99f98db4", "is_disabled": 0, "lat": 38.912461666666665, "is_reserved": 0, "type": "electric_bike"}, {"fusion_lat": 0.0, "name": "da3c21f3a01ae4f5f88e07696e8ca6df", "lon": -76.96089466666666, "rental_uris": {"android": "https://dc.lft.to/lastmile_qr_scan", "ios": "https://dc.lft.to/lastmile_qr_scan"}, "fusion_lon": 0.0, "bike_id": "da3c21f3a01ae4f5f88e07696e8ca6df", "is_disabled": 0, "lat": 38.9186295, "is_reserved": 0, "type": "electric_bike"}, {"fusion_lat": 0.0, "name": "7d457b4bb2409a0e89abea68119a553f", "lon": -77.03211016666667, "rental_uris": {"android": "https://dc.lft.to/lastmile_qr_scan", "ios": "https://dc.lft.to/lastmile_qr_scan"}, "fusion_lon": 0.0, "bike_id": "7d457b4bb2409a0e89abea68119a553f", "is_disabled": 0, "lat": 38.917858333333335, "is_reserved": 0, "type": "electric_scooter"}, {"fusion_lat": 0.0, "name": "004e094283d61e2f7f191ad57a0ec2cc", "lon": -77.04667816666667, "rental_uris": {"android": "https://dc.lft.to/lastmile_qr_scan", "ios": "https://dc.lft.to/lastmile_qr_scan"}, "fusion_lon": 0.0, "bike_id": "004e094283d61e2f7f191ad57a0ec2cc", "is_disabled": 0, "lat": 38.9094105, "is_reserved": 0, "type": "electric_scooter"}, {"fusion_lat": 0.0, "name": "d03dfb82269c4396021f75a6e440b0d6", "lon": -77.0788255, "rental_uris": {"android": "https://dc.lft.to/lastmile_qr_scan", "ios": "https://dc.lft.to/lastmile_qr_scan"}, "fusion_lon": 0.0, "bike_id": "d03dfb82269c4396021f75a6e440b0d6", "is_disabled": 0, "lat": 38.94915916666667, "is_reserved": 0, "type": "electric_scooter"}, {"fusion_lat": 0.0, "name": "61c84d23b1945a9487281991fb31f0b0", "lon": -77.05570333333333, "rental_uris": {"android": "https://dc.lft.to/lastmile_qr_scan", "ios": "https://dc.lft.to/lastmile_qr_scan"}, "fusion_lon": 0.0, "bike_id": "61c84d23b1945a9487281991fb31f0b0", "is_disabled": 0, "lat": 38.8973095, "is_reserved": 0, "type": "electric_scooter"}, {"fusion_lat": 0.0, "name": "1425f6887be503969dd3c11483f0ff71", "lon": -76.9518685, "rental_uris": {"android": "https://dc.lft.to/lastmile_qr_scan", "ios": "https://dc.lft.to/lastmile_qr_scan"}, "fusion_lon": 0.0, "bike_id": "1425f6887be503969dd3c11483f0ff71", "is_disabled": 0, "lat": 38.891621, "is_reserved": 0, "type": "electric_scooter"}, {"fusion_lat": 0.0, "name": "a79f93ca9aa887c6258627c7c9d5cab5", "lon": -77.0380705, "rental_uris": {"android": "https://dc.lft.to/lastmile_qr_scan", "ios": "https://dc.lft.to/lastmile_qr_scan"}, "fusion_lon": 0.0, "bike_id": "a79f93ca9aa887c6258627c7c9d5cab5", "is_disabled": 0, "lat": 38.9310355, "is_reserved": 0, "type": "electric_scooter"}, {"fusion_lat": 0.0, "name": "37c3aad524bce8341f4896d292b49cf7", "lon": -77.02779883333334, "rental_uris": {"android": "https://dc.lft.to/lastmile_qr_scan", "ios": "https://dc.lft.to/lastmile_qr_scan"}, "fusion_lon": 0.0, "bike_id": "37c3aad524bce8341f4896d292b49cf7", "is_disabled": 0, "lat": 38.8922675, "is_reserved": 0, "type": "electric_scooter"}, {"fusion_lat": 0.0, "name": "a79a7d95678d1472644741731288276d", "lon": -77.04496816666666, "rental_uris": {"android": "https://dc.lft.to/lastmile_qr_scan", "ios": "https://dc.lft.to/lastmile_qr_scan"}, "fusion_lon": 0.0, "bike_id": "a79a7d95678d1472644741731288276d", "is_disabled": 0, "lat": 38.90108933333333, "is_reserved": 0, "type": "electric_scooter"}, {"fusion_lat": 0.0, "name": "a3f073fadb2d9a8bed050269c2dca8bb", "lon": -77.03207016666667, "rental_uris": {"android": "https://dc.lft.to/lastmile_qr_scan", "ios": "https://dc.lft.to/lastmile_qr_scan"}, "fusion_lon": 0.0, "bike_id": "a3f073fadb2d9a8bed050269c2dca8bb", "is_disabled": 0, "lat": 38.91047016666667, "is_reserved": 0, "type": "electric_scooter"}, {"fusion_lat": 0.0, "name": "76177fccb244c45d27f245dd3f0d29c0", "lon": -77.02296716666666, "rental_uris": {"android": "https://dc.lft.to/lastmile_qr_scan", "ios": "https://dc.lft.to/lastmile_qr_scan"}, "fusion_lon": 0.0, "bike_id": "76177fccb244c45d27f245dd3f0d29c0", "is_disabled": 0, "lat": 38.94473766666667, "is_reserved": 0, "type": "electric_bike"}, {"fusion_lat": 0.0, "name": "6e1a3d03157cefaeb2697a1842830677", "lon": -77.02622416666667, "rental_uris": {"android": "https://dc.lft.to/lastmile_qr_scan", "ios": "https://dc.lft.to/lastmile_qr_scan"}, "fusion_lon": 0.0, "bike_id": "6e1a3d03157cefaeb2697a1842830677", "is_disabled": 0, "lat": 38.933406833333336, "is_reserved": 0, "type": "electric_scooter"}, {"fusion_lat": 0.0, "name": "6a83af11ce50c1bc86c73e478a7aeac5", "lon": -77.03793716666667, "rental_uris": {"android": "https://dc.lft.to/lastmile_qr_scan", "ios": "https://dc.lft.to/lastmile_qr_scan"}, "fusion_lon": 0.0, "bike_id": "6a83af11ce50c1bc86c73e478a7aeac5", "is_disabled": 0, "lat": 38.925643, "is_reserved": 0, "type": "electric_scooter"}, {"fusion_lat": 0.0, "name": "917e59138ce0c33d0b981b1dbea99eac", "lon": -77.03186216666667, "rental_uris": {"android": "https://dc.lft.to/lastmile_qr_scan", "ios": "https://dc.lft.to/lastmile_qr_scan"}, "fusion_lon": 0.0, "bike_id": "917e59138ce0c33d0b981b1dbea99eac", "is_disabled": 0, "lat": 38.892208833333335, "is_reserved": 0, "type": "electric_scooter"}, {"fusion_lat": 0.0, "name": "1f01e53248194f6f7ee9d5eb4955060b", "lon": -76.986185, "rental_uris": {"android": "https://dc.lft.to/lastmile_qr_scan", "ios": "https://dc.lft.to/lastmile_qr_scan"}, "fusion_lon": 0.0, "bike_id": "1f01e53248194f6f7ee9d5eb4955060b", "is_disabled": 0, "lat": 38.939731, "is_reserved": 0, "type": "electric_bike"}, {"fusion_lat": 0.0, "name": "f2bfd30a2989bd93b84fdac84a167de3", "lon": -76.99145916666667, "rental_uris": {"android": "https://dc.lft.to/lastmile_qr_scan", "ios": "https://dc.lft.to/lastmile_qr_scan"}, "fusion_lon": 0.0, "bike_id": "f2bfd30a2989bd93b84fdac84a167de3", "is_disabled": 0, "lat": 38.885987166666666, "is_reserved": 0, "type": "electric_scooter"}, {"fusion_lat": 0.0, "name": "86e700bfa6a3f11e22d098e1a7156701", "lon": -76.9930385, "rental_uris": {"android": "https://dc.lft.to/lastmile_qr_scan", "ios": "https://dc.lft.to/lastmile_qr_scan"}, "fusion_lon": 0.0, "bike_id": "86e700bfa6a3f11e22d098e1a7156701", "is_disabled": 0, "lat": 38.857575, "is_reserved": 0, "type": "electric_scooter"}, {"fusion_lat": 0.0, "name": "ce64aa424e27cd81b90d98010fb5e79b", "lon": -77.02968316666667, "rental_uris": {"android": "https://dc.lft.to/lastmile_qr_scan", "ios": "https://dc.lft.to/lastmile_qr_scan"}, "fusion_lon": 0.0, "bike_id": "ce64aa424e27cd81b90d98010fb5e79b", "is_disabled": 0, "lat": 38.91673883333333, "is_reserved": 0, "type": "electric_scooter"}, {"fusion_lat": 0.0, "name": "517650d71bd8e306e44bfa60b257847f", "lon": -77.04135116666667, "rental_uris": {"android": "https://dc.lft.to/lastmile_qr_scan", "ios": "https://dc.lft.to/lastmile_qr_scan"}, "fusion_lon": 0.0, "bike_id": "517650d71bd8e306e44bfa60b257847f", "is_disabled": 0, "lat": 38.921395, "is_reserved": 0, "type": "electric_scooter"}, {"fusion_lat": 0.0, "name": "3350494777c757b03838bde40e92611d", "lon": -77.02212316666666, "rental_uris": {"android": "https://dc.lft.to/lastmile_qr_scan", "ios": "https://dc.lft.to/lastmile_qr_scan"}, "fusion_lon": 0.0, "bike_id": "3350494777c757b03838bde40e92611d", "is_disabled": 0, "lat": 38.924723, "is_reserved": 0, "type": "electric_scooter"}, {"fusion_lat": 0.0, "name": "c94c17df3e301d9ae802b78dd94bb2d9", "lon": -77.2453595, "rental_uris": {"android": "https://dc.lft.to/lastmile_qr_scan", "ios": "https://dc.lft.to/lastmile_qr_scan"}, "fusion_lon": 0.0, "bike_id": "c94c17df3e301d9ae802b78dd94bb2d9", "is_disabled": 0, "lat": 38.882426833333334, "is_reserved": 0, "type": "electric_bike"}, {"fusion_lat": 0.0, "name": "be0a170d5a67c13a266810a563bff934", "lon": -77.032505, "rental_uris": {"android": "https://dc.lft.to/lastmile_qr_scan", "ios": "https://dc.lft.to/lastmile_qr_scan"}, "fusion_lon": 0.0, "bike_id": "be0a170d5a67c13a266810a563bff934", "is_disabled": 0, "lat": 38.9210585, "is_reserved": 0, "type": "electric_scooter"}, {"fusion_lat": 0.0, "name": "02127f9ceca9b532c38fd06ba5d5bdeb", "lon": -77.04426716666667, "rental_uris": {"android": "https://dc.lft.to/lastmile_qr_scan", "ios": "https://dc.lft.to/lastmile_qr_scan"}, "fusion_lon": 0.0, "bike_id": "02127f9ceca9b532c38fd06ba5d5bdeb", "is_disabled": 0, "lat": 38.90941083333333, "is_reserved": 0, "type": "electric_scooter"}, {"fusion_lat": 0.0, "name": "1f12410420bd10e90451f1d02239c918", "lon": -77.041826, "rental_uris": {"android": "https://dc.lft.to/lastmile_qr_scan", "ios": "https://dc.lft.to/lastmile_qr_scan"}, "fusion_lon": 0.0, "bike_id": "1f12410420bd10e90451f1d02239c918", "is_disabled": 0, "lat": 38.91856216666667, "is_reserved": 0, "type": "electric_scooter"}, {"fusion_lat": 0.0, "name": "add4e96c460d3d4432436fcab4f578e7", "lon": -77.03981716666667, "rental_uris": {"android": "https://dc.lft.to/lastmile_qr_scan", "ios": "https://dc.lft.to/lastmile_qr_scan"}, "fusion_lon": 0.0, "bike_id": "add4e96c460d3d4432436fcab4f578e7", "is_disabled": 0, "lat": 38.90464716666666, "is_reserved": 0, "type": "electric_scooter"}, {"fusion_lat": 0.0, "name": "3b4f2b1220d84f6cf83b78afcb7e990a", "lon": -77.0256605, "rental_uris": {"android": "https://dc.lft.to/lastmile_qr_scan", "ios": "https://dc.lft.to/lastmile_qr_scan"}, "fusion_lon": 0.0, "bike_id": "3b4f2b1220d84f6cf83b78afcb7e990a", "is_disabled": 0, "lat": 38.93860733333333, "is_reserved": 0, "type": "electric_scooter"}, {"fusion_lat": 0.0, "name": "d365a349a5c6366d8cd99a2e87735a4b", "lon": -77.0511285, "rental_uris": {"android": "https://dc.lft.to/lastmile_qr_scan", "ios": "https://dc.lft.to/lastmile_qr_scan"}, "fusion_lon": 0.0, "bike_id": "d365a349a5c6366d8cd99a2e87735a4b", "is_disabled": 0, "lat": 38.923635166666664, "is_reserved": 0, "type": "electric_scooter"}, {"fusion_lat": 0.0, "name": "a79dd0e4421b5dc89170874d9a247f65", "lon": -77.02936916666667, "rental_uris": {"android": "https://dc.lft.to/lastmile_qr_scan", "ios": "https://dc.lft.to/lastmile_qr_scan"}, "fusion_lon": 0.0, "bike_id": "a79dd0e4421b5dc89170874d9a247f65", "is_disabled": 0, "lat": 38.93981133333333, "is_reserved": 0, "type": "electric_scooter"}, {"fusion_lat": 0.0, "name": "a8eb9074ce3237aaf0150a811a3fe9db", "lon": -77.04584033333333, "rental_uris": {"android": "https://dc.lft.to/lastmile_qr_scan", "ios": "https://dc.lft.to/lastmile_qr_scan"}, "fusion_lon": 0.0, "bike_id": "a8eb9074ce3237aaf0150a811a3fe9db", "is_disabled": 0, "lat": 38.90231166666667, "is_reserved": 0, "type": "electric_scooter"}, {"fusion_lat": 0.0, "name": "809a5a05e3cef88c763b075fd6b2d0bd", "lon": -77.1310385, "rental_uris": {"android": "https://dc.lft.to/lastmile_qr_scan", "ios": "https://dc.lft.to/lastmile_qr_scan"}, "fusion_lon": 0.0, "bike_id": "809a5a05e3cef88c763b075fd6b2d0bd", "is_disabled": 0, "lat": 39.02431383333333, "is_reserved": 0, "type": "electric_bike"}, {"fusion_lat": 0.0, "name": "69844c75978faa7ac62f205571352017", "lon": -77.02485366666667, "rental_uris": {"android": "https://dc.lft.to/lastmile_qr_scan", "ios": "https://dc.lft.to/lastmile_qr_scan"}, "fusion_lon": 0.0, "bike_id": "69844c75978faa7ac62f205571352017", "is_disabled": 0, "lat": 38.93901433333333, "is_reserved": 0, "type": "electric_scooter"}, {"fusion_lat": 0.0, "name": "2dd0fb180ff20f92bd0c5aa2413c63a4", "lon": -77.038432, "rental_uris": {"android": "https://dc.lft.to/lastmile_qr_scan", "ios": "https://dc.lft.to/lastmile_qr_scan"}, "fusion_lon": 0.0, "bike_id": "2dd0fb180ff20f92bd0c5aa2413c63a4", "is_disabled": 0, "lat": 38.931851, "is_reserved": 0, "type": "electric_scooter"}, {"fusion_lat": 0.0, "name": "9b4b8b914aec3960eafceb03235f7bbc", "lon": -77.05241366666667, "rental_uris": {"android": "https://dc.lft.to/lastmile_qr_scan", "ios": "https://dc.lft.to/lastmile_qr_scan"}, "fusion_lon": 0.0, "bike_id": "9b4b8b914aec3960eafceb03235f7bbc", "is_disabled": 0, "lat": 38.924603, "is_reserved": 0, "type": "electric_scooter"}, {"fusion_lat": 0.0, "name": "b64ca009965ef205ad137f2090d943f7", "lon": -77.03893716666667, "rental_uris": {"android": "https://dc.lft.to/lastmile_qr_scan", "ios": "https://dc.lft.to/lastmile_qr_scan"}, "fusion_lon": 0.0, "bike_id": "b64ca009965ef205ad137f2090d943f7", "is_disabled": 0, "lat": 38.904637, "is_reserved": 0, "type": "electric_scooter"}, {"fusion_lat": 0.0, "name": "76d84596d4c2416be30565caea4e9158", "lon": -77.03183533333333, "rental_uris": {"android": "https://dc.lft.to/lastmile_qr_scan", "ios": "https://dc.lft.to/lastmile_qr_scan"}, "fusion_lon": 0.0, "bike_id": "76d84596d4c2416be30565caea4e9158", "is_disabled": 0, "lat": 38.89222683333333, "is_reserved": 0, "type": "electric_scooter"}, {"fusion_lat": 0.0, "name": "982be2213a13b1e313120ae68469d8a2", "lon": -76.93730216666667, "rental_uris": {"android": "https://dc.lft.to/lastmile_qr_scan", "ios": "https://dc.lft.to/lastmile_qr_scan"}, "fusion_lon": 0.0, "bike_id": "982be2213a13b1e313120ae68469d8a2", "is_disabled": 0, "lat": 38.8902105, "is_reserved": 0, "type": "electric_scooter"}, {"fusion_lat": 0.0, "name": "3f6b4857016a9918cd485826f2806928", "lon": -77.00933416666666, "rental_uris": {"android": "https://dc.lft.to/lastmile_qr_scan", "ios": "https://dc.lft.to/lastmile_qr_scan"}, "fusion_lon": 0.0, "bike_id": "3f6b4857016a9918cd485826f2806928", "is_disabled": 0, "lat": 38.89655033333333, "is_reserved": 0, "type": "electric_scooter"}, {"fusion_lat": 0.0, "name": "2c747b3aa167cef84476756253a9211f", "lon": -77.01949716666667, "rental_uris": {"android": "https://dc.lft.to/lastmile_qr_scan", "ios": "https://dc.lft.to/lastmile_qr_scan"}, "fusion_lon": 0.0, "bike_id": "2c747b3aa167cef84476756253a9211f", "is_disabled": 0, "lat": 38.92253133333333, "is_reserved": 0, "type": "electric_scooter"}, {"fusion_lat": 0.0, "name": "9afc57364c1374744ac8a4ba8312e398", "lon": -77.02962683333334, "rental_uris": {"android": "https://dc.lft.to/lastmile_qr_scan", "ios": "https://dc.lft.to/lastmile_qr_scan"}, "fusion_lon": 0.0, "bike_id": "9afc57364c1374744ac8a4ba8312e398", "is_disabled": 0, "lat": 38.922507333333336, "is_reserved": 0, "type": "electric_scooter"}, {"fusion_lat": 0.0, "name": "d287546eae6789ec1a85009ab281dd94", "lon": -76.9949825, "rental_uris": {"android": "https://dc.lft.to/lastmile_qr_scan", "ios": "https://dc.lft.to/lastmile_qr_scan"}, "fusion_lon": 0.0, "bike_id": "d287546eae6789ec1a85009ab281dd94", "is_disabled": 0, "lat": 38.862447333333336, "is_reserved": 0, "type": "electric_scooter"}, {"fusion_lat": 0.0, "name": "b09db8a50a9b89d7e8ec0c760622f5f5", "lon": -77.0734065, "rental_uris": {"android": "https://dc.lft.to/lastmile_qr_scan", "ios": "https://dc.lft.to/lastmile_qr_scan"}, "fusion_lon": 0.0, "bike_id": "b09db8a50a9b89d7e8ec0c760622f5f5", "is_disabled": 0, "lat": 38.92733883333333, "is_reserved": 0, "type": "electric_scooter"}, {"fusion_lat": 0.0, "name": "7525c6fbf277b138782976ddc688983e", "lon": -76.98713533333333, "rental_uris": {"android": "https://dc.lft.to/lastmile_qr_scan", "ios": "https://dc.lft.to/lastmile_qr_scan"}, "fusion_lon": 0.0, "bike_id": "7525c6fbf277b138782976ddc688983e", "is_disabled": 0, "lat": 38.86699566666667, "is_reserved": 0, "type": "electric_scooter"}, {"fusion_lat": 0.0, "name": "702da199042e47c0fb4a836987a7d5b1", "lon": -77.01134233333333, "rental_uris": {"android": "https://dc.lft.to/lastmile_qr_scan", "ios": "https://dc.lft.to/lastmile_qr_scan"}, "fusion_lon": 0.0, "bike_id": "702da199042e47c0fb4a836987a7d5b1", "is_disabled": 0, "lat": 38.880447, "is_reserved": 0, "type": "electric_bike"}, {"fusion_lat": 0.0, "name": "76930db6dc64d85e627c8332d1fd8a17", "lon": -76.98874916666666, "rental_uris": {"android": "https://dc.lft.to/lastmile_qr_scan", "ios": "https://dc.lft.to/lastmile_qr_scan"}, "fusion_lon": 0.0, "bike_id": "76930db6dc64d85e627c8332d1fd8a17", "is_disabled": 0, "lat": 38.86659866666667, "is_reserved": 0, "type": "electric_scooter"}, {"fusion_lat": 0.0, "name": "d09eafbbc4e4f1cadafbd7d31a36152c", "lon": -76.94986466666667, "rental_uris": {"android": "https://dc.lft.to/lastmile_qr_scan", "ios": "https://dc.lft.to/lastmile_qr_scan"}, "fusion_lon": 0.0, "bike_id": "d09eafbbc4e4f1cadafbd7d31a36152c", "is_disabled": 0, "lat": 38.893665, "is_reserved": 0, "type": "electric_scooter"}, {"fusion_lat": 0.0, "name": "057c7e882b064d2468ba5803c1ae9891", "lon": -77.03258033333333, "rental_uris": {"android": "https://dc.lft.to/lastmile_qr_scan", "ios": "https://dc.lft.to/lastmile_qr_scan"}, "fusion_lon": 0.0, "bike_id": "057c7e882b064d2468ba5803c1ae9891", "is_disabled": 0, "lat": 38.9104275, "is_reserved": 0, "type": "electric_scooter"}, {"fusion_lat": 0.0, "name": "9589f93b1b666d84a75398ff14521dfb", "lon": -76.93365483333334, "rental_uris": {"android": "https://dc.lft.to/lastmile_qr_scan", "ios": "https://dc.lft.to/lastmile_qr_scan"}, "fusion_lon": 0.0, "bike_id": "9589f93b1b666d84a75398ff14521dfb", "is_disabled": 0, "lat": 38.8991435, "is_reserved": 0, "type": "electric_scooter"}, {"fusion_lat": 0.0, "name": "a426508379557f00588c6a32266c8176", "lon": -77.03306383333333, "rental_uris": {"android": "https://dc.lft.to/lastmile_qr_scan", "ios": "https://dc.lft.to/lastmile_qr_scan"}, "fusion_lon": 0.0, "bike_id": "a426508379557f00588c6a32266c8176", "is_disabled": 0, "lat": 38.926487333333334, "is_reserved": 0, "type": "electric_scooter"}, {"fusion_lat": 0.0, "name": "96063ae20dff241ba3af8aa34eb3a79d", "lon": -77.02768983333333, "rental_uris": {"android": "https://dc.lft.to/lastmile_qr_scan", "ios": "https://dc.lft.to/lastmile_qr_scan"}, "fusion_lon": 0.0, "bike_id": "96063ae20dff241ba3af8aa34eb3a79d", "is_disabled": 0, "lat": 38.934595333333334, "is_reserved": 0, "type": "electric_scooter"}, {"fusion_lat": 0.0, "name": "bf98727419b5e329e3d31fda8520d834", "lon": -77.03219566666667, "rental_uris": {"android": "https://dc.lft.to/lastmile_qr_scan", "ios": "https://dc.lft.to/lastmile_qr_scan"}, "fusion_lon": 0.0, "bike_id": "bf98727419b5e329e3d31fda8520d834", "is_disabled": 0, "lat": 38.8928575, "is_reserved": 0, "type": "electric_scooter"}, {"fusion_lat": 0.0, "name": "4fa3f9610bfcfe25f10526dde1be1162", "lon": -77.03413083333334, "rental_uris": {"android": "https://dc.lft.to/lastmile_qr_scan", "ios": "https://dc.lft.to/lastmile_qr_scan"}, "fusion_lon": 0.0, "bike_id": "4fa3f9610bfcfe25f10526dde1be1162", "is_disabled": 0, "lat": 38.917077, "is_reserved": 0, "type": "electric_scooter"}, {"fusion_lat": 0.0, "name": "5ebad56a6a30b81d14e2ca4b735f2aff", "lon": -77.02208533333334, "rental_uris": {"android": "https://dc.lft.to/lastmile_qr_scan", "ios": "https://dc.lft.to/lastmile_qr_scan"}, "fusion_lon": 0.0, "bike_id": "5ebad56a6a30b81d14e2ca4b735f2aff", "is_disabled": 0, "lat": 38.887126333333335, "is_reserved": 0, "type": "electric_scooter"}, {"fusion_lat": 0.0, "name": "79450820f1c965ed95a72a809813d71e", "lon": -76.98308366666667, "rental_uris": {"android": "https://dc.lft.to/lastmile_qr_scan", "ios": "https://dc.lft.to/lastmile_qr_scan"}, "fusion_lon": 0.0, "bike_id": "79450820f1c965ed95a72a809813d71e", "is_disabled": 0, "lat": 38.946694, "is_reserved": 0, "type": "electric_bike"}, {"fusion_lat": 0.0, "name": "6ad984c3ccc8efe8d05ed87a35cde346", "lon": -77.035022, "rental_uris": {"android": "https://dc.lft.to/lastmile_qr_scan", "ios": "https://dc.lft.to/lastmile_qr_scan"}, "fusion_lon": 0.0, "bike_id": "6ad984c3ccc8efe8d05ed87a35cde346", "is_disabled": 0, "lat": 38.9118425, "is_reserved": 0, "type": "electric_scooter"}, {"fusion_lat": 0.0, "name": "e8f9cf077489bf1d59d0ab673f0a8089", "lon": -76.9854205, "rental_uris": {"android": "https://dc.lft.to/lastmile_qr_scan", "ios": "https://dc.lft.to/lastmile_qr_scan"}, "fusion_lon": 0.0, "bike_id": "e8f9cf077489bf1d59d0ab673f0a8089", "is_disabled": 0, "lat": 38.866928, "is_reserved": 0, "type": "electric_scooter"}, {"fusion_lat": 0.0, "name": "bb5d0c3c4230b1c04ce862c8c2b03563", "lon": -77.0351065, "rental_uris": {"android": "https://dc.lft.to/lastmile_qr_scan", "ios": "https://dc.lft.to/lastmile_qr_scan"}, "fusion_lon": 0.0, "bike_id": "bb5d0c3c4230b1c04ce862c8c2b03563", "is_disabled": 0, "lat": 38.921446333333336, "is_reserved": 0, "type": "electric_scooter"}, {"fusion_lat": 0.0, "name": "c1ea1a6e938afb06d90dfeee03641096", "lon": -77.10133716666667, "rental_uris": {"android": "https://dc.lft.to/lastmile_qr_scan", "ios": "https://dc.lft.to/lastmile_qr_scan"}, "fusion_lon": 0.0, "bike_id": "c1ea1a6e938afb06d90dfeee03641096", "is_disabled": 0, "lat": 38.852016666666664, "is_reserved": 0, "type": "electric_bike"}, {"fusion_lat": 0.0, "name": "4cb713f584347bfa4fad6fea27093db2", "lon": -76.93193266666667, "rental_uris": {"android": "https://dc.lft.to/lastmile_qr_scan", "ios": "https://dc.lft.to/lastmile_qr_scan"}, "fusion_lon": 0.0, "bike_id": "4cb713f584347bfa4fad6fea27093db2", "is_disabled": 0, "lat": 38.8987955, "is_reserved": 0, "type": "electric_scooter"}, {"fusion_lat": 0.0, "name": "45387abe2f7727da2c3be8dee4e6dfdc", "lon": -77.05003866666667, "rental_uris": {"android": "https://dc.lft.to/lastmile_qr_scan", "ios": "https://dc.lft.to/lastmile_qr_scan"}, "fusion_lon": 0.0, "bike_id": "45387abe2f7727da2c3be8dee4e6dfdc", "is_disabled": 0, "lat": 38.904095166666664, "is_reserved": 0, "type": "electric_scooter"}, {"fusion_lat": 0.0, "name": "ae3d85662250b00f32415e47fa21c762", "lon": -77.01959266666667, "rental_uris": {"android": "https://dc.lft.to/lastmile_qr_scan", "ios": "https://dc.lft.to/lastmile_qr_scan"}, "fusion_lon": 0.0, "bike_id": "ae3d85662250b00f32415e47fa21c762", "is_disabled": 0, "lat": 38.886110333333335, "is_reserved": 0, "type": "electric_scooter"}, {"fusion_lat": 0.0, "name": "ef3a304930509d37c0dc933a87aafe4b", "lon": -77.04415933333334, "rental_uris": {"android": "https://dc.lft.to/lastmile_qr_scan", "ios": "https://dc.lft.to/lastmile_qr_scan"}, "fusion_lon": 0.0, "bike_id": "ef3a304930509d37c0dc933a87aafe4b", "is_disabled": 0, "lat": 38.91128916666667, "is_reserved": 0, "type": "electric_scooter"}, {"fusion_lat": 0.0, "name": "b51f3789eec9190760ada1f09c57cb88", "lon": -76.99004116666667, "rental_uris": {"android": "https://dc.lft.to/lastmile_qr_scan", "ios": "https://dc.lft.to/lastmile_qr_scan"}, "fusion_lon": 0.0, "bike_id": "b51f3789eec9190760ada1f09c57cb88", "is_disabled": 0, "lat": 38.865041833333336, "is_reserved": 0, "type": "electric_scooter"}, {"fusion_lat": 0.0, "name": "b5c5a3249250ef7525903a72f304047d", "lon": -77.02708966666667, "rental_uris": {"android": "https://dc.lft.to/lastmile_qr_scan", "ios": "https://dc.lft.to/lastmile_qr_scan"}, "fusion_lon": 0.0, "bike_id": "b5c5a3249250ef7525903a72f304047d", "is_disabled": 0, "lat": 38.949863666666666, "is_reserved": 0, "type": "electric_scooter"}, {"fusion_lat": 0.0, "name": "d9b5075826c1d3d4fa2d5ce7e67e37c4", "lon": -77.04876833333333, "rental_uris": {"android": "https://dc.lft.to/lastmile_qr_scan", "ios": "https://dc.lft.to/lastmile_qr_scan"}, "fusion_lon": 0.0, "bike_id": "d9b5075826c1d3d4fa2d5ce7e67e37c4", "is_disabled": 0, "lat": 38.89230716666667, "is_reserved": 0, "type": "electric_scooter"}, {"fusion_lat": 0.0, "name": "85e930624af754903c3fafc74cbd1b62", "lon": -76.94887483333333, "rental_uris": {"android": "https://dc.lft.to/lastmile_qr_scan", "ios": "https://dc.lft.to/lastmile_qr_scan"}, "fusion_lon": 0.0, "bike_id": "85e930624af754903c3fafc74cbd1b62", "is_disabled": 0, "lat": 38.895110833333334, "is_reserved": 0, "type": "electric_scooter"}, {"fusion_lat": 0.0, "name": "6d231a332153949ad0a5c42b7e814ac3", "lon": -77.05896333333334, "rental_uris": {"android": "https://dc.lft.to/lastmile_qr_scan", "ios": "https://dc.lft.to/lastmile_qr_scan"}, "fusion_lon": 0.0, "bike_id": "6d231a332153949ad0a5c42b7e814ac3", "is_disabled": 0, "lat": 38.9361125, "is_reserved": 0, "type": "electric_scooter"}, {"fusion_lat": 0.0, "name": "e8cce14cd3fff37368e438a09dfa6cac", "lon": -77.01197266666667, "rental_uris": {"android": "https://dc.lft.to/lastmile_qr_scan", "ios": "https://dc.lft.to/lastmile_qr_scan"}, "fusion_lon": 0.0, "bike_id": "e8cce14cd3fff37368e438a09dfa6cac", "is_disabled": 0, "lat": 38.915512, "is_reserved": 0, "type": "electric_scooter"}, {"fusion_lat": 0.0, "name": "143ba39c29851edec61faa74136c8d9a", "lon": -77.02389766666667, "rental_uris": {"android": "https://dc.lft.to/lastmile_qr_scan", "ios": "https://dc.lft.to/lastmile_qr_scan"}, "fusion_lon": 0.0, "bike_id": "143ba39c29851edec61faa74136c8d9a", "is_disabled": 0, "lat": 38.919568166666664, "is_reserved": 0, "type": "electric_scooter"}, {"fusion_lat": 0.0, "name": "8b00fa10e8fa140d1f55ee63d46101c2", "lon": -77.007138, "rental_uris": {"android": "https://dc.lft.to/lastmile_qr_scan", "ios": "https://dc.lft.to/lastmile_qr_scan"}, "fusion_lon": 0.0, "bike_id": "8b00fa10e8fa140d1f55ee63d46101c2", "is_disabled": 0, "lat": 38.95761, "is_reserved": 0, "type": "electric_bike"}, {"fusion_lat": 0.0, "name": "2cd73b596d1c030219dea27b7b7cdb42", "lon": -77.0395795, "rental_uris": {"android": "https://dc.lft.to/lastmile_qr_scan", "ios": "https://dc.lft.to/lastmile_qr_scan"}, "fusion_lon": 0.0, "bike_id": "2cd73b596d1c030219dea27b7b7cdb42", "is_disabled": 0, "lat": 38.892394833333334, "is_reserved": 0, "type": "electric_scooter"}, {"fusion_lat": 0.0, "name": "fb3152e96809d0b81ba5d39d1ed1adf9", "lon": -77.02255166666667, "rental_uris": {"android": "https://dc.lft.to/lastmile_qr_scan", "ios": "https://dc.lft.to/lastmile_qr_scan"}, "fusion_lon": 0.0, "bike_id": "fb3152e96809d0b81ba5d39d1ed1adf9", "is_disabled": 0, "lat": 38.92732633333333, "is_reserved": 0, "type": "electric_scooter"}, {"fusion_lat": 0.0, "name": "03dbd52e3dc6e5cc75b1af7eb6ae3af1", "lon": -77.02276666666667, "rental_uris": {"android": "https://dc.lft.to/lastmile_qr_scan", "ios": "https://dc.lft.to/lastmile_qr_scan"}, "fusion_lon": 0.0, "bike_id": "03dbd52e3dc6e5cc75b1af7eb6ae3af1", "is_disabled": 0, "lat": 38.92663683333333, "is_reserved": 0, "type": "electric_scooter"}, {"fusion_lat": 0.0, "name": "8ec97a4adc87409678631927ef2d585d", "lon": -77.10841383333333, "rental_uris": {"android": "https://dc.lft.to/lastmile_qr_scan", "ios": "https://dc.lft.to/lastmile_qr_scan"}, "fusion_lon": 0.0, "bike_id": "8ec97a4adc87409678631927ef2d585d", "is_disabled": 0, "lat": 38.812023333333336, "is_reserved": 0, "type": "electric_bike"}, {"fusion_lat": 0.0, "name": "04f702e4ee2728f7d691322f89101d9a", "lon": -76.92917133333333, "rental_uris": {"android": "https://dc.lft.to/lastmile_qr_scan", "ios": "https://dc.lft.to/lastmile_qr_scan"}, "fusion_lon": 0.0, "bike_id": "04f702e4ee2728f7d691322f89101d9a", "is_disabled": 0, "lat": 38.89292866666667, "is_reserved": 0, "type": "electric_scooter"}, {"fusion_lat": 0.0, "name": "b514ee2936abe0746e47e580b1074197", "lon": -76.985682, "rental_uris": {"android": "https://dc.lft.to/lastmile_qr_scan", "ios": "https://dc.lft.to/lastmile_qr_scan"}, "fusion_lon": 0.0, "bike_id": "b514ee2936abe0746e47e580b1074197", "is_disabled": 0, "lat": 38.909277833333334, "is_reserved": 0, "type": "electric_scooter"}, {"fusion_lat": 0.0, "name": "381decbf600b66c46cf6f6c9a1e0c7ba", "lon": -77.03299916666667, "rental_uris": {"android": "https://dc.lft.to/lastmile_qr_scan", "ios": "https://dc.lft.to/lastmile_qr_scan"}, "fusion_lon": 0.0, "bike_id": "381decbf600b66c46cf6f6c9a1e0c7ba", "is_disabled": 0, "lat": 38.89808333333333, "is_reserved": 0, "type": "electric_scooter"}, {"fusion_lat": 0.0, "name": "8b5cc294375d9ab5c4cb7b0f8be6fc8d", "lon": -77.02802416666667, "rental_uris": {"android": "https://dc.lft.to/lastmile_qr_scan", "ios": "https://dc.lft.to/lastmile_qr_scan"}, "fusion_lon": 0.0, "bike_id": "8b5cc294375d9ab5c4cb7b0f8be6fc8d", "is_disabled": 0, "lat": 38.9168275, "is_reserved": 0, "type": "electric_scooter"}, {"fusion_lat": 0.0, "name": "bafa43f5d262718dba9534cfe7fe935c", "lon": -77.00919733333333, "rental_uris": {"android": "https://dc.lft.to/lastmile_qr_scan", "ios": "https://dc.lft.to/lastmile_qr_scan"}, "fusion_lon": 0.0, "bike_id": "bafa43f5d262718dba9534cfe7fe935c", "is_disabled": 0, "lat": 38.895505666666665, "is_reserved": 0, "type": "electric_scooter"}, {"fusion_lat": 0.0, "name": "e24319f021c4f27b599b6356954c519c", "lon": -76.98900633333334, "rental_uris": {"android": "https://dc.lft.to/lastmile_qr_scan", "ios": "https://dc.lft.to/lastmile_qr_scan"}, "fusion_lon": 0.0, "bike_id": "e24319f021c4f27b599b6356954c519c", "is_disabled": 0, "lat": 38.866634, "is_reserved": 0, "type": "electric_scooter"}, {"fusion_lat": 0.0, "name": "50c30f366dcbdc60658f3e0fd681d7fc", "lon": -77.04183166666667, "rental_uris": {"android": "https://dc.lft.to/lastmile_qr_scan", "ios": "https://dc.lft.to/lastmile_qr_scan"}, "fusion_lon": 0.0, "bike_id": "50c30f366dcbdc60658f3e0fd681d7fc", "is_disabled": 0, "lat": 38.91934783333333, "is_reserved": 0, "type": "electric_scooter"}, {"fusion_lat": 0.0, "name": "c0bf915800162b88dafe399703c1ba69", "lon": -77.04795933333334, "rental_uris": {"android": "https://dc.lft.to/lastmile_qr_scan", "ios": "https://dc.lft.to/lastmile_qr_scan"}, "fusion_lon": 0.0, "bike_id": "c0bf915800162b88dafe399703c1ba69", "is_disabled": 0, "lat": 38.899562833333334, "is_reserved": 0, "type": "electric_scooter"}, {"fusion_lat": 0.0, "name": "a247c4e45c83f4c46cd7aca38de0d294", "lon": -76.99008016666667, "rental_uris": {"android": "https://dc.lft.to/lastmile_qr_scan", "ios": "https://dc.lft.to/lastmile_qr_scan"}, "fusion_lon": 0.0, "bike_id": "a247c4e45c83f4c46cd7aca38de0d294", "is_disabled": 0, "lat": 38.865013, "is_reserved": 0, "type": "electric_scooter"}, {"fusion_lat": 0.0, "name": "62dbedb64d180f852bdd6e6f89c05f32", "lon": -77.02218716666667, "rental_uris": {"android": "https://dc.lft.to/lastmile_qr_scan", "ios": "https://dc.lft.to/lastmile_qr_scan"}, "fusion_lon": 0.0, "bike_id": "62dbedb64d180f852bdd6e6f89c05f32", "is_disabled": 0, "lat": 38.893577, "is_reserved": 0, "type": "electric_scooter"}, {"fusion_lat": 0.0, "name": "e55657ce75d1273615e9cba2ff5bb695", "lon": -77.04284183333333, "rental_uris": {"android": "https://dc.lft.to/lastmile_qr_scan", "ios": "https://dc.lft.to/lastmile_qr_scan"}, "fusion_lon": 0.0, "bike_id": "e55657ce75d1273615e9cba2ff5bb695", "is_disabled": 0, "lat": 38.91339133333334, "is_reserved": 0, "type": "electric_scooter"}, {"fusion_lat": 0.0, "name": "9cf0371a0b1b4a8a7733aa20d7837e1c", "lon": -77.03444133333333, "rental_uris": {"android": "https://dc.lft.to/lastmile_qr_scan", "ios": "https://dc.lft.to/lastmile_qr_scan"}, "fusion_lon": 0.0, "bike_id": "9cf0371a0b1b4a8a7733aa20d7837e1c", "is_disabled": 0, "lat": 38.918245, "is_reserved": 0, "type": "electric_scooter"}, {"fusion_lat": 0.0, "name": "af3c4acfd30df3482c26bab67b6ce613", "lon": -77.03292, "rental_uris": {"android": "https://dc.lft.to/lastmile_qr_scan", "ios": "https://dc.lft.to/lastmile_qr_scan"}, "fusion_lon": 0.0, "bike_id": "af3c4acfd30df3482c26bab67b6ce613", "is_disabled": 0, "lat": 38.9234625, "is_reserved": 0, "type": "electric_scooter"}, {"fusion_lat": 0.0, "name": "3c8fc481b8ec762b063f870fa3342d6f", "lon": -77.03175466666667, "rental_uris": {"android": "https://dc.lft.to/lastmile_qr_scan", "ios": "https://dc.lft.to/lastmile_qr_scan"}, "fusion_lon": 0.0, "bike_id": "3c8fc481b8ec762b063f870fa3342d6f", "is_disabled": 0, "lat": 38.91420133333333, "is_reserved": 0, "type": "electric_scooter"}, {"fusion_lat": 0.0, "name": "128884c79a0b2b120fbdef143eda00b0", "lon": -77.03555516666667, "rental_uris": {"android": "https://dc.lft.to/lastmile_qr_scan", "ios": "https://dc.lft.to/lastmile_qr_scan"}, "fusion_lon": 0.0, "bike_id": "128884c79a0b2b120fbdef143eda00b0", "is_disabled": 0, "lat": 38.9241205, "is_reserved": 0, "type": "electric_scooter"}, {"fusion_lat": 0.0, "name": "6c1dca081706906b345359a89c54f836", "lon": -77.0122635, "rental_uris": {"android": "https://dc.lft.to/lastmile_qr_scan", "ios": "https://dc.lft.to/lastmile_qr_scan"}, "fusion_lon": 0.0, "bike_id": "6c1dca081706906b345359a89c54f836", "is_disabled": 0, "lat": 38.914978166666664, "is_reserved": 0, "type": "electric_scooter"}, {"fusion_lat": 0.0, "name": "eb86650fce71420df95e856c071e2271", "lon": -77.02711633333334, "rental_uris": {"android": "https://dc.lft.to/lastmile_qr_scan", "ios": "https://dc.lft.to/lastmile_qr_scan"}, "fusion_lon": 0.0, "bike_id": "eb86650fce71420df95e856c071e2271", "is_disabled": 0, "lat": 38.909061666666666, "is_reserved": 0, "type": "electric_scooter"}, {"fusion_lat": 0.0, "name": "a014b0fbc8c6694c02562b963d5628b2", "lon": -77.044204, "rental_uris": {"android": "https://dc.lft.to/lastmile_qr_scan", "ios": "https://dc.lft.to/lastmile_qr_scan"}, "fusion_lon": 0.0, "bike_id": "a014b0fbc8c6694c02562b963d5628b2", "is_disabled": 0, "lat": 38.894055, "is_reserved": 0, "type": "electric_scooter"}, {"fusion_lat": 0.0, "name": "1c00a3ca5e80465f2a0241b27df5d71f", "lon": -76.97330183333334, "rental_uris": {"android": "https://dc.lft.to/lastmile_qr_scan", "ios": "https://dc.lft.to/lastmile_qr_scan"}, "fusion_lon": 0.0, "bike_id": "1c00a3ca5e80465f2a0241b27df5d71f", "is_disabled": 0, "lat": 38.904841833333336, "is_reserved": 0, "type": "electric_bike"}, {"fusion_lat": 0.0, "name": "2113f1002df8d5a22a1655ef1a4ea6ac", "lon": -76.93030833333333, "rental_uris": {"android": "https://dc.lft.to/lastmile_qr_scan", "ios": "https://dc.lft.to/lastmile_qr_scan"}, "fusion_lon": 0.0, "bike_id": "2113f1002df8d5a22a1655ef1a4ea6ac", "is_disabled": 0, "lat": 38.90009583333333, "is_reserved": 0, "type": "electric_scooter"}, {"fusion_lat": 0.0, "name": "71cda602de07a793b3d0c09f965b8bcb", "lon": -77.043902, "rental_uris": {"android": "https://dc.lft.to/lastmile_qr_scan", "ios": "https://dc.lft.to/lastmile_qr_scan"}, "fusion_lon": 0.0, "bike_id": "71cda602de07a793b3d0c09f965b8bcb", "is_disabled": 0, "lat": 38.916655666666664, "is_reserved": 0, "type": "electric_scooter"}, {"fusion_lat": 0.0, "name": "8455762e816ad5d2035b1b01cebe74ba", "lon": -76.99071766666667, "rental_uris": {"android": "https://dc.lft.to/lastmile_qr_scan", "ios": "https://dc.lft.to/lastmile_qr_scan"}, "fusion_lon": 0.0, "bike_id": "8455762e816ad5d2035b1b01cebe74ba", "is_disabled": 0, "lat": 38.8635365, "is_reserved": 0, "type": "electric_scooter"}, {"fusion_lat": 0.0, "name": "876af31b3ab719c392e64d16f15fef3a", "lon": -76.98596666666667, "rental_uris": {"android": "https://dc.lft.to/lastmile_qr_scan", "ios": "https://dc.lft.to/lastmile_qr_scan"}, "fusion_lon": 0.0, "bike_id": "876af31b3ab719c392e64d16f15fef3a", "is_disabled": 0, "lat": 38.86698716666667, "is_reserved": 0, "type": "electric_scooter"}, {"fusion_lat": 0.0, "name": "cf7fd19eb38cc11371d29e0fd823d7bd", "lon": -77.02592466666667, "rental_uris": {"android": "https://dc.lft.to/lastmile_qr_scan", "ios": "https://dc.lft.to/lastmile_qr_scan"}, "fusion_lon": 0.0, "bike_id": "cf7fd19eb38cc11371d29e0fd823d7bd", "is_disabled": 0, "lat": 38.90497533333333, "is_reserved": 0, "type": "electric_scooter"}, {"fusion_lat": 0.0, "name": "4b1a1975f92dd5ca2f0fd3494b612309", "lon": -77.04332266666667, "rental_uris": {"android": "https://dc.lft.to/lastmile_qr_scan", "ios": "https://dc.lft.to/lastmile_qr_scan"}, "fusion_lon": 0.0, "bike_id": "4b1a1975f92dd5ca2f0fd3494b612309", "is_disabled": 0, "lat": 38.9013665, "is_reserved": 0, "type": "electric_scooter"}, {"fusion_lat": 0.0, "name": "b3b64ea8703f4bdc6aca1d9ac676d16d", "lon": -77.03449016666667, "rental_uris": {"android": "https://dc.lft.to/lastmile_qr_scan", "ios": "https://dc.lft.to/lastmile_qr_scan"}, "fusion_lon": 0.0, "bike_id": "b3b64ea8703f4bdc6aca1d9ac676d16d", "is_disabled": 0, "lat": 38.930880333333334, "is_reserved": 0, "type": "electric_scooter"}, {"fusion_lat": 0.0, "name": "c4a94804818b0f5593c7124a8370454d", "lon": -76.972256, "rental_uris": {"android": "https://dc.lft.to/lastmile_qr_scan", "ios": "https://dc.lft.to/lastmile_qr_scan"}, "fusion_lon": 0.0, "bike_id": "c4a94804818b0f5593c7124a8370454d", "is_disabled": 0, "lat": 38.92537216666667, "is_reserved": 0, "type": "electric_scooter"}, {"fusion_lat": 0.0, "name": "53c92e0e3d0e50f8bf840a4cd6aced5b", "lon": -77.01489483333333, "rental_uris": {"android": "https://dc.lft.to/lastmile_qr_scan", "ios": "https://dc.lft.to/lastmile_qr_scan"}, "fusion_lon": 0.0, "bike_id": "53c92e0e3d0e50f8bf840a4cd6aced5b", "is_disabled": 0, "lat": 38.892188833333336, "is_reserved": 0, "type": "electric_scooter"}, {"fusion_lat": 0.0, "name": "44f5a6d63b43429dfd20d251547de57d", "lon": -77.07262166666666, "rental_uris": {"android": "https://dc.lft.to/lastmile_qr_scan", "ios": "https://dc.lft.to/lastmile_qr_scan"}, "fusion_lon": 0.0, "bike_id": "44f5a6d63b43429dfd20d251547de57d", "is_disabled": 0, "lat": 38.93403416666666, "is_reserved": 0, "type": "electric_scooter"}, {"fusion_lat": 0.0, "name": "10d8df0a9c04b01a0d9bbf5b961adaf0", "lon": -77.0221885, "rental_uris": {"android": "https://dc.lft.to/lastmile_qr_scan", "ios": "https://dc.lft.to/lastmile_qr_scan"}, "fusion_lon": 0.0, "bike_id": "10d8df0a9c04b01a0d9bbf5b961adaf0", "is_disabled": 0, "lat": 38.92080883333333, "is_reserved": 0, "type": "electric_scooter"}, {"fusion_lat": 0.0, "name": "cd6aac0f7b380a733ecb612f15927231", "lon": -77.034054, "rental_uris": {"android": "https://dc.lft.to/lastmile_qr_scan", "ios": "https://dc.lft.to/lastmile_qr_scan"}, "fusion_lon": 0.0, "bike_id": "cd6aac0f7b380a733ecb612f15927231", "is_disabled": 0, "lat": 38.92445033333333, "is_reserved": 0, "type": "electric_scooter"}, {"fusion_lat": 0.0, "name": "39dec71650c76ba5b28fb3e43650b153", "lon": -77.04324216666667, "rental_uris": {"android": "https://dc.lft.to/lastmile_qr_scan", "ios": "https://dc.lft.to/lastmile_qr_scan"}, "fusion_lon": 0.0, "bike_id": "39dec71650c76ba5b28fb3e43650b153", "is_disabled": 0, "lat": 38.92186616666667, "is_reserved": 0, "type": "electric_scooter"}, {"fusion_lat": 0.0, "name": "a69c80df90f5689136dc8f381061d230", "lon": -77.03146683333334, "rental_uris": {"android": "https://dc.lft.to/lastmile_qr_scan", "ios": "https://dc.lft.to/lastmile_qr_scan"}, "fusion_lon": 0.0, "bike_id": "a69c80df90f5689136dc8f381061d230", "is_disabled": 0, "lat": 38.919073833333336, "is_reserved": 0, "type": "electric_scooter"}, {"fusion_lat": 0.0, "name": "29d02562dc871731ee1e772473b9dfc0", "lon": -77.03267266666667, "rental_uris": {"android": "https://dc.lft.to/lastmile_qr_scan", "ios": "https://dc.lft.to/lastmile_qr_scan"}, "fusion_lon": 0.0, "bike_id": "29d02562dc871731ee1e772473b9dfc0", "is_disabled": 0, "lat": 38.9398115, "is_reserved": 0, "type": "electric_scooter"}, {"fusion_lat": 0.0, "name": "55b5d9689922abd0718085e146b27841", "lon": -77.03235966666666, "rental_uris": {"android": "https://dc.lft.to/lastmile_qr_scan", "ios": "https://dc.lft.to/lastmile_qr_scan"}, "fusion_lon": 0.0, "bike_id": "55b5d9689922abd0718085e146b27841", "is_disabled": 0, "lat": 38.912534, "is_reserved": 0, "type": "electric_scooter"}, {"fusion_lat": 0.0, "name": "0ce2996a7ebc2338aa70bc3020cef043", "lon": -77.04992133333333, "rental_uris": {"android": "https://dc.lft.to/lastmile_qr_scan", "ios": "https://dc.lft.to/lastmile_qr_scan"}, "fusion_lon": 0.0, "bike_id": "0ce2996a7ebc2338aa70bc3020cef043", "is_disabled": 0, "lat": 38.897300666666666, "is_reserved": 0, "type": "electric_scooter"}, {"fusion_lat": 0.0, "name": "8bc534018e151c6d89f3c5032be31583", "lon": -77.038045, "rental_uris": {"android": "https://dc.lft.to/lastmile_qr_scan", "ios": "https://dc.lft.to/lastmile_qr_scan"}, "fusion_lon": 0.0, "bike_id": "8bc534018e151c6d89f3c5032be31583", "is_disabled": 0, "lat": 38.9310625, "is_reserved": 0, "type": "electric_scooter"}, {"fusion_lat": 0.0, "name": "3324cd8ec373caf8ae2500fee20af3cf", "lon": -77.02503066666667, "rental_uris": {"android": "https://dc.lft.to/lastmile_qr_scan", "ios": "https://dc.lft.to/lastmile_qr_scan"}, "fusion_lon": 0.0, "bike_id": "3324cd8ec373caf8ae2500fee20af3cf", "is_disabled": 0, "lat": 38.93097433333333, "is_reserved": 0, "type": "electric_scooter"}, {"fusion_lat": 0.0, "name": "a246bfdacd45f31867dc420d551fdcb2", "lon": -77.03756416666667, "rental_uris": {"android": "https://dc.lft.to/lastmile_qr_scan", "ios": "https://dc.lft.to/lastmile_qr_scan"}, "fusion_lon": 0.0, "bike_id": "a246bfdacd45f31867dc420d551fdcb2", "is_disabled": 0, "lat": 38.929062333333334, "is_reserved": 0, "type": "electric_scooter"}, {"fusion_lat": 0.0, "name": "47a5fcbdcfc21f096bfa3f2a019c45c3", "lon": -76.97743466666667, "rental_uris": {"android": "https://dc.lft.to/lastmile_qr_scan", "ios": "https://dc.lft.to/lastmile_qr_scan"}, "fusion_lon": 0.0, "bike_id": "47a5fcbdcfc21f096bfa3f2a019c45c3", "is_disabled": 0, "lat": 38.86468583333333, "is_reserved": 0, "type": "electric_scooter"}, {"fusion_lat": 0.0, "name": "dcec97536387982bbb656d15a7e3783a", "lon": -76.91220866666667, "rental_uris": {"android": "https://dc.lft.to/lastmile_qr_scan", "ios": "https://dc.lft.to/lastmile_qr_scan"}, "fusion_lon": 0.0, "bike_id": "dcec97536387982bbb656d15a7e3783a", "is_disabled": 0, "lat": 38.9031235, "is_reserved": 0, "type": "electric_bike"}, {"fusion_lat": 0.0, "name": "4a824af6424b7c3778e3054d0cb595d9", "lon": -77.01827983333334, "rental_uris": {"android": "https://dc.lft.to/lastmile_qr_scan", "ios": "https://dc.lft.to/lastmile_qr_scan"}, "fusion_lon": 0.0, "bike_id": "4a824af6424b7c3778e3054d0cb595d9", "is_disabled": 0, "lat": 38.9200765, "is_reserved": 0, "type": "electric_scooter"}, {"fusion_lat": 0.0, "name": "4f908f38814aa7bd1f95b2612c1f3a52", "lon": -77.00329716666667, "rental_uris": {"android": "https://dc.lft.to/lastmile_qr_scan", "ios": "https://dc.lft.to/lastmile_qr_scan"}, "fusion_lon": 0.0, "bike_id": "4f908f38814aa7bd1f95b2612c1f3a52", "is_disabled": 0, "lat": 38.876522, "is_reserved": 0, "type": "electric_scooter"}, {"fusion_lat": 0.0, "name": "370665849a2c61a8d231d03b9fa90104", "lon": -77.005674, "rental_uris": {"android": "https://dc.lft.to/lastmile_qr_scan", "ios": "https://dc.lft.to/lastmile_qr_scan"}, "fusion_lon": 0.0, "bike_id": "370665849a2c61a8d231d03b9fa90104", "is_disabled": 0, "lat": 38.874734833333335, "is_reserved": 0, "type": "electric_scooter"}, {"fusion_lat": 0.0, "name": "ac25344e0709edfd4418d9cc603e603e", "lon": -76.987146, "rental_uris": {"android": "https://dc.lft.to/lastmile_qr_scan", "ios": "https://dc.lft.to/lastmile_qr_scan"}, "fusion_lon": 0.0, "bike_id": "ac25344e0709edfd4418d9cc603e603e", "is_disabled": 0, "lat": 38.86699633333333, "is_reserved": 0, "type": "electric_scooter"}, {"fusion_lat": 0.0, "name": "9057f2445049976e07876ffcbebff61b", "lon": -77.0283905, "rental_uris": {"android": "https://dc.lft.to/lastmile_qr_scan", "ios": "https://dc.lft.to/lastmile_qr_scan"}, "fusion_lon": 0.0, "bike_id": "9057f2445049976e07876ffcbebff61b", "is_disabled": 0, "lat": 38.932115833333334, "is_reserved": 0, "type": "electric_scooter"}, {"fusion_lat": 0.0, "name": "1411ed14d7bda5f5b62d9925f5ff20f5", "lon": -76.96509683333333, "rental_uris": {"android": "https://dc.lft.to/lastmile_qr_scan", "ios": "https://dc.lft.to/lastmile_qr_scan"}, "fusion_lon": 0.0, "bike_id": "1411ed14d7bda5f5b62d9925f5ff20f5", "is_disabled": 0, "lat": 38.8764955, "is_reserved": 0, "type": "electric_scooter"}, {"fusion_lat": 0.0, "name": "adf8a4bf115747c10ddaf170971f6d42", "lon": -77.03278466666667, "rental_uris": {"android": "https://dc.lft.to/lastmile_qr_scan", "ios": "https://dc.lft.to/lastmile_qr_scan"}, "fusion_lon": 0.0, "bike_id": "adf8a4bf115747c10ddaf170971f6d42", "is_disabled": 0, "lat": 38.940946333333336, "is_reserved": 0, "type": "electric_bike"}, {"fusion_lat": 0.0, "name": "19c5d927c24867ac23d97f605d448866", "lon": -77.02498016666667, "rental_uris": {"android": "https://dc.lft.to/lastmile_qr_scan", "ios": "https://dc.lft.to/lastmile_qr_scan"}, "fusion_lon": 0.0, "bike_id": "19c5d927c24867ac23d97f605d448866", "is_disabled": 0, "lat": 38.91806783333333, "is_reserved": 0, "type": "electric_scooter"}, {"fusion_lat": 0.0, "name": "7a4c209ac2dedf0c7f47af13b5a344b7", "lon": -76.98838666666667, "rental_uris": {"android": "https://dc.lft.to/lastmile_qr_scan", "ios": "https://dc.lft.to/lastmile_qr_scan"}, "fusion_lon": 0.0, "bike_id": "7a4c209ac2dedf0c7f47af13b5a344b7", "is_disabled": 0, "lat": 38.892544666666666, "is_reserved": 0, "type": "electric_scooter"}, {"fusion_lat": 0.0, "name": "d9d08eb617bf058fe18ca31f66139fed", "lon": -77.003599, "rental_uris": {"android": "https://dc.lft.to/lastmile_qr_scan", "ios": "https://dc.lft.to/lastmile_qr_scan"}, "fusion_lon": 0.0, "bike_id": "d9d08eb617bf058fe18ca31f66139fed", "is_disabled": 0, "lat": 38.8803555, "is_reserved": 0, "type": "electric_scooter"}, {"fusion_lat": 0.0, "name": "84787d31cf40f6d7cfa5cab97b191c15", "lon": -77.03793383333333, "rental_uris": {"android": "https://dc.lft.to/lastmile_qr_scan", "ios": "https://dc.lft.to/lastmile_qr_scan"}, "fusion_lon": 0.0, "bike_id": "84787d31cf40f6d7cfa5cab97b191c15", "is_disabled": 0, "lat": 38.9197905, "is_reserved": 0, "type": "electric_scooter"}, {"fusion_lat": 0.0, "name": "0d2dbdc540d788096003a0180b339704", "lon": -77.00597016666667, "rental_uris": {"android": "https://dc.lft.to/lastmile_qr_scan", "ios": "https://dc.lft.to/lastmile_qr_scan"}, "fusion_lon": 0.0, "bike_id": "0d2dbdc540d788096003a0180b339704", "is_disabled": 0, "lat": 38.87571416666667, "is_reserved": 0, "type": "electric_scooter"}, {"fusion_lat": 0.0, "name": "c08f5badefb0e37a3447b05dece3489f", "lon": -77.01798533333333, "rental_uris": {"android": "https://dc.lft.to/lastmile_qr_scan", "ios": "https://dc.lft.to/lastmile_qr_scan"}, "fusion_lon": 0.0, "bike_id": "c08f5badefb0e37a3447b05dece3489f", "is_disabled": 0, "lat": 38.918906, "is_reserved": 0, "type": "electric_scooter"}, {"fusion_lat": 0.0, "name": "4b4fa8d90bc79e0b2440294dd95114d2", "lon": -77.040088, "rental_uris": {"android": "https://dc.lft.to/lastmile_qr_scan", "ios": "https://dc.lft.to/lastmile_qr_scan"}, "fusion_lon": 0.0, "bike_id": "4b4fa8d90bc79e0b2440294dd95114d2", "is_disabled": 0, "lat": 38.90359683333333, "is_reserved": 0, "type": "electric_scooter"}, {"fusion_lat": 0.0, "name": "c93ac8618116db7c936ebfc1bfe441a4", "lon": -77.11788033333333, "rental_uris": {"android": "https://dc.lft.to/lastmile_qr_scan", "ios": "https://dc.lft.to/lastmile_qr_scan"}, "fusion_lon": 0.0, "bike_id": "c93ac8618116db7c936ebfc1bfe441a4", "is_disabled": 0, "lat": 39.0549675, "is_reserved": 0, "type": "electric_bike"}, {"fusion_lat": 0.0, "name": "caeaa675e382ceb819c50061824ec11f", "lon": -77.0335575, "rental_uris": {"android": "https://dc.lft.to/lastmile_qr_scan", "ios": "https://dc.lft.to/lastmile_qr_scan"}, "fusion_lon": 0.0, "bike_id": "caeaa675e382ceb819c50061824ec11f", "is_disabled": 0, "lat": 38.921522, "is_reserved": 0, "type": "electric_scooter"}, {"fusion_lat": 0.0, "name": "0019fd99ec17ec92efb805c59aff1d7b", "lon": -77.06566083333334, "rental_uris": {"android": "https://dc.lft.to/lastmile_qr_scan", "ios": "https://dc.lft.to/lastmile_qr_scan"}, "fusion_lon": 0.0, "bike_id": "0019fd99ec17ec92efb805c59aff1d7b", "is_disabled": 0, "lat": 38.883329833333335, "is_reserved": 0, "type": "electric_bike"}, {"fusion_lat": 0.0, "name": "174e4091cf45f9503abb8e8d9492e307", "lon": -77.0150495, "rental_uris": {"android": "https://dc.lft.to/lastmile_qr_scan", "ios": "https://dc.lft.to/lastmile_qr_scan"}, "fusion_lon": 0.0, "bike_id": "174e4091cf45f9503abb8e8d9492e307", "is_disabled": 0, "lat": 38.90237533333333, "is_reserved": 0, "type": "electric_scooter"}, {"fusion_lat": 0.0, "name": "eee10c69356d5a91dbdc0af63b641fee", "lon": -77.04621483333334, "rental_uris": {"android": "https://dc.lft.to/lastmile_qr_scan", "ios": "https://dc.lft.to/lastmile_qr_scan"}, "fusion_lon": 0.0, "bike_id": "eee10c69356d5a91dbdc0af63b641fee", "is_disabled": 0, "lat": 38.91548316666667, "is_reserved": 0, "type": "electric_scooter"}, {"fusion_lat": 0.0, "name": "3194ae6ab3d9eff687d8b5b02ae0faac", "lon": -76.9501615, "rental_uris": {"android": "https://dc.lft.to/lastmile_qr_scan", "ios": "https://dc.lft.to/lastmile_qr_scan"}, "fusion_lon": 0.0, "bike_id": "3194ae6ab3d9eff687d8b5b02ae0faac", "is_disabled": 0, "lat": 38.8936815, "is_reserved": 0, "type": "electric_scooter"}, {"fusion_lat": 0.0, "name": "650a35d0bd1a9de9be67dcf925f4ad0b", "lon": -76.99859066666667, "rental_uris": {"android": "https://dc.lft.to/lastmile_qr_scan", "ios": "https://dc.lft.to/lastmile_qr_scan"}, "fusion_lon": 0.0, "bike_id": "650a35d0bd1a9de9be67dcf925f4ad0b", "is_disabled": 0, "lat": 38.908938166666665, "is_reserved": 0, "type": "electric_scooter"}, {"fusion_lat": 0.0, "name": "c4447f00588c73ff7a2e18b363ede1b3", "lon": -76.9973695, "rental_uris": {"android": "https://dc.lft.to/lastmile_qr_scan", "ios": "https://dc.lft.to/lastmile_qr_scan"}, "fusion_lon": 0.0, "bike_id": "c4447f00588c73ff7a2e18b363ede1b3", "is_disabled": 0, "lat": 39.042318333333334, "is_reserved": 0, "type": "electric_bike"}, {"fusion_lat": 0.0, "name": "5fa93edfb0543352918a8d7b99c1e75a", "lon": -76.93533083333334, "rental_uris": {"android": "https://dc.lft.to/lastmile_qr_scan", "ios": "https://dc.lft.to/lastmile_qr_scan"}, "fusion_lon": 0.0, "bike_id": "5fa93edfb0543352918a8d7b99c1e75a", "is_disabled": 0, "lat": 38.89681616666667, "is_reserved": 0, "type": "electric_scooter"}, {"fusion_lat": 0.0, "name": "bda9768b3bbf324757c96054736d6f04", "lon": -77.0094, "rental_uris": {"android": "https://dc.lft.to/lastmile_qr_scan", "ios": "https://dc.lft.to/lastmile_qr_scan"}, "fusion_lon": 0.0, "bike_id": "bda9768b3bbf324757c96054736d6f04", "is_disabled": 0, "lat": 38.876302333333335, "is_reserved": 0, "type": "electric_scooter"}, {"fusion_lat": 0.0, "name": "4033c1dc6cba70e74608f71f9e56fff7", "lon": -77.025306, "rental_uris": {"android": "https://dc.lft.to/lastmile_qr_scan", "ios": "https://dc.lft.to/lastmile_qr_scan"}, "fusion_lon": 0.0, "bike_id": "4033c1dc6cba70e74608f71f9e56fff7", "is_disabled": 0, "lat": 38.94182516666667, "is_reserved": 0, "type": "electric_scooter"}, {"fusion_lat": 0.0, "name": "7188b8b9421ff11ac01e45a7b5127ecd", "lon": -77.008169, "rental_uris": {"android": "https://dc.lft.to/lastmile_qr_scan", "ios": "https://dc.lft.to/lastmile_qr_scan"}, "fusion_lon": 0.0, "bike_id": "7188b8b9421ff11ac01e45a7b5127ecd", "is_disabled": 0, "lat": 38.87738483333333, "is_reserved": 0, "type": "electric_scooter"}, {"fusion_lat": 0.0, "name": "72ade5c9b2548dfc097cfb676edb3719", "lon": -76.92925766666667, "rental_uris": {"android": "https://dc.lft.to/lastmile_qr_scan", "ios": "https://dc.lft.to/lastmile_qr_scan"}, "fusion_lon": 0.0, "bike_id": "72ade5c9b2548dfc097cfb676edb3719", "is_disabled": 0, "lat": 38.902711833333335, "is_reserved": 0, "type": "electric_bike"}, {"fusion_lat": 0.0, "name": "322a9809c6885f552a9219b81bde7b5a", "lon": -77.03128216666667, "rental_uris": {"android": "https://dc.lft.to/lastmile_qr_scan", "ios": "https://dc.lft.to/lastmile_qr_scan"}, "fusion_lon": 0.0, "bike_id": "322a9809c6885f552a9219b81bde7b5a", "is_disabled": 0, "lat": 38.916329833333336, "is_reserved": 0, "type": "electric_scooter"}, {"fusion_lat": 0.0, "name": "119f6d0898a6f3af08714623ecfbb174", "lon": -77.029598, "rental_uris": {"android": "https://dc.lft.to/lastmile_qr_scan", "ios": "https://dc.lft.to/lastmile_qr_scan"}, "fusion_lon": 0.0, "bike_id": "119f6d0898a6f3af08714623ecfbb174", "is_disabled": 0, "lat": 38.912089, "is_reserved": 0, "type": "electric_scooter"}, {"fusion_lat": 0.0, "name": "edaed2f883247797cd68783774693b65", "lon": -77.04913066666667, "rental_uris": {"android": "https://dc.lft.to/lastmile_qr_scan", "ios": "https://dc.lft.to/lastmile_qr_scan"}, "fusion_lon": 0.0, "bike_id": "edaed2f883247797cd68783774693b65", "is_disabled": 0, "lat": 38.90551933333333, "is_reserved": 0, "type": "electric_scooter"}, {"fusion_lat": 0.0, "name": "6cd742b065f3412f2d1166f46690699f", "lon": -77.04375166666667, "rental_uris": {"android": "https://dc.lft.to/lastmile_qr_scan", "ios": "https://dc.lft.to/lastmile_qr_scan"}, "fusion_lon": 0.0, "bike_id": "6cd742b065f3412f2d1166f46690699f", "is_disabled": 0, "lat": 38.892196, "is_reserved": 0, "type": "electric_scooter"}, {"fusion_lat": 0.0, "name": "fbed5a58e80337d242a72a951dbee359", "lon": -77.05019783333333, "rental_uris": {"android": "https://dc.lft.to/lastmile_qr_scan", "ios": "https://dc.lft.to/lastmile_qr_scan"}, "fusion_lon": 0.0, "bike_id": "fbed5a58e80337d242a72a951dbee359", "is_disabled": 0, "lat": 38.9051785, "is_reserved": 0, "type": "electric_scooter"}, {"fusion_lat": 0.0, "name": "ec00e89d97c77b439202aefdb3e19855", "lon": -77.00315316666666, "rental_uris": {"android": "https://dc.lft.to/lastmile_qr_scan", "ios": "https://dc.lft.to/lastmile_qr_scan"}, "fusion_lon": 0.0, "bike_id": "ec00e89d97c77b439202aefdb3e19855", "is_disabled": 0, "lat": 38.91901383333333, "is_reserved": 0, "type": "electric_scooter"}, {"fusion_lat": 0.0, "name": "dd19c377da8c5de6cbbc7b3794195a7b", "lon": -77.03205833333334, "rental_uris": {"android": "https://dc.lft.to/lastmile_qr_scan", "ios": "https://dc.lft.to/lastmile_qr_scan"}, "fusion_lon": 0.0, "bike_id": "dd19c377da8c5de6cbbc7b3794195a7b", "is_disabled": 0, "lat": 38.91461566666667, "is_reserved": 0, "type": "electric_scooter"}, {"fusion_lat": 0.0, "name": "a53c23e0fbdbc3d0d7cd7bfa871cc4ed", "lon": -77.0518045, "rental_uris": {"android": "https://dc.lft.to/lastmile_qr_scan", "ios": "https://dc.lft.to/lastmile_qr_scan"}, "fusion_lon": 0.0, "bike_id": "a53c23e0fbdbc3d0d7cd7bfa871cc4ed", "is_disabled": 0, "lat": 38.924256, "is_reserved": 0, "type": "electric_scooter"}, {"fusion_lat": 0.0, "name": "b7347d43d648b8e87d090a464041ec5a", "lon": -76.94724316666667, "rental_uris": {"android": "https://dc.lft.to/lastmile_qr_scan", "ios": "https://dc.lft.to/lastmile_qr_scan"}, "fusion_lon": 0.0, "bike_id": "b7347d43d648b8e87d090a464041ec5a", "is_disabled": 0, "lat": 38.89738233333333, "is_reserved": 0, "type": "electric_scooter"}, {"fusion_lat": 0.0, "name": "f78f6e31be66f7078e7d2b515f396f74", "lon": -76.9978065, "rental_uris": {"android": "https://dc.lft.to/lastmile_qr_scan", "ios": "https://dc.lft.to/lastmile_qr_scan"}, "fusion_lon": 0.0, "bike_id": "f78f6e31be66f7078e7d2b515f396f74", "is_disabled": 0, "lat": 38.844271666666664, "is_reserved": 0, "type": "electric_scooter"}, {"fusion_lat": 0.0, "name": "cb3857ec0a0638c2add78ab2b4afd682", "lon": -77.01377966666666, "rental_uris": {"android": "https://dc.lft.to/lastmile_qr_scan", "ios": "https://dc.lft.to/lastmile_qr_scan"}, "fusion_lon": 0.0, "bike_id": "cb3857ec0a0638c2add78ab2b4afd682", "is_disabled": 0, "lat": 38.87988516666667, "is_reserved": 0, "type": "electric_scooter"}, {"fusion_lat": 0.0, "name": "88308fc7da39a82fb2a5300f9cfa2a96", "lon": -77.024556, "rental_uris": {"android": "https://dc.lft.to/lastmile_qr_scan", "ios": "https://dc.lft.to/lastmile_qr_scan"}, "fusion_lon": 0.0, "bike_id": "88308fc7da39a82fb2a5300f9cfa2a96", "is_disabled": 0, "lat": 38.937146, "is_reserved": 0, "type": "electric_scooter"}, {"fusion_lat": 0.0, "name": "e9d17bead5e47798d60d42c8fad74cac", "lon": -77.02447583333333, "rental_uris": {"android": "https://dc.lft.to/lastmile_qr_scan", "ios": "https://dc.lft.to/lastmile_qr_scan"}, "fusion_lon": 0.0, "bike_id": "e9d17bead5e47798d60d42c8fad74cac", "is_disabled": 0, "lat": 38.935817666666665, "is_reserved": 0, "type": "electric_scooter"}, {"fusion_lat": 0.0, "name": "27d9166539b285b22e3db49c9cce4f7a", "lon": -77.04668433333333, "rental_uris": {"android": "https://dc.lft.to/lastmile_qr_scan", "ios": "https://dc.lft.to/lastmile_qr_scan"}, "fusion_lon": 0.0, "bike_id": "27d9166539b285b22e3db49c9cce4f7a", "is_disabled": 0, "lat": 38.91105533333333, "is_reserved": 0, "type": "electric_scooter"}, {"fusion_lat": 0.0, "name": "e69cad81606f5674abf780426a3f2c77", "lon": -77.0262225, "rental_uris": {"android": "https://dc.lft.to/lastmile_qr_scan", "ios": "https://dc.lft.to/lastmile_qr_scan"}, "fusion_lon": 0.0, "bike_id": "e69cad81606f5674abf780426a3f2c77", "is_disabled": 0, "lat": 38.905543333333334, "is_reserved": 0, "type": "electric_scooter"}, {"fusion_lat": 0.0, "name": "b40167c3a7a49f881d442726520d79d2", "lon": -77.037894, "rental_uris": {"android": "https://dc.lft.to/lastmile_qr_scan", "ios": "https://dc.lft.to/lastmile_qr_scan"}, "fusion_lon": 0.0, "bike_id": "b40167c3a7a49f881d442726520d79d2", "is_disabled": 0, "lat": 38.99683433333333, "is_reserved": 0, "type": "electric_bike"}, {"fusion_lat": 0.0, "name": "a885992a6eaff6f933ac5051f11094e1", "lon": -77.04490633333333, "rental_uris": {"android": "https://dc.lft.to/lastmile_qr_scan", "ios": "https://dc.lft.to/lastmile_qr_scan"}, "fusion_lon": 0.0, "bike_id": "a885992a6eaff6f933ac5051f11094e1", "is_disabled": 0, "lat": 38.912446833333334, "is_reserved": 0, "type": "electric_scooter"}, {"fusion_lat": 0.0, "name": "f6a89c1da9593fe850a5f7773a2c1192", "lon": -77.05041066666666, "rental_uris": {"android": "https://dc.lft.to/lastmile_qr_scan", "ios": "https://dc.lft.to/lastmile_qr_scan"}, "fusion_lon": 0.0, "bike_id": "f6a89c1da9593fe850a5f7773a2c1192", "is_disabled": 0, "lat": 38.89277666666667, "is_reserved": 0, "type": "electric_scooter"}, {"fusion_lat": 0.0, "name": "a2338d0da93a91b89af36d227b483d37", "lon": -77.01951283333334, "rental_uris": {"android": "https://dc.lft.to/lastmile_qr_scan", "ios": "https://dc.lft.to/lastmile_qr_scan"}, "fusion_lon": 0.0, "bike_id": "a2338d0da93a91b89af36d227b483d37", "is_disabled": 0, "lat": 38.92262, "is_reserved": 0, "type": "electric_scooter"}, {"fusion_lat": 0.0, "name": "dcd9a3a2425fbcd8f056947e6b5e8109", "lon": -76.895414, "rental_uris": {"android": "https://dc.lft.to/lastmile_qr_scan", "ios": "https://dc.lft.to/lastmile_qr_scan"}, "fusion_lon": 0.0, "bike_id": "dcd9a3a2425fbcd8f056947e6b5e8109", "is_disabled": 0, "lat": 38.94550616666667, "is_reserved": 0, "type": "electric_bike"}, {"fusion_lat": 0.0, "name": "d6a0f3eac5bf6aeb25b9616ef6325b9e", "lon": -77.02517766666666, "rental_uris": {"android": "https://dc.lft.to/lastmile_qr_scan", "ios": "https://dc.lft.to/lastmile_qr_scan"}, "fusion_lon": 0.0, "bike_id": "d6a0f3eac5bf6aeb25b9616ef6325b9e", "is_disabled": 0, "lat": 38.908522, "is_reserved": 0, "type": "electric_scooter"}, {"fusion_lat": 0.0, "name": "b46262acd58eb2bf2ca837b14c984e25", "lon": -77.02565583333333, "rental_uris": {"android": "https://dc.lft.to/lastmile_qr_scan", "ios": "https://dc.lft.to/lastmile_qr_scan"}, "fusion_lon": 0.0, "bike_id": "b46262acd58eb2bf2ca837b14c984e25", "is_disabled": 0, "lat": 38.914900833333334, "is_reserved": 0, "type": "electric_scooter"}, {"fusion_lat": 0.0, "name": "1af432f9decabafc9d731df886b44ec3", "lon": -77.03182783333334, "rental_uris": {"android": "https://dc.lft.to/lastmile_qr_scan", "ios": "https://dc.lft.to/lastmile_qr_scan"}, "fusion_lon": 0.0, "bike_id": "1af432f9decabafc9d731df886b44ec3", "is_disabled": 0, "lat": 38.91121533333333, "is_reserved": 0, "type": "electric_scooter"}, {"fusion_lat": 0.0, "name": "f9f7f6fd67140ba40f750d67e2450db1", "lon": -77.024723, "rental_uris": {"android": "https://dc.lft.to/lastmile_qr_scan", "ios": "https://dc.lft.to/lastmile_qr_scan"}, "fusion_lon": 0.0, "bike_id": "f9f7f6fd67140ba40f750d67e2450db1", "is_disabled": 0, "lat": 38.917838333333336, "is_reserved": 0, "type": "electric_scooter"}, {"fusion_lat": 0.0, "name": "77f22ca4e478b56d3adbd82af15b0df0", "lon": -77.03656216666667, "rental_uris": {"android": "https://dc.lft.to/lastmile_qr_scan", "ios": "https://dc.lft.to/lastmile_qr_scan"}, "fusion_lon": 0.0, "bike_id": "77f22ca4e478b56d3adbd82af15b0df0", "is_disabled": 0, "lat": 38.914448166666666, "is_reserved": 0, "type": "electric_scooter"}, {"fusion_lat": 0.0, "name": "16d4e9f199be6b267b084711cbae4f0b", "lon": -76.986718, "rental_uris": {"android": "https://dc.lft.to/lastmile_qr_scan", "ios": "https://dc.lft.to/lastmile_qr_scan"}, "fusion_lon": 0.0, "bike_id": "16d4e9f199be6b267b084711cbae4f0b", "is_disabled": 0, "lat": 38.89964883333333, "is_reserved": 0, "type": "electric_bike"}, {"fusion_lat": 0.0, "name": "491a734ef1e38b17cae58ab04c468bde", "lon": -77.07304366666666, "rental_uris": {"android": "https://dc.lft.to/lastmile_qr_scan", "ios": "https://dc.lft.to/lastmile_qr_scan"}, "fusion_lon": 0.0, "bike_id": "491a734ef1e38b17cae58ab04c468bde", "is_disabled": 0, "lat": 38.933564833333335, "is_reserved": 0, "type": "electric_scooter"}, {"fusion_lat": 0.0, "name": "6f133088f12f32c8d656d11fcb2fb6a5", "lon": -77.00190483333333, "rental_uris": {"android": "https://dc.lft.to/lastmile_qr_scan", "ios": "https://dc.lft.to/lastmile_qr_scan"}, "fusion_lon": 0.0, "bike_id": "6f133088f12f32c8d656d11fcb2fb6a5", "is_disabled": 0, "lat": 38.90012633333333, "is_reserved": 0, "type": "electric_scooter"}, {"fusion_lat": 0.0, "name": "3423b01559354e27fac9904711d29918", "lon": -77.04679733333333, "rental_uris": {"android": "https://dc.lft.to/lastmile_qr_scan", "ios": "https://dc.lft.to/lastmile_qr_scan"}, "fusion_lon": 0.0, "bike_id": "3423b01559354e27fac9904711d29918", "is_disabled": 0, "lat": 38.89384016666666, "is_reserved": 0, "type": "electric_scooter"}, {"fusion_lat": 0.0, "name": "cc7020b3eafa500a9ad4e4a5e43beaaf", "lon": -77.039437, "rental_uris": {"android": "https://dc.lft.to/lastmile_qr_scan", "ios": "https://dc.lft.to/lastmile_qr_scan"}, "fusion_lon": 0.0, "bike_id": "cc7020b3eafa500a9ad4e4a5e43beaaf", "is_disabled": 0, "lat": 38.903842166666664, "is_reserved": 0, "type": "electric_scooter"}, {"fusion_lat": 0.0, "name": "269c3be45451123af089e9017f3745e8", "lon": -77.02067316666667, "rental_uris": {"android": "https://dc.lft.to/lastmile_qr_scan", "ios": "https://dc.lft.to/lastmile_qr_scan"}, "fusion_lon": 0.0, "bike_id": "269c3be45451123af089e9017f3745e8", "is_disabled": 0, "lat": 38.921437, "is_reserved": 0, "type": "electric_scooter"}, {"fusion_lat": 0.0, "name": "97a84a98762ee2dece06cf7aa5b06413", "lon": -77.02683383333333, "rental_uris": {"android": "https://dc.lft.to/lastmile_qr_scan", "ios": "https://dc.lft.to/lastmile_qr_scan"}, "fusion_lon": 0.0, "bike_id": "97a84a98762ee2dece06cf7aa5b06413", "is_disabled": 0, "lat": 38.910515333333336, "is_reserved": 0, "type": "electric_scooter"}, {"fusion_lat": 0.0, "name": "039e1020e8e438e2783bd29406bae4a5", "lon": -77.05507333333334, "rental_uris": {"android": "https://dc.lft.to/lastmile_qr_scan", "ios": "https://dc.lft.to/lastmile_qr_scan"}, "fusion_lon": 0.0, "bike_id": "039e1020e8e438e2783bd29406bae4a5", "is_disabled": 0, "lat": 38.929701, "is_reserved": 0, "type": "electric_scooter"}, {"fusion_lat": 0.0, "name": "5d3fa6e62285404bb564908b1aaa6689", "lon": -77.0376785, "rental_uris": {"android": "https://dc.lft.to/lastmile_qr_scan", "ios": "https://dc.lft.to/lastmile_qr_scan"}, "fusion_lon": 0.0, "bike_id": "5d3fa6e62285404bb564908b1aaa6689", "is_disabled": 0, "lat": 38.92934283333334, "is_reserved": 0, "type": "electric_scooter"}, {"fusion_lat": 0.0, "name": "f2120d2e646b1982814d2a48dd47ccd1", "lon": -77.0401375, "rental_uris": {"android": "https://dc.lft.to/lastmile_qr_scan", "ios": "https://dc.lft.to/lastmile_qr_scan"}, "fusion_lon": 0.0, "bike_id": "f2120d2e646b1982814d2a48dd47ccd1", "is_disabled": 0, "lat": 38.897601333333334, "is_reserved": 0, "type": "electric_scooter"}, {"fusion_lat": 0.0, "name": "159bbb8759f99f7fa906e0d6be49349e", "lon": -77.02197416666667, "rental_uris": {"android": "https://dc.lft.to/lastmile_qr_scan", "ios": "https://dc.lft.to/lastmile_qr_scan"}, "fusion_lon": 0.0, "bike_id": "159bbb8759f99f7fa906e0d6be49349e", "is_disabled": 0, "lat": 38.896142, "is_reserved": 0, "type": "electric_scooter"}, {"fusion_lat": 0.0, "name": "026a6fb4a19962bd1c7210ec6b91326a", "lon": -77.02851116666666, "rental_uris": {"android": "https://dc.lft.to/lastmile_qr_scan", "ios": "https://dc.lft.to/lastmile_qr_scan"}, "fusion_lon": 0.0, "bike_id": "026a6fb4a19962bd1c7210ec6b91326a", "is_disabled": 0, "lat": 38.942659166666665, "is_reserved": 0, "type": "electric_scooter"}, {"fusion_lat": 0.0, "name": "4e3914e081bed07801c3762ff5109728", "lon": -77.0341855, "rental_uris": {"android": "https://dc.lft.to/lastmile_qr_scan", "ios": "https://dc.lft.to/lastmile_qr_scan"}, "fusion_lon": 0.0, "bike_id": "4e3914e081bed07801c3762ff5109728", "is_disabled": 0, "lat": 38.91704816666667, "is_reserved": 0, "type": "electric_scooter"}, {"fusion_lat": 0.0, "name": "eabe751a2ba54b1a2be51f180e4bc969", "lon": -76.94592783333333, "rental_uris": {"android": "https://dc.lft.to/lastmile_qr_scan", "ios": "https://dc.lft.to/lastmile_qr_scan"}, "fusion_lon": 0.0, "bike_id": "eabe751a2ba54b1a2be51f180e4bc969", "is_disabled": 0, "lat": 38.952867499999996, "is_reserved": 0, "type": "electric_bike"}, {"fusion_lat": 0.0, "name": "5808c255cd7d2781a231542d70b0334e", "lon": -76.97804816666667, "rental_uris": {"android": "https://dc.lft.to/lastmile_qr_scan", "ios": "https://dc.lft.to/lastmile_qr_scan"}, "fusion_lon": 0.0, "bike_id": "5808c255cd7d2781a231542d70b0334e", "is_disabled": 0, "lat": 38.90655833333334, "is_reserved": 0, "type": "electric_scooter"}, {"fusion_lat": 0.0, "name": "c30c654eecb393d0e175542eb0c53670", "lon": -77.02185433333334, "rental_uris": {"android": "https://dc.lft.to/lastmile_qr_scan", "ios": "https://dc.lft.to/lastmile_qr_scan"}, "fusion_lon": 0.0, "bike_id": "c30c654eecb393d0e175542eb0c53670", "is_disabled": 0, "lat": 38.9069895, "is_reserved": 0, "type": "electric_bike"}, {"fusion_lat": 0.0, "name": "b1f15abfff03cdb1f24df2d696190dd6", "lon": -77.10969183333333, "rental_uris": {"android": "https://dc.lft.to/lastmile_qr_scan", "ios": "https://dc.lft.to/lastmile_qr_scan"}, "fusion_lon": 0.0, "bike_id": "b1f15abfff03cdb1f24df2d696190dd6", "is_disabled": 0, "lat": 38.813092166666664, "is_reserved": 0, "type": "electric_bike"}, {"fusion_lat": 0.0, "name": "4858ef668fd00f1c26f58382be106700", "lon": -77.01581983333334, "rental_uris": {"android": "https://dc.lft.to/lastmile_qr_scan", "ios": "https://dc.lft.to/lastmile_qr_scan"}, "fusion_lon": 0.0, "bike_id": "4858ef668fd00f1c26f58382be106700", "is_disabled": 0, "lat": 38.88511233333333, "is_reserved": 0, "type": "electric_scooter"}, {"fusion_lat": 0.0, "name": "32fe0b130af91df6f75c7e1bfd712fac", "lon": -77.03299616666666, "rental_uris": {"android": "https://dc.lft.to/lastmile_qr_scan", "ios": "https://dc.lft.to/lastmile_qr_scan"}, "fusion_lon": 0.0, "bike_id": "32fe0b130af91df6f75c7e1bfd712fac", "is_disabled": 0, "lat": 38.8981005, "is_reserved": 0, "type": "electric_scooter"}, {"fusion_lat": 0.0, "name": "a0d17331d9e6a08d972b008cf3efb1b0", "lon": -77.03193683333333, "rental_uris": {"android": "https://dc.lft.to/lastmile_qr_scan", "ios": "https://dc.lft.to/lastmile_qr_scan"}, "fusion_lon": 0.0, "bike_id": "a0d17331d9e6a08d972b008cf3efb1b0", "is_disabled": 0, "lat": 38.91822916666667, "is_reserved": 0, "type": "electric_scooter"}, {"fusion_lat": 0.0, "name": "6dfb3b6bcc387296163344e4833553ee", "lon": -77.02347383333333, "rental_uris": {"android": "https://dc.lft.to/lastmile_qr_scan", "ios": "https://dc.lft.to/lastmile_qr_scan"}, "fusion_lon": 0.0, "bike_id": "6dfb3b6bcc387296163344e4833553ee", "is_disabled": 0, "lat": 38.89221366666666, "is_reserved": 0, "type": "electric_scooter"}, {"fusion_lat": 0.0, "name": "03e41a09bc1d462877eec3ab6269dda1", "lon": -77.03757983333334, "rental_uris": {"android": "https://dc.lft.to/lastmile_qr_scan", "ios": "https://dc.lft.to/lastmile_qr_scan"}, "fusion_lon": 0.0, "bike_id": "03e41a09bc1d462877eec3ab6269dda1", "is_disabled": 0, "lat": 38.918845833333336, "is_reserved": 0, "type": "electric_scooter"}, {"fusion_lat": 0.0, "name": "060241c1ad196c49462dff047c347667", "lon": -76.9893275, "rental_uris": {"android": "https://dc.lft.to/lastmile_qr_scan", "ios": "https://dc.lft.to/lastmile_qr_scan"}, "fusion_lon": 0.0, "bike_id": "060241c1ad196c49462dff047c347667", "is_disabled": 0, "lat": 38.857280833333334, "is_reserved": 0, "type": "electric_scooter"}, {"fusion_lat": 0.0, "name": "83b7912a320436f4beeda9580294466a", "lon": -77.0415615, "rental_uris": {"android": "https://dc.lft.to/lastmile_qr_scan", "ios": "https://dc.lft.to/lastmile_qr_scan"}, "fusion_lon": 0.0, "bike_id": "83b7912a320436f4beeda9580294466a", "is_disabled": 0, "lat": 38.91716866666667, "is_reserved": 0, "type": "electric_scooter"}, {"fusion_lat": 0.0, "name": "1d2044751cbdd4b6dbd1bb72a5dde5c1", "lon": -76.9930585, "rental_uris": {"android": "https://dc.lft.to/lastmile_qr_scan", "ios": "https://dc.lft.to/lastmile_qr_scan"}, "fusion_lon": 0.0, "bike_id": "1d2044751cbdd4b6dbd1bb72a5dde5c1", "is_disabled": 0, "lat": 38.90763616666667, "is_reserved": 0, "type": "electric_scooter"}, {"fusion_lat": 0.0, "name": "716f36a8a2cfe25f9ed05d5f6f6aa8c1", "lon": -77.017421, "rental_uris": {"android": "https://dc.lft.to/lastmile_qr_scan", "ios": "https://dc.lft.to/lastmile_qr_scan"}, "fusion_lon": 0.0, "bike_id": "716f36a8a2cfe25f9ed05d5f6f6aa8c1", "is_disabled": 0, "lat": 38.90125466666667, "is_reserved": 0, "type": "electric_scooter"}, {"fusion_lat": 0.0, "name": "6dcecc0652025cc5a3f7625b10e98b92", "lon": -77.003811, "rental_uris": {"android": "https://dc.lft.to/lastmile_qr_scan", "ios": "https://dc.lft.to/lastmile_qr_scan"}, "fusion_lon": 0.0, "bike_id": "6dcecc0652025cc5a3f7625b10e98b92", "is_disabled": 0, "lat": 38.876374, "is_reserved": 0, "type": "electric_scooter"}, {"fusion_lat": 0.0, "name": "6d9613ae9eb7632c14a3e2299e0cc4fc", "lon": -77.027389, "rental_uris": {"android": "https://dc.lft.to/lastmile_qr_scan", "ios": "https://dc.lft.to/lastmile_qr_scan"}, "fusion_lon": 0.0, "bike_id": "6d9613ae9eb7632c14a3e2299e0cc4fc", "is_disabled": 0, "lat": 38.887429166666664, "is_reserved": 0, "type": "electric_scooter"}, {"fusion_lat": 0.0, "name": "084e934b4bfd840f02f164af2a5a9090", "lon": -77.03436983333333, "rental_uris": {"android": "https://dc.lft.to/lastmile_qr_scan", "ios": "https://dc.lft.to/lastmile_qr_scan"}, "fusion_lon": 0.0, "bike_id": "084e934b4bfd840f02f164af2a5a9090", "is_disabled": 0, "lat": 38.910325666666665, "is_reserved": 0, "type": "electric_scooter"}, {"fusion_lat": 0.0, "name": "2d148025b6f22b484a68d67e005a950b", "lon": -77.00720916666667, "rental_uris": {"android": "https://dc.lft.to/lastmile_qr_scan", "ios": "https://dc.lft.to/lastmile_qr_scan"}, "fusion_lon": 0.0, "bike_id": "2d148025b6f22b484a68d67e005a950b", "is_disabled": 0, "lat": 38.904884, "is_reserved": 0, "type": "electric_scooter"}, {"fusion_lat": 0.0, "name": "f58fb0e57221dcb88c64f2ee55347a39", "lon": -76.993577, "rental_uris": {"android": "https://dc.lft.to/lastmile_qr_scan", "ios": "https://dc.lft.to/lastmile_qr_scan"},