{"data": {"bikes": [{"rental_uris": {"ios": "https://dc.lft.to/lastmile_qr_scan", "android": "https://dc.lft.to/lastmile_qr_scan"}, "lon": -76.93178416666666, "type": "electric_scooter", "fusion_lat": 0.0, "lat": 38.898886166666664, "name": "7dfc622218f3153a262e0299ef1d309e", "fusion_lon": 0.0, "bike_id": "7dfc622218f3153a262e0299ef1d309e", "is_disabled": 0, "is_reserved": 0}, {"rental_uris": {"ios": "https://dc.lft.to/lastmile_qr_scan", "android": "https://dc.lft.to/lastmile_qr_scan"}, "lon": -77.021132, "type": "electric_scooter", "fusion_lat": 0.0, "lat": 38.91798216666667, "name": "e29d529c790df66c03bde2288e6953ae", "fusion_lon": 0.0, "bike_id": "e29d529c790df66c03bde2288e6953ae", "is_disabled": 0, "is_reserved": 0}, {"rental_uris": {"ios": "https://dc.lft.to/lastmile_qr_scan", "android": "https://dc.lft.to/lastmile_qr_scan"}, "lon": -77.03258633333333, "type": "electric_scooter", "fusion_lat": 0.0, "lat": 38.9274475, "name": "9a65baf035d6f865da1158748015db34", "fusion_lon": 0.0, "bike_id": "9a65baf035d6f865da1158748015db34", "is_disabled": 0, "is_reserved": 0}, {"rental_uris": {"ios": "https://dc.lft.to/lastmile_qr_scan", "android": "https://dc.lft.to/lastmile_qr_scan"}, "lon": -77.03786233333334, "type": "electric_scooter", "fusion_lat": 0.0, "lat": 38.93026416666667, "name": "943b113b672267cb7bc987d302421abe", "fusion_lon": 0.0, "bike_id": "943b113b672267cb7bc987d302421abe", "is_disabled": 0, "is_reserved": 0}, {"rental_uris": {"ios": "https://dc.lft.to/lastmile_qr_scan", "android": "https://dc.lft.to/lastmile_qr_scan"}, "lon": -77.00032916666666, "type": "electric_scooter", "fusion_lat": 0.0, "lat": 38.8764355, "name": "b03aefc1ca46c9b6310eb31f6afbd654", "fusion_lon": 0.0, "bike_id": "b03aefc1ca46c9b6310eb31f6afbd654", "is_disabled": 0, "is_reserved": 0}, {"rental_uris": {"ios": "https://dc.lft.to/lastmile_qr_scan", "android": "https://dc.lft.to/lastmile_qr_scan"}, "lon": -77.016079, "type": "electric_scooter", "fusion_lat": 0.0, "lat": 38.911348333333336, "name": "c323111cbe951233c81bc7b2a7b846c4", "fusion_lon": 0.0, "bike_id": "c323111cbe951233c81bc7b2a7b846c4", "is_disabled": 0, "is_reserved": 0}, {"rental_uris": {"ios": "https://dc.lft.to/lastmile_qr_scan", "android": "https://dc.lft.to/lastmile_qr_scan"}, "lon": -77.02652983333333, "type": "electric_scooter", "fusion_lat": 0.0, "lat": 38.88119433333333, "name": "f698dfc33e1690f3b2b2558b56b37e59", "fusion_lon": 0.0, "bike_id": "f698dfc33e1690f3b2b2558b56b37e59", "is_disabled": 0, "is_reserved": 0}, {"rental_uris": {"ios": "https://dc.lft.to/lastmile_qr_scan", "android": "https://dc.lft.to/lastmile_qr_scan"}, "lon": -77.0135125, "type": "electric_scooter", "fusion_lat": 0.0, "lat": 38.875906, "name": "78345c91530e04af2a642f426c6b6513", "fusion_lon": 0.0, "bike_id": "78345c91530e04af2a642f426c6b6513", "is_disabled": 0, "is_reserved": 0}, {"rental_uris": {"ios": "https://dc.lft.to/lastmile_qr_scan", "android": "https://dc.lft.to/lastmile_qr_scan"}, "lon": -77.02618983333333, "type": "electric_scooter", "fusion_lat": 0.0, "lat": 38.919128666666666, "name": "b1bdead1cce25a3a51060c89701d2bb5", "fusion_lon": 0.0, "bike_id": "b1bdead1cce25a3a51060c89701d2bb5", "is_disabled": 0, "is_reserved": 0}, {"rental_uris": {"ios": "https://dc.lft.to/lastmile_qr_scan", "android": "https://dc.lft.to/lastmile_qr_scan"}, "lon": -77.03073983333333, "type": "electric_scooter", "fusion_lat": 0.0, "lat": 38.89966233333333, "name": "0ab141eb9e2cb3118291e1f56ed4e96a", "fusion_lon": 0.0, "bike_id": "0ab141eb9e2cb3118291e1f56ed4e96a", "is_disabled": 0, "is_reserved": 0}, {"rental_uris": {"ios": "https://dc.lft.to/lastmile_qr_scan", "android": "https://dc.lft.to/lastmile_qr_scan"}, "lon": -77.031854, "type": "electric_scooter", "fusion_lat": 0.0, "lat": 38.919656833333335, "name": "a226cf153e43c0c2f9384700263fe655", "fusion_lon": 0.0, "bike_id": "a226cf153e43c0c2f9384700263fe655", "is_disabled": 0, "is_reserved": 0}, {"rental_uris": {"ios": "https://dc.lft.to/lastmile_qr_scan", "android": "https://dc.lft.to/lastmile_qr_scan"}, "lon": -77.0793745, "type": "electric_scooter", "fusion_lat": 0.0, "lat": 38.9489245, "name": "14a07e4587697c2f86ad61ca680eec95", "fusion_lon": 0.0, "bike_id": "14a07e4587697c2f86ad61ca680eec95", "is_disabled": 0, "is_reserved": 0}, {"rental_uris": {"ios": "https://dc.lft.to/lastmile_qr_scan", "android": "https://dc.lft.to/lastmile_qr_scan"}, "lon": -77.039597, "type": "electric_scooter", "fusion_lat": 0.0, "lat": 38.919951, "name": "d737db4a4922302df6424a57875d6a23", "fusion_lon": 0.0, "bike_id": "d737db4a4922302df6424a57875d6a23", "is_disabled": 0, "is_reserved": 0}, {"rental_uris": {"ios": "https://dc.lft.to/lastmile_qr_scan", "android": "https://dc.lft.to/lastmile_qr_scan"}, "lon": -76.92996883333333, "type": "electric_bike", "fusion_lat": 0.0, "lat": 38.887997666666664, "name": "0d2b32de70ce43c78acb3444d10fbf71", "fusion_lon": 0.0, "bike_id": "0d2b32de70ce43c78acb3444d10fbf71", "is_disabled": 0, "is_reserved": 0}, {"rental_uris": {"ios": "https://dc.lft.to/lastmile_qr_scan", "android": "https://dc.lft.to/lastmile_qr_scan"}, "lon": -77.00715983333333, "type": "electric_scooter", "fusion_lat": 0.0, "lat": 38.91352916666666, "name": "49f796b69bd7f1131686470ff47bc500", "fusion_lon": 0.0, "bike_id": "49f796b69bd7f1131686470ff47bc500", "is_disabled": 0, "is_reserved": 0}, {"rental_uris": {"ios": "https://dc.lft.to/lastmile_qr_scan", "android": "https://dc.lft.to/lastmile_qr_scan"}, "lon": -77.05275016666667, "type": "electric_scooter", "fusion_lat": 0.0, "lat": 38.9101815, "name": "bb53328788f1fae55f8eda9b6a385dfa", "fusion_lon": 0.0, "bike_id": "bb53328788f1fae55f8eda9b6a385dfa", "is_disabled": 0, "is_reserved": 0}, {"rental_uris": {"ios": "https://dc.lft.to/lastmile_qr_scan", "android": "https://dc.lft.to/lastmile_qr_scan"}, "lon": -77.07498816666667, "type": "electric_bike", "fusion_lat": 0.0, "lat": 38.892955, "name": "333d32d1e2825267e6b3f297a007cf5c", "fusion_lon": 0.0, "bike_id": "333d32d1e2825267e6b3f297a007cf5c", "is_disabled": 0, "is_reserved": 0}, {"rental_uris": {"ios": "https://dc.lft.to/lastmile_qr_scan", "android": "https://dc.lft.to/lastmile_qr_scan"}, "lon": -76.99030233333333, "type": "electric_scooter", "fusion_lat": 0.0, "lat": 38.864102833333334, "name": "dabb5f00a99c62c8d33ad92a9d258c3f", "fusion_lon": 0.0, "bike_id": "dabb5f00a99c62c8d33ad92a9d258c3f", "is_disabled": 0, "is_reserved": 0}, {"rental_uris": {"ios": "https://dc.lft.to/lastmile_qr_scan", "android": "https://dc.lft.to/lastmile_qr_scan"}, "lon": -77.016083, "type": "electric_scooter", "fusion_lat": 0.0, "lat": 38.896251, "name": "565f76c1d8b50c91ff0a7e43ee1ba9af", "fusion_lon": 0.0, "bike_id": "565f76c1d8b50c91ff0a7e43ee1ba9af", "is_disabled": 0, "is_reserved": 0}, {"rental_uris": {"ios": "https://dc.lft.to/lastmile_qr_scan", "android": "https://dc.lft.to/lastmile_qr_scan"}, "lon": -77.02514133333334, "type": "electric_scooter", "fusion_lat": 0.0, "lat": 38.916873333333335, "name": "c6d0a1eb95a57e41a04bda6c13cc2146", "fusion_lon": 0.0, "bike_id": "c6d0a1eb95a57e41a04bda6c13cc2146", "is_disabled": 0, "is_reserved": 0}, {"rental_uris": {"ios": "https://dc.lft.to/lastmile_qr_scan", "android": "https://dc.lft.to/lastmile_qr_scan"}, "lon": -77.03667683333333, "type": "electric_scooter", "fusion_lat": 0.0, "lat": 38.918118, "name": "242cdcfc888257945cad3cba4e73db21", "fusion_lon": 0.0, "bike_id": "242cdcfc888257945cad3cba4e73db21", "is_disabled": 0, "is_reserved": 0}, {"rental_uris": {"ios": "https://dc.lft.to/lastmile_qr_scan", "android": "https://dc.lft.to/lastmile_qr_scan"}, "lon": -77.04475, "type": "electric_scooter", "fusion_lat": 0.0, "lat": 38.90663816666667, "name": "9c2b1e48fde54fb9d67c6c8182c7b3ed", "fusion_lon": 0.0, "bike_id": "9c2b1e48fde54fb9d67c6c8182c7b3ed", "is_disabled": 0, "is_reserved": 0}, {"rental_uris": {"ios": "https://dc.lft.to/lastmile_qr_scan", "android": "https://dc.lft.to/lastmile_qr_scan"}, "lon": -77.02712966666667, "type": "electric_scooter", "fusion_lat": 0.0, "lat": 38.90677216666667, "name": "236d83a5847e36f7baa0bb9c506a8d60", "fusion_lon": 0.0, "bike_id": "236d83a5847e36f7baa0bb9c506a8d60", "is_disabled": 0, "is_reserved": 0}, {"rental_uris": {"ios": "https://dc.lft.to/lastmile_qr_scan", "android": "https://dc.lft.to/lastmile_qr_scan"}, "lon": -77.1131595, "type": "electric_bike", "fusion_lat": 0.0, "lat": 38.855656333333336, "name": "5822390b4ff25dfd4ea052a8f7307a6d", "fusion_lon": 0.0, "bike_id": "5822390b4ff25dfd4ea052a8f7307a6d", "is_disabled": 0, "is_reserved": 0}, {"rental_uris": {"ios": "https://dc.lft.to/lastmile_qr_scan", "android": "https://dc.lft.to/lastmile_qr_scan"}, "lon": -77.03346116666667, "type": "electric_scooter", "fusion_lat": 0.0, "lat": 38.899498666666666, "name": "63ad8737c6fd3f667db1a7d26bf7ea9c", "fusion_lon": 0.0, "bike_id": "63ad8737c6fd3f667db1a7d26bf7ea9c", "is_disabled": 0, "is_reserved": 0}, {"rental_uris": {"ios": "https://dc.lft.to/lastmile_qr_scan", "android": "https://dc.lft.to/lastmile_qr_scan"}, "lon": -77.0299465, "type": "electric_bike", "fusion_lat": 0.0, "lat": 38.90033, "name": "55c6d3866a9a0a52a23c340ee34092e5", "fusion_lon": 0.0, "bike_id": "55c6d3866a9a0a52a23c340ee34092e5", "is_disabled": 0, "is_reserved": 0}, {"rental_uris": {"ios": "https://dc.lft.to/lastmile_qr_scan", "android": "https://dc.lft.to/lastmile_qr_scan"}, "lon": -77.03858233333334, "type": "electric_scooter", "fusion_lat": 0.0, "lat": 38.91210266666667, "name": "ddab638621252dd49ff35c523c3a536c", "fusion_lon": 0.0, "bike_id": "ddab638621252dd49ff35c523c3a536c", "is_disabled": 0, "is_reserved": 0}, {"rental_uris": {"ios": "https://dc.lft.to/lastmile_qr_scan", "android": "https://dc.lft.to/lastmile_qr_scan"}, "lon": -76.98824983333333, "type": "electric_scooter", "fusion_lat": 0.0, "lat": 38.88025, "name": "a036f6177710b5a9f4e2057fc6153ba9", "fusion_lon": 0.0, "bike_id": "a036f6177710b5a9f4e2057fc6153ba9", "is_disabled": 0, "is_reserved": 0}, {"rental_uris": {"ios": "https://dc.lft.to/lastmile_qr_scan", "android": "https://dc.lft.to/lastmile_qr_scan"}, "lon": -77.03215916666667, "type": "electric_scooter", "fusion_lat": 0.0, "lat": 38.887075, "name": "903e08581d94f2ef7e69f7eba41abecf", "fusion_lon": 0.0, "bike_id": "903e08581d94f2ef7e69f7eba41abecf", "is_disabled": 0, "is_reserved": 0}, {"rental_uris": {"ios": "https://dc.lft.to/lastmile_qr_scan", "android": "https://dc.lft.to/lastmile_qr_scan"}, "lon": -77.04230733333333, "type": "electric_scooter", "fusion_lat": 0.0, "lat": 38.911128, "name": "b3e9e403cb9449b39a840f9d24126961", "fusion_lon": 0.0, "bike_id": "b3e9e403cb9449b39a840f9d24126961", "is_disabled": 0, "is_reserved": 0}, {"rental_uris": {"ios": "https://dc.lft.to/lastmile_qr_scan", "android": "https://dc.lft.to/lastmile_qr_scan"}, "lon": -77.02407866666667, "type": "electric_scooter", "fusion_lat": 0.0, "lat": 38.884580666666665, "name": "3f20ce554c3080af8f235796ca663917", "fusion_lon": 0.0, "bike_id": "3f20ce554c3080af8f235796ca663917", "is_disabled": 0, "is_reserved": 0}, {"rental_uris": {"ios": "https://dc.lft.to/lastmile_qr_scan", "android": "https://dc.lft.to/lastmile_qr_scan"}, "lon": -77.0036645, "type": "electric_scooter", "fusion_lat": 0.0, "lat": 38.90745483333333, "name": "136eab6b51105a61a7284c7b545d3d92", "fusion_lon": 0.0, "bike_id": "136eab6b51105a61a7284c7b545d3d92", "is_disabled": 0, "is_reserved": 0}, {"rental_uris": {"ios": "https://dc.lft.to/lastmile_qr_scan", "android": "https://dc.lft.to/lastmile_qr_scan"}, "lon": -77.01089616666667, "type": "electric_scooter", "fusion_lat": 0.0, "lat": 38.89399066666667, "name": "341e25297b0e9b63df2fc0679c7b47de", "fusion_lon": 0.0, "bike_id": "341e25297b0e9b63df2fc0679c7b47de", "is_disabled": 0, "is_reserved": 0}, {"rental_uris": {"ios": "https://dc.lft.to/lastmile_qr_scan", "android": "https://dc.lft.to/lastmile_qr_scan"}, "lon": -77.01104733333334, "type": "electric_scooter", "fusion_lat": 0.0, "lat": 38.903423333333336, "name": "a416a6cacd76700b1eaac0739109207d", "fusion_lon": 0.0, "bike_id": "a416a6cacd76700b1eaac0739109207d", "is_disabled": 0, "is_reserved": 0}, {"rental_uris": {"ios": "https://dc.lft.to/lastmile_qr_scan", "android": "https://dc.lft.to/lastmile_qr_scan"}, "lon": -76.948421, "type": "electric_scooter", "fusion_lat": 0.0, "lat": 38.89488983333333, "name": "e4c024916091544635a4b9e518430712", "fusion_lon": 0.0, "bike_id": "e4c024916091544635a4b9e518430712", "is_disabled": 0, "is_reserved": 0}, {"rental_uris": {"ios": "https://dc.lft.to/lastmile_qr_scan", "android": "https://dc.lft.to/lastmile_qr_scan"}, "lon": -77.08849833333333, "type": "electric_bike", "fusion_lat": 0.0, "lat": 38.84083016666666, "name": "6da253371bcc93961cda74523555f2b7", "fusion_lon": 0.0, "bike_id": "6da253371bcc93961cda74523555f2b7", "is_disabled": 0, "is_reserved": 0}, {"rental_uris": {"ios": "https://dc.lft.to/lastmile_qr_scan", "android": "https://dc.lft.to/lastmile_qr_scan"}, "lon": -77.07544166666666, "type": "electric_bike", "fusion_lat": 0.0, "lat": 38.91056966666667, "name": "fd15f39c15e935689d52961f708f08fa", "fusion_lon": 0.0, "bike_id": "fd15f39c15e935689d52961f708f08fa", "is_disabled": 0, "is_reserved": 0}, {"rental_uris": {"ios": "https://dc.lft.to/lastmile_qr_scan", "android": "https://dc.lft.to/lastmile_qr_scan"}, "lon": -77.02553583333334, "type": "electric_scooter", "fusion_lat": 0.0, "lat": 38.89231916666667, "name": "75e9693032b6e234e797c1279814b88f", "fusion_lon": 0.0, "bike_id": "75e9693032b6e234e797c1279814b88f", "is_disabled": 0, "is_reserved": 0}, {"rental_uris": {"ios": "https://dc.lft.to/lastmile_qr_scan", "android": "https://dc.lft.to/lastmile_qr_scan"}, "lon": -77.01701333333334, "type": "electric_scooter", "fusion_lat": 0.0, "lat": 38.87924833333334, "name": "309c9d5bd5a6b517d1660afb128158f9", "fusion_lon": 0.0, "bike_id": "309c9d5bd5a6b517d1660afb128158f9", "is_disabled": 0, "is_reserved": 0}, {"rental_uris": {"ios": "https://dc.lft.to/lastmile_qr_scan", "android": "https://dc.lft.to/lastmile_qr_scan"}, "lon": -77.03700916666666, "type": "electric_bike", "fusion_lat": 0.0, "lat": 38.935588333333335, "name": "ccaa9ef95e3d5a5ca877fe0560585784", "fusion_lon": 0.0, "bike_id": "ccaa9ef95e3d5a5ca877fe0560585784", "is_disabled": 0, "is_reserved": 0}, {"rental_uris": {"ios": "https://dc.lft.to/lastmile_qr_scan", "android": "https://dc.lft.to/lastmile_qr_scan"}, "lon": -77.01297983333333, "type": "electric_bike", "fusion_lat": 0.0, "lat": 39.0038955, "name": "1e7e0193aa4822028a8db266df9fa422", "fusion_lon": 0.0, "bike_id": "1e7e0193aa4822028a8db266df9fa422", "is_disabled": 0, "is_reserved": 0}, {"rental_uris": {"ios": "https://dc.lft.to/lastmile_qr_scan", "android": "https://dc.lft.to/lastmile_qr_scan"}, "lon": -77.00058283333334, "type": "electric_scooter", "fusion_lat": 0.0, "lat": 38.88903483333333, "name": "f39dabc9ef8a0367239adf330ece1097", "fusion_lon": 0.0, "bike_id": "f39dabc9ef8a0367239adf330ece1097", "is_disabled": 0, "is_reserved": 0}, {"rental_uris": {"ios": "https://dc.lft.to/lastmile_qr_scan", "android": "https://dc.lft.to/lastmile_qr_scan"}, "lon": -77.0456585, "type": "electric_scooter", "fusion_lat": 0.0, "lat": 38.914700333333336, "name": "531ea70c0c1b8b6a857d769ba488ed00", "fusion_lon": 0.0, "bike_id": "531ea70c0c1b8b6a857d769ba488ed00", "is_disabled": 0, "is_reserved": 0}, {"rental_uris": {"ios": "https://dc.lft.to/lastmile_qr_scan", "android": "https://dc.lft.to/lastmile_qr_scan"}, "lon": -77.0362, "type": "electric_scooter", "fusion_lat": 0.0, "lat": 38.906854333333335, "name": "5e98a2cca5857c1bf560033a58dd51cb", "fusion_lon": 0.0, "bike_id": "5e98a2cca5857c1bf560033a58dd51cb", "is_disabled": 0, "is_reserved": 0}, {"rental_uris": {"ios": "https://dc.lft.to/lastmile_qr_scan", "android": "https://dc.lft.to/lastmile_qr_scan"}, "lon": -77.0320425, "type": "electric_scooter", "fusion_lat": 0.0, "lat": 38.90995133333333, "name": "70c9ebac23915b657f70983d8cbc53fd", "fusion_lon": 0.0, "bike_id": "70c9ebac23915b657f70983d8cbc53fd", "is_disabled": 0, "is_reserved": 0}, {"rental_uris": {"ios": "https://dc.lft.to/lastmile_qr_scan", "android": "https://dc.lft.to/lastmile_qr_scan"}, "lon": -77.00738266666667, "type": "electric_scooter", "fusion_lat": 0.0, "lat": 38.90483283333333, "name": "ca067786fe4384b032b2737f31555eb8", "fusion_lon": 0.0, "bike_id": "ca067786fe4384b032b2737f31555eb8", "is_disabled": 0, "is_reserved": 0}, {"rental_uris": {"ios": "https://dc.lft.to/lastmile_qr_scan", "android": "https://dc.lft.to/lastmile_qr_scan"}, "lon": -77.10897216666666, "type": "electric_bike", "fusion_lat": 0.0, "lat": 38.83044133333333, "name": "9fdd51243df3b331d2c9ca08840c3902", "fusion_lon": 0.0, "bike_id": "9fdd51243df3b331d2c9ca08840c3902", "is_disabled": 0, "is_reserved": 0}, {"rental_uris": {"ios": "https://dc.lft.to/lastmile_qr_scan", "android": "https://dc.lft.to/lastmile_qr_scan"}, "lon": -77.01108633333334, "type": "electric_bike", "fusion_lat": 0.0, "lat": 38.963088, "name": "14cc2b37a44de333537b2a1d971eea96", "fusion_lon": 0.0, "bike_id": "14cc2b37a44de333537b2a1d971eea96", "is_disabled": 0, "is_reserved": 0}, {"rental_uris": {"ios": "https://dc.lft.to/lastmile_qr_scan", "android": "https://dc.lft.to/lastmile_qr_scan"}, "lon": -76.97339466666666, "type": "electric_scooter", "fusion_lat": 0.0, "lat": 38.904858833333336, "name": "db93a97833b4a8097d470964cb329b58", "fusion_lon": 0.0, "bike_id": "db93a97833b4a8097d470964cb329b58", "is_disabled": 0, "is_reserved": 0}, {"rental_uris": {"ios": "https://dc.lft.to/lastmile_qr_scan", "android": "https://dc.lft.to/lastmile_qr_scan"}, "lon": -77.03354733333333, "type": "electric_scooter", "fusion_lat": 0.0, "lat": 38.92881, "name": "ccb3d0d21052e933fab588a8f573326c", "fusion_lon": 0.0, "bike_id": "ccb3d0d21052e933fab588a8f573326c", "is_disabled": 0, "is_reserved": 0}, {"rental_uris": {"ios": "https://dc.lft.to/lastmile_qr_scan", "android": "https://dc.lft.to/lastmile_qr_scan"}, "lon": -77.001366, "type": "electric_scooter", "fusion_lat": 0.0, "lat": 38.90414366666667, "name": "4e783f3653d682189e6c63e5fe44ec35", "fusion_lon": 0.0, "bike_id": "4e783f3653d682189e6c63e5fe44ec35", "is_disabled": 0, "is_reserved": 0}, {"rental_uris": {"ios": "https://dc.lft.to/lastmile_qr_scan", "android": "https://dc.lft.to/lastmile_qr_scan"}, "lon": -77.02214966666666, "type": "electric_scooter", "fusion_lat": 0.0, "lat": 38.91057433333334, "name": "69d01c29b39de6c48e712c6878fb4d27", "fusion_lon": 0.0, "bike_id": "69d01c29b39de6c48e712c6878fb4d27", "is_disabled": 0, "is_reserved": 0}, {"rental_uris": {"ios": "https://dc.lft.to/lastmile_qr_scan", "android": "https://dc.lft.to/lastmile_qr_scan"}, "lon": -76.991457, "type": "electric_scooter", "fusion_lat": 0.0, "lat": 38.893485, "name": "88133ce0766d85609a5bdd7d7b1d10ee", "fusion_lon": 0.0, "bike_id": "88133ce0766d85609a5bdd7d7b1d10ee", "is_disabled": 0, "is_reserved": 0}, {"rental_uris": {"ios": "https://dc.lft.to/lastmile_qr_scan", "android": "https://dc.lft.to/lastmile_qr_scan"}, "lon": -77.0487025, "type": "electric_scooter", "fusion_lat": 0.0, "lat": 38.905315, "name": "15f7f96d9b1e26dca27590aadbd056a7", "fusion_lon": 0.0, "bike_id": "15f7f96d9b1e26dca27590aadbd056a7", "is_disabled": 0, "is_reserved": 0}, {"rental_uris": {"ios": "https://dc.lft.to/lastmile_qr_scan", "android": "https://dc.lft.to/lastmile_qr_scan"}, "lon": -77.03355933333333, "type": "electric_scooter", "fusion_lat": 0.0, "lat": 38.9244425, "name": "46646244326b0923e98a11bca8fc7fc8", "fusion_lon": 0.0, "bike_id": "46646244326b0923e98a11bca8fc7fc8", "is_disabled": 0, "is_reserved": 0}, {"rental_uris": {"ios": "https://dc.lft.to/lastmile_qr_scan", "android": "https://dc.lft.to/lastmile_qr_scan"}, "lon": -77.07366583333334, "type": "electric_scooter", "fusion_lat": 0.0, "lat": 38.93354033333333, "name": "96ca6e1b610cb11214a8f43ac4eae09b", "fusion_lon": 0.0, "bike_id": "96ca6e1b610cb11214a8f43ac4eae09b", "is_disabled": 0, "is_reserved": 0}, {"rental_uris": {"ios": "https://dc.lft.to/lastmile_qr_scan", "android": "https://dc.lft.to/lastmile_qr_scan"}, "lon": -77.04759516666667, "type": "electric_scooter", "fusion_lat": 0.0, "lat": 38.9023365, "name": "c1baef5fceda5000a84690762afa4b6f", "fusion_lon": 0.0, "bike_id": "c1baef5fceda5000a84690762afa4b6f", "is_disabled": 0, "is_reserved": 0}, {"rental_uris": {"ios": "https://dc.lft.to/lastmile_qr_scan", "android": "https://dc.lft.to/lastmile_qr_scan"}, "lon": -77.0268845, "type": "electric_scooter", "fusion_lat": 0.0, "lat": 38.899370166666664, "name": "bbe612d93280a7c7dfe8ebdbb352becb", "fusion_lon": 0.0, "bike_id": "bbe612d93280a7c7dfe8ebdbb352becb", "is_disabled": 0, "is_reserved": 0}, {"rental_uris": {"ios": "https://dc.lft.to/lastmile_qr_scan", "android": "https://dc.lft.to/lastmile_qr_scan"}, "lon": -76.93544033333333, "type": "electric_bike", "fusion_lat": 0.0, "lat": 38.955491333333335, "name": "9077b0aea8b7d7ac841f734aad58c37b", "fusion_lon": 0.0, "bike_id": "9077b0aea8b7d7ac841f734aad58c37b", "is_disabled": 0, "is_reserved": 0}, {"rental_uris": {"ios": "https://dc.lft.to/lastmile_qr_scan", "android": "https://dc.lft.to/lastmile_qr_scan"}, "lon": -77.0768505, "type": "electric_bike", "fusion_lat": 0.0, "lat": 38.831973, "name": "0ad4811e643d2baf02cfd22afc1800d2", "fusion_lon": 0.0, "bike_id": "0ad4811e643d2baf02cfd22afc1800d2", "is_disabled": 0, "is_reserved": 0}, {"rental_uris": {"ios": "https://dc.lft.to/lastmile_qr_scan", "android": "https://dc.lft.to/lastmile_qr_scan"}, "lon": -77.023102, "type": "electric_bike", "fusion_lat": 0.0, "lat": 38.97231433333333, "name": "1a8628e2e27faf50363fc2a79d3b5cef", "fusion_lon": 0.0, "bike_id": "1a8628e2e27faf50363fc2a79d3b5cef", "is_disabled": 0, "is_reserved": 0}, {"rental_uris": {"ios": "https://dc.lft.to/lastmile_qr_scan", "android": "https://dc.lft.to/lastmile_qr_scan"}, "lon": -77.05001583333333, "type": "electric_scooter", "fusion_lat": 0.0, "lat": 38.898952333333334, "name": "4a2b0600282266ddc3a861a6dea7c748", "fusion_lon": 0.0, "bike_id": "4a2b0600282266ddc3a861a6dea7c748", "is_disabled": 0, "is_reserved": 0}, {"rental_uris": {"ios": "https://dc.lft.to/lastmile_qr_scan", "android": "https://dc.lft.to/lastmile_qr_scan"}, "lon": -77.12257266666667, "type": "electric_bike", "fusion_lat": 0.0, "lat": 38.8919245, "name": "7d0cd5fb18aa1bb691490cd6a6926e31", "fusion_lon": 0.0, "bike_id": "7d0cd5fb18aa1bb691490cd6a6926e31", "is_disabled": 0, "is_reserved": 0}, {"rental_uris": {"ios": "https://dc.lft.to/lastmile_qr_scan", "android": "https://dc.lft.to/lastmile_qr_scan"}, "lon": -77.02405233333333, "type": "electric_scooter", "fusion_lat": 0.0, "lat": 38.91602016666667, "name": "4a43ed24210d02ad5528b586a0f181bc", "fusion_lon": 0.0, "bike_id": "4a43ed24210d02ad5528b586a0f181bc", "is_disabled": 0, "is_reserved": 0}, {"rental_uris": {"ios": "https://dc.lft.to/lastmile_qr_scan", "android": "https://dc.lft.to/lastmile_qr_scan"}, "lon": -77.11220483333334, "type": "electric_bike", "fusion_lat": 0.0, "lat": 38.828787166666665, "name": "0ef91bd847001eac06822524f1298ebe", "fusion_lon": 0.0, "bike_id": "0ef91bd847001eac06822524f1298ebe", "is_disabled": 0, "is_reserved": 0}, {"rental_uris": {"ios": "https://dc.lft.to/lastmile_qr_scan", "android": "https://dc.lft.to/lastmile_qr_scan"}, "lon": -77.0415195, "type": "electric_scooter", "fusion_lat": 0.0, "lat": 38.91933516666667, "name": "b1c97fa65245f0f614618d4a4783cdf6", "fusion_lon": 0.0, "bike_id": "b1c97fa65245f0f614618d4a4783cdf6", "is_disabled": 0, "is_reserved": 0}, {"rental_uris": {"ios": "https://dc.lft.to/lastmile_qr_scan", "android": "https://dc.lft.to/lastmile_qr_scan"}, "lon": -77.042248, "type": "electric_scooter", "fusion_lat": 0.0, "lat": 38.907385166666664, "name": "840c5ffaa2f935263f2f7c4036100de1", "fusion_lon": 0.0, "bike_id": "840c5ffaa2f935263f2f7c4036100de1", "is_disabled": 0, "is_reserved": 0}, {"rental_uris": {"ios": "https://dc.lft.to/lastmile_qr_scan", "android": "https://dc.lft.to/lastmile_qr_scan"}, "lon": -77.02392583333334, "type": "electric_scooter", "fusion_lat": 0.0, "lat": 38.90990383333333, "name": "a01eed8517567a54be79882b0090dea8", "fusion_lon": 0.0, "bike_id": "a01eed8517567a54be79882b0090dea8", "is_disabled": 0, "is_reserved": 0}, {"rental_uris": {"ios": "https://dc.lft.to/lastmile_qr_scan", "android": "https://dc.lft.to/lastmile_qr_scan"}, "lon": -77.04248133333333, "type": "electric_scooter", "fusion_lat": 0.0, "lat": 38.92296366666667, "name": "56a0ef097b9cf783b770715de7a48bb7", "fusion_lon": 0.0, "bike_id": "56a0ef097b9cf783b770715de7a48bb7", "is_disabled": 0, "is_reserved": 0}, {"rental_uris": {"ios": "https://dc.lft.to/lastmile_qr_scan", "android": "https://dc.lft.to/lastmile_qr_scan"}, "lon": -77.01051783333334, "type": "electric_scooter", "fusion_lat": 0.0, "lat": 38.87937133333333, "name": "1a27a5ace170236849e542c41518f847", "fusion_lon": 0.0, "bike_id": "1a27a5ace170236849e542c41518f847", "is_disabled": 0, "is_reserved": 0}, {"rental_uris": {"ios": "https://dc.lft.to/lastmile_qr_scan", "android": "https://dc.lft.to/lastmile_qr_scan"}, "lon": -77.03567033333333, "type": "electric_scooter", "fusion_lat": 0.0, "lat": 38.908668166666665, "name": "99767c1817d9d40b47833f8bac538efb", "fusion_lon": 0.0, "bike_id": "99767c1817d9d40b47833f8bac538efb", "is_disabled": 0, "is_reserved": 0}, {"rental_uris": {"ios": "https://dc.lft.to/lastmile_qr_scan", "android": "https://dc.lft.to/lastmile_qr_scan"}, "lon": -77.06759983333333, "type": "electric_scooter", "fusion_lat": 0.0, "lat": 38.915665833333335, "name": "df3a3ac96716bd4b932362c649563463", "fusion_lon": 0.0, "bike_id": "df3a3ac96716bd4b932362c649563463", "is_disabled": 0, "is_reserved": 0}, {"rental_uris": {"ios": "https://dc.lft.to/lastmile_qr_scan", "android": "https://dc.lft.to/lastmile_qr_scan"}, "lon": -77.0259495, "type": "electric_scooter", "fusion_lat": 0.0, "lat": 38.89617066666667, "name": "fec03b3fbb9de3a54921d7bbb7b175a7", "fusion_lon": 0.0, "bike_id": "fec03b3fbb9de3a54921d7bbb7b175a7", "is_disabled": 0, "is_reserved": 0}, {"rental_uris": {"ios": "https://dc.lft.to/lastmile_qr_scan", "android": "https://dc.lft.to/lastmile_qr_scan"}, "lon": -77.02118316666666, "type": "electric_scooter", "fusion_lat": 0.0, "lat": 38.91311416666667, "name": "d2ed0cf1c8a6763e8c4c51a5a2653e96", "fusion_lon": 0.0, "bike_id": "d2ed0cf1c8a6763e8c4c51a5a2653e96", "is_disabled": 0, "is_reserved": 0}, {"rental_uris": {"ios": "https://dc.lft.to/lastmile_qr_scan", "android": "https://dc.lft.to/lastmile_qr_scan"}, "lon": -77.01118266666667, "type": "electric_scooter", "fusion_lat": 0.0, "lat": 38.90795716666667, "name": "bb6c501dc162cc25a97cb3062c537b57", "fusion_lon": 0.0, "bike_id": "bb6c501dc162cc25a97cb3062c537b57", "is_disabled": 0, "is_reserved": 0}, {"rental_uris": {"ios": "https://dc.lft.to/lastmile_qr_scan", "android": "https://dc.lft.to/lastmile_qr_scan"}, "lon": -76.93754983333334, "type": "electric_scooter", "fusion_lat": 0.0, "lat": 38.890535, "name": "a56758cd98850a5ff3785979e4e42b23", "fusion_lon": 0.0, "bike_id": "a56758cd98850a5ff3785979e4e42b23", "is_disabled": 0, "is_reserved": 0}, {"rental_uris": {"ios": "https://dc.lft.to/lastmile_qr_scan", "android": "https://dc.lft.to/lastmile_qr_scan"}, "lon": -77.02993466666666, "type": "electric_scooter", "fusion_lat": 0.0, "lat": 38.9170685, "name": "c36503e3dc08bb751e347880caa04ab4", "fusion_lon": 0.0, "bike_id": "c36503e3dc08bb751e347880caa04ab4", "is_disabled": 0, "is_reserved": 0}, {"rental_uris": {"ios": "https://dc.lft.to/lastmile_qr_scan", "android": "https://dc.lft.to/lastmile_qr_scan"}, "lon": -77.02284133333333, "type": "electric_scooter", "fusion_lat": 0.0, "lat": 38.91659633333333, "name": "60801815ab7523d00b76ea10b6cd5c3e", "fusion_lon": 0.0, "bike_id": "60801815ab7523d00b76ea10b6cd5c3e", "is_disabled": 0, "is_reserved": 0}, {"rental_uris": {"ios": "https://dc.lft.to/lastmile_qr_scan", "android": "https://dc.lft.to/lastmile_qr_scan"}, "lon": -77.02395433333334, "type": "electric_scooter", "fusion_lat": 0.0, "lat": 38.952935, "name": "174399987ff724f5d0b1e5430be5d63d", "fusion_lon": 0.0, "bike_id": "174399987ff724f5d0b1e5430be5d63d", "is_disabled": 0, "is_reserved": 0}, {"rental_uris": {"ios": "https://dc.lft.to/lastmile_qr_scan", "android": "https://dc.lft.to/lastmile_qr_scan"}, "lon": -77.02650066666666, "type": "electric_scooter", "fusion_lat": 0.0, "lat": 38.9386255, "name": "2b2fdb55db2b36725c0f983fe5a7fd29", "fusion_lon": 0.0, "bike_id": "2b2fdb55db2b36725c0f983fe5a7fd29", "is_disabled": 0, "is_reserved": 0}, {"rental_uris": {"ios": "https://dc.lft.to/lastmile_qr_scan", "android": "https://dc.lft.to/lastmile_qr_scan"}, "lon": -76.9662785, "type": "electric_bike", "fusion_lat": 0.0, "lat": 38.94206783333333, "name": "cda851de0ad50afcf41ca87ba4367f0e", "fusion_lon": 0.0, "bike_id": "cda851de0ad50afcf41ca87ba4367f0e", "is_disabled": 0, "is_reserved": 0}, {"rental_uris": {"ios": "https://dc.lft.to/lastmile_qr_scan", "android": "https://dc.lft.to/lastmile_qr_scan"}, "lon": -77.0097965, "type": "electric_scooter", "fusion_lat": 0.0, "lat": 38.91490133333333, "name": "5453b7865b8d94ae2c6d3d0cf004ad5d", "fusion_lon": 0.0, "bike_id": "5453b7865b8d94ae2c6d3d0cf004ad5d", "is_disabled": 0, "is_reserved": 0}, {"rental_uris": {"ios": "https://dc.lft.to/lastmile_qr_scan", "android": "https://dc.lft.to/lastmile_qr_scan"}, "lon": -77.01783883333333, "type": "electric_scooter", "fusion_lat": 0.0, "lat": 38.90034683333333, "name": "59671d098a6299f18538f7df90b3a355", "fusion_lon": 0.0, "bike_id": "59671d098a6299f18538f7df90b3a355", "is_disabled": 0, "is_reserved": 0}, {"rental_uris": {"ios": "https://dc.lft.to/lastmile_qr_scan", "android": "https://dc.lft.to/lastmile_qr_scan"}, "lon": -76.9885235, "type": "electric_scooter", "fusion_lat": 0.0, "lat": 38.90348933333333, "name": "a9e348f935ce07dc4d773423cb35cd2a", "fusion_lon": 0.0, "bike_id": "a9e348f935ce07dc4d773423cb35cd2a", "is_disabled": 0, "is_reserved": 0}, {"rental_uris": {"ios": "https://dc.lft.to/lastmile_qr_scan", "android": "https://dc.lft.to/lastmile_qr_scan"}, "lon": -77.02294566666667, "type": "electric_scooter", "fusion_lat": 0.0, "lat": 38.90910916666667, "name": "7c323d07213c35e6cdac3f55b9601bf5", "fusion_lon": 0.0, "bike_id": "7c323d07213c35e6cdac3f55b9601bf5", "is_disabled": 0, "is_reserved": 0}, {"rental_uris": {"ios": "https://dc.lft.to/lastmile_qr_scan", "android": "https://dc.lft.to/lastmile_qr_scan"}, "lon": -77.01772683333333, "type": "electric_bike", "fusion_lat": 0.0, "lat": 38.877060166666666, "name": "6ea3ca465fb82f8aa8dbef97e62b9398", "fusion_lon": 0.0, "bike_id": "6ea3ca465fb82f8aa8dbef97e62b9398", "is_disabled": 0, "is_reserved": 0}, {"rental_uris": {"ios": "https://dc.lft.to/lastmile_qr_scan", "android": "https://dc.lft.to/lastmile_qr_scan"}, "lon": -77.03843766666667, "type": "electric_scooter", "fusion_lat": 0.0, "lat": 38.912846, "name": "4fb0b20510a5396922c1a5ec6ce7bdbf", "fusion_lon": 0.0, "bike_id": "4fb0b20510a5396922c1a5ec6ce7bdbf", "is_disabled": 0, "is_reserved": 0}, {"rental_uris": {"ios": "https://dc.lft.to/lastmile_qr_scan", "android": "https://dc.lft.to/lastmile_qr_scan"}, "lon": -77.02785733333333, "type": "electric_scooter", "fusion_lat": 0.0, "lat": 38.92377233333333, "name": "3f3e83fbf150b62746192c1de78e98e6", "fusion_lon": 0.0, "bike_id": "3f3e83fbf150b62746192c1de78e98e6", "is_disabled": 0, "is_reserved": 0}, {"rental_uris": {"ios": "https://dc.lft.to/lastmile_qr_scan", "android": "https://dc.lft.to/lastmile_qr_scan"}, "lon": -77.047149, "type": "electric_scooter", "fusion_lat": 0.0, "lat": 38.909651, "name": "1c3b85188ee671e54d136fb2cb7cdf20", "fusion_lon": 0.0, "bike_id": "1c3b85188ee671e54d136fb2cb7cdf20", "is_disabled": 0, "is_reserved": 0}, {"rental_uris": {"ios": "https://dc.lft.to/lastmile_qr_scan", "android": "https://dc.lft.to/lastmile_qr_scan"}, "lon": -77.03310716666667, "type": "electric_scooter", "fusion_lat": 0.0, "lat": 38.90152883333333, "name": "e9e0371d0a217897670470971c5e2f7e", "fusion_lon": 0.0, "bike_id": "e9e0371d0a217897670470971c5e2f7e", "is_disabled": 0, "is_reserved": 0}, {"rental_uris": {"ios": "https://dc.lft.to/lastmile_qr_scan", "android": "https://dc.lft.to/lastmile_qr_scan"}, "lon": -77.02144366666667, "type": "electric_scooter", "fusion_lat": 0.0, "lat": 38.92820533333333, "name": "1950b229dd55065f6191ba763c8e4e4b", "fusion_lon": 0.0, "bike_id": "1950b229dd55065f6191ba763c8e4e4b", "is_disabled": 0, "is_reserved": 0}, {"rental_uris": {"ios": "https://dc.lft.to/lastmile_qr_scan", "android": "https://dc.lft.to/lastmile_qr_scan"}, "lon": -77.0418025, "type": "electric_scooter", "fusion_lat": 0.0, "lat": 38.903630666666665, "name": "a944f31df6e0a683ea8701733507e359", "fusion_lon": 0.0, "bike_id": "a944f31df6e0a683ea8701733507e359", "is_disabled": 0, "is_reserved": 0}, {"rental_uris": {"ios": "https://dc.lft.to/lastmile_qr_scan", "android": "https://dc.lft.to/lastmile_qr_scan"}, "lon": -76.94973533333334, "type": "electric_scooter", "fusion_lat": 0.0, "lat": 38.89375883333334, "name": "60f766999a159d4427539198b335af50", "fusion_lon": 0.0, "bike_id": "60f766999a159d4427539198b335af50", "is_disabled": 0, "is_reserved": 0}, {"rental_uris": {"ios": "https://dc.lft.to/lastmile_qr_scan", "android": "https://dc.lft.to/lastmile_qr_scan"}, "lon": -76.99835733333333, "type": "electric_scooter", "fusion_lat": 0.0, "lat": 38.9005135, "name": "e87411e8dbe7261e2e325da825a644c7", "fusion_lon": 0.0, "bike_id": "e87411e8dbe7261e2e325da825a644c7", "is_disabled": 0, "is_reserved": 0}, {"rental_uris": {"ios": "https://dc.lft.to/lastmile_qr_scan", "android": "https://dc.lft.to/lastmile_qr_scan"}, "lon": -77.03657516666667, "type": "electric_scooter", "fusion_lat": 0.0, "lat": 38.93082733333333, "name": "bb71243f9afdbb406baafc25c0b16449", "fusion_lon": 0.0, "bike_id": "bb71243f9afdbb406baafc25c0b16449", "is_disabled": 0, "is_reserved": 0}, {"rental_uris": {"ios": "https://dc.lft.to/lastmile_qr_scan", "android": "https://dc.lft.to/lastmile_qr_scan"}, "lon": -77.03847983333333, "type": "electric_scooter", "fusion_lat": 0.0, "lat": 38.903858166666666, "name": "d559c6b726ddb6632851df5f4462630e", "fusion_lon": 0.0, "bike_id": "d559c6b726ddb6632851df5f4462630e", "is_disabled": 0, "is_reserved": 0}, {"rental_uris": {"ios": "https://dc.lft.to/lastmile_qr_scan", "android": "https://dc.lft.to/lastmile_qr_scan"}, "lon": -77.06895183333333, "type": "electric_scooter", "fusion_lat": 0.0, "lat": 38.94030716666666, "name": "cb9360f7e6f2bcb4c553f7c69193b1e4", "fusion_lon": 0.0, "bike_id": "cb9360f7e6f2bcb4c553f7c69193b1e4", "is_disabled": 0, "is_reserved": 0}, {"rental_uris": {"ios": "https://dc.lft.to/lastmile_qr_scan", "android": "https://dc.lft.to/lastmile_qr_scan"}, "lon": -77.0294695, "type": "electric_scooter", "fusion_lat": 0.0, "lat": 38.9050625, "name": "e93d3882f0bcfd78665867ce9e6b2c7a", "fusion_lon": 0.0, "bike_id": "e93d3882f0bcfd78665867ce9e6b2c7a", "is_disabled": 0, "is_reserved": 0}, {"rental_uris": {"ios": "https://dc.lft.to/lastmile_qr_scan", "android": "https://dc.lft.to/lastmile_qr_scan"}, "lon": -77.12980633333333, "type": "electric_bike", "fusion_lat": 0.0, "lat": 38.7998825, "name": "de3b9250d1f43008027c878961d52058", "fusion_lon": 0.0, "bike_id": "de3b9250d1f43008027c878961d52058", "is_disabled": 0, "is_reserved": 0}, {"rental_uris": {"ios": "https://dc.lft.to/lastmile_qr_scan", "android": "https://dc.lft.to/lastmile_qr_scan"}, "lon": -77.03979, "type": "electric_scooter", "fusion_lat": 0.0, "lat": 38.9027155, "name": "265532d99052ae2203cc28ad9c0161fd", "fusion_lon": 0.0, "bike_id": "265532d99052ae2203cc28ad9c0161fd", "is_disabled": 0, "is_reserved": 0}, {"rental_uris": {"ios": "https://dc.lft.to/lastmile_qr_scan", "android": "https://dc.lft.to/lastmile_qr_scan"}, "lon": -76.94715883333333, "type": "electric_scooter", "fusion_lat": 0.0, "lat": 38.89680166666667, "name": "539ab3a54efdb5f883a4032a76b587ff", "fusion_lon": 0.0, "bike_id": "539ab3a54efdb5f883a4032a76b587ff", "is_disabled": 0, "is_reserved": 0}, {"rental_uris": {"ios": "https://dc.lft.to/lastmile_qr_scan", "android": "https://dc.lft.to/lastmile_qr_scan"}, "lon": -77.12812616666666, "type": "electric_bike", "fusion_lat": 0.0, "lat": 38.865416, "name": "2063e47e6a28f25ca609ab62fb6fc3c1", "fusion_lon": 0.0, "bike_id": "2063e47e6a28f25ca609ab62fb6fc3c1", "is_disabled": 0, "is_reserved": 0}, {"rental_uris": {"ios": "https://dc.lft.to/lastmile_qr_scan", "android": "https://dc.lft.to/lastmile_qr_scan"}, "lon": -77.0298075, "type": "electric_scooter", "fusion_lat": 0.0, "lat": 38.9072145, "name": "8e38a2c89f4dc4352983112ead90b806", "fusion_lon": 0.0, "bike_id": "8e38a2c89f4dc4352983112ead90b806", "is_disabled": 0, "is_reserved": 0}, {"rental_uris": {"ios": "https://dc.lft.to/lastmile_qr_scan", "android": "https://dc.lft.to/lastmile_qr_scan"}, "lon": -77.070505, "type": "electric_bike", "fusion_lat": 0.0, "lat": 38.824460333333334, "name": "78685ddb8363d9307da933bb32ab6b7a", "fusion_lon": 0.0, "bike_id": "78685ddb8363d9307da933bb32ab6b7a", "is_disabled": 0, "is_reserved": 0}, {"rental_uris": {"ios": "https://dc.lft.to/lastmile_qr_scan", "android": "https://dc.lft.to/lastmile_qr_scan"}, "lon": -77.02397016666667, "type": "electric_bike", "fusion_lat": 0.0, "lat": 38.9945115, "name": "49b934cb31a3d6138527a38e49b64f44", "fusion_lon": 0.0, "bike_id": "49b934cb31a3d6138527a38e49b64f44", "is_disabled": 0, "is_reserved": 0}, {"rental_uris": {"ios": "https://dc.lft.to/lastmile_qr_scan", "android": "https://dc.lft.to/lastmile_qr_scan"}, "lon": -77.03112033333333, "type": "electric_scooter", "fusion_lat": 0.0, "lat": 38.91179283333334, "name": "49211438ebf0db38065d59aeb63e2a1e", "fusion_lon": 0.0, "bike_id": "49211438ebf0db38065d59aeb63e2a1e", "is_disabled": 0, "is_reserved": 0}, {"rental_uris": {"ios": "https://dc.lft.to/lastmile_qr_scan", "android": "https://dc.lft.to/lastmile_qr_scan"}, "lon": -77.0272335, "type": "electric_scooter", "fusion_lat": 0.0, "lat": 38.9141385, "name": "227cee8981142edd1620f5a51d6ae57e", "fusion_lon": 0.0, "bike_id": "227cee8981142edd1620f5a51d6ae57e", "is_disabled": 0, "is_reserved": 0}, {"rental_uris": {"ios": "https://dc.lft.to/lastmile_qr_scan", "android": "https://dc.lft.to/lastmile_qr_scan"}, "lon": -77.063929, "type": "electric_scooter", "fusion_lat": 0.0, "lat": 38.9290875, "name": "0f07f5f87aadc7bcd63dba52408637c3", "fusion_lon": 0.0, "bike_id": "0f07f5f87aadc7bcd63dba52408637c3", "is_disabled": 0, "is_reserved": 0}, {"rental_uris": {"ios": "https://dc.lft.to/lastmile_qr_scan", "android": "https://dc.lft.to/lastmile_qr_scan"}, "lon": -77.04392533333333, "type": "electric_scooter", "fusion_lat": 0.0, "lat": 38.909214166666665, "name": "853d43714136770f22f41d643e132ffb", "fusion_lon": 0.0, "bike_id": "853d43714136770f22f41d643e132ffb", "is_disabled": 0, "is_reserved": 0}, {"rental_uris": {"ios": "https://dc.lft.to/lastmile_qr_scan", "android": "https://dc.lft.to/lastmile_qr_scan"}, "lon": -76.984412, "type": "electric_scooter", "fusion_lat": 0.0, "lat": 38.914291166666665, "name": "cb01c9c0bac370a3b07213c77d8faad8", "fusion_lon": 0.0, "bike_id": "cb01c9c0bac370a3b07213c77d8faad8", "is_disabled": 0, "is_reserved": 0}, {"rental_uris": {"ios": "https://dc.lft.to/lastmile_qr_scan", "android": "https://dc.lft.to/lastmile_qr_scan"}, "lon": -77.009134, "type": "electric_scooter", "fusion_lat": 0.0, "lat": 38.91064933333333, "name": "604af4fa861263da7dae716795bb711b", "fusion_lon": 0.0, "bike_id": "604af4fa861263da7dae716795bb711b", "is_disabled": 0, "is_reserved": 0}, {"rental_uris": {"ios": "https://dc.lft.to/lastmile_qr_scan", "android": "https://dc.lft.to/lastmile_qr_scan"}, "lon": -77.00039383333333, "type": "electric_bike", "fusion_lat": 0.0, "lat": 38.8744155, "name": "1e9119d64cbb947e3d7cddc6a0795d6d", "fusion_lon": 0.0, "bike_id": "1e9119d64cbb947e3d7cddc6a0795d6d", "is_disabled": 0, "is_reserved": 0}, {"rental_uris": {"ios": "https://dc.lft.to/lastmile_qr_scan", "android": "https://dc.lft.to/lastmile_qr_scan"}, "lon": -77.0481835, "type": "electric_scooter", "fusion_lat": 0.0, "lat": 38.913335333333336, "name": "bde9013f1b842819edfb829d4843cb9a", "fusion_lon": 0.0, "bike_id": "bde9013f1b842819edfb829d4843cb9a", "is_disabled": 0, "is_reserved": 0}, {"rental_uris": {"ios": "https://dc.lft.to/lastmile_qr_scan", "android": "https://dc.lft.to/lastmile_qr_scan"}, "lon": -77.09563866666667, "type": "electric_bike", "fusion_lat": 0.0, "lat": 38.917077166666665, "name": "6db005c27b55635dba67cf612b4e4523", "fusion_lon": 0.0, "bike_id": "6db005c27b55635dba67cf612b4e4523", "is_disabled": 0, "is_reserved": 0}, {"rental_uris": {"ios": "https://dc.lft.to/lastmile_qr_scan", "android": "https://dc.lft.to/lastmile_qr_scan"}, "lon": -76.908196, "type": "electric_bike", "fusion_lat": 0.0, "lat": 38.99459083333333, "name": "664c26e329e6b566ca2e8509707ecc74", "fusion_lon": 0.0, "bike_id": "664c26e329e6b566ca2e8509707ecc74", "is_disabled": 0, "is_reserved": 0}, {"rental_uris": {"ios": "https://dc.lft.to/lastmile_qr_scan", "android": "https://dc.lft.to/lastmile_qr_scan"}, "lon": -77.01323483333333, "type": "electric_scooter", "fusion_lat": 0.0, "lat": 38.892337166666664, "name": "9a4b013b2f473efd370037b20bcaa4f7", "fusion_lon": 0.0, "bike_id": "9a4b013b2f473efd370037b20bcaa4f7", "is_disabled": 0, "is_reserved": 0}, {"rental_uris": {"ios": "https://dc.lft.to/lastmile_qr_scan", "android": "https://dc.lft.to/lastmile_qr_scan"}, "lon": -77.02535633333333, "type": "electric_scooter", "fusion_lat": 0.0, "lat": 38.91826733333333, "name": "a5ff56c0473fce1f5f4e9f0a24fc3e59", "fusion_lon": 0.0, "bike_id": "a5ff56c0473fce1f5f4e9f0a24fc3e59", "is_disabled": 0, "is_reserved": 0}, {"rental_uris": {"ios": "https://dc.lft.to/lastmile_qr_scan", "android": "https://dc.lft.to/lastmile_qr_scan"}, "lon": -77.0653085, "type": "electric_scooter", "fusion_lat": 0.0, "lat": 38.9347765, "name": "845f5a5884a3e1ef9b27b3f4db91ac50", "fusion_lon": 0.0, "bike_id": "845f5a5884a3e1ef9b27b3f4db91ac50", "is_disabled": 0, "is_reserved": 0}, {"rental_uris": {"ios": "https://dc.lft.to/lastmile_qr_scan", "android": "https://dc.lft.to/lastmile_qr_scan"}, "lon": -76.99613616666667, "type": "electric_scooter", "fusion_lat": 0.0, "lat": 38.902902833333336, "name": "8151e456128c5a6b9ee04efd7039604d", "fusion_lon": 0.0, "bike_id": "8151e456128c5a6b9ee04efd7039604d", "is_disabled": 0, "is_reserved": 0}, {"rental_uris": {"ios": "https://dc.lft.to/lastmile_qr_scan", "android": "https://dc.lft.to/lastmile_qr_scan"}, "lon": -76.94219883333334, "type": "electric_scooter", "fusion_lat": 0.0, "lat": 38.896930833333336, "name": "4db0661c73c7105757bd62e97fe2859b", "fusion_lon": 0.0, "bike_id": "4db0661c73c7105757bd62e97fe2859b", "is_disabled": 0, "is_reserved": 0}, {"rental_uris": {"ios": "https://dc.lft.to/lastmile_qr_scan", "android": "https://dc.lft.to/lastmile_qr_scan"}, "lon": -76.99517683333333, "type": "electric_scooter", "fusion_lat": 0.0, "lat": 38.894859833333335, "name": "9ef4c10fb55dc57999676dcda368b8d2", "fusion_lon": 0.0, "bike_id": "9ef4c10fb55dc57999676dcda368b8d2", "is_disabled": 0, "is_reserved": 0}, {"rental_uris": {"ios": "https://dc.lft.to/lastmile_qr_scan", "android": "https://dc.lft.to/lastmile_qr_scan"}, "lon": -77.00729933333334, "type": "electric_scooter", "fusion_lat": 0.0, "lat": 38.879108333333335, "name": "bb753a6f5bfacb12f7c172ac8413f043", "fusion_lon": 0.0, "bike_id": "bb753a6f5bfacb12f7c172ac8413f043", "is_disabled": 0, "is_reserved": 0}, {"rental_uris": {"ios": "https://dc.lft.to/lastmile_qr_scan", "android": "https://dc.lft.to/lastmile_qr_scan"}, "lon": -77.04056033333333, "type": "electric_scooter", "fusion_lat": 0.0, "lat": 38.89538833333334, "name": "51578225afe56ec13b99e71ba0b1cfbd", "fusion_lon": 0.0, "bike_id": "51578225afe56ec13b99e71ba0b1cfbd", "is_disabled": 0, "is_reserved": 0}, {"rental_uris": {"ios": "https://dc.lft.to/lastmile_qr_scan", "android": "https://dc.lft.to/lastmile_qr_scan"}, "lon": -77.00335183333334, "type": "electric_scooter", "fusion_lat": 0.0, "lat": 38.893558166666665, "name": "221fdbeb03c3b35fae97de563c6a1ed1", "fusion_lon": 0.0, "bike_id": "221fdbeb03c3b35fae97de563c6a1ed1", "is_disabled": 0, "is_reserved": 0}, {"rental_uris": {"ios": "https://dc.lft.to/lastmile_qr_scan", "android": "https://dc.lft.to/lastmile_qr_scan"}, "lon": -77.01219716666667, "type": "electric_scooter", "fusion_lat": 0.0, "lat": 38.900266333333335, "name": "ebee4bb8be967088774c0c8bdd5d4b45", "fusion_lon": 0.0, "bike_id": "ebee4bb8be967088774c0c8bdd5d4b45", "is_disabled": 0, "is_reserved": 0}, {"rental_uris": {"ios": "https://dc.lft.to/lastmile_qr_scan", "android": "https://dc.lft.to/lastmile_qr_scan"}, "lon": -77.03217983333333, "type": "electric_scooter", "fusion_lat": 0.0, "lat": 38.91285116666667, "name": "a7c5d5ee25b926f67020bee662f7c428", "fusion_lon": 0.0, "bike_id": "a7c5d5ee25b926f67020bee662f7c428", "is_disabled": 0, "is_reserved": 0}, {"rental_uris": {"ios": "https://dc.lft.to/lastmile_qr_scan", "android": "https://dc.lft.to/lastmile_qr_scan"}, "lon": -77.0463615, "type": "electric_scooter", "fusion_lat": 0.0, "lat": 38.89225066666667, "name": "d276ab132b887b8f3650512c10f23eb0", "fusion_lon": 0.0, "bike_id": "d276ab132b887b8f3650512c10f23eb0", "is_disabled": 0, "is_reserved": 0}, {"rental_uris": {"ios": "https://dc.lft.to/lastmile_qr_scan", "android": "https://dc.lft.to/lastmile_qr_scan"}, "lon": -77.00666666666666, "type": "electric_scooter", "fusion_lat": 0.0, "lat": 38.955648333333336, "name": "71ef6a131b27e9984d41d2658052f707", "fusion_lon": 0.0, "bike_id": "71ef6a131b27e9984d41d2658052f707", "is_disabled": 0, "is_reserved": 0}, {"rental_uris": {"ios": "https://dc.lft.to/lastmile_qr_scan", "android": "https://dc.lft.to/lastmile_qr_scan"}, "lon": -76.99694, "type": "electric_scooter", "fusion_lat": 0.0, "lat": 38.901067, "name": "26a72201ff062539da50f56f4897c41b", "fusion_lon": 0.0, "bike_id": "26a72201ff062539da50f56f4897c41b", "is_disabled": 0, "is_reserved": 0}, {"rental_uris": {"ios": "https://dc.lft.to/lastmile_qr_scan", "android": "https://dc.lft.to/lastmile_qr_scan"}, "lon": -77.12963183333333, "type": "electric_bike", "fusion_lat": 0.0, "lat": 38.852200833333335, "name": "ebdf9536859ab1476eb76b4c062fb976", "fusion_lon": 0.0, "bike_id": "ebdf9536859ab1476eb76b4c062fb976", "is_disabled": 0, "is_reserved": 0}, {"rental_uris": {"ios": "https://dc.lft.to/lastmile_qr_scan", "android": "https://dc.lft.to/lastmile_qr_scan"}, "lon": -77.09200733333333, "type": "electric_scooter", "fusion_lat": 0.0, "lat": 38.94137, "name": "ac920b12c57dc0d1c27c5b888e128eca", "fusion_lon": 0.0, "bike_id": "ac920b12c57dc0d1c27c5b888e128eca", "is_disabled": 0, "is_reserved": 0}, {"rental_uris": {"ios": "https://dc.lft.to/lastmile_qr_scan", "android": "https://dc.lft.to/lastmile_qr_scan"}, "lon": -77.02229266666667, "type": "electric_scooter", "fusion_lat": 0.0, "lat": 38.91258666666667, "name": "371ae0d66f84621600e50bcd63bfa51c", "fusion_lon": 0.0, "bike_id": "371ae0d66f84621600e50bcd63bfa51c", "is_disabled": 0, "is_reserved": 0}, {"rental_uris": {"ios": "https://dc.lft.to/lastmile_qr_scan", "android": "https://dc.lft.to/lastmile_qr_scan"}, "lon": -76.93229866666667, "type": "electric_bike", "fusion_lat": 0.0, "lat": 38.86598566666667, "name": "a7c3729d0b65f8a322f206bdf7926206", "fusion_lon": 0.0, "bike_id": "a7c3729d0b65f8a322f206bdf7926206", "is_disabled": 0, "is_reserved": 0}, {"rental_uris": {"ios": "https://dc.lft.to/lastmile_qr_scan", "android": "https://dc.lft.to/lastmile_qr_scan"}, "lon": -77.0451805, "type": "electric_scooter", "fusion_lat": 0.0, "lat": 38.892265, "name": "1f937894c934c8dfa46fb00ed205d1f8", "fusion_lon": 0.0, "bike_id": "1f937894c934c8dfa46fb00ed205d1f8", "is_disabled": 0, "is_reserved": 0}, {"rental_uris": {"ios": "https://dc.lft.to/lastmile_qr_scan", "android": "https://dc.lft.to/lastmile_qr_scan"}, "lon": -77.04194533333333, "type": "electric_scooter", "fusion_lat": 0.0, "lat": 38.918771166666666, "name": "fdca190a0a44aa1f76137bfe8ce74713", "fusion_lon": 0.0, "bike_id": "fdca190a0a44aa1f76137bfe8ce74713", "is_disabled": 0, "is_reserved": 0}, {"rental_uris": {"ios": "https://dc.lft.to/lastmile_qr_scan", "android": "https://dc.lft.to/lastmile_qr_scan"}, "lon": -77.0447055, "type": "electric_scooter", "fusion_lat": 0.0, "lat": 38.903318166666665, "name": "9dc2bfc85f2515c5739283b7b3ccbf50", "fusion_lon": 0.0, "bike_id": "9dc2bfc85f2515c5739283b7b3ccbf50", "is_disabled": 0, "is_reserved": 0}, {"rental_uris": {"ios": "https://dc.lft.to/lastmile_qr_scan", "android": "https://dc.lft.to/lastmile_qr_scan"}, "lon": -77.0081505, "type": "electric_scooter", "fusion_lat": 0.0, "lat": 38.905697, "name": "3dd709bed8e504e3e82f7201f30eda13", "fusion_lon": 0.0, "bike_id": "3dd709bed8e504e3e82f7201f30eda13", "is_disabled": 0, "is_reserved": 0}, {"rental_uris": {"ios": "https://dc.lft.to/lastmile_qr_scan", "android": "https://dc.lft.to/lastmile_qr_scan"}, "lon": -76.97568166666667, "type": "electric_bike", "fusion_lat": 0.0, "lat": 38.925088333333335, "name": "eea8c90d0b45b75a0593a7d6a75c9ae9", "fusion_lon": 0.0, "bike_id": "eea8c90d0b45b75a0593a7d6a75c9ae9", "is_disabled": 0, "is_reserved": 0}, {"rental_uris": {"ios": "https://dc.lft.to/lastmile_qr_scan", "android": "https://dc.lft.to/lastmile_qr_scan"}, "lon": -77.02449466666667, "type": "electric_scooter", "fusion_lat": 0.0, "lat": 38.920534, "name": "1c767336f88b60243a8a7471a467da57", "fusion_lon": 0.0, "bike_id": "1c767336f88b60243a8a7471a467da57", "is_disabled": 0, "is_reserved": 0}, {"rental_uris": {"ios": "https://dc.lft.to/lastmile_qr_scan", "android": "https://dc.lft.to/lastmile_qr_scan"}, "lon": -77.03825416666666, "type": "electric_scooter", "fusion_lat": 0.0, "lat": 38.92065133333333, "name": "c2230619f6c302b9d15f63f551bb08a6", "fusion_lon": 0.0, "bike_id": "c2230619f6c302b9d15f63f551bb08a6", "is_disabled": 0, "is_reserved": 0}, {"rental_uris": {"ios": "https://dc.lft.to/lastmile_qr_scan", "android": "https://dc.lft.to/lastmile_qr_scan"}, "lon": -77.0328495, "type": "electric_scooter", "fusion_lat": 0.0, "lat": 38.95650583333333, "name": "26b7a448ab505b7dd3561cba241e30a9", "fusion_lon": 0.0, "bike_id": "26b7a448ab505b7dd3561cba241e30a9", "is_disabled": 0, "is_reserved": 0}, {"rental_uris": {"ios": "https://dc.lft.to/lastmile_qr_scan", "android": "https://dc.lft.to/lastmile_qr_scan"}, "lon": -77.0271145, "type": "electric_scooter", "fusion_lat": 0.0, "lat": 38.90488716666667, "name": "1d59fd7529d3404ca0e3ba2c807d15d3", "fusion_lon": 0.0, "bike_id": "1d59fd7529d3404ca0e3ba2c807d15d3", "is_disabled": 0, "is_reserved": 0}, {"rental_uris": {"ios": "https://dc.lft.to/lastmile_qr_scan", "android": "https://dc.lft.to/lastmile_qr_scan"}, "lon": -76.995864, "type": "electric_scooter", "fusion_lat": 0.0, "lat": 38.9550335, "name": "52fcba03397f178a7148a82b354052b3", "fusion_lon": 0.0, "bike_id": "52fcba03397f178a7148a82b354052b3", "is_disabled": 0, "is_reserved": 0}, {"rental_uris": {"ios": "https://dc.lft.to/lastmile_qr_scan", "android": "https://dc.lft.to/lastmile_qr_scan"}, "lon": -77.0514085, "type": "electric_scooter", "fusion_lat": 0.0, "lat": 38.90217583333333, "name": "049f5dd97fc4aa6a80c496115d9a6330", "fusion_lon": 0.0, "bike_id": "049f5dd97fc4aa6a80c496115d9a6330", "is_disabled": 0, "is_reserved": 0}, {"rental_uris": {"ios": "https://dc.lft.to/lastmile_qr_scan", "android": "https://dc.lft.to/lastmile_qr_scan"}, "lon": -77.02762566666667, "type": "electric_scooter", "fusion_lat": 0.0, "lat": 38.91346133333333, "name": "3a02ff7a0d1369f158a5649631f958d1", "fusion_lon": 0.0, "bike_id": "3a02ff7a0d1369f158a5649631f958d1", "is_disabled": 0, "is_reserved": 0}, {"rental_uris": {"ios": "https://dc.lft.to/lastmile_qr_scan", "android": "https://dc.lft.to/lastmile_qr_scan"}, "lon": -76.9317665, "type": "electric_scooter", "fusion_lat": 0.0, "lat": 38.898877166666665, "name": "bc56f409dbb4b31f4325b3535568e90d", "fusion_lon": 0.0, "bike_id": "bc56f409dbb4b31f4325b3535568e90d", "is_disabled": 0, "is_reserved": 0}, {"rental_uris": {"ios": "https://dc.lft.to/lastmile_qr_scan", "android": "https://dc.lft.to/lastmile_qr_scan"}, "lon": -77.02732583333334, "type": "electric_scooter", "fusion_lat": 0.0, "lat": 38.91408066666666, "name": "fab93f529c9163869894158cbc2ae9ab", "fusion_lon": 0.0, "bike_id": "fab93f529c9163869894158cbc2ae9ab", "is_disabled": 0, "is_reserved": 0}, {"rental_uris": {"ios": "https://dc.lft.to/lastmile_qr_scan", "android": "https://dc.lft.to/lastmile_qr_scan"}, "lon": -77.04502916666667, "type": "electric_scooter", "fusion_lat": 0.0, "lat": 38.91109983333333, "name": "fdb7b0019edf2b045564f20abd285dd7", "fusion_lon": 0.0, "bike_id": "fdb7b0019edf2b045564f20abd285dd7", "is_disabled": 0, "is_reserved": 0}, {"rental_uris": {"ios": "https://dc.lft.to/lastmile_qr_scan", "android": "https://dc.lft.to/lastmile_qr_scan"}, "lon": -76.91925333333333, "type": "electric_scooter", "fusion_lat": 0.0, "lat": 38.890789166666664, "name": "bf8b352eee53e4092e28956feb567e90", "fusion_lon": 0.0, "bike_id": "bf8b352eee53e4092e28956feb567e90", "is_disabled": 0, "is_reserved": 0}, {"rental_uris": {"ios": "https://dc.lft.to/lastmile_qr_scan", "android": "https://dc.lft.to/lastmile_qr_scan"}, "lon": -77.03278683333333, "type": "electric_scooter", "fusion_lat": 0.0, "lat": 38.907294666666665, "name": "4ee809c8f856308e702f6e850bba7e0b", "fusion_lon": 0.0, "bike_id": "4ee809c8f856308e702f6e850bba7e0b", "is_disabled": 0, "is_reserved": 0}, {"rental_uris": {"ios": "https://dc.lft.to/lastmile_qr_scan", "android": "https://dc.lft.to/lastmile_qr_scan"}, "lon": -77.0988265, "type": "electric_bike", "fusion_lat": 0.0, "lat": 38.94793383333333, "name": "285f8b2a20b0c8c1a4a5c45681b975e4", "fusion_lon": 0.0, "bike_id": "285f8b2a20b0c8c1a4a5c45681b975e4", "is_disabled": 0, "is_reserved": 0}, {"rental_uris": {"ios": "https://dc.lft.to/lastmile_qr_scan", "android": "https://dc.lft.to/lastmile_qr_scan"}, "lon": -77.02353633333334, "type": "electric_scooter", "fusion_lat": 0.0, "lat": 38.92066116666667, "name": "b4abddc25b9a46222c485530541fc7e9", "fusion_lon": 0.0, "bike_id": "b4abddc25b9a46222c485530541fc7e9", "is_disabled": 0, "is_reserved": 0}, {"rental_uris": {"ios": "https://dc.lft.to/lastmile_qr_scan", "android": "https://dc.lft.to/lastmile_qr_scan"}, "lon": -76.92373616666667, "type": "electric_bike", "fusion_lat": 0.0, "lat": 38.88376916666667, "name": "48623ace06f49f276c12b81bf76a310e", "fusion_lon": 0.0, "bike_id": "48623ace06f49f276c12b81bf76a310e", "is_disabled": 0, "is_reserved": 0}, {"rental_uris": {"ios": "https://dc.lft.to/lastmile_qr_scan", "android": "https://dc.lft.to/lastmile_qr_scan"}, "lon": -77.04793316666667, "type": "electric_scooter", "fusion_lat": 0.0, "lat": 38.89376683333333, "name": "3ff40b24bf798b4dddd75b789c2957b5", "fusion_lon": 0.0, "bike_id": "3ff40b24bf798b4dddd75b789c2957b5", "is_disabled": 0, "is_reserved": 0}, {"rental_uris": {"ios": "https://dc.lft.to/lastmile_qr_scan", "android": "https://dc.lft.to/lastmile_qr_scan"}, "lon": -77.0315995, "type": "electric_scooter", "fusion_lat": 0.0, "lat": 38.89391833333333, "name": "9ee619d3c94d11709f4e0ea21ee88775", "fusion_lon": 0.0, "bike_id": "9ee619d3c94d11709f4e0ea21ee88775", "is_disabled": 0, "is_reserved": 0}, {"rental_uris": {"ios": "https://dc.lft.to/lastmile_qr_scan", "android": "https://dc.lft.to/lastmile_qr_scan"}, "lon": -76.99573733333334, "type": "electric_scooter", "fusion_lat": 0.0, "lat": 38.9003285, "name": "cb767845e25c4bc8610a163893d09efd", "fusion_lon": 0.0, "bike_id": "cb767845e25c4bc8610a163893d09efd", "is_disabled": 0, "is_reserved": 0}, {"rental_uris": {"ios": "https://dc.lft.to/lastmile_qr_scan", "android": "https://dc.lft.to/lastmile_qr_scan"}, "lon": -76.94935383333333, "type": "electric_scooter", "fusion_lat": 0.0, "lat": 38.894830166666665, "name": "6ee3af13a0d316b6c0eead1f1538a7e4", "fusion_lon": 0.0, "bike_id": "6ee3af13a0d316b6c0eead1f1538a7e4", "is_disabled": 0, "is_reserved": 0}, {"rental_uris": {"ios": "https://dc.lft.to/lastmile_qr_scan", "android": "https://dc.lft.to/lastmile_qr_scan"}, "lon": -77.03193116666667, "type": "electric_scooter", "fusion_lat": 0.0, "lat": 38.913545666666664, "name": "3c2a4c45f4d91822ebd705463f9593c7", "fusion_lon": 0.0, "bike_id": "3c2a4c45f4d91822ebd705463f9593c7", "is_disabled": 0, "is_reserved": 0}, {"rental_uris": {"ios": "https://dc.lft.to/lastmile_qr_scan", "android": "https://dc.lft.to/lastmile_qr_scan"}, "lon": -77.01361966666667, "type": "electric_scooter", "fusion_lat": 0.0, "lat": 38.87117833333333, "name": "da28deb9f370a566590f6b10d4395edf", "fusion_lon": 0.0, "bike_id": "da28deb9f370a566590f6b10d4395edf", "is_disabled": 0, "is_reserved": 0}, {"rental_uris": {"ios": "https://dc.lft.to/lastmile_qr_scan", "android": "https://dc.lft.to/lastmile_qr_scan"}, "lon": -77.02332133333333, "type": "electric_scooter", "fusion_lat": 0.0, "lat": 38.893942333333335, "name": "15aa7cf133939c098542c49fb8233ff5", "fusion_lon": 0.0, "bike_id": "15aa7cf133939c098542c49fb8233ff5", "is_disabled": 0, "is_reserved": 0}, {"rental_uris": {"ios": "https://dc.lft.to/lastmile_qr_scan", "android": "https://dc.lft.to/lastmile_qr_scan"}, "lon": -76.98038183333334, "type": "electric_bike", "fusion_lat": 0.0, "lat": 38.90019683333333, "name": "da005cb100a2acb3b308fdf0c86a01c4", "fusion_lon": 0.0, "bike_id": "da005cb100a2acb3b308fdf0c86a01c4", "is_disabled": 0, "is_reserved": 0}, {"rental_uris": {"ios": "https://dc.lft.to/lastmile_qr_scan", "android": "https://dc.lft.to/lastmile_qr_scan"}, "lon": -77.02205516666666, "type": "electric_scooter", "fusion_lat": 0.0, "lat": 38.908372666666665, "name": "49038fe1b685f81ea210170294ca8e51", "fusion_lon": 0.0, "bike_id": "49038fe1b685f81ea210170294ca8e51", "is_disabled": 0, "is_reserved": 0}, {"rental_uris": {"ios": "https://dc.lft.to/lastmile_qr_scan", "android": "https://dc.lft.to/lastmile_qr_scan"}, "lon": -77.01314266666667, "type": "electric_scooter", "fusion_lat": 0.0, "lat": 38.897403833333335, "name": "5efad2197832cb66a8c7095f2dfbd70c", "fusion_lon": 0.0, "bike_id": "5efad2197832cb66a8c7095f2dfbd70c", "is_disabled": 0, "is_reserved": 0}, {"rental_uris": {"ios": "https://dc.lft.to/lastmile_qr_scan", "android": "https://dc.lft.to/lastmile_qr_scan"}, "lon": -76.952456, "type": "electric_bike", "fusion_lat": 0.0, "lat": 38.907056, "name": "82fec5827130fff88d89f00ed512f108", "fusion_lon": 0.0, "bike_id": "82fec5827130fff88d89f00ed512f108", "is_disabled": 0, "is_reserved": 0}, {"rental_uris": {"ios": "https://dc.lft.to/lastmile_qr_scan", "android": "https://dc.lft.to/lastmile_qr_scan"}, "lon": -77.0334945, "type": "electric_scooter", "fusion_lat": 0.0, "lat": 38.89843333333334, "name": "2b61dbf30ed6d07385c3dc8dd9f7bb39", "fusion_lon": 0.0, "bike_id": "2b61dbf30ed6d07385c3dc8dd9f7bb39", "is_disabled": 0, "is_reserved": 0}, {"rental_uris": {"ios": "https://dc.lft.to/lastmile_qr_scan", "android": "https://dc.lft.to/lastmile_qr_scan"}, "lon": -77.02205933333333, "type": "electric_scooter", "fusion_lat": 0.0, "lat": 38.8871825, "name": "b35a503d561491ec3ab0194d94156a67", "fusion_lon": 0.0, "bike_id": "b35a503d561491ec3ab0194d94156a67", "is_disabled": 0, "is_reserved": 0}, {"rental_uris": {"ios": "https://dc.lft.to/lastmile_qr_scan", "android": "https://dc.lft.to/lastmile_qr_scan"}, "lon": -77.04157066666667, "type": "electric_scooter", "fusion_lat": 0.0, "lat": 38.91422466666667, "name": "6929b97ac1efd8de77eb1d26418925a8", "fusion_lon": 0.0, "bike_id": "6929b97ac1efd8de77eb1d26418925a8", "is_disabled": 0, "is_reserved": 0}, {"rental_uris": {"ios": "https://dc.lft.to/lastmile_qr_scan", "android": "https://dc.lft.to/lastmile_qr_scan"}, "lon": -76.986939, "type": "electric_scooter", "fusion_lat": 0.0, "lat": 38.9003415, "name": "4facbda3e21ac7ca31f0a58f9cd31e37", "fusion_lon": 0.0, "bike_id": "4facbda3e21ac7ca31f0a58f9cd31e37", "is_disabled": 0, "is_reserved": 0}, {"rental_uris": {"ios": "https://dc.lft.to/lastmile_qr_scan", "android": "https://dc.lft.to/lastmile_qr_scan"}, "lon": -77.11236566666666, "type": "electric_bike", "fusion_lat": 0.0, "lat": 38.8123735, "name": "e158fcbb0063973e6ff507a4764a5183", "fusion_lon": 0.0, "bike_id": "e158fcbb0063973e6ff507a4764a5183", "is_disabled": 0, "is_reserved": 0}, {"rental_uris": {"ios": "https://dc.lft.to/lastmile_qr_scan", "android": "https://dc.lft.to/lastmile_qr_scan"}, "lon": -77.0500355, "type": "electric_scooter", "fusion_lat": 0.0, "lat": 38.8923115, "name": "13ef2c233961fafe5dce5b84b88448a0", "fusion_lon": 0.0, "bike_id": "13ef2c233961fafe5dce5b84b88448a0", "is_disabled": 0, "is_reserved": 0}, {"rental_uris": {"ios": "https://dc.lft.to/lastmile_qr_scan", "android": "https://dc.lft.to/lastmile_qr_scan"}, "lon": -77.0414255, "type": "electric_scooter", "fusion_lat": 0.0, "lat": 38.9236155, "name": "06dd123b511b6e72d384a6667cbc7625", "fusion_lon": 0.0, "bike_id": "06dd123b511b6e72d384a6667cbc7625", "is_disabled": 0, "is_reserved": 0}, {"rental_uris": {"ios": "https://dc.lft.to/lastmile_qr_scan", "android": "https://dc.lft.to/lastmile_qr_scan"}, "lon": -76.9520575, "type": "electric_bike", "fusion_lat": 0.0, "lat": 38.93673616666667, "name": "922fd5bf4b4c9332fb05f7bc99f4791f", "fusion_lon": 0.0, "bike_id": "922fd5bf4b4c9332fb05f7bc99f4791f", "is_disabled": 0, "is_reserved": 0}, {"rental_uris": {"ios": "https://dc.lft.to/lastmile_qr_scan", "android": "https://dc.lft.to/lastmile_qr_scan"}, "lon": -76.98562533333333, "type": "electric_scooter", "fusion_lat": 0.0, "lat": 38.908149333333334, "name": "51e6f4a5e3b1cfbbcbe80c76807720da", "fusion_lon": 0.0, "bike_id": "51e6f4a5e3b1cfbbcbe80c76807720da", "is_disabled": 0, "is_reserved": 0}, {"rental_uris": {"ios": "https://dc.lft.to/lastmile_qr_scan", "android": "https://dc.lft.to/lastmile_qr_scan"}, "lon": -77.04653783333333, "type": "electric_scooter", "fusion_lat": 0.0, "lat": 38.9055655, "name": "7f3d273b5103a2d04750283cc38c2f13", "fusion_lon": 0.0, "bike_id": "7f3d273b5103a2d04750283cc38c2f13", "is_disabled": 0, "is_reserved": 0}, {"rental_uris": {"ios": "https://dc.lft.to/lastmile_qr_scan", "android": "https://dc.lft.to/lastmile_qr_scan"}, "lon": -77.00133583333333, "type": "electric_scooter", "fusion_lat": 0.0, "lat": 38.90414883333333, "name": "264eff972e7c434745280a2f7f19e886", "fusion_lon": 0.0, "bike_id": "264eff972e7c434745280a2f7f19e886", "is_disabled": 0, "is_reserved": 0}, {"rental_uris": {"ios": "https://dc.lft.to/lastmile_qr_scan", "android": "https://dc.lft.to/lastmile_qr_scan"}, "lon": -76.99936833333334, "type": "electric_scooter", "fusion_lat": 0.0, "lat": 38.896189166666666, "name": "1c411cebd254da72193890e90cf6e7bc", "fusion_lon": 0.0, "bike_id": "1c411cebd254da72193890e90cf6e7bc", "is_disabled": 0, "is_reserved": 0}, {"rental_uris": {"ios": "https://dc.lft.to/lastmile_qr_scan", "android": "https://dc.lft.to/lastmile_qr_scan"}, "lon": -77.07157483333333, "type": "electric_scooter", "fusion_lat": 0.0, "lat": 38.907435166666666, "name": "8f5e2237439e247e95c8f1cb88aa3fc4", "fusion_lon": 0.0, "bike_id": "8f5e2237439e247e95c8f1cb88aa3fc4", "is_disabled": 0, "is_reserved": 0}, {"rental_uris": {"ios": "https://dc.lft.to/lastmile_qr_scan", "android": "https://dc.lft.to/lastmile_qr_scan"}, "lon": -77.0331295, "type": "electric_scooter", "fusion_lat": 0.0, "lat": 38.903861666666664, "name": "36706367a5a4412719a7e7edd5276bab", "fusion_lon": 0.0, "bike_id": "36706367a5a4412719a7e7edd5276bab", "is_disabled": 0, "is_reserved": 0}, {"rental_uris": {"ios": "https://dc.lft.to/lastmile_qr_scan", "android": "https://dc.lft.to/lastmile_qr_scan"}, "lon": -77.01968366666667, "type": "electric_scooter", "fusion_lat": 0.0, "lat": 38.878451166666665, "name": "788d54b72481eef7119b148647c1fd63", "fusion_lon": 0.0, "bike_id": "788d54b72481eef7119b148647c1fd63", "is_disabled": 0, "is_reserved": 0}, {"rental_uris": {"ios": "https://dc.lft.to/lastmile_qr_scan", "android": "https://dc.lft.to/lastmile_qr_scan"}, "lon": -77.00869316666666, "type": "electric_scooter", "fusion_lat": 0.0, "lat": 38.911766, "name": "b0222865231d7810e46e14ad8c340d6c", "fusion_lon": 0.0, "bike_id": "b0222865231d7810e46e14ad8c340d6c", "is_disabled": 0, "is_reserved": 0}, {"rental_uris": {"ios": "https://dc.lft.to/lastmile_qr_scan", "android": "https://dc.lft.to/lastmile_qr_scan"}, "lon": -77.04735566666666, "type": "electric_scooter", "fusion_lat": 0.0, "lat": 38.90978333333334, "name": "c83aed791df877940263fac0b92e6630", "fusion_lon": 0.0, "bike_id": "c83aed791df877940263fac0b92e6630", "is_disabled": 0, "is_reserved": 0}, {"rental_uris": {"ios": "https://dc.lft.to/lastmile_qr_scan", "android": "https://dc.lft.to/lastmile_qr_scan"}, "lon": -77.021209, "type": "electric_scooter", "fusion_lat": 0.0, "lat": 38.914052833333336, "name": "2c68511d2f9ed65dc31410aa2a89a9e9", "fusion_lon": 0.0, "bike_id": "2c68511d2f9ed65dc31410aa2a89a9e9", "is_disabled": 0, "is_reserved": 0}, {"rental_uris": {"ios": "https://dc.lft.to/lastmile_qr_scan", "android": "https://dc.lft.to/lastmile_qr_scan"}, "lon": -77.03425216666666, "type": "electric_scooter", "fusion_lat": 0.0, "lat": 38.90967166666667, "name": "38676de80676c7e9c9b054827cced51f", "fusion_lon": 0.0, "bike_id": "38676de80676c7e9c9b054827cced51f", "is_disabled": 0, "is_reserved": 0}, {"rental_uris": {"ios": "https://dc.lft.to/lastmile_qr_scan", "android": "https://dc.lft.to/lastmile_qr_scan"}, "lon": -77.03339883333334, "type": "electric_scooter", "fusion_lat": 0.0, "lat": 38.9215785, "name": "c14532e6a4882c59510c6a557604d04b", "fusion_lon": 0.0, "bike_id": "c14532e6a4882c59510c6a557604d04b", "is_disabled": 0, "is_reserved": 0}, {"rental_uris": {"ios": "https://dc.lft.to/lastmile_qr_scan", "android": "https://dc.lft.to/lastmile_qr_scan"}, "lon": -77.02386216666666, "type": "electric_scooter", "fusion_lat": 0.0, "lat": 38.9159325, "name": "3b323d14e044e4d1442ba4a34529eab1", "fusion_lon": 0.0, "bike_id": "3b323d14e044e4d1442ba4a34529eab1", "is_disabled": 0, "is_reserved": 0}, {"rental_uris": {"ios": "https://dc.lft.to/lastmile_qr_scan", "android": "https://dc.lft.to/lastmile_qr_scan"}, "lon": -77.02554833333333, "type": "electric_scooter", "fusion_lat": 0.0, "lat": 38.939842166666665, "name": "75d1747aa117559390df3f60a20e8af2", "fusion_lon": 0.0, "bike_id": "75d1747aa117559390df3f60a20e8af2", "is_disabled": 0, "is_reserved": 0}, {"rental_uris": {"ios": "https://dc.lft.to/lastmile_qr_scan", "android": "https://dc.lft.to/lastmile_qr_scan"}, "lon": -76.9318235, "type": "electric_scooter", "fusion_lat": 0.0, "lat": 38.89878566666667, "name": "33ef1e907c6abb3aadda3ebb7753a8c8", "fusion_lon": 0.0, "bike_id": "33ef1e907c6abb3aadda3ebb7753a8c8", "is_disabled": 0, "is_reserved": 0}, {"rental_uris": {"ios": "https://dc.lft.to/lastmile_qr_scan", "android": "https://dc.lft.to/lastmile_qr_scan"}, "lon": -77.02724833333333, "type": "electric_scooter", "fusion_lat": 0.0, "lat": 38.91418433333333, "name": "4b35991ca85319c50ac61b452f97dfff", "fusion_lon": 0.0, "bike_id": "4b35991ca85319c50ac61b452f97dfff", "is_disabled": 0, "is_reserved": 0}, {"rental_uris": {"ios": "https://dc.lft.to/lastmile_qr_scan", "android": "https://dc.lft.to/lastmile_qr_scan"}, "lon": -77.031856, "type": "electric_scooter", "fusion_lat": 0.0, "lat": 38.91332666666667, "name": "508f883a27a279db8d37d39e8a5ea165", "fusion_lon": 0.0, "bike_id": "508f883a27a279db8d37d39e8a5ea165", "is_disabled": 0, "is_reserved": 0}, {"rental_uris": {"ios": "https://dc.lft.to/lastmile_qr_scan", "android": "https://dc.lft.to/lastmile_qr_scan"}, "lon": -77.02923833333334, "type": "electric_scooter", "fusion_lat": 0.0, "lat": 38.916911666666664, "name": "0fbdc2a92b81e6483eb103ea342d0fdd", "fusion_lon": 0.0, "bike_id": "0fbdc2a92b81e6483eb103ea342d0fdd", "is_disabled": 0, "is_reserved": 0}, {"rental_uris": {"ios": "https://dc.lft.to/lastmile_qr_scan", "android": "https://dc.lft.to/lastmile_qr_scan"}, "lon": -77.03439566666667, "type": "electric_scooter", "fusion_lat": 0.0, "lat": 38.918467666666665, "name": "7df8279799eb236ad2c8704e84f69f6c", "fusion_lon": 0.0, "bike_id": "7df8279799eb236ad2c8704e84f69f6c", "is_disabled": 0, "is_reserved": 0}, {"rental_uris": {"ios": "https://dc.lft.to/lastmile_qr_scan", "android": "https://dc.lft.to/lastmile_qr_scan"}, "lon": -77.04458083333333, "type": "electric_scooter", "fusion_lat": 0.0, "lat": 38.905642, "name": "0f5c98ac515a136cfe60fdea0cc19d2f", "fusion_lon": 0.0, "bike_id": "0f5c98ac515a136cfe60fdea0cc19d2f", "is_disabled": 0, "is_reserved": 0}, {"rental_uris": {"ios": "https://dc.lft.to/lastmile_qr_scan", "android": "https://dc.lft.to/lastmile_qr_scan"}, "lon": -77.03216916666666, "type": "electric_scooter", "fusion_lat": 0.0, "lat": 38.91120433333333, "name": "19eeac6375cfe1e63d2cb066c0f268e3", "fusion_lon": 0.0, "bike_id": "19eeac6375cfe1e63d2cb066c0f268e3", "is_disabled": 0, "is_reserved": 0}, {"rental_uris": {"ios": "https://dc.lft.to/lastmile_qr_scan", "android": "https://dc.lft.to/lastmile_qr_scan"}, "lon": -76.98534866666667, "type": "electric_bike", "fusion_lat": 0.0, "lat": 38.88084033333333, "name": "8d8bec252798b225c02e7400f75a9375", "fusion_lon": 0.0, "bike_id": "8d8bec252798b225c02e7400f75a9375", "is_disabled": 0, "is_reserved": 0}, {"rental_uris": {"ios": "https://dc.lft.to/lastmile_qr_scan", "android": "https://dc.lft.to/lastmile_qr_scan"}, "lon": -76.97820266666666, "type": "electric_scooter", "fusion_lat": 0.0, "lat": 38.89519, "name": "b75aa21343c04c50ddc52dc9a6c2d276", "fusion_lon": 0.0, "bike_id": "b75aa21343c04c50ddc52dc9a6c2d276", "is_disabled": 0, "is_reserved": 0}, {"rental_uris": {"ios": "https://dc.lft.to/lastmile_qr_scan", "android": "https://dc.lft.to/lastmile_qr_scan"}, "lon": -76.99022216666667, "type": "electric_scooter", "fusion_lat": 0.0, "lat": 38.85871216666666, "name": "6d6052dfdb77b319115c7e6db2568468", "fusion_lon": 0.0, "bike_id": "6d6052dfdb77b319115c7e6db2568468", "is_disabled": 0, "is_reserved": 0}, {"rental_uris": {"ios": "https://dc.lft.to/lastmile_qr_scan", "android": "https://dc.lft.to/lastmile_qr_scan"}, "lon": -77.04010033333333, "type": "electric_scooter", "fusion_lat": 0.0, "lat": 38.90008, "name": "feb7b6876516e865eae26405a39dc0e7", "fusion_lon": 0.0, "bike_id": "feb7b6876516e865eae26405a39dc0e7", "is_disabled": 0, "is_reserved": 0}, {"rental_uris": {"ios": "https://dc.lft.to/lastmile_qr_scan", "android": "https://dc.lft.to/lastmile_qr_scan"}, "lon": -77.034841, "type": "electric_scooter", "fusion_lat": 0.0, "lat": 38.91714783333333, "name": "5cda0be16b587ff5eab5828c5497ce0b", "fusion_lon": 0.0, "bike_id": "5cda0be16b587ff5eab5828c5497ce0b", "is_disabled": 0, "is_reserved": 0}, {"rental_uris": {"ios": "https://dc.lft.to/lastmile_qr_scan", "android": "https://dc.lft.to/lastmile_qr_scan"}, "lon": -77.01751133333333, "type": "electric_scooter", "fusion_lat": 0.0, "lat": 38.90566416666667, "name": "f4bb03054ab44d8bb0c9c0caf05fc631", "fusion_lon": 0.0, "bike_id": "f4bb03054ab44d8bb0c9c0caf05fc631", "is_disabled": 0, "is_reserved": 0}, {"rental_uris": {"ios": "https://dc.lft.to/lastmile_qr_scan", "android": "https://dc.lft.to/lastmile_qr_scan"}, "lon": -77.0331075, "type": "electric_scooter", "fusion_lat": 0.0, "lat": 38.90153016666667, "name": "f36f8ac3d9d3bf150361087a3923577a", "fusion_lon": 0.0, "bike_id": "f36f8ac3d9d3bf150361087a3923577a", "is_disabled": 0, "is_reserved": 0}, {"rental_uris": {"ios": "https://dc.lft.to/lastmile_qr_scan", "android": "https://dc.lft.to/lastmile_qr_scan"}, "lon": -77.06382233333333, "type": "electric_scooter", "fusion_lat": 0.0, "lat": 38.905158, "name": "3653044a34e0c705f5989a6881b5000e", "fusion_lon": 0.0, "bike_id": "3653044a34e0c705f5989a6881b5000e", "is_disabled": 0, "is_reserved": 0}, {"rental_uris": {"ios": "https://dc.lft.to/lastmile_qr_scan", "android": "https://dc.lft.to/lastmile_qr_scan"}, "lon": -77.0272855, "type": "electric_scooter", "fusion_lat": 0.0, "lat": 38.9141495, "name": "402ef0c21492b9e2b6681a230a205972", "fusion_lon": 0.0, "bike_id": "402ef0c21492b9e2b6681a230a205972", "is_disabled": 0, "is_reserved": 0}, {"rental_uris": {"ios": "https://dc.lft.to/lastmile_qr_scan", "android": "https://dc.lft.to/lastmile_qr_scan"}, "lon": -77.18297783333334, "type": "electric_bike", "fusion_lat": 0.0, "lat": 38.883460166666666, "name": "10c1b86fd1fe8871c2f7235e1e9996b6", "fusion_lon": 0.0, "bike_id": "10c1b86fd1fe8871c2f7235e1e9996b6", "is_disabled": 0, "is_reserved": 0}, {"rental_uris": {"ios": "https://dc.lft.to/lastmile_qr_scan", "android": "https://dc.lft.to/lastmile_qr_scan"}, "lon": -77.036204, "type": "electric_scooter", "fusion_lat": 0.0, "lat": 38.937369333333336, "name": "ad8b731957cfc9de6303f282f863afc9", "fusion_lon": 0.0, "bike_id": "ad8b731957cfc9de6303f282f863afc9", "is_disabled": 0, "is_reserved": 0}, {"rental_uris": {"ios": "https://dc.lft.to/lastmile_qr_scan", "android": "https://dc.lft.to/lastmile_qr_scan"}, "lon": -77.0255325, "type": "electric_scooter", "fusion_lat": 0.0, "lat": 38.89227316666667, "name": "b16aa83d3cb602d039c019d7eeb2c783", "fusion_lon": 0.0, "bike_id": "b16aa83d3cb602d039c019d7eeb2c783", "is_disabled": 0, "is_reserved": 0}, {"rental_uris": {"ios": "https://dc.lft.to/lastmile_qr_scan", "android": "https://dc.lft.to/lastmile_qr_scan"}, "lon": -77.01861266666667, "type": "electric_scooter", "fusion_lat": 0.0, "lat": 38.89262133333333, "name": "e779393143de68d51b2cc219e9431410", "fusion_lon": 0.0, "bike_id": "e779393143de68d51b2cc219e9431410", "is_disabled": 0, "is_reserved": 0}, {"rental_uris": {"ios": "https://dc.lft.to/lastmile_qr_scan", "android": "https://dc.lft.to/lastmile_qr_scan"}, "lon": -77.04849, "type": "electric_scooter", "fusion_lat": 0.0, "lat": 38.91966033333333, "name": "70cd066d5335aab41bf367bf739d9130", "fusion_lon": 0.0, "bike_id": "70cd066d5335aab41bf367bf739d9130", "is_disabled": 0, "is_reserved": 0}, {"rental_uris": {"ios": "https://dc.lft.to/lastmile_qr_scan", "android": "https://dc.lft.to/lastmile_qr_scan"}, "lon": -77.03869933333333, "type": "electric_scooter", "fusion_lat": 0.0, "lat": 38.908139, "name": "d8f56cc2599b3db8cf6711e8681fb10f", "fusion_lon": 0.0, "bike_id": "d8f56cc2599b3db8cf6711e8681fb10f", "is_disabled": 0, "is_reserved": 0}, {"rental_uris": {"ios": "https://dc.lft.to/lastmile_qr_scan", "android": "https://dc.lft.to/lastmile_qr_scan"}, "lon": -76.99191733333333, "type": "electric_scooter", "fusion_lat": 0.0, "lat": 38.905128, "name": "702f26b9866761ce014a34a1e4694c07", "fusion_lon": 0.0, "bike_id": "702f26b9866761ce014a34a1e4694c07", "is_disabled": 0, "is_reserved": 0}, {"rental_uris": {"ios": "https://dc.lft.to/lastmile_qr_scan", "android": "https://dc.lft.to/lastmile_qr_scan"}, "lon": -77.019387, "type": "electric_scooter", "fusion_lat": 0.0, "lat": 38.949253666666664, "name": "c3a3e2ca4a931871f5439ec6913c236f", "fusion_lon": 0.0, "bike_id": "c3a3e2ca4a931871f5439ec6913c236f", "is_disabled": 0, "is_reserved": 0}, {"rental_uris": {"ios": "https://dc.lft.to/lastmile_qr_scan", "android": "https://dc.lft.to/lastmile_qr_scan"}, "lon": -77.03837233333333, "type": "electric_scooter", "fusion_lat": 0.0, "lat": 38.910246666666666, "name": "1942c2f8040a6ede5bd668903f630acd", "fusion_lon": 0.0, "bike_id": "1942c2f8040a6ede5bd668903f630acd", "is_disabled": 0, "is_reserved": 0}, {"rental_uris": {"ios": "https://dc.lft.to/lastmile_qr_scan", "android": "https://dc.lft.to/lastmile_qr_scan"}, "lon": -77.0404075, "type": "electric_scooter", "fusion_lat": 0.0, "lat": 38.92437, "name": "f64dea7e35c022abcc0a6c92f9d35bae", "fusion_lon": 0.0, "bike_id": "f64dea7e35c022abcc0a6c92f9d35bae", "is_disabled": 0, "is_reserved": 0}, {"rental_uris": {"ios": "https://dc.lft.to/lastmile_qr_scan", "android": "https://dc.lft.to/lastmile_qr_scan"}, "lon": -77.04153883333333, "type": "electric_scooter", "fusion_lat": 0.0, "lat": 38.91758266666667, "name": "f20f1312564cb2455ebc09a9ffff20dc", "fusion_lon": 0.0, "bike_id": "f20f1312564cb2455ebc09a9ffff20dc", "is_disabled": 0, "is_reserved": 0}, {"rental_uris": {"ios": "https://dc.lft.to/lastmile_qr_scan", "android": "https://dc.lft.to/lastmile_qr_scan"}, "lon": -77.04383333333334, "type": "electric_scooter", "fusion_lat": 0.0, "lat": 38.909233666666665, "name": "3c116910c955878313454d4c8a098638", "fusion_lon": 0.0, "bike_id": "3c116910c955878313454d4c8a098638", "is_disabled": 0, "is_reserved": 0}, {"rental_uris": {"ios": "https://dc.lft.to/lastmile_qr_scan", "android": "https://dc.lft.to/lastmile_qr_scan"}, "lon": -77.0383785, "type": "electric_scooter", "fusion_lat": 0.0, "lat": 38.90873283333333, "name": "ca8b2cdd89ba7028f088f01f97e94f0c", "fusion_lon": 0.0, "bike_id": "ca8b2cdd89ba7028f088f01f97e94f0c", "is_disabled": 0, "is_reserved": 0}, {"rental_uris": {"ios": "https://dc.lft.to/lastmile_qr_scan", "android": "https://dc.lft.to/lastmile_qr_scan"}, "lon": -77.04343566666667, "type": "electric_scooter", "fusion_lat": 0.0, "lat": 38.89670983333333, "name": "df6822d8714ca1590f313256088285ab", "fusion_lon": 0.0, "bike_id": "df6822d8714ca1590f313256088285ab", "is_disabled": 0, "is_reserved": 0}, {"rental_uris": {"ios": "https://dc.lft.to/lastmile_qr_scan", "android": "https://dc.lft.to/lastmile_qr_scan"}, "lon": -77.0446285, "type": "electric_scooter", "fusion_lat": 0.0, "lat": 38.919378333333334, "name": "c347f1d381f296497b465bc7744141e6", "fusion_lon": 0.0, "bike_id": "c347f1d381f296497b465bc7744141e6", "is_disabled": 0, "is_reserved": 0}, {"rental_uris": {"ios": "https://dc.lft.to/lastmile_qr_scan", "android": "https://dc.lft.to/lastmile_qr_scan"}, "lon": -77.03078216666667, "type": "electric_scooter", "fusion_lat": 0.0, "lat": 38.89972383333333, "name": "31cd0154de70a1d94e94bed495372d63", "fusion_lon": 0.0, "bike_id": "31cd0154de70a1d94e94bed495372d63", "is_disabled": 0, "is_reserved": 0}, {"rental_uris": {"ios": "https://dc.lft.to/lastmile_qr_scan", "android": "https://dc.lft.to/lastmile_qr_scan"}, "lon": -77.03811533333334, "type": "electric_scooter", "fusion_lat": 0.0, "lat": 38.906835666666666, "name": "6dc3040eece5c79286585dc52d71af07", "fusion_lon": 0.0, "bike_id": "6dc3040eece5c79286585dc52d71af07", "is_disabled": 0, "is_reserved": 0}, {"rental_uris": {"ios": "https://dc.lft.to/lastmile_qr_scan", "android": "https://dc.lft.to/lastmile_qr_scan"}, "lon": -77.033224, "type": "electric_scooter", "fusion_lat": 0.0, "lat": 38.89836283333333, "name": "a17f84038c442ca3868d21871166264b", "fusion_lon": 0.0, "bike_id": "a17f84038c442ca3868d21871166264b", "is_disabled": 0, "is_reserved": 0}, {"rental_uris": {"ios": "https://dc.lft.to/lastmile_qr_scan", "android": "https://dc.lft.to/lastmile_qr_scan"}, "lon": -77.0380185, "type": "electric_scooter", "fusion_lat": 0.0, "lat": 38.9122615, "name": "11062961799852fb5cc45365bab80287", "fusion_lon": 0.0, "bike_id": "11062961799852fb5cc45365bab80287", "is_disabled": 0, "is_reserved": 0}, {"rental_uris": {"ios": "https://dc.lft.to/lastmile_qr_scan", "android": "https://dc.lft.to/lastmile_qr_scan"}, "lon": -77.03849883333334, "type": "electric_scooter", "fusion_lat": 0.0, "lat": 38.9124215, "name": "d7910f867c6c08f1d32550b1c3810fed", "fusion_lon": 0.0, "bike_id": "d7910f867c6c08f1d32550b1c3810fed", "is_disabled": 0, "is_reserved": 0}, {"rental_uris": {"ios": "https://dc.lft.to/lastmile_qr_scan", "android": "https://dc.lft.to/lastmile_qr_scan"}, "lon": -77.02732083333333, "type": "electric_scooter", "fusion_lat": 0.0, "lat": 38.937992666666666, "name": "f0628c3c4821b0783a76112ea6db85ea", "fusion_lon": 0.0, "bike_id": "f0628c3c4821b0783a76112ea6db85ea", "is_disabled": 0, "is_reserved": 0}, {"rental_uris": {"ios": "https://dc.lft.to/lastmile_qr_scan", "android": "https://dc.lft.to/lastmile_qr_scan"}, "lon": -77.03887633333333, "type": "electric_scooter", "fusion_lat": 0.0, "lat": 38.922331666666665, "name": "545924e9748b35db28dc332ed479b1c6", "fusion_lon": 0.0, "bike_id": "545924e9748b35db28dc332ed479b1c6", "is_disabled": 0, "is_reserved": 0}, {"rental_uris": {"ios": "https://dc.lft.to/lastmile_qr_scan", "android": "https://dc.lft.to/lastmile_qr_scan"}, "lon": -77.02203783333333, "type": "electric_scooter", "fusion_lat": 0.0, "lat": 38.91550633333333, "name": "d9a123c894887e295e476c78f9f5d76a", "fusion_lon": 0.0, "bike_id": "d9a123c894887e295e476c78f9f5d76a", "is_disabled": 0, "is_reserved": 0}, {"rental_uris": {"ios": "https://dc.lft.to/lastmile_qr_scan", "android": "https://dc.lft.to/lastmile_qr_scan"}, "lon": -77.038296, "type": "electric_scooter", "fusion_lat": 0.0, "lat": 38.907771333333336, "name": "51a0e317dc2f0e7933ffe9d5590eb701", "fusion_lon": 0.0, "bike_id": "51a0e317dc2f0e7933ffe9d5590eb701", "is_disabled": 0, "is_reserved": 0}, {"rental_uris": {"ios": "https://dc.lft.to/lastmile_qr_scan", "android": "https://dc.lft.to/lastmile_qr_scan"}, "lon": -77.03035833333334, "type": "electric_scooter", "fusion_lat": 0.0, "lat": 38.91708766666667, "name": "f800bd1e8a55a7a4b949c3c27ecb04b7", "fusion_lon": 0.0, "bike_id": "f800bd1e8a55a7a4b949c3c27ecb04b7", "is_disabled": 0, "is_reserved": 0}, {"rental_uris": {"ios": "https://dc.lft.to/lastmile_qr_scan", "android": "https://dc.lft.to/lastmile_qr_scan"}, "lon": -77.0319105, "type": "electric_scooter", "fusion_lat": 0.0, "lat": 38.91766233333333, "name": "2fa0702bd594ea82a804f05f65827308", "fusion_lon": 0.0, "bike_id": "2fa0702bd594ea82a804f05f65827308", "is_disabled": 0, "is_reserved": 0}, {"rental_uris": {"ios": "https://dc.lft.to/lastmile_qr_scan", "android": "https://dc.lft.to/lastmile_qr_scan"}, "lon": -76.99932183333334, "type": "electric_scooter", "fusion_lat": 0.0, "lat": 38.896205, "name": "16221417368545c690b5e2d0bb82b6b6", "fusion_lon": 0.0, "bike_id": "16221417368545c690b5e2d0bb82b6b6", "is_disabled": 0, "is_reserved": 0}, {"rental_uris": {"ios": "https://dc.lft.to/lastmile_qr_scan", "android": "https://dc.lft.to/lastmile_qr_scan"}, "lon": -77.01701933333334, "type": "electric_scooter", "fusion_lat": 0.0, "lat": 38.92025183333333, "name": "69988b5733900b526dde78820d57375d", "fusion_lon": 0.0, "bike_id": "69988b5733900b526dde78820d57375d", "is_disabled": 0, "is_reserved": 0}, {"rental_uris": {"ios": "https://dc.lft.to/lastmile_qr_scan", "android": "https://dc.lft.to/lastmile_qr_scan"}, "lon": -77.01856166666667, "type": "electric_scooter", "fusion_lat": 0.0, "lat": 38.94001766666667, "name": "74ccc6b04789c5de07b08ac93f45a1a5", "fusion_lon": 0.0, "bike_id": "74ccc6b04789c5de07b08ac93f45a1a5", "is_disabled": 0, "is_reserved": 0}, {"rental_uris": {"ios": "https://dc.lft.to/lastmile_qr_scan", "android": "https://dc.lft.to/lastmile_qr_scan"}, "lon": -77.02409383333334, "type": "electric_scooter", "fusion_lat": 0.0, "lat": 38.9110925, "name": "5aa35dd1b520ffaa3de177026ae76036", "fusion_lon": 0.0, "bike_id": "5aa35dd1b520ffaa3de177026ae76036", "is_disabled": 0, "is_reserved": 0}, {"rental_uris": {"ios": "https://dc.lft.to/lastmile_qr_scan", "android": "https://dc.lft.to/lastmile_qr_scan"}, "lon": -77.0318785, "type": "electric_scooter", "fusion_lat": 0.0, "lat": 38.91809, "name": "aa4c40ff394060f0fa4d2c5734a0c01a", "fusion_lon": 0.0, "bike_id": "aa4c40ff394060f0fa4d2c5734a0c01a", "is_disabled": 0, "is_reserved": 0}, {"rental_uris": {"ios": "https://dc.lft.to/lastmile_qr_scan", "android": "https://dc.lft.to/lastmile_qr_scan"}, "lon": -77.02544316666666, "type": "electric_scooter", "fusion_lat": 0.0, "lat": 38.92746016666667, "name": "4f1f017a227637bb7c0953c58d3cfaed", "fusion_lon": 0.0, "bike_id": "4f1f017a227637bb7c0953c58d3cfaed", "is_disabled": 0, "is_reserved": 0}, {"rental_uris": {"ios": "https://dc.lft.to/lastmile_qr_scan", "android": "https://dc.lft.to/lastmile_qr_scan"}, "lon": -77.0386565, "type": "electric_scooter", "fusion_lat": 0.0, "lat": 38.932528166666664, "name": "d53985a1302eb0e7116e34aa0daf4e5d", "fusion_lon": 0.0, "bike_id": "d53985a1302eb0e7116e34aa0daf4e5d", "is_disabled": 0, "is_reserved": 0}, {"rental_uris": {"ios": "https://dc.lft.to/lastmile_qr_scan", "android": "https://dc.lft.to/lastmile_qr_scan"}, "lon": -77.028337, "type": "electric_scooter", "fusion_lat": 0.0, "lat": 38.88772633333333, "name": "c435daea91052491e6b36dd98b8e0fee", "fusion_lon": 0.0, "bike_id": "c435daea91052491e6b36dd98b8e0fee", "is_disabled": 0, "is_reserved": 0}, {"rental_uris": {"ios": "https://dc.lft.to/lastmile_qr_scan", "android": "https://dc.lft.to/lastmile_qr_scan"}, "lon": -77.01305383333333, "type": "electric_scooter", "fusion_lat": 0.0, "lat": 38.90046616666667, "name": "dd1a13ce8db5de4709e9c4da3d7464c0", "fusion_lon": 0.0, "bike_id": "dd1a13ce8db5de4709e9c4da3d7464c0", "is_disabled": 0, "is_reserved": 0}, {"rental_uris": {"ios": "https://dc.lft.to/lastmile_qr_scan", "android": "https://dc.lft.to/lastmile_qr_scan"}, "lon": -77.0554535, "type": "electric_scooter", "fusion_lat": 0.0, "lat": 38.8990035, "name": "1520743aa47824669ff42594627cd7bf", "fusion_lon": 0.0, "bike_id": "1520743aa47824669ff42594627cd7bf", "is_disabled": 0, "is_reserved": 0}, {"rental_uris": {"ios": "https://dc.lft.to/lastmile_qr_scan", "android": "https://dc.lft.to/lastmile_qr_scan"}, "lon": -76.87822766666666, "type": "electric_bike", "fusion_lat": 0.0, "lat": 38.992377833333336, "name": "1bc77bf08a2add33482f5c372b58db99", "fusion_lon": 0.0, "bike_id": "1bc77bf08a2add33482f5c372b58db99", "is_disabled": 0, "is_reserved": 0}, {"rental_uris": {"ios": "https://dc.lft.to/lastmile_qr_scan", "android": "https://dc.lft.to/lastmile_qr_scan"}, "lon": -77.02144316666667, "type": "electric_bike", "fusion_lat": 0.0, "lat": 38.94808116666667, "name": "b4485731a83b15f91c6a5399db8890bc", "fusion_lon": 0.0, "bike_id": "b4485731a83b15f91c6a5399db8890bc", "is_disabled": 0, "is_reserved": 0}, {"rental_uris": {"ios": "https://dc.lft.to/lastmile_qr_scan", "android": "https://dc.lft.to/lastmile_qr_scan"}, "lon": -76.946387, "type": "electric_scooter", "fusion_lat": 0.0, "lat": 38.8983585, "name": "3418f67cd71ea34d43d50e9a560fcaae", "fusion_lon": 0.0, "bike_id": "3418f67cd71ea34d43d50e9a560fcaae", "is_disabled": 0, "is_reserved": 0}, {"rental_uris": {"ios": "https://dc.lft.to/lastmile_qr_scan", "android": "https://dc.lft.to/lastmile_qr_scan"}, "lon": -77.03791766666667, "type": "electric_scooter", "fusion_lat": 0.0, "lat": 38.926350666666664, "name": "760e7ced7a472e76dbae15f8a8a3b84c", "fusion_lon": 0.0, "bike_id": "760e7ced7a472e76dbae15f8a8a3b84c", "is_disabled": 0, "is_reserved": 0}, {"rental_uris": {"ios": "https://dc.lft.to/lastmile_qr_scan", "android": "https://dc.lft.to/lastmile_qr_scan"}, "lon": -76.97750666666667, "type": "electric_scooter", "fusion_lat": 0.0, "lat": 38.90015483333333, "name": "654f1e61120591dcc9744bda0c45aed4", "fusion_lon": 0.0, "bike_id": "654f1e61120591dcc9744bda0c45aed4", "is_disabled": 0, "is_reserved": 0}, {"rental_uris": {"ios": "https://dc.lft.to/lastmile_qr_scan", "android": "https://dc.lft.to/lastmile_qr_scan"}, "lon": -76.97616416666666, "type": "electric_scooter", "fusion_lat": 0.0, "lat": 38.90387166666667, "name": "23781316fb89a26bdcf165958ca8d1a6", "fusion_lon": 0.0, "bike_id": "23781316fb89a26bdcf165958ca8d1a6", "is_disabled": 0, "is_reserved": 0}, {"rental_uris": {"ios": "https://dc.lft.to/lastmile_qr_scan", "android": "https://dc.lft.to/lastmile_qr_scan"}, "lon": -77.03837633333333, "type": "electric_scooter", "fusion_lat": 0.0, "lat": 38.921788, "name": "9e4de572e6abaa1fbad2f27255305f80", "fusion_lon": 0.0, "bike_id": "9e4de572e6abaa1fbad2f27255305f80", "is_disabled": 0, "is_reserved": 0}, {"rental_uris": {"ios": "https://dc.lft.to/lastmile_qr_scan", "android": "https://dc.lft.to/lastmile_qr_scan"}, "lon": -77.03202466666667, "type": "electric_scooter", "fusion_lat": 0.0, "lat": 38.91354533333333, "name": "dbe87dc214bc0d3d98100643719ecd09", "fusion_lon": 0.0, "bike_id": "dbe87dc214bc0d3d98100643719ecd09", "is_disabled": 0, "is_reserved": 0}, {"rental_uris": {"ios": "https://dc.lft.to/lastmile_qr_scan", "android": "https://dc.lft.to/lastmile_qr_scan"}, "lon": -77.0318615, "type": "electric_scooter", "fusion_lat": 0.0, "lat": 38.915721, "name": "77c7101a4623c9152859a983e34add87", "fusion_lon": 0.0, "bike_id": "77c7101a4623c9152859a983e34add87", "is_disabled": 0, "is_reserved": 0}, {"rental_uris": {"ios": "https://dc.lft.to/lastmile_qr_scan", "android": "https://dc.lft.to/lastmile_qr_scan"}, "lon": -77.03216233333333, "type": "electric_scooter", "fusion_lat": 0.0, "lat": 38.9119525, "name": "3c0eb254407627ed3b6232701686e2fb", "fusion_lon": 0.0, "bike_id": "3c0eb254407627ed3b6232701686e2fb", "is_disabled": 0, "is_reserved": 0}, {"rental_uris": {"ios": "https://dc.lft.to/lastmile_qr_scan", "android": "https://dc.lft.to/lastmile_qr_scan"}, "lon": -77.03485716666667, "type": "electric_scooter", "fusion_lat": 0.0, "lat": 38.9170945, "name": "0fea69c3ae29ca1b7b7a3f64773797b3", "fusion_lon": 0.0, "bike_id": "0fea69c3ae29ca1b7b7a3f64773797b3", "is_disabled": 0, "is_reserved": 0}, {"rental_uris": {"ios": "https://dc.lft.to/lastmile_qr_scan", "android": "https://dc.lft.to/lastmile_qr_scan"}, "lon": -77.00739666666666, "type": "electric_scooter", "fusion_lat": 0.0, "lat": 38.955213666666666, "name": "3a079fe37418b57bd7299628146b9bb6", "fusion_lon": 0.0, "bike_id": "3a079fe37418b57bd7299628146b9bb6", "is_disabled": 0, "is_reserved": 0}, {"rental_uris": {"ios": "https://dc.lft.to/lastmile_qr_scan", "android": "https://dc.lft.to/lastmile_qr_scan"}, "lon": -77.032576, "type": "electric_scooter", "fusion_lat": 0.0, "lat": 38.93640583333333, "name": "d2018d8b5e3ae99580aeb3a51c934902", "fusion_lon": 0.0, "bike_id": "d2018d8b5e3ae99580aeb3a51c934902", "is_disabled": 0, "is_reserved": 0}, {"rental_uris": {"ios": "https://dc.lft.to/lastmile_qr_scan", "android": "https://dc.lft.to/lastmile_qr_scan"}, "lon": -77.03282183333333, "type": "electric_scooter", "fusion_lat": 0.0, "lat": 38.93235966666667, "name": "1f50afa67018346e2ae3ab9229911854", "fusion_lon": 0.0, "bike_id": "1f50afa67018346e2ae3ab9229911854", "is_disabled": 0, "is_reserved": 0}, {"rental_uris": {"ios": "https://dc.lft.to/lastmile_qr_scan", "android": "https://dc.lft.to/lastmile_qr_scan"}, "lon": -77.03615633333334, "type": "electric_scooter", "fusion_lat": 0.0, "lat": 38.90250366666667, "name": "0004af718659fb4c16ceddd96fbcb638", "fusion_lon": 0.0, "bike_id": "0004af718659fb4c16ceddd96fbcb638", "is_disabled": 0, "is_reserved": 0}, {"rental_uris": {"ios": "https://dc.lft.to/lastmile_qr_scan", "android": "https://dc.lft.to/lastmile_qr_scan"}, "lon": -77.067895, "type": "electric_scooter", "fusion_lat": 0.0, "lat": 38.95205633333333, "name": "1f4ab15c3184bf3334db32e6e8fa6e32", "fusion_lon": 0.0, "bike_id": "1f4ab15c3184bf3334db32e6e8fa6e32", "is_disabled": 0, "is_reserved": 0}, {"rental_uris": {"ios": "https://dc.lft.to/lastmile_qr_scan", "android": "https://dc.lft.to/lastmile_qr_scan"}, "lon": -77.02353366666667, "type": "electric_scooter", "fusion_lat": 0.0, "lat": 38.922754166666664, "name": "3c48a2d938d88ec353dc59b680bcc444", "fusion_lon": 0.0, "bike_id": "3c48a2d938d88ec353dc59b680bcc444", "is_disabled": 0, "is_reserved": 0}, {"rental_uris": {"ios": "https://dc.lft.to/lastmile_qr_scan", "android": "https://dc.lft.to/lastmile_qr_scan"}, "lon": -77.00210516666667, "type": "electric_scooter", "fusion_lat": 0.0, "lat": 38.902208, "name": "5abd47e14e49f7f03497ecbc4c223e86", "fusion_lon": 0.0, "bike_id": "5abd47e14e49f7f03497ecbc4c223e86", "is_disabled": 0, "is_reserved": 0}, {"rental_uris": {"ios": "https://dc.lft.to/lastmile_qr_scan", "android": "https://dc.lft.to/lastmile_qr_scan"}, "lon": -77.02200516666667, "type": "electric_scooter", "fusion_lat": 0.0, "lat": 38.89251083333333, "name": "a97060b203000d9f34b598cf3dfb9968", "fusion_lon": 0.0, "bike_id": "a97060b203000d9f34b598cf3dfb9968", "is_disabled": 0, "is_reserved": 0}, {"rental_uris": {"ios": "https://dc.lft.to/lastmile_qr_scan", "android": "https://dc.lft.to/lastmile_qr_scan"}, "lon": -77.03698233333333, "type": "electric_scooter", "fusion_lat": 0.0, "lat": 38.9352805, "name": "65fd3ba17daa28172c0e68e1d8463148", "fusion_lon": 0.0, "bike_id": "65fd3ba17daa28172c0e68e1d8463148", "is_disabled": 0, "is_reserved": 0}, {"rental_uris": {"ios": "https://dc.lft.to/lastmile_qr_scan", "android": "https://dc.lft.to/lastmile_qr_scan"}, "lon": -76.97348183333334, "type": "electric_scooter", "fusion_lat": 0.0, "lat": 38.86511633333333, "name": "8c3c1c95585e14267ee122654a3b1fe5", "fusion_lon": 0.0, "bike_id": "8c3c1c95585e14267ee122654a3b1fe5", "is_disabled": 0, "is_reserved": 0}, {"rental_uris": {"ios": "https://dc.lft.to/lastmile_qr_scan", "android": "https://dc.lft.to/lastmile_qr_scan"}, "lon": -77.035723, "type": "electric_scooter", "fusion_lat": 0.0, "lat": 38.9181635, "name": "f5896a663cc1cc96b791246d37f4a916", "fusion_lon": 0.0, "bike_id": "f5896a663cc1cc96b791246d37f4a916", "is_disabled": 0, "is_reserved": 0}, {"rental_uris": {"ios": "https://dc.lft.to/lastmile_qr_scan", "android": "https://dc.lft.to/lastmile_qr_scan"}, "lon": -76.93195, "type": "electric_scooter", "fusion_lat": 0.0, "lat": 38.889939, "name": "d59c3d0a7970273f2f970403206ad2d3", "fusion_lon": 0.0, "bike_id": "d59c3d0a7970273f2f970403206ad2d3", "is_disabled": 0, "is_reserved": 0}, {"rental_uris": {"ios": "https://dc.lft.to/lastmile_qr_scan", "android": "https://dc.lft.to/lastmile_qr_scan"}, "lon": -77.01508966666667, "type": "electric_scooter", "fusion_lat": 0.0, "lat": 38.90154183333333, "name": "becece633de9fd8c02580e2f95c81321", "fusion_lon": 0.0, "bike_id": "becece633de9fd8c02580e2f95c81321", "is_disabled": 0, "is_reserved": 0}, {"rental_uris": {"ios": "https://dc.lft.to/lastmile_qr_scan", "android": "https://dc.lft.to/lastmile_qr_scan"}, "lon": -77.006012, "type": "electric_scooter", "fusion_lat": 0.0, "lat": 38.90641883333333, "name": "aa1323a27bd93c9f7f0c9622136f4b10", "fusion_lon": 0.0, "bike_id": "aa1323a27bd93c9f7f0c9622136f4b10", "is_disabled": 0, "is_reserved": 0}, {"rental_uris": {"ios": "https://dc.lft.to/lastmile_qr_scan", "android": "https://dc.lft.to/lastmile_qr_scan"}, "lon": -77.032199, "type": "electric_scooter", "fusion_lat": 0.0, "lat": 38.909747, "name": "18e7d37abe3e8a6a893d690e505e533b", "fusion_lon": 0.0, "bike_id": "18e7d37abe3e8a6a893d690e505e533b", "is_disabled": 0, "is_reserved": 0}, {"rental_uris": {"ios": "https://dc.lft.to/lastmile_qr_scan", "android": "https://dc.lft.to/lastmile_qr_scan"}, "lon": -77.04060116666666, "type": "electric_bike", "fusion_lat": 0.0, "lat": 38.924148833333334, "name": "79cdb1c51320ccdba38a0bcd3b686133", "fusion_lon": 0.0, "bike_id": "79cdb1c51320ccdba38a0bcd3b686133", "is_disabled": 0, "is_reserved": 0}, {"rental_uris": {"ios": "https://dc.lft.to/lastmile_qr_scan", "android": "https://dc.lft.to/lastmile_qr_scan"}, "lon": -77.01808216666667, "type": "electric_scooter", "fusion_lat": 0.0, "lat": 38.90443666666667, "name": "1c85c5aab7fc578642b47a268ba2701a", "fusion_lon": 0.0, "bike_id": "1c85c5aab7fc578642b47a268ba2701a", "is_disabled": 0, "is_reserved": 0}, {"rental_uris": {"ios": "https://dc.lft.to/lastmile_qr_scan", "android": "https://dc.lft.to/lastmile_qr_scan"}, "lon": -77.02716083333334, "type": "electric_scooter", "fusion_lat": 0.0, "lat": 38.914903833333334, "name": "035745a9d9f2bf2092fe7d3dc92acf1b", "fusion_lon": 0.0, "bike_id": "035745a9d9f2bf2092fe7d3dc92acf1b", "is_disabled": 0, "is_reserved": 0}, {"rental_uris": {"ios": "https://dc.lft.to/lastmile_qr_scan", "android": "https://dc.lft.to/lastmile_qr_scan"}, "lon": -77.045119, "type": "electric_scooter", "fusion_lat": 0.0, "lat": 38.90776966666667, "name": "745dcdae83342677ab21db54393b86e3", "fusion_lon": 0.0, "bike_id": "745dcdae83342677ab21db54393b86e3", "is_disabled": 0, "is_reserved": 0}, {"rental_uris": {"ios": "https://dc.lft.to/lastmile_qr_scan", "android": "https://dc.lft.to/lastmile_qr_scan"}, "lon": -77.02598583333334, "type": "electric_scooter", "fusion_lat": 0.0, "lat": 38.903633, "name": "51257dfbef9dfc3176a7865964734dad", "fusion_lon": 0.0, "bike_id": "51257dfbef9dfc3176a7865964734dad", "is_disabled": 0, "is_reserved": 0}, {"rental_uris": {"ios": "https://dc.lft.to/lastmile_qr_scan", "android": "https://dc.lft.to/lastmile_qr_scan"}, "lon": -77.04488416666666, "type": "electric_scooter", "fusion_lat": 0.0, "lat": 38.91953683333333, "name": "3e6ef18e22e16eff3de3547866baf447", "fusion_lon": 0.0, "bike_id": "3e6ef18e22e16eff3de3547866baf447", "is_disabled": 0, "is_reserved": 0}, {"rental_uris": {"ios": "https://dc.lft.to/lastmile_qr_scan", "android": "https://dc.lft.to/lastmile_qr_scan"}, "lon": -76.98564716666667, "type": "electric_scooter", "fusion_lat": 0.0, "lat": 38.855909833333335, "name": "1babad7de8933db76c5a3d36692a7e27", "fusion_lon": 0.0, "bike_id": "1babad7de8933db76c5a3d36692a7e27", "is_disabled": 0, "is_reserved": 0}, {"rental_uris": {"ios": "https://dc.lft.to/lastmile_qr_scan", "android": "https://dc.lft.to/lastmile_qr_scan"}, "lon": -77.04180483333333, "type": "electric_scooter", "fusion_lat": 0.0, "lat": 38.9036545, "name": "0eec5bea492eb3a39011aa6ed0a74a11", "fusion_lon": 0.0, "bike_id": "0eec5bea492eb3a39011aa6ed0a74a11", "is_disabled": 0, "is_reserved": 0}, {"rental_uris": {"ios": "https://dc.lft.to/lastmile_qr_scan", "android": "https://dc.lft.to/lastmile_qr_scan"}, "lon": -77.04206866666667, "type": "electric_scooter", "fusion_lat": 0.0, "lat": 38.92112983333333, "name": "e804219afd23941ca8ba14c4a3dc603d", "fusion_lon": 0.0, "bike_id": "e804219afd23941ca8ba14c4a3dc603d", "is_disabled": 0, "is_reserved": 0}, {"rental_uris": {"ios": "https://dc.lft.to/lastmile_qr_scan", "android": "https://dc.lft.to/lastmile_qr_scan"}, "lon": -77.0790895, "type": "electric_scooter", "fusion_lat": 0.0, "lat": 38.948082166666666, "name": "49bada5d60faf3f2e78c44a03bea20f0", "fusion_lon": 0.0, "bike_id": "49bada5d60faf3f2e78c44a03bea20f0", "is_disabled": 0, "is_reserved": 0}, {"rental_uris": {"ios": "https://dc.lft.to/lastmile_qr_scan", "android": "https://dc.lft.to/lastmile_qr_scan"}, "lon": -77.00857866666666, "type": "electric_bike", "fusion_lat": 0.0, "lat": 38.827317666666666, "name": "922b13efc7ec1b33efdbe4fad7ef1275", "fusion_lon": 0.0, "bike_id": "922b13efc7ec1b33efdbe4fad7ef1275", "is_disabled": 0, "is_reserved": 0}, {"rental_uris": {"ios": "https://dc.lft.to/lastmile_qr_scan", "android": "https://dc.lft.to/lastmile_qr_scan"}, "lon": -77.01949733333333, "type": "electric_scooter", "fusion_lat": 0.0, "lat": 38.9241625, "name": "085e3e928c08c7ba7906d84b61934256", "fusion_lon": 0.0, "bike_id": "085e3e928c08c7ba7906d84b61934256", "is_disabled": 0, "is_reserved": 0}, {"rental_uris": {"ios": "https://dc.lft.to/lastmile_qr_scan", "android": "https://dc.lft.to/lastmile_qr_scan"}, "lon": -77.0257995, "type": "electric_scooter", "fusion_lat": 0.0, "lat": 38.89252183333333, "name": "d070bfeb019aa7e870cc9e4da8ddf37d", "fusion_lon": 0.0, "bike_id": "d070bfeb019aa7e870cc9e4da8ddf37d", "is_disabled": 0, "is_reserved": 0}, {"rental_uris": {"ios": "https://dc.lft.to/lastmile_qr_scan", "android": "https://dc.lft.to/lastmile_qr_scan"}, "lon": -77.00374183333334, "type": "electric_scooter", "fusion_lat": 0.0, "lat": 38.87664383333333, "name": "db2a3cbafbc2924290289fbdf6fa8991", "fusion_lon": 0.0, "bike_id": "db2a3cbafbc2924290289fbdf6fa8991", "is_disabled": 0, "is_reserved": 0}, {"rental_uris": {"ios": "https://dc.lft.to/lastmile_qr_scan", "android": "https://dc.lft.to/lastmile_qr_scan"}, "lon": -77.00763883333333, "type": "electric_scooter", "fusion_lat": 0.0, "lat": 38.907464166666664, "name": "ce859b179ec1ddb3b8f2ef91941f32d0", "fusion_lon": 0.0, "bike_id": "ce859b179ec1ddb3b8f2ef91941f32d0", "is_disabled": 0, "is_reserved": 0}, {"rental_uris": {"ios": "https://dc.lft.to/lastmile_qr_scan", "android": "https://dc.lft.to/lastmile_qr_scan"}, "lon": -77.0272225, "type": "electric_scooter", "fusion_lat": 0.0, "lat": 38.9140775, "name": "813ba341fdbd2c09ceee24749ad63c7e", "fusion_lon": 0.0, "bike_id": "813ba341fdbd2c09ceee24749ad63c7e", "is_disabled": 0, "is_reserved": 0}, {"rental_uris": {"ios": "https://dc.lft.to/lastmile_qr_scan", "android": "https://dc.lft.to/lastmile_qr_scan"}, "lon": -77.047229, "type": "electric_scooter", "fusion_lat": 0.0, "lat": 38.9224335, "name": "ff3e4ae5ec70d6c810c9bfefa62c4a92", "fusion_lon": 0.0, "bike_id": "ff3e4ae5ec70d6c810c9bfefa62c4a92", "is_disabled": 0, "is_reserved": 0}, {"rental_uris": {"ios": "https://dc.lft.to/lastmile_qr_scan", "android": "https://dc.lft.to/lastmile_qr_scan"}, "lon": -77.03190633333334, "type": "electric_scooter", "fusion_lat": 0.0, "lat": 38.9016545, "name": "6ce6d51b7cd4e2deb607e4cd91b204ea", "fusion_lon": 0.0, "bike_id": "6ce6d51b7cd4e2deb607e4cd91b204ea", "is_disabled": 0, "is_reserved": 0}, {"rental_uris": {"ios": "https://dc.lft.to/lastmile_qr_scan", "android": "https://dc.lft.to/lastmile_qr_scan"},