{"data": {"bikes": [{"fusion_lat": 0.0, "name": "989f47712ff35666f5aa844cc53dd837", "lon": -77.04868283333333, "rental_uris": {"android": "https://dc.lft.to/lastmile_qr_scan", "ios": "https://dc.lft.to/lastmile_qr_scan"}, "fusion_lon": 0.0, "bike_id": "989f47712ff35666f5aa844cc53dd837", "is_disabled": 0, "lat": 38.8922845, "is_reserved": 0, "type": "electric_scooter"}, {"fusion_lat": 0.0, "name": "74a5898c92c8160909fa7707d115c19e", "lon": -76.9488755, "rental_uris": {"android": "https://dc.lft.to/lastmile_qr_scan", "ios": "https://dc.lft.to/lastmile_qr_scan"}, "fusion_lon": 0.0, "bike_id": "74a5898c92c8160909fa7707d115c19e", "is_disabled": 0, "lat": 38.89509016666667, "is_reserved": 0, "type": "electric_scooter"}, {"fusion_lat": 0.0, "name": "17b51a515b2e8b5d2a9888962b17f262", "lon": -77.0119805, "rental_uris": {"android": "https://dc.lft.to/lastmile_qr_scan", "ios": "https://dc.lft.to/lastmile_qr_scan"}, "fusion_lon": 0.0, "bike_id": "17b51a515b2e8b5d2a9888962b17f262", "is_disabled": 0, "lat": 38.91545466666667, "is_reserved": 0, "type": "electric_scooter"}, {"fusion_lat": 0.0, "name": "c2dd658751c3ace6858df99d0847f63d", "lon": -77.01980033333334, "rental_uris": {"android": "https://dc.lft.to/lastmile_qr_scan", "ios": "https://dc.lft.to/lastmile_qr_scan"}, "fusion_lon": 0.0, "bike_id": "c2dd658751c3ace6858df99d0847f63d", "is_disabled": 0, "lat": 38.88607716666667, "is_reserved": 0, "type": "electric_scooter"}, {"fusion_lat": 0.0, "name": "aae6559d26ca534d0cab566f4a68eeb2", "lon": -77.05892983333334, "rental_uris": {"android": "https://dc.lft.to/lastmile_qr_scan", "ios": "https://dc.lft.to/lastmile_qr_scan"}, "fusion_lon": 0.0, "bike_id": "aae6559d26ca534d0cab566f4a68eeb2", "is_disabled": 0, "lat": 38.9360965, "is_reserved": 0, "type": "electric_scooter"}, {"fusion_lat": 0.0, "name": "60b6557919fa32a05d90c8adf161a83a", "lon": -76.9318965, "rental_uris": {"android": "https://dc.lft.to/lastmile_qr_scan", "ios": "https://dc.lft.to/lastmile_qr_scan"}, "fusion_lon": 0.0, "bike_id": "60b6557919fa32a05d90c8adf161a83a", "is_disabled": 0, "lat": 38.89872033333333, "is_reserved": 0, "type": "electric_scooter"}, {"fusion_lat": 0.0, "name": "bf42742da3d2ecb9a2f6cb579cee32d5", "lon": -77.00705366666666, "rental_uris": {"android": "https://dc.lft.to/lastmile_qr_scan", "ios": "https://dc.lft.to/lastmile_qr_scan"}, "fusion_lon": 0.0, "bike_id": "bf42742da3d2ecb9a2f6cb579cee32d5", "is_disabled": 0, "lat": 38.95756216666667, "is_reserved": 0, "type": "electric_bike"}, {"fusion_lat": 0.0, "name": "0750a3781407a48311b5709a4f964a9e", "lon": -77.03711266666667, "rental_uris": {"android": "https://dc.lft.to/lastmile_qr_scan", "ios": "https://dc.lft.to/lastmile_qr_scan"}, "fusion_lon": 0.0, "bike_id": "0750a3781407a48311b5709a4f964a9e", "is_disabled": 0, "lat": 38.92652, "is_reserved": 0, "type": "electric_scooter"}, {"fusion_lat": 0.0, "name": "3ebd4ae7db36975405f42c118874e1b1", "lon": -76.99000633333333, "rental_uris": {"android": "https://dc.lft.to/lastmile_qr_scan", "ios": "https://dc.lft.to/lastmile_qr_scan"}, "fusion_lon": 0.0, "bike_id": "3ebd4ae7db36975405f42c118874e1b1", "is_disabled": 0, "lat": 38.86504216666667, "is_reserved": 0, "type": "electric_scooter"}, {"fusion_lat": 0.0, "name": "d0e0fcb4e44e7bda651d449b0b5e8322", "lon": -77.041813, "rental_uris": {"android": "https://dc.lft.to/lastmile_qr_scan", "ios": "https://dc.lft.to/lastmile_qr_scan"}, "fusion_lon": 0.0, "bike_id": "d0e0fcb4e44e7bda651d449b0b5e8322", "is_disabled": 0, "lat": 38.919669999999996, "is_reserved": 0, "type": "electric_scooter"}, {"fusion_lat": 0.0, "name": "25a41c8751d1321ed1f6ab406c7f9ee9", "lon": -77.01207366666667, "rental_uris": {"android": "https://dc.lft.to/lastmile_qr_scan", "ios": "https://dc.lft.to/lastmile_qr_scan"}, "fusion_lon": 0.0, "bike_id": "25a41c8751d1321ed1f6ab406c7f9ee9", "is_disabled": 0, "lat": 38.91428883333333, "is_reserved": 0, "type": "electric_scooter"}, {"fusion_lat": 0.0, "name": "2689bed2359d329aa5b74079c83f99c8", "lon": -77.0430555, "rental_uris": {"android": "https://dc.lft.to/lastmile_qr_scan", "ios": "https://dc.lft.to/lastmile_qr_scan"}, "fusion_lon": 0.0, "bike_id": "2689bed2359d329aa5b74079c83f99c8", "is_disabled": 0, "lat": 38.892207166666665, "is_reserved": 0, "type": "electric_scooter"}, {"fusion_lat": 0.0, "name": "85b2a1a8dc36d9436830cc2103ccdca9", "lon": -77.029206, "rental_uris": {"android": "https://dc.lft.to/lastmile_qr_scan", "ios": "https://dc.lft.to/lastmile_qr_scan"}, "fusion_lon": 0.0, "bike_id": "85b2a1a8dc36d9436830cc2103ccdca9", "is_disabled": 0, "lat": 38.9014405, "is_reserved": 0, "type": "electric_scooter"}, {"fusion_lat": 0.0, "name": "076a6763083ee30c70512d2536c1b513", "lon": -77.0455715, "rental_uris": {"android": "https://dc.lft.to/lastmile_qr_scan", "ios": "https://dc.lft.to/lastmile_qr_scan"}, "fusion_lon": 0.0, "bike_id": "076a6763083ee30c70512d2536c1b513", "is_disabled": 0, "lat": 38.91789083333333, "is_reserved": 0, "type": "electric_scooter"}, {"fusion_lat": 0.0, "name": "2f06d0e9201a59f8aefd103aeb3bd5dd", "lon": -76.97219016666666, "rental_uris": {"android": "https://dc.lft.to/lastmile_qr_scan", "ios": "https://dc.lft.to/lastmile_qr_scan"}, "fusion_lon": 0.0, "bike_id": "2f06d0e9201a59f8aefd103aeb3bd5dd", "is_disabled": 0, "lat": 38.90028483333333, "is_reserved": 0, "type": "electric_bike"}, {"fusion_lat": 0.0, "name": "153a2875c14f14e7ed55aa01f00926e0", "lon": -77.0151295, "rental_uris": {"android": "https://dc.lft.to/lastmile_qr_scan", "ios": "https://dc.lft.to/lastmile_qr_scan"}, "fusion_lon": 0.0, "bike_id": "153a2875c14f14e7ed55aa01f00926e0", "is_disabled": 0, "lat": 38.9582395, "is_reserved": 0, "type": "electric_scooter"}, {"fusion_lat": 0.0, "name": "d0eda4a7bb6d6f4743f1429248caf854", "lon": -77.03337216666667, "rental_uris": {"android": "https://dc.lft.to/lastmile_qr_scan", "ios": "https://dc.lft.to/lastmile_qr_scan"}, "fusion_lon": 0.0, "bike_id": "d0eda4a7bb6d6f4743f1429248caf854", "is_disabled": 0, "lat": 38.896294166666664, "is_reserved": 0, "type": "electric_scooter"}, {"fusion_lat": 0.0, "name": "3eb2aa0389399a1abb971b0648e03a73", "lon": -76.96502366666667, "rental_uris": {"android": "https://dc.lft.to/lastmile_qr_scan", "ios": "https://dc.lft.to/lastmile_qr_scan"}, "fusion_lon": 0.0, "bike_id": "3eb2aa0389399a1abb971b0648e03a73", "is_disabled": 0, "lat": 38.876408166666664, "is_reserved": 0, "type": "electric_scooter"}, {"fusion_lat": 0.0, "name": "fe4a248aeafa3067ba56be20ba3f9c93", "lon": -77.04581466666667, "rental_uris": {"android": "https://dc.lft.to/lastmile_qr_scan", "ios": "https://dc.lft.to/lastmile_qr_scan"}, "fusion_lon": 0.0, "bike_id": "fe4a248aeafa3067ba56be20ba3f9c93", "is_disabled": 0, "lat": 38.902427, "is_reserved": 0, "type": "electric_scooter"}, {"fusion_lat": 0.0, "name": "f9c53724064d37101d655bd613f40225", "lon": -77.0082155, "rental_uris": {"android": "https://dc.lft.to/lastmile_qr_scan", "ios": "https://dc.lft.to/lastmile_qr_scan"}, "fusion_lon": 0.0, "bike_id": "f9c53724064d37101d655bd613f40225", "is_disabled": 0, "lat": 38.87647316666666, "is_reserved": 0, "type": "electric_scooter"}, {"fusion_lat": 0.0, "name": "62c24c6ba525b0fe5821cff9311a3618", "lon": -77.04202583333333, "rental_uris": {"android": "https://dc.lft.to/lastmile_qr_scan", "ios": "https://dc.lft.to/lastmile_qr_scan"}, "fusion_lon": 0.0, "bike_id": "62c24c6ba525b0fe5821cff9311a3618", "is_disabled": 0, "lat": 38.920613, "is_reserved": 0, "type": "electric_scooter"}, {"fusion_lat": 0.0, "name": "7a0f2fbc78f7094861e3ef5eda36c3ae", "lon": -77.03226566666666, "rental_uris": {"android": "https://dc.lft.to/lastmile_qr_scan", "ios": "https://dc.lft.to/lastmile_qr_scan"}, "fusion_lon": 0.0, "bike_id": "7a0f2fbc78f7094861e3ef5eda36c3ae", "is_disabled": 0, "lat": 38.89217716666667, "is_reserved": 0, "type": "electric_scooter"}, {"fusion_lat": 0.0, "name": "be66bb1f9069b648012a30278e2304b7", "lon": -77.01790683333333, "rental_uris": {"android": "https://dc.lft.to/lastmile_qr_scan", "ios": "https://dc.lft.to/lastmile_qr_scan"}, "fusion_lon": 0.0, "bike_id": "be66bb1f9069b648012a30278e2304b7", "is_disabled": 0, "lat": 38.921275333333334, "is_reserved": 0, "type": "electric_scooter"}, {"fusion_lat": 0.0, "name": "e8735298f81d9387cf17ef440ea736fa", "lon": -77.01280966666667, "rental_uris": {"android": "https://dc.lft.to/lastmile_qr_scan", "ios": "https://dc.lft.to/lastmile_qr_scan"}, "fusion_lon": 0.0, "bike_id": "e8735298f81d9387cf17ef440ea736fa", "is_disabled": 0, "lat": 38.906128, "is_reserved": 0, "type": "electric_scooter"}, {"fusion_lat": 0.0, "name": "c36c74f12067035a2e837152d8f1ae40", "lon": -77.03071816666667, "rental_uris": {"android": "https://dc.lft.to/lastmile_qr_scan", "ios": "https://dc.lft.to/lastmile_qr_scan"}, "fusion_lon": 0.0, "bike_id": "c36c74f12067035a2e837152d8f1ae40", "is_disabled": 0, "lat": 39.04219533333333, "is_reserved": 0, "type": "electric_bike"}, {"fusion_lat": 0.0, "name": "99ba575909e1fa3118e7bbdc0641e4ac", "lon": -77.03323683333333, "rental_uris": {"android": "https://dc.lft.to/lastmile_qr_scan", "ios": "https://dc.lft.to/lastmile_qr_scan"}, "fusion_lon": 0.0, "bike_id": "99ba575909e1fa3118e7bbdc0641e4ac", "is_disabled": 0, "lat": 38.91104933333333, "is_reserved": 0, "type": "electric_scooter"}, {"fusion_lat": 0.0, "name": "ccbafb48e987dab29e0f7f7233df6af4", "lon": -77.02607916666666, "rental_uris": {"android": "https://dc.lft.to/lastmile_qr_scan", "ios": "https://dc.lft.to/lastmile_qr_scan"}, "fusion_lon": 0.0, "bike_id": "ccbafb48e987dab29e0f7f7233df6af4", "is_disabled": 0, "lat": 38.9191165, "is_reserved": 0, "type": "electric_scooter"}, {"fusion_lat": 0.0, "name": "1eb8746ec6b63129e19d2292c0d5d612", "lon": -77.03149683333334, "rental_uris": {"android": "https://dc.lft.to/lastmile_qr_scan", "ios": "https://dc.lft.to/lastmile_qr_scan"}, "fusion_lon": 0.0, "bike_id": "1eb8746ec6b63129e19d2292c0d5d612", "is_disabled": 0, "lat": 38.9110945, "is_reserved": 0, "type": "electric_scooter"}, {"fusion_lat": 0.0, "name": "260ea2fcaaa97240e026ecf3cda4b92e", "lon": -77.04530933333334, "rental_uris": {"android": "https://dc.lft.to/lastmile_qr_scan", "ios": "https://dc.lft.to/lastmile_qr_scan"}, "fusion_lon": 0.0, "bike_id": "260ea2fcaaa97240e026ecf3cda4b92e", "is_disabled": 0, "lat": 38.913225, "is_reserved": 0, "type": "electric_scooter"}, {"fusion_lat": 0.0, "name": "c90529a1710750e91ea4cf52c944fe26", "lon": -77.038651, "rental_uris": {"android": "https://dc.lft.to/lastmile_qr_scan", "ios": "https://dc.lft.to/lastmile_qr_scan"}, "fusion_lon": 0.0, "bike_id": "c90529a1710750e91ea4cf52c944fe26", "is_disabled": 0, "lat": 38.90577733333333, "is_reserved": 0, "type": "electric_scooter"}, {"fusion_lat": 0.0, "name": "200fa321e29c824258a5e325bee14493", "lon": -77.06047216666667, "rental_uris": {"android": "https://dc.lft.to/lastmile_qr_scan", "ios": "https://dc.lft.to/lastmile_qr_scan"}, "fusion_lon": 0.0, "bike_id": "200fa321e29c824258a5e325bee14493", "is_disabled": 0, "lat": 38.902384166666664, "is_reserved": 0, "type": "electric_scooter"}, {"fusion_lat": 0.0, "name": "69ae3cae3d769dd4199426be7a097d94", "lon": -77.0392735, "rental_uris": {"android": "https://dc.lft.to/lastmile_qr_scan", "ios": "https://dc.lft.to/lastmile_qr_scan"}, "fusion_lon": 0.0, "bike_id": "69ae3cae3d769dd4199426be7a097d94", "is_disabled": 0, "lat": 38.924861666666665, "is_reserved": 0, "type": "electric_scooter"}, {"fusion_lat": 0.0, "name": "ec2179c117f92c531b2a2a863b5e638f", "lon": -76.992526, "rental_uris": {"android": "https://dc.lft.to/lastmile_qr_scan", "ios": "https://dc.lft.to/lastmile_qr_scan"}, "fusion_lon": 0.0, "bike_id": "ec2179c117f92c531b2a2a863b5e638f", "is_disabled": 0, "lat": 38.87919766666667, "is_reserved": 0, "type": "electric_scooter"}, {"fusion_lat": 0.0, "name": "671acd28aa8c9e4e14814c19c855434d", "lon": -77.04461233333333, "rental_uris": {"android": "https://dc.lft.to/lastmile_qr_scan", "ios": "https://dc.lft.to/lastmile_qr_scan"}, "fusion_lon": 0.0, "bike_id": "671acd28aa8c9e4e14814c19c855434d", "is_disabled": 0, "lat": 38.9038045, "is_reserved": 0, "type": "electric_scooter"}, {"fusion_lat": 0.0, "name": "c4837d336b26da6f36b6144cc27042da", "lon": -76.99014466666667, "rental_uris": {"android": "https://dc.lft.to/lastmile_qr_scan", "ios": "https://dc.lft.to/lastmile_qr_scan"}, "fusion_lon": 0.0, "bike_id": "c4837d336b26da6f36b6144cc27042da", "is_disabled": 0, "lat": 38.88271733333333, "is_reserved": 0, "type": "electric_scooter"}, {"fusion_lat": 0.0, "name": "2771a9d2dcda3800635c82b0027db96e", "lon": -77.03614083333333, "rental_uris": {"android": "https://dc.lft.to/lastmile_qr_scan", "ios": "https://dc.lft.to/lastmile_qr_scan"}, "fusion_lon": 0.0, "bike_id": "2771a9d2dcda3800635c82b0027db96e", "is_disabled": 0, "lat": 38.923344, "is_reserved": 0, "type": "electric_scooter"}, {"fusion_lat": 0.0, "name": "c8c6f78391f6756aa296702ca7934160", "lon": -77.02476833333333, "rental_uris": {"android": "https://dc.lft.to/lastmile_qr_scan", "ios": "https://dc.lft.to/lastmile_qr_scan"}, "fusion_lon": 0.0, "bike_id": "c8c6f78391f6756aa296702ca7934160", "is_disabled": 0, "lat": 38.88020016666667, "is_reserved": 0, "type": "electric_scooter"}, {"fusion_lat": 0.0, "name": "366670a4c05bb9e8a29eacde0acda6b8", "lon": -77.03503016666667, "rental_uris": {"android": "https://dc.lft.to/lastmile_qr_scan", "ios": "https://dc.lft.to/lastmile_qr_scan"}, "fusion_lon": 0.0, "bike_id": "366670a4c05bb9e8a29eacde0acda6b8", "is_disabled": 0, "lat": 38.92134383333333, "is_reserved": 0, "type": "electric_scooter"}, {"fusion_lat": 0.0, "name": "50103bff3fb536effe721d0adea48263", "lon": -76.98087833333334, "rental_uris": {"android": "https://dc.lft.to/lastmile_qr_scan", "ios": "https://dc.lft.to/lastmile_qr_scan"}, "fusion_lon": 0.0, "bike_id": "50103bff3fb536effe721d0adea48263", "is_disabled": 0, "lat": 38.9040665, "is_reserved": 0, "type": "electric_scooter"}, {"fusion_lat": 0.0, "name": "880178b3bc525c2ffbd8c959599c335c", "lon": -77.11611933333333, "rental_uris": {"android": "https://dc.lft.to/lastmile_qr_scan", "ios": "https://dc.lft.to/lastmile_qr_scan"}, "fusion_lon": 0.0, "bike_id": "880178b3bc525c2ffbd8c959599c335c", "is_disabled": 0, "lat": 38.85483416666667, "is_reserved": 0, "type": "electric_bike"}, {"fusion_lat": 0.0, "name": "786f2c2bf27e8b64619a3aaca729f5fe", "lon": -76.99784616666666, "rental_uris": {"android": "https://dc.lft.to/lastmile_qr_scan", "ios": "https://dc.lft.to/lastmile_qr_scan"}, "fusion_lon": 0.0, "bike_id": "786f2c2bf27e8b64619a3aaca729f5fe", "is_disabled": 0, "lat": 38.88550466666667, "is_reserved": 0, "type": "electric_scooter"}, {"fusion_lat": 0.0, "name": "59e9bf499f597a111d0b30353c7db18f", "lon": -77.05488433333333, "rental_uris": {"android": "https://dc.lft.to/lastmile_qr_scan", "ios": "https://dc.lft.to/lastmile_qr_scan"}, "fusion_lon": 0.0, "bike_id": "59e9bf499f597a111d0b30353c7db18f", "is_disabled": 0, "lat": 38.8936205, "is_reserved": 0, "type": "electric_scooter"}, {"fusion_lat": 0.0, "name": "6c818bb3db422e8e5f050c2797fa072d", "lon": -77.03994266666666, "rental_uris": {"android": "https://dc.lft.to/lastmile_qr_scan", "ios": "https://dc.lft.to/lastmile_qr_scan"}, "fusion_lon": 0.0, "bike_id": "6c818bb3db422e8e5f050c2797fa072d", "is_disabled": 0, "lat": 38.9078055, "is_reserved": 0, "type": "electric_scooter"}, {"fusion_lat": 0.0, "name": "5a9fb79c41fb93373b4edd61e6dcb621", "lon": -77.0072435, "rental_uris": {"android": "https://dc.lft.to/lastmile_qr_scan", "ios": "https://dc.lft.to/lastmile_qr_scan"}, "fusion_lon": 0.0, "bike_id": "5a9fb79c41fb93373b4edd61e6dcb621", "is_disabled": 0, "lat": 38.884870166666666, "is_reserved": 0, "type": "electric_scooter"}, {"fusion_lat": 0.0, "name": "01cfcb7019b1bcfe428c3b1b4209f887", "lon": -77.03181183333334, "rental_uris": {"android": "https://dc.lft.to/lastmile_qr_scan", "ios": "https://dc.lft.to/lastmile_qr_scan"}, "fusion_lon": 0.0, "bike_id": "01cfcb7019b1bcfe428c3b1b4209f887", "is_disabled": 0, "lat": 38.913223333333335, "is_reserved": 0, "type": "electric_scooter"}, {"fusion_lat": 0.0, "name": "356192ea81ba60f65ed99868540c4c7c", "lon": -77.02563983333333, "rental_uris": {"android": "https://dc.lft.to/lastmile_qr_scan", "ios": "https://dc.lft.to/lastmile_qr_scan"}, "fusion_lon": 0.0, "bike_id": "356192ea81ba60f65ed99868540c4c7c", "is_disabled": 0, "lat": 38.9525865, "is_reserved": 0, "type": "electric_scooter"}, {"fusion_lat": 0.0, "name": "711e0307025d5d6431b06f3c2ee3d5f2", "lon": -77.01212633333333, "rental_uris": {"android": "https://dc.lft.to/lastmile_qr_scan", "ios": "https://dc.lft.to/lastmile_qr_scan"}, "fusion_lon": 0.0, "bike_id": "711e0307025d5d6431b06f3c2ee3d5f2", "is_disabled": 0, "lat": 38.897456166666665, "is_reserved": 0, "type": "electric_scooter"}, {"fusion_lat": 0.0, "name": "4ab1bf113f9a722674ee877d3fb2153c", "lon": -77.04341666666667, "rental_uris": {"android": "https://dc.lft.to/lastmile_qr_scan", "ios": "https://dc.lft.to/lastmile_qr_scan"}, "fusion_lon": 0.0, "bike_id": "4ab1bf113f9a722674ee877d3fb2153c", "is_disabled": 0, "lat": 38.900355166666664, "is_reserved": 0, "type": "electric_scooter"}, {"fusion_lat": 0.0, "name": "3aedbf278b8bac4c9c7385d0e6ac419f", "lon": -77.04466833333333, "rental_uris": {"android": "https://dc.lft.to/lastmile_qr_scan", "ios": "https://dc.lft.to/lastmile_qr_scan"}, "fusion_lon": 0.0, "bike_id": "3aedbf278b8bac4c9c7385d0e6ac419f", "is_disabled": 0, "lat": 38.9038335, "is_reserved": 0, "type": "electric_scooter"}, {"fusion_lat": 0.0, "name": "a602ad6e28d5f332366178e8f181bef5", "lon": -77.03160366666667, "rental_uris": {"android": "https://dc.lft.to/lastmile_qr_scan", "ios": "https://dc.lft.to/lastmile_qr_scan"}, "fusion_lon": 0.0, "bike_id": "a602ad6e28d5f332366178e8f181bef5", "is_disabled": 0, "lat": 38.920805333333334, "is_reserved": 0, "type": "electric_scooter"}, {"fusion_lat": 0.0, "name": "90c2cb71b91426aa6ea0da0dc88dbb96", "lon": -76.94878716666666, "rental_uris": {"android": "https://dc.lft.to/lastmile_qr_scan", "ios": "https://dc.lft.to/lastmile_qr_scan"}, "fusion_lon": 0.0, "bike_id": "90c2cb71b91426aa6ea0da0dc88dbb96", "is_disabled": 0, "lat": 38.894278166666666, "is_reserved": 0, "type": "electric_scooter"}, {"fusion_lat": 0.0, "name": "8b9d8835cdf7e3603153f7c3a2bba32e", "lon": -77.04481066666666, "rental_uris": {"android": "https://dc.lft.to/lastmile_qr_scan", "ios": "https://dc.lft.to/lastmile_qr_scan"}, "fusion_lon": 0.0, "bike_id": "8b9d8835cdf7e3603153f7c3a2bba32e", "is_disabled": 0, "lat": 38.918604, "is_reserved": 0, "type": "electric_scooter"}, {"fusion_lat": 0.0, "name": "d3ce98e1b52d303b8548b38231a26bb8", "lon": -77.04341033333333, "rental_uris": {"android": "https://dc.lft.to/lastmile_qr_scan", "ios": "https://dc.lft.to/lastmile_qr_scan"}, "fusion_lon": 0.0, "bike_id": "d3ce98e1b52d303b8548b38231a26bb8", "is_disabled": 0, "lat": 38.901311, "is_reserved": 0, "type": "electric_scooter"}, {"fusion_lat": 0.0, "name": "4f8ad032d2fa8711bd0fcc576910c269", "lon": -77.02125983333333, "rental_uris": {"android": "https://dc.lft.to/lastmile_qr_scan", "ios": "https://dc.lft.to/lastmile_qr_scan"}, "fusion_lon": 0.0, "bike_id": "4f8ad032d2fa8711bd0fcc576910c269", "is_disabled": 0, "lat": 38.914169, "is_reserved": 0, "type": "electric_scooter"}, {"fusion_lat": 0.0, "name": "4d7891ec4f87c5ceec55611e3f8f6662", "lon": -76.955883, "rental_uris": {"android": "https://dc.lft.to/lastmile_qr_scan", "ios": "https://dc.lft.to/lastmile_qr_scan"}, "fusion_lon": 0.0, "bike_id": "4d7891ec4f87c5ceec55611e3f8f6662", "is_disabled": 0, "lat": 38.886092, "is_reserved": 0, "type": "electric_scooter"}, {"fusion_lat": 0.0, "name": "3cc075110361f9998970dd188fe4e077", "lon": -77.03482583333333, "rental_uris": {"android": "https://dc.lft.to/lastmile_qr_scan", "ios": "https://dc.lft.to/lastmile_qr_scan"}, "fusion_lon": 0.0, "bike_id": "3cc075110361f9998970dd188fe4e077", "is_disabled": 0, "lat": 38.916842333333335, "is_reserved": 0, "type": "electric_scooter"}, {"fusion_lat": 0.0, "name": "bc2f8ed09a5187a1cc3fdfb06cb939dd", "lon": -77.00920983333333, "rental_uris": {"android": "https://dc.lft.to/lastmile_qr_scan", "ios": "https://dc.lft.to/lastmile_qr_scan"}, "fusion_lon": 0.0, "bike_id": "bc2f8ed09a5187a1cc3fdfb06cb939dd", "is_disabled": 0, "lat": 38.916116333333335, "is_reserved": 0, "type": "electric_scooter"}, {"fusion_lat": 0.0, "name": "dcf13bf23e0417516157053ee9609728", "lon": -76.98593783333334, "rental_uris": {"android": "https://dc.lft.to/lastmile_qr_scan", "ios": "https://dc.lft.to/lastmile_qr_scan"}, "fusion_lon": 0.0, "bike_id": "dcf13bf23e0417516157053ee9609728", "is_disabled": 0, "lat": 38.86681983333333, "is_reserved": 0, "type": "electric_scooter"}, {"fusion_lat": 0.0, "name": "650446df9d12c1bb3851d740d20dcd39", "lon": -76.99492266666667, "rental_uris": {"android": "https://dc.lft.to/lastmile_qr_scan", "ios": "https://dc.lft.to/lastmile_qr_scan"}, "fusion_lon": 0.0, "bike_id": "650446df9d12c1bb3851d740d20dcd39", "is_disabled": 0, "lat": 38.88600983333333, "is_reserved": 0, "type": "electric_scooter"}, {"fusion_lat": 0.0, "name": "7458efc7897e797eeb5f05ab11c8707f", "lon": -77.02958333333333, "rental_uris": {"android": "https://dc.lft.to/lastmile_qr_scan", "ios": "https://dc.lft.to/lastmile_qr_scan"}, "fusion_lon": 0.0, "bike_id": "7458efc7897e797eeb5f05ab11c8707f", "is_disabled": 0, "lat": 38.916685333333334, "is_reserved": 0, "type": "electric_scooter"}, {"fusion_lat": 0.0, "name": "c000546f645ff8a147515943c654ed48", "lon": -77.02535116666667, "rental_uris": {"android": "https://dc.lft.to/lastmile_qr_scan", "ios": "https://dc.lft.to/lastmile_qr_scan"}, "fusion_lon": 0.0, "bike_id": "c000546f645ff8a147515943c654ed48", "is_disabled": 0, "lat": 38.92746016666667, "is_reserved": 0, "type": "electric_scooter"}, {"fusion_lat": 0.0, "name": "4d8b72a5ae4d0450b715cf201364d6ce", "lon": -77.05847916666667, "rental_uris": {"android": "https://dc.lft.to/lastmile_qr_scan", "ios": "https://dc.lft.to/lastmile_qr_scan"}, "fusion_lon": 0.0, "bike_id": "4d8b72a5ae4d0450b715cf201364d6ce", "is_disabled": 0, "lat": 38.9304225, "is_reserved": 0, "type": "electric_scooter"}, {"fusion_lat": 0.0, "name": "ae51d3b735f2c4f8a984f93a5dcaf74d", "lon": -77.04377783333334, "rental_uris": {"android": "https://dc.lft.to/lastmile_qr_scan", "ios": "https://dc.lft.to/lastmile_qr_scan"}, "fusion_lon": 0.0, "bike_id": "ae51d3b735f2c4f8a984f93a5dcaf74d", "is_disabled": 0, "lat": 38.910552833333334, "is_reserved": 0, "type": "electric_scooter"}, {"fusion_lat": 0.0, "name": "6ae741a22c6a05ccb3d7acee42adebc4", "lon": -76.99841783333333, "rental_uris": {"android": "https://dc.lft.to/lastmile_qr_scan", "ios": "https://dc.lft.to/lastmile_qr_scan"}, "fusion_lon": 0.0, "bike_id": "6ae741a22c6a05ccb3d7acee42adebc4", "is_disabled": 0, "lat": 38.9003825, "is_reserved": 0, "type": "electric_scooter"}, {"fusion_lat": 0.0, "name": "4a7525bcfde4c19c79e811d2fa8609ee", "lon": -77.0441685, "rental_uris": {"android": "https://dc.lft.to/lastmile_qr_scan", "ios": "https://dc.lft.to/lastmile_qr_scan"}, "fusion_lon": 0.0, "bike_id": "4a7525bcfde4c19c79e811d2fa8609ee", "is_disabled": 0, "lat": 38.911278, "is_reserved": 0, "type": "electric_scooter"}, {"fusion_lat": 0.0, "name": "829fa87c56e05a035a3f3576669894b9", "lon": -77.02625283333333, "rental_uris": {"android": "https://dc.lft.to/lastmile_qr_scan", "ios": "https://dc.lft.to/lastmile_qr_scan"}, "fusion_lon": 0.0, "bike_id": "829fa87c56e05a035a3f3576669894b9", "is_disabled": 0, "lat": 38.96203933333334, "is_reserved": 0, "type": "electric_bike"}, {"fusion_lat": 0.0, "name": "bb3a5f776ec053cd987d71cb3eb6f4e0", "lon": -77.0021035, "rental_uris": {"android": "https://dc.lft.to/lastmile_qr_scan", "ios": "https://dc.lft.to/lastmile_qr_scan"}, "fusion_lon": 0.0, "bike_id": "bb3a5f776ec053cd987d71cb3eb6f4e0", "is_disabled": 0, "lat": 38.914648166666666, "is_reserved": 0, "type": "electric_scooter"}, {"fusion_lat": 0.0, "name": "d9f06da7ef702fcfc6ed6fc52d0aa64c", "lon": -77.033983, "rental_uris": {"android": "https://dc.lft.to/lastmile_qr_scan", "ios": "https://dc.lft.to/lastmile_qr_scan"}, "fusion_lon": 0.0, "bike_id": "d9f06da7ef702fcfc6ed6fc52d0aa64c", "is_disabled": 0, "lat": 38.924395, "is_reserved": 0, "type": "electric_scooter"}, {"fusion_lat": 0.0, "name": "c741d0f0d74de625931d9bef5db68165", "lon": -77.0432955, "rental_uris": {"android": "https://dc.lft.to/lastmile_qr_scan", "ios": "https://dc.lft.to/lastmile_qr_scan"}, "fusion_lon": 0.0, "bike_id": "c741d0f0d74de625931d9bef5db68165", "is_disabled": 0, "lat": 38.921816166666666, "is_reserved": 0, "type": "electric_scooter"}, {"fusion_lat": 0.0, "name": "12481543531bc6e8027cf42da5f663a6", "lon": -76.973295, "rental_uris": {"android": "https://dc.lft.to/lastmile_qr_scan", "ios": "https://dc.lft.to/lastmile_qr_scan"}, "fusion_lon": 0.0, "bike_id": "12481543531bc6e8027cf42da5f663a6", "is_disabled": 0, "lat": 38.904803333333334, "is_reserved": 0, "type": "electric_bike"}, {"fusion_lat": 0.0, "name": "18bed2ef29a5794ec32d5d3396ab5ff9", "lon": -77.043803, "rental_uris": {"android": "https://dc.lft.to/lastmile_qr_scan", "ios": "https://dc.lft.to/lastmile_qr_scan"}, "fusion_lon": 0.0, "bike_id": "18bed2ef29a5794ec32d5d3396ab5ff9", "is_disabled": 0, "lat": 38.916534166666665, "is_reserved": 0, "type": "electric_scooter"}, {"fusion_lat": 0.0, "name": "bed9eae80bae30d7516cf7a8b66c4bbf", "lon": -77.03147766666666, "rental_uris": {"android": "https://dc.lft.to/lastmile_qr_scan", "ios": "https://dc.lft.to/lastmile_qr_scan"}, "fusion_lon": 0.0, "bike_id": "bed9eae80bae30d7516cf7a8b66c4bbf", "is_disabled": 0, "lat": 38.91930166666667, "is_reserved": 0, "type": "electric_scooter"}, {"fusion_lat": 0.0, "name": "9a41670afa21a4a11b5f5543ac90a3a4", "lon": -76.93030633333333, "rental_uris": {"android": "https://dc.lft.to/lastmile_qr_scan", "ios": "https://dc.lft.to/lastmile_qr_scan"}, "fusion_lon": 0.0, "bike_id": "9a41670afa21a4a11b5f5543ac90a3a4", "is_disabled": 0, "lat": 38.90009333333333, "is_reserved": 0, "type": "electric_scooter"}, {"fusion_lat": 0.0, "name": "d7aaf0f309b846e618d15d5b1ffba4d4", "lon": -76.9851355, "rental_uris": {"android": "https://dc.lft.to/lastmile_qr_scan", "ios": "https://dc.lft.to/lastmile_qr_scan"}, "fusion_lon": 0.0, "bike_id": "d7aaf0f309b846e618d15d5b1ffba4d4", "is_disabled": 0, "lat": 38.86652466666666, "is_reserved": 0, "type": "electric_scooter"}, {"fusion_lat": 0.0, "name": "966171b14d3e66b4d22d7af7e65ac57a", "lon": -77.027151, "rental_uris": {"android": "https://dc.lft.to/lastmile_qr_scan", "ios": "https://dc.lft.to/lastmile_qr_scan"}, "fusion_lon": 0.0, "bike_id": "966171b14d3e66b4d22d7af7e65ac57a", "is_disabled": 0, "lat": 38.89714016666667, "is_reserved": 0, "type": "electric_scooter"}, {"fusion_lat": 0.0, "name": "d17a84a5f7469eba01f21db4ac0e0f84", "lon": -77.04340516666667, "rental_uris": {"android": "https://dc.lft.to/lastmile_qr_scan", "ios": "https://dc.lft.to/lastmile_qr_scan"}, "fusion_lon": 0.0, "bike_id": "d17a84a5f7469eba01f21db4ac0e0f84", "is_disabled": 0, "lat": 38.901235666666665, "is_reserved": 0, "type": "electric_scooter"}, {"fusion_lat": 0.0, "name": "961af9348564444dd7bba1df52011bd5", "lon": -77.07224766666667, "rental_uris": {"android": "https://dc.lft.to/lastmile_qr_scan", "ios": "https://dc.lft.to/lastmile_qr_scan"}, "fusion_lon": 0.0, "bike_id": "961af9348564444dd7bba1df52011bd5", "is_disabled": 0, "lat": 38.933971666666665, "is_reserved": 0, "type": "electric_scooter"}, {"fusion_lat": 0.0, "name": "7cc906cd3e40f7c7f6a2036515c16b30", "lon": -77.01488366666666, "rental_uris": {"android": "https://dc.lft.to/lastmile_qr_scan", "ios": "https://dc.lft.to/lastmile_qr_scan"}, "fusion_lon": 0.0, "bike_id": "7cc906cd3e40f7c7f6a2036515c16b30", "is_disabled": 0, "lat": 38.892185833333336, "is_reserved": 0, "type": "electric_scooter"}, {"fusion_lat": 0.0, "name": "1de9909252e54698a50197afe23dcc3d", "lon": -76.985885, "rental_uris": {"android": "https://dc.lft.to/lastmile_qr_scan", "ios": "https://dc.lft.to/lastmile_qr_scan"}, "fusion_lon": 0.0, "bike_id": "1de9909252e54698a50197afe23dcc3d", "is_disabled": 0, "lat": 38.866957166666666, "is_reserved": 0, "type": "electric_scooter"}, {"fusion_lat": 0.0, "name": "63b95857ca571aa0a955349b6d77494d", "lon": -76.97221483333334, "rental_uris": {"android": "https://dc.lft.to/lastmile_qr_scan", "ios": "https://dc.lft.to/lastmile_qr_scan"}, "fusion_lon": 0.0, "bike_id": "63b95857ca571aa0a955349b6d77494d", "is_disabled": 0, "lat": 38.925352833333335, "is_reserved": 0, "type": "electric_scooter"}, {"fusion_lat": 0.0, "name": "14140472146c24f5763e2e6bb16552d1", "lon": -76.99129666666667, "rental_uris": {"android": "https://dc.lft.to/lastmile_qr_scan", "ios": "https://dc.lft.to/lastmile_qr_scan"}, "fusion_lon": 0.0, "bike_id": "14140472146c24f5763e2e6bb16552d1", "is_disabled": 0, "lat": 38.908615, "is_reserved": 0, "type": "electric_scooter"}, {"fusion_lat": 0.0, "name": "6549bc6ee83b6ba61bfc003f15f824b0", "lon": -76.99930433333333, "rental_uris": {"android": "https://dc.lft.to/lastmile_qr_scan", "ios": "https://dc.lft.to/lastmile_qr_scan"}, "fusion_lon": 0.0, "bike_id": "6549bc6ee83b6ba61bfc003f15f824b0", "is_disabled": 0, "lat": 38.843132, "is_reserved": 0, "type": "electric_scooter"}, {"fusion_lat": 0.0, "name": "903c45c3c1d57923ee3fde0b494de8fb", "lon": -77.041512, "rental_uris": {"android": "https://dc.lft.to/lastmile_qr_scan", "ios": "https://dc.lft.to/lastmile_qr_scan"}, "fusion_lon": 0.0, "bike_id": "903c45c3c1d57923ee3fde0b494de8fb", "is_disabled": 0, "lat": 38.90745183333333, "is_reserved": 0, "type": "electric_scooter"}, {"fusion_lat": 0.0, "name": "d93a8209acad4d2e8a57ca5c858f8c6c", "lon": -77.01406483333334, "rental_uris": {"android": "https://dc.lft.to/lastmile_qr_scan", "ios": "https://dc.lft.to/lastmile_qr_scan"}, "fusion_lon": 0.0, "bike_id": "d93a8209acad4d2e8a57ca5c858f8c6c", "is_disabled": 0, "lat": 38.91401483333333, "is_reserved": 0, "type": "electric_scooter"}, {"fusion_lat": 0.0, "name": "aadc5a81e20c7c7e8bff5bf52d9b215b", "lon": -77.04374183333333, "rental_uris": {"android": "https://dc.lft.to/lastmile_qr_scan", "ios": "https://dc.lft.to/lastmile_qr_scan"}, "fusion_lon": 0.0, "bike_id": "aadc5a81e20c7c7e8bff5bf52d9b215b", "is_disabled": 0, "lat": 38.892208833333335, "is_reserved": 0, "type": "electric_scooter"}, {"fusion_lat": 0.0, "name": "46f444d43ed61f9d815176e29b57cb3a", "lon": -76.99015433333334, "rental_uris": {"android": "https://dc.lft.to/lastmile_qr_scan", "ios": "https://dc.lft.to/lastmile_qr_scan"}, "fusion_lon": 0.0, "bike_id": "46f444d43ed61f9d815176e29b57cb3a", "is_disabled": 0, "lat": 38.882572333333336, "is_reserved": 0, "type": "electric_scooter"}, {"fusion_lat": 0.0, "name": "e0615efb8afd0d9045ca1cebab92f544", "lon": -77.04637916666667, "rental_uris": {"android": "https://dc.lft.to/lastmile_qr_scan", "ios": "https://dc.lft.to/lastmile_qr_scan"}, "fusion_lon": 0.0, "bike_id": "e0615efb8afd0d9045ca1cebab92f544", "is_disabled": 0, "lat": 38.892205, "is_reserved": 0, "type": "electric_scooter"}, {"fusion_lat": 0.0, "name": "07f3a599eb2cd5d851e3a53aee4e26d7", "lon": -77.04672583333333, "rental_uris": {"android": "https://dc.lft.to/lastmile_qr_scan", "ios": "https://dc.lft.to/lastmile_qr_scan"}, "fusion_lon": 0.0, "bike_id": "07f3a599eb2cd5d851e3a53aee4e26d7", "is_disabled": 0, "lat": 38.895519, "is_reserved": 0, "type": "electric_scooter"}, {"fusion_lat": 0.0, "name": "de2a6364799b736d6a6ba6ce4b07954f", "lon": -77.04154416666667, "rental_uris": {"android": "https://dc.lft.to/lastmile_qr_scan", "ios": "https://dc.lft.to/lastmile_qr_scan"}, "fusion_lon": 0.0, "bike_id": "de2a6364799b736d6a6ba6ce4b07954f", "is_disabled": 0, "lat": 38.91713216666667, "is_reserved": 0, "type": "electric_scooter"}, {"fusion_lat": 0.0, "name": "d1aaa70479b53ef11922f4be1862893d", "lon": -77.025823, "rental_uris": {"android": "https://dc.lft.to/lastmile_qr_scan", "ios": "https://dc.lft.to/lastmile_qr_scan"}, "fusion_lon": 0.0, "bike_id": "d1aaa70479b53ef11922f4be1862893d", "is_disabled": 0, "lat": 38.899089833333335, "is_reserved": 0, "type": "electric_scooter"}, {"fusion_lat": 0.0, "name": "d5688328bbd9fce29f309da831a638cc", "lon": -77.02851383333334, "rental_uris": {"android": "https://dc.lft.to/lastmile_qr_scan", "ios": "https://dc.lft.to/lastmile_qr_scan"}, "fusion_lon": 0.0, "bike_id": "d5688328bbd9fce29f309da831a638cc", "is_disabled": 0, "lat": 38.934145, "is_reserved": 0, "type": "electric_scooter"}, {"fusion_lat": 0.0, "name": "59ff65bbef992000a269c0b32f7d1649", "lon": -76.934712, "rental_uris": {"android": "https://dc.lft.to/lastmile_qr_scan", "ios": "https://dc.lft.to/lastmile_qr_scan"}, "fusion_lon": 0.0, "bike_id": "59ff65bbef992000a269c0b32f7d1649", "is_disabled": 0, "lat": 38.8950175, "is_reserved": 0, "type": "electric_scooter"}, {"fusion_lat": 0.0, "name": "4469b45844f263e40e0fc85046ad2954", "lon": -77.07455833333333, "rental_uris": {"android": "https://dc.lft.to/lastmile_qr_scan", "ios": "https://dc.lft.to/lastmile_qr_scan"}, "fusion_lon": 0.0, "bike_id": "4469b45844f263e40e0fc85046ad2954", "is_disabled": 0, "lat": 38.94507183333333, "is_reserved": 0, "type": "electric_scooter"}, {"fusion_lat": 0.0, "name": "331e1737544d69a9aa8ac7bfa0801d37", "lon": -77.02198783333333, "rental_uris": {"android": "https://dc.lft.to/lastmile_qr_scan", "ios": "https://dc.lft.to/lastmile_qr_scan"}, "fusion_lon": 0.0, "bike_id": "331e1737544d69a9aa8ac7bfa0801d37", "is_disabled": 0, "lat": 38.91525383333333, "is_reserved": 0, "type": "electric_scooter"}, {"fusion_lat": 0.0, "name": "2cfbc1545dc8079ecd77786538630a9e", "lon": -77.04334016666667, "rental_uris": {"android": "https://dc.lft.to/lastmile_qr_scan", "ios": "https://dc.lft.to/lastmile_qr_scan"}, "fusion_lon": 0.0, "bike_id": "2cfbc1545dc8079ecd77786538630a9e", "is_disabled": 0, "lat": 38.90695816666667, "is_reserved": 0, "type": "electric_scooter"}, {"fusion_lat": 0.0, "name": "cb12606be417b727b2255a3a30e1a443", "lon": -77.04164516666667, "rental_uris": {"android": "https://dc.lft.to/lastmile_qr_scan", "ios": "https://dc.lft.to/lastmile_qr_scan"}, "fusion_lon": 0.0, "bike_id": "cb12606be417b727b2255a3a30e1a443", "is_disabled": 0, "lat": 38.91177233333333, "is_reserved": 0, "type": "electric_scooter"}, {"fusion_lat": 0.0, "name": "ef8352445529f7e84f92589f70a62bd6", "lon": -77.03308366666667, "rental_uris": {"android": "https://dc.lft.to/lastmile_qr_scan", "ios": "https://dc.lft.to/lastmile_qr_scan"}, "fusion_lon": 0.0, "bike_id": "ef8352445529f7e84f92589f70a62bd6", "is_disabled": 0, "lat": 38.903238, "is_reserved": 0, "type": "electric_scooter"}, {"fusion_lat": 0.0, "name": "fa94b7f2d811c4dbb6e0b2b053896804", "lon": -77.03431433333333, "rental_uris": {"android": "https://dc.lft.to/lastmile_qr_scan", "ios": "https://dc.lft.to/lastmile_qr_scan"}, "fusion_lon": 0.0, "bike_id": "fa94b7f2d811c4dbb6e0b2b053896804", "is_disabled": 0, "lat": 38.91028716666667, "is_reserved": 0, "type": "electric_scooter"}, {"fusion_lat": 0.0, "name": "3a1009aaeba41fa1d234344a1635ec4e", "lon": -77.05049683333333, "rental_uris": {"android": "https://dc.lft.to/lastmile_qr_scan", "ios": "https://dc.lft.to/lastmile_qr_scan"}, "fusion_lon": 0.0, "bike_id": "3a1009aaeba41fa1d234344a1635ec4e", "is_disabled": 0, "lat": 38.92359483333333, "is_reserved": 0, "type": "electric_scooter"}, {"fusion_lat": 0.0, "name": "6d5189e62f774490844a98cabb66253f", "lon": -77.03172783333333, "rental_uris": {"android": "https://dc.lft.to/lastmile_qr_scan", "ios": "https://dc.lft.to/lastmile_qr_scan"}, "fusion_lon": 0.0, "bike_id": "6d5189e62f774490844a98cabb66253f", "is_disabled": 0, "lat": 38.9015905, "is_reserved": 0, "type": "electric_scooter"}, {"fusion_lat": 0.0, "name": "c3fa1ec67ed757f714162ec68ddbf3b9", "lon": -77.03840633333333, "rental_uris": {"android": "https://dc.lft.to/lastmile_qr_scan", "ios": "https://dc.lft.to/lastmile_qr_scan"}, "fusion_lon": 0.0, "bike_id": "c3fa1ec67ed757f714162ec68ddbf3b9", "is_disabled": 0, "lat": 38.921664166666666, "is_reserved": 0, "type": "electric_scooter"}, {"fusion_lat": 0.0, "name": "c944d874dcbc0c2bde32fb5f25bce885", "lon": -76.94628983333334, "rental_uris": {"android": "https://dc.lft.to/lastmile_qr_scan", "ios": "https://dc.lft.to/lastmile_qr_scan"}, "fusion_lon": 0.0, "bike_id": "c944d874dcbc0c2bde32fb5f25bce885", "is_disabled": 0, "lat": 38.898313333333334, "is_reserved": 0, "type": "electric_scooter"}, {"fusion_lat": 0.0, "name": "400724c7944580fee4f6162eeb87dedc", "lon": -77.023019, "rental_uris": {"android": "https://dc.lft.to/lastmile_qr_scan", "ios": "https://dc.lft.to/lastmile_qr_scan"}, "fusion_lon": 0.0, "bike_id": "400724c7944580fee4f6162eeb87dedc", "is_disabled": 0, "lat": 38.94085916666667, "is_reserved": 0, "type": "electric_scooter"}, {"fusion_lat": 0.0, "name": "ffe0377904296b9f9a7833c28214a48c", "lon": -77.00823683333333, "rental_uris": {"android": "https://dc.lft.to/lastmile_qr_scan", "ios": "https://dc.lft.to/lastmile_qr_scan"}, "fusion_lon": 0.0, "bike_id": "ffe0377904296b9f9a7833c28214a48c", "is_disabled": 0, "lat": 38.877655833333336, "is_reserved": 0, "type": "electric_scooter"}, {"fusion_lat": 0.0, "name": "1f84a9cd1e6a00f884e06f933d518a0d", "lon": -77.18735766666667, "rental_uris": {"android": "https://dc.lft.to/lastmile_qr_scan", "ios": "https://dc.lft.to/lastmile_qr_scan"}, "fusion_lon": 0.0, "bike_id": "1f84a9cd1e6a00f884e06f933d518a0d", "is_disabled": 0, "lat": 38.8935, "is_reserved": 0, "type": "electric_bike"}, {"fusion_lat": 0.0, "name": "7fd4d96ed8871ff94067719d30a896dd", "lon": -77.0541915, "rental_uris": {"android": "https://dc.lft.to/lastmile_qr_scan", "ios": "https://dc.lft.to/lastmile_qr_scan"}, "fusion_lon": 0.0, "bike_id": "7fd4d96ed8871ff94067719d30a896dd", "is_disabled": 0, "lat": 38.928379, "is_reserved": 0, "type": "electric_scooter"}, {"fusion_lat": 0.0, "name": "256d085862006f05f61168abb809478e", "lon": -76.97389633333333, "rental_uris": {"android": "https://dc.lft.to/lastmile_qr_scan", "ios": "https://dc.lft.to/lastmile_qr_scan"}, "fusion_lon": 0.0, "bike_id": "256d085862006f05f61168abb809478e", "is_disabled": 0, "lat": 38.905562333333336, "is_reserved": 0, "type": "electric_scooter"}, {"fusion_lat": 0.0, "name": "781b0da720eaa9d298c661cf931f7833", "lon": -76.931736, "rental_uris": {"android": "https://dc.lft.to/lastmile_qr_scan", "ios": "https://dc.lft.to/lastmile_qr_scan"}, "fusion_lon": 0.0, "bike_id": "781b0da720eaa9d298c661cf931f7833", "is_disabled": 0, "lat": 38.898851666666665, "is_reserved": 0, "type": "electric_scooter"}, {"fusion_lat": 0.0, "name": "1bb12213c0b86b718dfade5e27f56513", "lon": -77.034627, "rental_uris": {"android": "https://dc.lft.to/lastmile_qr_scan", "ios": "https://dc.lft.to/lastmile_qr_scan"}, "fusion_lon": 0.0, "bike_id": "1bb12213c0b86b718dfade5e27f56513", "is_disabled": 0, "lat": 38.91821383333333, "is_reserved": 0, "type": "electric_scooter"}, {"fusion_lat": 0.0, "name": "f62dd2f837390dd20129830af3927b20", "lon": -76.93373133333333, "rental_uris": {"android": "https://dc.lft.to/lastmile_qr_scan", "ios": "https://dc.lft.to/lastmile_qr_scan"}, "fusion_lon": 0.0, "bike_id": "f62dd2f837390dd20129830af3927b20", "is_disabled": 0, "lat": 38.89913216666667, "is_reserved": 0, "type": "electric_scooter"}, {"fusion_lat": 0.0, "name": "e0a28e730924bb3aa5101078bd4d23e5", "lon": -77.03414633333334, "rental_uris": {"android": "https://dc.lft.to/lastmile_qr_scan", "ios": "https://dc.lft.to/lastmile_qr_scan"}, "fusion_lon": 0.0, "bike_id": "e0a28e730924bb3aa5101078bd4d23e5", "is_disabled": 0, "lat": 38.932439333333335, "is_reserved": 0, "type": "electric_scooter"}, {"fusion_lat": 0.0, "name": "0766fdd063ca68fbbb2c5d1a845a13b7", "lon": -77.04912583333333, "rental_uris": {"android": "https://dc.lft.to/lastmile_qr_scan", "ios": "https://dc.lft.to/lastmile_qr_scan"}, "fusion_lon": 0.0, "bike_id": "0766fdd063ca68fbbb2c5d1a845a13b7", "is_disabled": 0, "lat": 38.91170733333333, "is_reserved": 0, "type": "electric_scooter"}, {"fusion_lat": 0.0, "name": "7f01eabfe293234e9e84919ec1a17069", "lon": -77.02817316666666, "rental_uris": {"android": "https://dc.lft.to/lastmile_qr_scan", "ios": "https://dc.lft.to/lastmile_qr_scan"}, "fusion_lon": 0.0, "bike_id": "7f01eabfe293234e9e84919ec1a17069", "is_disabled": 0, "lat": 38.887340333333334, "is_reserved": 0, "type": "electric_scooter"}, {"fusion_lat": 0.0, "name": "f1fd01b2ac038e119665ff590db12c5f", "lon": -77.04382483333333, "rental_uris": {"android": "https://dc.lft.to/lastmile_qr_scan", "ios": "https://dc.lft.to/lastmile_qr_scan"}, "fusion_lon": 0.0, "bike_id": "f1fd01b2ac038e119665ff590db12c5f", "is_disabled": 0, "lat": 38.907141333333335, "is_reserved": 0, "type": "electric_scooter"}, {"fusion_lat": 0.0, "name": "1fee48ab1422c42894eb9ac0d3850d32", "lon": -77.1018565, "rental_uris": {"android": "https://dc.lft.to/lastmile_qr_scan", "ios": "https://dc.lft.to/lastmile_qr_scan"}, "fusion_lon": 0.0, "bike_id": "1fee48ab1422c42894eb9ac0d3850d32", "is_disabled": 0, "lat": 38.85025616666667, "is_reserved": 0, "type": "electric_bike"}, {"fusion_lat": 0.0, "name": "9bf9f3fe38ea86980b68f056b8d445ae", "lon": -77.02281666666667, "rental_uris": {"android": "https://dc.lft.to/lastmile_qr_scan", "ios": "https://dc.lft.to/lastmile_qr_scan"}, "fusion_lon": 0.0, "bike_id": "9bf9f3fe38ea86980b68f056b8d445ae", "is_disabled": 0, "lat": 38.90781333333334, "is_reserved": 0, "type": "electric_scooter"}, {"fusion_lat": 0.0, "name": "72fef7e420b03e0f315305f49028e7c1", "lon": -77.05127483333334, "rental_uris": {"android": "https://dc.lft.to/lastmile_qr_scan", "ios": "https://dc.lft.to/lastmile_qr_scan"}, "fusion_lon": 0.0, "bike_id": "72fef7e420b03e0f315305f49028e7c1", "is_disabled": 0, "lat": 38.923598, "is_reserved": 0, "type": "electric_scooter"}, {"fusion_lat": 0.0, "name": "df7e2f2b24157b65eb1c108b11d2f57a", "lon": -77.02627883333334, "rental_uris": {"android": "https://dc.lft.to/lastmile_qr_scan", "ios": "https://dc.lft.to/lastmile_qr_scan"}, "fusion_lon": 0.0, "bike_id": "df7e2f2b24157b65eb1c108b11d2f57a", "is_disabled": 0, "lat": 38.89218066666667, "is_reserved": 0, "type": "electric_scooter"}, {"fusion_lat": 0.0, "name": "324413cf20a8da082e3e78a7f01bbafd", "lon": -77.01339683333333, "rental_uris": {"android": "https://dc.lft.to/lastmile_qr_scan", "ios": "https://dc.lft.to/lastmile_qr_scan"}, "fusion_lon": 0.0, "bike_id": "324413cf20a8da082e3e78a7f01bbafd", "is_disabled": 0, "lat": 38.878121, "is_reserved": 0, "type": "electric_scooter"}, {"fusion_lat": 0.0, "name": "837e98ee1c9b116c36d14caf95fdac50", "lon": -77.05494333333333, "rental_uris": {"android": "https://dc.lft.to/lastmile_qr_scan", "ios": "https://dc.lft.to/lastmile_qr_scan"}, "fusion_lon": 0.0, "bike_id": "837e98ee1c9b116c36d14caf95fdac50", "is_disabled": 0, "lat": 39.0147675, "is_reserved": 0, "type": "electric_bike"}, {"fusion_lat": 0.0, "name": "0e2dbf6d107b5fe4619f0d3970cbeda4", "lon": -77.02766, "rental_uris": {"android": "https://dc.lft.to/lastmile_qr_scan", "ios": "https://dc.lft.to/lastmile_qr_scan"}, "fusion_lon": 0.0, "bike_id": "0e2dbf6d107b5fe4619f0d3970cbeda4", "is_disabled": 0, "lat": 38.89191016666667, "is_reserved": 0, "type": "electric_scooter"}, {"fusion_lat": 0.0, "name": "216b29310a2fe2e0a23e26f8e9c297a1", "lon": -76.98188033333334, "rental_uris": {"android": "https://dc.lft.to/lastmile_qr_scan", "ios": "https://dc.lft.to/lastmile_qr_scan"}, "fusion_lon": 0.0, "bike_id": "216b29310a2fe2e0a23e26f8e9c297a1", "is_disabled": 0, "lat": 38.967406, "is_reserved": 0, "type": "electric_bike"}, {"fusion_lat": 0.0, "name": "4813bd22a56b74412eb28a48a8f6475d", "lon": -77.0237525, "rental_uris": {"android": "https://dc.lft.to/lastmile_qr_scan", "ios": "https://dc.lft.to/lastmile_qr_scan"}, "fusion_lon": 0.0, "bike_id": "4813bd22a56b74412eb28a48a8f6475d", "is_disabled": 0, "lat": 38.90371183333333, "is_reserved": 0, "type": "electric_scooter"}, {"fusion_lat": 0.0, "name": "432ef4a9419c9f38cfce028cd681c115", "lon": -77.03755633333333, "rental_uris": {"android": "https://dc.lft.to/lastmile_qr_scan", "ios": "https://dc.lft.to/lastmile_qr_scan"}, "fusion_lon": 0.0, "bike_id": "432ef4a9419c9f38cfce028cd681c115", "is_disabled": 0, "lat": 38.90774616666667, "is_reserved": 0, "type": "electric_scooter"}, {"fusion_lat": 0.0, "name": "91816f33a41155be425cc163a680b21b", "lon": -77.028397, "rental_uris": {"android": "https://dc.lft.to/lastmile_qr_scan", "ios": "https://dc.lft.to/lastmile_qr_scan"}, "fusion_lon": 0.0, "bike_id": "91816f33a41155be425cc163a680b21b", "is_disabled": 0, "lat": 38.93410216666667, "is_reserved": 0, "type": "electric_scooter"}, {"fusion_lat": 0.0, "name": "813243ee1649ff81aa92e1a190097412", "lon": -77.02700933333334, "rental_uris": {"android": "https://dc.lft.to/lastmile_qr_scan", "ios": "https://dc.lft.to/lastmile_qr_scan"}, "fusion_lon": 0.0, "bike_id": "813243ee1649ff81aa92e1a190097412", "is_disabled": 0, "lat": 38.9065575, "is_reserved": 0, "type": "electric_scooter"}, {"fusion_lat": 0.0, "name": "6832e0e1ae922debd886e40a2e7c1dd4", "lon": -77.04645683333334, "rental_uris": {"android": "https://dc.lft.to/lastmile_qr_scan", "ios": "https://dc.lft.to/lastmile_qr_scan"}, "fusion_lon": 0.0, "bike_id": "6832e0e1ae922debd886e40a2e7c1dd4", "is_disabled": 0, "lat": 38.904110833333334, "is_reserved": 0, "type": "electric_scooter"}, {"fusion_lat": 0.0, "name": "216150fe3f9f602a7ea8d52bb2d9edfa", "lon": -77.03638216666667, "rental_uris": {"android": "https://dc.lft.to/lastmile_qr_scan", "ios": "https://dc.lft.to/lastmile_qr_scan"}, "fusion_lon": 0.0, "bike_id": "216150fe3f9f602a7ea8d52bb2d9edfa", "is_disabled": 0, "lat": 38.922729, "is_reserved": 0, "type": "electric_scooter"}, {"fusion_lat": 0.0, "name": "5cdd4b178dca423d4fa1ea904cf8305c", "lon": -77.0327175, "rental_uris": {"android": "https://dc.lft.to/lastmile_qr_scan", "ios": "https://dc.lft.to/lastmile_qr_scan"}, "fusion_lon": 0.0, "bike_id": "5cdd4b178dca423d4fa1ea904cf8305c", "is_disabled": 0, "lat": 38.932526333333335, "is_reserved": 0, "type": "electric_scooter"}, {"fusion_lat": 0.0, "name": "aa777ca3c1ce3bfd0548f77e6ebcd92e", "lon": -77.00214866666667, "rental_uris": {"android": "https://dc.lft.to/lastmile_qr_scan", "ios": "https://dc.lft.to/lastmile_qr_scan"}, "fusion_lon": 0.0, "bike_id": "aa777ca3c1ce3bfd0548f77e6ebcd92e", "is_disabled": 0, "lat": 38.8945525, "is_reserved": 0, "type": "electric_scooter"}, {"fusion_lat": 0.0, "name": "eb7d4d199fac76ccf23d26b01e32d366", "lon": -77.03303433333333, "rental_uris": {"android": "https://dc.lft.to/lastmile_qr_scan", "ios": "https://dc.lft.to/lastmile_qr_scan"}, "fusion_lon": 0.0, "bike_id": "eb7d4d199fac76ccf23d26b01e32d366", "is_disabled": 0, "lat": 38.89818916666667, "is_reserved": 0, "type": "electric_scooter"}, {"fusion_lat": 0.0, "name": "b364b9ebf8d61b08fb6bddf1a4c4fc1e", "lon": -77.00914633333333, "rental_uris": {"android": "https://dc.lft.to/lastmile_qr_scan", "ios": "https://dc.lft.to/lastmile_qr_scan"}, "fusion_lon": 0.0, "bike_id": "b364b9ebf8d61b08fb6bddf1a4c4fc1e", "is_disabled": 0, "lat": 38.89549233333334, "is_reserved": 0, "type": "electric_scooter"}, {"fusion_lat": 0.0, "name": "9525d62861942f2003ea1e4873b87ed6", "lon": -77.03649633333333, "rental_uris": {"android": "https://dc.lft.to/lastmile_qr_scan", "ios": "https://dc.lft.to/lastmile_qr_scan"}, "fusion_lon": 0.0, "bike_id": "9525d62861942f2003ea1e4873b87ed6", "is_disabled": 0, "lat": 38.913797, "is_reserved": 0, "type": "electric_scooter"}, {"fusion_lat": 0.0, "name": "03300dc8722a2ad34f7413c02d972e3c", "lon": -76.989992, "rental_uris": {"android": "https://dc.lft.to/lastmile_qr_scan", "ios": "https://dc.lft.to/lastmile_qr_scan"}, "fusion_lon": 0.0, "bike_id": "03300dc8722a2ad34f7413c02d972e3c", "is_disabled": 0, "lat": 38.865028, "is_reserved": 0, "type": "electric_scooter"}, {"fusion_lat": 0.0, "name": "16e15c10a58f7f5ac6fe400f7cbcc8a2", "lon": -77.02264116666667, "rental_uris": {"android": "https://dc.lft.to/lastmile_qr_scan", "ios": "https://dc.lft.to/lastmile_qr_scan"}, "fusion_lon": 0.0, "bike_id": "16e15c10a58f7f5ac6fe400f7cbcc8a2", "is_disabled": 0, "lat": 38.927363166666666, "is_reserved": 0, "type": "electric_scooter"}, {"fusion_lat": 0.0, "name": "b2934dc53955748647cebaf09d52af42", "lon": -76.9889505, "rental_uris": {"android": "https://dc.lft.to/lastmile_qr_scan", "ios": "https://dc.lft.to/lastmile_qr_scan"}, "fusion_lon": 0.0, "bike_id": "b2934dc53955748647cebaf09d52af42", "is_disabled": 0, "lat": 38.86660583333333, "is_reserved": 0, "type": "electric_scooter"}, {"fusion_lat": 0.0, "name": "2ca15d5e3d6e43c2ef0e021598150329", "lon": -77.02287566666666, "rental_uris": {"android": "https://dc.lft.to/lastmile_qr_scan", "ios": "https://dc.lft.to/lastmile_qr_scan"}, "fusion_lon": 0.0, "bike_id": "2ca15d5e3d6e43c2ef0e021598150329", "is_disabled": 0, "lat": 38.92658466666666, "is_reserved": 0, "type": "electric_scooter"}, {"fusion_lat": 0.0, "name": "7ea97fdc40be169ed500f6531ba65c43", "lon": -77.0395945, "rental_uris": {"android": "https://dc.lft.to/lastmile_qr_scan", "ios": "https://dc.lft.to/lastmile_qr_scan"}, "fusion_lon": 0.0, "bike_id": "7ea97fdc40be169ed500f6531ba65c43", "is_disabled": 0, "lat": 38.892403333333334, "is_reserved": 0, "type": "electric_scooter"}, {"fusion_lat": 0.0, "name": "faf1f7d12c500a6f6d57ce6805c1c7a2", "lon": -77.10836166666667, "rental_uris": {"android": "https://dc.lft.to/lastmile_qr_scan", "ios": "https://dc.lft.to/lastmile_qr_scan"}, "fusion_lon": 0.0, "bike_id": "faf1f7d12c500a6f6d57ce6805c1c7a2", "is_disabled": 0, "lat": 38.811994166666665, "is_reserved": 0, "type": "electric_bike"}, {"fusion_lat": 0.0, "name": "dcac40298bc073056c6c4804227fa77c", "lon": -77.02999633333333, "rental_uris": {"android": "https://dc.lft.to/lastmile_qr_scan", "ios": "https://dc.lft.to/lastmile_qr_scan"}, "fusion_lon": 0.0, "bike_id": "dcac40298bc073056c6c4804227fa77c", "is_disabled": 0, "lat": 38.90131483333333, "is_reserved": 0, "type": "electric_scooter"}, {"fusion_lat": 0.0, "name": "7492faaa0e9e96b5f19a9ad619f4f674", "lon": -76.92913533333333, "rental_uris": {"android": "https://dc.lft.to/lastmile_qr_scan", "ios": "https://dc.lft.to/lastmile_qr_scan"}, "fusion_lon": 0.0, "bike_id": "7492faaa0e9e96b5f19a9ad619f4f674", "is_disabled": 0, "lat": 38.89292183333333, "is_reserved": 0, "type": "electric_scooter"}, {"fusion_lat": 0.0, "name": "8399abaf831c333e1a3caa04b1ec0801", "lon": -77.0478835, "rental_uris": {"android": "https://dc.lft.to/lastmile_qr_scan", "ios": "https://dc.lft.to/lastmile_qr_scan"}, "fusion_lon": 0.0, "bike_id": "8399abaf831c333e1a3caa04b1ec0801", "is_disabled": 0, "lat": 38.899507166666666, "is_reserved": 0, "type": "electric_scooter"}, {"fusion_lat": 0.0, "name": "8eccc06bb762a02eec2718788fdc92f4", "lon": -77.0450785, "rental_uris": {"android": "https://dc.lft.to/lastmile_qr_scan", "ios": "https://dc.lft.to/lastmile_qr_scan"}, "fusion_lon": 0.0, "bike_id": "8eccc06bb762a02eec2718788fdc92f4", "is_disabled": 0, "lat": 38.903941833333334, "is_reserved": 0, "type": "electric_scooter"}, {"fusion_lat": 0.0, "name": "50d59a3d5bfb227995486b3ce811ca1a", "lon": -77.04357983333334, "rental_uris": {"android": "https://dc.lft.to/lastmile_qr_scan", "ios": "https://dc.lft.to/lastmile_qr_scan"}, "fusion_lon": 0.0, "bike_id": "50d59a3d5bfb227995486b3ce811ca1a", "is_disabled": 0, "lat": 38.8973775, "is_reserved": 0, "type": "electric_scooter"}, {"fusion_lat": 0.0, "name": "48ae3e0e7a9538b1feb61444e1bca7b2", "lon": -77.03264283333333, "rental_uris": {"android": "https://dc.lft.to/lastmile_qr_scan", "ios": "https://dc.lft.to/lastmile_qr_scan"}, "fusion_lon": 0.0, "bike_id": "48ae3e0e7a9538b1feb61444e1bca7b2", "is_disabled": 0, "lat": 38.93201716666667, "is_reserved": 0, "type": "electric_scooter"}, {"fusion_lat": 0.0, "name": "b577fa124d8e3b66276705dc765a4e62", "lon": -77.0332175, "rental_uris": {"android": "https://dc.lft.to/lastmile_qr_scan", "ios": "https://dc.lft.to/lastmile_qr_scan"}, "fusion_lon": 0.0, "bike_id": "b577fa124d8e3b66276705dc765a4e62", "is_disabled": 0, "lat": 38.928959666666664, "is_reserved": 0, "type": "electric_scooter"}, {"fusion_lat": 0.0, "name": "ce1b7482c370979e11b5a3b3ffb4fb1c", "lon": -77.02844016666667, "rental_uris": {"android": "https://dc.lft.to/lastmile_qr_scan", "ios": "https://dc.lft.to/lastmile_qr_scan"}, "fusion_lon": 0.0, "bike_id": "ce1b7482c370979e11b5a3b3ffb4fb1c", "is_disabled": 0, "lat": 38.898317166666665, "is_reserved": 0, "type": "electric_scooter"}, {"fusion_lat": 0.0, "name": "20d651487d09f9cf46c8c1686d0762ca", "lon": -77.028651, "rental_uris": {"android": "https://dc.lft.to/lastmile_qr_scan", "ios": "https://dc.lft.to/lastmile_qr_scan"}, "fusion_lon": 0.0, "bike_id": "20d651487d09f9cf46c8c1686d0762ca", "is_disabled": 0, "lat": 38.90147233333333, "is_reserved": 0, "type": "electric_scooter"}, {"fusion_lat": 0.0, "name": "49b34c62ee526981195e9fecc4fdc40b", "lon": -76.98706516666667, "rental_uris": {"android": "https://dc.lft.to/lastmile_qr_scan", "ios": "https://dc.lft.to/lastmile_qr_scan"}, "fusion_lon": 0.0, "bike_id": "49b34c62ee526981195e9fecc4fdc40b", "is_disabled": 0, "lat": 38.866974, "is_reserved": 0, "type": "electric_scooter"}, {"fusion_lat": 0.0, "name": "9253561edf1bc24d1e0ddec53c51c9f6", "lon": -77.05895016666666, "rental_uris": {"android": "https://dc.lft.to/lastmile_qr_scan", "ios": "https://dc.lft.to/lastmile_qr_scan"}, "fusion_lon": 0.0, "bike_id": "9253561edf1bc24d1e0ddec53c51c9f6", "is_disabled": 0, "lat": 38.90307166666667, "is_reserved": 0, "type": "electric_scooter"}, {"fusion_lat": 0.0, "name": "6bede0108a4dc5851ad6bcec285769ae", "lon": -77.01679383333334, "rental_uris": {"android": "https://dc.lft.to/lastmile_qr_scan", "ios": "https://dc.lft.to/lastmile_qr_scan"}, "fusion_lon": 0.0, "bike_id": "6bede0108a4dc5851ad6bcec285769ae", "is_disabled": 0, "lat": 38.97496666666667, "is_reserved": 0, "type": "electric_scooter"}, {"fusion_lat": 0.0, "name": "3296a05062b39e7a7bdd13d708212a2f", "lon": -77.045124, "rental_uris": {"android": "https://dc.lft.to/lastmile_qr_scan", "ios": "https://dc.lft.to/lastmile_qr_scan"}, "fusion_lon": 0.0, "bike_id": "3296a05062b39e7a7bdd13d708212a2f", "is_disabled": 0, "lat": 38.92325316666667, "is_reserved": 0, "type": "electric_scooter"}, {"fusion_lat": 0.0, "name": "97fa82684fe4217d8f903248aa774837", "lon": -77.00602566666667, "rental_uris": {"android": "https://dc.lft.to/lastmile_qr_scan", "ios": "https://dc.lft.to/lastmile_qr_scan"}, "fusion_lon": 0.0, "bike_id": "97fa82684fe4217d8f903248aa774837", "is_disabled": 0, "lat": 38.87181833333333, "is_reserved": 0, "type": "electric_scooter"}, {"fusion_lat": 0.0, "name": "29b7ac3269d8e90f443b2f997b8d45d8", "lon": -77.00886183333333, "rental_uris": {"android": "https://dc.lft.to/lastmile_qr_scan", "ios": "https://dc.lft.to/lastmile_qr_scan"}, "fusion_lon": 0.0, "bike_id": "29b7ac3269d8e90f443b2f997b8d45d8", "is_disabled": 0, "lat": 38.87445866666667, "is_reserved": 0, "type": "electric_scooter"}, {"fusion_lat": 0.0, "name": "e8c12bb5209e7bd368a0cbb0037980b2", "lon": -77.0492025, "rental_uris": {"android": "https://dc.lft.to/lastmile_qr_scan", "ios": "https://dc.lft.to/lastmile_qr_scan"}, "fusion_lon": 0.0, "bike_id": "e8c12bb5209e7bd368a0cbb0037980b2", "is_disabled": 0, "lat": 38.905301, "is_reserved": 0, "type": "electric_scooter"}, {"fusion_lat": 0.0, "name": "e03a8e6d497fc491764fd60be9e942a0", "lon": -77.031486, "rental_uris": {"android": "https://dc.lft.to/lastmile_qr_scan", "ios": "https://dc.lft.to/lastmile_qr_scan"}, "fusion_lon": 0.0, "bike_id": "e03a8e6d497fc491764fd60be9e942a0", "is_disabled": 0, "lat": 38.916291666666666, "is_reserved": 0, "type": "electric_scooter"}, {"fusion_lat": 0.0, "name": "cb418d946a21b887b6ff4bfe702641fc", "lon": -77.043737, "rental_uris": {"android": "https://dc.lft.to/lastmile_qr_scan", "ios": "https://dc.lft.to/lastmile_qr_scan"}, "fusion_lon": 0.0, "bike_id": "cb418d946a21b887b6ff4bfe702641fc", "is_disabled": 0, "lat": 38.8922095, "is_reserved": 0, "type": "electric_scooter"}, {"fusion_lat": 0.0, "name": "ac2d8a6583e562ca15fa5af5735ca497", "lon": -76.92924683333334, "rental_uris": {"android": "https://dc.lft.to/lastmile_qr_scan", "ios": "https://dc.lft.to/lastmile_qr_scan"}, "fusion_lon": 0.0, "bike_id": "ac2d8a6583e562ca15fa5af5735ca497", "is_disabled": 0, "lat": 38.9027025, "is_reserved": 0, "type": "electric_bike"}, {"fusion_lat": 0.0, "name": "81e0c27599ca0d6b06742c955f28bba1", "lon": -77.04613716666667, "rental_uris": {"android": "https://dc.lft.to/lastmile_qr_scan", "ios": "https://dc.lft.to/lastmile_qr_scan"}, "fusion_lon": 0.0, "bike_id": "81e0c27599ca0d6b06742c955f28bba1", "is_disabled": 0, "lat": 38.91546433333333, "is_reserved": 0, "type": "electric_scooter"}, {"fusion_lat": 0.0, "name": "748e85ef48bacc352dcb87bccd7ff487", "lon": -77.02803266666666, "rental_uris": {"android": "https://dc.lft.to/lastmile_qr_scan", "ios": "https://dc.lft.to/lastmile_qr_scan"}, "fusion_lon": 0.0, "bike_id": "748e85ef48bacc352dcb87bccd7ff487", "is_disabled": 0, "lat": 38.8983195, "is_reserved": 0, "type": "electric_scooter"}, {"fusion_lat": 0.0, "name": "adb53e056664b54a8cce898c1091f8ff", "lon": -76.95013083333333, "rental_uris": {"android": "https://dc.lft.to/lastmile_qr_scan", "ios": "https://dc.lft.to/lastmile_qr_scan"}, "fusion_lon": 0.0, "bike_id": "adb53e056664b54a8cce898c1091f8ff", "is_disabled": 0, "lat": 38.893642666666665, "is_reserved": 0, "type": "electric_scooter"}, {"fusion_lat": 0.0, "name": "d59fc7c416700dfbb143996ddf8f9363", "lon": -76.99632466666667, "rental_uris": {"android": "https://dc.lft.to/lastmile_qr_scan", "ios": "https://dc.lft.to/lastmile_qr_scan"}, "fusion_lon": 0.0, "bike_id": "d59fc7c416700dfbb143996ddf8f9363", "is_disabled": 0, "lat": 38.899926, "is_reserved": 0, "type": "electric_scooter"}, {"fusion_lat": 0.0, "name": "ab6b254b9fdec2e1324630c7cd325e55", "lon": -76.99734666666667, "rental_uris": {"android": "https://dc.lft.to/lastmile_qr_scan", "ios": "https://dc.lft.to/lastmile_qr_scan"}, "fusion_lon": 0.0, "bike_id": "ab6b254b9fdec2e1324630c7cd325e55", "is_disabled": 0, "lat": 39.0423335, "is_reserved": 0, "type": "electric_bike"}, {"fusion_lat": 0.0, "name": "3e1a457c7b4a3b037e241b05a5ef1e23", "lon": -77.04500883333333, "rental_uris": {"android": "https://dc.lft.to/lastmile_qr_scan", "ios": "https://dc.lft.to/lastmile_qr_scan"}, "fusion_lon": 0.0, "bike_id": "3e1a457c7b4a3b037e241b05a5ef1e23", "is_disabled": 0, "lat": 38.91111466666667, "is_reserved": 0, "type": "electric_scooter"}, {"fusion_lat": 0.0, "name": "98bdef835aa63cffda179fc503418c69", "lon": -76.93530366666667, "rental_uris": {"android": "https://dc.lft.to/lastmile_qr_scan", "ios": "https://dc.lft.to/lastmile_qr_scan"}, "fusion_lon": 0.0, "bike_id": "98bdef835aa63cffda179fc503418c69", "is_disabled": 0, "lat": 38.896780666666665, "is_reserved": 0, "type": "electric_scooter"}, {"fusion_lat": 0.0, "name": "33fca5df3757a7729ec205fcf1e20efa", "lon": -77.02043166666667, "rental_uris": {"android": "https://dc.lft.to/lastmile_qr_scan", "ios": "https://dc.lft.to/lastmile_qr_scan"}, "fusion_lon": 0.0, "bike_id": "33fca5df3757a7729ec205fcf1e20efa", "is_disabled": 0, "lat": 38.9268595, "is_reserved": 0, "type": "electric_scooter"}, {"fusion_lat": 0.0, "name": "1c17d8e0acc22cddbc90bc833db7316c", "lon": -77.012372, "rental_uris": {"android": "https://dc.lft.to/lastmile_qr_scan", "ios": "https://dc.lft.to/lastmile_qr_scan"}, "fusion_lon": 0.0, "bike_id": "1c17d8e0acc22cddbc90bc833db7316c", "is_disabled": 0, "lat": 38.896179000000004, "is_reserved": 0, "type": "electric_scooter"}, {"fusion_lat": 0.0, "name": "319467a0f5fa6b126ed2894f500146ac", "lon": -77.04335316666666, "rental_uris": {"android": "https://dc.lft.to/lastmile_qr_scan", "ios": "https://dc.lft.to/lastmile_qr_scan"}, "fusion_lon": 0.0, "bike_id": "319467a0f5fa6b126ed2894f500146ac", "is_disabled": 0, "lat": 38.8922475, "is_reserved": 0, "type": "electric_scooter"}, {"fusion_lat": 0.0, "name": "082230b9c8561141e83a4829725eace4", "lon": -76.99143383333333, "rental_uris": {"android": "https://dc.lft.to/lastmile_qr_scan", "ios": "https://dc.lft.to/lastmile_qr_scan"}, "fusion_lon": 0.0, "bike_id": "082230b9c8561141e83a4829725eace4", "is_disabled": 0, "lat": 38.85798883333333, "is_reserved": 0, "type": "electric_scooter"}, {"fusion_lat": 0.0, "name": "5729150a60526967c2da6b9aebb90b0b", "lon": -77.00304566666667, "rental_uris": {"android": "https://dc.lft.to/lastmile_qr_scan", "ios": "https://dc.lft.to/lastmile_qr_scan"}, "fusion_lon": 0.0, "bike_id": "5729150a60526967c2da6b9aebb90b0b", "is_disabled": 0, "lat": 38.89219333333333, "is_reserved": 0, "type": "electric_scooter"}, {"fusion_lat": 0.0, "name": "982933ce809d717518bc5894e155ce2d", "lon": -77.0506385, "rental_uris": {"android": "https://dc.lft.to/lastmile_qr_scan", "ios": "https://dc.lft.to/lastmile_qr_scan"}, "fusion_lon": 0.0, "bike_id": "982933ce809d717518bc5894e155ce2d", "is_disabled": 0, "lat": 38.92353266666667, "is_reserved": 0, "type": "electric_scooter"}, {"fusion_lat": 0.0, "name": "5c6298c5f8f62d6bdd75f9b00b441be3", "lon": -77.0237505, "rental_uris": {"android": "https://dc.lft.to/lastmile_qr_scan", "ios": "https://dc.lft.to/lastmile_qr_scan"}, "fusion_lon": 0.0, "bike_id": "5c6298c5f8f62d6bdd75f9b00b441be3", "is_disabled": 0, "lat": 38.9530785, "is_reserved": 0, "type": "electric_bike"}, {"fusion_lat": 0.0, "name": "4fec958548c033eb20220657e1ed1760", "lon": -77.04187416666667, "rental_uris": {"android": "https://dc.lft.to/lastmile_qr_scan", "ios": "https://dc.lft.to/lastmile_qr_scan"}, "fusion_lon": 0.0, "bike_id": "4fec958548c033eb20220657e1ed1760", "is_disabled": 0, "lat": 38.91662633333333, "is_reserved": 0, "type": "electric_scooter"}, {"fusion_lat": 0.0, "name": "0b84fd554ec06625039580f427362315", "lon": -77.05881166666667, "rental_uris": {"android": "https://dc.lft.to/lastmile_qr_scan", "ios": "https://dc.lft.to/lastmile_qr_scan"}, "fusion_lon": 0.0, "bike_id": "0b84fd554ec06625039580f427362315", "is_disabled": 0, "lat": 38.936072, "is_reserved": 0, "type": "electric_scooter"}, {"fusion_lat": 0.0, "name": "a6cfb8f4b69e4e2f356fe7bd21beae89", "lon": -77.04350416666666, "rental_uris": {"android": "https://dc.lft.to/lastmile_qr_scan", "ios": "https://dc.lft.to/lastmile_qr_scan"}, "fusion_lon": 0.0, "bike_id": "a6cfb8f4b69e4e2f356fe7bd21beae89", "is_disabled": 0, "lat": 38.898371833333336, "is_reserved": 0, "type": "electric_scooter"}, {"fusion_lat": 0.0, "name": "cc9eb7ca46dee2dbfed65bc7c01b8b1c", "lon": -77.03800333333334, "rental_uris": {"android": "https://dc.lft.to/lastmile_qr_scan", "ios": "https://dc.lft.to/lastmile_qr_scan"}, "fusion_lon": 0.0, "bike_id": "cc9eb7ca46dee2dbfed65bc7c01b8b1c", "is_disabled": 0, "lat": 38.923121333333334, "is_reserved": 0, "type": "electric_scooter"}, {"fusion_lat": 0.0, "name": "8a22a7915fefda4c9521d3161f4bc4e3", "lon": -77.0257845, "rental_uris": {"android": "https://dc.lft.to/lastmile_qr_scan", "ios": "https://dc.lft.to/lastmile_qr_scan"}, "fusion_lon": 0.0, "bike_id": "8a22a7915fefda4c9521d3161f4bc4e3", "is_disabled": 0, "lat": 38.91479533333333, "is_reserved": 0, "type": "electric_scooter"}, {"fusion_lat": 0.0, "name": "087a25d7c0bfe8e3ef86b9057d5743b5", "lon": -77.01397216666666, "rental_uris": {"android": "https://dc.lft.to/lastmile_qr_scan", "ios": "https://dc.lft.to/lastmile_qr_scan"}, "fusion_lon": 0.0, "bike_id": "087a25d7c0bfe8e3ef86b9057d5743b5", "is_disabled": 0, "lat": 38.928007666666666, "is_reserved": 0, "type": "electric_scooter"}, {"fusion_lat": 0.0, "name": "b4f334f1339a084617c67a346f744b74", "lon": -77.04033083333333, "rental_uris": {"android": "https://dc.lft.to/lastmile_qr_scan", "ios": "https://dc.lft.to/lastmile_qr_scan"}, "fusion_lon": 0.0, "bike_id": "b4f334f1339a084617c67a346f744b74", "is_disabled": 0, "lat": 38.90000033333333, "is_reserved": 0, "type": "electric_scooter"}, {"fusion_lat": 0.0, "name": "30be5e3da7576b9eb645fe6160f2a741", "lon": -77.03001666666667, "rental_uris": {"android": "https://dc.lft.to/lastmile_qr_scan", "ios": "https://dc.lft.to/lastmile_qr_scan"}, "fusion_lon": 0.0, "bike_id": "30be5e3da7576b9eb645fe6160f2a741", "is_disabled": 0, "lat": 38.9397975, "is_reserved": 0, "type": "electric_scooter"}, {"fusion_lat": 0.0, "name": "9368fac2965fbfe486a82a3ced2fce21", "lon": -77.02149566666667, "rental_uris": {"android": "https://dc.lft.to/lastmile_qr_scan", "ios": "https://dc.lft.to/lastmile_qr_scan"}, "fusion_lon": 0.0, "bike_id": "9368fac2965fbfe486a82a3ced2fce21", "is_disabled": 0, "lat": 38.927504166666665, "is_reserved": 0, "type": "electric_scooter"}, {"fusion_lat": 0.0, "name": "07c1e9162c4a67d1e816276ec57417a1", "lon": -77.03201333333334, "rental_uris": {"android": "https://dc.lft.to/lastmile_qr_scan", "ios": "https://dc.lft.to/lastmile_qr_scan"}, "fusion_lon": 0.0, "bike_id": "07c1e9162c4a67d1e816276ec57417a1", "is_disabled": 0, "lat": 38.911989, "is_reserved": 0, "type": "electric_scooter"}, {"fusion_lat": 0.0, "name": "0ddbb02b7de6503f87809cc2605c4101", "lon": -76.9990715, "rental_uris": {"android": "https://dc.lft.to/lastmile_qr_scan", "ios": "https://dc.lft.to/lastmile_qr_scan"}, "fusion_lon": 0.0, "bike_id": "0ddbb02b7de6503f87809cc2605c4101", "is_disabled": 0, "lat": 38.953176666666664, "is_reserved": 0, "type": "electric_bike"}, {"fusion_lat": 0.0, "name": "def065fd12c220592e2bbffa4cce8e54", "lon": -77.021121, "rental_uris": {"android": "https://dc.lft.to/lastmile_qr_scan", "ios": "https://dc.lft.to/lastmile_qr_scan"}, "fusion_lon": 0.0, "bike_id": "def065fd12c220592e2bbffa4cce8e54", "is_disabled": 0, "lat": 38.92399316666667, "is_reserved": 0, "type": "electric_scooter"}, {"fusion_lat": 0.0, "name": "67ee32ed422f8b9696d997a71cdbedcb", "lon": -77.0435245, "rental_uris": {"android": "https://dc.lft.to/lastmile_qr_scan", "ios": "https://dc.lft.to/lastmile_qr_scan"}, "fusion_lon": 0.0, "bike_id": "67ee32ed422f8b9696d997a71cdbedcb", "is_disabled": 0, "lat": 38.9077, "is_reserved": 0, "type": "electric_scooter"}, {"fusion_lat": 0.0, "name": "0c66bd34ffe9605098538a8dca2ce332", "lon": -77.124905, "rental_uris": {"android": "https://dc.lft.to/lastmile_qr_scan", "ios": "https://dc.lft.to/lastmile_qr_scan"}, "fusion_lon": 0.0, "bike_id": "0c66bd34ffe9605098538a8dca2ce332", "is_disabled": 0, "lat": 38.827777, "is_reserved": 0, "type": "electric_bike"}, {"fusion_lat": 0.0, "name": "27007ecbaaf839521908b5a81422159f", "lon": -77.02621816666667, "rental_uris": {"android": "https://dc.lft.to/lastmile_qr_scan", "ios": "https://dc.lft.to/lastmile_qr_scan"}, "fusion_lon": 0.0, "bike_id": "27007ecbaaf839521908b5a81422159f", "is_disabled": 0, "lat": 38.91250816666667, "is_reserved": 0, "type": "electric_bike"}, {"fusion_lat": 0.0, "name": "221c39982a235f36552ea018a892900e", "lon": -77.01488966666666, "rental_uris": {"android": "https://dc.lft.to/lastmile_qr_scan", "ios": "https://dc.lft.to/lastmile_qr_scan"}, "fusion_lon": 0.0, "bike_id": "221c39982a235f36552ea018a892900e", "is_disabled": 0, "lat": 38.926919166666664, "is_reserved": 0, "type": "electric_scooter"}, {"fusion_lat": 0.0, "name": "a9ce89cfa1d2211144321e6502a183b8", "lon": -77.02401083333334, "rental_uris": {"android": "https://dc.lft.to/lastmile_qr_scan", "ios": "https://dc.lft.to/lastmile_qr_scan"}, "fusion_lon": 0.0, "bike_id": "a9ce89cfa1d2211144321e6502a183b8", "is_disabled": 0, "lat": 38.87977816666667, "is_reserved": 0, "type": "electric_scooter"}, {"fusion_lat": 0.0, "name": "1a0b95954e2c618da780870db4001cc1", "lon": -77.03205583333333, "rental_uris": {"android": "https://dc.lft.to/lastmile_qr_scan", "ios": "https://dc.lft.to/lastmile_qr_scan"}, "fusion_lon": 0.0, "bike_id": "1a0b95954e2c618da780870db4001cc1", "is_disabled": 0, "lat": 38.910281833333336, "is_reserved": 0, "type": "electric_scooter"}, {"fusion_lat": 0.0, "name": "0d1802ec776237cb163478dca16f977c", "lon": -77.02690033333333, "rental_uris": {"android": "https://dc.lft.to/lastmile_qr_scan", "ios": "https://dc.lft.to/lastmile_qr_scan"}, "fusion_lon": 0.0, "bike_id": "0d1802ec776237cb163478dca16f977c", "is_disabled": 0, "lat": 38.90839016666666, "is_reserved": 0, "type": "electric_scooter"}, {"fusion_lat": 0.0, "name": "681ea457fc20efd45a3e5081be996e5d", "lon": -77.0439965, "rental_uris": {"android": "https://dc.lft.to/lastmile_qr_scan", "ios": "https://dc.lft.to/lastmile_qr_scan"}, "fusion_lon": 0.0, "bike_id": "681ea457fc20efd45a3e5081be996e5d", "is_disabled": 0, "lat": 38.9088755, "is_reserved": 0, "type": "electric_scooter"}, {"fusion_lat": 0.0, "name": "6680907802dc99c6acd37bdcdc02792d", "lon": -77.02419666666667, "rental_uris": {"android": "https://dc.lft.to/lastmile_qr_scan", "ios": "https://dc.lft.to/lastmile_qr_scan"}, "fusion_lon": 0.0, "bike_id": "6680907802dc99c6acd37bdcdc02792d", "is_disabled": 0, "lat": 38.937099, "is_reserved": 0, "type": "electric_scooter"}, {"fusion_lat": 0.0, "name": "7d3d6acd8f2070233bf45389406b8d01", "lon": -77.04259433333333, "rental_uris": {"android": "https://dc.lft.to/lastmile_qr_scan", "ios": "https://dc.lft.to/lastmile_qr_scan"}, "fusion_lon": 0.0, "bike_id": "7d3d6acd8f2070233bf45389406b8d01", "is_disabled": 0, "lat": 38.908665666666664, "is_reserved": 0, "type": "electric_scooter"}, {"fusion_lat": 0.0, "name": "72918afbd31df80c4e9778d3e24a58d7", "lon": -77.027161, "rental_uris": {"android": "https://dc.lft.to/lastmile_qr_scan", "ios": "https://dc.lft.to/lastmile_qr_scan"}, "fusion_lon": 0.0, "bike_id": "72918afbd31df80c4e9778d3e24a58d7", "is_disabled": 0, "lat": 38.91715116666666, "is_reserved": 0, "type": "electric_scooter"}, {"fusion_lat": 0.0, "name": "b8fd1d862c85593466e824877220c339", "lon": -77.03263633333333, "rental_uris": {"android": "https://dc.lft.to/lastmile_qr_scan", "ios": "https://dc.lft.to/lastmile_qr_scan"}, "fusion_lon": 0.0, "bike_id": "b8fd1d862c85593466e824877220c339", "is_disabled": 0, "lat": 38.919087, "is_reserved": 0, "type": "electric_scooter"}, {"fusion_lat": 0.0, "name": "b9bb74ceaf65af2eec2ddd664fd716f6", "lon": -77.07614333333333, "rental_uris": {"android": "https://dc.lft.to/lastmile_qr_scan", "ios": "https://dc.lft.to/lastmile_qr_scan"}, "fusion_lon": 0.0, "bike_id": "b9bb74ceaf65af2eec2ddd664fd716f6", "is_disabled": 0, "lat": 38.90724683333333, "is_reserved": 0, "type": "electric_scooter"}, {"fusion_lat": 0.0, "name": "d13859acd44e8953829d6a9b806cfda2", "lon": -77.0184265, "rental_uris": {"android": "https://dc.lft.to/lastmile_qr_scan", "ios": "https://dc.lft.to/lastmile_qr_scan"}, "fusion_lon": 0.0, "bike_id": "d13859acd44e8953829d6a9b806cfda2", "is_disabled": 0, "lat": 38.9462835, "is_reserved": 0, "type": "electric_scooter"}, {"fusion_lat": 0.0, "name": "287ce2576425ca406c004a0847d8b942", "lon": -77.185624, "rental_uris": {"android": "https://dc.lft.to/lastmile_qr_scan", "ios": "https://dc.lft.to/lastmile_qr_scan"}, "fusion_lon": 0.0, "bike_id": "287ce2576425ca406c004a0847d8b942", "is_disabled": 0, "lat": 38.929645, "is_reserved": 0, "type": "electric_bike"}, {"fusion_lat": 0.0, "name": "8825397c44cc9d84f98ad55bd224ee88", "lon": -76.9824155, "rental_uris": {"android": "https://dc.lft.to/lastmile_qr_scan", "ios": "https://dc.lft.to/lastmile_qr_scan"}, "fusion_lon": 0.0, "bike_id": "8825397c44cc9d84f98ad55bd224ee88", "is_disabled": 0, "lat": 38.95326816666667, "is_reserved": 0, "type": "electric_bike"}, {"fusion_lat": 0.0, "name": "05d78d95cf9c4c59739572105945e79f", "lon": -77.00537633333333, "rental_uris": {"android": "https://dc.lft.to/lastmile_qr_scan", "ios": "https://dc.lft.to/lastmile_qr_scan"}, "fusion_lon": 0.0, "bike_id": "05d78d95cf9c4c59739572105945e79f", "is_disabled": 0, "lat": 38.900375333333336, "is_reserved": 0, "type": "electric_scooter"}, {"fusion_lat": 0.0, "name": "a1e4ebe34e1c3cd2a50e94f2c663da85", "lon": -76.98911533333333, "rental_uris": {"android": "https://dc.lft.to/lastmile_qr_scan", "ios": "https://dc.lft.to/lastmile_qr_scan"}, "fusion_lon": 0.0, "bike_id": "a1e4ebe34e1c3cd2a50e94f2c663da85", "is_disabled": 0, "lat": 38.95435116666667, "is_reserved": 0, "type": "electric_bike"}, {"fusion_lat": 0.0, "name": "dd8dbc2724ed961597a6a1197e325733", "lon": -77.03948183333334, "rental_uris": {"android": "https://dc.lft.to/lastmile_qr_scan", "ios": "https://dc.lft.to/lastmile_qr_scan"}, "fusion_lon": 0.0, "bike_id": "dd8dbc2724ed961597a6a1197e325733", "is_disabled": 0, "lat": 38.89876833333334, "is_reserved": 0, "type": "electric_scooter"}, {"fusion_lat": 0.0, "name": "0283d147a7f9517dba081bb573e2c05e", "lon": -77.05252583333333, "rental_uris": {"android": "https://dc.lft.to/lastmile_qr_scan", "ios": "https://dc.lft.to/lastmile_qr_scan"}, "fusion_lon": 0.0, "bike_id": "0283d147a7f9517dba081bb573e2c05e", "is_disabled": 0, "lat": 38.92731233333333, "is_reserved": 0, "type": "electric_scooter"}, {"fusion_lat": 0.0, "name": "77d3ff4d06f26f712f930984b3e183a1", "lon": -76.9808145, "rental_uris": {"android": "https://dc.lft.to/lastmile_qr_scan", "ios": "https://dc.lft.to/lastmile_qr_scan"}, "fusion_lon": 0.0, "bike_id": "77d3ff4d06f26f712f930984b3e183a1", "is_disabled": 0, "lat": 38.902845666666664, "is_reserved": 0, "type": "electric_bike"}, {"fusion_lat": 0.0, "name": "3b186bf644d07f382b91876e7714144c", "lon": -77.0464645, "rental_uris": {"android": "https://dc.lft.to/lastmile_qr_scan", "ios": "https://dc.lft.to/lastmile_qr_scan"}, "fusion_lon": 0.0, "bike_id": "3b186bf644d07f382b91876e7714144c", "is_disabled": 0, "lat": 39.054984166666664, "is_reserved": 0, "type": "electric_bike"}, {"fusion_lat": 0.0, "name": "3e630f88e62453210c18cb1a5079fd97", "lon": -76.883966, "rental_uris": {"android": "https://dc.lft.to/lastmile_qr_scan", "ios": "https://dc.lft.to/lastmile_qr_scan"}, "fusion_lon": 0.0, "bike_id": "3e630f88e62453210c18cb1a5079fd97", "is_disabled": 0, "lat": 38.931675166666665, "is_reserved": 0, "type": "electric_bike"}, {"fusion_lat": 0.0, "name": "5b8ff897fd2d5dd958ed329480751414", "lon": -76.985469, "rental_uris": {"android": "https://dc.lft.to/lastmile_qr_scan", "ios": "https://dc.lft.to/lastmile_qr_scan"}, "fusion_lon": 0.0, "bike_id": "5b8ff897fd2d5dd958ed329480751414", "is_disabled": 0, "lat": 38.920146333333335, "is_reserved": 0, "type": "electric_scooter"}, {"fusion_lat": 0.0, "name": "4585ad43076c45f8a7fb7a000f03e5b4", "lon": -77.0296905, "rental_uris": {"android": "https://dc.lft.to/lastmile_qr_scan", "ios": "https://dc.lft.to/lastmile_qr_scan"}, "fusion_lon": 0.0, "bike_id": "4585ad43076c45f8a7fb7a000f03e5b4", "is_disabled": 0, "lat": 38.917222, "is_reserved": 0, "type": "electric_scooter"}, {"fusion_lat": 0.0, "name": "8b5892ffa10b59a0196f9a8aa84dc7f1", "lon": -77.05822033333334, "rental_uris": {"android": "https://dc.lft.to/lastmile_qr_scan", "ios": "https://dc.lft.to/lastmile_qr_scan"}, "fusion_lon": 0.0, "bike_id": "8b5892ffa10b59a0196f9a8aa84dc7f1", "is_disabled": 0, "lat": 38.9354105, "is_reserved": 0, "type": "electric_scooter"}, {"fusion_lat": 0.0, "name": "e6d65c8eee62e9d0d472147491def1f0", "lon": -77.00603383333333, "rental_uris": {"android": "https://dc.lft.to/lastmile_qr_scan", "ios": "https://dc.lft.to/lastmile_qr_scan"}, "fusion_lon": 0.0, "bike_id": "e6d65c8eee62e9d0d472147491def1f0", "is_disabled": 0, "lat": 38.90562933333333, "is_reserved": 0, "type": "electric_scooter"}, {"fusion_lat": 0.0, "name": "d8f3667a0e060c2bd29b913138bfc5d1", "lon": -77.02155766666667, "rental_uris": {"android": "https://dc.lft.to/lastmile_qr_scan", "ios": "https://dc.lft.to/lastmile_qr_scan"}, "fusion_lon": 0.0, "bike_id": "d8f3667a0e060c2bd29b913138bfc5d1", "is_disabled": 0, "lat": 38.92602466666666, "is_reserved": 0, "type": "electric_scooter"}, {"fusion_lat": 0.0, "name": "1371bf9b7da3541f9369a11d00e7282c", "lon": -77.03649233333333, "rental_uris": {"android": "https://dc.lft.to/lastmile_qr_scan", "ios": "https://dc.lft.to/lastmile_qr_scan"}, "fusion_lon": 0.0, "bike_id": "1371bf9b7da3541f9369a11d00e7282c", "is_disabled": 0, "lat": 38.90425366666667, "is_reserved": 0, "type": "electric_scooter"}, {"fusion_lat": 0.0, "name": "81bac72566313b145ab1b43b7884bb4a", "lon": -77.02839016666667, "rental_uris": {"android": "https://dc.lft.to/lastmile_qr_scan", "ios": "https://dc.lft.to/lastmile_qr_scan"}, "fusion_lon": 0.0, "bike_id": "81bac72566313b145ab1b43b7884bb4a", "is_disabled": 0, "lat": 38.925711166666666, "is_reserved": 0, "type": "electric_scooter"}, {"fusion_lat": 0.0, "name": "a5b670e2c9551b7d49443c94308b95fc", "lon": -77.009468, "rental_uris": {"android": "https://dc.lft.to/lastmile_qr_scan", "ios": "https://dc.lft.to/lastmile_qr_scan"}, "fusion_lon": 0.0, "bike_id": "a5b670e2c9551b7d49443c94308b95fc", "is_disabled": 0, "lat": 38.8949995, "is_reserved": 0, "type": "electric_scooter"}, {"fusion_lat": 0.0, "name": "77f5df3b0b099b8752429b63a5c536b8", "lon": -77.04394783333333, "rental_uris": {"android": "https://dc.lft.to/lastmile_qr_scan", "ios": "https://dc.lft.to/lastmile_qr_scan"}, "fusion_lon": 0.0, "bike_id": "77f5df3b0b099b8752429b63a5c536b8", "is_disabled": 0, "lat": 38.90932083333333, "is_reserved": 0, "type": "electric_scooter"}, {"fusion_lat": 0.0, "name": "ae5bb2b7b1eef26813a1f225dea0c3bc", "lon": -77.04383783333333, "rental_uris": {"android": "https://dc.lft.to/lastmile_qr_scan", "ios": "https://dc.lft.to/lastmile_qr_scan"}, "fusion_lon": 0.0, "bike_id": "ae5bb2b7b1eef26813a1f225dea0c3bc", "is_disabled": 0, "lat": 39.047123166666665, "is_reserved": 0, "type": "electric_bike"}, {"fusion_lat": 0.0, "name": "56fa5da05fcf554a20a7a0ea932bbd9f", "lon": -76.95576183333333, "rental_uris": {"android": "https://dc.lft.to/lastmile_qr_scan", "ios": "https://dc.lft.to/lastmile_qr_scan"}, "fusion_lon": 0.0, "bike_id": "56fa5da05fcf554a20a7a0ea932bbd9f", "is_disabled": 0, "lat": 38.887654166666664, "is_reserved": 0, "type": "electric_scooter"}, {"fusion_lat": 0.0, "name": "77d941e3f00e1daed08a9bdbae8cac64", "lon": -77.03502133333333, "rental_uris": {"android": "https://dc.lft.to/lastmile_qr_scan", "ios": "https://dc.lft.to/lastmile_qr_scan"}, "fusion_lon": 0.0, "bike_id": "77d941e3f00e1daed08a9bdbae8cac64", "is_disabled": 0, "lat": 38.92139433333333, "is_reserved": 0, "type": "electric_scooter"}, {"fusion_lat": 0.0, "name": "b3ded2bfbd4f654b756a6920baa8a166", "lon": -76.98309866666666, "rental_uris": {"android": "https://dc.lft.to/lastmile_qr_scan", "ios": "https://dc.lft.to/lastmile_qr_scan"}, "fusion_lon": 0.0, "bike_id": "b3ded2bfbd4f654b756a6920baa8a166", "is_disabled": 0, "lat": 38.94667716666667, "is_reserved": 0, "type": "electric_bike"}, {"fusion_lat": 0.0, "name": "72d8a9a74ab5c8eca5f49c1d9dab0c5b", "lon": -77.10129333333333, "rental_uris": {"android": "https://dc.lft.to/lastmile_qr_scan", "ios": "https://dc.lft.to/lastmile_qr_scan"}, "fusion_lon": 0.0, "bike_id": "72d8a9a74ab5c8eca5f49c1d9dab0c5b", "is_disabled": 0, "lat": 38.85201416666666, "is_reserved": 0, "type": "electric_bike"}, {"fusion_lat": 0.0, "name": "765438a943192d121cbce8d58fa074c0", "lon": -77.03186883333333, "rental_uris": {"android": "https://dc.lft.to/lastmile_qr_scan", "ios": "https://dc.lft.to/lastmile_qr_scan"}, "fusion_lon": 0.0, "bike_id": "765438a943192d121cbce8d58fa074c0", "is_disabled": 0, "lat": 38.918156333333336, "is_reserved": 0, "type": "electric_scooter"}, {"fusion_lat": 0.0, "name": "eb1ddadd4d823c6269c65c17caef0115", "lon": -76.9498255, "rental_uris": {"android": "https://dc.lft.to/lastmile_qr_scan", "ios": "https://dc.lft.to/lastmile_qr_scan"}, "fusion_lon": 0.0, "bike_id": "eb1ddadd4d823c6269c65c17caef0115", "is_disabled": 0, "lat": 38.89365683333333, "is_reserved": 0, "type": "electric_scooter"}, {"fusion_lat": 0.0, "name": "d917d716a8c42b1804f41f5131a13676", "lon": -77.0317565, "rental_uris": {"android": "https://dc.lft.to/lastmile_qr_scan", "ios": "https://dc.lft.to/lastmile_qr_scan"}, "fusion_lon": 0.0, "bike_id": "d917d716a8c42b1804f41f5131a13676", "is_disabled": 0, "lat": 38.904157833333336, "is_reserved": 0, "type": "electric_scooter"}, {"fusion_lat": 0.0, "name": "cff8f50df3e876a99784f3288213c367", "lon": -77.0554265, "rental_uris": {"android": "https://dc.lft.to/lastmile_qr_scan", "ios": "https://dc.lft.to/lastmile_qr_scan"}, "fusion_lon": 0.0, "bike_id": "cff8f50df3e876a99784f3288213c367", "is_disabled": 0, "lat": 38.930065, "is_reserved": 0, "type": "electric_scooter"}, {"fusion_lat": 0.0, "name": "411c4f86891500f043071c2754d2f302", "lon": -76.933711, "rental_uris": {"android": "https://dc.lft.to/lastmile_qr_scan", "ios": "https://dc.lft.to/lastmile_qr_scan"}, "fusion_lon": 0.0, "bike_id": "411c4f86891500f043071c2754d2f302", "is_disabled": 0, "lat": 38.8991295, "is_reserved": 0, "type": "electric_scooter"}, {"fusion_lat": 0.0, "name": "5ffe5bdba4141f71f8c7ef589c826497", "lon": -77.033008, "rental_uris": {"android": "https://dc.lft.to/lastmile_qr_scan", "ios": "https://dc.lft.to/lastmile_qr_scan"}, "fusion_lon": 0.0, "bike_id": "5ffe5bdba4141f71f8c7ef589c826497", "is_disabled": 0, "lat": 38.9264055, "is_reserved": 0, "type": "electric_scooter"}, {"fusion_lat": 0.0, "name": "44231adef0385ca4676be23ac6dddf2b", "lon": -76.98541733333333, "rental_uris": {"android": "https://dc.lft.to/lastmile_qr_scan", "ios": "https://dc.lft.to/lastmile_qr_scan"}, "fusion_lon": 0.0, "bike_id": "44231adef0385ca4676be23ac6dddf2b", "is_disabled": 0, "lat": 38.86687833333333, "is_reserved": 0, "type": "electric_scooter"}, {"fusion_lat": 0.0, "name": "5c078dd7bb663413f5d5a7071f78e6ff", "lon": -77.02450583333334, "rental_uris": {"android": "https://dc.lft.to/lastmile_qr_scan", "ios": "https://dc.lft.to/lastmile_qr_scan"}, "fusion_lon": 0.0, "bike_id": "5c078dd7bb663413f5d5a7071f78e6ff", "is_disabled": 0, "lat": 38.91400766666667, "is_reserved": 0, "type": "electric_scooter"}, {"fusion_lat": 0.0, "name": "b0a997f444df52b208fe70111527705b", "lon": -77.03168366666667, "rental_uris": {"android": "https://dc.lft.to/lastmile_qr_scan", "ios": "https://dc.lft.to/lastmile_qr_scan"}, "fusion_lon": 0.0, "bike_id": "b0a997f444df52b208fe70111527705b", "is_disabled": 0, "lat": 38.89276516666666, "is_reserved": 0, "type": "electric_scooter"}, {"fusion_lat": 0.0, "name": "03bf96d901538d399bfeb498c6cf366c", "lon": -77.0276205, "rental_uris": {"android": "https://dc.lft.to/lastmile_qr_scan", "ios": "https://dc.lft.to/lastmile_qr_scan"}, "fusion_lon": 0.0, "bike_id": "03bf96d901538d399bfeb498c6cf366c", "is_disabled": 0, "lat": 38.93448516666667, "is_reserved": 0, "type": "electric_scooter"}, {"fusion_lat": 0.0, "name": "fc5de332b0cf377b26d75000659937f6", "lon": -77.04479483333333, "rental_uris": {"android": "https://dc.lft.to/lastmile_qr_scan", "ios": "https://dc.lft.to/lastmile_qr_scan"}, "fusion_lon": 0.0, "bike_id": "fc5de332b0cf377b26d75000659937f6", "is_disabled": 0, "lat": 38.90600366666666, "is_reserved": 0, "type": "electric_scooter"}, {"fusion_lat": 0.0, "name": "fb914ca3181fd0bd77df91cfd3ef4196", "lon": -77.015348, "rental_uris": {"android": "https://dc.lft.to/lastmile_qr_scan", "ios": "https://dc.lft.to/lastmile_qr_scan"}, "fusion_lon": 0.0, "bike_id": "fb914ca3181fd0bd77df91cfd3ef4196", "is_disabled": 0, "lat": 38.930105166666664, "is_reserved": 0, "type": "electric_scooter"}, {"fusion_lat": 0.0, "name": "807c179eedc89c5384545030dce774f9", "lon": -76.97407866666667, "rental_uris": {"android": "https://dc.lft.to/lastmile_qr_scan", "ios": "https://dc.lft.to/lastmile_qr_scan"}, "fusion_lon": 0.0, "bike_id": "807c179eedc89c5384545030dce774f9", "is_disabled": 0, "lat": 38.90238516666667, "is_reserved": 0, "type": "electric_scooter"}, {"fusion_lat": 0.0, "name": "84dbbbf8c54fd4ff0c754d58de0b1184", "lon": -77.0469985, "rental_uris": {"android": "https://dc.lft.to/lastmile_qr_scan", "ios": "https://dc.lft.to/lastmile_qr_scan"}, "fusion_lon": 0.0, "bike_id": "84dbbbf8c54fd4ff0c754d58de0b1184", "is_disabled": 0, "lat": 38.905611, "is_reserved": 0, "type": "electric_scooter"}, {"fusion_lat": 0.0, "name": "53ecafcc3b08e136e4885bcad09f153c", "lon": -77.0248125, "rental_uris": {"android": "https://dc.lft.to/lastmile_qr_scan", "ios": "https://dc.lft.to/lastmile_qr_scan"}, "fusion_lon": 0.0, "bike_id": "53ecafcc3b08e136e4885bcad09f153c", "is_disabled": 0, "lat": 38.93877233333333, "is_reserved": 0, "type": "electric_scooter"}, {"fusion_lat": 0.0, "name": "b115389af8a2fa074e989aa6beb31563", "lon": -76.90738666666667, "rental_uris": {"android": "https://dc.lft.to/lastmile_qr_scan", "ios": "https://dc.lft.to/lastmile_qr_scan"}, "fusion_lon": 0.0, "bike_id": "b115389af8a2fa074e989aa6beb31563", "is_disabled": 0, "lat": 38.8961325, "is_reserved": 0, "type": "electric_bike"}, {"fusion_lat": 0.0, "name": "9cc012ef6e84151416d3bc1b50a00035", "lon": -77.00565466666667, "rental_uris": {"android": "https://dc.lft.to/lastmile_qr_scan", "ios": "https://dc.lft.to/lastmile_qr_scan"}, "fusion_lon": 0.0, "bike_id": "9cc012ef6e84151416d3bc1b50a00035", "is_disabled": 0, "lat": 38.88499983333333, "is_reserved": 0, "type": "electric_scooter"}, {"fusion_lat": 0.0, "name": "30a2413aa370f9df67822954e23ee7e7", "lon": -76.98507733333334, "rental_uris": {"android": "https://dc.lft.to/lastmile_qr_scan", "ios": "https://dc.lft.to/lastmile_qr_scan"}, "fusion_lon": 0.0, "bike_id": "30a2413aa370f9df67822954e23ee7e7", "is_disabled": 0, "lat": 38.86658033333333, "is_reserved": 0, "type": "electric_scooter"}, {"fusion_lat": 0.0, "name": "def8dabba504fe5f0bb9c7b9ca885ed6", "lon": -77.0237835, "rental_uris": {"android": "https://dc.lft.to/lastmile_qr_scan", "ios": "https://dc.lft.to/lastmile_qr_scan"}, "fusion_lon": 0.0, "bike_id": "def8dabba504fe5f0bb9c7b9ca885ed6", "is_disabled": 0, "lat": 38.9206575, "is_reserved": 0, "type": "electric_scooter"}, {"fusion_lat": 0.0, "name": "e5b11ea28a9a1399719b583fc219c3b2", "lon": -77.01599633333333, "rental_uris": {"android": "https://dc.lft.to/lastmile_qr_scan", "ios": "https://dc.lft.to/lastmile_qr_scan"}, "fusion_lon": 0.0, "bike_id": "e5b11ea28a9a1399719b583fc219c3b2", "is_disabled": 0, "lat": 38.87473383333333, "is_reserved": 0, "type": "electric_scooter"}, {"fusion_lat": 0.0, "name": "7415e9242f7d5d456394f7c86a2e7a2a", "lon": -77.0286915, "rental_uris": {"android": "https://dc.lft.to/lastmile_qr_scan", "ios": "https://dc.lft.to/lastmile_qr_scan"}, "fusion_lon": 0.0, "bike_id": "7415e9242f7d5d456394f7c86a2e7a2a", "is_disabled": 0, "lat": 38.92578683333333, "is_reserved": 0, "type": "electric_scooter"}, {"fusion_lat": 0.0, "name": "b064dcd6e198985238a5225a56431ade", "lon": -77.05472483333334, "rental_uris": {"android": "https://dc.lft.to/lastmile_qr_scan", "ios": "https://dc.lft.to/lastmile_qr_scan"}, "fusion_lon": 0.0, "bike_id": "b064dcd6e198985238a5225a56431ade", "is_disabled": 0, "lat": 38.89781516666667, "is_reserved": 0, "type": "electric_scooter"}, {"fusion_lat": 0.0, "name": "2e6e56bf19cd48e1953895502b76d04d", "lon": -77.018062, "rental_uris": {"android": "https://dc.lft.to/lastmile_qr_scan", "ios": "https://dc.lft.to/lastmile_qr_scan"}, "fusion_lon": 0.0, "bike_id": "2e6e56bf19cd48e1953895502b76d04d", "is_disabled": 0, "lat": 38.9737505, "is_reserved": 0, "type": "electric_bike"}, {"fusion_lat": 0.0, "name": "95750261d606a45f5ecc088a314672ec", "lon": -77.015996, "rental_uris": {"android": "https://dc.lft.to/lastmile_qr_scan", "ios": "https://dc.lft.to/lastmile_qr_scan"}, "fusion_lon": 0.0, "bike_id": "95750261d606a45f5ecc088a314672ec", "is_disabled": 0, "lat": 38.9016325, "is_reserved": 0, "type": "electric_scooter"}, {"fusion_lat": 0.0, "name": "a0fef9e9ea12d4bc1cdafedfbda31878", "lon": -77.00483866666667, "rental_uris": {"android": "https://dc.lft.to/lastmile_qr_scan", "ios": "https://dc.lft.to/lastmile_qr_scan"}, "fusion_lon": 0.0, "bike_id": "a0fef9e9ea12d4bc1cdafedfbda31878", "is_disabled": 0, "lat": 38.88036866666667, "is_reserved": 0, "type": "electric_scooter"}, {"fusion_lat": 0.0, "name": "baf0efba22f06f20d2c5dc9f2091c254", "lon": -77.046714, "rental_uris": {"android": "https://dc.lft.to/lastmile_qr_scan", "ios": "https://dc.lft.to/lastmile_qr_scan"}, "fusion_lon": 0.0, "bike_id": "baf0efba22f06f20d2c5dc9f2091c254", "is_disabled": 0, "lat": 38.89559583333333, "is_reserved": 0, "type": "electric_scooter"}, {"fusion_lat": 0.0, "name": "868f9c0780e3b95065355001e650ba41", "lon": -77.009713, "rental_uris": {"android": "https://dc.lft.to/lastmile_qr_scan", "ios": "https://dc.lft.to/lastmile_qr_scan"}, "fusion_lon": 0.0, "bike_id": "868f9c0780e3b95065355001e650ba41", "is_disabled": 0, "lat": 38.9170265, "is_reserved": 0, "type": "electric_scooter"}, {"fusion_lat": 0.0, "name": "48f2c92e94373d5c1fdcc680a22b4979", "lon": -76.9935115, "rental_uris": {"android": "https://dc.lft.to/lastmile_qr_scan", "ios": "https://dc.lft.to/lastmile_qr_scan"}, "fusion_lon": 0.0, "bike_id": "48f2c92e94373d5c1fdcc680a22b4979", "is_disabled": 0, "lat": 38.845026, "is_reserved": 0, "type": "electric_bike"}, {"fusion_lat": 0.0, "name": "86985c0040b5635b83fc91baccb4f7b3", "lon": -77.03441066666667, "rental_uris": {"android": "https://dc.lft.to/lastmile_qr_scan", "ios": "https://dc.lft.to/lastmile_qr_scan"}, "fusion_lon": 0.0, "bike_id": "86985c0040b5635b83fc91baccb4f7b3", "is_disabled": 0, "lat": 38.902591, "is_reserved": 0, "type": "electric_scooter"}, {"fusion_lat": 0.0, "name": "0714ef300f1668659661f63839da33e9", "lon": -77.001234, "rental_uris": {"android": "https://dc.lft.to/lastmile_qr_scan", "ios": "https://dc.lft.to/lastmile_qr_scan"}, "fusion_lon": 0.0, "bike_id": "0714ef300f1668659661f63839da33e9", "is_disabled": 0, "lat": 38.87368883333333, "is_reserved": 0, "type": "electric_scooter"}, {"fusion_lat": 0.0, "name": "1661395b3bf7dc9bc2ca65270de67bbe", "lon": -77.04703433333333, "rental_uris": {"android": "https://dc.lft.to/lastmile_qr_scan", "ios": "https://dc.lft.to/lastmile_qr_scan"}, "fusion_lon": 0.0, "bike_id": "1661395b3bf7dc9bc2ca65270de67bbe", "is_disabled": 0, "lat": 38.9054915, "is_reserved": 0, "type": "electric_scooter"}, {"fusion_lat": 0.0, "name": "5e9924a1aae85ed94ca0c66b5c55e2d2", "lon": -76.98358016666667, "rental_uris": {"android": "https://dc.lft.to/lastmile_qr_scan", "ios": "https://dc.lft.to/lastmile_qr_scan"}, "fusion_lon": 0.0, "bike_id": "5e9924a1aae85ed94ca0c66b5c55e2d2", "is_disabled": 0, "lat": 38.915368, "is_reserved": 0, "type": "electric_scooter"}, {"fusion_lat": 0.0, "name": "fa86e84f393147bb2cb09e4feca88d43", "lon": -77.07015633333333, "rental_uris": {"android": "https://dc.lft.to/lastmile_qr_scan", "ios": "https://dc.lft.to/lastmile_qr_scan"}, "fusion_lon": 0.0, "bike_id": "fa86e84f393147bb2cb09e4feca88d43", "is_disabled": 0, "lat": 38.91920366666667, "is_reserved": 0, "type": "electric_bike"}, {"fusion_lat": 0.0, "name": "8171ab68d30e999206f2e4ea72244e2a", "lon": -77.02775933333334, "rental_uris": {"android": "https://dc.lft.to/lastmile_qr_scan", "ios": "https://dc.lft.to/lastmile_qr_scan"}, "fusion_lon": 0.0, "bike_id": "8171ab68d30e999206f2e4ea72244e2a", "is_disabled": 0, "lat": 38.962507, "is_reserved": 0, "type": "electric_scooter"}, {"fusion_lat": 0.0, "name": "73517f954cc02892883edb2053c6ce01", "lon": -77.02669083333333, "rental_uris": {"android": "https://dc.lft.to/lastmile_qr_scan", "ios": "https://dc.lft.to/lastmile_qr_scan"}, "fusion_lon": 0.0, "bike_id": "73517f954cc02892883edb2053c6ce01", "is_disabled": 0, "lat": 38.92813266666667, "is_reserved": 0, "type": "electric_scooter"}, {"fusion_lat": 0.0, "name": "0546784908037f1e63e23bffd4a03448", "lon": -77.01895416666666, "rental_uris": {"android": "https://dc.lft.to/lastmile_qr_scan", "ios": "https://dc.lft.to/lastmile_qr_scan"}, "fusion_lon": 0.0, "bike_id": "0546784908037f1e63e23bffd4a03448", "is_disabled": 0, "lat": 38.913913, "is_reserved": 0, "type": "electric_scooter"}, {"fusion_lat": 0.0, "name": "17ef798c483f09b63768e1c0d2bad006", "lon": -77.03411166666666, "rental_uris": {"android": "https://dc.lft.to/lastmile_qr_scan", "ios": "https://dc.lft.to/lastmile_qr_scan"}, "fusion_lon": 0.0, "bike_id": "17ef798c483f09b63768e1c0d2bad006", "is_disabled": 0, "lat": 38.96029583333333, "is_reserved": 0, "type": "electric_bike"}, {"fusion_lat": 0.0, "name": "66245a4b5500c7a66fdd69abc187b79d", "lon": -77.03941216666666, "rental_uris": {"android": "https://dc.lft.to/lastmile_qr_scan", "ios": "https://dc.lft.to/lastmile_qr_scan"}, "fusion_lon": 0.0, "bike_id": "66245a4b5500c7a66fdd69abc187b79d", "is_disabled": 0, "lat": 38.900702333333335, "is_reserved": 0, "type": "electric_scooter"}, {"fusion_lat": 0.0, "name": "8c0ef6d21555023d3cc642cda59268ae", "lon": -77.0282685, "rental_uris": {"android": "https://dc.lft.to/lastmile_qr_scan", "ios": "https://dc.lft.to/lastmile_qr_scan"}, "fusion_lon": 0.0, "bike_id": "8c0ef6d21555023d3cc642cda59268ae", "is_disabled": 0, "lat": 38.93884533333333, "is_reserved": 0, "type": "electric_scooter"}, {"fusion_lat": 0.0, "name": "9a54cdfea288ed09728a8a784699e5a6", "lon": -77.026454, "rental_uris": {"android": "https://dc.lft.to/lastmile_qr_scan", "ios": "https://dc.lft.to/lastmile_qr_scan"}, "fusion_lon": 0.0, "bike_id": "9a54cdfea288ed09728a8a784699e5a6", "is_disabled": 0, "lat": 38.93855383333333, "is_reserved": 0, "type": "electric_scooter"}, {"fusion_lat": 0.0, "name": "9db3435690974cc7f94899cdc94cce2d", "lon": -76.94571716666667, "rental_uris": {"android": "https://dc.lft.to/lastmile_qr_scan", "ios": "https://dc.lft.to/lastmile_qr_scan"}, "fusion_lon": 0.0, "bike_id": "9db3435690974cc7f94899cdc94cce2d", "is_disabled": 0, "lat": 38.866117833333334, "is_reserved": 0, "type": "electric_bike"}, {"fusion_lat": 0.0, "name": "8945a0cf202f3c5724cf45626ff5c642", "lon": -77.04111516666667, "rental_uris": {"android": "https://dc.lft.to/lastmile_qr_scan", "ios": "https://dc.lft.to/lastmile_qr_scan"}, "fusion_lon": 0.0, "bike_id": "8945a0cf202f3c5724cf45626ff5c642", "is_disabled": 0, "lat": 38.8984285, "is_reserved": 0, "type": "electric_scooter"}, {"fusion_lat": 0.0, "name": "39661721ca55473060ee14e6659af6df", "lon": -77.01365666666666, "rental_uris": {"android": "https://dc.lft.to/lastmile_qr_scan", "ios": "https://dc.lft.to/lastmile_qr_scan"}, "fusion_lon": 0.0, "bike_id": "39661721ca55473060ee14e6659af6df", "is_disabled": 0, "lat": 38.8870435, "is_reserved": 0, "type": "electric_scooter"}, {"fusion_lat": 0.0, "name": "d274e3bb978f8af625d3c7de856783d4", "lon": -77.04158083333333, "rental_uris": {"android": "https://dc.lft.to/lastmile_qr_scan", "ios": "https://dc.lft.to/lastmile_qr_scan"}, "fusion_lon": 0.0, "bike_id": "d274e3bb978f8af625d3c7de856783d4", "is_disabled": 0, "lat": 38.905125, "is_reserved": 0, "type": "electric_scooter"}, {"fusion_lat": 0.0, "name": "9a214f33b15bbbe74b5272fc58f7eefb", "lon": -76.97441133333334, "rental_uris": {"android": "https://dc.lft.to/lastmile_qr_scan", "ios": "https://dc.lft.to/lastmile_qr_scan"}, "fusion_lon": 0.0, "bike_id": "9a214f33b15bbbe74b5272fc58f7eefb", "is_disabled": 0, "lat": 38.919276333333336, "is_reserved": 0, "type": "electric_bike"}, {"fusion_lat": 0.0, "name": "0230fa1d73a2d3654ffdfcf700c62032", "lon": -77.050123, "rental_uris": {"android": "https://dc.lft.to/lastmile_qr_scan", "ios": "https://dc.lft.to/lastmile_qr_scan"}, "fusion_lon": 0.0, "bike_id": "0230fa1d73a2d3654ffdfcf700c62032", "is_disabled": 0, "lat": 38.90555766666667, "is_reserved": 0, "type": "electric_scooter"}, {"fusion_lat": 0.0, "name": "fa3940b1a3c2f2f3be5b0a5d1d60b327", "lon": -77.03236833333334, "rental_uris": {"android": "https://dc.lft.to/lastmile_qr_scan", "ios": "https://dc.lft.to/lastmile_qr_scan"}, "fusion_lon": 0.0, "bike_id": "fa3940b1a3c2f2f3be5b0a5d1d60b327", "is_disabled": 0, "lat": 38.912636166666665, "is_reserved": 0, "type": "electric_scooter"}, {"fusion_lat": 0.0, "name": "3bab57c4df1c35c7dad82d248ee14117", "lon": -77.0433445, "rental_uris": {"android": "https://dc.lft.to/lastmile_qr_scan", "ios": "https://dc.lft.to/lastmile_qr_scan"}, "fusion_lon": 0.0, "bike_id": "3bab57c4df1c35c7dad82d248ee14117", "is_disabled": 0, "lat": 38.91693933333333, "is_reserved": 0, "type": "electric_scooter"}, {"fusion_lat": 0.0, "name": "3706b0c9008277dc9d592d3b26281abc", "lon": -77.0398225, "rental_uris": {"android": "https://dc.lft.to/lastmile_qr_scan", "ios": "https://dc.lft.to/lastmile_qr_scan"}, "fusion_lon": 0.0, "bike_id": "3706b0c9008277dc9d592d3b26281abc", "is_disabled": 0, "lat": 38.925817, "is_reserved": 0, "type": "electric_scooter"}, {"fusion_lat": 0.0, "name": "d69372ee29782f81441ba9e1f812dfe5", "lon": -77.03133133333333, "rental_uris": {"android": "https://dc.lft.to/lastmile_qr_scan", "ios": "https://dc.lft.to/lastmile_qr_scan"}, "fusion_lon": 0.0, "bike_id": "d69372ee29782f81441ba9e1f812dfe5", "is_disabled": 0, "lat": 38.923663166666664, "is_reserved": 0, "type": "electric_scooter"}, {"fusion_lat": 0.0, "name": "96647f775522845b094cb9e7c02ce350", "lon": -76.97358516666667, "rental_uris": {"android": "https://dc.lft.to/lastmile_qr_scan", "ios": "https://dc.lft.to/lastmile_qr_scan"}, "fusion_lon": 0.0, "bike_id": "96647f775522845b094cb9e7c02ce350", "is_disabled": 0, "lat": 38.963190166666664, "is_reserved": 0, "type": "electric_bike"}, {"fusion_lat": 0.0, "name": "5d4d5b63ff3e9014f035c78976c263f6", "lon": -77.0328435, "rental_uris": {"android": "https://dc.lft.to/lastmile_qr_scan", "ios": "https://dc.lft.to/lastmile_qr_scan"}, "fusion_lon": 0.0, "bike_id": "5d4d5b63ff3e9014f035c78976c263f6", "is_disabled": 0, "lat": 38.920615166666664, "is_reserved": 0, "type": "electric_scooter"}, {"fusion_lat": 0.0, "name": "20f0ec0df918363ecd00011ee39f2872", "lon": -77.0315045, "rental_uris": {"android": "https://dc.lft.to/lastmile_qr_scan", "ios": "https://dc.lft.to/lastmile_qr_scan"}, "fusion_lon": 0.0, "bike_id": "20f0ec0df918363ecd00011ee39f2872", "is_disabled": 0, "lat": 38.91356783333333, "is_reserved": 0, "type": "electric_scooter"}, {"fusion_lat": 0.0, "name": "e7880d4222fbb9263a88bb95210f12be", "lon": -77.055173, "rental_uris": {"android": "https://dc.lft.to/lastmile_qr_scan", "ios": "https://dc.lft.to/lastmile_qr_scan"}, "fusion_lon": 0.0, "bike_id": "e7880d4222fbb9263a88bb95210f12be", "is_disabled": 0, "lat": 38.9296115, "is_reserved": 0, "type": "electric_scooter"}, {"fusion_lat": 0.0, "name": "79aac62992fd05ea25ec9e1102c07ce5", "lon": -77.04976183333333, "rental_uris": {"android": "https://dc.lft.to/lastmile_qr_scan", "ios": "https://dc.lft.to/lastmile_qr_scan"}, "fusion_lon": 0.0, "bike_id": "79aac62992fd05ea25ec9e1102c07ce5", "is_disabled": 0, "lat": 39.062927, "is_reserved": 0, "type": "electric_bike"}, {"fusion_lat": 0.0, "name": "c76d77ae9b33ddbe6a2c8f305a1bcab3", "lon": -77.00590316666667, "rental_uris": {"android": "https://dc.lft.to/lastmile_qr_scan", "ios": "https://dc.lft.to/lastmile_qr_scan"}, "fusion_lon": 0.0, "bike_id": "c76d77ae9b33ddbe6a2c8f305a1bcab3", "is_disabled": 0, "lat": 38.90241833333333, "is_reserved": 0, "type": "electric_scooter"}, {"fusion_lat": 0.0, "name": "a164c0bb51aad3ce568876e19c98b18f", "lon": -77.02979816666667, "rental_uris": {"android": "https://dc.lft.to/lastmile_qr_scan", "ios": "https://dc.lft.to/lastmile_qr_scan"}, "fusion_lon": 0.0, "bike_id": "a164c0bb51aad3ce568876e19c98b18f", "is_disabled": 0, "lat": 38.939831833333336, "is_reserved": 0, "type": "electric_scooter"}, {"fusion_lat": 0.0, "name": "9cbecc220bc83e15e4d2daaa667613a8", "lon": -76.97858966666666, "rental_uris": {"android": "https://dc.lft.to/lastmile_qr_scan", "ios": "https://dc.lft.to/lastmile_qr_scan"}, "fusion_lon": 0.0, "bike_id": "9cbecc220bc83e15e4d2daaa667613a8", "is_disabled": 0, "lat": 38.883015666666665, "is_reserved": 0, "type": "electric_scooter"}, {"fusion_lat": 0.0, "name": "fd1ce1c4e094486f3ca859525d69e990", "lon": -76.93376116666667, "rental_uris": {"android": "https://dc.lft.to/lastmile_qr_scan", "ios": "https://dc.lft.to/lastmile_qr_scan"}, "fusion_lon": 0.0, "bike_id": "fd1ce1c4e094486f3ca859525d69e990", "is_disabled": 0, "lat": 38.89914433333333, "is_reserved": 0, "type": "electric_scooter"}, {"fusion_lat": 0.0, "name": "a66391eb7cf5abdcb9a05e5d20f38b07", "lon": -77.017619, "rental_uris": {"android": "https://dc.lft.to/lastmile_qr_scan", "ios": "https://dc.lft.to/lastmile_qr_scan"}, "fusion_lon": 0.0, "bike_id": "a66391eb7cf5abdcb9a05e5d20f38b07", "is_disabled": 0, "lat": 38.887275833333334, "is_reserved": 0, "type": "electric_scooter"}, {"fusion_lat": 0.0, "name": "06a355b226ea4d6740f8d72e167eca93", "lon": -77.01271216666666, "rental_uris": {"android": "https://dc.lft.to/lastmile_qr_scan", "ios": "https://dc.lft.to/lastmile_qr_scan"}, "fusion_lon": 0.0, "bike_id": "06a355b226ea4d6740f8d72e167eca93", "is_disabled": 0, "lat": 38.897369, "is_reserved": 0, "type": "electric_scooter"},