{"data": {"bikes": [{"fusion_lon": 0.0, "bike_id": "dbe0ba8b67410f5a9b4fbb7d4afde8a4", "name": "dbe0ba8b67410f5a9b4fbb7d4afde8a4", "type": "electric_scooter", "lon": -76.9761315, "rental_uris": {"android": "https://dc.lft.to/lastmile_qr_scan", "ios": "https://dc.lft.to/lastmile_qr_scan"}, "lat": 38.93141633333333, "is_reserved": 0, "is_disabled": 0, "fusion_lat": 0.0}, {"fusion_lon": 0.0, "bike_id": "66418c1ac8227305b381308def4be738", "name": "66418c1ac8227305b381308def4be738", "type": "electric_scooter", "lon": -76.99053683333334, "rental_uris": {"android": "https://dc.lft.to/lastmile_qr_scan", "ios": "https://dc.lft.to/lastmile_qr_scan"}, "lat": 38.85895216666667, "is_reserved": 0, "is_disabled": 0, "fusion_lat": 0.0}, {"fusion_lon": 0.0, "bike_id": "d4bf5762d5803c711e6a75f8eff8b673", "name": "d4bf5762d5803c711e6a75f8eff8b673", "type": "electric_scooter", "lon": -77.019741, "rental_uris": {"android": "https://dc.lft.to/lastmile_qr_scan", "ios": "https://dc.lft.to/lastmile_qr_scan"}, "lat": 38.883576, "is_reserved": 0, "is_disabled": 0, "fusion_lat": 0.0}, {"fusion_lon": 0.0, "bike_id": "71bb4353f3be0c794d81525fe4946e45", "name": "71bb4353f3be0c794d81525fe4946e45", "type": "electric_scooter", "lon": -77.0575415, "rental_uris": {"android": "https://dc.lft.to/lastmile_qr_scan", "ios": "https://dc.lft.to/lastmile_qr_scan"}, "lat": 38.9241665, "is_reserved": 0, "is_disabled": 0, "fusion_lat": 0.0}, {"fusion_lon": 0.0, "bike_id": "7aff1d44d10f1757ec13b523f0a3b9d8", "name": "7aff1d44d10f1757ec13b523f0a3b9d8", "type": "electric_scooter", "lon": -76.97727883333333, "rental_uris": {"android": "https://dc.lft.to/lastmile_qr_scan", "ios": "https://dc.lft.to/lastmile_qr_scan"}, "lat": 38.8724155, "is_reserved": 0, "is_disabled": 0, "fusion_lat": 0.0}, {"fusion_lon": 0.0, "bike_id": "d812be5bae75d3a55d3a6dfc93679b42", "name": "d812be5bae75d3a55d3a6dfc93679b42", "type": "electric_scooter", "lon": -77.02382916666667, "rental_uris": {"android": "https://dc.lft.to/lastmile_qr_scan", "ios": "https://dc.lft.to/lastmile_qr_scan"}, "lat": 38.9195455, "is_reserved": 0, "is_disabled": 0, "fusion_lat": 0.0}, {"fusion_lon": 0.0, "bike_id": "5359541a8167e16bd298a3ab0d26c6e0", "name": "5359541a8167e16bd298a3ab0d26c6e0", "type": "electric_scooter", "lon": -76.9947945, "rental_uris": {"android": "https://dc.lft.to/lastmile_qr_scan", "ios": "https://dc.lft.to/lastmile_qr_scan"}, "lat": 38.86215766666667, "is_reserved": 0, "is_disabled": 0, "fusion_lat": 0.0}, {"fusion_lon": 0.0, "bike_id": "897d24de0e54e9955ee4aa6fbe1965ea", "name": "897d24de0e54e9955ee4aa6fbe1965ea", "type": "electric_scooter", "lon": -77.00447366666667, "rental_uris": {"android": "https://dc.lft.to/lastmile_qr_scan", "ios": "https://dc.lft.to/lastmile_qr_scan"}, "lat": 38.876711666666665, "is_reserved": 0, "is_disabled": 0, "fusion_lat": 0.0}, {"fusion_lon": 0.0, "bike_id": "5275f7bc65e0bfc65bbc70067f36e043", "name": "5275f7bc65e0bfc65bbc70067f36e043", "type": "electric_scooter", "lon": -77.072302, "rental_uris": {"android": "https://dc.lft.to/lastmile_qr_scan", "ios": "https://dc.lft.to/lastmile_qr_scan"}, "lat": 38.93462016666667, "is_reserved": 0, "is_disabled": 0, "fusion_lat": 0.0}, {"fusion_lon": 0.0, "bike_id": "bbf1d8117605f1803bc378a451f9abb4", "name": "bbf1d8117605f1803bc378a451f9abb4", "type": "electric_bike", "lon": -76.95464666666666, "rental_uris": {"android": "https://dc.lft.to/lastmile_qr_scan", "ios": "https://dc.lft.to/lastmile_qr_scan"}, "lat": 38.935672833333335, "is_reserved": 0, "is_disabled": 0, "fusion_lat": 0.0}, {"fusion_lon": 0.0, "bike_id": "edd7d3bb727e667ec9204780213866c4", "name": "edd7d3bb727e667ec9204780213866c4", "type": "electric_scooter", "lon": -77.0233165, "rental_uris": {"android": "https://dc.lft.to/lastmile_qr_scan", "ios": "https://dc.lft.to/lastmile_qr_scan"}, "lat": 38.9155245, "is_reserved": 0, "is_disabled": 0, "fusion_lat": 0.0}, {"fusion_lon": 0.0, "bike_id": "3335b541e268650c12635d19309405dd", "name": "3335b541e268650c12635d19309405dd", "type": "electric_scooter", "lon": -77.00196183333334, "rental_uris": {"android": "https://dc.lft.to/lastmile_qr_scan", "ios": "https://dc.lft.to/lastmile_qr_scan"}, "lat": 38.902324666666665, "is_reserved": 0, "is_disabled": 0, "fusion_lat": 0.0}, {"fusion_lon": 0.0, "bike_id": "a8d2b64d15cd19df6f7d57968037a28f", "name": "a8d2b64d15cd19df6f7d57968037a28f", "type": "electric_scooter", "lon": -77.03728066666666, "rental_uris": {"android": "https://dc.lft.to/lastmile_qr_scan", "ios": "https://dc.lft.to/lastmile_qr_scan"}, "lat": 38.92655366666666, "is_reserved": 0, "is_disabled": 0, "fusion_lat": 0.0}, {"fusion_lon": 0.0, "bike_id": "b4adc57ded0da6f44b3ba4505d4a2348", "name": "b4adc57ded0da6f44b3ba4505d4a2348", "type": "electric_scooter", "lon": -77.032082, "rental_uris": {"android": "https://dc.lft.to/lastmile_qr_scan", "ios": "https://dc.lft.to/lastmile_qr_scan"}, "lat": 38.913971833333335, "is_reserved": 0, "is_disabled": 0, "fusion_lat": 0.0}, {"fusion_lon": 0.0, "bike_id": "70dcc9193a268df1ded0d150dc22dd9a", "name": "70dcc9193a268df1ded0d150dc22dd9a", "type": "electric_scooter", "lon": -77.0264855, "rental_uris": {"android": "https://dc.lft.to/lastmile_qr_scan", "ios": "https://dc.lft.to/lastmile_qr_scan"}, "lat": 38.93859066666667, "is_reserved": 0, "is_disabled": 0, "fusion_lat": 0.0}, {"fusion_lon": 0.0, "bike_id": "0fff04887737cbffb93e12e1703fcdfd", "name": "0fff04887737cbffb93e12e1703fcdfd", "type": "electric_scooter", "lon": -76.9419385, "rental_uris": {"android": "https://dc.lft.to/lastmile_qr_scan", "ios": "https://dc.lft.to/lastmile_qr_scan"}, "lat": 38.893723333333334, "is_reserved": 0, "is_disabled": 0, "fusion_lat": 0.0}, {"fusion_lon": 0.0, "bike_id": "5d89e5b8deb0e5e422d77cc43c7a986e", "name": "5d89e5b8deb0e5e422d77cc43c7a986e", "type": "electric_scooter", "lon": -77.03858516666666, "rental_uris": {"android": "https://dc.lft.to/lastmile_qr_scan", "ios": "https://dc.lft.to/lastmile_qr_scan"}, "lat": 38.905839, "is_reserved": 0, "is_disabled": 0, "fusion_lat": 0.0}, {"fusion_lon": 0.0, "bike_id": "122046bf55a32a058088dac319232060", "name": "122046bf55a32a058088dac319232060", "type": "electric_bike", "lon": -77.09963316666666, "rental_uris": {"android": "https://dc.lft.to/lastmile_qr_scan", "ios": "https://dc.lft.to/lastmile_qr_scan"}, "lat": 38.857870166666665, "is_reserved": 0, "is_disabled": 0, "fusion_lat": 0.0}, {"fusion_lon": 0.0, "bike_id": "b33efe1f7825b0a30dc8daf68755cf81", "name": "b33efe1f7825b0a30dc8daf68755cf81", "type": "electric_scooter", "lon": -77.04003083333333, "rental_uris": {"android": "https://dc.lft.to/lastmile_qr_scan", "ios": "https://dc.lft.to/lastmile_qr_scan"}, "lat": 38.924391166666666, "is_reserved": 0, "is_disabled": 0, "fusion_lat": 0.0}, {"fusion_lon": 0.0, "bike_id": "d0876c816231e9ca8a6952c7d3ee64c6", "name": "d0876c816231e9ca8a6952c7d3ee64c6", "type": "electric_scooter", "lon": -77.03764933333333, "rental_uris": {"android": "https://dc.lft.to/lastmile_qr_scan", "ios": "https://dc.lft.to/lastmile_qr_scan"}, "lat": 38.91695433333334, "is_reserved": 0, "is_disabled": 0, "fusion_lat": 0.0}, {"fusion_lon": 0.0, "bike_id": "dabda7bd0d7a32b8e5decb416d5c0c68", "name": "dabda7bd0d7a32b8e5decb416d5c0c68", "type": "electric_bike", "lon": -76.9319805, "rental_uris": {"android": "https://dc.lft.to/lastmile_qr_scan", "ios": "https://dc.lft.to/lastmile_qr_scan"}, "lat": 38.87234083333333, "is_reserved": 0, "is_disabled": 0, "fusion_lat": 0.0}, {"fusion_lon": 0.0, "bike_id": "6f53064c96bddfbd7f96e8c39f417bbf", "name": "6f53064c96bddfbd7f96e8c39f417bbf", "type": "electric_scooter", "lon": -77.03902966666666, "rental_uris": {"android": "https://dc.lft.to/lastmile_qr_scan", "ios": "https://dc.lft.to/lastmile_qr_scan"}, "lat": 38.914211, "is_reserved": 0, "is_disabled": 0, "fusion_lat": 0.0}, {"fusion_lon": 0.0, "bike_id": "dba058bc58f2ca89596cd6852e6b3cc9", "name": "dba058bc58f2ca89596cd6852e6b3cc9", "type": "electric_scooter", "lon": -77.023246, "rental_uris": {"android": "https://dc.lft.to/lastmile_qr_scan", "ios": "https://dc.lft.to/lastmile_qr_scan"}, "lat": 38.91783483333333, "is_reserved": 0, "is_disabled": 0, "fusion_lat": 0.0}, {"fusion_lon": 0.0, "bike_id": "be6654e7287fde70a7f5b4ebffc50974", "name": "be6654e7287fde70a7f5b4ebffc50974", "type": "electric_scooter", "lon": -77.018498, "rental_uris": {"android": "https://dc.lft.to/lastmile_qr_scan", "ios": "https://dc.lft.to/lastmile_qr_scan"}, "lat": 38.954318666666666, "is_reserved": 0, "is_disabled": 0, "fusion_lat": 0.0}, {"fusion_lon": 0.0, "bike_id": "42736d243ac751151bab682c4ad66fac", "name": "42736d243ac751151bab682c4ad66fac", "type": "electric_scooter", "lon": -77.0315465, "rental_uris": {"android": "https://dc.lft.to/lastmile_qr_scan", "ios": "https://dc.lft.to/lastmile_qr_scan"}, "lat": 38.8830425, "is_reserved": 0, "is_disabled": 0, "fusion_lat": 0.0}, {"fusion_lon": 0.0, "bike_id": "c1b4892eaa4dd8f49b48f719efcad054", "name": "c1b4892eaa4dd8f49b48f719efcad054", "type": "electric_scooter", "lon": -77.02157983333333, "rental_uris": {"android": "https://dc.lft.to/lastmile_qr_scan", "ios": "https://dc.lft.to/lastmile_qr_scan"}, "lat": 38.92613, "is_reserved": 0, "is_disabled": 0, "fusion_lat": 0.0}, {"fusion_lon": 0.0, "bike_id": "c0d35ce01451b5a35f8c1f084934b6d1", "name": "c0d35ce01451b5a35f8c1f084934b6d1", "type": "electric_scooter", "lon": -77.00591383333334, "rental_uris": {"android": "https://dc.lft.to/lastmile_qr_scan", "ios": "https://dc.lft.to/lastmile_qr_scan"}, "lat": 38.927595, "is_reserved": 0, "is_disabled": 0, "fusion_lat": 0.0}, {"fusion_lon": 0.0, "bike_id": "e7443296072066e037f8ab88b05f4f86", "name": "e7443296072066e037f8ab88b05f4f86", "type": "electric_scooter", "lon": -77.06528916666667, "rental_uris": {"android": "https://dc.lft.to/lastmile_qr_scan", "ios": "https://dc.lft.to/lastmile_qr_scan"}, "lat": 38.91126233333333, "is_reserved": 0, "is_disabled": 0, "fusion_lat": 0.0}, {"fusion_lon": 0.0, "bike_id": "43b848997dfd8986fe8b3f93636aebad", "name": "43b848997dfd8986fe8b3f93636aebad", "type": "electric_scooter", "lon": -77.03439233333333, "rental_uris": {"android": "https://dc.lft.to/lastmile_qr_scan", "ios": "https://dc.lft.to/lastmile_qr_scan"}, "lat": 38.918083833333334, "is_reserved": 0, "is_disabled": 0, "fusion_lat": 0.0}, {"fusion_lon": 0.0, "bike_id": "15c182865034f419a960a2333917e311", "name": "15c182865034f419a960a2333917e311", "type": "electric_scooter", "lon": -77.01109833333334, "rental_uris": {"android": "https://dc.lft.to/lastmile_qr_scan", "ios": "https://dc.lft.to/lastmile_qr_scan"}, "lat": 38.9035965, "is_reserved": 0, "is_disabled": 0, "fusion_lat": 0.0}, {"fusion_lon": 0.0, "bike_id": "a7a1d38027fdc19240eb65a2b43434de", "name": "a7a1d38027fdc19240eb65a2b43434de", "type": "electric_scooter", "lon": -77.03386266666666, "rental_uris": {"android": "https://dc.lft.to/lastmile_qr_scan", "ios": "https://dc.lft.to/lastmile_qr_scan"}, "lat": 38.92160066666667, "is_reserved": 0, "is_disabled": 0, "fusion_lat": 0.0}, {"fusion_lon": 0.0, "bike_id": "db903dd031edf472ccfdec072066a458", "name": "db903dd031edf472ccfdec072066a458", "type": "electric_scooter", "lon": -77.000693, "rental_uris": {"android": "https://dc.lft.to/lastmile_qr_scan", "ios": "https://dc.lft.to/lastmile_qr_scan"}, "lat": 38.901404, "is_reserved": 0, "is_disabled": 0, "fusion_lat": 0.0}, {"fusion_lon": 0.0, "bike_id": "b24b06c9d6f2b79b4dcd72f77fe81c6b", "name": "b24b06c9d6f2b79b4dcd72f77fe81c6b", "type": "electric_bike", "lon": -77.0852375, "rental_uris": {"android": "https://dc.lft.to/lastmile_qr_scan", "ios": "https://dc.lft.to/lastmile_qr_scan"}, "lat": 38.85651083333333, "is_reserved": 0, "is_disabled": 0, "fusion_lat": 0.0}, {"fusion_lon": 0.0, "bike_id": "ca0797adde57c1daae8bae6f823b69d1", "name": "ca0797adde57c1daae8bae6f823b69d1", "type": "electric_bike", "lon": -77.02625683333333, "rental_uris": {"android": "https://dc.lft.to/lastmile_qr_scan", "ios": "https://dc.lft.to/lastmile_qr_scan"}, "lat": 38.9622135, "is_reserved": 0, "is_disabled": 0, "fusion_lat": 0.0}, {"fusion_lon": 0.0, "bike_id": "49e439a29bd3eeb1f8793ba10f1893d1", "name": "49e439a29bd3eeb1f8793ba10f1893d1", "type": "electric_scooter", "lon": -77.03188216666666, "rental_uris": {"android": "https://dc.lft.to/lastmile_qr_scan", "ios": "https://dc.lft.to/lastmile_qr_scan"}, "lat": 38.911919833333336, "is_reserved": 0, "is_disabled": 0, "fusion_lat": 0.0}, {"fusion_lon": 0.0, "bike_id": "7e8a5c7f99acae2f161918566c6ea973", "name": "7e8a5c7f99acae2f161918566c6ea973", "type": "electric_scooter", "lon": -77.016311, "rental_uris": {"android": "https://dc.lft.to/lastmile_qr_scan", "ios": "https://dc.lft.to/lastmile_qr_scan"}, "lat": 38.8763895, "is_reserved": 0, "is_disabled": 0, "fusion_lat": 0.0}, {"fusion_lon": 0.0, "bike_id": "8283b67a352b22b726bc1cba6904f73e", "name": "8283b67a352b22b726bc1cba6904f73e", "type": "electric_scooter", "lon": -77.03174116666666, "rental_uris": {"android": "https://dc.lft.to/lastmile_qr_scan", "ios": "https://dc.lft.to/lastmile_qr_scan"}, "lat": 38.88737966666667, "is_reserved": 0, "is_disabled": 0, "fusion_lat": 0.0}, {"fusion_lon": 0.0, "bike_id": "9d81df51a0632760815db5ad2c966ab6", "name": "9d81df51a0632760815db5ad2c966ab6", "type": "electric_scooter", "lon": -77.0314435, "rental_uris": {"android": "https://dc.lft.to/lastmile_qr_scan", "ios": "https://dc.lft.to/lastmile_qr_scan"}, "lat": 38.931831333333335, "is_reserved": 0, "is_disabled": 0, "fusion_lat": 0.0}, {"fusion_lon": 0.0, "bike_id": "b9b07d113ba2a3ca45fbd57688b70839", "name": "b9b07d113ba2a3ca45fbd57688b70839", "type": "electric_scooter", "lon": -76.93753816666667, "rental_uris": {"android": "https://dc.lft.to/lastmile_qr_scan", "ios": "https://dc.lft.to/lastmile_qr_scan"}, "lat": 38.89033583333333, "is_reserved": 0, "is_disabled": 0, "fusion_lat": 0.0}, {"fusion_lon": 0.0, "bike_id": "12018d759b354750cf76d547c40961f8", "name": "12018d759b354750cf76d547c40961f8", "type": "electric_scooter", "lon": -76.99631766666667, "rental_uris": {"android": "https://dc.lft.to/lastmile_qr_scan", "ios": "https://dc.lft.to/lastmile_qr_scan"}, "lat": 38.846199, "is_reserved": 0, "is_disabled": 0, "fusion_lat": 0.0}, {"fusion_lon": 0.0, "bike_id": "617d985fa0a52c61489a066320e215d2", "name": "617d985fa0a52c61489a066320e215d2", "type": "electric_scooter", "lon": -76.97799766666667, "rental_uris": {"android": "https://dc.lft.to/lastmile_qr_scan", "ios": "https://dc.lft.to/lastmile_qr_scan"}, "lat": 38.903128833333334, "is_reserved": 0, "is_disabled": 0, "fusion_lat": 0.0}, {"fusion_lon": 0.0, "bike_id": "e54d1f442fcb96e21076815a70afa889", "name": "e54d1f442fcb96e21076815a70afa889", "type": "electric_scooter", "lon": -77.0318515, "rental_uris": {"android": "https://dc.lft.to/lastmile_qr_scan", "ios": "https://dc.lft.to/lastmile_qr_scan"}, "lat": 38.918017166666665, "is_reserved": 0, "is_disabled": 0, "fusion_lat": 0.0}, {"fusion_lon": 0.0, "bike_id": "d51be61c44f20e703779c07c0f8eec55", "name": "d51be61c44f20e703779c07c0f8eec55", "type": "electric_scooter", "lon": -77.04647116666666, "rental_uris": {"android": "https://dc.lft.to/lastmile_qr_scan", "ios": "https://dc.lft.to/lastmile_qr_scan"}, "lat": 38.89234416666667, "is_reserved": 0, "is_disabled": 0, "fusion_lat": 0.0}, {"fusion_lon": 0.0, "bike_id": "4afeab250463dc90ffe3537b14f10eb2", "name": "4afeab250463dc90ffe3537b14f10eb2", "type": "electric_scooter", "lon": -77.0119195, "rental_uris": {"android": "https://dc.lft.to/lastmile_qr_scan", "ios": "https://dc.lft.to/lastmile_qr_scan"}, "lat": 38.89530116666667, "is_reserved": 0, "is_disabled": 0, "fusion_lat": 0.0}, {"fusion_lon": 0.0, "bike_id": "bba7d9a9428aa628e9593d5a4b61d170", "name": "bba7d9a9428aa628e9593d5a4b61d170", "type": "electric_scooter", "lon": -77.05071666666667, "rental_uris": {"android": "https://dc.lft.to/lastmile_qr_scan", "ios": "https://dc.lft.to/lastmile_qr_scan"}, "lat": 38.900805, "is_reserved": 0, "is_disabled": 0, "fusion_lat": 0.0}, {"fusion_lon": 0.0, "bike_id": "c6141a36a60c0b6520407607292cfb59", "name": "c6141a36a60c0b6520407607292cfb59", "type": "electric_bike", "lon": -76.9875015, "rental_uris": {"android": "https://dc.lft.to/lastmile_qr_scan", "ios": "https://dc.lft.to/lastmile_qr_scan"}, "lat": 38.98824283333333, "is_reserved": 0, "is_disabled": 0, "fusion_lat": 0.0}, {"fusion_lon": 0.0, "bike_id": "affd51b70bc8bd210127173ce080316a", "name": "affd51b70bc8bd210127173ce080316a", "type": "electric_scooter", "lon": -77.01765883333333, "rental_uris": {"android": "https://dc.lft.to/lastmile_qr_scan", "ios": "https://dc.lft.to/lastmile_qr_scan"}, "lat": 38.92119066666667, "is_reserved": 0, "is_disabled": 0, "fusion_lat": 0.0}, {"fusion_lon": 0.0, "bike_id": "8ea2c470535ba2a10e902df5521b08ee", "name": "8ea2c470535ba2a10e902df5521b08ee", "type": "electric_scooter", "lon": -77.03155966666667, "rental_uris": {"android": "https://dc.lft.to/lastmile_qr_scan", "ios": "https://dc.lft.to/lastmile_qr_scan"}, "lat": 38.9281335, "is_reserved": 0, "is_disabled": 0, "fusion_lat": 0.0}, {"fusion_lon": 0.0, "bike_id": "071d62f8fde93de23a177098789b9707", "name": "071d62f8fde93de23a177098789b9707", "type": "electric_scooter", "lon": -77.00516416666666, "rental_uris": {"android": "https://dc.lft.to/lastmile_qr_scan", "ios": "https://dc.lft.to/lastmile_qr_scan"}, "lat": 38.87470966666667, "is_reserved": 0, "is_disabled": 0, "fusion_lat": 0.0}, {"fusion_lon": 0.0, "bike_id": "7ff2558cfe57bb01dddf975da9b12055", "name": "7ff2558cfe57bb01dddf975da9b12055", "type": "electric_scooter", "lon": -77.01440483333333, "rental_uris": {"android": "https://dc.lft.to/lastmile_qr_scan", "ios": "https://dc.lft.to/lastmile_qr_scan"}, "lat": 38.8777775, "is_reserved": 0, "is_disabled": 0, "fusion_lat": 0.0}, {"fusion_lon": 0.0, "bike_id": "c67506bf25566f31b921827c1a527191", "name": "c67506bf25566f31b921827c1a527191", "type": "electric_bike", "lon": -76.93612633333333, "rental_uris": {"android": "https://dc.lft.to/lastmile_qr_scan", "ios": "https://dc.lft.to/lastmile_qr_scan"}, "lat": 38.970641, "is_reserved": 0, "is_disabled": 0, "fusion_lat": 0.0}, {"fusion_lon": 0.0, "bike_id": "d17692bb562d1aa8c27f6d42588f2f9a", "name": "d17692bb562d1aa8c27f6d42588f2f9a", "type": "electric_scooter", "lon": -76.99013633333334, "rental_uris": {"android": "https://dc.lft.to/lastmile_qr_scan", "ios": "https://dc.lft.to/lastmile_qr_scan"}, "lat": 38.900333, "is_reserved": 0, "is_disabled": 0, "fusion_lat": 0.0}, {"fusion_lon": 0.0, "bike_id": "ee28de49579b04f87bcf346503ddc50f", "name": "ee28de49579b04f87bcf346503ddc50f", "type": "electric_scooter", "lon": -77.00726066666667, "rental_uris": {"android": "https://dc.lft.to/lastmile_qr_scan", "ios": "https://dc.lft.to/lastmile_qr_scan"}, "lat": 38.87681033333333, "is_reserved": 0, "is_disabled": 0, "fusion_lat": 0.0}, {"fusion_lon": 0.0, "bike_id": "bf5655e5c1b015df1fbf8759ec67ba54", "name": "bf5655e5c1b015df1fbf8759ec67ba54", "type": "electric_scooter", "lon": -77.03452666666666, "rental_uris": {"android": "https://dc.lft.to/lastmile_qr_scan", "ios": "https://dc.lft.to/lastmile_qr_scan"}, "lat": 38.91487466666667, "is_reserved": 0, "is_disabled": 0, "fusion_lat": 0.0}, {"fusion_lon": 0.0, "bike_id": "37fd1bd1a3e7517592ea4ccef7438c4d", "name": "37fd1bd1a3e7517592ea4ccef7438c4d", "type": "electric_scooter", "lon": -77.02788633333333, "rental_uris": {"android": "https://dc.lft.to/lastmile_qr_scan", "ios": "https://dc.lft.to/lastmile_qr_scan"}, "lat": 38.90257066666667, "is_reserved": 0, "is_disabled": 0, "fusion_lat": 0.0}, {"fusion_lon": 0.0, "bike_id": "cc98c93147ffb9fb8e7998d6d7fe161c", "name": "cc98c93147ffb9fb8e7998d6d7fe161c", "type": "electric_scooter", "lon": -77.04149683333333, "rental_uris": {"android": "https://dc.lft.to/lastmile_qr_scan", "ios": "https://dc.lft.to/lastmile_qr_scan"}, "lat": 38.8987885, "is_reserved": 0, "is_disabled": 0, "fusion_lat": 0.0}, {"fusion_lon": 0.0, "bike_id": "f5a7b6e4f5b49658e334ac5c88bea703", "name": "f5a7b6e4f5b49658e334ac5c88bea703", "type": "electric_scooter", "lon": -77.0541325, "rental_uris": {"android": "https://dc.lft.to/lastmile_qr_scan", "ios": "https://dc.lft.to/lastmile_qr_scan"}, "lat": 38.9283165, "is_reserved": 0, "is_disabled": 0, "fusion_lat": 0.0}, {"fusion_lon": 0.0, "bike_id": "457eabe547fe8a49ccc8aa7cc2559833", "name": "457eabe547fe8a49ccc8aa7cc2559833", "type": "electric_scooter", "lon": -77.029769, "rental_uris": {"android": "https://dc.lft.to/lastmile_qr_scan", "ios": "https://dc.lft.to/lastmile_qr_scan"}, "lat": 38.9073225, "is_reserved": 0, "is_disabled": 0, "fusion_lat": 0.0}, {"fusion_lon": 0.0, "bike_id": "0e7c3c5c7965882d1d8197e008b73978", "name": "0e7c3c5c7965882d1d8197e008b73978", "type": "electric_scooter", "lon": -77.0363745, "rental_uris": {"android": "https://dc.lft.to/lastmile_qr_scan", "ios": "https://dc.lft.to/lastmile_qr_scan"}, "lat": 38.924108833333335, "is_reserved": 0, "is_disabled": 0, "fusion_lat": 0.0}, {"fusion_lon": 0.0, "bike_id": "7762aa0a010aeebd5cce82cb4ad04d6c", "name": "7762aa0a010aeebd5cce82cb4ad04d6c", "type": "electric_scooter", "lon": -77.00110083333334, "rental_uris": {"android": "https://dc.lft.to/lastmile_qr_scan", "ios": "https://dc.lft.to/lastmile_qr_scan"}, "lat": 38.917111166666665, "is_reserved": 0, "is_disabled": 0, "fusion_lat": 0.0}, {"fusion_lon": 0.0, "bike_id": "50e6634696db91d26db44b063172639f", "name": "50e6634696db91d26db44b063172639f", "type": "electric_bike", "lon": -77.02979, "rental_uris": {"android": "https://dc.lft.to/lastmile_qr_scan", "ios": "https://dc.lft.to/lastmile_qr_scan"}, "lat": 38.937019166666666, "is_reserved": 0, "is_disabled": 0, "fusion_lat": 0.0}, {"fusion_lon": 0.0, "bike_id": "f949e6e5ee8f8d025ce2756f08a8b276", "name": "f949e6e5ee8f8d025ce2756f08a8b276", "type": "electric_scooter", "lon": -76.98729466666667, "rental_uris": {"android": "https://dc.lft.to/lastmile_qr_scan", "ios": "https://dc.lft.to/lastmile_qr_scan"}, "lat": 38.86710566666667, "is_reserved": 0, "is_disabled": 0, "fusion_lat": 0.0}, {"fusion_lon": 0.0, "bike_id": "9d06d5c28346679c3d6568c824b75e39", "name": "9d06d5c28346679c3d6568c824b75e39", "type": "electric_scooter", "lon": -77.02322433333333, "rental_uris": {"android": "https://dc.lft.to/lastmile_qr_scan", "ios": "https://dc.lft.to/lastmile_qr_scan"}, "lat": 38.9240665, "is_reserved": 0, "is_disabled": 0, "fusion_lat": 0.0}, {"fusion_lon": 0.0, "bike_id": "6ec94afb665c23d6f834b54e88808f28", "name": "6ec94afb665c23d6f834b54e88808f28", "type": "electric_scooter", "lon": -76.97274183333333, "rental_uris": {"android": "https://dc.lft.to/lastmile_qr_scan", "ios": "https://dc.lft.to/lastmile_qr_scan"}, "lat": 38.930823333333336, "is_reserved": 0, "is_disabled": 0, "fusion_lat": 0.0}, {"fusion_lon": 0.0, "bike_id": "c9b1052b85071e7fb440d391a681ecec", "name": "c9b1052b85071e7fb440d391a681ecec", "type": "electric_bike", "lon": -77.0059645, "rental_uris": {"android": "https://dc.lft.to/lastmile_qr_scan", "ios": "https://dc.lft.to/lastmile_qr_scan"}, "lat": 38.89823166666667, "is_reserved": 0, "is_disabled": 0, "fusion_lat": 0.0}, {"fusion_lon": 0.0, "bike_id": "221f3a1ce600db16b4016c2c64801bce", "name": "221f3a1ce600db16b4016c2c64801bce", "type": "electric_scooter", "lon": -77.02414033333334, "rental_uris": {"android": "https://dc.lft.to/lastmile_qr_scan", "ios": "https://dc.lft.to/lastmile_qr_scan"}, "lat": 38.95745016666667, "is_reserved": 0, "is_disabled": 0, "fusion_lat": 0.0}, {"fusion_lon": 0.0, "bike_id": "2c5ef700dca60e4e4679a275c1180037", "name": "2c5ef700dca60e4e4679a275c1180037", "type": "electric_scooter", "lon": -76.94155433333333, "rental_uris": {"android": "https://dc.lft.to/lastmile_qr_scan", "ios": "https://dc.lft.to/lastmile_qr_scan"}, "lat": 38.883629166666665, "is_reserved": 0, "is_disabled": 0, "fusion_lat": 0.0}, {"fusion_lon": 0.0, "bike_id": "3fce977dceaeca68637eb4c263628e19", "name": "3fce977dceaeca68637eb4c263628e19", "type": "electric_scooter", "lon": -77.02900333333334, "rental_uris": {"android": "https://dc.lft.to/lastmile_qr_scan", "ios": "https://dc.lft.to/lastmile_qr_scan"}, "lat": 38.90440983333333, "is_reserved": 0, "is_disabled": 0, "fusion_lat": 0.0}, {"fusion_lon": 0.0, "bike_id": "47de328cc17422bcac7e365e32380eea", "name": "47de328cc17422bcac7e365e32380eea", "type": "electric_scooter", "lon": -77.03118683333334, "rental_uris": {"android": "https://dc.lft.to/lastmile_qr_scan", "ios": "https://dc.lft.to/lastmile_qr_scan"}, "lat": 38.9201345, "is_reserved": 0, "is_disabled": 0, "fusion_lat": 0.0}, {"fusion_lon": 0.0, "bike_id": "d8f314577043b22b3ff8951b43346fc7", "name": "d8f314577043b22b3ff8951b43346fc7", "type": "electric_scooter", "lon": -77.02479883333334, "rental_uris": {"android": "https://dc.lft.to/lastmile_qr_scan", "ios": "https://dc.lft.to/lastmile_qr_scan"}, "lat": 38.880125166666666, "is_reserved": 0, "is_disabled": 0, "fusion_lat": 0.0}, {"fusion_lon": 0.0, "bike_id": "49c7d411ac2feaf4b4c589416e581532", "name": "49c7d411ac2feaf4b4c589416e581532", "type": "electric_scooter", "lon": -77.0281895, "rental_uris": {"android": "https://dc.lft.to/lastmile_qr_scan", "ios": "https://dc.lft.to/lastmile_qr_scan"}, "lat": 38.94830283333334, "is_reserved": 0, "is_disabled": 0, "fusion_lat": 0.0}, {"fusion_lon": 0.0, "bike_id": "154a4b8e78c4c098b3cf6b306ca926e5", "name": "154a4b8e78c4c098b3cf6b306ca926e5", "type": "electric_scooter", "lon": -77.05918533333333, "rental_uris": {"android": "https://dc.lft.to/lastmile_qr_scan", "ios": "https://dc.lft.to/lastmile_qr_scan"}, "lat": 38.93652516666667, "is_reserved": 0, "is_disabled": 0, "fusion_lat": 0.0}, {"fusion_lon": 0.0, "bike_id": "cf39f8d467cb631e42de4ea81ae11dcb", "name": "cf39f8d467cb631e42de4ea81ae11dcb", "type": "electric_scooter", "lon": -77.04173333333334, "rental_uris": {"android": "https://dc.lft.to/lastmile_qr_scan", "ios": "https://dc.lft.to/lastmile_qr_scan"}, "lat": 38.91620616666667, "is_reserved": 0, "is_disabled": 0, "fusion_lat": 0.0}, {"fusion_lon": 0.0, "bike_id": "75ff638dfa556493d95e8de9f4db897c", "name": "75ff638dfa556493d95e8de9f4db897c", "type": "electric_scooter", "lon": -77.05733583333334, "rental_uris": {"android": "https://dc.lft.to/lastmile_qr_scan", "ios": "https://dc.lft.to/lastmile_qr_scan"}, "lat": 38.9243065, "is_reserved": 0, "is_disabled": 0, "fusion_lat": 0.0}, {"fusion_lon": 0.0, "bike_id": "d0e8a1bdb7fea4fe6a992d97094da6d6", "name": "d0e8a1bdb7fea4fe6a992d97094da6d6", "type": "electric_scooter", "lon": -76.93839566666666, "rental_uris": {"android": "https://dc.lft.to/lastmile_qr_scan", "ios": "https://dc.lft.to/lastmile_qr_scan"}, "lat": 38.890102666666664, "is_reserved": 0, "is_disabled": 0, "fusion_lat": 0.0}, {"fusion_lon": 0.0, "bike_id": "5d7e62adfa60d83fc532c42b6c0e3996", "name": "5d7e62adfa60d83fc532c42b6c0e3996", "type": "electric_scooter", "lon": -76.99481733333333, "rental_uris": {"android": "https://dc.lft.to/lastmile_qr_scan", "ios": "https://dc.lft.to/lastmile_qr_scan"}, "lat": 38.862182833333335, "is_reserved": 0, "is_disabled": 0, "fusion_lat": 0.0}, {"fusion_lon": 0.0, "bike_id": "16f4a96ec11eab83123855daf768e6e6", "name": "16f4a96ec11eab83123855daf768e6e6", "type": "electric_scooter", "lon": -77.039422, "rental_uris": {"android": "https://dc.lft.to/lastmile_qr_scan", "ios": "https://dc.lft.to/lastmile_qr_scan"}, "lat": 38.918175166666664, "is_reserved": 0, "is_disabled": 0, "fusion_lat": 0.0}, {"fusion_lon": 0.0, "bike_id": "b62c95caa9ff2cc7ff9bd96333bd39b4", "name": "b62c95caa9ff2cc7ff9bd96333bd39b4", "type": "electric_scooter", "lon": -77.035406, "rental_uris": {"android": "https://dc.lft.to/lastmile_qr_scan", "ios": "https://dc.lft.to/lastmile_qr_scan"}, "lat": 38.9240915, "is_reserved": 0, "is_disabled": 0, "fusion_lat": 0.0}, {"fusion_lon": 0.0, "bike_id": "07240645cca3ee144b236f2697669889", "name": "07240645cca3ee144b236f2697669889", "type": "electric_scooter", "lon": -77.046632, "rental_uris": {"android": "https://dc.lft.to/lastmile_qr_scan", "ios": "https://dc.lft.to/lastmile_qr_scan"}, "lat": 38.903375, "is_reserved": 0, "is_disabled": 0, "fusion_lat": 0.0}, {"fusion_lon": 0.0, "bike_id": "30e530234eeb6bb5a4c2a733d118a8c7", "name": "30e530234eeb6bb5a4c2a733d118a8c7", "type": "electric_bike", "lon": -77.12508916666667, "rental_uris": {"android": "https://dc.lft.to/lastmile_qr_scan", "ios": "https://dc.lft.to/lastmile_qr_scan"}, "lat": 39.02426033333333, "is_reserved": 0, "is_disabled": 0, "fusion_lat": 0.0}, {"fusion_lon": 0.0, "bike_id": "1f9cbfbdbbe7aee32720f29aba760853", "name": "1f9cbfbdbbe7aee32720f29aba760853", "type": "electric_scooter", "lon": -77.02755916666666, "rental_uris": {"android": "https://dc.lft.to/lastmile_qr_scan", "ios": "https://dc.lft.to/lastmile_qr_scan"}, "lat": 38.954131, "is_reserved": 0, "is_disabled": 0, "fusion_lat": 0.0}, {"fusion_lon": 0.0, "bike_id": "44d6bbcbc6664d9164fe9fafda6c2d9e", "name": "44d6bbcbc6664d9164fe9fafda6c2d9e", "type": "electric_scooter", "lon": -77.0318525, "rental_uris": {"android": "https://dc.lft.to/lastmile_qr_scan", "ios": "https://dc.lft.to/lastmile_qr_scan"}, "lat": 38.89229266666667, "is_reserved": 0, "is_disabled": 0, "fusion_lat": 0.0}, {"fusion_lon": 0.0, "bike_id": "4bf9c89a4d40994ef8a9e5c4c37b19c7", "name": "4bf9c89a4d40994ef8a9e5c4c37b19c7", "type": "electric_scooter", "lon": -77.046638, "rental_uris": {"android": "https://dc.lft.to/lastmile_qr_scan", "ios": "https://dc.lft.to/lastmile_qr_scan"}, "lat": 38.9036595, "is_reserved": 0, "is_disabled": 0, "fusion_lat": 0.0}, {"fusion_lon": 0.0, "bike_id": "264ad3e4e8505444e2824fb7a6a233b3", "name": "264ad3e4e8505444e2824fb7a6a233b3", "type": "electric_scooter", "lon": -77.02505916666667, "rental_uris": {"android": "https://dc.lft.to/lastmile_qr_scan", "ios": "https://dc.lft.to/lastmile_qr_scan"}, "lat": 38.92092133333333, "is_reserved": 0, "is_disabled": 0, "fusion_lat": 0.0}, {"fusion_lon": 0.0, "bike_id": "7b699ce4bc89a35efe4d71da8d7673fb", "name": "7b699ce4bc89a35efe4d71da8d7673fb", "type": "electric_scooter", "lon": -77.03853466666666, "rental_uris": {"android": "https://dc.lft.to/lastmile_qr_scan", "ios": "https://dc.lft.to/lastmile_qr_scan"}, "lat": 38.9183665, "is_reserved": 0, "is_disabled": 0, "fusion_lat": 0.0}, {"fusion_lon": 0.0, "bike_id": "af6b12637e7e83de9e328e04e7a59757", "name": "af6b12637e7e83de9e328e04e7a59757", "type": "electric_scooter", "lon": -77.00868166666666, "rental_uris": {"android": "https://dc.lft.to/lastmile_qr_scan", "ios": "https://dc.lft.to/lastmile_qr_scan"}, "lat": 38.905647, "is_reserved": 0, "is_disabled": 0, "fusion_lat": 0.0}, {"fusion_lon": 0.0, "bike_id": "09bb097f2e16e72a821324fd0226aa47", "name": "09bb097f2e16e72a821324fd0226aa47", "type": "electric_scooter", "lon": -77.0074855, "rental_uris": {"android": "https://dc.lft.to/lastmile_qr_scan", "ios": "https://dc.lft.to/lastmile_qr_scan"}, "lat": 38.87650883333333, "is_reserved": 0, "is_disabled": 0, "fusion_lat": 0.0}, {"fusion_lon": 0.0, "bike_id": "4a00a28b08fed35e8070542479fc179f", "name": "4a00a28b08fed35e8070542479fc179f", "type": "electric_scooter", "lon": -77.03359883333333, "rental_uris": {"android": "https://dc.lft.to/lastmile_qr_scan", "ios": "https://dc.lft.to/lastmile_qr_scan"}, "lat": 38.911923333333334, "is_reserved": 0, "is_disabled": 0, "fusion_lat": 0.0}, {"fusion_lon": 0.0, "bike_id": "05ed04bda0b6af034bf3d0365633da49", "name": "05ed04bda0b6af034bf3d0365633da49", "type": "electric_scooter", "lon": -76.98070633333333, "rental_uris": {"android": "https://dc.lft.to/lastmile_qr_scan", "ios": "https://dc.lft.to/lastmile_qr_scan"}, "lat": 38.91671566666667, "is_reserved": 0, "is_disabled": 0, "fusion_lat": 0.0}, {"fusion_lon": 0.0, "bike_id": "40eca9680e29e535a8c082e36bc62e59", "name": "40eca9680e29e535a8c082e36bc62e59", "type": "electric_bike", "lon": -77.024966, "rental_uris": {"android": "https://dc.lft.to/lastmile_qr_scan", "ios": "https://dc.lft.to/lastmile_qr_scan"}, "lat": 38.97411233333333, "is_reserved": 0, "is_disabled": 0, "fusion_lat": 0.0}, {"fusion_lon": 0.0, "bike_id": "cddb2ac8347a5feac8704cf96bc47bec", "name": "cddb2ac8347a5feac8704cf96bc47bec", "type": "electric_scooter", "lon": -77.02319566666667, "rental_uris": {"android": "https://dc.lft.to/lastmile_qr_scan", "ios": "https://dc.lft.to/lastmile_qr_scan"}, "lat": 38.92067866666667, "is_reserved": 0, "is_disabled": 0, "fusion_lat": 0.0}, {"fusion_lon": 0.0, "bike_id": "c3313762719e6923602da03d7da56066", "name": "c3313762719e6923602da03d7da56066", "type": "electric_bike", "lon": -77.00079, "rental_uris": {"android": "https://dc.lft.to/lastmile_qr_scan", "ios": "https://dc.lft.to/lastmile_qr_scan"}, "lat": 38.885981666666666, "is_reserved": 0, "is_disabled": 0, "fusion_lat": 0.0}, {"fusion_lon": 0.0, "bike_id": "e10b3a58a605b335924e60df697299c1", "name": "e10b3a58a605b335924e60df697299c1", "type": "electric_scooter", "lon": -77.02168783333333, "rental_uris": {"android": "https://dc.lft.to/lastmile_qr_scan", "ios": "https://dc.lft.to/lastmile_qr_scan"}, "lat": 38.94291466666667, "is_reserved": 0, "is_disabled": 0, "fusion_lat": 0.0}, {"fusion_lon": 0.0, "bike_id": "b8c3eba8d85103057de7cc44646739d6", "name": "b8c3eba8d85103057de7cc44646739d6", "type": "electric_scooter", "lon": -76.99070666666667, "rental_uris": {"android": "https://dc.lft.to/lastmile_qr_scan", "ios": "https://dc.lft.to/lastmile_qr_scan"}, "lat": 38.904184666666666, "is_reserved": 0, "is_disabled": 0, "fusion_lat": 0.0}, {"fusion_lon": 0.0, "bike_id": "5e7126662f9ed119ec437ce1c69d517c", "name": "5e7126662f9ed119ec437ce1c69d517c", "type": "electric_scooter", "lon": -77.05438566666666, "rental_uris": {"android": "https://dc.lft.to/lastmile_qr_scan", "ios": "https://dc.lft.to/lastmile_qr_scan"}, "lat": 38.89603966666667, "is_reserved": 0, "is_disabled": 0, "fusion_lat": 0.0}, {"fusion_lon": 0.0, "bike_id": "70701acc4340abdaa6b4a4fe2d2a2192", "name": "70701acc4340abdaa6b4a4fe2d2a2192", "type": "electric_scooter", "lon": -77.01736933333333, "rental_uris": {"android": "https://dc.lft.to/lastmile_qr_scan", "ios": "https://dc.lft.to/lastmile_qr_scan"}, "lat": 38.8747785, "is_reserved": 0, "is_disabled": 0, "fusion_lat": 0.0}, {"fusion_lon": 0.0, "bike_id": "ed3cf6c4811f5ea3b1887040fb20a07b", "name": "ed3cf6c4811f5ea3b1887040fb20a07b", "type": "electric_scooter", "lon": -76.93741483333334, "rental_uris": {"android": "https://dc.lft.to/lastmile_qr_scan", "ios": "https://dc.lft.to/lastmile_qr_scan"}, "lat": 38.89004583333333, "is_reserved": 0, "is_disabled": 0, "fusion_lat": 0.0}, {"fusion_lon": 0.0, "bike_id": "ae4236d9997f57f7c10a89127d3a8787", "name": "ae4236d9997f57f7c10a89127d3a8787", "type": "electric_scooter", "lon": -77.027562, "rental_uris": {"android": "https://dc.lft.to/lastmile_qr_scan", "ios": "https://dc.lft.to/lastmile_qr_scan"}, "lat": 38.954160333333334, "is_reserved": 0, "is_disabled": 0, "fusion_lat": 0.0}, {"fusion_lon": 0.0, "bike_id": "1a2a631aa335ce0fd4222aa86045084d", "name": "1a2a631aa335ce0fd4222aa86045084d", "type": "electric_scooter", "lon": -77.04015516666666, "rental_uris": {"android": "https://dc.lft.to/lastmile_qr_scan", "ios": "https://dc.lft.to/lastmile_qr_scan"}, "lat": 38.91326983333333, "is_reserved": 0, "is_disabled": 0, "fusion_lat": 0.0}, {"fusion_lon": 0.0, "bike_id": "d67114f18b089a725c4f121b8a2f22dc", "name": "d67114f18b089a725c4f121b8a2f22dc", "type": "electric_bike", "lon": -76.93411566666667, "rental_uris": {"android": "https://dc.lft.to/lastmile_qr_scan", "ios": "https://dc.lft.to/lastmile_qr_scan"}, "lat": 38.946245, "is_reserved": 0, "is_disabled": 0, "fusion_lat": 0.0}, {"fusion_lon": 0.0, "bike_id": "412f25ce803192dc00462c5cac26f29d", "name": "412f25ce803192dc00462c5cac26f29d", "type": "electric_scooter", "lon": -77.01257883333334, "rental_uris": {"android": "https://dc.lft.to/lastmile_qr_scan", "ios": "https://dc.lft.to/lastmile_qr_scan"}, "lat": 38.87631066666667, "is_reserved": 0, "is_disabled": 0, "fusion_lat": 0.0}, {"fusion_lon": 0.0, "bike_id": "a2fcb647c481af2a416cbe12d83a517f", "name": "a2fcb647c481af2a416cbe12d83a517f", "type": "electric_scooter", "lon": -77.02946333333334, "rental_uris": {"android": "https://dc.lft.to/lastmile_qr_scan", "ios": "https://dc.lft.to/lastmile_qr_scan"}, "lat": 38.904978666666665, "is_reserved": 0, "is_disabled": 0, "fusion_lat": 0.0}, {"fusion_lon": 0.0, "bike_id": "7696f0e88f555ee6f7b096a09aebf608", "name": "7696f0e88f555ee6f7b096a09aebf608", "type": "electric_scooter", "lon": -77.0222205, "rental_uris": {"android": "https://dc.lft.to/lastmile_qr_scan", "ios": "https://dc.lft.to/lastmile_qr_scan"}, "lat": 38.935506, "is_reserved": 0, "is_disabled": 0, "fusion_lat": 0.0}, {"fusion_lon": 0.0, "bike_id": "3277610b922ff492f0d78e26c7e2cf16", "name": "3277610b922ff492f0d78e26c7e2cf16", "type": "electric_scooter", "lon": -77.0122315, "rental_uris": {"android": "https://dc.lft.to/lastmile_qr_scan", "ios": "https://dc.lft.to/lastmile_qr_scan"}, "lat": 38.867202166666665, "is_reserved": 0, "is_disabled": 0, "fusion_lat": 0.0}, {"fusion_lon": 0.0, "bike_id": "01ceb747a110f794d0d9dfdc8f3f627e", "name": "01ceb747a110f794d0d9dfdc8f3f627e", "type": "electric_scooter", "lon": -76.965444, "rental_uris": {"android": "https://dc.lft.to/lastmile_qr_scan", "ios": "https://dc.lft.to/lastmile_qr_scan"}, "lat": 38.9188085, "is_reserved": 0, "is_disabled": 0, "fusion_lat": 0.0}, {"fusion_lon": 0.0, "bike_id": "eaff2c2c69ba32ce595e19e9a0f666e3", "name": "eaff2c2c69ba32ce595e19e9a0f666e3", "type": "electric_bike", "lon": -77.13180066666666, "rental_uris": {"android": "https://dc.lft.to/lastmile_qr_scan", "ios": "https://dc.lft.to/lastmile_qr_scan"}, "lat": 38.869103833333334, "is_reserved": 0, "is_disabled": 0, "fusion_lat": 0.0}, {"fusion_lon": 0.0, "bike_id": "14edc68021bfa976020660f02744f047", "name": "14edc68021bfa976020660f02744f047", "type": "electric_scooter", "lon": -77.028112, "rental_uris": {"android": "https://dc.lft.to/lastmile_qr_scan", "ios": "https://dc.lft.to/lastmile_qr_scan"}, "lat": 38.90621316666667, "is_reserved": 0, "is_disabled": 0, "fusion_lat": 0.0}, {"fusion_lon": 0.0, "bike_id": "4d8a49c4947c952d28cdc213daf048ee", "name": "4d8a49c4947c952d28cdc213daf048ee", "type": "electric_scooter", "lon": -77.01600083333334, "rental_uris": {"android": "https://dc.lft.to/lastmile_qr_scan", "ios": "https://dc.lft.to/lastmile_qr_scan"}, "lat": 38.90115466666666, "is_reserved": 0, "is_disabled": 0, "fusion_lat": 0.0}, {"fusion_lon": 0.0, "bike_id": "355f6782fc62b328de73bb987002d266", "name": "355f6782fc62b328de73bb987002d266", "type": "electric_scooter", "lon": -77.0393425, "rental_uris": {"android": "https://dc.lft.to/lastmile_qr_scan", "ios": "https://dc.lft.to/lastmile_qr_scan"}, "lat": 38.924968, "is_reserved": 0, "is_disabled": 0, "fusion_lat": 0.0}, {"fusion_lon": 0.0, "bike_id": "da88ffc35c5282c9155f2bfb9a38433b", "name": "da88ffc35c5282c9155f2bfb9a38433b", "type": "electric_scooter", "lon": -77.0376185, "rental_uris": {"android": "https://dc.lft.to/lastmile_qr_scan", "ios": "https://dc.lft.to/lastmile_qr_scan"}, "lat": 38.92472566666667, "is_reserved": 0, "is_disabled": 0, "fusion_lat": 0.0}, {"fusion_lon": 0.0, "bike_id": "a23b9477048f5f39c6569d6429e07bda", "name": "a23b9477048f5f39c6569d6429e07bda", "type": "electric_scooter", "lon": -77.03066466666667, "rental_uris": {"android": "https://dc.lft.to/lastmile_qr_scan", "ios": "https://dc.lft.to/lastmile_qr_scan"}, "lat": 38.8804365, "is_reserved": 0, "is_disabled": 0, "fusion_lat": 0.0}, {"fusion_lon": 0.0, "bike_id": "5d8a95de1883d6a2ee61cf65d38a9ea0", "name": "5d8a95de1883d6a2ee61cf65d38a9ea0", "type": "electric_scooter", "lon": -77.0176825, "rental_uris": {"android": "https://dc.lft.to/lastmile_qr_scan", "ios": "https://dc.lft.to/lastmile_qr_scan"}, "lat": 38.90270183333333, "is_reserved": 0, "is_disabled": 0, "fusion_lat": 0.0}, {"fusion_lon": 0.0, "bike_id": "1cb2debb55df6bdd216c75051b56c1e5", "name": "1cb2debb55df6bdd216c75051b56c1e5", "type": "electric_bike", "lon": -77.0195355, "rental_uris": {"android": "https://dc.lft.to/lastmile_qr_scan", "ios": "https://dc.lft.to/lastmile_qr_scan"}, "lat": 38.883273, "is_reserved": 0, "is_disabled": 0, "fusion_lat": 0.0}, {"fusion_lon": 0.0, "bike_id": "9fdf742a582ec42ef17f86a9973ced56", "name": "9fdf742a582ec42ef17f86a9973ced56", "type": "electric_scooter", "lon": -77.03380683333333, "rental_uris": {"android": "https://dc.lft.to/lastmile_qr_scan", "ios": "https://dc.lft.to/lastmile_qr_scan"}, "lat": 38.92539216666667, "is_reserved": 0, "is_disabled": 0, "fusion_lat": 0.0}, {"fusion_lon": 0.0, "bike_id": "ad92f45521256d7406b232e881494985", "name": "ad92f45521256d7406b232e881494985", "type": "electric_scooter", "lon": -77.03281433333333, "rental_uris": {"android": "https://dc.lft.to/lastmile_qr_scan", "ios": "https://dc.lft.to/lastmile_qr_scan"}, "lat": 38.93876316666667, "is_reserved": 0, "is_disabled": 0, "fusion_lat": 0.0}, {"fusion_lon": 0.0, "bike_id": "ee3649e8640800a8105b21f819b32828", "name": "ee3649e8640800a8105b21f819b32828", "type": "electric_scooter", "lon": -76.984807, "rental_uris": {"android": "https://dc.lft.to/lastmile_qr_scan", "ios": "https://dc.lft.to/lastmile_qr_scan"}, "lat": 38.928994833333334, "is_reserved": 0, "is_disabled": 0, "fusion_lat": 0.0}, {"fusion_lon": 0.0, "bike_id": "2b9ff9275434d2924abde9cd9b2c4cbd", "name": "2b9ff9275434d2924abde9cd9b2c4cbd", "type": "electric_scooter", "lon": -77.01188316666666, "rental_uris": {"android": "https://dc.lft.to/lastmile_qr_scan", "ios": "https://dc.lft.to/lastmile_qr_scan"}, "lat": 38.87147383333333, "is_reserved": 0, "is_disabled": 0, "fusion_lat": 0.0}, {"fusion_lon": 0.0, "bike_id": "63f7c9023b24f67f0c43b387b18ef75a", "name": "63f7c9023b24f67f0c43b387b18ef75a", "type": "electric_scooter", "lon": -77.024826, "rental_uris": {"android": "https://dc.lft.to/lastmile_qr_scan", "ios": "https://dc.lft.to/lastmile_qr_scan"}, "lat": 38.90409183333333, "is_reserved": 0, "is_disabled": 0, "fusion_lat": 0.0}, {"fusion_lon": 0.0, "bike_id": "975c2d75a28f2a58c1df43bfa589bf05", "name": "975c2d75a28f2a58c1df43bfa589bf05", "type": "electric_scooter", "lon": -77.02965316666666, "rental_uris": {"android": "https://dc.lft.to/lastmile_qr_scan", "ios": "https://dc.lft.to/lastmile_qr_scan"}, "lat": 38.9226405, "is_reserved": 0, "is_disabled": 0, "fusion_lat": 0.0}, {"fusion_lon": 0.0, "bike_id": "2429ff0412d9adf4753a2597b948b85c", "name": "2429ff0412d9adf4753a2597b948b85c", "type": "electric_scooter", "lon": -76.92955916666666, "rental_uris": {"android": "https://dc.lft.to/lastmile_qr_scan", "ios": "https://dc.lft.to/lastmile_qr_scan"}, "lat": 38.89879883333333, "is_reserved": 0, "is_disabled": 0, "fusion_lat": 0.0}, {"fusion_lon": 0.0, "bike_id": "738e2f9f36e5ab4cc80ee4e9c3386802", "name": "738e2f9f36e5ab4cc80ee4e9c3386802", "type": "electric_scooter", "lon": -77.0386835, "rental_uris": {"android": "https://dc.lft.to/lastmile_qr_scan", "ios": "https://dc.lft.to/lastmile_qr_scan"}, "lat": 38.919862, "is_reserved": 0, "is_disabled": 0, "fusion_lat": 0.0}, {"fusion_lon": 0.0, "bike_id": "e02a3042f4406cd735862ff99300d492", "name": "e02a3042f4406cd735862ff99300d492", "type": "electric_scooter", "lon": -77.04656233333333, "rental_uris": {"android": "https://dc.lft.to/lastmile_qr_scan", "ios": "https://dc.lft.to/lastmile_qr_scan"}, "lat": 38.90331316666666, "is_reserved": 0, "is_disabled": 0, "fusion_lat": 0.0}, {"fusion_lon": 0.0, "bike_id": "79cc5a506eddf730e594023b750f4e86", "name": "79cc5a506eddf730e594023b750f4e86", "type": "electric_scooter", "lon": -76.9912935, "rental_uris": {"android": "https://dc.lft.to/lastmile_qr_scan", "ios": "https://dc.lft.to/lastmile_qr_scan"}, "lat": 38.8790985, "is_reserved": 0, "is_disabled": 0, "fusion_lat": 0.0}, {"fusion_lon": 0.0, "bike_id": "1c043133f9327c8c41bf2c5bb8d090ac", "name": "1c043133f9327c8c41bf2c5bb8d090ac", "type": "electric_scooter", "lon": -77.04171066666666, "rental_uris": {"android": "https://dc.lft.to/lastmile_qr_scan", "ios": "https://dc.lft.to/lastmile_qr_scan"}, "lat": 38.915752499999996, "is_reserved": 0, "is_disabled": 0, "fusion_lat": 0.0}, {"fusion_lon": 0.0, "bike_id": "8c256181ce25cdf4c8bee642f9574145", "name": "8c256181ce25cdf4c8bee642f9574145", "type": "electric_scooter", "lon": -77.0341715, "rental_uris": {"android": "https://dc.lft.to/lastmile_qr_scan", "ios": "https://dc.lft.to/lastmile_qr_scan"}, "lat": 38.92946233333333, "is_reserved": 0, "is_disabled": 0, "fusion_lat": 0.0}, {"fusion_lon": 0.0, "bike_id": "fef77e26a30f5de00d6509b2ced49ba5", "name": "fef77e26a30f5de00d6509b2ced49ba5", "type": "electric_bike", "lon": -77.00569166666666, "rental_uris": {"android": "https://dc.lft.to/lastmile_qr_scan", "ios": "https://dc.lft.to/lastmile_qr_scan"}, "lat": 38.886123166666664, "is_reserved": 0, "is_disabled": 0, "fusion_lat": 0.0}, {"fusion_lon": 0.0, "bike_id": "29ca350c306b44157c4fbe4bec66093c", "name": "29ca350c306b44157c4fbe4bec66093c", "type": "electric_scooter", "lon": -77.0277985, "rental_uris": {"android": "https://dc.lft.to/lastmile_qr_scan", "ios": "https://dc.lft.to/lastmile_qr_scan"}, "lat": 38.881592833333336, "is_reserved": 0, "is_disabled": 0, "fusion_lat": 0.0}, {"fusion_lon": 0.0, "bike_id": "6d291f43769513fc1595d096dfc8707f", "name": "6d291f43769513fc1595d096dfc8707f", "type": "electric_bike", "lon": -76.997609, "rental_uris": {"android": "https://dc.lft.to/lastmile_qr_scan", "ios": "https://dc.lft.to/lastmile_qr_scan"}, "lat": 39.00590866666667, "is_reserved": 0, "is_disabled": 0, "fusion_lat": 0.0}, {"fusion_lon": 0.0, "bike_id": "b1df1802f2f15d4f28404e1e5147a4ac", "name": "b1df1802f2f15d4f28404e1e5147a4ac", "type": "electric_scooter", "lon": -77.02373233333333, "rental_uris": {"android": "https://dc.lft.to/lastmile_qr_scan", "ios": "https://dc.lft.to/lastmile_qr_scan"}, "lat": 38.90729616666667, "is_reserved": 0, "is_disabled": 0, "fusion_lat": 0.0}, {"fusion_lon": 0.0, "bike_id": "00cbd2d11850c7ea61331ba56fa17627", "name": "00cbd2d11850c7ea61331ba56fa17627", "type": "electric_bike", "lon": -77.02650133333333, "rental_uris": {"android": "https://dc.lft.to/lastmile_qr_scan", "ios": "https://dc.lft.to/lastmile_qr_scan"}, "lat": 38.988205666666666, "is_reserved": 0, "is_disabled": 0, "fusion_lat": 0.0}, {"fusion_lon": 0.0, "bike_id": "7ab7c6fef3bf87ccc320088f2ac9f3bd", "name": "7ab7c6fef3bf87ccc320088f2ac9f3bd", "type": "electric_scooter", "lon": -77.0419675, "rental_uris": {"android": "https://dc.lft.to/lastmile_qr_scan", "ios": "https://dc.lft.to/lastmile_qr_scan"}, "lat": 38.918688833333334, "is_reserved": 0, "is_disabled": 0, "fusion_lat": 0.0}, {"fusion_lon": 0.0, "bike_id": "20a5d7159c43dec313a8e01d4c69055c", "name": "20a5d7159c43dec313a8e01d4c69055c", "type": "electric_scooter", "lon": -77.01005016666667, "rental_uris": {"android": "https://dc.lft.to/lastmile_qr_scan", "ios": "https://dc.lft.to/lastmile_qr_scan"}, "lat": 38.879642833333335, "is_reserved": 0, "is_disabled": 0, "fusion_lat": 0.0}, {"fusion_lon": 0.0, "bike_id": "503c2e7ef6c9babd24078c2b4353ec25", "name": "503c2e7ef6c9babd24078c2b4353ec25", "type": "electric_scooter", "lon": -77.00876683333334, "rental_uris": {"android": "https://dc.lft.to/lastmile_qr_scan", "ios": "https://dc.lft.to/lastmile_qr_scan"}, "lat": 38.9056405, "is_reserved": 0, "is_disabled": 0, "fusion_lat": 0.0}, {"fusion_lon": 0.0, "bike_id": "1f1ad387f8678b1d3ea4a6bb1f6a0870", "name": "1f1ad387f8678b1d3ea4a6bb1f6a0870", "type": "electric_bike", "lon": -77.07904366666666, "rental_uris": {"android": "https://dc.lft.to/lastmile_qr_scan", "ios": "https://dc.lft.to/lastmile_qr_scan"}, "lat": 38.839346, "is_reserved": 0, "is_disabled": 0, "fusion_lat": 0.0}, {"fusion_lon": 0.0, "bike_id": "fd17b0433757d63ababaab4c06a32bbc", "name": "fd17b0433757d63ababaab4c06a32bbc", "type": "electric_scooter", "lon": -77.03396666666667, "rental_uris": {"android": "https://dc.lft.to/lastmile_qr_scan", "ios": "https://dc.lft.to/lastmile_qr_scan"}, "lat": 38.919656833333335, "is_reserved": 0, "is_disabled": 0, "fusion_lat": 0.0}, {"fusion_lon": 0.0, "bike_id": "aa4d47cd63539f6c28805b487f8c50a8", "name": "aa4d47cd63539f6c28805b487f8c50a8", "type": "electric_scooter", "lon": -77.02267416666666, "rental_uris": {"android": "https://dc.lft.to/lastmile_qr_scan", "ios": "https://dc.lft.to/lastmile_qr_scan"}, "lat": 38.91736683333333, "is_reserved": 0, "is_disabled": 0, "fusion_lat": 0.0}, {"fusion_lon": 0.0, "bike_id": "3a0a6e742303b83c53d13a8c64f80b81", "name": "3a0a6e742303b83c53d13a8c64f80b81", "type": "electric_scooter", "lon": -77.02546533333333, "rental_uris": {"android": "https://dc.lft.to/lastmile_qr_scan", "ios": "https://dc.lft.to/lastmile_qr_scan"}, "lat": 38.907266, "is_reserved": 0, "is_disabled": 0, "fusion_lat": 0.0}, {"fusion_lon": 0.0, "bike_id": "9dc56602900a9d7cf2d0261f3239cbed", "name": "9dc56602900a9d7cf2d0261f3239cbed", "type": "electric_bike", "lon": -77.11431, "rental_uris": {"android": "https://dc.lft.to/lastmile_qr_scan", "ios": "https://dc.lft.to/lastmile_qr_scan"}, "lat": 38.842977833333336, "is_reserved": 0, "is_disabled": 0, "fusion_lat": 0.0}, {"fusion_lon": 0.0, "bike_id": "e3da4040ebdc35c7d90fdf32e984a0bc", "name": "e3da4040ebdc35c7d90fdf32e984a0bc", "type": "electric_scooter", "lon": -77.03295366666667, "rental_uris": {"android": "https://dc.lft.to/lastmile_qr_scan", "ios": "https://dc.lft.to/lastmile_qr_scan"}, "lat": 38.92260483333333, "is_reserved": 0, "is_disabled": 0, "fusion_lat": 0.0}, {"fusion_lon": 0.0, "bike_id": "9de5b04f83798e0847bec77b178c4a79", "name": "9de5b04f83798e0847bec77b178c4a79", "type": "electric_bike", "lon": -77.06173266666667, "rental_uris": {"android": "https://dc.lft.to/lastmile_qr_scan", "ios": "https://dc.lft.to/lastmile_qr_scan"}, "lat": 38.812689, "is_reserved": 0, "is_disabled": 0, "fusion_lat": 0.0}, {"fusion_lon": 0.0, "bike_id": "8399da7b521f17e8f5cdfee7bc6ad6f7", "name": "8399da7b521f17e8f5cdfee7bc6ad6f7", "type": "electric_bike", "lon": -76.94471216666666, "rental_uris": {"android": "https://dc.lft.to/lastmile_qr_scan", "ios": "https://dc.lft.to/lastmile_qr_scan"}, "lat": 38.94558416666667, "is_reserved": 0, "is_disabled": 0, "fusion_lat": 0.0}, {"fusion_lon": 0.0, "bike_id": "34088e20d81541ec9d8be9d366cab47a", "name": "34088e20d81541ec9d8be9d366cab47a", "type": "electric_scooter", "lon": -77.03833766666666, "rental_uris": {"android": "https://dc.lft.to/lastmile_qr_scan", "ios": "https://dc.lft.to/lastmile_qr_scan"}, "lat": 38.9156255, "is_reserved": 0, "is_disabled": 0, "fusion_lat": 0.0}, {"fusion_lon": 0.0, "bike_id": "abb61493505edaff954c5080e8c4806b", "name": "abb61493505edaff954c5080e8c4806b", "type": "electric_scooter", "lon": -77.034642, "rental_uris": {"android": "https://dc.lft.to/lastmile_qr_scan", "ios": "https://dc.lft.to/lastmile_qr_scan"}, "lat": 38.91722766666667, "is_reserved": 0, "is_disabled": 0, "fusion_lat": 0.0}, {"fusion_lon": 0.0, "bike_id": "d491bd21fbaf6459999c901f7723051f", "name": "d491bd21fbaf6459999c901f7723051f", "type": "electric_scooter", "lon": -76.9427985, "rental_uris": {"android": "https://dc.lft.to/lastmile_qr_scan", "ios": "https://dc.lft.to/lastmile_qr_scan"}, "lat": 38.883029666666665, "is_reserved": 0, "is_disabled": 0, "fusion_lat": 0.0}, {"fusion_lon": 0.0, "bike_id": "13b17a185204ec050e4903546056907f", "name": "13b17a185204ec050e4903546056907f", "type": "electric_bike", "lon": -77.08940766666667, "rental_uris": {"android": "https://dc.lft.to/lastmile_qr_scan", "ios": "https://dc.lft.to/lastmile_qr_scan"}, "lat": 38.841085, "is_reserved": 0, "is_disabled": 0, "fusion_lat": 0.0}, {"fusion_lon": 0.0, "bike_id": "926e54ab3f291a2490e115114e119f23", "name": "926e54ab3f291a2490e115114e119f23", "type": "electric_scooter", "lon": -76.99869433333333, "rental_uris": {"android": "https://dc.lft.to/lastmile_qr_scan", "ios": "https://dc.lft.to/lastmile_qr_scan"}, "lat": 38.9003225, "is_reserved": 0, "is_disabled": 0, "fusion_lat": 0.0}, {"fusion_lon": 0.0, "bike_id": "330684c4d62f711984e921af14258978", "name": "330684c4d62f711984e921af14258978", "type": "electric_scooter", "lon": -76.98332583333334, "rental_uris": {"android": "https://dc.lft.to/lastmile_qr_scan", "ios": "https://dc.lft.to/lastmile_qr_scan"}, "lat": 38.86244216666667, "is_reserved": 0, "is_disabled": 0, "fusion_lat": 0.0}, {"fusion_lon": 0.0, "bike_id": "81c967e31e7142795c585965d7857bc1", "name": "81c967e31e7142795c585965d7857bc1", "type": "electric_scooter", "lon": -77.04870766666667, "rental_uris": {"android": "https://dc.lft.to/lastmile_qr_scan", "ios": "https://dc.lft.to/lastmile_qr_scan"}, "lat": 38.905812, "is_reserved": 0, "is_disabled": 0, "fusion_lat": 0.0}, {"fusion_lon": 0.0, "bike_id": "1df6e9164c3c043128ed20e7dbcc7ccb", "name": "1df6e9164c3c043128ed20e7dbcc7ccb", "type": "electric_scooter", "lon": -77.04648683333333, "rental_uris": {"android": "https://dc.lft.to/lastmile_qr_scan", "ios": "https://dc.lft.to/lastmile_qr_scan"}, "lat": 38.91482216666667, "is_reserved": 0, "is_disabled": 0, "fusion_lat": 0.0}, {"fusion_lon": 0.0, "bike_id": "6f8d40dfa60f7bc9123a0e59cf704da2", "name": "6f8d40dfa60f7bc9123a0e59cf704da2", "type": "electric_bike", "lon": -77.09157566666667, "rental_uris": {"android": "https://dc.lft.to/lastmile_qr_scan", "ios": "https://dc.lft.to/lastmile_qr_scan"}, "lat": 38.96761466666667, "is_reserved": 0, "is_disabled": 0, "fusion_lat": 0.0}, {"fusion_lon": 0.0, "bike_id": "5472ee7cf09eba65aa0960432568e448", "name": "5472ee7cf09eba65aa0960432568e448", "type": "electric_scooter", "lon": -77.02398333333333, "rental_uris": {"android": "https://dc.lft.to/lastmile_qr_scan", "ios": "https://dc.lft.to/lastmile_qr_scan"}, "lat": 38.919603333333335, "is_reserved": 0, "is_disabled": 0, "fusion_lat": 0.0}, {"fusion_lon": 0.0, "bike_id": "47e7aa1ce12a0e276f17fa6eeaf6cedd", "name": "47e7aa1ce12a0e276f17fa6eeaf6cedd", "type": "electric_scooter", "lon": -77.03724866666667, "rental_uris": {"android": "https://dc.lft.to/lastmile_qr_scan", "ios": "https://dc.lft.to/lastmile_qr_scan"}, "lat": 38.918172, "is_reserved": 0, "is_disabled": 0, "fusion_lat": 0.0}, {"fusion_lon": 0.0, "bike_id": "d09baa17ab7cc1cba72cf5221fa8cf23", "name": "d09baa17ab7cc1cba72cf5221fa8cf23", "type": "electric_scooter", "lon": -77.036528, "rental_uris": {"android": "https://dc.lft.to/lastmile_qr_scan", "ios": "https://dc.lft.to/lastmile_qr_scan"}, "lat": 38.94174833333334, "is_reserved": 0, "is_disabled": 0, "fusion_lat": 0.0}, {"fusion_lon": 0.0, "bike_id": "05a6200dfc3401e7fe473bbbba8440d6", "name": "05a6200dfc3401e7fe473bbbba8440d6", "type": "electric_scooter", "lon": -77.00517383333333, "rental_uris": {"android": "https://dc.lft.to/lastmile_qr_scan", "ios": "https://dc.lft.to/lastmile_qr_scan"}, "lat": 38.8747135, "is_reserved": 0, "is_disabled": 0, "fusion_lat": 0.0}, {"fusion_lon": 0.0, "bike_id": "12cca95fdb32e695049ff0a45aa70b6f", "name": "12cca95fdb32e695049ff0a45aa70b6f", "type": "electric_scooter", "lon": -77.02069433333334, "rental_uris": {"android": "https://dc.lft.to/lastmile_qr_scan", "ios": "https://dc.lft.to/lastmile_qr_scan"}, "lat": 38.949006833333335, "is_reserved": 0, "is_disabled": 0, "fusion_lat": 0.0}, {"fusion_lon": 0.0, "bike_id": "930ac42de28cfa52afb1678619b47b7c", "name": "930ac42de28cfa52afb1678619b47b7c", "type": "electric_scooter", "lon": -76.99703433333333, "rental_uris": {"android": "https://dc.lft.to/lastmile_qr_scan", "ios": "https://dc.lft.to/lastmile_qr_scan"}, "lat": 38.838689333333335, "is_reserved": 0, "is_disabled": 0, "fusion_lat": 0.0}, {"fusion_lon": 0.0, "bike_id": "f2e143608768741fc87a9515ac6566a8", "name": "f2e143608768741fc87a9515ac6566a8", "type": "electric_scooter", "lon": -77.04374583333333, "rental_uris": {"android": "https://dc.lft.to/lastmile_qr_scan", "ios": "https://dc.lft.to/lastmile_qr_scan"}, "lat": 38.874350666666665, "is_reserved": 0, "is_disabled": 0, "fusion_lat": 0.0}, {"fusion_lon": 0.0, "bike_id": "ff42472bed33c13fd4889cfff2273437", "name": "ff42472bed33c13fd4889cfff2273437", "type": "electric_scooter", "lon": -77.04652066666667, "rental_uris": {"android": "https://dc.lft.to/lastmile_qr_scan", "ios": "https://dc.lft.to/lastmile_qr_scan"}, "lat": 38.892965333333336, "is_reserved": 0, "is_disabled": 0, "fusion_lat": 0.0}, {"fusion_lon": 0.0, "bike_id": "cdd208864edea5695f1e5ce0656f59da", "name": "cdd208864edea5695f1e5ce0656f59da", "type": "electric_scooter", "lon": -76.97223533333333, "rental_uris": {"android": "https://dc.lft.to/lastmile_qr_scan", "ios": "https://dc.lft.to/lastmile_qr_scan"}, "lat": 38.85451366666667, "is_reserved": 0, "is_disabled": 0, "fusion_lat": 0.0}, {"fusion_lon": 0.0, "bike_id": "a9d7ea38f75c6bb95e8f640a878db830", "name": "a9d7ea38f75c6bb95e8f640a878db830", "type": "electric_scooter", "lon": -77.03166383333334, "rental_uris": {"android": "https://dc.lft.to/lastmile_qr_scan", "ios": "https://dc.lft.to/lastmile_qr_scan"}, "lat": 38.92074, "is_reserved": 0, "is_disabled": 0, "fusion_lat": 0.0}, {"fusion_lon": 0.0, "bike_id": "de9f396dc41b420e700dd902d2d31f9c", "name": "de9f396dc41b420e700dd902d2d31f9c", "type": "electric_scooter", "lon": -77.02342016666667, "rental_uris": {"android": "https://dc.lft.to/lastmile_qr_scan", "ios": "https://dc.lft.to/lastmile_qr_scan"}, "lat": 38.922622833333335, "is_reserved": 0, "is_disabled": 0, "fusion_lat": 0.0}, {"fusion_lon": 0.0, "bike_id": "c8ea2f8585379f69f15994a23f47a637", "name": "c8ea2f8585379f69f15994a23f47a637", "type": "electric_scooter", "lon": -77.02495416666666, "rental_uris": {"android": "https://dc.lft.to/lastmile_qr_scan", "ios": "https://dc.lft.to/lastmile_qr_scan"}, "lat": 38.920666833333335, "is_reserved": 0, "is_disabled": 0, "fusion_lat": 0.0}, {"fusion_lon": 0.0, "bike_id": "fd3ddcb867c3e430bc2c39d6fc869c5c", "name": "fd3ddcb867c3e430bc2c39d6fc869c5c", "type": "electric_scooter", "lon": -77.02963266666667, "rental_uris": {"android": "https://dc.lft.to/lastmile_qr_scan", "ios": "https://dc.lft.to/lastmile_qr_scan"}, "lat": 38.92848683333333, "is_reserved": 0, "is_disabled": 0, "fusion_lat": 0.0}, {"fusion_lon": 0.0, "bike_id": "caefbe2174c2d66866da00251d292384", "name": "caefbe2174c2d66866da00251d292384", "type": "electric_scooter", "lon": -77.04353666666667, "rental_uris": {"android": "https://dc.lft.to/lastmile_qr_scan", "ios": "https://dc.lft.to/lastmile_qr_scan"}, "lat": 38.8983085, "is_reserved": 0, "is_disabled": 0, "fusion_lat": 0.0}, {"fusion_lon": 0.0, "bike_id": "c31c136e92b41e5dfc88325c35d1b60d", "name": "c31c136e92b41e5dfc88325c35d1b60d", "type": "electric_scooter", "lon": -77.010168, "rental_uris": {"android": "https://dc.lft.to/lastmile_qr_scan", "ios": "https://dc.lft.to/lastmile_qr_scan"}, "lat": 38.90626066666667, "is_reserved": 0, "is_disabled": 0, "fusion_lat": 0.0}, {"fusion_lon": 0.0, "bike_id": "33e700ac88ea314a31169dad54eec1b6", "name": "33e700ac88ea314a31169dad54eec1b6", "type": "electric_scooter", "lon": -77.024592, "rental_uris": {"android": "https://dc.lft.to/lastmile_qr_scan", "ios": "https://dc.lft.to/lastmile_qr_scan"}, "lat": 38.938334833333336, "is_reserved": 0, "is_disabled": 0, "fusion_lat": 0.0}, {"fusion_lon": 0.0, "bike_id": "4f59b4ddf5c519545eb0d3eec69e93fb", "name": "4f59b4ddf5c519545eb0d3eec69e93fb", "type": "electric_scooter", "lon": -77.04485933333333, "rental_uris": {"android": "https://dc.lft.to/lastmile_qr_scan", "ios": "https://dc.lft.to/lastmile_qr_scan"}, "lat": 38.918779, "is_reserved": 0, "is_disabled": 0, "fusion_lat": 0.0}, {"fusion_lon": 0.0, "bike_id": "3bdb1d8672664542f2f12a038ea1afc9", "name": "3bdb1d8672664542f2f12a038ea1afc9", "type": "electric_bike", "lon": -77.08799166666667, "rental_uris": {"android": "https://dc.lft.to/lastmile_qr_scan", "ios": "https://dc.lft.to/lastmile_qr_scan"}, "lat": 38.831727, "is_reserved": 0, "is_disabled": 0, "fusion_lat": 0.0}, {"fusion_lon": 0.0, "bike_id": "25762ac1f47b29cf1ee025d639d5a3ca", "name": "25762ac1f47b29cf1ee025d639d5a3ca", "type": "electric_scooter", "lon": -77.04660116666666, "rental_uris": {"android": "https://dc.lft.to/lastmile_qr_scan", "ios": "https://dc.lft.to/lastmile_qr_scan"}, "lat": 38.903211166666665, "is_reserved": 0, "is_disabled": 0, "fusion_lat": 0.0}, {"fusion_lon": 0.0, "bike_id": "e3afcc95bbcbf9376f4ad92f4e10165b", "name": "e3afcc95bbcbf9376f4ad92f4e10165b", "type": "electric_scooter", "lon": -76.98722233333334, "rental_uris": {"android": "https://dc.lft.to/lastmile_qr_scan", "ios": "https://dc.lft.to/lastmile_qr_scan"}, "lat": 38.8671025, "is_reserved": 0, "is_disabled": 0, "fusion_lat": 0.0}, {"fusion_lon": 0.0, "bike_id": "d40f39e3f7fce9a5ab5b7201865ca217", "name": "d40f39e3f7fce9a5ab5b7201865ca217", "type": "electric_scooter", "lon": -77.04626133333333, "rental_uris": {"android": "https://dc.lft.to/lastmile_qr_scan", "ios": "https://dc.lft.to/lastmile_qr_scan"}, "lat": 38.91804116666667, "is_reserved": 0, "is_disabled": 0, "fusion_lat": 0.0}, {"fusion_lon": 0.0, "bike_id": "26a2e906797deddd6e8310f2f0472011", "name": "26a2e906797deddd6e8310f2f0472011", "type": "electric_scooter", "lon": -77.02414533333334, "rental_uris": {"android": "https://dc.lft.to/lastmile_qr_scan", "ios": "https://dc.lft.to/lastmile_qr_scan"}, "lat": 38.93492966666667, "is_reserved": 0, "is_disabled": 0, "fusion_lat": 0.0}, {"fusion_lon": 0.0, "bike_id": "8d9d845aba171ba6ebb034a4f087ad59", "name": "8d9d845aba171ba6ebb034a4f087ad59", "type": "electric_scooter", "lon": -76.98772916666667, "rental_uris": {"android": "https://dc.lft.to/lastmile_qr_scan", "ios": "https://dc.lft.to/lastmile_qr_scan"}, "lat": 38.898269, "is_reserved": 0, "is_disabled": 0, "fusion_lat": 0.0}, {"fusion_lon": 0.0, "bike_id": "ee06e4718b2e85c5271c3743bc516902", "name": "ee06e4718b2e85c5271c3743bc516902", "type": "electric_bike", "lon": -76.95207516666666, "rental_uris": {"android": "https://dc.lft.to/lastmile_qr_scan", "ios": "https://dc.lft.to/lastmile_qr_scan"}, "lat": 38.93668616666667, "is_reserved": 0, "is_disabled": 0, "fusion_lat": 0.0}, {"fusion_lon": 0.0, "bike_id": "0c6e78684c5432ddbdb96184b06048ac", "name": "0c6e78684c5432ddbdb96184b06048ac", "type": "electric_bike", "lon": -77.01444133333334, "rental_uris": {"android": "https://dc.lft.to/lastmile_qr_scan", "ios": "https://dc.lft.to/lastmile_qr_scan"}, "lat": 38.876770666666665, "is_reserved": 0, "is_disabled": 0, "fusion_lat": 0.0}, {"fusion_lon": 0.0, "bike_id": "c51596255874b427f49f6e2c7da29a25", "name": "c51596255874b427f49f6e2c7da29a25", "type": "electric_scooter", "lon": -77.0513875, "rental_uris": {"android": "https://dc.lft.to/lastmile_qr_scan", "ios": "https://dc.lft.to/lastmile_qr_scan"}, "lat": 38.904408833333335, "is_reserved": 0, "is_disabled": 0, "fusion_lat": 0.0}, {"fusion_lon": 0.0, "bike_id": "450aa6b17a2f85e94ac74741ce390de1", "name": "450aa6b17a2f85e94ac74741ce390de1", "type": "electric_scooter", "lon": -77.01730583333334, "rental_uris": {"android": "https://dc.lft.to/lastmile_qr_scan", "ios": "https://dc.lft.to/lastmile_qr_scan"}, "lat": 38.88396983333333, "is_reserved": 0, "is_disabled": 0, "fusion_lat": 0.0}, {"fusion_lon": 0.0, "bike_id": "14db9f1a3cbcbf422ee09c71bab944b5", "name": "14db9f1a3cbcbf422ee09c71bab944b5", "type": "electric_scooter", "lon": -77.01681933333333, "rental_uris": {"android": "https://dc.lft.to/lastmile_qr_scan", "ios": "https://dc.lft.to/lastmile_qr_scan"}, "lat": 38.88327183333333, "is_reserved": 0, "is_disabled": 0, "fusion_lat": 0.0}, {"fusion_lon": 0.0, "bike_id": "26c75acf3d8b1aa7b35c987686e07c47", "name": "26c75acf3d8b1aa7b35c987686e07c47", "type": "electric_bike", "lon": -77.06944516666667, "rental_uris": {"android": "https://dc.lft.to/lastmile_qr_scan", "ios": "https://dc.lft.to/lastmile_qr_scan"}, "lat": 38.9904005, "is_reserved": 0, "is_disabled": 0, "fusion_lat": 0.0}, {"fusion_lon": 0.0, "bike_id": "3a1d2507bf8f5dcea7eea254ec26f339", "name": "3a1d2507bf8f5dcea7eea254ec26f339", "type": "electric_scooter", "lon": -77.00594766666667, "rental_uris": {"android": "https://dc.lft.to/lastmile_qr_scan", "ios": "https://dc.lft.to/lastmile_qr_scan"}, "lat": 38.905653, "is_reserved": 0, "is_disabled": 0, "fusion_lat": 0.0}, {"fusion_lon": 0.0, "bike_id": "f0db4c74161a1609a38dc52c5368d7bf", "name": "f0db4c74161a1609a38dc52c5368d7bf", "type": "electric_scooter", "lon": -77.05028183333333, "rental_uris": {"android": "https://dc.lft.to/lastmile_qr_scan", "ios": "https://dc.lft.to/lastmile_qr_scan"}, "lat": 38.898315, "is_reserved": 0, "is_disabled": 0, "fusion_lat": 0.0}, {"fusion_lon": 0.0, "bike_id": "1f78c8fbcc9927f1b86236de734cda18", "name": "1f78c8fbcc9927f1b86236de734cda18", "type": "electric_scooter", "lon": -77.02382083333333, "rental_uris": {"android": "https://dc.lft.to/lastmile_qr_scan", "ios": "https://dc.lft.to/lastmile_qr_scan"}, "lat": 38.905746, "is_reserved": 0, "is_disabled": 0, "fusion_lat": 0.0}, {"fusion_lon": 0.0, "bike_id": "13793adbf2b1be4ddba730f4196db37c", "name": "13793adbf2b1be4ddba730f4196db37c", "type": "electric_scooter", "lon": -76.9960845, "rental_uris": {"android": "https://dc.lft.to/lastmile_qr_scan", "ios": "https://dc.lft.to/lastmile_qr_scan"}, "lat": 38.8646745, "is_reserved": 0, "is_disabled": 0, "fusion_lat": 0.0}, {"fusion_lon": 0.0, "bike_id": "aeae79280367dc03d64e25ef814ee8b6", "name": "aeae79280367dc03d64e25ef814ee8b6", "type": "electric_scooter", "lon": -77.0239935, "rental_uris": {"android": "https://dc.lft.to/lastmile_qr_scan", "ios": "https://dc.lft.to/lastmile_qr_scan"}, "lat": 38.909781833333334, "is_reserved": 0, "is_disabled": 0, "fusion_lat": 0.0}, {"fusion_lon": 0.0, "bike_id": "68a7b718c2b3873224b9ecff73afa690", "name": "68a7b718c2b3873224b9ecff73afa690", "type": "electric_scooter", "lon": -76.995016, "rental_uris": {"android": "https://dc.lft.to/lastmile_qr_scan", "ios": "https://dc.lft.to/lastmile_qr_scan"}, "lat": 38.885792333333335, "is_reserved": 0, "is_disabled": 0, "fusion_lat": 0.0}, {"fusion_lon": 0.0, "bike_id": "debab75429ee989d81078d6d437f70fe", "name": "debab75429ee989d81078d6d437f70fe", "type": "electric_scooter", "lon": -77.00841016666666, "rental_uris": {"android": "https://dc.lft.to/lastmile_qr_scan", "ios": "https://dc.lft.to/lastmile_qr_scan"}, "lat": 38.87638966666667, "is_reserved": 0, "is_disabled": 0, "fusion_lat": 0.0}, {"fusion_lon": 0.0, "bike_id": "3d03da573313bead714b0736274a73f2", "name": "3d03da573313bead714b0736274a73f2", "type": "electric_scooter", "lon": -77.07079083333333, "rental_uris": {"android": "https://dc.lft.to/lastmile_qr_scan", "ios": "https://dc.lft.to/lastmile_qr_scan"}, "lat": 38.939048666666665, "is_reserved": 0, "is_disabled": 0, "fusion_lat": 0.0}, {"fusion_lon": 0.0, "bike_id": "6a94e537e87795f60a910298d888474c", "name": "6a94e537e87795f60a910298d888474c", "type": "electric_scooter", "lon": -77.01621983333334, "rental_uris": {"android": "https://dc.lft.to/lastmile_qr_scan", "ios": "https://dc.lft.to/lastmile_qr_scan"}, "lat": 38.905991666666665, "is_reserved": 0, "is_disabled": 0, "fusion_lat": 0.0}, {"fusion_lon": 0.0, "bike_id": "e601a18b6a301bba154859d38e8c41b1", "name": "e601a18b6a301bba154859d38e8c41b1", "type": "electric_scooter", "lon": -77.01386783333334, "rental_uris": {"android": "https://dc.lft.to/lastmile_qr_scan", "ios": "https://dc.lft.to/lastmile_qr_scan"}, "lat": 38.880229, "is_reserved": 0, "is_disabled": 0, "fusion_lat": 0.0}, {"fusion_lon": 0.0, "bike_id": "2e6411d82d73d7531e322609b31a6c71", "name": "2e6411d82d73d7531e322609b31a6c71", "type": "electric_scooter", "lon": -77.03424133333333, "rental_uris": {"android": "https://dc.lft.to/lastmile_qr_scan", "ios": "https://dc.lft.to/lastmile_qr_scan"}, "lat": 38.9071535, "is_reserved": 0, "is_disabled": 0, "fusion_lat": 0.0}, {"fusion_lon": 0.0, "bike_id": "f24eb39ba4d2d17988bdcdd146b91e6a", "name": "f24eb39ba4d2d17988bdcdd146b91e6a", "type": "electric_scooter", "lon": -77.034615, "rental_uris": {"android": "https://dc.lft.to/lastmile_qr_scan", "ios": "https://dc.lft.to/lastmile_qr_scan"}, "lat": 38.92153366666667, "is_reserved": 0, "is_disabled": 0, "fusion_lat": 0.0}, {"fusion_lon": 0.0, "bike_id": "06424b78984190f4f852ff41097397f2", "name": "06424b78984190f4f852ff41097397f2", "type": "electric_scooter", "lon": -77.02786016666667, "rental_uris": {"android": "https://dc.lft.to/lastmile_qr_scan", "ios": "https://dc.lft.to/lastmile_qr_scan"}, "lat": 38.92683683333333, "is_reserved": 0, "is_disabled": 0, "fusion_lat": 0.0}, {"fusion_lon": 0.0, "bike_id": "1c63a4a73639d1c6c4caaed03c615828", "name": "1c63a4a73639d1c6c4caaed03c615828", "type": "electric_scooter", "lon": -77.041804, "rental_uris": {"android": "https://dc.lft.to/lastmile_qr_scan", "ios": "https://dc.lft.to/lastmile_qr_scan"}, "lat": 38.9126265, "is_reserved": 0, "is_disabled": 0, "fusion_lat": 0.0}, {"fusion_lon": 0.0, "bike_id": "b04f4b7982feadc360bc604005f21cbb", "name": "b04f4b7982feadc360bc604005f21cbb", "type": "electric_scooter", "lon": -77.023817, "rental_uris": {"android": "https://dc.lft.to/lastmile_qr_scan", "ios": "https://dc.lft.to/lastmile_qr_scan"}, "lat": 38.892303, "is_reserved": 0, "is_disabled": 0, "fusion_lat": 0.0}, {"fusion_lon": 0.0, "bike_id": "f54e17456d224b09504eeb59f42e291a", "name": "f54e17456d224b09504eeb59f42e291a", "type": "electric_scooter", "lon": -77.00873516666667, "rental_uris": {"android": "https://dc.lft.to/lastmile_qr_scan", "ios": "https://dc.lft.to/lastmile_qr_scan"}, "lat": 38.905649333333336, "is_reserved": 0, "is_disabled": 0, "fusion_lat": 0.0}, {"fusion_lon": 0.0, "bike_id": "05f82731c3441d62c4c9cf5a03245b80", "name": "05f82731c3441d62c4c9cf5a03245b80", "type": "electric_bike", "lon": -77.033936, "rental_uris": {"android": "https://dc.lft.to/lastmile_qr_scan", "ios": "https://dc.lft.to/lastmile_qr_scan"}, "lat": 38.92874116666667, "is_reserved": 0, "is_disabled": 0, "fusion_lat": 0.0}, {"fusion_lon": 0.0, "bike_id": "e9cb0cb252c2d48cdddc3d53a9a412c9", "name": "e9cb0cb252c2d48cdddc3d53a9a412c9", "type": "electric_scooter", "lon": -77.00776766666667, "rental_uris": {"android": "https://dc.lft.to/lastmile_qr_scan", "ios": "https://dc.lft.to/lastmile_qr_scan"}, "lat": 38.905735666666665, "is_reserved": 0, "is_disabled": 0, "fusion_lat": 0.0}, {"fusion_lon": 0.0, "bike_id": "09b251e9236a9aa93fb52439d996d8b9", "name": "09b251e9236a9aa93fb52439d996d8b9", "type": "electric_scooter", "lon": -77.01061466666667, "rental_uris": {"android": "https://dc.lft.to/lastmile_qr_scan", "ios": "https://dc.lft.to/lastmile_qr_scan"}, "lat": 38.87240283333333, "is_reserved": 0, "is_disabled": 0, "fusion_lat": 0.0}, {"fusion_lon": 0.0, "bike_id": "4c08bfbce807f5f29b5855c790421358", "name": "4c08bfbce807f5f29b5855c790421358", "type": "electric_scooter", "lon": -77.0246265, "rental_uris": {"android": "https://dc.lft.to/lastmile_qr_scan", "ios": "https://dc.lft.to/lastmile_qr_scan"}, "lat": 38.8973405, "is_reserved": 0, "is_disabled": 0, "fusion_lat": 0.0}, {"fusion_lon": 0.0, "bike_id": "7e5f3e56995f712a82779939054b5a8b", "name": "7e5f3e56995f712a82779939054b5a8b", "type": "electric_scooter", "lon": -76.98922333333333, "rental_uris": {"android": "https://dc.lft.to/lastmile_qr_scan", "ios": "https://dc.lft.to/lastmile_qr_scan"}, "lat": 38.882029833333334, "is_reserved": 0, "is_disabled": 0, "fusion_lat": 0.0}, {"fusion_lon": 0.0, "bike_id": "0276bbb7201e9370956b7ad45c3ba794", "name": "0276bbb7201e9370956b7ad45c3ba794", "type": "electric_scooter", "lon": -77.04671883333333, "rental_uris": {"android": "https://dc.lft.to/lastmile_qr_scan", "ios": "https://dc.lft.to/lastmile_qr_scan"}, "lat": 38.89696566666667, "is_reserved": 0, "is_disabled": 0, "fusion_lat": 0.0}, {"fusion_lon": 0.0, "bike_id": "64e25fe58f651ac2a8a18b1a6dbb604e", "name": "64e25fe58f651ac2a8a18b1a6dbb604e", "type": "electric_scooter", "lon": -77.02022816666667, "rental_uris": {"android": "https://dc.lft.to/lastmile_qr_scan", "ios": "https://dc.lft.to/lastmile_qr_scan"}, "lat": 38.913052, "is_reserved": 0, "is_disabled": 0, "fusion_lat": 0.0}, {"fusion_lon": 0.0, "bike_id": "5c5b759d74291c8d8f8a8a4810bfaa29", "name": "5c5b759d74291c8d8f8a8a4810bfaa29", "type": "electric_scooter", "lon": -77.0178525, "rental_uris": {"android": "https://dc.lft.to/lastmile_qr_scan", "ios": "https://dc.lft.to/lastmile_qr_scan"}, "lat": 38.92101133333333, "is_reserved": 0, "is_disabled": 0, "fusion_lat": 0.0}, {"fusion_lon": 0.0, "bike_id": "2aadf6d23feb7d9476f0b340760d3d6b", "name": "2aadf6d23feb7d9476f0b340760d3d6b", "type": "electric_scooter", "lon": -77.02712533333333, "rental_uris": {"android": "https://dc.lft.to/lastmile_qr_scan", "ios": "https://dc.lft.to/lastmile_qr_scan"}, "lat": 38.91961333333333, "is_reserved": 0, "is_disabled": 0, "fusion_lat": 0.0}, {"fusion_lon": 0.0, "bike_id": "de2900a4033fd95f7efb85e5aa32299f", "name": "de2900a4033fd95f7efb85e5aa32299f", "type": "electric_bike", "lon": -77.12736033333333, "rental_uris": {"android": "https://dc.lft.to/lastmile_qr_scan", "ios": "https://dc.lft.to/lastmile_qr_scan"}, "lat": 38.895632166666665, "is_reserved": 0, "is_disabled": 0, "fusion_lat": 0.0}, {"fusion_lon": 0.0, "bike_id": "cbb4d1abfc57808292677b01496a4359", "name": "cbb4d1abfc57808292677b01496a4359", "type": "electric_scooter", "lon": -77.03179466666667, "rental_uris": {"android": "https://dc.lft.to/lastmile_qr_scan", "ios": "https://dc.lft.to/lastmile_qr_scan"}, "lat": 38.89172216666667, "is_reserved": 0, "is_disabled": 0, "fusion_lat": 0.0}, {"fusion_lon": 0.0, "bike_id": "4644c9a74956834761025875547b7a6c", "name": "4644c9a74956834761025875547b7a6c", "type": "electric_scooter", "lon": -77.03831866666667, "rental_uris": {"android": "https://dc.lft.to/lastmile_qr_scan", "ios": "https://dc.lft.to/lastmile_qr_scan"}, "lat": 38.91564733333333, "is_reserved": 0, "is_disabled": 0, "fusion_lat": 0.0}, {"fusion_lon": 0.0, "bike_id": "15dfa34916361ba4d90bd9de8520e5c7", "name": "15dfa34916361ba4d90bd9de8520e5c7", "type": "electric_scooter", "lon": -77.024916, "rental_uris": {"android": "https://dc.lft.to/lastmile_qr_scan", "ios": "https://dc.lft.to/lastmile_qr_scan"}, "lat": 38.920639, "is_reserved": 0, "is_disabled": 0, "fusion_lat": 0.0}, {"fusion_lon": 0.0, "bike_id": "b2b6caf5ff731bfbe07e8a5fe4ac58fb", "name": "b2b6caf5ff731bfbe07e8a5fe4ac58fb", "type": "electric_scooter", "lon": -77.0500095, "rental_uris": {"android": "https://dc.lft.to/lastmile_qr_scan", "ios": "https://dc.lft.to/lastmile_qr_scan"}, "lat": 38.901498833333335, "is_reserved": 0, "is_disabled": 0, "fusion_lat": 0.0}, {"fusion_lon": 0.0, "bike_id": "f717ed03d4d15956783dad0f2025e798", "name": "f717ed03d4d15956783dad0f2025e798", "type": "electric_scooter", "lon": -77.004452, "rental_uris": {"android": "https://dc.lft.to/lastmile_qr_scan", "ios": "https://dc.lft.to/lastmile_qr_scan"}, "lat": 38.91347733333333, "is_reserved": 0, "is_disabled": 0, "fusion_lat": 0.0}, {"fusion_lon": 0.0, "bike_id": "734aee4726fe5839483874fb3e81f8e6", "name": "734aee4726fe5839483874fb3e81f8e6", "type": "electric_scooter", "lon": -77.043971, "rental_uris": {"android": "https://dc.lft.to/lastmile_qr_scan", "ios": "https://dc.lft.to/lastmile_qr_scan"}, "lat": 38.920207166666664, "is_reserved": 0, "is_disabled": 0, "fusion_lat": 0.0}, {"fusion_lon": 0.0, "bike_id": "c61eab6e76777e8d3e5ab677b58d995b", "name": "c61eab6e76777e8d3e5ab677b58d995b", "type": "electric_scooter", "lon": -77.02597966666667, "rental_uris": {"android": "https://dc.lft.to/lastmile_qr_scan", "ios": "https://dc.lft.to/lastmile_qr_scan"}, "lat": 38.927935, "is_reserved": 0, "is_disabled": 0, "fusion_lat": 0.0}, {"fusion_lon": 0.0, "bike_id": "cb42deeb5f2d862118bd3f3e9173c89a", "name": "cb42deeb5f2d862118bd3f3e9173c89a", "type": "electric_scooter", "lon": -77.01579983333333, "rental_uris": {"android": "https://dc.lft.to/lastmile_qr_scan", "ios": "https://dc.lft.to/lastmile_qr_scan"}, "lat": 38.876820333333335, "is_reserved": 0, "is_disabled": 0, "fusion_lat": 0.0}, {"fusion_lon": 0.0, "bike_id": "7aaccf8c9a4e6f726d463448c94c178e", "name": "7aaccf8c9a4e6f726d463448c94c178e", "type": "electric_scooter", "lon": -77.0434915, "rental_uris": {"android": "https://dc.lft.to/lastmile_qr_scan", "ios": "https://dc.lft.to/lastmile_qr_scan"}, "lat": 38.89834483333333, "is_reserved": 0, "is_disabled": 0, "fusion_lat": 0.0}, {"fusion_lon": 0.0, "bike_id": "edb59e95001604d81b89fab3f00ef76d", "name": "edb59e95001604d81b89fab3f00ef76d", "type": "electric_scooter", "lon": -77.029788, "rental_uris": {"android": "https://dc.lft.to/lastmile_qr_scan", "ios": "https://dc.lft.to/lastmile_qr_scan"}, "lat": 38.916267833333336, "is_reserved": 0, "is_disabled": 0, "fusion_lat": 0.0}, {"fusion_lon": 0.0, "bike_id": "9f759d1f47b9b6c44cbb52619079f841", "name": "9f759d1f47b9b6c44cbb52619079f841", "type": "electric_scooter", "lon": -77.04248333333334, "rental_uris": {"android": "https://dc.lft.to/lastmile_qr_scan", "ios": "https://dc.lft.to/lastmile_qr_scan"}, "lat": 38.91780716666667, "is_reserved": 0, "is_disabled": 0, "fusion_lat": 0.0}, {"fusion_lon": 0.0, "bike_id": "fdc20de61ec15f65b3d14e6b73a270c2", "name": "fdc20de61ec15f65b3d14e6b73a270c2", "type": "electric_scooter", "lon": -77.02846766666667, "rental_uris": {"android": "https://dc.lft.to/lastmile_qr_scan", "ios": "https://dc.lft.to/lastmile_qr_scan"}, "lat": 38.93262283333333, "is_reserved": 0, "is_disabled": 0, "fusion_lat": 0.0}, {"fusion_lon": 0.0, "bike_id": "c020a83f7fe0e0f49b2e726e714c41bf", "name": "c020a83f7fe0e0f49b2e726e714c41bf", "type": "electric_scooter", "lon": -77.06579383333333, "rental_uris": {"android": "https://dc.lft.to/lastmile_qr_scan", "ios": "https://dc.lft.to/lastmile_qr_scan"}, "lat": 38.90351166666667, "is_reserved": 0, "is_disabled": 0, "fusion_lat": 0.0}, {"fusion_lon": 0.0, "bike_id": "87e1b6c984178f53d254f1423bf938cb", "name": "87e1b6c984178f53d254f1423bf938cb", "type": "electric_bike", "lon": -77.105055, "rental_uris": {"android": "https://dc.lft.to/lastmile_qr_scan", "ios": "https://dc.lft.to/lastmile_qr_scan"}, "lat": 38.92844016666667, "is_reserved": 0, "is_disabled": 0, "fusion_lat": 0.0}, {"fusion_lon": 0.0, "bike_id": "4e723ade6cc8add05698140b716d471c", "name": "4e723ade6cc8add05698140b716d471c", "type": "electric_scooter", "lon": -77.0294535, "rental_uris": {"android": "https://dc.lft.to/lastmile_qr_scan", "ios": "https://dc.lft.to/lastmile_qr_scan"}, "lat": 38.90711066666667, "is_reserved": 0, "is_disabled": 0, "fusion_lat": 0.0}, {"fusion_lon": 0.0, "bike_id": "8537b55d379c412e09d05f5a7bb8495c", "name": "8537b55d379c412e09d05f5a7bb8495c", "type": "electric_scooter", "lon": -77.0726975, "rental_uris": {"android": "https://dc.lft.to/lastmile_qr_scan", "ios": "https://dc.lft.to/lastmile_qr_scan"}, "lat": 38.913314166666666, "is_reserved": 0, "is_disabled": 0, "fusion_lat": 0.0}, {"fusion_lon": 0.0, "bike_id": "423a03edec3b73c3d05227fb4183968e", "name": "423a03edec3b73c3d05227fb4183968e", "type": "electric_scooter", "lon": -77.0231575, "rental_uris": {"android": "https://dc.lft.to/lastmile_qr_scan", "ios": "https://dc.lft.to/lastmile_qr_scan"}, "lat": 38.91814266666667, "is_reserved": 0, "is_disabled": 0, "fusion_lat": 0.0}, {"fusion_lon": 0.0, "bike_id": "d6037a786c8c8b06ba022e3cb8c86442", "name": "d6037a786c8c8b06ba022e3cb8c86442", "type": "electric_scooter", "lon": -76.95207983333333, "rental_uris": {"android": "https://dc.lft.to/lastmile_qr_scan", "ios": "https://dc.lft.to/lastmile_qr_scan"}, "lat": 38.892461833333336, "is_reserved": 0, "is_disabled": 0, "fusion_lat": 0.0}, {"fusion_lon": 0.0, "bike_id": "11f6abd55c07de3d259f3386f2b45904", "name": "11f6abd55c07de3d259f3386f2b45904", "type": "electric_scooter", "lon": -77.00715933333333, "rental_uris": {"android": "https://dc.lft.to/lastmile_qr_scan", "ios": "https://dc.lft.to/lastmile_qr_scan"}, "lat": 38.876801, "is_reserved": 0, "is_disabled": 0, "fusion_lat": 0.0}, {"fusion_lon": 0.0, "bike_id": "6507eac1a5ee843683b5585b5e68cbe5", "name": "6507eac1a5ee843683b5585b5e68cbe5", "type": "electric_bike", "lon": -77.09574683333334, "rental_uris": {"android": "https://dc.lft.to/lastmile_qr_scan", "ios": "https://dc.lft.to/lastmile_qr_scan"}, "lat": 38.837885, "is_reserved": 0, "is_disabled": 0, "fusion_lat": 0.0}, {"fusion_lon": 0.0, "bike_id": "9c415614d64dad2058770da6a01f7a8c", "name": "9c415614d64dad2058770da6a01f7a8c", "type": "electric_scooter", "lon": -77.0246995, "rental_uris": {"android": "https://dc.lft.to/lastmile_qr_scan", "ios": "https://dc.lft.to/lastmile_qr_scan"}, "lat": 38.919248333333336, "is_reserved": 0, "is_disabled": 0, "fusion_lat": 0.0}, {"fusion_lon": 0.0, "bike_id": "3ae866af449802d92944c21bca2aa651", "name": "3ae866af449802d92944c21bca2aa651", "type": "electric_scooter", "lon": -77.032004, "rental_uris": {"android": "https://dc.lft.to/lastmile_qr_scan", "ios": "https://dc.lft.to/lastmile_qr_scan"}, "lat": 38.916023, "is_reserved": 0, "is_disabled": 0, "fusion_lat": 0.0}, {"fusion_lon": 0.0, "bike_id": "9197eea68108f736bdcd3b305d7fb422", "name": "9197eea68108f736bdcd3b305d7fb422", "type": "electric_scooter", "lon": -77.01119233333333, "rental_uris": {"android": "https://dc.lft.to/lastmile_qr_scan", "ios": "https://dc.lft.to/lastmile_qr_scan"}, "lat": 38.92029933333333, "is_reserved": 0, "is_disabled": 0, "fusion_lat": 0.0}, {"fusion_lon": 0.0, "bike_id": "78e0c4850e741904520dc9f5d0dc5602", "name": "78e0c4850e741904520dc9f5d0dc5602", "type": "electric_scooter", "lon": -76.98333316666667, "rental_uris": {"android": "https://dc.lft.to/lastmile_qr_scan", "ios": "https://dc.lft.to/lastmile_qr_scan"}, "lat": 38.9074705, "is_reserved": 0, "is_disabled": 0, "fusion_lat": 0.0}, {"fusion_lon": 0.0, "bike_id": "07a1a74465e933ce457d426cef84b237", "name": "07a1a74465e933ce457d426cef84b237", "type": "electric_scooter", "lon": -77.04865433333333, "rental_uris": {"android": "https://dc.lft.to/lastmile_qr_scan", "ios": "https://dc.lft.to/lastmile_qr_scan"}, "lat": 38.89226466666667, "is_reserved": 0, "is_disabled": 0, "fusion_lat": 0.0}, {"fusion_lon": 0.0, "bike_id": "4d843e17f355f2da2ece9440f2e1c5b3", "name": "4d843e17f355f2da2ece9440f2e1c5b3", "type": "electric_scooter", "lon": -76.98700883333333, "rental_uris": {"android": "https://dc.lft.to/lastmile_qr_scan", "ios": "https://dc.lft.to/lastmile_qr_scan"}, "lat": 38.90706266666667, "is_reserved": 0, "is_disabled": 0, "fusion_lat": 0.0}, {"fusion_lon": 0.0, "bike_id": "6c0c8ac59af0302fca1810a71576836a", "name": "6c0c8ac59af0302fca1810a71576836a", "type": "electric_scooter", "lon": -77.00922683333333, "rental_uris": {"android": "https://dc.lft.to/lastmile_qr_scan", "ios": "https://dc.lft.to/lastmile_qr_scan"}, "lat": 38.91285033333333, "is_reserved": 0, "is_disabled": 0, "fusion_lat": 0.0}, {"fusion_lon": 0.0, "bike_id": "75dc12e8a4199b6ce209a6e13d351985", "name": "75dc12e8a4199b6ce209a6e13d351985", "type": "electric_scooter", "lon": -77.0196155, "rental_uris": {"android": "https://dc.lft.to/lastmile_qr_scan", "ios": "https://dc.lft.to/lastmile_qr_scan"}, "lat": 38.902536, "is_reserved": 0, "is_disabled": 0, "fusion_lat": 0.0}, {"fusion_lon": 0.0, "bike_id": "519abc8294e77888ace2a212713be138", "name": "519abc8294e77888ace2a212713be138", "type": "electric_scooter", "lon": -77.035725, "rental_uris": {"android": "https://dc.lft.to/lastmile_qr_scan", "ios": "https://dc.lft.to/lastmile_qr_scan"}, "lat": 38.88179783333333, "is_reserved": 0, "is_disabled": 0, "fusion_lat": 0.0}, {"fusion_lon": 0.0, "bike_id": "e7d05045f038fced35bba8415c5a51b9", "name": "e7d05045f038fced35bba8415c5a51b9", "type": "electric_scooter", "lon": -77.0388105, "rental_uris": {"android": "https://dc.lft.to/lastmile_qr_scan", "ios": "https://dc.lft.to/lastmile_qr_scan"}, "lat": 38.920223166666666, "is_reserved": 0, "is_disabled": 0, "fusion_lat": 0.0}, {"fusion_lon": 0.0, "bike_id": "9603ac026250e067a09dcf301a0f7530", "name": "9603ac026250e067a09dcf301a0f7530", "type": "electric_scooter", "lon": -77.04119083333333, "rental_uris": {"android": "https://dc.lft.to/lastmile_qr_scan", "ios": "https://dc.lft.to/lastmile_qr_scan"}, "lat": 38.910390166666666, "is_reserved": 0, "is_disabled": 0, "fusion_lat": 0.0}, {"fusion_lon": 0.0, "bike_id": "cf3d30277a58592e9481834214052b3a", "name": "cf3d30277a58592e9481834214052b3a", "type": "electric_scooter", "lon": -76.9766675, "rental_uris": {"android": "https://dc.lft.to/lastmile_qr_scan", "ios": "https://dc.lft.to/lastmile_qr_scan"}, "lat": 38.840533666666666, "is_reserved": 0, "is_disabled": 0, "fusion_lat": 0.0}, {"fusion_lon": 0.0, "bike_id": "1b648ec38758b52e784876c304b3a4e0", "name": "1b648ec38758b52e784876c304b3a4e0", "type": "electric_scooter", "lon": -77.02717316666667, "rental_uris": {"android": "https://dc.lft.to/lastmile_qr_scan", "ios": "https://dc.lft.to/lastmile_qr_scan"}, "lat": 38.90747416666667, "is_reserved": 0, "is_disabled": 0, "fusion_lat": 0.0}, {"fusion_lon": 0.0, "bike_id": "c29bb046584163e3a0b0b226f13c197c", "name": "c29bb046584163e3a0b0b226f13c197c", "type": "electric_scooter", "lon": -76.9727625, "rental_uris": {"android": "https://dc.lft.to/lastmile_qr_scan", "ios": "https://dc.lft.to/lastmile_qr_scan"}, "lat": 38.93080366666667, "is_reserved": 0, "is_disabled": 0, "fusion_lat": 0.0}, {"fusion_lon": 0.0, "bike_id": "4874cb8dd0f9dee03565e29e59036021", "name": "4874cb8dd0f9dee03565e29e59036021", "type": "electric_scooter", "lon": -77.01976583333334, "rental_uris": {"android": "https://dc.lft.to/lastmile_qr_scan", "ios": "https://dc.lft.to/lastmile_qr_scan"}, "lat": 38.884079666666665, "is_reserved": 0, "is_disabled": 0, "fusion_lat": 0.0}, {"fusion_lon": 0.0, "bike_id": "75209589ae3e3327f14057d06b86e9bd", "name": "75209589ae3e3327f14057d06b86e9bd", "type": "electric_scooter", "lon": -76.98418466666666, "rental_uris": {"android": "https://dc.lft.to/lastmile_qr_scan", "ios": "https://dc.lft.to/lastmile_qr_scan"}, "lat": 38.919927333333334, "is_reserved": 0, "is_disabled": 0, "fusion_lat": 0.0}, {"fusion_lon": 0.0, "bike_id": "b6f24310ea271e67501e081eba67ff3a", "name": "b6f24310ea271e67501e081eba67ff3a", "type": "electric_bike", "lon": -76.93227833333333, "rental_uris": {"android": "https://dc.lft.to/lastmile_qr_scan", "ios": "https://dc.lft.to/lastmile_qr_scan"}, "lat": 38.86594083333333, "is_reserved": 0, "is_disabled": 0, "fusion_lat": 0.0}, {"fusion_lon": 0.0, "bike_id": "3fcce92b42dae8d2589ab9cb603106c0", "name": "3fcce92b42dae8d2589ab9cb603106c0", "type": "electric_scooter", "lon": -77.03197, "rental_uris": {"android": "https://dc.lft.to/lastmile_qr_scan", "ios": "https://dc.lft.to/lastmile_qr_scan"}, "lat": 38.917737333333335, "is_reserved": 0, "is_disabled": 0, "fusion_lat": 0.0}, {"fusion_lon": 0.0, "bike_id": "6675d543fa02296d4af981325df5e4ec", "name": "6675d543fa02296d4af981325df5e4ec", "type": "electric_scooter", "lon": -77.02253133333333, "rental_uris": {"android": "https://dc.lft.to/lastmile_qr_scan", "ios": "https://dc.lft.to/lastmile_qr_scan"}, "lat": 38.965582, "is_reserved": 0, "is_disabled": 0, "fusion_lat": 0.0}, {"fusion_lon": 0.0, "bike_id": "240fe1413a51a64c4d415efb7d8458f3", "name": "240fe1413a51a64c4d415efb7d8458f3", "type": "electric_scooter", "lon": -77.01817516666667, "rental_uris": {"android": "https://dc.lft.to/lastmile_qr_scan", "ios": "https://dc.lft.to/lastmile_qr_scan"}, "lat": 38.92216633333334, "is_reserved": 0, "is_disabled": 0, "fusion_lat": 0.0}, {"fusion_lon": 0.0, "bike_id": "0f84fcbf68901ec3df7dc3cf47e0cd6a", "name": "0f84fcbf68901ec3df7dc3cf47e0cd6a", "type": "electric_scooter", "lon": -77.04171383333333, "rental_uris": {"android": "https://dc.lft.to/lastmile_qr_scan", "ios": "https://dc.lft.to/lastmile_qr_scan"}, "lat": 38.915769833333336, "is_reserved": 0, "is_disabled": 0, "fusion_lat": 0.0}, {"fusion_lon": 0.0, "bike_id": "4e79f78530f36eff2cc3bf8284e83e88", "name": "4e79f78530f36eff2cc3bf8284e83e88", "type": "electric_scooter", "lon": -76.98774933333334, "rental_uris": {"android": "https://dc.lft.to/lastmile_qr_scan", "ios": "https://dc.lft.to/lastmile_qr_scan"}, "lat": 38.91173416666667, "is_reserved": 0, "is_disabled": 0, "fusion_lat": 0.0}, {"fusion_lon": 0.0, "bike_id": "4345031ce9b14dd313266b5297b8d5e7", "name": "4345031ce9b14dd313266b5297b8d5e7", "type": "electric_scooter", "lon": -77.02598666666667, "rental_uris": {"android": "https://dc.lft.to/lastmile_qr_scan", "ios": "https://dc.lft.to/lastmile_qr_scan"}, "lat": 38.91634283333333, "is_reserved": 0, "is_disabled": 0, "fusion_lat": 0.0}, {"fusion_lon": 0.0, "bike_id": "803c1f862ad7458005745ca58168bb9f", "name": "803c1f862ad7458005745ca58168bb9f", "type": "electric_scooter", "lon": -77.03649683333333, "rental_uris": {"android": "https://dc.lft.to/lastmile_qr_scan", "ios": "https://dc.lft.to/lastmile_qr_scan"}, "lat": 38.90820083333333, "is_reserved": 0, "is_disabled": 0, "fusion_lat": 0.0}, {"fusion_lon": 0.0, "bike_id": "e04f42c34408319879640b0769d43ec9", "name": "e04f42c34408319879640b0769d43ec9", "type": "electric_scooter", "lon": -77.04720283333333, "rental_uris": {"android": "https://dc.lft.to/lastmile_qr_scan", "ios": "https://dc.lft.to/lastmile_qr_scan"}, "lat": 38.906029833333335, "is_reserved": 0, "is_disabled": 0, "fusion_lat": 0.0}, {"fusion_lon": 0.0, "bike_id": "9316110a1a545ee4ce78f888de17c04c", "name": "9316110a1a545ee4ce78f888de17c04c", "type": "electric_scooter", "lon": -77.02691033333333, "rental_uris": {"android": "https://dc.lft.to/lastmile_qr_scan", "ios": "https://dc.lft.to/lastmile_qr_scan"}, "lat": 38.90837966666667, "is_reserved": 0, "is_disabled": 0, "fusion_lat": 0.0}, {"fusion_lon": 0.0, "bike_id": "bcbfdc47f823fe21929a8d792f67d191", "name": "bcbfdc47f823fe21929a8d792f67d191", "type": "electric_scooter", "lon": -77.05131816666666, "rental_uris": {"android": "https://dc.lft.to/lastmile_qr_scan", "ios": "https://dc.lft.to/lastmile_qr_scan"}, "lat": 38.92365083333333, "is_reserved": 0, "is_disabled": 0, "fusion_lat": 0.0}, {"fusion_lon": 0.0, "bike_id": "877a2fe3785f1c1ebdd6184d092e1dfc", "name": "877a2fe3785f1c1ebdd6184d092e1dfc", "type": "electric_scooter", "lon": -76.94060733333333, "rental_uris": {"android": "https://dc.lft.to/lastmile_qr_scan", "ios": "https://dc.lft.to/lastmile_qr_scan"}, "lat": 38.89029416666666, "is_reserved": 0, "is_disabled": 0, "fusion_lat": 0.0}, {"fusion_lon": 0.0, "bike_id": "6e16ff2e453bec9ac66f511761df4eaa", "name": "6e16ff2e453bec9ac66f511761df4eaa", "type": "electric_bike", "lon": -77.125817, "rental_uris": {"android": "https://dc.lft.to/lastmile_qr_scan", "ios": "https://dc.lft.to/lastmile_qr_scan"}, "lat": 38.851439166666665, "is_reserved": 0, "is_disabled": 0, "fusion_lat": 0.0}, {"fusion_lon": 0.0, "bike_id": "c937f0d1415b42ced429e099e3f3f1aa", "name": "c937f0d1415b42ced429e099e3f3f1aa", "type": "electric_scooter", "lon": -77.02440883333334, "rental_uris": {"android": "https://dc.lft.to/lastmile_qr_scan", "ios": "https://dc.lft.to/lastmile_qr_scan"}, "lat": 38.9358965, "is_reserved": 0, "is_disabled": 0, "fusion_lat": 0.0}, {"fusion_lon": 0.0, "bike_id": "fba14e4c6c0205af8e559e61d1c254cc", "name": "fba14e4c6c0205af8e559e61d1c254cc", "type": "electric_scooter", "lon": -76.99692433333334, "rental_uris": {"android": "https://dc.lft.to/lastmile_qr_scan", "ios": "https://dc.lft.to/lastmile_qr_scan"}, "lat": 38.8842225, "is_reserved": 0, "is_disabled": 0, "fusion_lat": 0.0}, {"fusion_lon": 0.0, "bike_id": "924962680235eebc75f20b0e6d674158", "name": "924962680235eebc75f20b0e6d674158", "type": "electric_scooter", "lon": -77.035903, "rental_uris": {"android": "https://dc.lft.to/lastmile_qr_scan", "ios": "https://dc.lft.to/lastmile_qr_scan"}, "lat": 38.9068595, "is_reserved": 0, "is_disabled": 0, "fusion_lat": 0.0}, {"fusion_lon": 0.0, "bike_id": "c486618e5f6d9de3f5a2e48a95b5d78d", "name": "c486618e5f6d9de3f5a2e48a95b5d78d", "type": "electric_scooter", "lon": -77.04007966666667, "rental_uris": {"android": "https://dc.lft.to/lastmile_qr_scan", "ios": "https://dc.lft.to/lastmile_qr_scan"}, "lat": 38.9163085, "is_reserved": 0, "is_disabled": 0, "fusion_lat": 0.0}, {"fusion_lon": 0.0, "bike_id": "1ce687381075576f9c7327846692dad8", "name": "1ce687381075576f9c7327846692dad8", "type": "electric_scooter", "lon": -77.03439033333333, "rental_uris": {"android": "https://dc.lft.to/lastmile_qr_scan", "ios": "https://dc.lft.to/lastmile_qr_scan"}, "lat": 38.915852, "is_reserved": 0, "is_disabled": 0, "fusion_lat": 0.0}, {"fusion_lon": 0.0, "bike_id": "027946cbea3d6d6f8aedaff9425dfc43", "name": "027946cbea3d6d6f8aedaff9425dfc43", "type": "electric_scooter", "lon": -76.98468566666666, "rental_uris": {"android": "https://dc.lft.to/lastmile_qr_scan", "ios": "https://dc.lft.to/lastmile_qr_scan"}, "lat": 38.8935025, "is_reserved": 0, "is_disabled": 0, "fusion_lat": 0.0}, {"fusion_lon": 0.0, "bike_id": "6de33b65805486db7a2dcf46cac060e7", "name": "6de33b65805486db7a2dcf46cac060e7", "type": "electric_scooter", "lon": -76.97993133333334, "rental_uris": {"android": "https://dc.lft.to/lastmile_qr_scan", "ios": "https://dc.lft.to/lastmile_qr_scan"}, "lat": 38.888731166666666, "is_reserved": 0, "is_disabled": 0, "fusion_lat": 0.0}, {"fusion_lon": 0.0, "bike_id": "e93dd6481e53d87712c4819ad69fa05f", "name": "e93dd6481e53d87712c4819ad69fa05f", "type": "electric_scooter", "lon": -77.03612983333333, "rental_uris": {"android": "https://dc.lft.to/lastmile_qr_scan", "ios": "https://dc.lft.to/lastmile_qr_scan"}, "lat": 38.919124333333336, "is_reserved": 0, "is_disabled": 0, "fusion_lat": 0.0}, {"fusion_lon": 0.0, "bike_id": "e50f7b2d49c3e14a6ffb886c760c5638", "name": "e50f7b2d49c3e14a6ffb886c760c5638", "type": "electric_scooter", "lon": -77.04276416666667, "rental_uris": {"android": "https://dc.lft.to/lastmile_qr_scan", "ios": "https://dc.lft.to/lastmile_qr_scan"}, "lat": 38.91697766666667, "is_reserved": 0, "is_disabled": 0, "fusion_lat": 0.0}, {"fusion_lon": 0.0, "bike_id": "69f5c290b8e069d9022c4e4c62fedbc7", "name": "69f5c290b8e069d9022c4e4c62fedbc7", "type": "electric_scooter", "lon": -77.02235583333334, "rental_uris": {"android": "https://dc.lft.to/lastmile_qr_scan", "ios": "https://dc.lft.to/lastmile_qr_scan"}, "lat": 38.914138666666666, "is_reserved": 0, "is_disabled": 0, "fusion_lat": 0.0}, {"fusion_lon": 0.0, "bike_id": "c598403d3793b3490c474c555be363dc", "name": "c598403d3793b3490c474c555be363dc", "type": "electric_scooter", "lon": -77.03114733333334, "rental_uris": {"android": "https://dc.lft.to/lastmile_qr_scan", "ios": "https://dc.lft.to/lastmile_qr_scan"}, "lat": 38.90550783333333, "is_reserved": 0, "is_disabled": 0, "fusion_lat": 0.0}, {"fusion_lon": 0.0, "bike_id": "5fc6d95647b2cbbdc2b321d0cd47374b", "name": "5fc6d95647b2cbbdc2b321d0cd47374b", "type": "electric_scooter", "lon": -77.03968516666667, "rental_uris": {"android": "https://dc.lft.to/lastmile_qr_scan", "ios": "https://dc.lft.to/lastmile_qr_scan"}, "lat": 38.9198195, "is_reserved": 0, "is_disabled": 0, "fusion_lat": 0.0}, {"fusion_lon": 0.0, "bike_id": "d32acbed6bc3741c96e304843001d696", "name": "d32acbed6bc3741c96e304843001d696", "type": "electric_scooter", "lon": -77.07377283333334, "rental_uris": {"android": "https://dc.lft.to/lastmile_qr_scan", "ios": "https://dc.lft.to/lastmile_qr_scan"}, "lat": 38.933516833333336, "is_reserved": 0, "is_disabled": 0, "fusion_lat": 0.0}, {"fusion_lon": 0.0, "bike_id": "eff0e520fee54691bd674dc011e83a09", "name": "eff0e520fee54691bd674dc011e83a09", "type": "electric_scooter", "lon": -77.0592, "rental_uris": {"android": "https://dc.lft.to/lastmile_qr_scan", "ios": "https://dc.lft.to/lastmile_qr_scan"}, "lat": 38.900835, "is_reserved": 0, "is_disabled": 0, "fusion_lat": 0.0}, {"fusion_lon": 0.0, "bike_id": "75c6f7e8da535b575c95e21b6e539350", "name": "75c6f7e8da535b575c95e21b6e539350", "type": "electric_scooter", "lon": -76.99608933333333, "rental_uris": {"android": "https://dc.lft.to/lastmile_qr_scan", "ios": "https://dc.lft.to/lastmile_qr_scan"}, "lat": 38.90119266666667, "is_reserved": 0, "is_disabled": 0, "fusion_lat": 0.0}, {"fusion_lon": 0.0, "bike_id": "bb36c48a57eae8982259d8d58a12d3be", "name": "bb36c48a57eae8982259d8d58a12d3be", "type": "electric_scooter", "lon": -77.012181, "rental_uris": {"android": "https://dc.lft.to/lastmile_qr_scan", "ios": "https://dc.lft.to/lastmile_qr_scan"}, "lat": 38.91344816666667, "is_reserved": 0, "is_disabled": 0, "fusion_lat": 0.0}, {"fusion_lon": 0.0, "bike_id": "3ee02b902e9e2b37999eca373bc116d9", "name": "3ee02b902e9e2b37999eca373bc116d9", "type": "electric_scooter", "lon": -77.0363835, "rental_uris": {"android": "https://dc.lft.to/lastmile_qr_scan", "ios": "https://dc.lft.to/lastmile_qr_scan"}, "lat": 38.91842466666667, "is_reserved": 0, "is_disabled": 0, "fusion_lat": 0.0}, {"fusion_lon": 0.0, "bike_id": "1b2b0605350c2caf07326eb0c15cbebd", "name": "1b2b0605350c2caf07326eb0c15cbebd", "type": "electric_scooter", "lon": -77.046529, "rental_uris": {"android": "https://dc.lft.to/lastmile_qr_scan", "ios": "https://dc.lft.to/lastmile_qr_scan"}, "lat": 38.8934065, "is_reserved": 0, "is_disabled": 0, "fusion_lat": 0.0}, {"fusion_lon": 0.0, "bike_id": "cff624fdf18e796d5f250a5291b7d0a9", "name": "cff624fdf18e796d5f250a5291b7d0a9", "type": "electric_scooter", "lon": -77.0437365, "rental_uris": {"android": "https://dc.lft.to/lastmile_qr_scan", "ios": "https://dc.lft.to/lastmile_qr_scan"}, "lat": 38.925757, "is_reserved": 0, "is_disabled": 0, "fusion_lat": 0.0}, {"fusion_lon": 0.0, "bike_id": "9fcf78eac3eccafef0fd4649467931fd", "name": "9fcf78eac3eccafef0fd4649467931fd", "type": "electric_bike", "lon": -76.980925, "rental_uris": {"android": "https://dc.lft.to/lastmile_qr_scan", "ios": "https://dc.lft.to/lastmile_qr_scan"}, "lat": 38.95354366666667, "is_reserved": 0, "is_disabled": 0, "fusion_lat": 0.0}, {"fusion_lon": 0.0, "bike_id": "bf688a2e30d85e5aa4e9bc91cbc8da22", "name": "bf688a2e30d85e5aa4e9bc91cbc8da22", "type": "electric_scooter", "lon": -76.95755316666667, "rental_uris": {"android": "https://dc.lft.to/lastmile_qr_scan", "ios": "https://dc.lft.to/lastmile_qr_scan"}, "lat": 38.8843195, "is_reserved": 0, "is_disabled": 0, "fusion_lat": 0.0}, {"fusion_lon": 0.0, "bike_id": "faa475332b5b5a6cf87efd8e48622f8f", "name": "faa475332b5b5a6cf87efd8e48622f8f", "type": "electric_bike", "lon": -77.0120205, "rental_uris": {"android": "https://dc.lft.to/lastmile_qr_scan", "ios": "https://dc.lft.to/lastmile_qr_scan"}, "lat": 38.870929833333335, "is_reserved": 0, "is_disabled": 0, "fusion_lat": 0.0}, {"fusion_lon": 0.0, "bike_id": "22981582a77a326053f6df82695ff18a", "name": "22981582a77a326053f6df82695ff18a", "type": "electric_scooter", "lon": -77.011584, "rental_uris": {"android": "https://dc.lft.to/lastmile_qr_scan", "ios": "https://dc.lft.to/lastmile_qr_scan"}, "lat": 38.8719645, "is_reserved": 0, "is_disabled": 0, "fusion_lat": 0.0}, {"fusion_lon": 0.0, "bike_id": "85b22e7cf20962e3f815729ff30b6479", "name": "85b22e7cf20962e3f815729ff30b6479", "type": "electric_scooter", "lon": -77.0452195, "rental_uris": {"android": "https://dc.lft.to/lastmile_qr_scan", "ios": "https://dc.lft.to/lastmile_qr_scan"}, "lat": 38.918232, "is_reserved": 0, "is_disabled": 0, "fusion_lat": 0.0}, {"fusion_lon": 0.0, "bike_id": "0ae22d59ce5fa7cc63f4a2b72028ceac", "name": "0ae22d59ce5fa7cc63f4a2b72028ceac", "type": "electric_scooter", "lon": -77.02034, "rental_uris": {"android": "https://dc.lft.to/lastmile_qr_scan", "ios": "https://dc.lft.to/lastmile_qr_scan"}, "lat": 38.91105133333333, "is_reserved": 0, "is_disabled": 0, "fusion_lat": 0.0}, {"fusion_lon": 0.0, "bike_id": "812a480388e65d27efb14e42ce95fa6b", "name": "812a480388e65d27efb14e42ce95fa6b", "type": "electric_scooter", "lon": -76.987022, "rental_uris": {"android": "https://dc.lft.to/lastmile_qr_scan", "ios": "https://dc.lft.to/lastmile_qr_scan"}, "lat": 38.901268, "is_reserved": 0, "is_disabled": 0, "fusion_lat": 0.0}, {"fusion_lon": 0.0, "bike_id": "429bde3ce0ff7dda4fef18a6a9122ff3", "name": "429bde3ce0ff7dda4fef18a6a9122ff3", "type": "electric_scooter", "lon": -77.036368, "rental_uris": {"android": "https://dc.lft.to/lastmile_qr_scan", "ios": "https://dc.lft.to/lastmile_qr_scan"}, "lat": 38.92412383333333, "is_reserved": 0, "is_disabled": 0, "fusion_lat": 0.0}, {"fusion_lon": 0.0, "bike_id": "00691149abb2a185b344954c3a59a55d", "name": "00691149abb2a185b344954c3a59a55d", "type": "electric_bike", "lon": -76.9668215, "rental_uris": {"android": "https://dc.lft.to/lastmile_qr_scan", "ios": "https://dc.lft.to/lastmile_qr_scan"}, "lat": 38.95887366666667, "is_reserved": 0, "is_disabled": 0, "fusion_lat": 0.0},