{"data": {"bikes": [{"is_disabled": 0, "rental_uris": {"android": "https://dc.lft.to/lastmile_qr_scan", "ios": "https://dc.lft.to/lastmile_qr_scan"}, "is_reserved": 0, "name": "ce3069c11d5eceeb810a14bf71a59117", "lon": -77.02347016666667, "type": "electric_scooter", "bike_id": "ce3069c11d5eceeb810a14bf71a59117", "fusion_lon": 0.0, "lat": 38.91594416666667, "fusion_lat": 0.0}, {"is_disabled": 0, "rental_uris": {"android": "https://dc.lft.to/lastmile_qr_scan", "ios": "https://dc.lft.to/lastmile_qr_scan"}, "is_reserved": 0, "name": "0a104dbd6870d08d35d003a22398f83f", "lon": -77.01760716666666, "type": "electric_scooter", "bike_id": "0a104dbd6870d08d35d003a22398f83f", "fusion_lon": 0.0, "lat": 38.902653, "fusion_lat": 0.0}, {"is_disabled": 0, "rental_uris": {"android": "https://dc.lft.to/lastmile_qr_scan", "ios": "https://dc.lft.to/lastmile_qr_scan"}, "is_reserved": 0, "name": "185e0b82fc4c59813481ff26a9e96bd4", "lon": -76.94826266666666, "type": "electric_scooter", "bike_id": "185e0b82fc4c59813481ff26a9e96bd4", "fusion_lon": 0.0, "lat": 38.88513616666667, "fusion_lat": 0.0}, {"is_disabled": 0, "rental_uris": {"android": "https://dc.lft.to/lastmile_qr_scan", "ios": "https://dc.lft.to/lastmile_qr_scan"}, "is_reserved": 0, "name": "9ffe72e2ca48b78f477b7680698677e3", "lon": -77.10440183333333, "type": "electric_bike", "bike_id": "9ffe72e2ca48b78f477b7680698677e3", "fusion_lon": 0.0, "lat": 39.028634833333335, "fusion_lat": 0.0}, {"is_disabled": 0, "rental_uris": {"android": "https://dc.lft.to/lastmile_qr_scan", "ios": "https://dc.lft.to/lastmile_qr_scan"}, "is_reserved": 0, "name": "a6cd2ce06268b523bbf6e43ca00d475c", "lon": -77.01999283333333, "type": "electric_scooter", "bike_id": "a6cd2ce06268b523bbf6e43ca00d475c", "fusion_lon": 0.0, "lat": 38.915830666666665, "fusion_lat": 0.0}, {"is_disabled": 0, "rental_uris": {"android": "https://dc.lft.to/lastmile_qr_scan", "ios": "https://dc.lft.to/lastmile_qr_scan"}, "is_reserved": 0, "name": "89c12eeb2e1a8c5337f39d3208a883f7", "lon": -77.04565683333334, "type": "electric_scooter", "bike_id": "89c12eeb2e1a8c5337f39d3208a883f7", "fusion_lon": 0.0, "lat": 38.9178485, "fusion_lat": 0.0}, {"is_disabled": 0, "rental_uris": {"android": "https://dc.lft.to/lastmile_qr_scan", "ios": "https://dc.lft.to/lastmile_qr_scan"}, "is_reserved": 0, "name": "5959b218818459246a72ffe221bcf96d", "lon": -76.978787, "type": "electric_scooter", "bike_id": "5959b218818459246a72ffe221bcf96d", "fusion_lon": 0.0, "lat": 38.92732816666667, "fusion_lat": 0.0}, {"is_disabled": 0, "rental_uris": {"android": "https://dc.lft.to/lastmile_qr_scan", "ios": "https://dc.lft.to/lastmile_qr_scan"}, "is_reserved": 0, "name": "44eed5afcb165b08c68d093aa0d41dc8", "lon": -77.03303816666667, "type": "electric_scooter", "bike_id": "44eed5afcb165b08c68d093aa0d41dc8", "fusion_lon": 0.0, "lat": 38.89853933333333, "fusion_lat": 0.0}, {"is_disabled": 0, "rental_uris": {"android": "https://dc.lft.to/lastmile_qr_scan", "ios": "https://dc.lft.to/lastmile_qr_scan"}, "is_reserved": 0, "name": "b5d006d21d4abfb73e7230f11072db60", "lon": -77.01227633333333, "type": "electric_scooter", "bike_id": "b5d006d21d4abfb73e7230f11072db60", "fusion_lon": 0.0, "lat": 38.88584866666667, "fusion_lat": 0.0}, {"is_disabled": 0, "rental_uris": {"android": "https://dc.lft.to/lastmile_qr_scan", "ios": "https://dc.lft.to/lastmile_qr_scan"}, "is_reserved": 0, "name": "9bb5d0b293251f0caf45e997e3fb73a8", "lon": -77.02305666666666, "type": "electric_scooter", "bike_id": "9bb5d0b293251f0caf45e997e3fb73a8", "fusion_lon": 0.0, "lat": 38.91609283333333, "fusion_lat": 0.0}, {"is_disabled": 0, "rental_uris": {"android": "https://dc.lft.to/lastmile_qr_scan", "ios": "https://dc.lft.to/lastmile_qr_scan"}, "is_reserved": 0, "name": "581868322770db43cc9e64e2a7916e87", "lon": -76.97528683333333, "type": "electric_bike", "bike_id": "581868322770db43cc9e64e2a7916e87", "fusion_lon": 0.0, "lat": 38.903338, "fusion_lat": 0.0}, {"is_disabled": 0, "rental_uris": {"android": "https://dc.lft.to/lastmile_qr_scan", "ios": "https://dc.lft.to/lastmile_qr_scan"}, "is_reserved": 0, "name": "4e00317e2a31269884139bf89f283725", "lon": -77.05438566666666, "type": "electric_scooter", "bike_id": "4e00317e2a31269884139bf89f283725", "fusion_lon": 0.0, "lat": 38.896047833333334, "fusion_lat": 0.0}, {"is_disabled": 0, "rental_uris": {"android": "https://dc.lft.to/lastmile_qr_scan", "ios": "https://dc.lft.to/lastmile_qr_scan"}, "is_reserved": 0, "name": "b7cfeb2cf41a96af1ba306c1353b333b", "lon": -77.03620933333333, "type": "electric_scooter", "bike_id": "b7cfeb2cf41a96af1ba306c1353b333b", "fusion_lon": 0.0, "lat": 38.910397833333334, "fusion_lat": 0.0}, {"is_disabled": 0, "rental_uris": {"android": "https://dc.lft.to/lastmile_qr_scan", "ios": "https://dc.lft.to/lastmile_qr_scan"}, "is_reserved": 0, "name": "3d9cac565504b5c4179e08e2957e0142", "lon": -77.02103966666667, "type": "electric_bike", "bike_id": "3d9cac565504b5c4179e08e2957e0142", "fusion_lon": 0.0, "lat": 39.02298916666667, "fusion_lat": 0.0}, {"is_disabled": 0, "rental_uris": {"android": "https://dc.lft.to/lastmile_qr_scan", "ios": "https://dc.lft.to/lastmile_qr_scan"}, "is_reserved": 0, "name": "4c59accb5c5ec3be343e4108c73c358a", "lon": -77.12899816666666, "type": "electric_bike", "bike_id": "4c59accb5c5ec3be343e4108c73c358a", "fusion_lon": 0.0, "lat": 38.86377683333333, "fusion_lat": 0.0}, {"is_disabled": 0, "rental_uris": {"android": "https://dc.lft.to/lastmile_qr_scan", "ios": "https://dc.lft.to/lastmile_qr_scan"}, "is_reserved": 0, "name": "4cd192d6ca47989404778da2c425d6e3", "lon": -77.023319, "type": "electric_scooter", "bike_id": "4cd192d6ca47989404778da2c425d6e3", "fusion_lon": 0.0, "lat": 38.916608333333336, "fusion_lat": 0.0}, {"is_disabled": 0, "rental_uris": {"android": "https://dc.lft.to/lastmile_qr_scan", "ios": "https://dc.lft.to/lastmile_qr_scan"}, "is_reserved": 0, "name": "96045979691f8073e6b42721ca8e4b93", "lon": -77.043329, "type": "electric_scooter", "bike_id": "96045979691f8073e6b42721ca8e4b93", "fusion_lon": 0.0, "lat": 38.90331283333333, "fusion_lat": 0.0}, {"is_disabled": 0, "rental_uris": {"android": "https://dc.lft.to/lastmile_qr_scan", "ios": "https://dc.lft.to/lastmile_qr_scan"}, "is_reserved": 0, "name": "de0ba3fc97ce5ba41daa5357253ad0ee", "lon": -77.03161433333334, "type": "electric_scooter", "bike_id": "de0ba3fc97ce5ba41daa5357253ad0ee", "fusion_lon": 0.0, "lat": 38.92793366666667, "fusion_lat": 0.0}, {"is_disabled": 0, "rental_uris": {"android": "https://dc.lft.to/lastmile_qr_scan", "ios": "https://dc.lft.to/lastmile_qr_scan"}, "is_reserved": 0, "name": "accebccc0afb8f86a240ff4589c44f5e", "lon": -77.0091585, "type": "electric_scooter", "bike_id": "accebccc0afb8f86a240ff4589c44f5e", "fusion_lon": 0.0, "lat": 38.959537833333336, "fusion_lat": 0.0}, {"is_disabled": 0, "rental_uris": {"android": "https://dc.lft.to/lastmile_qr_scan", "ios": "https://dc.lft.to/lastmile_qr_scan"}, "is_reserved": 0, "name": "537096bcd6c4d4cfa6fe23c07f61c5a3", "lon": -77.027238, "type": "electric_scooter", "bike_id": "537096bcd6c4d4cfa6fe23c07f61c5a3", "fusion_lon": 0.0, "lat": 38.94088133333333, "fusion_lat": 0.0}, {"is_disabled": 0, "rental_uris": {"android": "https://dc.lft.to/lastmile_qr_scan", "ios": "https://dc.lft.to/lastmile_qr_scan"}, "is_reserved": 0, "name": "f65296eedc8ea45e6c77a6f8b38f5819", "lon": -77.04509566666667, "type": "electric_scooter", "bike_id": "f65296eedc8ea45e6c77a6f8b38f5819", "fusion_lon": 0.0, "lat": 38.907857, "fusion_lat": 0.0}, {"is_disabled": 0, "rental_uris": {"android": "https://dc.lft.to/lastmile_qr_scan", "ios": "https://dc.lft.to/lastmile_qr_scan"}, "is_reserved": 0, "name": "a641c0a1d38c86c702129076b896ee0a", "lon": -77.06321133333333, "type": "electric_scooter", "bike_id": "a641c0a1d38c86c702129076b896ee0a", "fusion_lon": 0.0, "lat": 38.9051475, "fusion_lat": 0.0}, {"is_disabled": 0, "rental_uris": {"android": "https://dc.lft.to/lastmile_qr_scan", "ios": "https://dc.lft.to/lastmile_qr_scan"}, "is_reserved": 0, "name": "427accbc37f730924f660e428d8170fd", "lon": -76.937758, "type": "electric_scooter", "bike_id": "427accbc37f730924f660e428d8170fd", "fusion_lon": 0.0, "lat": 38.899699166666664, "fusion_lat": 0.0}, {"is_disabled": 0, "rental_uris": {"android": "https://dc.lft.to/lastmile_qr_scan", "ios": "https://dc.lft.to/lastmile_qr_scan"}, "is_reserved": 0, "name": "fbd4800540368753bc811c531ffa220b", "lon": -77.03468833333334, "type": "electric_scooter", "bike_id": "fbd4800540368753bc811c531ffa220b", "fusion_lon": 0.0, "lat": 38.9215335, "fusion_lat": 0.0}, {"is_disabled": 0, "rental_uris": {"android": "https://dc.lft.to/lastmile_qr_scan", "ios": "https://dc.lft.to/lastmile_qr_scan"}, "is_reserved": 0, "name": "54d206209cb64777f87427714a402469", "lon": -76.999059, "type": "electric_scooter", "bike_id": "54d206209cb64777f87427714a402469", "fusion_lon": 0.0, "lat": 38.90033866666667, "fusion_lat": 0.0}, {"is_disabled": 0, "rental_uris": {"android": "https://dc.lft.to/lastmile_qr_scan", "ios": "https://dc.lft.to/lastmile_qr_scan"}, "is_reserved": 0, "name": "aa8c17aaf07577a0860c79a49afa7f0a", "lon": -76.98366083333333, "type": "electric_scooter", "bike_id": "aa8c17aaf07577a0860c79a49afa7f0a", "fusion_lon": 0.0, "lat": 38.9149915, "fusion_lat": 0.0}, {"is_disabled": 0, "rental_uris": {"android": "https://dc.lft.to/lastmile_qr_scan", "ios": "https://dc.lft.to/lastmile_qr_scan"}, "is_reserved": 0, "name": "c82aacc89381d8f8a834b43191f5ce25", "lon": -77.04668366666667, "type": "electric_scooter", "bike_id": "c82aacc89381d8f8a834b43191f5ce25", "fusion_lon": 0.0, "lat": 38.9048275, "fusion_lat": 0.0}, {"is_disabled": 0, "rental_uris": {"android": "https://dc.lft.to/lastmile_qr_scan", "ios": "https://dc.lft.to/lastmile_qr_scan"}, "is_reserved": 0, "name": "6508f4523774f3bd17f48dc887d85f70", "lon": -76.96089583333334, "type": "electric_bike", "bike_id": "6508f4523774f3bd17f48dc887d85f70", "fusion_lon": 0.0, "lat": 38.9185375, "fusion_lat": 0.0}, {"is_disabled": 0, "rental_uris": {"android": "https://dc.lft.to/lastmile_qr_scan", "ios": "https://dc.lft.to/lastmile_qr_scan"}, "is_reserved": 0, "name": "090a9972c24a4985d2ecd8ecc68e98cf", "lon": -77.0033675, "type": "electric_scooter", "bike_id": "090a9972c24a4985d2ecd8ecc68e98cf", "fusion_lon": 0.0, "lat": 38.904534, "fusion_lat": 0.0}, {"is_disabled": 0, "rental_uris": {"android": "https://dc.lft.to/lastmile_qr_scan", "ios": "https://dc.lft.to/lastmile_qr_scan"}, "is_reserved": 0, "name": "17408db6cb86d9299422c6ed5dafd339", "lon": -77.03994966666667, "type": "electric_scooter", "bike_id": "17408db6cb86d9299422c6ed5dafd339", "fusion_lon": 0.0, "lat": 38.895451666666666, "fusion_lat": 0.0}, {"is_disabled": 0, "rental_uris": {"android": "https://dc.lft.to/lastmile_qr_scan", "ios": "https://dc.lft.to/lastmile_qr_scan"}, "is_reserved": 0, "name": "44d2d87f38c4d31d4f3dade36e3f8590", "lon": -77.04009, "type": "electric_scooter", "bike_id": "44d2d87f38c4d31d4f3dade36e3f8590", "fusion_lon": 0.0, "lat": 38.9208805, "fusion_lat": 0.0}, {"is_disabled": 0, "rental_uris": {"android": "https://dc.lft.to/lastmile_qr_scan", "ios": "https://dc.lft.to/lastmile_qr_scan"}, "is_reserved": 0, "name": "3380ac723cbd50d191cd1886a520bad3", "lon": -77.03660183333334, "type": "electric_scooter", "bike_id": "3380ac723cbd50d191cd1886a520bad3", "fusion_lon": 0.0, "lat": 38.92260916666667, "fusion_lat": 0.0}, {"is_disabled": 0, "rental_uris": {"android": "https://dc.lft.to/lastmile_qr_scan", "ios": "https://dc.lft.to/lastmile_qr_scan"}, "is_reserved": 0, "name": "c54899294b7159b317c8df730c3f1a57", "lon": -76.95210266666666, "type": "electric_scooter", "bike_id": "c54899294b7159b317c8df730c3f1a57", "fusion_lon": 0.0, "lat": 38.892496333333334, "fusion_lat": 0.0}, {"is_disabled": 0, "rental_uris": {"android": "https://dc.lft.to/lastmile_qr_scan", "ios": "https://dc.lft.to/lastmile_qr_scan"}, "is_reserved": 0, "name": "24cfd66c2083b61109f073dc2fcfc913", "lon": -77.0790105, "type": "electric_bike", "bike_id": "24cfd66c2083b61109f073dc2fcfc913", "fusion_lon": 0.0, "lat": 38.839354666666665, "fusion_lat": 0.0}, {"is_disabled": 0, "rental_uris": {"android": "https://dc.lft.to/lastmile_qr_scan", "ios": "https://dc.lft.to/lastmile_qr_scan"}, "is_reserved": 0, "name": "3d3194a39a26a14c0aee006bbe89f74c", "lon": -77.04334, "type": "electric_scooter", "bike_id": "3d3194a39a26a14c0aee006bbe89f74c", "fusion_lon": 0.0, "lat": 38.898238, "fusion_lat": 0.0}, {"is_disabled": 0, "rental_uris": {"android": "https://dc.lft.to/lastmile_qr_scan", "ios": "https://dc.lft.to/lastmile_qr_scan"}, "is_reserved": 0, "name": "a0d3ae7c8fbb8aced5ed9e7731ec5d24", "lon": -77.05136016666667, "type": "electric_scooter", "bike_id": "a0d3ae7c8fbb8aced5ed9e7731ec5d24", "fusion_lon": 0.0, "lat": 38.905731333333335, "fusion_lat": 0.0}, {"is_disabled": 0, "rental_uris": {"android": "https://dc.lft.to/lastmile_qr_scan", "ios": "https://dc.lft.to/lastmile_qr_scan"}, "is_reserved": 0, "name": "0f7021e9c282d76fed946c0506563103", "lon": -77.02083383333333, "type": "electric_scooter", "bike_id": "0f7021e9c282d76fed946c0506563103", "fusion_lon": 0.0, "lat": 38.930114333333336, "fusion_lat": 0.0}, {"is_disabled": 0, "rental_uris": {"android": "https://dc.lft.to/lastmile_qr_scan", "ios": "https://dc.lft.to/lastmile_qr_scan"}, "is_reserved": 0, "name": "4237b92009a95365ec040c4394f838b8", "lon": -76.97169833333334, "type": "electric_bike", "bike_id": "4237b92009a95365ec040c4394f838b8", "fusion_lon": 0.0, "lat": 38.976775833333335, "fusion_lat": 0.0}, {"is_disabled": 0, "rental_uris": {"android": "https://dc.lft.to/lastmile_qr_scan", "ios": "https://dc.lft.to/lastmile_qr_scan"}, "is_reserved": 0, "name": "025f0985bff83cd6ed92bd319eedd475", "lon": -77.05422183333333, "type": "electric_scooter", "bike_id": "025f0985bff83cd6ed92bd319eedd475", "fusion_lon": 0.0, "lat": 38.89919783333333, "fusion_lat": 0.0}, {"is_disabled": 0, "rental_uris": {"android": "https://dc.lft.to/lastmile_qr_scan", "ios": "https://dc.lft.to/lastmile_qr_scan"}, "is_reserved": 0, "name": "6d78ad06af25ae5b09c3c7743964cc07", "lon": -77.0019225, "type": "electric_scooter", "bike_id": "6d78ad06af25ae5b09c3c7743964cc07", "fusion_lon": 0.0, "lat": 38.900698166666665, "fusion_lat": 0.0}, {"is_disabled": 0, "rental_uris": {"android": "https://dc.lft.to/lastmile_qr_scan", "ios": "https://dc.lft.to/lastmile_qr_scan"}, "is_reserved": 0, "name": "1dc97435f286f3ee111caa2d4f97458e", "lon": -77.01086983333333, "type": "electric_scooter", "bike_id": "1dc97435f286f3ee111caa2d4f97458e", "fusion_lon": 0.0, "lat": 38.91813533333333, "fusion_lat": 0.0}, {"is_disabled": 0, "rental_uris": {"android": "https://dc.lft.to/lastmile_qr_scan", "ios": "https://dc.lft.to/lastmile_qr_scan"}, "is_reserved": 0, "name": "4ee361e74cfed5ba902cd4dd6e72f38a", "lon": -77.014056, "type": "electric_scooter", "bike_id": "4ee361e74cfed5ba902cd4dd6e72f38a", "fusion_lon": 0.0, "lat": 38.9280175, "fusion_lat": 0.0}, {"is_disabled": 0, "rental_uris": {"android": "https://dc.lft.to/lastmile_qr_scan", "ios": "https://dc.lft.to/lastmile_qr_scan"}, "is_reserved": 0, "name": "c13a37290911cda0b4d44b2fd9655377", "lon": -76.88911233333333, "type": "electric_bike", "bike_id": "c13a37290911cda0b4d44b2fd9655377", "fusion_lon": 0.0, "lat": 38.9259305, "fusion_lat": 0.0}, {"is_disabled": 0, "rental_uris": {"android": "https://dc.lft.to/lastmile_qr_scan", "ios": "https://dc.lft.to/lastmile_qr_scan"}, "is_reserved": 0, "name": "31b32f9119c846386dcf48618cad9bc3", "lon": -76.95222933333334, "type": "electric_bike", "bike_id": "31b32f9119c846386dcf48618cad9bc3", "fusion_lon": 0.0, "lat": 38.892382, "fusion_lat": 0.0}, {"is_disabled": 0, "rental_uris": {"android": "https://dc.lft.to/lastmile_qr_scan", "ios": "https://dc.lft.to/lastmile_qr_scan"}, "is_reserved": 0, "name": "51c393a0d4e521317845d743ba752f16", "lon": -77.02366366666666, "type": "electric_scooter", "bike_id": "51c393a0d4e521317845d743ba752f16", "fusion_lon": 0.0, "lat": 38.917905, "fusion_lat": 0.0}, {"is_disabled": 0, "rental_uris": {"android": "https://dc.lft.to/lastmile_qr_scan", "ios": "https://dc.lft.to/lastmile_qr_scan"}, "is_reserved": 0, "name": "822f77577527a7c6ed111f27078ef353", "lon": -77.009247, "type": "electric_scooter", "bike_id": "822f77577527a7c6ed111f27078ef353", "fusion_lon": 0.0, "lat": 38.89607566666667, "fusion_lat": 0.0}, {"is_disabled": 0, "rental_uris": {"android": "https://dc.lft.to/lastmile_qr_scan", "ios": "https://dc.lft.to/lastmile_qr_scan"}, "is_reserved": 0, "name": "931ea7b135c65a7bd7a7b4b81681a561", "lon": -77.038735, "type": "electric_scooter", "bike_id": "931ea7b135c65a7bd7a7b4b81681a561", "fusion_lon": 0.0, "lat": 38.903714, "fusion_lat": 0.0}, {"is_disabled": 0, "rental_uris": {"android": "https://dc.lft.to/lastmile_qr_scan", "ios": "https://dc.lft.to/lastmile_qr_scan"}, "is_reserved": 0, "name": "41816ce5338ba1ef8c4a0d392ce5db50", "lon": -76.874953, "type": "electric_bike", "bike_id": "41816ce5338ba1ef8c4a0d392ce5db50", "fusion_lon": 0.0, "lat": 38.9909105, "fusion_lat": 0.0}, {"is_disabled": 0, "rental_uris": {"android": "https://dc.lft.to/lastmile_qr_scan", "ios": "https://dc.lft.to/lastmile_qr_scan"}, "is_reserved": 0, "name": "0db0664edd850fd6a3556ea83ea07ae1", "lon": -77.024901, "type": "electric_scooter", "bike_id": "0db0664edd850fd6a3556ea83ea07ae1", "fusion_lon": 0.0, "lat": 38.903979, "fusion_lat": 0.0}, {"is_disabled": 0, "rental_uris": {"android": "https://dc.lft.to/lastmile_qr_scan", "ios": "https://dc.lft.to/lastmile_qr_scan"}, "is_reserved": 0, "name": "946fa2eff01094bd7ca59d3e33f54608", "lon": -77.03514883333334, "type": "electric_scooter", "bike_id": "946fa2eff01094bd7ca59d3e33f54608", "fusion_lon": 0.0, "lat": 38.921308333333336, "fusion_lat": 0.0}, {"is_disabled": 0, "rental_uris": {"android": "https://dc.lft.to/lastmile_qr_scan", "ios": "https://dc.lft.to/lastmile_qr_scan"}, "is_reserved": 0, "name": "8863773353442c5f65d538b55990b7c7", "lon": -77.03869083333333, "type": "electric_scooter", "bike_id": "8863773353442c5f65d538b55990b7c7", "fusion_lon": 0.0, "lat": 38.9215065, "fusion_lat": 0.0}, {"is_disabled": 0, "rental_uris": {"android": "https://dc.lft.to/lastmile_qr_scan", "ios": "https://dc.lft.to/lastmile_qr_scan"}, "is_reserved": 0, "name": "7da4efef44cbce489bfd752840fba0d3", "lon": -77.0140295, "type": "electric_scooter", "bike_id": "7da4efef44cbce489bfd752840fba0d3", "fusion_lon": 0.0, "lat": 38.92815866666667, "fusion_lat": 0.0}, {"is_disabled": 0, "rental_uris": {"android": "https://dc.lft.to/lastmile_qr_scan", "ios": "https://dc.lft.to/lastmile_qr_scan"}, "is_reserved": 0, "name": "38b5784635438327676e80f7d9df5648", "lon": -77.03210283333334, "type": "electric_scooter", "bike_id": "38b5784635438327676e80f7d9df5648", "fusion_lon": 0.0, "lat": 38.91824783333333, "fusion_lat": 0.0}, {"is_disabled": 0, "rental_uris": {"android": "https://dc.lft.to/lastmile_qr_scan", "ios": "https://dc.lft.to/lastmile_qr_scan"}, "is_reserved": 0, "name": "1ee1596d2d988ee08b3073b29e60b570", "lon": -77.05509783333333, "type": "electric_scooter", "bike_id": "1ee1596d2d988ee08b3073b29e60b570", "fusion_lon": 0.0, "lat": 38.92980516666667, "fusion_lat": 0.0}, {"is_disabled": 0, "rental_uris": {"android": "https://dc.lft.to/lastmile_qr_scan", "ios": "https://dc.lft.to/lastmile_qr_scan"}, "is_reserved": 0, "name": "bb62b7e348c007059ba206d5b6073e0f", "lon": -77.04900716666667, "type": "electric_bike", "bike_id": "bb62b7e348c007059ba206d5b6073e0f", "fusion_lon": 0.0, "lat": 38.87497066666667, "fusion_lat": 0.0}, {"is_disabled": 0, "rental_uris": {"android": "https://dc.lft.to/lastmile_qr_scan", "ios": "https://dc.lft.to/lastmile_qr_scan"}, "is_reserved": 0, "name": "c1dae2c549c0e55be71488b99aed6351", "lon": -77.01285783333333, "type": "electric_bike", "bike_id": "c1dae2c549c0e55be71488b99aed6351", "fusion_lon": 0.0, "lat": 38.951565333333335, "fusion_lat": 0.0}, {"is_disabled": 0, "rental_uris": {"android": "https://dc.lft.to/lastmile_qr_scan", "ios": "https://dc.lft.to/lastmile_qr_scan"}, "is_reserved": 0, "name": "8c41432403c70df85bbb190e51ad2345", "lon": -77.0281155, "type": "electric_scooter", "bike_id": "8c41432403c70df85bbb190e51ad2345", "fusion_lon": 0.0, "lat": 38.90461716666667, "fusion_lat": 0.0}, {"is_disabled": 0, "rental_uris": {"android": "https://dc.lft.to/lastmile_qr_scan", "ios": "https://dc.lft.to/lastmile_qr_scan"}, "is_reserved": 0, "name": "8ab260e80b276185112995a82d5636a2", "lon": -77.03822333333333, "type": "electric_scooter", "bike_id": "8ab260e80b276185112995a82d5636a2", "fusion_lon": 0.0, "lat": 38.9149035, "fusion_lat": 0.0}, {"is_disabled": 0, "rental_uris": {"android": "https://dc.lft.to/lastmile_qr_scan", "ios": "https://dc.lft.to/lastmile_qr_scan"}, "is_reserved": 0, "name": "f05a2cb806ee8e704c7de91d1ecc2780", "lon": -77.02155033333334, "type": "electric_scooter", "bike_id": "f05a2cb806ee8e704c7de91d1ecc2780", "fusion_lon": 0.0, "lat": 38.92605533333333, "fusion_lat": 0.0}, {"is_disabled": 0, "rental_uris": {"android": "https://dc.lft.to/lastmile_qr_scan", "ios": "https://dc.lft.to/lastmile_qr_scan"}, "is_reserved": 0, "name": "96faa615297d05bd0f5b077c35715e91", "lon": -77.02806066666666, "type": "electric_scooter", "bike_id": "96faa615297d05bd0f5b077c35715e91", "fusion_lon": 0.0, "lat": 38.962165166666665, "fusion_lat": 0.0}, {"is_disabled": 0, "rental_uris": {"android": "https://dc.lft.to/lastmile_qr_scan", "ios": "https://dc.lft.to/lastmile_qr_scan"}, "is_reserved": 0, "name": "bcf535efe090d44650d4f9a3f2bcca33", "lon": -77.00522933333333, "type": "electric_scooter", "bike_id": "bcf535efe090d44650d4f9a3f2bcca33", "fusion_lon": 0.0, "lat": 38.880587166666665, "fusion_lat": 0.0}, {"is_disabled": 0, "rental_uris": {"android": "https://dc.lft.to/lastmile_qr_scan", "ios": "https://dc.lft.to/lastmile_qr_scan"}, "is_reserved": 0, "name": "75391855e64c54e3af7c4420171e535c", "lon": -77.10025333333333, "type": "electric_bike", "bike_id": "75391855e64c54e3af7c4420171e535c", "fusion_lon": 0.0, "lat": 38.9906185, "fusion_lat": 0.0}, {"is_disabled": 0, "rental_uris": {"android": "https://dc.lft.to/lastmile_qr_scan", "ios": "https://dc.lft.to/lastmile_qr_scan"}, "is_reserved": 0, "name": "bb594731404edfd034a76676502ddea7", "lon": -76.946247, "type": "electric_scooter", "bike_id": "bb594731404edfd034a76676502ddea7", "fusion_lon": 0.0, "lat": 38.902520833333334, "fusion_lat": 0.0}, {"is_disabled": 0, "rental_uris": {"android": "https://dc.lft.to/lastmile_qr_scan", "ios": "https://dc.lft.to/lastmile_qr_scan"}, "is_reserved": 0, "name": "977a66fc5f8b7ddd8fd4f15b2f5c9f61", "lon": -77.03942916666666, "type": "electric_scooter", "bike_id": "977a66fc5f8b7ddd8fd4f15b2f5c9f61", "fusion_lon": 0.0, "lat": 38.90967366666667, "fusion_lat": 0.0}, {"is_disabled": 0, "rental_uris": {"android": "https://dc.lft.to/lastmile_qr_scan", "ios": "https://dc.lft.to/lastmile_qr_scan"}, "is_reserved": 0, "name": "c454ca59c1d4fc6d5275aa40d5962b93", "lon": -77.03293366666666, "type": "electric_scooter", "bike_id": "c454ca59c1d4fc6d5275aa40d5962b93", "fusion_lon": 0.0, "lat": 38.9291535, "fusion_lat": 0.0}, {"is_disabled": 0, "rental_uris": {"android": "https://dc.lft.to/lastmile_qr_scan", "ios": "https://dc.lft.to/lastmile_qr_scan"}, "is_reserved": 0, "name": "166bbd8959d2ff643009426baaf8357e", "lon": -76.963704, "type": "electric_bike", "bike_id": "166bbd8959d2ff643009426baaf8357e", "fusion_lon": 0.0, "lat": 38.9489545, "fusion_lat": 0.0}, {"is_disabled": 0, "rental_uris": {"android": "https://dc.lft.to/lastmile_qr_scan", "ios": "https://dc.lft.to/lastmile_qr_scan"}, "is_reserved": 0, "name": "e3b9e8fbc46bed966d0897d08236958e", "lon": -77.043803, "type": "electric_bike", "bike_id": "e3b9e8fbc46bed966d0897d08236958e", "fusion_lon": 0.0, "lat": 39.0527215, "fusion_lat": 0.0}, {"is_disabled": 0, "rental_uris": {"android": "https://dc.lft.to/lastmile_qr_scan", "ios": "https://dc.lft.to/lastmile_qr_scan"}, "is_reserved": 0, "name": "2f90fffb70e789b83eb7ab313a60b11e", "lon": -77.14324883333333, "type": "electric_bike", "bike_id": "2f90fffb70e789b83eb7ab313a60b11e", "fusion_lon": 0.0, "lat": 39.05458433333333, "fusion_lat": 0.0}, {"is_disabled": 0, "rental_uris": {"android": "https://dc.lft.to/lastmile_qr_scan", "ios": "https://dc.lft.to/lastmile_qr_scan"}, "is_reserved": 0, "name": "9ec54c8418a4315b00f2d3fbbf9b5382", "lon": -76.949968, "type": "electric_scooter", "bike_id": "9ec54c8418a4315b00f2d3fbbf9b5382", "fusion_lon": 0.0, "lat": 38.89392183333333, "fusion_lat": 0.0}, {"is_disabled": 0, "rental_uris": {"android": "https://dc.lft.to/lastmile_qr_scan", "ios": "https://dc.lft.to/lastmile_qr_scan"}, "is_reserved": 0, "name": "e181d0986d8a31dffdaa9e66c3c74f75", "lon": -77.344123, "type": "electric_bike", "bike_id": "e181d0986d8a31dffdaa9e66c3c74f75", "fusion_lon": 0.0, "lat": 38.945960166666666, "fusion_lat": 0.0}, {"is_disabled": 0, "rental_uris": {"android": "https://dc.lft.to/lastmile_qr_scan", "ios": "https://dc.lft.to/lastmile_qr_scan"}, "is_reserved": 0, "name": "971163d571786fc697b2fc14ce4fbc1e", "lon": -77.0618785, "type": "electric_scooter", "bike_id": "971163d571786fc697b2fc14ce4fbc1e", "fusion_lon": 0.0, "lat": 38.93015783333333, "fusion_lat": 0.0}, {"is_disabled": 0, "rental_uris": {"android": "https://dc.lft.to/lastmile_qr_scan", "ios": "https://dc.lft.to/lastmile_qr_scan"}, "is_reserved": 0, "name": "bbf8d66bfb31f16ff146a70dd7f830fe", "lon": -76.988931, "type": "electric_scooter", "bike_id": "bbf8d66bfb31f16ff146a70dd7f830fe", "fusion_lon": 0.0, "lat": 38.8667285, "fusion_lat": 0.0}, {"is_disabled": 0, "rental_uris": {"android": "https://dc.lft.to/lastmile_qr_scan", "ios": "https://dc.lft.to/lastmile_qr_scan"}, "is_reserved": 0, "name": "7376ab2859f45fb5d20898a5cf56d631", "lon": -77.03208783333334, "type": "electric_scooter", "bike_id": "7376ab2859f45fb5d20898a5cf56d631", "fusion_lon": 0.0, "lat": 38.90897116666667, "fusion_lat": 0.0}, {"is_disabled": 0, "rental_uris": {"android": "https://dc.lft.to/lastmile_qr_scan", "ios": "https://dc.lft.to/lastmile_qr_scan"}, "is_reserved": 0, "name": "29343247c0b330715b3a24af5d3075e0", "lon": -77.0117005, "type": "electric_scooter", "bike_id": "29343247c0b330715b3a24af5d3075e0", "fusion_lon": 0.0, "lat": 38.8680625, "fusion_lat": 0.0}, {"is_disabled": 0, "rental_uris": {"android": "https://dc.lft.to/lastmile_qr_scan", "ios": "https://dc.lft.to/lastmile_qr_scan"}, "is_reserved": 0, "name": "2eda693d180ece523c1e83bcbe4d4351", "lon": -77.019345, "type": "electric_scooter", "bike_id": "2eda693d180ece523c1e83bcbe4d4351", "fusion_lon": 0.0, "lat": 38.9500215, "fusion_lat": 0.0}, {"is_disabled": 0, "rental_uris": {"android": "https://dc.lft.to/lastmile_qr_scan", "ios": "https://dc.lft.to/lastmile_qr_scan"}, "is_reserved": 0, "name": "4c639648831453f6eaf93dd40ec72607", "lon": -77.028415, "type": "electric_scooter", "bike_id": "4c639648831453f6eaf93dd40ec72607", "fusion_lon": 0.0, "lat": 38.9015195, "fusion_lat": 0.0}, {"is_disabled": 0, "rental_uris": {"android": "https://dc.lft.to/lastmile_qr_scan", "ios": "https://dc.lft.to/lastmile_qr_scan"}, "is_reserved": 0, "name": "38b89fcc5b27e9b1d526974d4cdc2c72", "lon": -77.0435485, "type": "electric_scooter", "bike_id": "38b89fcc5b27e9b1d526974d4cdc2c72", "fusion_lon": 0.0, "lat": 38.917921666666665, "fusion_lat": 0.0}, {"is_disabled": 0, "rental_uris": {"android": "https://dc.lft.to/lastmile_qr_scan", "ios": "https://dc.lft.to/lastmile_qr_scan"}, "is_reserved": 0, "name": "5d95745c01b295a82002edee7f889d7d", "lon": -77.03258266666667, "type": "electric_scooter", "bike_id": "5d95745c01b295a82002edee7f889d7d", "fusion_lon": 0.0, "lat": 38.92845416666667, "fusion_lat": 0.0}, {"is_disabled": 0, "rental_uris": {"android": "https://dc.lft.to/lastmile_qr_scan", "ios": "https://dc.lft.to/lastmile_qr_scan"}, "is_reserved": 0, "name": "086694afa4d6c6dd581f7dfc77e9a35c", "lon": -77.0238475, "type": "electric_bike", "bike_id": "086694afa4d6c6dd581f7dfc77e9a35c", "fusion_lon": 0.0, "lat": 38.990746333333334, "fusion_lat": 0.0}, {"is_disabled": 0, "rental_uris": {"android": "https://dc.lft.to/lastmile_qr_scan", "ios": "https://dc.lft.to/lastmile_qr_scan"}, "is_reserved": 0, "name": "3b0eee1da7809957d6e8bdf76fb9ab5c", "lon": -76.9888085, "type": "electric_scooter", "bike_id": "3b0eee1da7809957d6e8bdf76fb9ab5c", "fusion_lon": 0.0, "lat": 38.866620166666664, "fusion_lat": 0.0}, {"is_disabled": 0, "rental_uris": {"android": "https://dc.lft.to/lastmile_qr_scan", "ios": "https://dc.lft.to/lastmile_qr_scan"}, "is_reserved": 0, "name": "2d270e9fb6e3c4147a6d57abe6c9b3f9", "lon": -77.0882545, "type": "electric_bike", "bike_id": "2d270e9fb6e3c4147a6d57abe6c9b3f9", "fusion_lon": 0.0, "lat": 38.90969616666667, "fusion_lat": 0.0}, {"is_disabled": 0, "rental_uris": {"android": "https://dc.lft.to/lastmile_qr_scan", "ios": "https://dc.lft.to/lastmile_qr_scan"}, "is_reserved": 0, "name": "a3b0478051ff16545b6938c68982ebbe", "lon": -77.0068895, "type": "electric_scooter", "bike_id": "a3b0478051ff16545b6938c68982ebbe", "fusion_lon": 0.0, "lat": 38.876154666666665, "fusion_lat": 0.0}, {"is_disabled": 0, "rental_uris": {"android": "https://dc.lft.to/lastmile_qr_scan", "ios": "https://dc.lft.to/lastmile_qr_scan"}, "is_reserved": 0, "name": "16f76d9d83555b161bd2a36dca8d4ec5", "lon": -77.03481083333334, "type": "electric_scooter", "bike_id": "16f76d9d83555b161bd2a36dca8d4ec5", "fusion_lon": 0.0, "lat": 38.92484833333334, "fusion_lat": 0.0}, {"is_disabled": 0, "rental_uris": {"android": "https://dc.lft.to/lastmile_qr_scan", "ios": "https://dc.lft.to/lastmile_qr_scan"}, "is_reserved": 0, "name": "7863a7707812eb356e198aaaf889fe22", "lon": -77.020723, "type": "electric_scooter", "bike_id": "7863a7707812eb356e198aaaf889fe22", "fusion_lon": 0.0, "lat": 38.88115833333333, "fusion_lat": 0.0}, {"is_disabled": 0, "rental_uris": {"android": "https://dc.lft.to/lastmile_qr_scan", "ios": "https://dc.lft.to/lastmile_qr_scan"}, "is_reserved": 0, "name": "d4b5d54a9f9c6b7792606dd04cd73851", "lon": -77.04815983333333, "type": "electric_scooter", "bike_id": "d4b5d54a9f9c6b7792606dd04cd73851", "fusion_lon": 0.0, "lat": 38.92044883333333, "fusion_lat": 0.0}, {"is_disabled": 0, "rental_uris": {"android": "https://dc.lft.to/lastmile_qr_scan", "ios": "https://dc.lft.to/lastmile_qr_scan"}, "is_reserved": 0, "name": "634cab64c2182c9e252adfc5d076de85", "lon": -77.02818316666666, "type": "electric_scooter", "bike_id": "634cab64c2182c9e252adfc5d076de85", "fusion_lon": 0.0, "lat": 38.881750833333335, "fusion_lat": 0.0}, {"is_disabled": 0, "rental_uris": {"android": "https://dc.lft.to/lastmile_qr_scan", "ios": "https://dc.lft.to/lastmile_qr_scan"}, "is_reserved": 0, "name": "a941df2189f98596b5f09d7f3bd5fb73", "lon": -76.9964725, "type": "electric_scooter", "bike_id": "a941df2189f98596b5f09d7f3bd5fb73", "fusion_lon": 0.0, "lat": 38.887169166666666, "fusion_lat": 0.0}, {"is_disabled": 0, "rental_uris": {"android": "https://dc.lft.to/lastmile_qr_scan", "ios": "https://dc.lft.to/lastmile_qr_scan"}, "is_reserved": 0, "name": "4e3e20944fd94d4192d39b64802e276f", "lon": -77.05487833333333, "type": "electric_scooter", "bike_id": "4e3e20944fd94d4192d39b64802e276f", "fusion_lon": 0.0, "lat": 38.90198933333333, "fusion_lat": 0.0}, {"is_disabled": 0, "rental_uris": {"android": "https://dc.lft.to/lastmile_qr_scan", "ios": "https://dc.lft.to/lastmile_qr_scan"}, "is_reserved": 0, "name": "b5dbc84106259e9f46966e92509ae7bc", "lon": -77.0255515, "type": "electric_scooter", "bike_id": "b5dbc84106259e9f46966e92509ae7bc", "fusion_lon": 0.0, "lat": 38.884331, "fusion_lat": 0.0}, {"is_disabled": 0, "rental_uris": {"android": "https://dc.lft.to/lastmile_qr_scan", "ios": "https://dc.lft.to/lastmile_qr_scan"}, "is_reserved": 0, "name": "ab71f6378ad5d38ed94af8b08fc7fb1e", "lon": -77.05001816666666, "type": "electric_scooter", "bike_id": "ab71f6378ad5d38ed94af8b08fc7fb1e", "fusion_lon": 0.0, "lat": 38.89233683333333, "fusion_lat": 0.0}, {"is_disabled": 0, "rental_uris": {"android": "https://dc.lft.to/lastmile_qr_scan", "ios": "https://dc.lft.to/lastmile_qr_scan"}, "is_reserved": 0, "name": "1ac25145e88860e3500ac3b4a3dc1060", "lon": -77.12818633333333, "type": "electric_bike", "bike_id": "1ac25145e88860e3500ac3b4a3dc1060", "fusion_lon": 0.0, "lat": 38.865335333333334, "fusion_lat": 0.0}, {"is_disabled": 0, "rental_uris": {"android": "https://dc.lft.to/lastmile_qr_scan", "ios": "https://dc.lft.to/lastmile_qr_scan"}, "is_reserved": 0, "name": "42a667e498c880552f47aad39f4c67b7", "lon": -77.02396016666667, "type": "electric_scooter", "bike_id": "42a667e498c880552f47aad39f4c67b7", "fusion_lon": 0.0, "lat": 38.90843133333333, "fusion_lat": 0.0}, {"is_disabled": 0, "rental_uris": {"android": "https://dc.lft.to/lastmile_qr_scan", "ios": "https://dc.lft.to/lastmile_qr_scan"}, "is_reserved": 0, "name": "de7bee39939d0123517de438c735cc88", "lon": -77.03060616666667, "type": "electric_scooter", "bike_id": "de7bee39939d0123517de438c735cc88", "fusion_lon": 0.0, "lat": 38.9258375, "fusion_lat": 0.0}, {"is_disabled": 0, "rental_uris": {"android": "https://dc.lft.to/lastmile_qr_scan", "ios": "https://dc.lft.to/lastmile_qr_scan"}, "is_reserved": 0, "name": "54483643d1b6ce4865c9bea5c604af2d", "lon": -77.04472966666667, "type": "electric_scooter", "bike_id": "54483643d1b6ce4865c9bea5c604af2d", "fusion_lon": 0.0, "lat": 38.92280133333333, "fusion_lat": 0.0}, {"is_disabled": 0, "rental_uris": {"android": "https://dc.lft.to/lastmile_qr_scan", "ios": "https://dc.lft.to/lastmile_qr_scan"}, "is_reserved": 0, "name": "472562f3425ce249d73913dff22e5698", "lon": -76.99058133333334, "type": "electric_scooter", "bike_id": "472562f3425ce249d73913dff22e5698", "fusion_lon": 0.0, "lat": 38.86358883333333, "fusion_lat": 0.0}, {"is_disabled": 0, "rental_uris": {"android": "https://dc.lft.to/lastmile_qr_scan", "ios": "https://dc.lft.to/lastmile_qr_scan"}, "is_reserved": 0, "name": "7054e01b8a57a11b70b5f046018077b5", "lon": -77.01757933333333, "type": "electric_scooter", "bike_id": "7054e01b8a57a11b70b5f046018077b5", "fusion_lon": 0.0, "lat": 38.883196166666664, "fusion_lat": 0.0}, {"is_disabled": 0, "rental_uris": {"android": "https://dc.lft.to/lastmile_qr_scan", "ios": "https://dc.lft.to/lastmile_qr_scan"}, "is_reserved": 0, "name": "3c798ee641c78e27efe19b41c2eb9e7b", "lon": -77.04209033333333, "type": "electric_scooter", "bike_id": "3c798ee641c78e27efe19b41c2eb9e7b", "fusion_lon": 0.0, "lat": 38.92260066666667, "fusion_lat": 0.0}, {"is_disabled": 0, "rental_uris": {"android": "https://dc.lft.to/lastmile_qr_scan", "ios": "https://dc.lft.to/lastmile_qr_scan"}, "is_reserved": 0, "name": "cb2e05acbdb5d54649888cfdaeba9616", "lon": -77.0704855, "type": "electric_bike", "bike_id": "cb2e05acbdb5d54649888cfdaeba9616", "fusion_lon": 0.0, "lat": 38.824476, "fusion_lat": 0.0}, {"is_disabled": 0, "rental_uris": {"android": "https://dc.lft.to/lastmile_qr_scan", "ios": "https://dc.lft.to/lastmile_qr_scan"}, "is_reserved": 0, "name": "ac1f70e3afff86945a18fcce3d75efde", "lon": -77.0318335, "type": "electric_scooter", "bike_id": "ac1f70e3afff86945a18fcce3d75efde", "fusion_lon": 0.0, "lat": 38.910198, "fusion_lat": 0.0}, {"is_disabled": 0, "rental_uris": {"android": "https://dc.lft.to/lastmile_qr_scan", "ios": "https://dc.lft.to/lastmile_qr_scan"}, "is_reserved": 0, "name": "b925bbffc390bdf2c2991f7bdf850805", "lon": -77.03094583333333, "type": "electric_scooter", "bike_id": "b925bbffc390bdf2c2991f7bdf850805", "fusion_lon": 0.0, "lat": 38.928574166666664, "fusion_lat": 0.0}, {"is_disabled": 0, "rental_uris": {"android": "https://dc.lft.to/lastmile_qr_scan", "ios": "https://dc.lft.to/lastmile_qr_scan"}, "is_reserved": 0, "name": "92600d748f7995a7496bdb38282592b1", "lon": -77.037216, "type": "electric_bike", "bike_id": "92600d748f7995a7496bdb38282592b1", "fusion_lon": 0.0, "lat": 38.99701966666667, "fusion_lat": 0.0}, {"is_disabled": 0, "rental_uris": {"android": "https://dc.lft.to/lastmile_qr_scan", "ios": "https://dc.lft.to/lastmile_qr_scan"}, "is_reserved": 0, "name": "f9eba3ec4e13ee0787821fb6d5b76aa3", "lon": -77.0223895, "type": "electric_scooter", "bike_id": "f9eba3ec4e13ee0787821fb6d5b76aa3", "fusion_lon": 0.0, "lat": 38.9154885, "fusion_lat": 0.0}, {"is_disabled": 0, "rental_uris": {"android": "https://dc.lft.to/lastmile_qr_scan", "ios": "https://dc.lft.to/lastmile_qr_scan"}, "is_reserved": 0, "name": "1b23f69b07a507fa15d9669646ceb29b", "lon": -77.021714, "type": "electric_scooter", "bike_id": "1b23f69b07a507fa15d9669646ceb29b", "fusion_lon": 0.0, "lat": 38.942977666666664, "fusion_lat": 0.0}, {"is_disabled": 0, "rental_uris": {"android": "https://dc.lft.to/lastmile_qr_scan", "ios": "https://dc.lft.to/lastmile_qr_scan"}, "is_reserved": 0, "name": "5f923ec7008f54ad9c02bba04fce5422", "lon": -77.04455033333333, "type": "electric_scooter", "bike_id": "5f923ec7008f54ad9c02bba04fce5422", "fusion_lon": 0.0, "lat": 38.909683, "fusion_lat": 0.0}, {"is_disabled": 0, "rental_uris": {"android": "https://dc.lft.to/lastmile_qr_scan", "ios": "https://dc.lft.to/lastmile_qr_scan"}, "is_reserved": 0, "name": "ad313ebdd45c6e2edb52fc85e916ec6b", "lon": -77.00199133333334, "type": "electric_scooter", "bike_id": "ad313ebdd45c6e2edb52fc85e916ec6b", "fusion_lon": 0.0, "lat": 38.90238683333333, "fusion_lat": 0.0}, {"is_disabled": 0, "rental_uris": {"android": "https://dc.lft.to/lastmile_qr_scan", "ios": "https://dc.lft.to/lastmile_qr_scan"}, "is_reserved": 0, "name": "667afcaaea216ff3b98eff5e26ce0f33", "lon": -77.02145516666667, "type": "electric_scooter", "bike_id": "667afcaaea216ff3b98eff5e26ce0f33", "fusion_lon": 0.0, "lat": 38.89755533333334, "fusion_lat": 0.0}, {"is_disabled": 0, "rental_uris": {"android": "https://dc.lft.to/lastmile_qr_scan", "ios": "https://dc.lft.to/lastmile_qr_scan"}, "is_reserved": 0, "name": "23d6ca0161085087d966759dd81ebdbf", "lon": -77.054814, "type": "electric_scooter", "bike_id": "23d6ca0161085087d966759dd81ebdbf", "fusion_lon": 0.0, "lat": 38.904422, "fusion_lat": 0.0}, {"is_disabled": 0, "rental_uris": {"android": "https://dc.lft.to/lastmile_qr_scan", "ios": "https://dc.lft.to/lastmile_qr_scan"}, "is_reserved": 0, "name": "9d54959728cf6364a1672795c74dc2e1", "lon": -77.04657766666666, "type": "electric_scooter", "bike_id": "9d54959728cf6364a1672795c74dc2e1", "fusion_lon": 0.0, "lat": 38.89742183333333, "fusion_lat": 0.0}, {"is_disabled": 0, "rental_uris": {"android": "https://dc.lft.to/lastmile_qr_scan", "ios": "https://dc.lft.to/lastmile_qr_scan"}, "is_reserved": 0, "name": "edd7be2589e69fe582bdda6f64f2c467", "lon": -76.93522283333333, "type": "electric_scooter", "bike_id": "edd7be2589e69fe582bdda6f64f2c467", "fusion_lon": 0.0, "lat": 38.87897566666667, "fusion_lat": 0.0}, {"is_disabled": 0, "rental_uris": {"android": "https://dc.lft.to/lastmile_qr_scan", "ios": "https://dc.lft.to/lastmile_qr_scan"}, "is_reserved": 0, "name": "4bb67a0f42746adf099d774196adce67", "lon": -77.03568316666667, "type": "electric_scooter", "bike_id": "4bb67a0f42746adf099d774196adce67", "fusion_lon": 0.0, "lat": 38.91696983333333, "fusion_lat": 0.0}, {"is_disabled": 0, "rental_uris": {"android": "https://dc.lft.to/lastmile_qr_scan", "ios": "https://dc.lft.to/lastmile_qr_scan"}, "is_reserved": 0, "name": "bdac7364ab568b3e2759e0410322d2ad", "lon": -77.00522616666667, "type": "electric_scooter", "bike_id": "bdac7364ab568b3e2759e0410322d2ad", "fusion_lon": 0.0, "lat": 38.877229, "fusion_lat": 0.0}, {"is_disabled": 0, "rental_uris": {"android": "https://dc.lft.to/lastmile_qr_scan", "ios": "https://dc.lft.to/lastmile_qr_scan"}, "is_reserved": 0, "name": "4d67e3901a17a584df9c60c7ebc1eca2", "lon": -77.09957866666667, "type": "electric_bike", "bike_id": "4d67e3901a17a584df9c60c7ebc1eca2", "fusion_lon": 0.0, "lat": 38.85789616666667, "fusion_lat": 0.0}, {"is_disabled": 0, "rental_uris": {"android": "https://dc.lft.to/lastmile_qr_scan", "ios": "https://dc.lft.to/lastmile_qr_scan"}, "is_reserved": 0, "name": "e2d252280b19881759b9cd0b15738f13", "lon": -76.93543233333334, "type": "electric_scooter", "bike_id": "e2d252280b19881759b9cd0b15738f13", "fusion_lon": 0.0, "lat": 38.907323833333336, "fusion_lat": 0.0}, {"is_disabled": 0, "rental_uris": {"android": "https://dc.lft.to/lastmile_qr_scan", "ios": "https://dc.lft.to/lastmile_qr_scan"}, "is_reserved": 0, "name": "64ac60c89b897ea1ba7a409c9f9c0394", "lon": -77.02498383333334, "type": "electric_bike", "bike_id": "64ac60c89b897ea1ba7a409c9f9c0394", "fusion_lon": 0.0, "lat": 38.974067833333336, "fusion_lat": 0.0}, {"is_disabled": 0, "rental_uris": {"android": "https://dc.lft.to/lastmile_qr_scan", "ios": "https://dc.lft.to/lastmile_qr_scan"}, "is_reserved": 0, "name": "8fe9dfc898bee3c20d2da129d762a32a", "lon": -77.01134033333334, "type": "electric_scooter", "bike_id": "8fe9dfc898bee3c20d2da129d762a32a", "fusion_lon": 0.0, "lat": 38.907311666666665, "fusion_lat": 0.0}, {"is_disabled": 0, "rental_uris": {"android": "https://dc.lft.to/lastmile_qr_scan", "ios": "https://dc.lft.to/lastmile_qr_scan"}, "is_reserved": 0, "name": "ab11be78ca0d9b1dfba657e266cc5dac", "lon": -77.03880483333333, "type": "electric_scooter", "bike_id": "ab11be78ca0d9b1dfba657e266cc5dac", "fusion_lon": 0.0, "lat": 38.9155945, "fusion_lat": 0.0}, {"is_disabled": 0, "rental_uris": {"android": "https://dc.lft.to/lastmile_qr_scan", "ios": "https://dc.lft.to/lastmile_qr_scan"}, "is_reserved": 0, "name": "463cf53aa62c659477a844820b5472a3", "lon": -77.03272916666667, "type": "electric_scooter", "bike_id": "463cf53aa62c659477a844820b5472a3", "fusion_lon": 0.0, "lat": 38.93326883333334, "fusion_lat": 0.0}, {"is_disabled": 0, "rental_uris": {"android": "https://dc.lft.to/lastmile_qr_scan", "ios": "https://dc.lft.to/lastmile_qr_scan"}, "is_reserved": 0, "name": "a9dab45d60d0a1754051cf915db2d184", "lon": -77.00919666666667, "type": "electric_scooter", "bike_id": "a9dab45d60d0a1754051cf915db2d184", "fusion_lon": 0.0, "lat": 38.89784216666666, "fusion_lat": 0.0}, {"is_disabled": 0, "rental_uris": {"android": "https://dc.lft.to/lastmile_qr_scan", "ios": "https://dc.lft.to/lastmile_qr_scan"}, "is_reserved": 0, "name": "5af66e48bd194ecdd8c8805d4ed1c467", "lon": -77.042031, "type": "electric_scooter", "bike_id": "5af66e48bd194ecdd8c8805d4ed1c467", "fusion_lon": 0.0, "lat": 38.929610333333336, "fusion_lat": 0.0}, {"is_disabled": 0, "rental_uris": {"android": "https://dc.lft.to/lastmile_qr_scan", "ios": "https://dc.lft.to/lastmile_qr_scan"}, "is_reserved": 0, "name": "81b665d13770a98825c0493c18704e03", "lon": -77.00741783333334, "type": "electric_bike", "bike_id": "81b665d13770a98825c0493c18704e03", "fusion_lon": 0.0, "lat": 38.87700183333333, "fusion_lat": 0.0}, {"is_disabled": 0, "rental_uris": {"android": "https://dc.lft.to/lastmile_qr_scan", "ios": "https://dc.lft.to/lastmile_qr_scan"}, "is_reserved": 0, "name": "220a5594dfb9423f4871eccabfebe564", "lon": -77.043958, "type": "electric_scooter", "bike_id": "220a5594dfb9423f4871eccabfebe564", "fusion_lon": 0.0, "lat": 38.907103166666666, "fusion_lat": 0.0}, {"is_disabled": 0, "rental_uris": {"android": "https://dc.lft.to/lastmile_qr_scan", "ios": "https://dc.lft.to/lastmile_qr_scan"}, "is_reserved": 0, "name": "bdc6cf27dc6600a4defe31e7356dcb35", "lon": -76.98712633333334, "type": "electric_scooter", "bike_id": "bdc6cf27dc6600a4defe31e7356dcb35", "fusion_lon": 0.0, "lat": 38.866982, "fusion_lat": 0.0}, {"is_disabled": 0, "rental_uris": {"android": "https://dc.lft.to/lastmile_qr_scan", "ios": "https://dc.lft.to/lastmile_qr_scan"}, "is_reserved": 0, "name": "ea15776c9e37debaf71662a947aad121", "lon": -77.04159716666666, "type": "electric_scooter", "bike_id": "ea15776c9e37debaf71662a947aad121", "fusion_lon": 0.0, "lat": 38.910331666666664, "fusion_lat": 0.0}, {"is_disabled": 0, "rental_uris": {"android": "https://dc.lft.to/lastmile_qr_scan", "ios": "https://dc.lft.to/lastmile_qr_scan"}, "is_reserved": 0, "name": "7e671eabbcda31d5bca829912d4fa854", "lon": -77.03135533333334, "type": "electric_scooter", "bike_id": "7e671eabbcda31d5bca829912d4fa854", "fusion_lon": 0.0, "lat": 38.920200333333334, "fusion_lat": 0.0}, {"is_disabled": 0, "rental_uris": {"android": "https://dc.lft.to/lastmile_qr_scan", "ios": "https://dc.lft.to/lastmile_qr_scan"}, "is_reserved": 0, "name": "ae8c3c544be6a0dcef8de9669b110b0b", "lon": -77.04352516666667, "type": "electric_scooter", "bike_id": "ae8c3c544be6a0dcef8de9669b110b0b", "fusion_lon": 0.0, "lat": 38.921446833333334, "fusion_lat": 0.0}, {"is_disabled": 0, "rental_uris": {"android": "https://dc.lft.to/lastmile_qr_scan", "ios": "https://dc.lft.to/lastmile_qr_scan"}, "is_reserved": 0, "name": "8bb00d3b1682f3e28965fca2df57498b", "lon": -77.02509333333333, "type": "electric_scooter", "bike_id": "8bb00d3b1682f3e28965fca2df57498b", "fusion_lon": 0.0, "lat": 38.9208255, "fusion_lat": 0.0}, {"is_disabled": 0, "rental_uris": {"android": "https://dc.lft.to/lastmile_qr_scan", "ios": "https://dc.lft.to/lastmile_qr_scan"}, "is_reserved": 0, "name": "852314ed68dbb4dcc9ed3faa85a70124", "lon": -77.0328095, "type": "electric_scooter", "bike_id": "852314ed68dbb4dcc9ed3faa85a70124", "fusion_lon": 0.0, "lat": 38.932535, "fusion_lat": 0.0}, {"is_disabled": 0, "rental_uris": {"android": "https://dc.lft.to/lastmile_qr_scan", "ios": "https://dc.lft.to/lastmile_qr_scan"}, "is_reserved": 0, "name": "602fcb57947d89c96b3b4585dbdb7304", "lon": -77.046122, "type": "electric_scooter", "bike_id": "602fcb57947d89c96b3b4585dbdb7304", "fusion_lon": 0.0, "lat": 38.89964033333333, "fusion_lat": 0.0}, {"is_disabled": 0, "rental_uris": {"android": "https://dc.lft.to/lastmile_qr_scan", "ios": "https://dc.lft.to/lastmile_qr_scan"}, "is_reserved": 0, "name": "dbb693a4f3d396516926a8a599b9ca12", "lon": -77.0014685, "type": "electric_scooter", "bike_id": "dbb693a4f3d396516926a8a599b9ca12", "fusion_lon": 0.0, "lat": 38.9107785, "fusion_lat": 0.0}, {"is_disabled": 0, "rental_uris": {"android": "https://dc.lft.to/lastmile_qr_scan", "ios": "https://dc.lft.to/lastmile_qr_scan"}, "is_reserved": 0, "name": "8ace1a07c3caeb85a36d9fd3d11bc33c", "lon": -77.03831083333333, "type": "electric_scooter", "bike_id": "8ace1a07c3caeb85a36d9fd3d11bc33c", "fusion_lon": 0.0, "lat": 38.911068666666665, "fusion_lat": 0.0}, {"is_disabled": 0, "rental_uris": {"android": "https://dc.lft.to/lastmile_qr_scan", "ios": "https://dc.lft.to/lastmile_qr_scan"}, "is_reserved": 0, "name": "998ce66371f9ad33be0b5a5d4a2f7661", "lon": -77.04404, "type": "electric_scooter", "bike_id": "998ce66371f9ad33be0b5a5d4a2f7661", "fusion_lon": 0.0, "lat": 38.90072833333333, "fusion_lat": 0.0}, {"is_disabled": 0, "rental_uris": {"android": "https://dc.lft.to/lastmile_qr_scan", "ios": "https://dc.lft.to/lastmile_qr_scan"}, "is_reserved": 0, "name": "b59eb0c80754d963fa95a37ef171caab", "lon": -76.9802385, "type": "electric_bike", "bike_id": "b59eb0c80754d963fa95a37ef171caab", "fusion_lon": 0.0, "lat": 38.95755483333333, "fusion_lat": 0.0}, {"is_disabled": 0, "rental_uris": {"android": "https://dc.lft.to/lastmile_qr_scan", "ios": "https://dc.lft.to/lastmile_qr_scan"}, "is_reserved": 0, "name": "4b996c15f0f1604ad6f4b7c12d467b63", "lon": -77.02144316666667, "type": "electric_scooter", "bike_id": "4b996c15f0f1604ad6f4b7c12d467b63", "fusion_lon": 0.0, "lat": 38.8975525, "fusion_lat": 0.0}, {"is_disabled": 0, "rental_uris": {"android": "https://dc.lft.to/lastmile_qr_scan", "ios": "https://dc.lft.to/lastmile_qr_scan"}, "is_reserved": 0, "name": "5891cde00d6d57258b5a6d27f0d11e34", "lon": -76.99637116666666, "type": "electric_scooter", "bike_id": "5891cde00d6d57258b5a6d27f0d11e34", "fusion_lon": 0.0, "lat": 38.89619916666667, "fusion_lat": 0.0}, {"is_disabled": 0, "rental_uris": {"android": "https://dc.lft.to/lastmile_qr_scan", "ios": "https://dc.lft.to/lastmile_qr_scan"}, "is_reserved": 0, "name": "f5447d542cf8cc63a946adafe134e121", "lon": -77.02003483333333, "type": "electric_scooter", "bike_id": "f5447d542cf8cc63a946adafe134e121", "fusion_lon": 0.0, "lat": 38.90960033333333, "fusion_lat": 0.0}, {"is_disabled": 0, "rental_uris": {"android": "https://dc.lft.to/lastmile_qr_scan", "ios": "https://dc.lft.to/lastmile_qr_scan"}, "is_reserved": 0, "name": "4c55d6c7e3caa4d548644662a1c3769e", "lon": -77.005609, "type": "electric_scooter", "bike_id": "4c55d6c7e3caa4d548644662a1c3769e", "fusion_lon": 0.0, "lat": 38.874747166666666, "fusion_lat": 0.0}, {"is_disabled": 0, "rental_uris": {"android": "https://dc.lft.to/lastmile_qr_scan", "ios": "https://dc.lft.to/lastmile_qr_scan"}, "is_reserved": 0, "name": "f46e6f058f0f1295b294fb6499fd0091", "lon": -76.92825733333333, "type": "electric_scooter", "bike_id": "f46e6f058f0f1295b294fb6499fd0091", "fusion_lon": 0.0, "lat": 38.90179583333333, "fusion_lat": 0.0}, {"is_disabled": 0, "rental_uris": {"android": "https://dc.lft.to/lastmile_qr_scan", "ios": "https://dc.lft.to/lastmile_qr_scan"}, "is_reserved": 0, "name": "5d621a539d58381937db894d4192f8a9", "lon": -77.03150383333333, "type": "electric_scooter", "bike_id": "5d621a539d58381937db894d4192f8a9", "fusion_lon": 0.0, "lat": 38.887533166666664, "fusion_lat": 0.0}, {"is_disabled": 0, "rental_uris": {"android": "https://dc.lft.to/lastmile_qr_scan", "ios": "https://dc.lft.to/lastmile_qr_scan"}, "is_reserved": 0, "name": "98a101db0199e1de4c9c1cde4977401f", "lon": -77.02962733333334, "type": "electric_scooter", "bike_id": "98a101db0199e1de4c9c1cde4977401f", "fusion_lon": 0.0, "lat": 38.923152333333334, "fusion_lat": 0.0}, {"is_disabled": 0, "rental_uris": {"android": "https://dc.lft.to/lastmile_qr_scan", "ios": "https://dc.lft.to/lastmile_qr_scan"}, "is_reserved": 0, "name": "6f874557026178a552247810c60f35d7", "lon": -76.98334483333333, "type": "electric_scooter", "bike_id": "6f874557026178a552247810c60f35d7", "fusion_lon": 0.0, "lat": 38.895533666666665, "fusion_lat": 0.0}, {"is_disabled": 0, "rental_uris": {"android": "https://dc.lft.to/lastmile_qr_scan", "ios": "https://dc.lft.to/lastmile_qr_scan"}, "is_reserved": 0, "name": "4788f55d69b78cb3a7905c5a2781af65", "lon": -77.04193866666667, "type": "electric_scooter", "bike_id": "4788f55d69b78cb3a7905c5a2781af65", "fusion_lon": 0.0, "lat": 38.916720166666664, "fusion_lat": 0.0}, {"is_disabled": 0, "rental_uris": {"android": "https://dc.lft.to/lastmile_qr_scan", "ios": "https://dc.lft.to/lastmile_qr_scan"}, "is_reserved": 0, "name": "e3246c827eab3448a6971d9d75087c64", "lon": -77.008602, "type": "electric_bike", "bike_id": "e3246c827eab3448a6971d9d75087c64", "fusion_lon": 0.0, "lat": 38.82729666666667, "fusion_lat": 0.0}, {"is_disabled": 0, "rental_uris": {"android": "https://dc.lft.to/lastmile_qr_scan", "ios": "https://dc.lft.to/lastmile_qr_scan"}, "is_reserved": 0, "name": "e0b2a188a74d12ebb33ffda2040fe3e7", "lon": -76.99520183333334, "type": "electric_scooter", "bike_id": "e0b2a188a74d12ebb33ffda2040fe3e7", "fusion_lon": 0.0, "lat": 38.88373933333333, "fusion_lat": 0.0}, {"is_disabled": 0, "rental_uris": {"android": "https://dc.lft.to/lastmile_qr_scan", "ios": "https://dc.lft.to/lastmile_qr_scan"}, "is_reserved": 0, "name": "e89d70905638eb0a82522ddf581dc25b", "lon": -76.97962966666667, "type": "electric_bike", "bike_id": "e89d70905638eb0a82522ddf581dc25b", "fusion_lon": 0.0, "lat": 38.901609, "fusion_lat": 0.0}, {"is_disabled": 0, "rental_uris": {"android": "https://dc.lft.to/lastmile_qr_scan", "ios": "https://dc.lft.to/lastmile_qr_scan"}, "is_reserved": 0, "name": "695e692da64fa3763c2e2d977267f688", "lon": -77.028708, "type": "electric_scooter", "bike_id": "695e692da64fa3763c2e2d977267f688", "fusion_lon": 0.0, "lat": 38.895219166666664, "fusion_lat": 0.0}, {"is_disabled": 0, "rental_uris": {"android": "https://dc.lft.to/lastmile_qr_scan", "ios": "https://dc.lft.to/lastmile_qr_scan"}, "is_reserved": 0, "name": "4540ac84bc432be1c4587083ffdc2578", "lon": -77.0204165, "type": "electric_scooter", "bike_id": "4540ac84bc432be1c4587083ffdc2578", "fusion_lon": 0.0, "lat": 38.897231, "fusion_lat": 0.0}, {"is_disabled": 0, "rental_uris": {"android": "https://dc.lft.to/lastmile_qr_scan", "ios": "https://dc.lft.to/lastmile_qr_scan"}, "is_reserved": 0, "name": "48fc14927cb56542b81bc2f6daea3727", "lon": -76.96521816666667, "type": "electric_scooter", "bike_id": "48fc14927cb56542b81bc2f6daea3727", "fusion_lon": 0.0, "lat": 38.850819666666666, "fusion_lat": 0.0}, {"is_disabled": 0, "rental_uris": {"android": "https://dc.lft.to/lastmile_qr_scan", "ios": "https://dc.lft.to/lastmile_qr_scan"}, "is_reserved": 0, "name": "7c5213e9868d4bc80fa134298035f47c", "lon": -77.02931833333334, "type": "electric_scooter", "bike_id": "7c5213e9868d4bc80fa134298035f47c", "fusion_lon": 0.0, "lat": 38.88218366666667, "fusion_lat": 0.0}, {"is_disabled": 0, "rental_uris": {"android": "https://dc.lft.to/lastmile_qr_scan", "ios": "https://dc.lft.to/lastmile_qr_scan"}, "is_reserved": 0, "name": "5d4f3d9be0112d0aa76a1536ab88dfc7", "lon": -77.043181, "type": "electric_bike", "bike_id": "5d4f3d9be0112d0aa76a1536ab88dfc7", "fusion_lon": 0.0, "lat": 38.831258, "fusion_lat": 0.0}, {"is_disabled": 0, "rental_uris": {"android": "https://dc.lft.to/lastmile_qr_scan", "ios": "https://dc.lft.to/lastmile_qr_scan"}, "is_reserved": 0, "name": "fcb491e29692d7d7adc96ac44b1762e7", "lon": -77.029757, "type": "electric_scooter", "bike_id": "fcb491e29692d7d7adc96ac44b1762e7", "fusion_lon": 0.0, "lat": 38.89831983333333, "fusion_lat": 0.0}, {"is_disabled": 0, "rental_uris": {"android": "https://dc.lft.to/lastmile_qr_scan", "ios": "https://dc.lft.to/lastmile_qr_scan"}, "is_reserved": 0, "name": "9303bbbf4705f3d514c6c65bab3f081b", "lon": -77.0320785, "type": "electric_scooter", "bike_id": "9303bbbf4705f3d514c6c65bab3f081b", "fusion_lon": 0.0, "lat": 38.90661716666666, "fusion_lat": 0.0}, {"is_disabled": 0, "rental_uris": {"android": "https://dc.lft.to/lastmile_qr_scan", "ios": "https://dc.lft.to/lastmile_qr_scan"}, "is_reserved": 0, "name": "9ae99a59db0cfee5ece1ea8864da1920", "lon": -76.9655645, "type": "electric_scooter", "bike_id": "9ae99a59db0cfee5ece1ea8864da1920", "fusion_lon": 0.0, "lat": 38.918426833333335, "fusion_lat": 0.0}, {"is_disabled": 0, "rental_uris": {"android": "https://dc.lft.to/lastmile_qr_scan", "ios": "https://dc.lft.to/lastmile_qr_scan"}, "is_reserved": 0, "name": "ab3605a9e26d4f68fab5111cad0a66fd", "lon": -76.99668916666667, "type": "electric_scooter", "bike_id": "ab3605a9e26d4f68fab5111cad0a66fd", "fusion_lon": 0.0, "lat": 38.92185166666667, "fusion_lat": 0.0}, {"is_disabled": 0, "rental_uris": {"android": "https://dc.lft.to/lastmile_qr_scan", "ios": "https://dc.lft.to/lastmile_qr_scan"}, "is_reserved": 0, "name": "dcca8d52680077c673fa3765a719b8de", "lon": -77.04537016666667, "type": "electric_scooter", "bike_id": "dcca8d52680077c673fa3765a719b8de", "fusion_lon": 0.0, "lat": 38.90058333333333, "fusion_lat": 0.0}, {"is_disabled": 0, "rental_uris": {"android": "https://dc.lft.to/lastmile_qr_scan", "ios": "https://dc.lft.to/lastmile_qr_scan"}, "is_reserved": 0, "name": "f6df43fae331948251945c97669ff05f", "lon": -77.0230525, "type": "electric_scooter", "bike_id": "f6df43fae331948251945c97669ff05f", "fusion_lon": 0.0, "lat": 38.907365, "fusion_lat": 0.0}, {"is_disabled": 0, "rental_uris": {"android": "https://dc.lft.to/lastmile_qr_scan", "ios": "https://dc.lft.to/lastmile_qr_scan"}, "is_reserved": 0, "name": "de47f4325e0bfd5f7715c30b642e038f", "lon": -77.00586316666667, "type": "electric_scooter", "bike_id": "de47f4325e0bfd5f7715c30b642e038f", "fusion_lon": 0.0, "lat": 38.87649116666667, "fusion_lat": 0.0}, {"is_disabled": 0, "rental_uris": {"android": "https://dc.lft.to/lastmile_qr_scan", "ios": "https://dc.lft.to/lastmile_qr_scan"}, "is_reserved": 0, "name": "d99fba1bee7191febb309633a00b61fb", "lon": -77.03866166666667, "type": "electric_scooter", "bike_id": "d99fba1bee7191febb309633a00b61fb", "fusion_lon": 0.0, "lat": 38.92152766666667, "fusion_lat": 0.0}, {"is_disabled": 0, "rental_uris": {"android": "https://dc.lft.to/lastmile_qr_scan", "ios": "https://dc.lft.to/lastmile_qr_scan"}, "is_reserved": 0, "name": "98e959000c531e1857bb36aa7b5242d2", "lon": -77.03194916666666, "type": "electric_scooter", "bike_id": "98e959000c531e1857bb36aa7b5242d2", "fusion_lon": 0.0, "lat": 38.93063133333333, "fusion_lat": 0.0}, {"is_disabled": 0, "rental_uris": {"android": "https://dc.lft.to/lastmile_qr_scan", "ios": "https://dc.lft.to/lastmile_qr_scan"}, "is_reserved": 0, "name": "c6dec7858a79620f4dbccbf03e37fb04", "lon": -77.0205145, "type": "electric_scooter", "bike_id": "c6dec7858a79620f4dbccbf03e37fb04", "fusion_lon": 0.0, "lat": 38.958708, "fusion_lat": 0.0}, {"is_disabled": 0, "rental_uris": {"android": "https://dc.lft.to/lastmile_qr_scan", "ios": "https://dc.lft.to/lastmile_qr_scan"}, "is_reserved": 0, "name": "b057b6a8a92f6ee5fe29db79a780ce19", "lon": -77.02656733333333, "type": "electric_scooter", "bike_id": "b057b6a8a92f6ee5fe29db79a780ce19", "fusion_lon": 0.0, "lat": 38.9386045, "fusion_lat": 0.0}, {"is_disabled": 0, "rental_uris": {"android": "https://dc.lft.to/lastmile_qr_scan", "ios": "https://dc.lft.to/lastmile_qr_scan"}, "is_reserved": 0, "name": "c5d22e15fd9b67624590866ad386fb24", "lon": -77.0383885, "type": "electric_scooter", "bike_id": "c5d22e15fd9b67624590866ad386fb24", "fusion_lon": 0.0, "lat": 38.911398, "fusion_lat": 0.0}, {"is_disabled": 0, "rental_uris": {"android": "https://dc.lft.to/lastmile_qr_scan", "ios": "https://dc.lft.to/lastmile_qr_scan"}, "is_reserved": 0, "name": "65ce7049cfaa3ebccccbe02204e85134", "lon": -77.05385166666667, "type": "electric_scooter", "bike_id": "65ce7049cfaa3ebccccbe02204e85134", "fusion_lon": 0.0, "lat": 38.91068583333333, "fusion_lat": 0.0}, {"is_disabled": 0, "rental_uris": {"android": "https://dc.lft.to/lastmile_qr_scan", "ios": "https://dc.lft.to/lastmile_qr_scan"}, "is_reserved": 0, "name": "9e1e37280be1f4a57291529b74826ef1", "lon": -76.99051516666667, "type": "electric_scooter", "bike_id": "9e1e37280be1f4a57291529b74826ef1", "fusion_lon": 0.0, "lat": 38.863625, "fusion_lat": 0.0}, {"is_disabled": 0, "rental_uris": {"android": "https://dc.lft.to/lastmile_qr_scan", "ios": "https://dc.lft.to/lastmile_qr_scan"}, "is_reserved": 0, "name": "b9452bc8bd9603941fbce377ee000926", "lon": -77.1152295, "type": "electric_bike", "bike_id": "b9452bc8bd9603941fbce377ee000926", "fusion_lon": 0.0, "lat": 38.854933833333334, "fusion_lat": 0.0}, {"is_disabled": 0, "rental_uris": {"android": "https://dc.lft.to/lastmile_qr_scan", "ios": "https://dc.lft.to/lastmile_qr_scan"}, "is_reserved": 0, "name": "4f344f6b15f945870e50b99f79b6643a", "lon": -76.937992, "type": "electric_scooter", "bike_id": "4f344f6b15f945870e50b99f79b6643a", "fusion_lon": 0.0, "lat": 38.886605, "fusion_lat": 0.0}, {"is_disabled": 0, "rental_uris": {"android": "https://dc.lft.to/lastmile_qr_scan", "ios": "https://dc.lft.to/lastmile_qr_scan"}, "is_reserved": 0, "name": "acf54fb2e9ae0fcbe7e4e5f6f1bcdd58", "lon": -77.04132733333333, "type": "electric_scooter", "bike_id": "acf54fb2e9ae0fcbe7e4e5f6f1bcdd58", "fusion_lon": 0.0, "lat": 38.92133033333333, "fusion_lat": 0.0}, {"is_disabled": 0, "rental_uris": {"android": "https://dc.lft.to/lastmile_qr_scan", "ios": "https://dc.lft.to/lastmile_qr_scan"}, "is_reserved": 0, "name": "09a2accb7f06a84f6c678b1d9d7b20bf", "lon": -77.0207595, "type": "electric_scooter", "bike_id": "09a2accb7f06a84f6c678b1d9d7b20bf", "fusion_lon": 0.0, "lat": 38.9035415, "fusion_lat": 0.0}, {"is_disabled": 0, "rental_uris": {"android": "https://dc.lft.to/lastmile_qr_scan", "ios": "https://dc.lft.to/lastmile_qr_scan"}, "is_reserved": 0, "name": "fa5c61cd664a478aae07e0d792edbbe6", "lon": -77.01246566666667, "type": "electric_scooter", "bike_id": "fa5c61cd664a478aae07e0d792edbbe6", "fusion_lon": 0.0, "lat": 38.931123666666664, "fusion_lat": 0.0}, {"is_disabled": 0, "rental_uris": {"android": "https://dc.lft.to/lastmile_qr_scan", "ios": "https://dc.lft.to/lastmile_qr_scan"}, "is_reserved": 0, "name": "b6f7504102f78f4acbd4838ba50dd82e", "lon": -77.038265, "type": "electric_scooter", "bike_id": "b6f7504102f78f4acbd4838ba50dd82e", "fusion_lon": 0.0, "lat": 38.91115283333333, "fusion_lat": 0.0}, {"is_disabled": 0, "rental_uris": {"android": "https://dc.lft.to/lastmile_qr_scan", "ios": "https://dc.lft.to/lastmile_qr_scan"}, "is_reserved": 0, "name": "b0161fdd941e923834625346888a5587", "lon": -76.949411, "type": "electric_scooter", "bike_id": "b0161fdd941e923834625346888a5587", "fusion_lon": 0.0, "lat": 38.883227, "fusion_lat": 0.0}, {"is_disabled": 0, "rental_uris": {"android": "https://dc.lft.to/lastmile_qr_scan", "ios": "https://dc.lft.to/lastmile_qr_scan"}, "is_reserved": 0, "name": "b00e87bdfc9186b05f63216f20d38b24", "lon": -77.04328283333334, "type": "electric_scooter", "bike_id": "b00e87bdfc9186b05f63216f20d38b24", "fusion_lon": 0.0, "lat": 38.92332416666667, "fusion_lat": 0.0}, {"is_disabled": 0, "rental_uris": {"android": "https://dc.lft.to/lastmile_qr_scan", "ios": "https://dc.lft.to/lastmile_qr_scan"}, "is_reserved": 0, "name": "979a5a384f0611830fec764df543bd9b", "lon": -77.02728533333334, "type": "electric_scooter", "bike_id": "979a5a384f0611830fec764df543bd9b", "fusion_lon": 0.0, "lat": 38.928715333333336, "fusion_lat": 0.0}, {"is_disabled": 0, "rental_uris": {"android": "https://dc.lft.to/lastmile_qr_scan", "ios": "https://dc.lft.to/lastmile_qr_scan"}, "is_reserved": 0, "name": "e0548717fa06ab1137f9942d77afe9cf", "lon": -77.04553716666666, "type": "electric_scooter", "bike_id": "e0548717fa06ab1137f9942d77afe9cf", "fusion_lon": 0.0, "lat": 38.913712833333335, "fusion_lat": 0.0}, {"is_disabled": 0, "rental_uris": {"android": "https://dc.lft.to/lastmile_qr_scan", "ios": "https://dc.lft.to/lastmile_qr_scan"}, "is_reserved": 0, "name": "ca2d5bb94c7ff9bf4b7128e95da711cb", "lon": -76.99283233333334, "type": "electric_bike", "bike_id": "ca2d5bb94c7ff9bf4b7128e95da711cb", "fusion_lon": 0.0, "lat": 38.85841333333333, "fusion_lat": 0.0}, {"is_disabled": 0, "rental_uris": {"android": "https://dc.lft.to/lastmile_qr_scan", "ios": "https://dc.lft.to/lastmile_qr_scan"}, "is_reserved": 0, "name": "372cefe473329da6374a51138b6f2646", "lon": -77.010168, "type": "electric_scooter", "bike_id": "372cefe473329da6374a51138b6f2646", "fusion_lon": 0.0, "lat": 38.91813783333333, "fusion_lat": 0.0}, {"is_disabled": 0, "rental_uris": {"android": "https://dc.lft.to/lastmile_qr_scan", "ios": "https://dc.lft.to/lastmile_qr_scan"}, "is_reserved": 0, "name": "4efc8f87277a6b16005c52af3f39e7b2", "lon": -77.00203116666667, "type": "electric_scooter", "bike_id": "4efc8f87277a6b16005c52af3f39e7b2", "fusion_lon": 0.0, "lat": 38.90238866666667, "fusion_lat": 0.0}, {"is_disabled": 0, "rental_uris": {"android": "https://dc.lft.to/lastmile_qr_scan", "ios": "https://dc.lft.to/lastmile_qr_scan"}, "is_reserved": 0, "name": "19c5862f76ffc9503cbaf350e051f978", "lon": -76.98300733333333, "type": "electric_scooter", "bike_id": "19c5862f76ffc9503cbaf350e051f978", "fusion_lon": 0.0, "lat": 38.903731, "fusion_lat": 0.0}, {"is_disabled": 0, "rental_uris": {"android": "https://dc.lft.to/lastmile_qr_scan", "ios": "https://dc.lft.to/lastmile_qr_scan"}, "is_reserved": 0, "name": "e25e60111b8b5aa448f4aaa6a6159516", "lon": -77.0944305, "type": "electric_scooter", "bike_id": "e25e60111b8b5aa448f4aaa6a6159516", "fusion_lon": 0.0, "lat": 38.917939833333335, "fusion_lat": 0.0}, {"is_disabled": 0, "rental_uris": {"android": "https://dc.lft.to/lastmile_qr_scan", "ios": "https://dc.lft.to/lastmile_qr_scan"}, "is_reserved": 0, "name": "06cc4b089ab16257b8b688934e5a3a2b", "lon": -77.02469116666667, "type": "electric_scooter", "bike_id": "06cc4b089ab16257b8b688934e5a3a2b", "fusion_lon": 0.0, "lat": 38.88430533333333, "fusion_lat": 0.0}, {"is_disabled": 0, "rental_uris": {"android": "https://dc.lft.to/lastmile_qr_scan", "ios": "https://dc.lft.to/lastmile_qr_scan"}, "is_reserved": 0, "name": "35c7bfae46012e3f1dbfb63b09c51c9e", "lon": -77.01535133333333, "type": "electric_scooter", "bike_id": "35c7bfae46012e3f1dbfb63b09c51c9e", "fusion_lon": 0.0, "lat": 38.895331666666664, "fusion_lat": 0.0}, {"is_disabled": 0, "rental_uris": {"android": "https://dc.lft.to/lastmile_qr_scan", "ios": "https://dc.lft.to/lastmile_qr_scan"}, "is_reserved": 0, "name": "edd3308d3cd64ab28c46d3f3f7645e14", "lon": -77.03475733333333, "type": "electric_scooter", "bike_id": "edd3308d3cd64ab28c46d3f3f7645e14", "fusion_lon": 0.0, "lat": 38.917095333333336, "fusion_lat": 0.0}, {"is_disabled": 0, "rental_uris": {"android": "https://dc.lft.to/lastmile_qr_scan", "ios": "https://dc.lft.to/lastmile_qr_scan"}, "is_reserved": 0, "name": "3d69f2b11d04506bb806fa81b875c643", "lon": -76.9509765, "type": "electric_scooter", "bike_id": "3d69f2b11d04506bb806fa81b875c643", "fusion_lon": 0.0, "lat": 38.884488833333336, "fusion_lat": 0.0}, {"is_disabled": 0, "rental_uris": {"android": "https://dc.lft.to/lastmile_qr_scan", "ios": "https://dc.lft.to/lastmile_qr_scan"}, "is_reserved": 0, "name": "f65a8f2b1424d28a928a7a3b4fee8a11", "lon": -77.01115683333333, "type": "electric_scooter", "bike_id": "f65a8f2b1424d28a928a7a3b4fee8a11", "fusion_lon": 0.0, "lat": 38.876364333333335, "fusion_lat": 0.0}, {"is_disabled": 0, "rental_uris": {"android": "https://dc.lft.to/lastmile_qr_scan", "ios": "https://dc.lft.to/lastmile_qr_scan"}, "is_reserved": 0, "name": "3ae3e7c4f2f9c595b6c8c886ea9f11b8", "lon": -76.98378883333334, "type": "electric_scooter", "bike_id": "3ae3e7c4f2f9c595b6c8c886ea9f11b8", "fusion_lon": 0.0, "lat": 38.90646666666667, "fusion_lat": 0.0}, {"is_disabled": 0, "rental_uris": {"android": "https://dc.lft.to/lastmile_qr_scan", "ios": "https://dc.lft.to/lastmile_qr_scan"}, "is_reserved": 0, "name": "92565c077142c31c93dcedcc7c947b60", "lon": -77.042677, "type": "electric_scooter", "bike_id": "92565c077142c31c93dcedcc7c947b60", "fusion_lon": 0.0, "lat": 38.93412216666667, "fusion_lat": 0.0}, {"is_disabled": 0, "rental_uris": {"android": "https://dc.lft.to/lastmile_qr_scan", "ios": "https://dc.lft.to/lastmile_qr_scan"}, "is_reserved": 0, "name": "b5215878b5d589ea65cd131cc162cf2a", "lon": -77.00629666666667, "type": "electric_scooter", "bike_id": "b5215878b5d589ea65cd131cc162cf2a", "fusion_lon": 0.0, "lat": 38.87169216666667, "fusion_lat": 0.0}, {"is_disabled": 0, "rental_uris": {"android": "https://dc.lft.to/lastmile_qr_scan", "ios": "https://dc.lft.to/lastmile_qr_scan"}, "is_reserved": 0, "name": "37d3261e6fb2109a8604e632b281300e", "lon": -77.04180633333333, "type": "electric_scooter", "bike_id": "37d3261e6fb2109a8604e632b281300e", "fusion_lon": 0.0, "lat": 38.9197585, "fusion_lat": 0.0}, {"is_disabled": 0, "rental_uris": {"android": "https://dc.lft.to/lastmile_qr_scan", "ios": "https://dc.lft.to/lastmile_qr_scan"}, "is_reserved": 0, "name": "6b53607b6942fa8b0cc1c122a3670240", "lon": -76.951985, "type": "electric_bike", "bike_id": "6b53607b6942fa8b0cc1c122a3670240", "fusion_lon": 0.0, "lat": 38.906823333333335, "fusion_lat": 0.0}, {"is_disabled": 0, "rental_uris": {"android": "https://dc.lft.to/lastmile_qr_scan", "ios": "https://dc.lft.to/lastmile_qr_scan"}, "is_reserved": 0, "name": "19443aad22a684b880a4c6dad138116e", "lon": -76.99497766666667, "type": "electric_scooter", "bike_id": "19443aad22a684b880a4c6dad138116e", "fusion_lon": 0.0, "lat": 38.88286683333333, "fusion_lat": 0.0}, {"is_disabled": 0, "rental_uris": {"android": "https://dc.lft.to/lastmile_qr_scan", "ios": "https://dc.lft.to/lastmile_qr_scan"}, "is_reserved": 0, "name": "e32c0aabac3f422a76e5f24e7a39f410", "lon": -77.025881, "type": "electric_scooter", "bike_id": "e32c0aabac3f422a76e5f24e7a39f410", "fusion_lon": 0.0, "lat": 38.92090833333334, "fusion_lat": 0.0}, {"is_disabled": 0, "rental_uris": {"android": "https://dc.lft.to/lastmile_qr_scan", "ios": "https://dc.lft.to/lastmile_qr_scan"}, "is_reserved": 0, "name": "854cfceb646b47a7e38d558e36f87e7f", "lon": -77.02663716666666, "type": "electric_scooter", "bike_id": "854cfceb646b47a7e38d558e36f87e7f", "fusion_lon": 0.0, "lat": 38.931179, "fusion_lat": 0.0}, {"is_disabled": 0, "rental_uris": {"android": "https://dc.lft.to/lastmile_qr_scan", "ios": "https://dc.lft.to/lastmile_qr_scan"}, "is_reserved": 0, "name": "09b2df94e15d8f33594cd0ce48589fbb", "lon": -77.00249483333333, "type": "electric_scooter", "bike_id": "09b2df94e15d8f33594cd0ce48589fbb", "fusion_lon": 0.0, "lat": 38.911921, "fusion_lat": 0.0}, {"is_disabled": 0, "rental_uris": {"android": "https://dc.lft.to/lastmile_qr_scan", "ios": "https://dc.lft.to/lastmile_qr_scan"}, "is_reserved": 0, "name": "8fc925426474400c58b59e852288d2ed", "lon": -77.04981466666666, "type": "electric_scooter", "bike_id": "8fc925426474400c58b59e852288d2ed", "fusion_lon": 0.0, "lat": 38.907964666666665, "fusion_lat": 0.0}, {"is_disabled": 0, "rental_uris": {"android": "https://dc.lft.to/lastmile_qr_scan", "ios": "https://dc.lft.to/lastmile_qr_scan"}, "is_reserved": 0, "name": "a2e9c9fafaa560dee46b2da98de7a897", "lon": -76.942841, "type": "electric_scooter", "bike_id": "a2e9c9fafaa560dee46b2da98de7a897", "fusion_lon": 0.0, "lat": 38.883053, "fusion_lat": 0.0}, {"is_disabled": 0, "rental_uris": {"android": "https://dc.lft.to/lastmile_qr_scan", "ios": "https://dc.lft.to/lastmile_qr_scan"}, "is_reserved": 0, "name": "6cd81d031a316bf962e25870031ac684", "lon": -77.02166316666667, "type": "electric_scooter", "bike_id": "6cd81d031a316bf962e25870031ac684", "fusion_lon": 0.0, "lat": 38.8993815, "fusion_lat": 0.0}, {"is_disabled": 0, "rental_uris": {"android": "https://dc.lft.to/lastmile_qr_scan", "ios": "https://dc.lft.to/lastmile_qr_scan"}, "is_reserved": 0, "name": "cf18031017e3100d9ed1bcda715e05b4", "lon": -77.01215983333333, "type": "electric_scooter", "bike_id": "cf18031017e3100d9ed1bcda715e05b4", "fusion_lon": 0.0, "lat": 38.918179, "fusion_lat": 0.0}, {"is_disabled": 0, "rental_uris": {"android": "https://dc.lft.to/lastmile_qr_scan", "ios": "https://dc.lft.to/lastmile_qr_scan"}, "is_reserved": 0, "name": "be1ce98cef4cee671d7a5c95eec74ce5", "lon": -77.01321283333333, "type": "electric_scooter", "bike_id": "be1ce98cef4cee671d7a5c95eec74ce5", "fusion_lon": 0.0, "lat": 38.8990655, "fusion_lat": 0.0}, {"is_disabled": 0, "rental_uris": {"android": "https://dc.lft.to/lastmile_qr_scan", "ios": "https://dc.lft.to/lastmile_qr_scan"}, "is_reserved": 0, "name": "a5a37b457434c517505f0163e6bcc80c", "lon": -76.9222775, "type": "electric_scooter", "bike_id": "a5a37b457434c517505f0163e6bcc80c", "fusion_lon": 0.0, "lat": 38.89993283333333, "fusion_lat": 0.0}, {"is_disabled": 0, "rental_uris": {"android": "https://dc.lft.to/lastmile_qr_scan", "ios": "https://dc.lft.to/lastmile_qr_scan"}, "is_reserved": 0, "name": "f8a5f0c30d5b1aa7497756e8e697ec8f", "lon": -76.99492166666667, "type": "electric_scooter", "bike_id": "f8a5f0c30d5b1aa7497756e8e697ec8f", "fusion_lon": 0.0, "lat": 38.925766333333335, "fusion_lat": 0.0}, {"is_disabled": 0, "rental_uris": {"android": "https://dc.lft.to/lastmile_qr_scan", "ios": "https://dc.lft.to/lastmile_qr_scan"}, "is_reserved": 0, "name": "331578d290e03f6fb89d2783a7989f08", "lon": -77.0260155, "type": "electric_scooter", "bike_id": "331578d290e03f6fb89d2783a7989f08", "fusion_lon": 0.0, "lat": 38.907617333333334, "fusion_lat": 0.0}, {"is_disabled": 0, "rental_uris": {"android": "https://dc.lft.to/lastmile_qr_scan", "ios": "https://dc.lft.to/lastmile_qr_scan"}, "is_reserved": 0, "name": "1e1e625274fe55a324e6cbb1d44cdf89", "lon": -77.03967216666666, "type": "electric_scooter", "bike_id": "1e1e625274fe55a324e6cbb1d44cdf89", "fusion_lon": 0.0, "lat": 38.92451533333333, "fusion_lat": 0.0}, {"is_disabled": 0, "rental_uris": {"android": "https://dc.lft.to/lastmile_qr_scan", "ios": "https://dc.lft.to/lastmile_qr_scan"}, "is_reserved": 0, "name": "a18ab2c3ef303c4fe9c1235980c4a456", "lon": -77.006021, "type": "electric_scooter", "bike_id": "a18ab2c3ef303c4fe9c1235980c4a456", "fusion_lon": 0.0, "lat": 38.906128, "fusion_lat": 0.0}, {"is_disabled": 0, "rental_uris": {"android": "https://dc.lft.to/lastmile_qr_scan", "ios": "https://dc.lft.to/lastmile_qr_scan"}, "is_reserved": 0, "name": "c719d1441a6a143e84812ac66ff746d6", "lon": -77.00771566666667, "type": "electric_scooter", "bike_id": "c719d1441a6a143e84812ac66ff746d6", "fusion_lon": 0.0, "lat": 38.87114533333333, "fusion_lat": 0.0}, {"is_disabled": 0, "rental_uris": {"android": "https://dc.lft.to/lastmile_qr_scan", "ios": "https://dc.lft.to/lastmile_qr_scan"}, "is_reserved": 0, "name": "8abd4b9b7567798cc41a2802286ea593", "lon": -76.99533316666667, "type": "electric_scooter", "bike_id": "8abd4b9b7567798cc41a2802286ea593", "fusion_lon": 0.0, "lat": 38.8625295, "fusion_lat": 0.0}, {"is_disabled": 0, "rental_uris": {"android": "https://dc.lft.to/lastmile_qr_scan", "ios": "https://dc.lft.to/lastmile_qr_scan"}, "is_reserved": 0, "name": "099bef9145e6516b689eb7f847b8c914", "lon": -76.9790025, "type": "electric_bike", "bike_id": "099bef9145e6516b689eb7f847b8c914", "fusion_lon": 0.0, "lat": 38.8549115, "fusion_lat": 0.0}, {"is_disabled": 0, "rental_uris": {"android": "https://dc.lft.to/lastmile_qr_scan", "ios": "https://dc.lft.to/lastmile_qr_scan"}, "is_reserved": 0, "name": "f7fc7bbc14903a3ac73bb67e590b84c2", "lon": -76.91594883333333, "type": "electric_bike", "bike_id": "f7fc7bbc14903a3ac73bb67e590b84c2", "fusion_lon": 0.0, "lat": 38.8801345, "fusion_lat": 0.0}, {"is_disabled": 0, "rental_uris": {"android": "https://dc.lft.to/lastmile_qr_scan", "ios": "https://dc.lft.to/lastmile_qr_scan"}, "is_reserved": 0, "name": "d02110b01a6944504a687ea4f02bbd1b", "lon": -77.04024983333333, "type": "electric_scooter", "bike_id": "d02110b01a6944504a687ea4f02bbd1b", "fusion_lon": 0.0, "lat": 38.92412483333333, "fusion_lat": 0.0}, {"is_disabled": 0, "rental_uris": {"android": "https://dc.lft.to/lastmile_qr_scan", "ios": "https://dc.lft.to/lastmile_qr_scan"}, "is_reserved": 0, "name": "d3787cd4a1c8c5712b251ae609cda56f", "lon": -77.00331416666667, "type": "electric_scooter", "bike_id": "d3787cd4a1c8c5712b251ae609cda56f", "fusion_lon": 0.0, "lat": 38.883209666666666, "fusion_lat": 0.0}, {"is_disabled": 0, "rental_uris": {"android": "https://dc.lft.to/lastmile_qr_scan", "ios": "https://dc.lft.to/lastmile_qr_scan"}, "is_reserved": 0, "name": "aa575d4c571801c500ba615f68aad08b", "lon": -77.0193905, "type": "electric_scooter", "bike_id": "aa575d4c571801c500ba615f68aad08b", "fusion_lon": 0.0, "lat": 38.947049166666666, "fusion_lat": 0.0}, {"is_disabled": 0, "rental_uris": {"android": "https://dc.lft.to/lastmile_qr_scan", "ios": "https://dc.lft.to/lastmile_qr_scan"}, "is_reserved": 0, "name": "a22984b4b06f0ad7f93d0865f9aecdd0", "lon": -77.034436, "type": "electric_scooter", "bike_id": "a22984b4b06f0ad7f93d0865f9aecdd0", "fusion_lon": 0.0, "lat": 38.91499816666666, "fusion_lat": 0.0}, {"is_disabled": 0, "rental_uris": {"android": "https://dc.lft.to/lastmile_qr_scan", "ios": "https://dc.lft.to/lastmile_qr_scan"}, "is_reserved": 0, "name": "7f6f1f4cf49aba199af54cf671ee8265", "lon": -76.979694, "type": "electric_scooter", "bike_id": "7f6f1f4cf49aba199af54cf671ee8265", "fusion_lon": 0.0, "lat": 38.870713, "fusion_lat": 0.0}, {"is_disabled": 0, "rental_uris": {"android": "https://dc.lft.to/lastmile_qr_scan", "ios": "https://dc.lft.to/lastmile_qr_scan"}, "is_reserved": 0, "name": "dbc444950785f0f397e3b9e266ce53b0", "lon": -77.0374115, "type": "electric_scooter", "bike_id": "dbc444950785f0f397e3b9e266ce53b0", "fusion_lon": 0.0, "lat": 38.91193666666667, "fusion_lat": 0.0}, {"is_disabled": 0, "rental_uris": {"android": "https://dc.lft.to/lastmile_qr_scan", "ios": "https://dc.lft.to/lastmile_qr_scan"}, "is_reserved": 0, "name": "f383a0adfcc8f0afbda7418c92406478", "lon": -77.0163635, "type": "electric_scooter", "bike_id": "f383a0adfcc8f0afbda7418c92406478", "fusion_lon": 0.0, "lat": 38.88326033333333, "fusion_lat": 0.0}, {"is_disabled": 0, "rental_uris": {"android": "https://dc.lft.to/lastmile_qr_scan", "ios": "https://dc.lft.to/lastmile_qr_scan"}, "is_reserved": 0, "name": "97c1f1451a9ff7152dd26ab4d26eb122", "lon": -76.9081615, "type": "electric_bike", "bike_id": "97c1f1451a9ff7152dd26ab4d26eb122", "fusion_lon": 0.0, "lat": 38.994559833333334, "fusion_lat": 0.0}, {"is_disabled": 0, "rental_uris": {"android": "https://dc.lft.to/lastmile_qr_scan", "ios": "https://dc.lft.to/lastmile_qr_scan"}, "is_reserved": 0, "name": "f96e87573cd88fe2f3adc0d04308a6c6", "lon": -76.9975505, "type": "electric_scooter", "bike_id": "f96e87573cd88fe2f3adc0d04308a6c6", "fusion_lon": 0.0, "lat": 38.92187883333333, "fusion_lat": 0.0}, {"is_disabled": 0, "rental_uris": {"android": "https://dc.lft.to/lastmile_qr_scan", "ios": "https://dc.lft.to/lastmile_qr_scan"}, "is_reserved": 0, "name": "09bfded83431e7badc5348c98709366d", "lon": -77.012223, "type": "electric_scooter", "bike_id": "09bfded83431e7badc5348c98709366d", "fusion_lon": 0.0, "lat": 38.866829333333335, "fusion_lat": 0.0}, {"is_disabled": 0, "rental_uris": {"android": "https://dc.lft.to/lastmile_qr_scan", "ios": "https://dc.lft.to/lastmile_qr_scan"}, "is_reserved": 0, "name": "c95a1040023e2d8f11e7484524c85cd7", "lon": -77.03649666666666, "type": "electric_scooter", "bike_id": "c95a1040023e2d8f11e7484524c85cd7", "fusion_lon": 0.0, "lat": 38.9558985, "fusion_lat": 0.0}, {"is_disabled": 0, "rental_uris": {"android": "https://dc.lft.to/lastmile_qr_scan", "ios": "https://dc.lft.to/lastmile_qr_scan"}, "is_reserved": 0, "name": "56285cd754633ba92a282c252f5e154e", "lon": -76.96830133333333, "type": "electric_bike", "bike_id": "56285cd754633ba92a282c252f5e154e", "fusion_lon": 0.0, "lat": 38.92445416666666, "fusion_lat": 0.0}, {"is_disabled": 0, "rental_uris": {"android": "https://dc.lft.to/lastmile_qr_scan", "ios": "https://dc.lft.to/lastmile_qr_scan"}, "is_reserved": 0, "name": "ac783eca05f3a3fc9b053cd0acf8e26a", "lon": -77.0321655, "type": "electric_scooter", "bike_id": "ac783eca05f3a3fc9b053cd0acf8e26a", "fusion_lon": 0.0, "lat": 38.9182815, "fusion_lat": 0.0}, {"is_disabled": 0, "rental_uris": {"android": "https://dc.lft.to/lastmile_qr_scan", "ios": "https://dc.lft.to/lastmile_qr_scan"}, "is_reserved": 0, "name": "d1b49de7c7e707344a1988970be0a0f6", "lon": -77.152656, "type": "electric_bike", "bike_id": "d1b49de7c7e707344a1988970be0a0f6", "fusion_lon": 0.0, "lat": 39.105692, "fusion_lat": 0.0}, {"is_disabled": 0, "rental_uris": {"android": "https://dc.lft.to/lastmile_qr_scan", "ios": "https://dc.lft.to/lastmile_qr_scan"}, "is_reserved": 0, "name": "1d7ccb2cee8e929f371f652081c87d9f", "lon": -77.04516333333333, "type": "electric_scooter", "bike_id": "1d7ccb2cee8e929f371f652081c87d9f", "fusion_lon": 0.0, "lat": 38.903700666666666, "fusion_lat": 0.0}, {"is_disabled": 0, "rental_uris": {"android": "https://dc.lft.to/lastmile_qr_scan", "ios": "https://dc.lft.to/lastmile_qr_scan"}, "is_reserved": 0, "name": "2c0fbb49275ca3a5ce198d9322938b57", "lon": -77.03854833333334, "type": "electric_scooter", "bike_id": "2c0fbb49275ca3a5ce198d9322938b57", "fusion_lon": 0.0, "lat": 38.91223166666666, "fusion_lat": 0.0}, {"is_disabled": 0, "rental_uris": {"android": "https://dc.lft.to/lastmile_qr_scan", "ios": "https://dc.lft.to/lastmile_qr_scan"}, "is_reserved": 0, "name": "9d94b1579009b7a522fa3215a69669c7", "lon": -77.3530785, "type": "electric_bike", "bike_id": "9d94b1579009b7a522fa3215a69669c7", "fusion_lon": 0.0, "lat": 38.95002566666667, "fusion_lat": 0.0}, {"is_disabled": 0, "rental_uris": {"android": "https://dc.lft.to/lastmile_qr_scan", "ios": "https://dc.lft.to/lastmile_qr_scan"}, "is_reserved": 0, "name": "cae74ba618b1645b5ac3c7615e7d5de1", "lon": -77.01624233333334, "type": "electric_scooter", "bike_id": "cae74ba618b1645b5ac3c7615e7d5de1", "fusion_lon": 0.0, "lat": 38.898627833333336, "fusion_lat": 0.0}, {"is_disabled": 0, "rental_uris": {"android": "https://dc.lft.to/lastmile_qr_scan", "ios": "https://dc.lft.to/lastmile_qr_scan"}, "is_reserved": 0, "name": "563abc9f71328bc81595aab52f5f08ff", "lon": -77.034668, "type": "electric_scooter", "bike_id": "563abc9f71328bc81595aab52f5f08ff", "fusion_lon": 0.0, "lat": 38.91389616666667, "fusion_lat": 0.0}, {"is_disabled": 0, "rental_uris": {"android": "https://dc.lft.to/lastmile_qr_scan", "ios": "https://dc.lft.to/lastmile_qr_scan"}, "is_reserved": 0, "name": "071c1fab9f1acb957d8c7961424c6f78", "lon": -76.99735616666666, "type": "electric_scooter", "bike_id": "071c1fab9f1acb957d8c7961424c6f78", "fusion_lon": 0.0, "lat": 38.9246205, "fusion_lat": 0.0}, {"is_disabled": 0, "rental_uris": {"android": "https://dc.lft.to/lastmile_qr_scan", "ios": "https://dc.lft.to/lastmile_qr_scan"}, "is_reserved": 0, "name": "e7c1d75b9365a8f74824c3a74a75eede", "lon": -77.04677416666667, "type": "electric_scooter", "bike_id": "e7c1d75b9365a8f74824c3a74a75eede", "fusion_lon": 0.0, "lat": 38.91578416666667, "fusion_lat": 0.0}, {"is_disabled": 0, "rental_uris": {"android": "https://dc.lft.to/lastmile_qr_scan", "ios": "https://dc.lft.to/lastmile_qr_scan"}, "is_reserved": 0, "name": "1c1fe798ec17175a0d5b31fadd101929", "lon": -77.02466033333333, "type": "electric_scooter", "bike_id": "1c1fe798ec17175a0d5b31fadd101929", "fusion_lon": 0.0, "lat": 38.93910283333334, "fusion_lat": 0.0}, {"is_disabled": 0, "rental_uris": {"android": "https://dc.lft.to/lastmile_qr_scan", "ios": "https://dc.lft.to/lastmile_qr_scan"}, "is_reserved": 0, "name": "44a223e81b3f31c0e1159d8ee8c9177b", "lon": -76.93185683333333, "type": "electric_scooter", "bike_id": "44a223e81b3f31c0e1159d8ee8c9177b", "fusion_lon": 0.0, "lat": 38.89879533333333, "fusion_lat": 0.0}, {"is_disabled": 0, "rental_uris": {"android": "https://dc.lft.to/lastmile_qr_scan", "ios": "https://dc.lft.to/lastmile_qr_scan"}, "is_reserved": 0, "name": "812ac272ec7ac583e67b5d674fb2f465", "lon": -77.027768, "type": "electric_scooter", "bike_id": "812ac272ec7ac583e67b5d674fb2f465", "fusion_lon": 0.0, "lat": 38.91710033333333, "fusion_lat": 0.0}, {"is_disabled": 0, "rental_uris": {"android": "https://dc.lft.to/lastmile_qr_scan", "ios": "https://dc.lft.to/lastmile_qr_scan"}, "is_reserved": 0, "name": "9b47a543de85fe81170261c7795f4dd4", "lon": -77.02876183333333, "type": "electric_scooter", "bike_id": "9b47a543de85fe81170261c7795f4dd4", "fusion_lon": 0.0, "lat": 38.917140833333335, "fusion_lat": 0.0}, {"is_disabled": 0, "rental_uris": {"android": "https://dc.lft.to/lastmile_qr_scan", "ios": "https://dc.lft.to/lastmile_qr_scan"}, "is_reserved": 0, "name": "8c9051f8e3b6204b5c45f351df0ec6fe", "lon": -77.00412116666666, "type": "electric_scooter", "bike_id": "8c9051f8e3b6204b5c45f351df0ec6fe", "fusion_lon": 0.0, "lat": 38.895602833333335, "fusion_lat": 0.0}, {"is_disabled": 0, "rental_uris": {"android": "https://dc.lft.to/lastmile_qr_scan", "ios": "https://dc.lft.to/lastmile_qr_scan"}, "is_reserved": 0, "name": "1f7b180668fa5f888c9ac8524907ff8c", "lon": -77.03189983333333, "type": "electric_scooter", "bike_id": "1f7b180668fa5f888c9ac8524907ff8c", "fusion_lon": 0.0, "lat": 38.90949283333333, "fusion_lat": 0.0}, {"is_disabled": 0, "rental_uris": {"android": "https://dc.lft.to/lastmile_qr_scan", "ios": "https://dc.lft.to/lastmile_qr_scan"}, "is_reserved": 0, "name": "a81d2f6842b8faa05177ce0357ef8fb8", "lon": -77.0504545, "type": "electric_scooter", "bike_id": "a81d2f6842b8faa05177ce0357ef8fb8", "fusion_lon": 0.0, "lat": 38.90067283333333, "fusion_lat": 0.0}, {"is_disabled": 0, "rental_uris": {"android": "https://dc.lft.to/lastmile_qr_scan", "ios": "https://dc.lft.to/lastmile_qr_scan"}, "is_reserved": 0, "name": "ea59b1d124c644a9d5472c6ae988657b", "lon": -77.047684, "type": "electric_scooter", "bike_id": "ea59b1d124c644a9d5472c6ae988657b", "fusion_lon": 0.0, "lat": 38.912490166666664, "fusion_lat": 0.0}, {"is_disabled": 0, "rental_uris": {"android": "https://dc.lft.to/lastmile_qr_scan", "ios": "https://dc.lft.to/lastmile_qr_scan"}, "is_reserved": 0, "name": "ac66e283430268ed02b2c28e7239f8ce", "lon": -76.94638566666667, "type": "electric_scooter", "bike_id": "ac66e283430268ed02b2c28e7239f8ce", "fusion_lon": 0.0, "lat": 38.89846333333333, "fusion_lat": 0.0}, {"is_disabled": 0, "rental_uris": {"android": "https://dc.lft.to/lastmile_qr_scan", "ios": "https://dc.lft.to/lastmile_qr_scan"}, "is_reserved": 0, "name": "ed08e4e7ab8e640e83d2ca33425749ee", "lon": -77.04829633333334, "type": "electric_scooter", "bike_id": "ed08e4e7ab8e640e83d2ca33425749ee", "fusion_lon": 0.0, "lat": 38.904750166666666, "fusion_lat": 0.0}, {"is_disabled": 0, "rental_uris": {"android": "https://dc.lft.to/lastmile_qr_scan", "ios": "https://dc.lft.to/lastmile_qr_scan"}, "is_reserved": 0, "name": "4b05002735676e85613e99c6cf987080", "lon": -77.01694533333334, "type": "electric_scooter", "bike_id": "4b05002735676e85613e99c6cf987080", "fusion_lon": 0.0, "lat": 38.90243383333333, "fusion_lat": 0.0}, {"is_disabled": 0, "rental_uris": {"android": "https://dc.lft.to/lastmile_qr_scan", "ios": "https://dc.lft.to/lastmile_qr_scan"}, "is_reserved": 0, "name": "96a98955a0be31454b837b9531befe0c", "lon": -77.029636, "type": "electric_scooter", "bike_id": "96a98955a0be31454b837b9531befe0c", "fusion_lon": 0.0, "lat": 38.92248416666666, "fusion_lat": 0.0}, {"is_disabled": 0, "rental_uris": {"android": "https://dc.lft.to/lastmile_qr_scan", "ios": "https://dc.lft.to/lastmile_qr_scan"}, "is_reserved": 0, "name": "b6919a0d858bdf403350f3a3a1eb78f5", "lon": -77.007586, "type": "electric_scooter", "bike_id": "b6919a0d858bdf403350f3a3a1eb78f5", "fusion_lon": 0.0, "lat": 38.876537666666664, "fusion_lat": 0.0}, {"is_disabled": 0, "rental_uris": {"android": "https://dc.lft.to/lastmile_qr_scan", "ios": "https://dc.lft.to/lastmile_qr_scan"}, "is_reserved": 0, "name": "0ba6917a27eb814d8b8674660b972801", "lon": -76.9291705, "type": "electric_bike", "bike_id": "0ba6917a27eb814d8b8674660b972801", "fusion_lon": 0.0, "lat": 38.98027583333333, "fusion_lat": 0.0}, {"is_disabled": 0, "rental_uris": {"android": "https://dc.lft.to/lastmile_qr_scan", "ios": "https://dc.lft.to/lastmile_qr_scan"}, "is_reserved": 0, "name": "0ff1e963e891bdf0acbb5e2eff0cf80b", "lon": -77.02673266666666, "type": "electric_scooter", "bike_id": "0ff1e963e891bdf0acbb5e2eff0cf80b", "fusion_lon": 0.0, "lat": 38.89599483333333, "fusion_lat": 0.0}, {"is_disabled": 0, "rental_uris": {"android": "https://dc.lft.to/lastmile_qr_scan", "ios": "https://dc.lft.to/lastmile_qr_scan"}, "is_reserved": 0, "name": "7bf3ab614821a1f5c604fecf9b36c51f", "lon": -77.00063383333334, "type": "electric_scooter", "bike_id": "7bf3ab614821a1f5c604fecf9b36c51f", "fusion_lon": 0.0, "lat": 38.88859766666667, "fusion_lat": 0.0}, {"is_disabled": 0, "rental_uris": {"android": "https://dc.lft.to/lastmile_qr_scan", "ios": "https://dc.lft.to/lastmile_qr_scan"}, "is_reserved": 0, "name": "45be1dc391005f4f5b1e85f212d94755", "lon": -77.024907, "type": "electric_scooter", "bike_id": "45be1dc391005f4f5b1e85f212d94755", "fusion_lon": 0.0, "lat": 38.941881333333335, "fusion_lat": 0.0}, {"is_disabled": 0, "rental_uris": {"android": "https://dc.lft.to/lastmile_qr_scan", "ios": "https://dc.lft.to/lastmile_qr_scan"}, "is_reserved": 0, "name": "34440f0461de1cbf9dec71104d665387", "lon": -77.0254415, "type": "electric_scooter", "bike_id": "34440f0461de1cbf9dec71104d665387", "fusion_lon": 0.0, "lat": 38.92403766666666, "fusion_lat": 0.0}, {"is_disabled": 0, "rental_uris": {"android": "https://dc.lft.to/lastmile_qr_scan", "ios": "https://dc.lft.to/lastmile_qr_scan"}, "is_reserved": 0, "name": "c0d3c527c8bdec679b6f3205cb78e498", "lon": -77.01735316666667, "type": "electric_scooter", "bike_id": "c0d3c527c8bdec679b6f3205cb78e498", "fusion_lon": 0.0, "lat": 38.91118866666667, "fusion_lat": 0.0}, {"is_disabled": 0, "rental_uris": {"android": "https://dc.lft.to/lastmile_qr_scan", "ios": "https://dc.lft.to/lastmile_qr_scan"}, "is_reserved": 0, "name": "df8a0ee464c779e9b7b6852f8cbeb968", "lon": -77.04108866666667, "type": "electric_scooter", "bike_id": "df8a0ee464c779e9b7b6852f8cbeb968", "fusion_lon": 0.0, "lat": 38.91698133333333, "fusion_lat": 0.0}, {"is_disabled": 0, "rental_uris": {"android": "https://dc.lft.to/lastmile_qr_scan", "ios": "https://dc.lft.to/lastmile_qr_scan"}, "is_reserved": 0, "name": "d78ec5d8cecf6d633e8dfb9bfa399a8e", "lon": -77.04358683333334, "type": "electric_scooter", "bike_id": "d78ec5d8cecf6d633e8dfb9bfa399a8e", "fusion_lon": 0.0, "lat": 38.9104385, "fusion_lat": 0.0}, {"is_disabled": 0, "rental_uris": {"android": "https://dc.lft.to/lastmile_qr_scan", "ios": "https://dc.lft.to/lastmile_qr_scan"}, "is_reserved": 0, "name": "5e79d07af0d7cf0aacd7a68d4bc14ded", "lon": -77.04193966666666, "type": "electric_scooter", "bike_id": "5e79d07af0d7cf0aacd7a68d4bc14ded", "fusion_lon": 0.0, "lat": 38.9198435, "fusion_lat": 0.0}, {"is_disabled": 0, "rental_uris": {"android": "https://dc.lft.to/lastmile_qr_scan", "ios": "https://dc.lft.to/lastmile_qr_scan"}, "is_reserved": 0, "name": "d4a18cd6d0a0367f5dc52b19e28e56ca", "lon": -77.0089275, "type": "electric_scooter", "bike_id": "d4a18cd6d0a0367f5dc52b19e28e56ca", "fusion_lon": 0.0, "lat": 38.905745333333336, "fusion_lat": 0.0}, {"is_disabled": 0, "rental_uris": {"android": "https://dc.lft.to/lastmile_qr_scan", "ios": "https://dc.lft.to/lastmile_qr_scan"}, "is_reserved": 0, "name": "e08352ad3cf4225537cb1085fded2f64", "lon": -77.03832516666667, "type": "electric_scooter", "bike_id": "e08352ad3cf4225537cb1085fded2f64", "fusion_lon": 0.0, "lat": 38.910449, "fusion_lat": 0.0}, {"is_disabled": 0, "rental_uris": {"android": "https://dc.lft.to/lastmile_qr_scan", "ios": "https://dc.lft.to/lastmile_qr_scan"}, "is_reserved": 0, "name": "03079c530bcaa4bdf1186569398213de", "lon": -77.03431883333333, "type": "electric_scooter", "bike_id": "03079c530bcaa4bdf1186569398213de", "fusion_lon": 0.0, "lat": 38.927383666666664, "fusion_lat": 0.0}, {"is_disabled": 0, "rental_uris": {"android": "https://dc.lft.to/lastmile_qr_scan", "ios": "https://dc.lft.to/lastmile_qr_scan"}, "is_reserved": 0, "name": "6ff6a71857699ed1b6a76f536683283c", "lon": -77.02688266666667, "type": "electric_scooter", "bike_id": "6ff6a71857699ed1b6a76f536683283c", "fusion_lon": 0.0, "lat": 38.918127, "fusion_lat": 0.0}, {"is_disabled": 0, "rental_uris": {"android": "https://dc.lft.to/lastmile_qr_scan", "ios": "https://dc.lft.to/lastmile_qr_scan"}, "is_reserved": 0, "name": "3d92bb772f551258945d1d39912c317b", "lon": -77.0150545, "type": "electric_scooter", "bike_id": "3d92bb772f551258945d1d39912c317b", "fusion_lon": 0.0, "lat": 38.91000016666667, "fusion_lat": 0.0}, {"is_disabled": 0, "rental_uris": {"android": "https://dc.lft.to/lastmile_qr_scan", "ios": "https://dc.lft.to/lastmile_qr_scan"}, "is_reserved": 0, "name": "3ffc0569716f8b32e8d9645dceec8a86", "lon": -77.03370283333334, "type": "electric_scooter", "bike_id": "3ffc0569716f8b32e8d9645dceec8a86", "fusion_lon": 0.0, "lat": 38.917, "fusion_lat": 0.0}, {"is_disabled": 0, "rental_uris": {"android": "https://dc.lft.to/lastmile_qr_scan", "ios": "https://dc.lft.to/lastmile_qr_scan"}, "is_reserved": 0, "name": "a027ac8f1db27af60707aa3e89a290b7", "lon": -76.997987, "type": "electric_scooter", "bike_id": "a027ac8f1db27af60707aa3e89a290b7", "fusion_lon": 0.0, "lat": 38.908519, "fusion_lat": 0.0}, {"is_disabled": 0, "rental_uris": {"android": "https://dc.lft.to/lastmile_qr_scan", "ios": "https://dc.lft.to/lastmile_qr_scan"}, "is_reserved": 0, "name": "dbc6e7a85cd73494823ab3f1db4bd6e8", "lon": -77.00506166666666, "type": "electric_scooter", "bike_id": "dbc6e7a85cd73494823ab3f1db4bd6e8", "fusion_lon": 0.0, "lat": 38.87459233333333, "fusion_lat": 0.0}, {"is_disabled": 0, "rental_uris": {"android": "https://dc.lft.to/lastmile_qr_scan", "ios": "https://dc.lft.to/lastmile_qr_scan"}, "is_reserved": 0, "name": "2f876476125577a5a3109a0bcf109bd5", "lon": -77.02974266666666, "type": "electric_scooter", "bike_id": "2f876476125577a5a3109a0bcf109bd5", "fusion_lon": 0.0, "lat": 38.903909, "fusion_lat": 0.0}, {"is_disabled": 0, "rental_uris": {"android": "https://dc.lft.to/lastmile_qr_scan", "ios": "https://dc.lft.to/lastmile_qr_scan"}, "is_reserved": 0, "name": "411f42aacf20647b3b7298c688d324fb", "lon": -77.022121, "type": "electric_scooter", "bike_id": "411f42aacf20647b3b7298c688d324fb", "fusion_lon": 0.0, "lat": 38.887404333333336, "fusion_lat": 0.0}, {"is_disabled": 0, "rental_uris": {"android": "https://dc.lft.to/lastmile_qr_scan", "ios": "https://dc.lft.to/lastmile_qr_scan"}, "is_reserved": 0, "name": "abc3609c38a7644cf666f54c1065dcf8", "lon": -76.93148866666667, "type": "electric_scooter", "bike_id": "abc3609c38a7644cf666f54c1065dcf8", "fusion_lon": 0.0, "lat": 38.898511, "fusion_lat": 0.0}, {"is_disabled": 0, "rental_uris": {"android": "https://dc.lft.to/lastmile_qr_scan", "ios": "https://dc.lft.to/lastmile_qr_scan"}, "is_reserved": 0, "name": "6f1efb32ca76c1fb8a6c750068312d45", "lon": -77.02916116666667, "type": "electric_scooter", "bike_id": "6f1efb32ca76c1fb8a6c750068312d45", "fusion_lon": 0.0, "lat": 38.89848333333333, "fusion_lat": 0.0}, {"is_disabled": 0, "rental_uris": {"android": "https://dc.lft.to/lastmile_qr_scan", "ios": "https://dc.lft.to/lastmile_qr_scan"}, "is_reserved": 0, "name": "1b9288ff5adecc35ac5979ff979db6cc", "lon": -76.98731116666667, "type": "electric_scooter", "bike_id": "1b9288ff5adecc35ac5979ff979db6cc", "fusion_lon": 0.0, "lat": 38.867133, "fusion_lat": 0.0}, {"is_disabled": 0, "rental_uris": {"android": "https://dc.lft.to/lastmile_qr_scan", "ios": "https://dc.lft.to/lastmile_qr_scan"}, "is_reserved": 0, "name": "15c99d6168e410b303016ee6466d2052", "lon": -77.0250255, "type": "electric_scooter", "bike_id": "15c99d6168e410b303016ee6466d2052", "fusion_lon": 0.0, "lat": 38.93878683333333, "fusion_lat": 0.0}, {"is_disabled": 0, "rental_uris": {"android": "https://dc.lft.to/lastmile_qr_scan", "ios": "https://dc.lft.to/lastmile_qr_scan"}, "is_reserved": 0, "name": "1cdbb7515da06af4f94ea0ace9727b31", "lon": -77.04134183333333, "type": "electric_scooter", "bike_id": "1cdbb7515da06af4f94ea0ace9727b31", "fusion_lon": 0.0, "lat": 38.922497166666666, "fusion_lat": 0.0}, {"is_disabled": 0, "rental_uris": {"android": "https://dc.lft.to/lastmile_qr_scan", "ios": "https://dc.lft.to/lastmile_qr_scan"}, "is_reserved": 0, "name": "943d62ac8fcc2f88e28fd08631c10783", "lon": -76.98711716666666, "type": "electric_scooter", "bike_id": "943d62ac8fcc2f88e28fd08631c10783", "fusion_lon": 0.0, "lat": 38.86701016666667, "fusion_lat": 0.0}, {"is_disabled": 0, "rental_uris": {"android": "https://dc.lft.to/lastmile_qr_scan", "ios": "https://dc.lft.to/lastmile_qr_scan"}, "is_reserved": 0, "name": "c4aa92c727d538fab88170c65858ae74", "lon": -77.02243733333333, "type": "electric_scooter", "bike_id": "c4aa92c727d538fab88170c65858ae74", "fusion_lon": 0.0, "lat": 38.91645116666667, "fusion_lat": 0.0}, {"is_disabled": 0, "rental_uris": {"android": "https://dc.lft.to/lastmile_qr_scan", "ios": "https://dc.lft.to/lastmile_qr_scan"}, "is_reserved": 0, "name": "96ab848c53230c3efcc094f6a21d59ba", "lon": -77.02968983333334, "type": "electric_scooter", "bike_id": "96ab848c53230c3efcc094f6a21d59ba", "fusion_lon": 0.0, "lat": 38.91682866666667, "fusion_lat": 0.0}, {"is_disabled": 0, "rental_uris": {"android": "https://dc.lft.to/lastmile_qr_scan", "ios": "https://dc.lft.to/lastmile_qr_scan"}, "is_reserved": 0, "name": "a92721abf50ce26af7a89986de12f23f", "lon": -77.05028133333333, "type": "electric_scooter", "bike_id": "a92721abf50ce26af7a89986de12f23f", "fusion_lon": 0.0, "lat": 38.893160333333334, "fusion_lat": 0.0}, {"is_disabled": 0, "rental_uris": {"android": "https://dc.lft.to/lastmile_qr_scan", "ios": "https://dc.lft.to/lastmile_qr_scan"}, "is_reserved": 0, "name": "0e723cdaaad9dc71fd16e1a6659a5176", "lon": -77.0062295, "type": "electric_scooter", "bike_id": "0e723cdaaad9dc71fd16e1a6659a5176", "fusion_lon": 0.0, "lat": 38.8717315, "fusion_lat": 0.0}, {"is_disabled": 0, "rental_uris": {"android": "https://dc.lft.to/lastmile_qr_scan", "ios": "https://dc.lft.to/lastmile_qr_scan"}, "is_reserved": 0, "name": "0db39036be227bf7965c478542554bbc", "lon": -77.066757, "type": "electric_scooter", "bike_id": "0db39036be227bf7965c478542554bbc", "fusion_lon": 0.0, "lat": 38.949593166666666, "fusion_lat": 0.0}, {"is_disabled": 0, "rental_uris": {"android": "https://dc.lft.to/lastmile_qr_scan", "ios": "https://dc.lft.to/lastmile_qr_scan"}, "is_reserved": 0, "name": "e9f4a0b3be4ca132e7b3991f9da41e06", "lon": -77.09696416666667, "type": "electric_bike", "bike_id": "e9f4a0b3be4ca132e7b3991f9da41e06", "fusion_lon": 0.0, "lat": 38.884763, "fusion_lat": 0.0}, {"is_disabled": 0, "rental_uris": {"android": "https://dc.lft.to/lastmile_qr_scan", "ios": "https://dc.lft.to/lastmile_qr_scan"}, "is_reserved": 0, "name": "e8d04252c8805ed8bb1f789cf812e357", "lon": -77.03832666666666, "type": "electric_scooter", "bike_id": "e8d04252c8805ed8bb1f789cf812e357", "fusion_lon": 0.0, "lat": 38.91133166666667, "fusion_lat": 0.0}, {"is_disabled": 0, "rental_uris": {"android": "https://dc.lft.to/lastmile_qr_scan", "ios": "https://dc.lft.to/lastmile_qr_scan"}, "is_reserved": 0, "name": "b9b2ed583dee6468ddc4cc45bd2b0e56", "lon": -77.01010383333333, "type": "electric_scooter", "bike_id": "b9b2ed583dee6468ddc4cc45bd2b0e56", "fusion_lon": 0.0, "lat": 38.8796815, "fusion_lat": 0.0}, {"is_disabled": 0, "rental_uris": {"android": "https://dc.lft.to/lastmile_qr_scan", "ios": "https://dc.lft.to/lastmile_qr_scan"}, "is_reserved": 0, "name": "f28b2936302e7e28c6accd08600710c0", "lon": -77.01010233333334, "type": "electric_scooter", "bike_id": "f28b2936302e7e28c6accd08600710c0", "fusion_lon": 0.0, "lat": 38.897561, "fusion_lat": 0.0}, {"is_disabled": 0, "rental_uris": {"android": "https://dc.lft.to/lastmile_qr_scan", "ios": "https://dc.lft.to/lastmile_qr_scan"}, "is_reserved": 0, "name": "1dd6f4d10615749f62fcfeb0357077db", "lon": -77.0688295, "type": "electric_scooter", "bike_id": "1dd6f4d10615749f62fcfeb0357077db", "fusion_lon": 0.0, "lat": 38.934686, "fusion_lat": 0.0}, {"is_disabled": 0, "rental_uris": {"android": "https://dc.lft.to/lastmile_qr_scan", "ios": "https://dc.lft.to/lastmile_qr_scan"}, "is_reserved": 0, "name": "8d733eaa22fb21c89ef91f8c499b825f", "lon": -77.01615933333333, "type": "electric_scooter", "bike_id": "8d733eaa22fb21c89ef91f8c499b825f", "fusion_lon": 0.0, "lat": 38.898543333333336, "fusion_lat": 0.0}, {"is_disabled": 0, "rental_uris": {"android": "https://dc.lft.to/lastmile_qr_scan", "ios": "https://dc.lft.to/lastmile_qr_scan"}, "is_reserved": 0, "name": "69723995f86564abdde2f55a8cd3ce7e", "lon": -76.99165683333334, "type": "electric_bike", "bike_id": "69723995f86564abdde2f55a8cd3ce7e", "fusion_lon": 0.0, "lat": 38.972613333333335, "fusion_lat": 0.0}, {"is_disabled": 0, "rental_uris": {"android": "https://dc.lft.to/lastmile_qr_scan", "ios": "https://dc.lft.to/lastmile_qr_scan"}, "is_reserved": 0, "name": "b4d68458f5f3a44440cda875a3f2652b", "lon": -77.017547, "type": "electric_scooter", "bike_id": "b4d68458f5f3a44440cda875a3f2652b", "fusion_lon": 0.0, "lat": 38.913532333333336, "fusion_lat": 0.0}, {"is_disabled": 0, "rental_uris": {"android": "https://dc.lft.to/lastmile_qr_scan", "ios": "https://dc.lft.to/lastmile_qr_scan"}, "is_reserved": 0, "name": "31b88a158074f495fbfc6847ce5ee374", "lon": -77.00584916666666, "type": "electric_scooter", "bike_id": "31b88a158074f495fbfc6847ce5ee374", "fusion_lon": 0.0, "lat": 38.905576, "fusion_lat": 0.0}, {"is_disabled": 0, "rental_uris": {"android": "https://dc.lft.to/lastmile_qr_scan", "ios": "https://dc.lft.to/lastmile_qr_scan"}, "is_reserved": 0, "name": "747344fdbb90ebae8e4ae81e5471dbfc", "lon": -77.07909683333334, "type": "electric_bike", "bike_id": "747344fdbb90ebae8e4ae81e5471dbfc", "fusion_lon": 0.0, "lat": 38.8393455, "fusion_lat": 0.0}, {"is_disabled": 0, "rental_uris": {"android": "https://dc.lft.to/lastmile_qr_scan", "ios": "https://dc.lft.to/lastmile_qr_scan"}, "is_reserved": 0, "name": "2684e7c4b861eaefc1f5c85cbe145d5e", "lon": -77.06172633333334, "type": "electric_bike", "bike_id": "2684e7c4b861eaefc1f5c85cbe145d5e", "fusion_lon": 0.0, "lat": 38.8127025, "fusion_lat": 0.0}, {"is_disabled": 0, "rental_uris": {"android": "https://dc.lft.to/lastmile_qr_scan", "ios": "https://dc.lft.to/lastmile_qr_scan"}, "is_reserved": 0, "name": "779dbc42387125a1b420aa563ba42e2a", "lon": -77.028004, "type": "electric_scooter", "bike_id": "779dbc42387125a1b420aa563ba42e2a", "fusion_lon": 0.0, "lat": 38.91759783333333, "fusion_lat": 0.0}, {"is_disabled": 0, "rental_uris": {"android": "https://dc.lft.to/lastmile_qr_scan", "ios": "https://dc.lft.to/lastmile_qr_scan"},