{"data": {"bikes": [{"bike_id": "64d5b0636be601707cf0dbf58a35639d", "type": "electric_bike", "is_disabled": 0, "lat": 38.871328, "rental_uris": {"ios": "https://dc.lft.to/lastmile_qr_scan", "android": "https://dc.lft.to/lastmile_qr_scan"}, "is_reserved": 0, "fusion_lon": 0.0, "fusion_lat": 0.0, "lon": -77.10025916666666, "name": "64d5b0636be601707cf0dbf58a35639d"}, {"bike_id": "17c0ed62a18909b4a417528939b6b4d0", "type": "electric_scooter", "is_disabled": 0, "lat": 38.897217, "rental_uris": {"ios": "https://dc.lft.to/lastmile_qr_scan", "android": "https://dc.lft.to/lastmile_qr_scan"}, "is_reserved": 0, "fusion_lon": 0.0, "fusion_lat": 0.0, "lon": -77.02492366666667, "name": "17c0ed62a18909b4a417528939b6b4d0"}, {"bike_id": "57b05e451e2647a08728dc747efc1d39", "type": "electric_scooter", "is_disabled": 0, "lat": 38.91214166666666, "rental_uris": {"ios": "https://dc.lft.to/lastmile_qr_scan", "android": "https://dc.lft.to/lastmile_qr_scan"}, "is_reserved": 0, "fusion_lon": 0.0, "fusion_lat": 0.0, "lon": -77.04508133333333, "name": "57b05e451e2647a08728dc747efc1d39"}, {"bike_id": "6190b3015224aec2bb5d0fbe9d89a8e1", "type": "electric_scooter", "is_disabled": 0, "lat": 38.93680666666667, "rental_uris": {"ios": "https://dc.lft.to/lastmile_qr_scan", "android": "https://dc.lft.to/lastmile_qr_scan"}, "is_reserved": 0, "fusion_lon": 0.0, "fusion_lat": 0.0, "lon": -77.03279016666667, "name": "6190b3015224aec2bb5d0fbe9d89a8e1"}, {"bike_id": "13898b9cc8e9564333388e2fe9e846a2", "type": "electric_bike", "is_disabled": 0, "lat": 38.92651133333333, "rental_uris": {"ios": "https://dc.lft.to/lastmile_qr_scan", "android": "https://dc.lft.to/lastmile_qr_scan"}, "is_reserved": 0, "fusion_lon": 0.0, "fusion_lat": 0.0, "lon": -77.02415416666666, "name": "13898b9cc8e9564333388e2fe9e846a2"}, {"bike_id": "544b9e238241dcf4eec878678cbf360d", "type": "electric_bike", "is_disabled": 0, "lat": 38.83606433333333, "rental_uris": {"ios": "https://dc.lft.to/lastmile_qr_scan", "android": "https://dc.lft.to/lastmile_qr_scan"}, "is_reserved": 0, "fusion_lon": 0.0, "fusion_lat": 0.0, "lon": -77.00381483333334, "name": "544b9e238241dcf4eec878678cbf360d"}, {"bike_id": "9ea891020fa38cb02415239ac45f88e2", "type": "electric_scooter", "is_disabled": 0, "lat": 38.896149333333334, "rental_uris": {"ios": "https://dc.lft.to/lastmile_qr_scan", "android": "https://dc.lft.to/lastmile_qr_scan"}, "is_reserved": 0, "fusion_lon": 0.0, "fusion_lat": 0.0, "lon": -77.00026833333334, "name": "9ea891020fa38cb02415239ac45f88e2"}, {"bike_id": "dbeb79d1577afe406dbd505e108a3d2d", "type": "electric_scooter", "is_disabled": 0, "lat": 38.892180833333335, "rental_uris": {"ios": "https://dc.lft.to/lastmile_qr_scan", "android": "https://dc.lft.to/lastmile_qr_scan"}, "is_reserved": 0, "fusion_lon": 0.0, "fusion_lat": 0.0, "lon": -77.03185033333334, "name": "dbeb79d1577afe406dbd505e108a3d2d"}, {"bike_id": "fa7bd7495d439950e3af669c038d8abe", "type": "electric_scooter", "is_disabled": 0, "lat": 38.92136266666667, "rental_uris": {"ios": "https://dc.lft.to/lastmile_qr_scan", "android": "https://dc.lft.to/lastmile_qr_scan"}, "is_reserved": 0, "fusion_lon": 0.0, "fusion_lat": 0.0, "lon": -77.0412915, "name": "fa7bd7495d439950e3af669c038d8abe"}, {"bike_id": "fa2b96727f47849c30264d24f8f6411d", "type": "electric_scooter", "is_disabled": 0, "lat": 38.900438333333334, "rental_uris": {"ios": "https://dc.lft.to/lastmile_qr_scan", "android": "https://dc.lft.to/lastmile_qr_scan"}, "is_reserved": 0, "fusion_lon": 0.0, "fusion_lat": 0.0, "lon": -77.02402583333334, "name": "fa2b96727f47849c30264d24f8f6411d"}, {"bike_id": "a71056fe8486337677fb4907192df46f", "type": "electric_scooter", "is_disabled": 0, "lat": 38.897277, "rental_uris": {"ios": "https://dc.lft.to/lastmile_qr_scan", "android": "https://dc.lft.to/lastmile_qr_scan"}, "is_reserved": 0, "fusion_lon": 0.0, "fusion_lat": 0.0, "lon": -77.025306, "name": "a71056fe8486337677fb4907192df46f"}, {"bike_id": "7b41f3565292dbc083505dfd5b5269b1", "type": "electric_scooter", "is_disabled": 0, "lat": 38.8992615, "rental_uris": {"ios": "https://dc.lft.to/lastmile_qr_scan", "android": "https://dc.lft.to/lastmile_qr_scan"}, "is_reserved": 0, "fusion_lon": 0.0, "fusion_lat": 0.0, "lon": -77.04021966666667, "name": "7b41f3565292dbc083505dfd5b5269b1"}, {"bike_id": "a7755fc536e5460d772cc0797cc167de", "type": "electric_scooter", "is_disabled": 0, "lat": 38.91960183333333, "rental_uris": {"ios": "https://dc.lft.to/lastmile_qr_scan", "android": "https://dc.lft.to/lastmile_qr_scan"}, "is_reserved": 0, "fusion_lon": 0.0, "fusion_lat": 0.0, "lon": -77.024022, "name": "a7755fc536e5460d772cc0797cc167de"}, {"bike_id": "34acd5a6fea82220a2a08a39edfcb1c3", "type": "electric_scooter", "is_disabled": 0, "lat": 38.92418333333333, "rental_uris": {"ios": "https://dc.lft.to/lastmile_qr_scan", "android": "https://dc.lft.to/lastmile_qr_scan"}, "is_reserved": 0, "fusion_lon": 0.0, "fusion_lat": 0.0, "lon": -77.01948633333333, "name": "34acd5a6fea82220a2a08a39edfcb1c3"}, {"bike_id": "e901d9be683632b22911bc4e2845538c", "type": "electric_scooter", "is_disabled": 0, "lat": 38.917350166666665, "rental_uris": {"ios": "https://dc.lft.to/lastmile_qr_scan", "android": "https://dc.lft.to/lastmile_qr_scan"}, "is_reserved": 0, "fusion_lon": 0.0, "fusion_lat": 0.0, "lon": -77.031909, "name": "e901d9be683632b22911bc4e2845538c"}, {"bike_id": "90828316b2f498f78f6d7ade909c1645", "type": "electric_bike", "is_disabled": 0, "lat": 38.90846033333333, "rental_uris": {"ios": "https://dc.lft.to/lastmile_qr_scan", "android": "https://dc.lft.to/lastmile_qr_scan"}, "is_reserved": 0, "fusion_lon": 0.0, "fusion_lat": 0.0, "lon": -76.99149733333333, "name": "90828316b2f498f78f6d7ade909c1645"}, {"bike_id": "f5b9fe39c97732cedf722f30bfbda709", "type": "electric_scooter", "is_disabled": 0, "lat": 38.923704, "rental_uris": {"ios": "https://dc.lft.to/lastmile_qr_scan", "android": "https://dc.lft.to/lastmile_qr_scan"}, "is_reserved": 0, "fusion_lon": 0.0, "fusion_lat": 0.0, "lon": -77.051484, "name": "f5b9fe39c97732cedf722f30bfbda709"}, {"bike_id": "2420437e519d6a0dc5df4b7419595bc2", "type": "electric_scooter", "is_disabled": 0, "lat": 38.9141435, "rental_uris": {"ios": "https://dc.lft.to/lastmile_qr_scan", "android": "https://dc.lft.to/lastmile_qr_scan"}, "is_reserved": 0, "fusion_lon": 0.0, "fusion_lat": 0.0, "lon": -77.03906033333334, "name": "2420437e519d6a0dc5df4b7419595bc2"}, {"bike_id": "4f7c9977b565de9486a4c94bc1a349c8", "type": "electric_scooter", "is_disabled": 0, "lat": 38.8969585, "rental_uris": {"ios": "https://dc.lft.to/lastmile_qr_scan", "android": "https://dc.lft.to/lastmile_qr_scan"}, "is_reserved": 0, "fusion_lon": 0.0, "fusion_lat": 0.0, "lon": -76.93000566666667, "name": "4f7c9977b565de9486a4c94bc1a349c8"}, {"bike_id": "2d317986fc8827b73e9132d1d8ba9d53", "type": "electric_scooter", "is_disabled": 0, "lat": 38.909755833333335, "rental_uris": {"ios": "https://dc.lft.to/lastmile_qr_scan", "android": "https://dc.lft.to/lastmile_qr_scan"}, "is_reserved": 0, "fusion_lon": 0.0, "fusion_lat": 0.0, "lon": -77.021793, "name": "2d317986fc8827b73e9132d1d8ba9d53"}, {"bike_id": "733f18948df9fd1b9c3dae59229f158e", "type": "electric_scooter", "is_disabled": 0, "lat": 38.92655083333333, "rental_uris": {"ios": "https://dc.lft.to/lastmile_qr_scan", "android": "https://dc.lft.to/lastmile_qr_scan"}, "is_reserved": 0, "fusion_lon": 0.0, "fusion_lat": 0.0, "lon": -77.03226316666667, "name": "733f18948df9fd1b9c3dae59229f158e"}, {"bike_id": "314f48cbafe5660b69ee5a6eca39a7b9", "type": "electric_scooter", "is_disabled": 0, "lat": 38.91066883333333, "rental_uris": {"ios": "https://dc.lft.to/lastmile_qr_scan", "android": "https://dc.lft.to/lastmile_qr_scan"}, "is_reserved": 0, "fusion_lon": 0.0, "fusion_lat": 0.0, "lon": -77.0371465, "name": "314f48cbafe5660b69ee5a6eca39a7b9"}, {"bike_id": "1e233f7f25903a2a7166ee203fd5919d", "type": "electric_scooter", "is_disabled": 0, "lat": 38.921311, "rental_uris": {"ios": "https://dc.lft.to/lastmile_qr_scan", "android": "https://dc.lft.to/lastmile_qr_scan"}, "is_reserved": 0, "fusion_lon": 0.0, "fusion_lat": 0.0, "lon": -77.01828316666666, "name": "1e233f7f25903a2a7166ee203fd5919d"}, {"bike_id": "d07836e1558e1eb009a679d448cdc53e", "type": "electric_scooter", "is_disabled": 0, "lat": 38.90856516666667, "rental_uris": {"ios": "https://dc.lft.to/lastmile_qr_scan", "android": "https://dc.lft.to/lastmile_qr_scan"}, "is_reserved": 0, "fusion_lon": 0.0, "fusion_lat": 0.0, "lon": -77.04737233333333, "name": "d07836e1558e1eb009a679d448cdc53e"}, {"bike_id": "5c59b8228ab3180fb61d5cacbb0e29f6", "type": "electric_scooter", "is_disabled": 0, "lat": 38.918083833333334, "rental_uris": {"ios": "https://dc.lft.to/lastmile_qr_scan", "android": "https://dc.lft.to/lastmile_qr_scan"}, "is_reserved": 0, "fusion_lon": 0.0, "fusion_lat": 0.0, "lon": -77.0076235, "name": "5c59b8228ab3180fb61d5cacbb0e29f6"}, {"bike_id": "3a9ce7b85e651c2028f8bf3496b39efa", "type": "electric_scooter", "is_disabled": 0, "lat": 38.90208066666667, "rental_uris": {"ios": "https://dc.lft.to/lastmile_qr_scan", "android": "https://dc.lft.to/lastmile_qr_scan"}, "is_reserved": 0, "fusion_lon": 0.0, "fusion_lat": 0.0, "lon": -77.01770683333334, "name": "3a9ce7b85e651c2028f8bf3496b39efa"}, {"bike_id": "b44d2f14590e736e56cd455d5180e401", "type": "electric_scooter", "is_disabled": 0, "lat": 38.91171, "rental_uris": {"ios": "https://dc.lft.to/lastmile_qr_scan", "android": "https://dc.lft.to/lastmile_qr_scan"}, "is_reserved": 0, "fusion_lon": 0.0, "fusion_lat": 0.0, "lon": -77.06094883333333, "name": "b44d2f14590e736e56cd455d5180e401"}, {"bike_id": "87e29f7e796a74371fe73e2bd1110c8d", "type": "electric_scooter", "is_disabled": 0, "lat": 38.89219766666667, "rental_uris": {"ios": "https://dc.lft.to/lastmile_qr_scan", "android": "https://dc.lft.to/lastmile_qr_scan"}, "is_reserved": 0, "fusion_lon": 0.0, "fusion_lat": 0.0, "lon": -77.04859416666666, "name": "87e29f7e796a74371fe73e2bd1110c8d"}, {"bike_id": "75c72c9f531feebb13e244e1e1b25298", "type": "electric_bike", "is_disabled": 0, "lat": 38.874786666666665, "rental_uris": {"ios": "https://dc.lft.to/lastmile_qr_scan", "android": "https://dc.lft.to/lastmile_qr_scan"}, "is_reserved": 0, "fusion_lon": 0.0, "fusion_lat": 0.0, "lon": -76.96528283333333, "name": "75c72c9f531feebb13e244e1e1b25298"}, {"bike_id": "d8854b2a3eb5f48174fdafd09a8466b9", "type": "electric_scooter", "is_disabled": 0, "lat": 38.94288183333333, "rental_uris": {"ios": "https://dc.lft.to/lastmile_qr_scan", "android": "https://dc.lft.to/lastmile_qr_scan"}, "is_reserved": 0, "fusion_lon": 0.0, "fusion_lat": 0.0, "lon": -77.00485816666666, "name": "d8854b2a3eb5f48174fdafd09a8466b9"}, {"bike_id": "6263d68a16054db0d3bf049638f42442", "type": "electric_scooter", "is_disabled": 0, "lat": 38.893436666666666, "rental_uris": {"ios": "https://dc.lft.to/lastmile_qr_scan", "android": "https://dc.lft.to/lastmile_qr_scan"}, "is_reserved": 0, "fusion_lon": 0.0, "fusion_lat": 0.0, "lon": -76.9809195, "name": "6263d68a16054db0d3bf049638f42442"}, {"bike_id": "ebf3ff0753f0e2c32e53ef491691c076", "type": "electric_scooter", "is_disabled": 0, "lat": 38.874546, "rental_uris": {"ios": "https://dc.lft.to/lastmile_qr_scan", "android": "https://dc.lft.to/lastmile_qr_scan"}, "is_reserved": 0, "fusion_lon": 0.0, "fusion_lat": 0.0, "lon": -77.00318366666667, "name": "ebf3ff0753f0e2c32e53ef491691c076"}, {"bike_id": "61202c7429edf23641f6fdcf7a9d2436", "type": "electric_scooter", "is_disabled": 0, "lat": 38.90391566666667, "rental_uris": {"ios": "https://dc.lft.to/lastmile_qr_scan", "android": "https://dc.lft.to/lastmile_qr_scan"}, "is_reserved": 0, "fusion_lon": 0.0, "fusion_lat": 0.0, "lon": -77.0651205, "name": "61202c7429edf23641f6fdcf7a9d2436"}, {"bike_id": "1389ab5121495d738a44fe97109bb789", "type": "electric_scooter", "is_disabled": 0, "lat": 38.900009, "rental_uris": {"ios": "https://dc.lft.to/lastmile_qr_scan", "android": "https://dc.lft.to/lastmile_qr_scan"}, "is_reserved": 0, "fusion_lon": 0.0, "fusion_lat": 0.0, "lon": -76.99619833333334, "name": "1389ab5121495d738a44fe97109bb789"}, {"bike_id": "b8340a60bfd4314a5ac9948602e94ca1", "type": "electric_scooter", "is_disabled": 0, "lat": 38.89215433333333, "rental_uris": {"ios": "https://dc.lft.to/lastmile_qr_scan", "android": "https://dc.lft.to/lastmile_qr_scan"}, "is_reserved": 0, "fusion_lon": 0.0, "fusion_lat": 0.0, "lon": -77.0221335, "name": "b8340a60bfd4314a5ac9948602e94ca1"}, {"bike_id": "56ec7779ba997bca0a778772e7a71cef", "type": "electric_scooter", "is_disabled": 0, "lat": 38.910038, "rental_uris": {"ios": "https://dc.lft.to/lastmile_qr_scan", "android": "https://dc.lft.to/lastmile_qr_scan"}, "is_reserved": 0, "fusion_lon": 0.0, "fusion_lat": 0.0, "lon": -77.052732, "name": "56ec7779ba997bca0a778772e7a71cef"}, {"bike_id": "b9a7a7854630b626fc7993b90703d987", "type": "electric_bike", "is_disabled": 0, "lat": 39.013660333333334, "rental_uris": {"ios": "https://dc.lft.to/lastmile_qr_scan", "android": "https://dc.lft.to/lastmile_qr_scan"}, "is_reserved": 0, "fusion_lon": 0.0, "fusion_lat": 0.0, "lon": -76.92136066666667, "name": "b9a7a7854630b626fc7993b90703d987"}, {"bike_id": "1d252097901bee974161a3af70c4fa2d", "type": "electric_scooter", "is_disabled": 0, "lat": 38.901167666666666, "rental_uris": {"ios": "https://dc.lft.to/lastmile_qr_scan", "android": "https://dc.lft.to/lastmile_qr_scan"}, "is_reserved": 0, "fusion_lon": 0.0, "fusion_lat": 0.0, "lon": -77.04739383333333, "name": "1d252097901bee974161a3af70c4fa2d"}, {"bike_id": "d4c6ad34618121f868534ec840959ea9", "type": "electric_scooter", "is_disabled": 0, "lat": 38.92598066666667, "rental_uris": {"ios": "https://dc.lft.to/lastmile_qr_scan", "android": "https://dc.lft.to/lastmile_qr_scan"}, "is_reserved": 0, "fusion_lon": 0.0, "fusion_lat": 0.0, "lon": -77.021568, "name": "d4c6ad34618121f868534ec840959ea9"}, {"bike_id": "918aedd96daad82caf36699ced0da22a", "type": "electric_scooter", "is_disabled": 0, "lat": 38.8798725, "rental_uris": {"ios": "https://dc.lft.to/lastmile_qr_scan", "android": "https://dc.lft.to/lastmile_qr_scan"}, "is_reserved": 0, "fusion_lon": 0.0, "fusion_lat": 0.0, "lon": -76.985256, "name": "918aedd96daad82caf36699ced0da22a"}, {"bike_id": "f8351be01f5dc868a0743e4bb747021d", "type": "electric_scooter", "is_disabled": 0, "lat": 38.919594333333336, "rental_uris": {"ios": "https://dc.lft.to/lastmile_qr_scan", "android": "https://dc.lft.to/lastmile_qr_scan"}, "is_reserved": 0, "fusion_lon": 0.0, "fusion_lat": 0.0, "lon": -77.024002, "name": "f8351be01f5dc868a0743e4bb747021d"}, {"bike_id": "d06dd4276a372e0aa06d90d6e26968c8", "type": "electric_scooter", "is_disabled": 0, "lat": 38.9118885, "rental_uris": {"ios": "https://dc.lft.to/lastmile_qr_scan", "android": "https://dc.lft.to/lastmile_qr_scan"}, "is_reserved": 0, "fusion_lon": 0.0, "fusion_lat": 0.0, "lon": -77.0321545, "name": "d06dd4276a372e0aa06d90d6e26968c8"}, {"bike_id": "b22f0e3c3453d27d9a16c12db2627d23", "type": "electric_scooter", "is_disabled": 0, "lat": 38.908462666666665, "rental_uris": {"ios": "https://dc.lft.to/lastmile_qr_scan", "android": "https://dc.lft.to/lastmile_qr_scan"}, "is_reserved": 0, "fusion_lon": 0.0, "fusion_lat": 0.0, "lon": -77.02239533333334, "name": "b22f0e3c3453d27d9a16c12db2627d23"}, {"bike_id": "1b7f018602a0d5c449e834c4b5e48b54", "type": "electric_scooter", "is_disabled": 0, "lat": 38.91960566666667, "rental_uris": {"ios": "https://dc.lft.to/lastmile_qr_scan", "android": "https://dc.lft.to/lastmile_qr_scan"}, "is_reserved": 0, "fusion_lon": 0.0, "fusion_lat": 0.0, "lon": -77.03848683333334, "name": "1b7f018602a0d5c449e834c4b5e48b54"}, {"bike_id": "808b78a34569c751ab3b9b09845a2c26", "type": "electric_scooter", "is_disabled": 0, "lat": 38.909625166666665, "rental_uris": {"ios": "https://dc.lft.to/lastmile_qr_scan", "android": "https://dc.lft.to/lastmile_qr_scan"}, "is_reserved": 0, "fusion_lon": 0.0, "fusion_lat": 0.0, "lon": -77.03316666666667, "name": "808b78a34569c751ab3b9b09845a2c26"}, {"bike_id": "daba4ac2306844afca1d98c2bcd9dd7b", "type": "electric_scooter", "is_disabled": 0, "lat": 38.9243775, "rental_uris": {"ios": "https://dc.lft.to/lastmile_qr_scan", "android": "https://dc.lft.to/lastmile_qr_scan"}, "is_reserved": 0, "fusion_lon": 0.0, "fusion_lat": 0.0, "lon": -77.044056, "name": "daba4ac2306844afca1d98c2bcd9dd7b"}, {"bike_id": "ede0ebcf16b3a24c847703be757b3e7b", "type": "electric_bike", "is_disabled": 0, "lat": 38.956432166666666, "rental_uris": {"ios": "https://dc.lft.to/lastmile_qr_scan", "android": "https://dc.lft.to/lastmile_qr_scan"}, "is_reserved": 0, "fusion_lon": 0.0, "fusion_lat": 0.0, "lon": -76.997949, "name": "ede0ebcf16b3a24c847703be757b3e7b"}, {"bike_id": "32eafc45b2aced756ec4bb3767bc3456", "type": "electric_scooter", "is_disabled": 0, "lat": 38.88847666666667, "rental_uris": {"ios": "https://dc.lft.to/lastmile_qr_scan", "android": "https://dc.lft.to/lastmile_qr_scan"}, "is_reserved": 0, "fusion_lon": 0.0, "fusion_lat": 0.0, "lon": -76.926821, "name": "32eafc45b2aced756ec4bb3767bc3456"}, {"bike_id": "00217e08d48dba24dffe84df71f783dd", "type": "electric_scooter", "is_disabled": 0, "lat": 38.912577666666664, "rental_uris": {"ios": "https://dc.lft.to/lastmile_qr_scan", "android": "https://dc.lft.to/lastmile_qr_scan"}, "is_reserved": 0, "fusion_lon": 0.0, "fusion_lat": 0.0, "lon": -77.0446785, "name": "00217e08d48dba24dffe84df71f783dd"}, {"bike_id": "3904918a40c507ba66273340d3b32a35", "type": "electric_scooter", "is_disabled": 0, "lat": 38.90815583333333, "rental_uris": {"ios": "https://dc.lft.to/lastmile_qr_scan", "android": "https://dc.lft.to/lastmile_qr_scan"}, "is_reserved": 0, "fusion_lon": 0.0, "fusion_lat": 0.0, "lon": -77.03441533333333, "name": "3904918a40c507ba66273340d3b32a35"}, {"bike_id": "972408cf60bde72202ca78578a5a5235", "type": "electric_scooter", "is_disabled": 0, "lat": 38.916897666666664, "rental_uris": {"ios": "https://dc.lft.to/lastmile_qr_scan", "android": "https://dc.lft.to/lastmile_qr_scan"}, "is_reserved": 0, "fusion_lon": 0.0, "fusion_lat": 0.0, "lon": -77.03393066666666, "name": "972408cf60bde72202ca78578a5a5235"}, {"bike_id": "d8adcd65b33337dacccff61bf5709fd3", "type": "electric_scooter", "is_disabled": 0, "lat": 38.884288, "rental_uris": {"ios": "https://dc.lft.to/lastmile_qr_scan", "android": "https://dc.lft.to/lastmile_qr_scan"}, "is_reserved": 0, "fusion_lon": 0.0, "fusion_lat": 0.0, "lon": -76.95747066666667, "name": "d8adcd65b33337dacccff61bf5709fd3"}, {"bike_id": "2177da2996cc7d1d33aff14f76114fe6", "type": "electric_scooter", "is_disabled": 0, "lat": 38.887406166666665, "rental_uris": {"ios": "https://dc.lft.to/lastmile_qr_scan", "android": "https://dc.lft.to/lastmile_qr_scan"}, "is_reserved": 0, "fusion_lon": 0.0, "fusion_lat": 0.0, "lon": -77.028422, "name": "2177da2996cc7d1d33aff14f76114fe6"}, {"bike_id": "32b0452cd75a17c9f1564533da4b74f9", "type": "electric_scooter", "is_disabled": 0, "lat": 38.93064016666667, "rental_uris": {"ios": "https://dc.lft.to/lastmile_qr_scan", "android": "https://dc.lft.to/lastmile_qr_scan"}, "is_reserved": 0, "fusion_lon": 0.0, "fusion_lat": 0.0, "lon": -77.02979716666667, "name": "32b0452cd75a17c9f1564533da4b74f9"}, {"bike_id": "33f75fad22a3269d494eaecebd1fc229", "type": "electric_scooter", "is_disabled": 0, "lat": 38.88616966666667, "rental_uris": {"ios": "https://dc.lft.to/lastmile_qr_scan", "android": "https://dc.lft.to/lastmile_qr_scan"}, "is_reserved": 0, "fusion_lon": 0.0, "fusion_lat": 0.0, "lon": -77.01906883333334, "name": "33f75fad22a3269d494eaecebd1fc229"}, {"bike_id": "f113d64c3abb88e4a889fe9411f443e1", "type": "electric_scooter", "is_disabled": 0, "lat": 38.893101333333334, "rental_uris": {"ios": "https://dc.lft.to/lastmile_qr_scan", "android": "https://dc.lft.to/lastmile_qr_scan"}, "is_reserved": 0, "fusion_lon": 0.0, "fusion_lat": 0.0, "lon": -77.050066, "name": "f113d64c3abb88e4a889fe9411f443e1"}, {"bike_id": "f9e4bff6080799f2a32b4e5fc5a170a1", "type": "electric_scooter", "is_disabled": 0, "lat": 38.918519333333336, "rental_uris": {"ios": "https://dc.lft.to/lastmile_qr_scan", "android": "https://dc.lft.to/lastmile_qr_scan"}, "is_reserved": 0, "fusion_lon": 0.0, "fusion_lat": 0.0, "lon": -77.04102066666667, "name": "f9e4bff6080799f2a32b4e5fc5a170a1"}, {"bike_id": "6c0810c14ccf4601a5dc9d3848e13dd7", "type": "electric_scooter", "is_disabled": 0, "lat": 38.87100016666667, "rental_uris": {"ios": "https://dc.lft.to/lastmile_qr_scan", "android": "https://dc.lft.to/lastmile_qr_scan"}, "is_reserved": 0, "fusion_lon": 0.0, "fusion_lat": 0.0, "lon": -77.00764466666666, "name": "6c0810c14ccf4601a5dc9d3848e13dd7"}, {"bike_id": "9baea74428237e872f64a338acb3ee5d", "type": "electric_scooter", "is_disabled": 0, "lat": 38.907356, "rental_uris": {"ios": "https://dc.lft.to/lastmile_qr_scan", "android": "https://dc.lft.to/lastmile_qr_scan"}, "is_reserved": 0, "fusion_lon": 0.0, "fusion_lat": 0.0, "lon": -77.00924933333333, "name": "9baea74428237e872f64a338acb3ee5d"}, {"bike_id": "fd4cb944bd2617e3d1bea71a54abdede", "type": "electric_scooter", "is_disabled": 0, "lat": 38.919727, "rental_uris": {"ios": "https://dc.lft.to/lastmile_qr_scan", "android": "https://dc.lft.to/lastmile_qr_scan"}, "is_reserved": 0, "fusion_lon": 0.0, "fusion_lat": 0.0, "lon": -77.0190855, "name": "fd4cb944bd2617e3d1bea71a54abdede"}, {"bike_id": "d3d2f6b2823538fcde31ddb87b0478a4", "type": "electric_scooter", "is_disabled": 0, "lat": 38.936523666666666, "rental_uris": {"ios": "https://dc.lft.to/lastmile_qr_scan", "android": "https://dc.lft.to/lastmile_qr_scan"}, "is_reserved": 0, "fusion_lon": 0.0, "fusion_lat": 0.0, "lon": -77.02638033333334, "name": "d3d2f6b2823538fcde31ddb87b0478a4"}, {"bike_id": "ceee032c0e00b7e90dd0997b001edff9", "type": "electric_scooter", "is_disabled": 0, "lat": 38.91512066666667, "rental_uris": {"ios": "https://dc.lft.to/lastmile_qr_scan", "android": "https://dc.lft.to/lastmile_qr_scan"}, "is_reserved": 0, "fusion_lon": 0.0, "fusion_lat": 0.0, "lon": -77.0685695, "name": "ceee032c0e00b7e90dd0997b001edff9"}, {"bike_id": "3d82116a741ee7cbb7190321b8d9178e", "type": "electric_scooter", "is_disabled": 0, "lat": 38.88367616666667, "rental_uris": {"ios": "https://dc.lft.to/lastmile_qr_scan", "android": "https://dc.lft.to/lastmile_qr_scan"}, "is_reserved": 0, "fusion_lon": 0.0, "fusion_lat": 0.0, "lon": -76.9952, "name": "3d82116a741ee7cbb7190321b8d9178e"}, {"bike_id": "05142d7245ac327ad7afffe495339aec", "type": "electric_scooter", "is_disabled": 0, "lat": 38.914087333333335, "rental_uris": {"ios": "https://dc.lft.to/lastmile_qr_scan", "android": "https://dc.lft.to/lastmile_qr_scan"}, "is_reserved": 0, "fusion_lon": 0.0, "fusion_lat": 0.0, "lon": -77.04472116666666, "name": "05142d7245ac327ad7afffe495339aec"}, {"bike_id": "c907c8da7cd4e260bfc1f325f6fd8d5e", "type": "electric_bike", "is_disabled": 0, "lat": 38.869341, "rental_uris": {"ios": "https://dc.lft.to/lastmile_qr_scan", "android": "https://dc.lft.to/lastmile_qr_scan"}, "is_reserved": 0, "fusion_lon": 0.0, "fusion_lat": 0.0, "lon": -77.09467866666667, "name": "c907c8da7cd4e260bfc1f325f6fd8d5e"}, {"bike_id": "5f0930d861bb9ba43f114976859ca400", "type": "electric_bike", "is_disabled": 0, "lat": 38.959140833333336, "rental_uris": {"ios": "https://dc.lft.to/lastmile_qr_scan", "android": "https://dc.lft.to/lastmile_qr_scan"}, "is_reserved": 0, "fusion_lon": 0.0, "fusion_lat": 0.0, "lon": -77.08478483333333, "name": "5f0930d861bb9ba43f114976859ca400"}, {"bike_id": "e0c13995bb9a8f09c03ed83660a3998a", "type": "electric_scooter", "is_disabled": 0, "lat": 38.92967683333333, "rental_uris": {"ios": "https://dc.lft.to/lastmile_qr_scan", "android": "https://dc.lft.to/lastmile_qr_scan"}, "is_reserved": 0, "fusion_lon": 0.0, "fusion_lat": 0.0, "lon": -77.02949116666667, "name": "e0c13995bb9a8f09c03ed83660a3998a"}, {"bike_id": "a6227377f1f9ac8964fcb05bec540d34", "type": "electric_scooter", "is_disabled": 0, "lat": 38.90245683333333, "rental_uris": {"ios": "https://dc.lft.to/lastmile_qr_scan", "android": "https://dc.lft.to/lastmile_qr_scan"}, "is_reserved": 0, "fusion_lon": 0.0, "fusion_lat": 0.0, "lon": -76.974156, "name": "a6227377f1f9ac8964fcb05bec540d34"}, {"bike_id": "8252c3a8d8bf35923213e993d36317bf", "type": "electric_scooter", "is_disabled": 0, "lat": 38.95524533333333, "rental_uris": {"ios": "https://dc.lft.to/lastmile_qr_scan", "android": "https://dc.lft.to/lastmile_qr_scan"}, "is_reserved": 0, "fusion_lon": 0.0, "fusion_lat": 0.0, "lon": -77.027768, "name": "8252c3a8d8bf35923213e993d36317bf"}, {"bike_id": "37f7e61308d472e8934d3adb9c466185", "type": "electric_scooter", "is_disabled": 0, "lat": 38.9227155, "rental_uris": {"ios": "https://dc.lft.to/lastmile_qr_scan", "android": "https://dc.lft.to/lastmile_qr_scan"}, "is_reserved": 0, "fusion_lon": 0.0, "fusion_lat": 0.0, "lon": -77.022433, "name": "37f7e61308d472e8934d3adb9c466185"}, {"bike_id": "9b5eac9870242cd42b15ec33eea8f5c6", "type": "electric_scooter", "is_disabled": 0, "lat": 38.90518933333333, "rental_uris": {"ios": "https://dc.lft.to/lastmile_qr_scan", "android": "https://dc.lft.to/lastmile_qr_scan"}, "is_reserved": 0, "fusion_lon": 0.0, "fusion_lat": 0.0, "lon": -77.03855916666667, "name": "9b5eac9870242cd42b15ec33eea8f5c6"}, {"bike_id": "b74b680bb3be7cb7ca066307b46bc498", "type": "electric_scooter", "is_disabled": 0, "lat": 38.874654666666665, "rental_uris": {"ios": "https://dc.lft.to/lastmile_qr_scan", "android": "https://dc.lft.to/lastmile_qr_scan"}, "is_reserved": 0, "fusion_lon": 0.0, "fusion_lat": 0.0, "lon": -77.00556216666666, "name": "b74b680bb3be7cb7ca066307b46bc498"}, {"bike_id": "7a466d030f19cc69784a04db538328ff", "type": "electric_scooter", "is_disabled": 0, "lat": 38.964011, "rental_uris": {"ios": "https://dc.lft.to/lastmile_qr_scan", "android": "https://dc.lft.to/lastmile_qr_scan"}, "is_reserved": 0, "fusion_lon": 0.0, "fusion_lat": 0.0, "lon": -77.0276515, "name": "7a466d030f19cc69784a04db538328ff"}, {"bike_id": "c1fba23fb5ae56b9e0cebd8008ef8108", "type": "electric_scooter", "is_disabled": 0, "lat": 38.9068795, "rental_uris": {"ios": "https://dc.lft.to/lastmile_qr_scan", "android": "https://dc.lft.to/lastmile_qr_scan"}, "is_reserved": 0, "fusion_lon": 0.0, "fusion_lat": 0.0, "lon": -77.0651475, "name": "c1fba23fb5ae56b9e0cebd8008ef8108"}, {"bike_id": "f74b096d1e0bdcdd6aefe31cb54d26c6", "type": "electric_bike", "is_disabled": 0, "lat": 38.857599, "rental_uris": {"ios": "https://dc.lft.to/lastmile_qr_scan", "android": "https://dc.lft.to/lastmile_qr_scan"}, "is_reserved": 0, "fusion_lon": 0.0, "fusion_lat": 0.0, "lon": -76.98762766666667, "name": "f74b096d1e0bdcdd6aefe31cb54d26c6"}, {"bike_id": "598cf4c23d194061c397648e73573192", "type": "electric_bike", "is_disabled": 0, "lat": 38.83805733333333, "rental_uris": {"ios": "https://dc.lft.to/lastmile_qr_scan", "android": "https://dc.lft.to/lastmile_qr_scan"}, "is_reserved": 0, "fusion_lon": 0.0, "fusion_lat": 0.0, "lon": -77.09519, "name": "598cf4c23d194061c397648e73573192"}, {"bike_id": "e9c65987d224b925eaf1382dd26e33de", "type": "electric_scooter", "is_disabled": 0, "lat": 38.93013033333333, "rental_uris": {"ios": "https://dc.lft.to/lastmile_qr_scan", "android": "https://dc.lft.to/lastmile_qr_scan"}, "is_reserved": 0, "fusion_lon": 0.0, "fusion_lat": 0.0, "lon": -77.0609125, "name": "e9c65987d224b925eaf1382dd26e33de"}, {"bike_id": "d50013c571dfebd4312c59e00d57fba3", "type": "electric_scooter", "is_disabled": 0, "lat": 38.911931, "rental_uris": {"ios": "https://dc.lft.to/lastmile_qr_scan", "android": "https://dc.lft.to/lastmile_qr_scan"}, "is_reserved": 0, "fusion_lon": 0.0, "fusion_lat": 0.0, "lon": -77.04333566666666, "name": "d50013c571dfebd4312c59e00d57fba3"}, {"bike_id": "25b823602d7600c4e463386290da59f8", "type": "electric_scooter", "is_disabled": 0, "lat": 38.927038333333336, "rental_uris": {"ios": "https://dc.lft.to/lastmile_qr_scan", "android": "https://dc.lft.to/lastmile_qr_scan"}, "is_reserved": 0, "fusion_lon": 0.0, "fusion_lat": 0.0, "lon": -77.02428683333333, "name": "25b823602d7600c4e463386290da59f8"}, {"bike_id": "aef79b795d35c6601a4462ef2417a3ff", "type": "electric_scooter", "is_disabled": 0, "lat": 38.92356216666667, "rental_uris": {"ios": "https://dc.lft.to/lastmile_qr_scan", "android": "https://dc.lft.to/lastmile_qr_scan"}, "is_reserved": 0, "fusion_lon": 0.0, "fusion_lat": 0.0, "lon": -77.0527555, "name": "aef79b795d35c6601a4462ef2417a3ff"}, {"bike_id": "7fcb361fbf6164d83af1b7ec39bf8b44", "type": "electric_scooter", "is_disabled": 0, "lat": 38.86504733333334, "rental_uris": {"ios": "https://dc.lft.to/lastmile_qr_scan", "android": "https://dc.lft.to/lastmile_qr_scan"}, "is_reserved": 0, "fusion_lon": 0.0, "fusion_lat": 0.0, "lon": -76.99003216666667, "name": "7fcb361fbf6164d83af1b7ec39bf8b44"}, {"bike_id": "6a50299bfb5948e7b43aec2feef57619", "type": "electric_scooter", "is_disabled": 0, "lat": 38.91693166666667, "rental_uris": {"ios": "https://dc.lft.to/lastmile_qr_scan", "android": "https://dc.lft.to/lastmile_qr_scan"}, "is_reserved": 0, "fusion_lon": 0.0, "fusion_lat": 0.0, "lon": -77.02516433333334, "name": "6a50299bfb5948e7b43aec2feef57619"}, {"bike_id": "700487ecc2721173c5679caa9d0cc4e0", "type": "electric_bike", "is_disabled": 0, "lat": 38.993438166666664, "rental_uris": {"ios": "https://dc.lft.to/lastmile_qr_scan", "android": "https://dc.lft.to/lastmile_qr_scan"}, "is_reserved": 0, "fusion_lon": 0.0, "fusion_lat": 0.0, "lon": -77.11578066666667, "name": "700487ecc2721173c5679caa9d0cc4e0"}, {"bike_id": "8d0f35b8897f8f1cfaf9e6b6688a55f9", "type": "electric_scooter", "is_disabled": 0, "lat": 38.9357695, "rental_uris": {"ios": "https://dc.lft.to/lastmile_qr_scan", "android": "https://dc.lft.to/lastmile_qr_scan"}, "is_reserved": 0, "fusion_lon": 0.0, "fusion_lat": 0.0, "lon": -77.03365816666667, "name": "8d0f35b8897f8f1cfaf9e6b6688a55f9"}, {"bike_id": "fd2a80b95c027d8cdea1499cd6b5653a", "type": "electric_scooter", "is_disabled": 0, "lat": 38.94176383333333, "rental_uris": {"ios": "https://dc.lft.to/lastmile_qr_scan", "android": "https://dc.lft.to/lastmile_qr_scan"}, "is_reserved": 0, "fusion_lon": 0.0, "fusion_lat": 0.0, "lon": -77.0279415, "name": "fd2a80b95c027d8cdea1499cd6b5653a"}, {"bike_id": "ff0d4b4900dabcd216e5b08daba7b324", "type": "electric_bike", "is_disabled": 0, "lat": 38.8076175, "rental_uris": {"ios": "https://dc.lft.to/lastmile_qr_scan", "android": "https://dc.lft.to/lastmile_qr_scan"}, "is_reserved": 0, "fusion_lon": 0.0, "fusion_lat": 0.0, "lon": -77.094676, "name": "ff0d4b4900dabcd216e5b08daba7b324"}, {"bike_id": "0cc7eed49d1d253ad616189c9d1852c9", "type": "electric_scooter", "is_disabled": 0, "lat": 38.9056795, "rental_uris": {"ios": "https://dc.lft.to/lastmile_qr_scan", "android": "https://dc.lft.to/lastmile_qr_scan"}, "is_reserved": 0, "fusion_lon": 0.0, "fusion_lat": 0.0, "lon": -77.0407065, "name": "0cc7eed49d1d253ad616189c9d1852c9"}, {"bike_id": "e225135572533af13e07ba7c5a740a20", "type": "electric_scooter", "is_disabled": 0, "lat": 38.922111, "rental_uris": {"ios": "https://dc.lft.to/lastmile_qr_scan", "android": "https://dc.lft.to/lastmile_qr_scan"}, "is_reserved": 0, "fusion_lon": 0.0, "fusion_lat": 0.0, "lon": -77.032895, "name": "e225135572533af13e07ba7c5a740a20"}, {"bike_id": "96624bbc3af5990faf97c6faa59a9ba0", "type": "electric_scooter", "is_disabled": 0, "lat": 38.9230195, "rental_uris": {"ios": "https://dc.lft.to/lastmile_qr_scan", "android": "https://dc.lft.to/lastmile_qr_scan"}, "is_reserved": 0, "fusion_lon": 0.0, "fusion_lat": 0.0, "lon": -77.04155933333334, "name": "96624bbc3af5990faf97c6faa59a9ba0"}, {"bike_id": "581820d72daec320de141590346bb24b", "type": "electric_scooter", "is_disabled": 0, "lat": 38.919576, "rental_uris": {"ios": "https://dc.lft.to/lastmile_qr_scan", "android": "https://dc.lft.to/lastmile_qr_scan"}, "is_reserved": 0, "fusion_lon": 0.0, "fusion_lat": 0.0, "lon": -77.03479016666667, "name": "581820d72daec320de141590346bb24b"}, {"bike_id": "c17856b58d6ead8018ad737d3c6ec272", "type": "electric_scooter", "is_disabled": 0, "lat": 38.90323, "rental_uris": {"ios": "https://dc.lft.to/lastmile_qr_scan", "android": "https://dc.lft.to/lastmile_qr_scan"}, "is_reserved": 0, "fusion_lon": 0.0, "fusion_lat": 0.0, "lon": -76.98290516666667, "name": "c17856b58d6ead8018ad737d3c6ec272"}, {"bike_id": "72a054ddcd20e5108205fb6723793765", "type": "electric_scooter", "is_disabled": 0, "lat": 38.872038333333336, "rental_uris": {"ios": "https://dc.lft.to/lastmile_qr_scan", "android": "https://dc.lft.to/lastmile_qr_scan"}, "is_reserved": 0, "fusion_lon": 0.0, "fusion_lat": 0.0, "lon": -77.0096025, "name": "72a054ddcd20e5108205fb6723793765"}, {"bike_id": "234dfc67e89bff7067dd15258f2c6380", "type": "electric_scooter", "is_disabled": 0, "lat": 38.945095333333335, "rental_uris": {"ios": "https://dc.lft.to/lastmile_qr_scan", "android": "https://dc.lft.to/lastmile_qr_scan"}, "is_reserved": 0, "fusion_lon": 0.0, "fusion_lat": 0.0, "lon": -77.03367383333334, "name": "234dfc67e89bff7067dd15258f2c6380"}, {"bike_id": "77ce441a097ad7a7382c26e079f26b48", "type": "electric_scooter", "is_disabled": 0, "lat": 38.92224866666667, "rental_uris": {"ios": "https://dc.lft.to/lastmile_qr_scan", "android": "https://dc.lft.to/lastmile_qr_scan"}, "is_reserved": 0, "fusion_lon": 0.0, "fusion_lat": 0.0, "lon": -77.02977416666667, "name": "77ce441a097ad7a7382c26e079f26b48"}, {"bike_id": "00adab7a4f9bb4baa02a036d411a5611", "type": "electric_scooter", "is_disabled": 0, "lat": 38.908484333333334, "rental_uris": {"ios": "https://dc.lft.to/lastmile_qr_scan", "android": "https://dc.lft.to/lastmile_qr_scan"}, "is_reserved": 0, "fusion_lon": 0.0, "fusion_lat": 0.0, "lon": -77.04767033333333, "name": "00adab7a4f9bb4baa02a036d411a5611"}, {"bike_id": "faac83b07e39e913eda4e90bb4077dd5", "type": "electric_scooter", "is_disabled": 0, "lat": 38.92933683333333, "rental_uris": {"ios": "https://dc.lft.to/lastmile_qr_scan", "android": "https://dc.lft.to/lastmile_qr_scan"}, "is_reserved": 0, "fusion_lon": 0.0, "fusion_lat": 0.0, "lon": -77.03781, "name": "faac83b07e39e913eda4e90bb4077dd5"}, {"bike_id": "097655b9bccbb7ea62970e3c3fbc1670", "type": "electric_scooter", "is_disabled": 0, "lat": 38.90858866666667, "rental_uris": {"ios": "https://dc.lft.to/lastmile_qr_scan", "android": "https://dc.lft.to/lastmile_qr_scan"}, "is_reserved": 0, "fusion_lon": 0.0, "fusion_lat": 0.0, "lon": -77.02419233333333, "name": "097655b9bccbb7ea62970e3c3fbc1670"}, {"bike_id": "593b2cd54e2d71f6128697522f13c688", "type": "electric_scooter", "is_disabled": 0, "lat": 38.90604016666666, "rental_uris": {"ios": "https://dc.lft.to/lastmile_qr_scan", "android": "https://dc.lft.to/lastmile_qr_scan"}, "is_reserved": 0, "fusion_lon": 0.0, "fusion_lat": 0.0, "lon": -76.99266216666666, "name": "593b2cd54e2d71f6128697522f13c688"}, {"bike_id": "858478967163efcec578c6c21747fcfd", "type": "electric_scooter", "is_disabled": 0, "lat": 38.88454983333333, "rental_uris": {"ios": "https://dc.lft.to/lastmile_qr_scan", "android": "https://dc.lft.to/lastmile_qr_scan"}, "is_reserved": 0, "fusion_lon": 0.0, "fusion_lat": 0.0, "lon": -76.95747083333333, "name": "858478967163efcec578c6c21747fcfd"}, {"bike_id": "fdb43d5e6a4145933ad5e517345be053", "type": "electric_scooter", "is_disabled": 0, "lat": 38.898589333333334, "rental_uris": {"ios": "https://dc.lft.to/lastmile_qr_scan", "android": "https://dc.lft.to/lastmile_qr_scan"}, "is_reserved": 0, "fusion_lon": 0.0, "fusion_lat": 0.0, "lon": -77.0396555, "name": "fdb43d5e6a4145933ad5e517345be053"}, {"bike_id": "9ca803932e1e4efbe0502467633f7476", "type": "electric_scooter", "is_disabled": 0, "lat": 38.9194965, "rental_uris": {"ios": "https://dc.lft.to/lastmile_qr_scan", "android": "https://dc.lft.to/lastmile_qr_scan"}, "is_reserved": 0, "fusion_lon": 0.0, "fusion_lat": 0.0, "lon": -77.044923, "name": "9ca803932e1e4efbe0502467633f7476"}, {"bike_id": "d544b09c624035d0e8fed03650e43f4a", "type": "electric_scooter", "is_disabled": 0, "lat": 38.90618383333333, "rental_uris": {"ios": "https://dc.lft.to/lastmile_qr_scan", "android": "https://dc.lft.to/lastmile_qr_scan"}, "is_reserved": 0, "fusion_lon": 0.0, "fusion_lat": 0.0, "lon": -77.02466933333334, "name": "d544b09c624035d0e8fed03650e43f4a"}, {"bike_id": "f35e10cd4104e3adb0e493d976e474be", "type": "electric_scooter", "is_disabled": 0, "lat": 38.90313183333333, "rental_uris": {"ios": "https://dc.lft.to/lastmile_qr_scan", "android": "https://dc.lft.to/lastmile_qr_scan"}, "is_reserved": 0, "fusion_lon": 0.0, "fusion_lat": 0.0, "lon": -76.97798916666666, "name": "f35e10cd4104e3adb0e493d976e474be"}, {"bike_id": "3a95a8f81352fd33d5156aeff472ecbf", "type": "electric_bike", "is_disabled": 0, "lat": 38.8589065, "rental_uris": {"ios": "https://dc.lft.to/lastmile_qr_scan", "android": "https://dc.lft.to/lastmile_qr_scan"}, "is_reserved": 0, "fusion_lon": 0.0, "fusion_lat": 0.0, "lon": -77.118629, "name": "3a95a8f81352fd33d5156aeff472ecbf"}, {"bike_id": "3e78823b3fa01a39e85021e3d0ab4713", "type": "electric_scooter", "is_disabled": 0, "lat": 38.913424666666664, "rental_uris": {"ios": "https://dc.lft.to/lastmile_qr_scan", "android": "https://dc.lft.to/lastmile_qr_scan"}, "is_reserved": 0, "fusion_lon": 0.0, "fusion_lat": 0.0, "lon": -77.04232783333333, "name": "3e78823b3fa01a39e85021e3d0ab4713"}, {"bike_id": "bc7c77cb7e89393afd5ca578cb5206ff", "type": "electric_scooter", "is_disabled": 0, "lat": 38.9478115, "rental_uris": {"ios": "https://dc.lft.to/lastmile_qr_scan", "android": "https://dc.lft.to/lastmile_qr_scan"}, "is_reserved": 0, "fusion_lon": 0.0, "fusion_lat": 0.0, "lon": -77.08020966666666, "name": "bc7c77cb7e89393afd5ca578cb5206ff"}, {"bike_id": "30d315762b35e760de40137509ed4663", "type": "electric_scooter", "is_disabled": 0, "lat": 38.9012755, "rental_uris": {"ios": "https://dc.lft.to/lastmile_qr_scan", "android": "https://dc.lft.to/lastmile_qr_scan"}, "is_reserved": 0, "fusion_lon": 0.0, "fusion_lat": 0.0, "lon": -77.04155516666667, "name": "30d315762b35e760de40137509ed4663"}, {"bike_id": "76c734a99ab07241118e13369a99175c", "type": "electric_scooter", "is_disabled": 0, "lat": 38.914596833333334, "rental_uris": {"ios": "https://dc.lft.to/lastmile_qr_scan", "android": "https://dc.lft.to/lastmile_qr_scan"}, "is_reserved": 0, "fusion_lon": 0.0, "fusion_lat": 0.0, "lon": -76.98415833333334, "name": "76c734a99ab07241118e13369a99175c"}, {"bike_id": "22461174af11584b94db3b18590c5858", "type": "electric_bike", "is_disabled": 0, "lat": 39.05278766666667, "rental_uris": {"ios": "https://dc.lft.to/lastmile_qr_scan", "android": "https://dc.lft.to/lastmile_qr_scan"}, "is_reserved": 0, "fusion_lon": 0.0, "fusion_lat": 0.0, "lon": -77.080692, "name": "22461174af11584b94db3b18590c5858"}, {"bike_id": "2f2e615b0f1baeb2f4eada92b261fd10", "type": "electric_scooter", "is_disabled": 0, "lat": 38.90132066666666, "rental_uris": {"ios": "https://dc.lft.to/lastmile_qr_scan", "android": "https://dc.lft.to/lastmile_qr_scan"}, "is_reserved": 0, "fusion_lon": 0.0, "fusion_lat": 0.0, "lon": -77.01228383333333, "name": "2f2e615b0f1baeb2f4eada92b261fd10"}, {"bike_id": "cdc94578ac5a990ff4298a8d01cd8332", "type": "electric_scooter", "is_disabled": 0, "lat": 38.917008333333335, "rental_uris": {"ios": "https://dc.lft.to/lastmile_qr_scan", "android": "https://dc.lft.to/lastmile_qr_scan"}, "is_reserved": 0, "fusion_lon": 0.0, "fusion_lat": 0.0, "lon": -77.0065055, "name": "cdc94578ac5a990ff4298a8d01cd8332"}, {"bike_id": "e3eba99c144a4263fde55c09a7c0d215", "type": "electric_scooter", "is_disabled": 0, "lat": 38.91532216666667, "rental_uris": {"ios": "https://dc.lft.to/lastmile_qr_scan", "android": "https://dc.lft.to/lastmile_qr_scan"}, "is_reserved": 0, "fusion_lon": 0.0, "fusion_lat": 0.0, "lon": -76.983769, "name": "e3eba99c144a4263fde55c09a7c0d215"}, {"bike_id": "dbc4ec35bb3cd87da076019d3b4f1841", "type": "electric_scooter", "is_disabled": 0, "lat": 38.8669335, "rental_uris": {"ios": "https://dc.lft.to/lastmile_qr_scan", "android": "https://dc.lft.to/lastmile_qr_scan"}, "is_reserved": 0, "fusion_lon": 0.0, "fusion_lat": 0.0, "lon": -76.9871535, "name": "dbc4ec35bb3cd87da076019d3b4f1841"}, {"bike_id": "91c0ff913188f6eba82d292d12dbf41e", "type": "electric_scooter", "is_disabled": 0, "lat": 38.917235833333336, "rental_uris": {"ios": "https://dc.lft.to/lastmile_qr_scan", "android": "https://dc.lft.to/lastmile_qr_scan"}, "is_reserved": 0, "fusion_lon": 0.0, "fusion_lat": 0.0, "lon": -77.036622, "name": "91c0ff913188f6eba82d292d12dbf41e"}, {"bike_id": "a5202ed63a8d5067249bc379357e87da", "type": "electric_scooter", "is_disabled": 0, "lat": 38.87102333333333, "rental_uris": {"ios": "https://dc.lft.to/lastmile_qr_scan", "android": "https://dc.lft.to/lastmile_qr_scan"}, "is_reserved": 0, "fusion_lon": 0.0, "fusion_lat": 0.0, "lon": -76.965715, "name": "a5202ed63a8d5067249bc379357e87da"}, {"bike_id": "0c80c625f9fd6f80b6287c13592a2b51", "type": "electric_scooter", "is_disabled": 0, "lat": 38.87831166666667, "rental_uris": {"ios": "https://dc.lft.to/lastmile_qr_scan", "android": "https://dc.lft.to/lastmile_qr_scan"}, "is_reserved": 0, "fusion_lon": 0.0, "fusion_lat": 0.0, "lon": -76.9630815, "name": "0c80c625f9fd6f80b6287c13592a2b51"}, {"bike_id": "c4411e1dea7093dec31c93a3baf9cc52", "type": "electric_scooter", "is_disabled": 0, "lat": 38.87450483333333, "rental_uris": {"ios": "https://dc.lft.to/lastmile_qr_scan", "android": "https://dc.lft.to/lastmile_qr_scan"}, "is_reserved": 0, "fusion_lon": 0.0, "fusion_lat": 0.0, "lon": -77.00059516666667, "name": "c4411e1dea7093dec31c93a3baf9cc52"}, {"bike_id": "76896d7e59bbed2a4d434400766ec8d8", "type": "electric_scooter", "is_disabled": 0, "lat": 38.94085333333334, "rental_uris": {"ios": "https://dc.lft.to/lastmile_qr_scan", "android": "https://dc.lft.to/lastmile_qr_scan"}, "is_reserved": 0, "fusion_lon": 0.0, "fusion_lat": 0.0, "lon": -77.02724466666666, "name": "76896d7e59bbed2a4d434400766ec8d8"}, {"bike_id": "4d09edfd792fac2d29e4efda70252687", "type": "electric_scooter", "is_disabled": 0, "lat": 38.90486833333333, "rental_uris": {"ios": "https://dc.lft.to/lastmile_qr_scan", "android": "https://dc.lft.to/lastmile_qr_scan"}, "is_reserved": 0, "fusion_lon": 0.0, "fusion_lat": 0.0, "lon": -77.01756, "name": "4d09edfd792fac2d29e4efda70252687"}, {"bike_id": "cddbfd73d802a5c2e1c0250164cbf090", "type": "electric_scooter", "is_disabled": 0, "lat": 38.904733, "rental_uris": {"ios": "https://dc.lft.to/lastmile_qr_scan", "android": "https://dc.lft.to/lastmile_qr_scan"}, "is_reserved": 0, "fusion_lon": 0.0, "fusion_lat": 0.0, "lon": -77.05338633333334, "name": "cddbfd73d802a5c2e1c0250164cbf090"}, {"bike_id": "b085727da4f91de63322d342d612dfb2", "type": "electric_bike", "is_disabled": 0, "lat": 39.024293666666665, "rental_uris": {"ios": "https://dc.lft.to/lastmile_qr_scan", "android": "https://dc.lft.to/lastmile_qr_scan"}, "is_reserved": 0, "fusion_lon": 0.0, "fusion_lat": 0.0, "lon": -77.1310345, "name": "b085727da4f91de63322d342d612dfb2"}, {"bike_id": "fca92eb1f7bcb43466435e1e9cec15f1", "type": "electric_scooter", "is_disabled": 0, "lat": 38.90566233333333, "rental_uris": {"ios": "https://dc.lft.to/lastmile_qr_scan", "android": "https://dc.lft.to/lastmile_qr_scan"}, "is_reserved": 0, "fusion_lon": 0.0, "fusion_lat": 0.0, "lon": -77.04477833333333, "name": "fca92eb1f7bcb43466435e1e9cec15f1"}, {"bike_id": "ad21b3b30bbcf534946398902c824b91", "type": "electric_scooter", "is_disabled": 0, "lat": 38.905516666666664, "rental_uris": {"ios": "https://dc.lft.to/lastmile_qr_scan", "android": "https://dc.lft.to/lastmile_qr_scan"}, "is_reserved": 0, "fusion_lon": 0.0, "fusion_lat": 0.0, "lon": -77.04659083333334, "name": "ad21b3b30bbcf534946398902c824b91"}, {"bike_id": "1ada57b54bbbd93fb40bdd3c646de6a4", "type": "electric_scooter", "is_disabled": 0, "lat": 38.932066166666665, "rental_uris": {"ios": "https://dc.lft.to/lastmile_qr_scan", "android": "https://dc.lft.to/lastmile_qr_scan"}, "is_reserved": 0, "fusion_lon": 0.0, "fusion_lat": 0.0, "lon": -77.02968333333334, "name": "1ada57b54bbbd93fb40bdd3c646de6a4"}, {"bike_id": "8a480f8f3e27ac91d8330c9b1d49d606", "type": "electric_scooter", "is_disabled": 0, "lat": 38.94180716666666, "rental_uris": {"ios": "https://dc.lft.to/lastmile_qr_scan", "android": "https://dc.lft.to/lastmile_qr_scan"}, "is_reserved": 0, "fusion_lon": 0.0, "fusion_lat": 0.0, "lon": -77.024901, "name": "8a480f8f3e27ac91d8330c9b1d49d606"}, {"bike_id": "cfa1f2c807fb17b6fb469936f3e22584", "type": "electric_scooter", "is_disabled": 0, "lat": 38.929090333333335, "rental_uris": {"ios": "https://dc.lft.to/lastmile_qr_scan", "android": "https://dc.lft.to/lastmile_qr_scan"}, "is_reserved": 0, "fusion_lon": 0.0, "fusion_lat": 0.0, "lon": -77.03609783333333, "name": "cfa1f2c807fb17b6fb469936f3e22584"}, {"bike_id": "95eaa1fa96a9d8cc064aa5b11851b4aa", "type": "electric_scooter", "is_disabled": 0, "lat": 38.88761266666667, "rental_uris": {"ios": "https://dc.lft.to/lastmile_qr_scan", "android": "https://dc.lft.to/lastmile_qr_scan"}, "is_reserved": 0, "fusion_lon": 0.0, "fusion_lat": 0.0, "lon": -76.95597166666667, "name": "95eaa1fa96a9d8cc064aa5b11851b4aa"}, {"bike_id": "35067f03347207b9df0691f262b64a2f", "type": "electric_scooter", "is_disabled": 0, "lat": 38.91427183333333, "rental_uris": {"ios": "https://dc.lft.to/lastmile_qr_scan", "android": "https://dc.lft.to/lastmile_qr_scan"}, "is_reserved": 0, "fusion_lon": 0.0, "fusion_lat": 0.0, "lon": -77.04487916666666, "name": "35067f03347207b9df0691f262b64a2f"}, {"bike_id": "904cec88d1852cb92c5fd7e2d5e07e20", "type": "electric_bike", "is_disabled": 0, "lat": 38.93364583333333, "rental_uris": {"ios": "https://dc.lft.to/lastmile_qr_scan", "android": "https://dc.lft.to/lastmile_qr_scan"}, "is_reserved": 0, "fusion_lon": 0.0, "fusion_lat": 0.0, "lon": -77.03528483333334, "name": "904cec88d1852cb92c5fd7e2d5e07e20"}, {"bike_id": "0b260239aad10ef2431af81de820efc0", "type": "electric_bike", "is_disabled": 0, "lat": 38.9478325, "rental_uris": {"ios": "https://dc.lft.to/lastmile_qr_scan", "android": "https://dc.lft.to/lastmile_qr_scan"}, "is_reserved": 0, "fusion_lon": 0.0, "fusion_lat": 0.0, "lon": -76.9721045, "name": "0b260239aad10ef2431af81de820efc0"}, {"bike_id": "1d506b2bab0e9bb311bcf765dc6992f8", "type": "electric_scooter", "is_disabled": 0, "lat": 38.8852525, "rental_uris": {"ios": "https://dc.lft.to/lastmile_qr_scan", "android": "https://dc.lft.to/lastmile_qr_scan"}, "is_reserved": 0, "fusion_lon": 0.0, "fusion_lat": 0.0, "lon": -77.01137166666666, "name": "1d506b2bab0e9bb311bcf765dc6992f8"}, {"bike_id": "ef8ddaf42288e9f8a66c7c2fcc450273", "type": "electric_scooter", "is_disabled": 0, "lat": 38.945963, "rental_uris": {"ios": "https://dc.lft.to/lastmile_qr_scan", "android": "https://dc.lft.to/lastmile_qr_scan"}, "is_reserved": 0, "fusion_lon": 0.0, "fusion_lat": 0.0, "lon": -77.070398, "name": "ef8ddaf42288e9f8a66c7c2fcc450273"}, {"bike_id": "8436f56d4002d47052b91c2469e62c36", "type": "electric_scooter", "is_disabled": 0, "lat": 38.90730283333333, "rental_uris": {"ios": "https://dc.lft.to/lastmile_qr_scan", "android": "https://dc.lft.to/lastmile_qr_scan"}, "is_reserved": 0, "fusion_lon": 0.0, "fusion_lat": 0.0, "lon": -76.98627433333333, "name": "8436f56d4002d47052b91c2469e62c36"}, {"bike_id": "f3e57c5fc1f883d32fd1fdfd18c9fd4a", "type": "electric_scooter", "is_disabled": 0, "lat": 38.9059275, "rental_uris": {"ios": "https://dc.lft.to/lastmile_qr_scan", "android": "https://dc.lft.to/lastmile_qr_scan"}, "is_reserved": 0, "fusion_lon": 0.0, "fusion_lat": 0.0, "lon": -77.07009216666667, "name": "f3e57c5fc1f883d32fd1fdfd18c9fd4a"}, {"bike_id": "fcd60fb137a442ad406f8c0fae34dddd", "type": "electric_scooter", "is_disabled": 0, "lat": 38.96144733333333, "rental_uris": {"ios": "https://dc.lft.to/lastmile_qr_scan", "android": "https://dc.lft.to/lastmile_qr_scan"}, "is_reserved": 0, "fusion_lon": 0.0, "fusion_lat": 0.0, "lon": -77.03233066666667, "name": "fcd60fb137a442ad406f8c0fae34dddd"}, {"bike_id": "374e1f907c323fca85729671890e9ae2", "type": "electric_scooter", "is_disabled": 0, "lat": 38.92208466666666, "rental_uris": {"ios": "https://dc.lft.to/lastmile_qr_scan", "android": "https://dc.lft.to/lastmile_qr_scan"}, "is_reserved": 0, "fusion_lon": 0.0, "fusion_lat": 0.0, "lon": -77.03459016666666, "name": "374e1f907c323fca85729671890e9ae2"}, {"bike_id": "fed93848243bb306b58aa5490a86d55d", "type": "electric_scooter", "is_disabled": 0, "lat": 38.897442, "rental_uris": {"ios": "https://dc.lft.to/lastmile_qr_scan", "android": "https://dc.lft.to/lastmile_qr_scan"}, "is_reserved": 0, "fusion_lon": 0.0, "fusion_lat": 0.0, "lon": -77.007747, "name": "fed93848243bb306b58aa5490a86d55d"}, {"bike_id": "665e2ec571ec7ce3ee430958e0246cb3", "type": "electric_scooter", "is_disabled": 0, "lat": 38.89725833333333, "rental_uris": {"ios": "https://dc.lft.to/lastmile_qr_scan", "android": "https://dc.lft.to/lastmile_qr_scan"}, "is_reserved": 0, "fusion_lon": 0.0, "fusion_lat": 0.0, "lon": -77.05476033333333, "name": "665e2ec571ec7ce3ee430958e0246cb3"}, {"bike_id": "b50902bda5f5c4785eba6d3c4d4b6e04", "type": "electric_scooter", "is_disabled": 0, "lat": 38.876782166666665, "rental_uris": {"ios": "https://dc.lft.to/lastmile_qr_scan", "android": "https://dc.lft.to/lastmile_qr_scan"}, "is_reserved": 0, "fusion_lon": 0.0, "fusion_lat": 0.0, "lon": -76.998265, "name": "b50902bda5f5c4785eba6d3c4d4b6e04"}, {"bike_id": "033776afa330dd8603b277a89be7904a", "type": "electric_scooter", "is_disabled": 0, "lat": 38.914003, "rental_uris": {"ios": "https://dc.lft.to/lastmile_qr_scan", "android": "https://dc.lft.to/lastmile_qr_scan"}, "is_reserved": 0, "fusion_lon": 0.0, "fusion_lat": 0.0, "lon": -77.03264383333334, "name": "033776afa330dd8603b277a89be7904a"}, {"bike_id": "46c8fd1e0cf69e2bd5c74186bd616c35", "type": "electric_scooter", "is_disabled": 0, "lat": 38.90976416666667, "rental_uris": {"ios": "https://dc.lft.to/lastmile_qr_scan", "android": "https://dc.lft.to/lastmile_qr_scan"}, "is_reserved": 0, "fusion_lon": 0.0, "fusion_lat": 0.0, "lon": -77.03368733333333, "name": "46c8fd1e0cf69e2bd5c74186bd616c35"}, {"bike_id": "d15ef1226c933dc91ae2fcfb5dbf2266", "type": "electric_scooter", "is_disabled": 0, "lat": 38.90254766666666, "rental_uris": {"ios": "https://dc.lft.to/lastmile_qr_scan", "android": "https://dc.lft.to/lastmile_qr_scan"}, "is_reserved": 0, "fusion_lon": 0.0, "fusion_lat": 0.0, "lon": -76.975478, "name": "d15ef1226c933dc91ae2fcfb5dbf2266"}, {"bike_id": "ef0f96311f46ceac0e8907d1d468f8d7", "type": "electric_scooter", "is_disabled": 0, "lat": 38.935372666666666, "rental_uris": {"ios": "https://dc.lft.to/lastmile_qr_scan", "android": "https://dc.lft.to/lastmile_qr_scan"}, "is_reserved": 0, "fusion_lon": 0.0, "fusion_lat": 0.0, "lon": -77.02351783333333, "name": "ef0f96311f46ceac0e8907d1d468f8d7"}, {"bike_id": "43650be9379074ea6f41d0c44ea59c1a", "type": "electric_bike", "is_disabled": 0, "lat": 39.03983133333333, "rental_uris": {"ios": "https://dc.lft.to/lastmile_qr_scan", "android": "https://dc.lft.to/lastmile_qr_scan"}, "is_reserved": 0, "fusion_lon": 0.0, "fusion_lat": 0.0, "lon": -76.99928816666667, "name": "43650be9379074ea6f41d0c44ea59c1a"}, {"bike_id": "4d9ec98eb6ae694da612950cbaa848a2", "type": "electric_scooter", "is_disabled": 0, "lat": 38.88429466666667, "rental_uris": {"ios": "https://dc.lft.to/lastmile_qr_scan", "android": "https://dc.lft.to/lastmile_qr_scan"}, "is_reserved": 0, "fusion_lon": 0.0, "fusion_lat": 0.0, "lon": -77.025782, "name": "4d9ec98eb6ae694da612950cbaa848a2"}, {"bike_id": "bbcfdeb710addde565ddb398f9d9734d", "type": "electric_scooter", "is_disabled": 0, "lat": 38.920672833333334, "rental_uris": {"ios": "https://dc.lft.to/lastmile_qr_scan", "android": "https://dc.lft.to/lastmile_qr_scan"}, "is_reserved": 0, "fusion_lon": 0.0, "fusion_lat": 0.0, "lon": -77.02395916666667, "name": "bbcfdeb710addde565ddb398f9d9734d"}, {"bike_id": "1b58e35587c4c1d845b8277a3d78ae63", "type": "electric_bike", "is_disabled": 0, "lat": 38.952418333333334, "rental_uris": {"ios": "https://dc.lft.to/lastmile_qr_scan", "android": "https://dc.lft.to/lastmile_qr_scan"}, "is_reserved": 0, "fusion_lon": 0.0, "fusion_lat": 0.0, "lon": -76.97675566666666, "name": "1b58e35587c4c1d845b8277a3d78ae63"}, {"bike_id": "120eac7ef272c15709cfa33f3bcc48a3", "type": "electric_scooter", "is_disabled": 0, "lat": 38.906436666666664, "rental_uris": {"ios": "https://dc.lft.to/lastmile_qr_scan", "android": "https://dc.lft.to/lastmile_qr_scan"}, "is_reserved": 0, "fusion_lon": 0.0, "fusion_lat": 0.0, "lon": -77.01010266666667, "name": "120eac7ef272c15709cfa33f3bcc48a3"}, {"bike_id": "cc31a016a79f55e6afa32689f92bca2c", "type": "electric_scooter", "is_disabled": 0, "lat": 38.935407166666664, "rental_uris": {"ios": "https://dc.lft.to/lastmile_qr_scan", "android": "https://dc.lft.to/lastmile_qr_scan"}, "is_reserved": 0, "fusion_lon": 0.0, "fusion_lat": 0.0, "lon": -77.05824933333334, "name": "cc31a016a79f55e6afa32689f92bca2c"}, {"bike_id": "847792cbb12c82f2a76ebd313be0b085", "type": "electric_scooter", "is_disabled": 0, "lat": 38.932635166666664, "rental_uris": {"ios": "https://dc.lft.to/lastmile_qr_scan", "android": "https://dc.lft.to/lastmile_qr_scan"}, "is_reserved": 0, "fusion_lon": 0.0, "fusion_lat": 0.0, "lon": -77.01917116666667, "name": "847792cbb12c82f2a76ebd313be0b085"}, {"bike_id": "4e46c630852bd98a55e0f1c0fcca0784", "type": "electric_scooter", "is_disabled": 0, "lat": 38.8933635, "rental_uris": {"ios": "https://dc.lft.to/lastmile_qr_scan", "android": "https://dc.lft.to/lastmile_qr_scan"}, "is_reserved": 0, "fusion_lon": 0.0, "fusion_lat": 0.0, "lon": -77.0240765, "name": "4e46c630852bd98a55e0f1c0fcca0784"}, {"bike_id": "0522c2faf2e1ebb7ebcc23eabeb8510c", "type": "electric_scooter", "is_disabled": 0, "lat": 38.938725, "rental_uris": {"ios": "https://dc.lft.to/lastmile_qr_scan", "android": "https://dc.lft.to/lastmile_qr_scan"}, "is_reserved": 0, "fusion_lon": 0.0, "fusion_lat": 0.0, "lon": -77.02919333333334, "name": "0522c2faf2e1ebb7ebcc23eabeb8510c"}, {"bike_id": "9b93576a1c9f32f36980de50967ed90d", "type": "electric_scooter", "is_disabled": 0, "lat": 38.92040766666667, "rental_uris": {"ios": "https://dc.lft.to/lastmile_qr_scan", "android": "https://dc.lft.to/lastmile_qr_scan"}, "is_reserved": 0, "fusion_lon": 0.0, "fusion_lat": 0.0, "lon": -77.03479416666667, "name": "9b93576a1c9f32f36980de50967ed90d"}, {"bike_id": "3f28ca3d305c6ea224f51e4ae2ac163f", "type": "electric_bike", "is_disabled": 0, "lat": 38.907029, "rental_uris": {"ios": "https://dc.lft.to/lastmile_qr_scan", "android": "https://dc.lft.to/lastmile_qr_scan"}, "is_reserved": 0, "fusion_lon": 0.0, "fusion_lat": 0.0, "lon": -77.03097566666666, "name": "3f28ca3d305c6ea224f51e4ae2ac163f"}, {"bike_id": "70b56dbab72eccd1c50756032bdd60b5", "type": "electric_scooter", "is_disabled": 0, "lat": 38.89877533333333, "rental_uris": {"ios": "https://dc.lft.to/lastmile_qr_scan", "android": "https://dc.lft.to/lastmile_qr_scan"}, "is_reserved": 0, "fusion_lon": 0.0, "fusion_lat": 0.0, "lon": -77.0199965, "name": "70b56dbab72eccd1c50756032bdd60b5"}, {"bike_id": "61d15c417c5efd61ec7593c063797114", "type": "electric_scooter", "is_disabled": 0, "lat": 38.90984016666667, "rental_uris": {"ios": "https://dc.lft.to/lastmile_qr_scan", "android": "https://dc.lft.to/lastmile_qr_scan"}, "is_reserved": 0, "fusion_lon": 0.0, "fusion_lat": 0.0, "lon": -77.038556, "name": "61d15c417c5efd61ec7593c063797114"}, {"bike_id": "85e79f268e1d8be8a8636fa53d313882", "type": "electric_scooter", "is_disabled": 0, "lat": 38.907246666666666, "rental_uris": {"ios": "https://dc.lft.to/lastmile_qr_scan", "android": "https://dc.lft.to/lastmile_qr_scan"}, "is_reserved": 0, "fusion_lon": 0.0, "fusion_lat": 0.0, "lon": -77.01483116666667, "name": "85e79f268e1d8be8a8636fa53d313882"}, {"bike_id": "b4d8c728f396dc3f03dbf03c3dbab524", "type": "electric_scooter", "is_disabled": 0, "lat": 38.96622416666666, "rental_uris": {"ios": "https://dc.lft.to/lastmile_qr_scan", "android": "https://dc.lft.to/lastmile_qr_scan"}, "is_reserved": 0, "fusion_lon": 0.0, "fusion_lat": 0.0, "lon": -77.022491, "name": "b4d8c728f396dc3f03dbf03c3dbab524"}, {"bike_id": "ae061277228e34f372413dbb69373b57", "type": "electric_scooter", "is_disabled": 0, "lat": 38.908087333333334, "rental_uris": {"ios": "https://dc.lft.to/lastmile_qr_scan", "android": "https://dc.lft.to/lastmile_qr_scan"}, "is_reserved": 0, "fusion_lon": 0.0, "fusion_lat": 0.0, "lon": -77.0344245, "name": "ae061277228e34f372413dbb69373b57"}, {"bike_id": "cfc8552ef742452ec89f3937b427e086", "type": "electric_scooter", "is_disabled": 0, "lat": 38.901082, "rental_uris": {"ios": "https://dc.lft.to/lastmile_qr_scan", "android": "https://dc.lft.to/lastmile_qr_scan"}, "is_reserved": 0, "fusion_lon": 0.0, "fusion_lat": 0.0, "lon": -77.02785316666667, "name": "cfc8552ef742452ec89f3937b427e086"}, {"bike_id": "e718b5a161f3c30a8ffeddeca70f1e04", "type": "electric_bike", "is_disabled": 0, "lat": 39.05629716666667, "rental_uris": {"ios": "https://dc.lft.to/lastmile_qr_scan", "android": "https://dc.lft.to/lastmile_qr_scan"}, "is_reserved": 0, "fusion_lon": 0.0, "fusion_lat": 0.0, "lon": -77.1252595, "name": "e718b5a161f3c30a8ffeddeca70f1e04"}, {"bike_id": "f829c6e1354bda2db1937964d51f1f3e", "type": "electric_scooter", "is_disabled": 0, "lat": 38.9181825, "rental_uris": {"ios": "https://dc.lft.to/lastmile_qr_scan", "android": "https://dc.lft.to/lastmile_qr_scan"}, "is_reserved": 0, "fusion_lon": 0.0, "fusion_lat": 0.0, "lon": -77.02528783333334, "name": "f829c6e1354bda2db1937964d51f1f3e"}, {"bike_id": "25168baf343cfcd1f0df5bdb936bb643", "type": "electric_scooter", "is_disabled": 0, "lat": 38.906788166666665, "rental_uris": {"ios": "https://dc.lft.to/lastmile_qr_scan", "android": "https://dc.lft.to/lastmile_qr_scan"}, "is_reserved": 0, "fusion_lon": 0.0, "fusion_lat": 0.0, "lon": -77.071706, "name": "25168baf343cfcd1f0df5bdb936bb643"}, {"bike_id": "b3a1bfa8d7d303f9a6eeb9d8b511ebe3", "type": "electric_scooter", "is_disabled": 0, "lat": 38.8921545, "rental_uris": {"ios": "https://dc.lft.to/lastmile_qr_scan", "android": "https://dc.lft.to/lastmile_qr_scan"}, "is_reserved": 0, "fusion_lon": 0.0, "fusion_lat": 0.0, "lon": -77.04192433333333, "name": "b3a1bfa8d7d303f9a6eeb9d8b511ebe3"}, {"bike_id": "7402ccb6ddba812cf4037f3a52891bbe", "type": "electric_scooter", "is_disabled": 0, "lat": 38.936998833333334, "rental_uris": {"ios": "https://dc.lft.to/lastmile_qr_scan", "android": "https://dc.lft.to/lastmile_qr_scan"}, "is_reserved": 0, "fusion_lon": 0.0, "fusion_lat": 0.0, "lon": -77.06101616666666, "name": "7402ccb6ddba812cf4037f3a52891bbe"}, {"bike_id": "3a49208617ca83289d402b7c9b122b5b", "type": "electric_scooter", "is_disabled": 0, "lat": 38.899680000000004, "rental_uris": {"ios": "https://dc.lft.to/lastmile_qr_scan", "android": "https://dc.lft.to/lastmile_qr_scan"}, "is_reserved": 0, "fusion_lon": 0.0, "fusion_lat": 0.0, "lon": -77.02172083333333, "name": "3a49208617ca83289d402b7c9b122b5b"}, {"bike_id": "dbb5e9a76ff569f64562519296b5518e", "type": "electric_scooter", "is_disabled": 0, "lat": 38.90030933333333, "rental_uris": {"ios": "https://dc.lft.to/lastmile_qr_scan", "android": "https://dc.lft.to/lastmile_qr_scan"}, "is_reserved": 0, "fusion_lon": 0.0, "fusion_lat": 0.0, "lon": -76.98809283333334, "name": "dbb5e9a76ff569f64562519296b5518e"}, {"bike_id": "3e255f4fd1665aa0898672f3616925ba", "type": "electric_scooter", "is_disabled": 0, "lat": 38.9068225, "rental_uris": {"ios": "https://dc.lft.to/lastmile_qr_scan", "android": "https://dc.lft.to/lastmile_qr_scan"}, "is_reserved": 0, "fusion_lon": 0.0, "fusion_lat": 0.0, "lon": -77.06340233333333, "name": "3e255f4fd1665aa0898672f3616925ba"}, {"bike_id": "3a1132e15f421a8a83e8cc8534eb1f5e", "type": "electric_scooter", "is_disabled": 0, "lat": 38.92983133333333, "rental_uris": {"ios": "https://dc.lft.to/lastmile_qr_scan", "android": "https://dc.lft.to/lastmile_qr_scan"}, "is_reserved": 0, "fusion_lon": 0.0, "fusion_lat": 0.0, "lon": -77.0347105, "name": "3a1132e15f421a8a83e8cc8534eb1f5e"}, {"bike_id": "76f1e80e397b5488c73413a1dccafdb7", "type": "electric_scooter", "is_disabled": 0, "lat": 38.95842733333333, "rental_uris": {"ios": "https://dc.lft.to/lastmile_qr_scan", "android": "https://dc.lft.to/lastmile_qr_scan"}, "is_reserved": 0, "fusion_lon": 0.0, "fusion_lat": 0.0, "lon": -77.02741366666666, "name": "76f1e80e397b5488c73413a1dccafdb7"}, {"bike_id": "047aba03f81e72a25aeb563704353ec6", "type": "electric_scooter", "is_disabled": 0, "lat": 38.949798666666666, "rental_uris": {"ios": "https://dc.lft.to/lastmile_qr_scan", "android": "https://dc.lft.to/lastmile_qr_scan"}, "is_reserved": 0, "fusion_lon": 0.0, "fusion_lat": 0.0, "lon": -77.0265065, "name": "047aba03f81e72a25aeb563704353ec6"}, {"bike_id": "fa48afd5ea740a54ddb23ba7e2269884", "type": "electric_scooter", "is_disabled": 0, "lat": 38.91307183333333, "rental_uris": {"ios": "https://dc.lft.to/lastmile_qr_scan", "android": "https://dc.lft.to/lastmile_qr_scan"}, "is_reserved": 0, "fusion_lon": 0.0, "fusion_lat": 0.0, "lon": -77.03640016666667, "name": "fa48afd5ea740a54ddb23ba7e2269884"}, {"bike_id": "5c968f392c04fbe40f5b492be89a18dc", "type": "electric_scooter", "is_disabled": 0, "lat": 38.922224666666665, "rental_uris": {"ios": "https://dc.lft.to/lastmile_qr_scan", "android": "https://dc.lft.to/lastmile_qr_scan"}, "is_reserved": 0, "fusion_lon": 0.0, "fusion_lat": 0.0, "lon": -77.04714983333334, "name": "5c968f392c04fbe40f5b492be89a18dc"}, {"bike_id": "7a9b2f03c56d5788ee8854c520d49ca4", "type": "electric_scooter", "is_disabled": 0, "lat": 38.931258666666665, "rental_uris": {"ios": "https://dc.lft.to/lastmile_qr_scan", "android": "https://dc.lft.to/lastmile_qr_scan"}, "is_reserved": 0, "fusion_lon": 0.0, "fusion_lat": 0.0, "lon": -77.03658083333333, "name": "7a9b2f03c56d5788ee8854c520d49ca4"}, {"bike_id": "36539324f7493f405db7855e6606378a", "type": "electric_bike", "is_disabled": 0, "lat": 38.859333666666664, "rental_uris": {"ios": "https://dc.lft.to/lastmile_qr_scan", "android": "https://dc.lft.to/lastmile_qr_scan"}, "is_reserved": 0, "fusion_lon": 0.0, "fusion_lat": 0.0, "lon": -77.11827383333333, "name": "36539324f7493f405db7855e6606378a"}, {"bike_id": "3ac5028272a1860f1b4a91458b567632", "type": "electric_scooter", "is_disabled": 0, "lat": 38.9012785, "rental_uris": {"ios": "https://dc.lft.to/lastmile_qr_scan", "android": "https://dc.lft.to/lastmile_qr_scan"}, "is_reserved": 0, "fusion_lon": 0.0, "fusion_lat": 0.0, "lon": -77.012074, "name": "3ac5028272a1860f1b4a91458b567632"}, {"bike_id": "d06b4ed042eb0974ce4845c65c314c35", "type": "electric_scooter", "is_disabled": 0, "lat": 38.9058635, "rental_uris": {"ios": "https://dc.lft.to/lastmile_qr_scan", "android": "https://dc.lft.to/lastmile_qr_scan"}, "is_reserved": 0, "fusion_lon": 0.0, "fusion_lat": 0.0, "lon": -77.0680435, "name": "d06b4ed042eb0974ce4845c65c314c35"}, {"bike_id": "82f4642ac4bd0b2cad75e2abce0fac80", "type": "electric_scooter", "is_disabled": 0, "lat": 38.89226716666667, "rental_uris": {"ios": "https://dc.lft.to/lastmile_qr_scan", "android": "https://dc.lft.to/lastmile_qr_scan"}, "is_reserved": 0, "fusion_lon": 0.0, "fusion_lat": 0.0, "lon": -77.023811, "name": "82f4642ac4bd0b2cad75e2abce0fac80"}, {"bike_id": "bcaa75a788d5630a1c835d47d59059ce", "type": "electric_bike", "is_disabled": 0, "lat": 38.988632333333335, "rental_uris": {"ios": "https://dc.lft.to/lastmile_qr_scan", "android": "https://dc.lft.to/lastmile_qr_scan"}, "is_reserved": 0, "fusion_lon": 0.0, "fusion_lat": 0.0, "lon": -77.09553, "name": "bcaa75a788d5630a1c835d47d59059ce"}, {"bike_id": "ceeab5f6b51cbce32520d93100620eb0", "type": "electric_scooter", "is_disabled": 0, "lat": 38.92605866666667, "rental_uris": {"ios": "https://dc.lft.to/lastmile_qr_scan", "android": "https://dc.lft.to/lastmile_qr_scan"}, "is_reserved": 0, "fusion_lon": 0.0, "fusion_lat": 0.0, "lon": -77.043232, "name": "ceeab5f6b51cbce32520d93100620eb0"}, {"bike_id": "0739c0d25e14007411c84f7e6c676c47", "type": "electric_scooter", "is_disabled": 0, "lat": 38.901194333333336, "rental_uris": {"ios": "https://dc.lft.to/lastmile_qr_scan", "android": "https://dc.lft.to/lastmile_qr_scan"}, "is_reserved": 0, "fusion_lon": 0.0, "fusion_lat": 0.0, "lon": -77.016174, "name": "0739c0d25e14007411c84f7e6c676c47"}, {"bike_id": "86bdb6474a696a2715c94662b9c27503", "type": "electric_scooter", "is_disabled": 0, "lat": 38.91251183333333, "rental_uris": {"ios": "https://dc.lft.to/lastmile_qr_scan", "android": "https://dc.lft.to/lastmile_qr_scan"}, "is_reserved": 0, "fusion_lon": 0.0, "fusion_lat": 0.0, "lon": -77.038636, "name": "86bdb6474a696a2715c94662b9c27503"}, {"bike_id": "1660a9591928458ce63a26abe1e39762", "type": "electric_bike", "is_disabled": 0, "lat": 38.89202316666667, "rental_uris": {"ios": "https://dc.lft.to/lastmile_qr_scan", "android": "https://dc.lft.to/lastmile_qr_scan"}, "is_reserved": 0, "fusion_lon": 0.0, "fusion_lat": 0.0, "lon": -76.97680816666667, "name": "1660a9591928458ce63a26abe1e39762"}, {"bike_id": "ad3d9cdaa0c043690d2fe75b9f25a955", "type": "electric_bike", "is_disabled": 0, "lat": 38.883938666666666, "rental_uris": {"ios": "https://dc.lft.to/lastmile_qr_scan", "android": "https://dc.lft.to/lastmile_qr_scan"}, "is_reserved": 0, "fusion_lon": 0.0, "fusion_lat": 0.0, "lon": -77.09988283333334, "name": "ad3d9cdaa0c043690d2fe75b9f25a955"}, {"bike_id": "b91eda020870e8e9769935c54c45c161", "type": "electric_scooter", "is_disabled": 0, "lat": 38.93207783333333, "rental_uris": {"ios": "https://dc.lft.to/lastmile_qr_scan", "android": "https://dc.lft.to/lastmile_qr_scan"}, "is_reserved": 0, "fusion_lon": 0.0, "fusion_lat": 0.0, "lon": -77.0296535, "name": "b91eda020870e8e9769935c54c45c161"}, {"bike_id": "268bf8438866412534298e4d7dff5cd8", "type": "electric_scooter", "is_disabled": 0, "lat": 38.90002416666667, "rental_uris": {"ios": "https://dc.lft.to/lastmile_qr_scan", "android": "https://dc.lft.to/lastmile_qr_scan"}, "is_reserved": 0, "fusion_lon": 0.0, "fusion_lat": 0.0, "lon": -77.05538033333333, "name": "268bf8438866412534298e4d7dff5cd8"}, {"bike_id": "04e00565d37adc1be55061be5cbbd569", "type": "electric_scooter", "is_disabled": 0, "lat": 38.92236233333333, "rental_uris": {"ios": "https://dc.lft.to/lastmile_qr_scan", "android": "https://dc.lft.to/lastmile_qr_scan"}, "is_reserved": 0, "fusion_lon": 0.0, "fusion_lat": 0.0, "lon": -77.03348283333334, "name": "04e00565d37adc1be55061be5cbbd569"}, {"bike_id": "d86f456c0f2e6e6aa5ace539a3d47dcf", "type": "electric_scooter", "is_disabled": 0, "lat": 38.89499633333333, "rental_uris": {"ios": "https://dc.lft.to/lastmile_qr_scan", "android": "https://dc.lft.to/lastmile_qr_scan"}, "is_reserved": 0, "fusion_lon": 0.0, "fusion_lat": 0.0, "lon": -76.93476116666666, "name": "d86f456c0f2e6e6aa5ace539a3d47dcf"}, {"bike_id": "12a41c278bb1d32d3a4fcdb590166ad8", "type": "electric_scooter", "is_disabled": 0, "lat": 38.91402816666667, "rental_uris": {"ios": "https://dc.lft.to/lastmile_qr_scan", "android": "https://dc.lft.to/lastmile_qr_scan"}, "is_reserved": 0, "fusion_lon": 0.0, "fusion_lat": 0.0, "lon": -77.031558, "name": "12a41c278bb1d32d3a4fcdb590166ad8"}, {"bike_id": "964d2f5e51796cdcd99ece2e83808de0", "type": "electric_bike", "is_disabled": 0, "lat": 38.9190985, "rental_uris": {"ios": "https://dc.lft.to/lastmile_qr_scan", "android": "https://dc.lft.to/lastmile_qr_scan"}, "is_reserved": 0, "fusion_lon": 0.0, "fusion_lat": 0.0, "lon": -77.0200385, "name": "964d2f5e51796cdcd99ece2e83808de0"}, {"bike_id": "5c718ae5ea7161bb3cf8e08ef67cae72", "type": "electric_scooter", "is_disabled": 0, "lat": 38.933011666666665, "rental_uris": {"ios": "https://dc.lft.to/lastmile_qr_scan", "android": "https://dc.lft.to/lastmile_qr_scan"}, "is_reserved": 0, "fusion_lon": 0.0, "fusion_lat": 0.0, "lon": -77.02137683333333, "name": "5c718ae5ea7161bb3cf8e08ef67cae72"}, {"bike_id": "385a5c4e0b9a858a8cec34f385acaefa", "type": "electric_scooter", "is_disabled": 0, "lat": 38.8668525, "rental_uris": {"ios": "https://dc.lft.to/lastmile_qr_scan", "android": "https://dc.lft.to/lastmile_qr_scan"}, "is_reserved": 0, "fusion_lon": 0.0, "fusion_lat": 0.0, "lon": -76.98576, "name": "385a5c4e0b9a858a8cec34f385acaefa"}, {"bike_id": "050d734439292dc3dbf97d11f707dd51", "type": "electric_scooter", "is_disabled": 0, "lat": 38.91347733333333, "rental_uris": {"ios": "https://dc.lft.to/lastmile_qr_scan", "android": "https://dc.lft.to/lastmile_qr_scan"}, "is_reserved": 0, "fusion_lon": 0.0, "fusion_lat": 0.0, "lon": -77.04488216666667, "name": "050d734439292dc3dbf97d11f707dd51"}, {"bike_id": "db6a1871ca6d47bc9a95e32d65f763ec", "type": "electric_scooter", "is_disabled": 0, "lat": 38.87662666666667, "rental_uris": {"ios": "https://dc.lft.to/lastmile_qr_scan", "android": "https://dc.lft.to/lastmile_qr_scan"}, "is_reserved": 0, "fusion_lon": 0.0, "fusion_lat": 0.0, "lon": -77.00559466666667, "name": "db6a1871ca6d47bc9a95e32d65f763ec"}, {"bike_id": "8624ee9bd45ce197708ba7c04bf5adba", "type": "electric_scooter", "is_disabled": 0, "lat": 38.938810333333336, "rental_uris": {"ios": "https://dc.lft.to/lastmile_qr_scan", "android": "https://dc.lft.to/lastmile_qr_scan"}, "is_reserved": 0, "fusion_lon": 0.0, "fusion_lat": 0.0, "lon": -77.0248425, "name": "8624ee9bd45ce197708ba7c04bf5adba"}, {"bike_id": "9171bb981d7680a5263ffbc4cf81c48c", "type": "electric_scooter", "is_disabled": 0, "lat": 38.892206333333334, "rental_uris": {"ios": "https://dc.lft.to/lastmile_qr_scan", "android": "https://dc.lft.to/lastmile_qr_scan"}, "is_reserved": 0, "fusion_lon": 0.0, "fusion_lat": 0.0, "lon": -77.02577566666666, "name": "9171bb981d7680a5263ffbc4cf81c48c"}, {"bike_id": "b20e83ff67183ebef2cc0498d9d34dbc", "type": "electric_scooter", "is_disabled": 0, "lat": 38.932318333333335, "rental_uris": {"ios": "https://dc.lft.to/lastmile_qr_scan", "android": "https://dc.lft.to/lastmile_qr_scan"}, "is_reserved": 0, "fusion_lon": 0.0, "fusion_lat": 0.0, "lon": -77.046386, "name": "b20e83ff67183ebef2cc0498d9d34dbc"}, {"bike_id": "68e54f5b969b2378488ccc2fa05faee6", "type": "electric_scooter", "is_disabled": 0, "lat": 38.90373733333333, "rental_uris": {"ios": "https://dc.lft.to/lastmile_qr_scan", "android": "https://dc.lft.to/lastmile_qr_scan"}, "is_reserved": 0, "fusion_lon": 0.0, "fusion_lat": 0.0, "lon": -76.93757233333334, "name": "68e54f5b969b2378488ccc2fa05faee6"}, {"bike_id": "90479dab336d01874bca9d6359fc862f", "type": "electric_scooter", "is_disabled": 0, "lat": 38.90257, "rental_uris": {"ios": "https://dc.lft.to/lastmile_qr_scan", "android": "https://dc.lft.to/lastmile_qr_scan"}, "is_reserved": 0, "fusion_lon": 0.0, "fusion_lat": 0.0, "lon": -77.0383625, "name": "90479dab336d01874bca9d6359fc862f"}, {"bike_id": "c49280ae66379d3f3775a5b0d6137ed8", "type": "electric_scooter", "is_disabled": 0, "lat": 38.919758333333334, "rental_uris": {"ios": "https://dc.lft.to/lastmile_qr_scan", "android": "https://dc.lft.to/lastmile_qr_scan"}, "is_reserved": 0, "fusion_lon": 0.0, "fusion_lat": 0.0, "lon": -77.02171616666666, "name": "c49280ae66379d3f3775a5b0d6137ed8"}, {"bike_id": "c459a8cb50153ec8c51d9654a031c14c", "type": "electric_scooter", "is_disabled": 0, "lat": 38.901502666666666, "rental_uris": {"ios": "https://dc.lft.to/lastmile_qr_scan", "android": "https://dc.lft.to/lastmile_qr_scan"}, "is_reserved": 0, "fusion_lon": 0.0, "fusion_lat": 0.0, "lon": -76.93060266666667, "name": "c459a8cb50153ec8c51d9654a031c14c"}, {"bike_id": "bd432c0de89424af85b099b8573c4fc5", "type": "electric_bike", "is_disabled": 0, "lat": 39.06290333333333, "rental_uris": {"ios": "https://dc.lft.to/lastmile_qr_scan", "android": "https://dc.lft.to/lastmile_qr_scan"}, "is_reserved": 0, "fusion_lon": 0.0, "fusion_lat": 0.0, "lon": -77.04980933333333, "name": "bd432c0de89424af85b099b8573c4fc5"}, {"bike_id": "c9f57ddd26ce138fa51dde40c7b6e9c1", "type": "electric_scooter", "is_disabled": 0, "lat": 38.90102433333333, "rental_uris": {"ios": "https://dc.lft.to/lastmile_qr_scan", "android": "https://dc.lft.to/lastmile_qr_scan"}, "is_reserved": 0, "fusion_lon": 0.0, "fusion_lat": 0.0, "lon": -77.01988766666666, "name": "c9f57ddd26ce138fa51dde40c7b6e9c1"}, {"bike_id": "da79d400c731c92141c51394d66b6f5e", "type": "electric_scooter", "is_disabled": 0, "lat": 38.907362166666665, "rental_uris": {"ios": "https://dc.lft.to/lastmile_qr_scan", "android": "https://dc.lft.to/lastmile_qr_scan"}, "is_reserved": 0, "fusion_lon": 0.0, "fusion_lat": 0.0, "lon": -77.02389366666667, "name": "da79d400c731c92141c51394d66b6f5e"}, {"bike_id": "d6731d5f2ace9d79fd5caea49dacd470", "type": "electric_scooter", "is_disabled": 0, "lat": 38.910569, "rental_uris": {"ios": "https://dc.lft.to/lastmile_qr_scan", "android": "https://dc.lft.to/lastmile_qr_scan"}, "is_reserved": 0, "fusion_lon": 0.0, "fusion_lat": 0.0, "lon": -77.03084833333334, "name": "d6731d5f2ace9d79fd5caea49dacd470"}, {"bike_id": "5f4d3a5b4a984703270ee225ff850bb6", "type": "electric_scooter", "is_disabled": 0, "lat": 38.91697283333333, "rental_uris": {"ios": "https://dc.lft.to/lastmile_qr_scan", "android": "https://dc.lft.to/lastmile_qr_scan"}, "is_reserved": 0, "fusion_lon": 0.0, "fusion_lat": 0.0, "lon": -77.00794983333333, "name": "5f4d3a5b4a984703270ee225ff850bb6"}, {"bike_id": "f80df79462274b7dadb13cdceebab504", "type": "electric_scooter", "is_disabled": 0, "lat": 38.877947166666665, "rental_uris": {"ios": "https://dc.lft.to/lastmile_qr_scan", "android": "https://dc.lft.to/lastmile_qr_scan"}, "is_reserved": 0, "fusion_lon": 0.0, "fusion_lat": 0.0, "lon": -77.0074685, "name": "f80df79462274b7dadb13cdceebab504"}, {"bike_id": "ecd97fcb899dc606e24a92f043534c90", "type": "electric_bike", "is_disabled": 0, "lat": 38.796073166666666, "rental_uris": {"ios": "https://dc.lft.to/lastmile_qr_scan", "android": "https://dc.lft.to/lastmile_qr_scan"}, "is_reserved": 0, "fusion_lon": 0.0, "fusion_lat": 0.0, "lon": -76.997446, "name": "ecd97fcb899dc606e24a92f043534c90"}, {"bike_id": "eede2fe6a2ddf64fab79d5a51cc77324", "type": "electric_scooter", "is_disabled": 0, "lat": 38.90627166666667, "rental_uris": {"ios": "https://dc.lft.to/lastmile_qr_scan", "android": "https://dc.lft.to/lastmile_qr_scan"}, "is_reserved": 0, "fusion_lon": 0.0, "fusion_lat": 0.0, "lon": -77.04665316666667, "name": "eede2fe6a2ddf64fab79d5a51cc77324"}, {"bike_id": "e07e26a520caa0d905db6c83386a35d2", "type": "electric_scooter", "is_disabled": 0, "lat": 38.97674583333333, "rental_uris": {"ios": "https://dc.lft.to/lastmile_qr_scan", "android": "https://dc.lft.to/lastmile_qr_scan"}, "is_reserved": 0, "fusion_lon": 0.0, "fusion_lat": 0.0, "lon": -77.01656216666667, "name": "e07e26a520caa0d905db6c83386a35d2"}, {"bike_id": "85124567f6a5836b9aa1fe56d004eba2", "type": "electric_scooter", "is_disabled": 0, "lat": 38.900232, "rental_uris": {"ios": "https://dc.lft.to/lastmile_qr_scan", "android": "https://dc.lft.to/lastmile_qr_scan"}, "is_reserved": 0, "fusion_lon": 0.0, "fusion_lat": 0.0, "lon": -77.00190883333333, "name": "85124567f6a5836b9aa1fe56d004eba2"}, {"bike_id": "74c3d793f26da347c42f39d56ec60bc9", "type": "electric_scooter", "is_disabled": 0, "lat": 38.90361933333333, "rental_uris": {"ios": "https://dc.lft.to/lastmile_qr_scan", "android": "https://dc.lft.to/lastmile_qr_scan"}, "is_reserved": 0, "fusion_lon": 0.0, "fusion_lat": 0.0, "lon": -77.0269575, "name": "74c3d793f26da347c42f39d56ec60bc9"}, {"bike_id": "82e4ef7647870f63d1e9ec54cbffd250", "type": "electric_scooter", "is_disabled": 0, "lat": 38.92413366666667, "rental_uris": {"ios": "https://dc.lft.to/lastmile_qr_scan", "android": "https://dc.lft.to/lastmile_qr_scan"}, "is_reserved": 0, "fusion_lon": 0.0, "fusion_lat": 0.0, "lon": -77.05064033333333, "name": "82e4ef7647870f63d1e9ec54cbffd250"}, {"bike_id": "39c67726d90d102404278f4e55585550", "type": "electric_scooter", "is_disabled": 0, "lat": 38.88388483333333, "rental_uris": {"ios": "https://dc.lft.to/lastmile_qr_scan", "android": "https://dc.lft.to/lastmile_qr_scan"}, "is_reserved": 0, "fusion_lon": 0.0, "fusion_lat": 0.0, "lon": -76.95446433333333, "name": "39c67726d90d102404278f4e55585550"}, {"bike_id": "5a3619d3a7d11d3f6c5be2c956b7cb8a", "type": "electric_scooter", "is_disabled": 0, "lat": 38.88880483333333, "rental_uris": {"ios": "https://dc.lft.to/lastmile_qr_scan", "android": "https://dc.lft.to/lastmile_qr_scan"}, "is_reserved": 0, "fusion_lon": 0.0, "fusion_lat": 0.0, "lon": -76.94776666666667, "name": "5a3619d3a7d11d3f6c5be2c956b7cb8a"}, {"bike_id": "c4ec9e0fb092fd8b91af58f2d0169eda", "type": "electric_scooter", "is_disabled": 0, "lat": 38.9039635, "rental_uris": {"ios": "https://dc.lft.to/lastmile_qr_scan", "android": "https://dc.lft.to/lastmile_qr_scan"}, "is_reserved": 0, "fusion_lon": 0.0, "fusion_lat": 0.0, "lon": -77.00581516666666, "name": "c4ec9e0fb092fd8b91af58f2d0169eda"}, {"bike_id": "e63b7ad582871be4216d062d2b1395eb", "type": "electric_scooter", "is_disabled": 0, "lat": 38.88492016666667, "rental_uris": {"ios": "https://dc.lft.to/lastmile_qr_scan", "android": "https://dc.lft.to/lastmile_qr_scan"}, "is_reserved": 0, "fusion_lon": 0.0, "fusion_lat": 0.0, "lon": -77.01715266666666, "name": "e63b7ad582871be4216d062d2b1395eb"}, {"bike_id": "0ff33b748eb72df430fa845a871cf45e", "type": "electric_scooter", "is_disabled": 0, "lat": 38.919271333333334, "rental_uris": {"ios": "https://dc.lft.to/lastmile_qr_scan", "android": "https://dc.lft.to/lastmile_qr_scan"}, "is_reserved": 0, "fusion_lon": 0.0, "fusion_lat": 0.0, "lon": -77.04553316666667, "name": "0ff33b748eb72df430fa845a871cf45e"}, {"bike_id": "7d039dba6e805efce25b921ed91d1784", "type": "electric_scooter", "is_disabled": 0, "lat": 38.900051500000004, "rental_uris": {"ios": "https://dc.lft.to/lastmile_qr_scan", "android": "https://dc.lft.to/lastmile_qr_scan"}, "is_reserved": 0, "fusion_lon": 0.0, "fusion_lat": 0.0, "lon": -77.03203416666666, "name": "7d039dba6e805efce25b921ed91d1784"}, {"bike_id": "6e05efaefa84f41c011d1b8f71b01e42", "type": "electric_scooter", "is_disabled": 0, "lat": 38.90563483333333, "rental_uris": {"ios": "https://dc.lft.to/lastmile_qr_scan", "android": "https://dc.lft.to/lastmile_qr_scan"}, "is_reserved": 0, "fusion_lon": 0.0, "fusion_lat": 0.0, "lon": -77.0421085, "name": "6e05efaefa84f41c011d1b8f71b01e42"}, {"bike_id": "bf6e9bdb2f65314793ac3dcdfec577b2", "type": "electric_scooter", "is_disabled": 0, "lat": 38.925313333333335, "rental_uris": {"ios": "https://dc.lft.to/lastmile_qr_scan", "android": "https://dc.lft.to/lastmile_qr_scan"}, "is_reserved": 0, "fusion_lon": 0.0, "fusion_lat": 0.0, "lon": -77.02256583333333, "name": "bf6e9bdb2f65314793ac3dcdfec577b2"}, {"bike_id": "9fe2a2aab7f19b3cf73e714192fb9698", "type": "electric_scooter", "is_disabled": 0, "lat": 38.914688166666664, "rental_uris": {"ios": "https://dc.lft.to/lastmile_qr_scan", "android": "https://dc.lft.to/lastmile_qr_scan"}, "is_reserved": 0, "fusion_lon": 0.0, "fusion_lat": 0.0, "lon": -77.038824, "name": "9fe2a2aab7f19b3cf73e714192fb9698"}, {"bike_id": "c733e8498f7bd17953d4f67e24f0d8d9", "type": "electric_scooter", "is_disabled": 0, "lat": 38.90287933333333, "rental_uris": {"ios": "https://dc.lft.to/lastmile_qr_scan", "android": "https://dc.lft.to/lastmile_qr_scan"}, "is_reserved": 0, "fusion_lon": 0.0, "fusion_lat": 0.0, "lon": -77.02120533333333, "name": "c733e8498f7bd17953d4f67e24f0d8d9"}, {"bike_id": "065440d8cb8aeee45d62ade98129a519", "type": "electric_scooter", "is_disabled": 0, "lat": 38.944402, "rental_uris": {"ios": "https://dc.lft.to/lastmile_qr_scan", "android": "https://dc.lft.to/lastmile_qr_scan"}, "is_reserved": 0, "fusion_lon": 0.0, "fusion_lat": 0.0, "lon": -77.06354233333333, "name": "065440d8cb8aeee45d62ade98129a519"}, {"bike_id": "b4493a4a4a6799474bdf9f401813cd81", "type": "electric_scooter", "is_disabled": 0, "lat": 38.9212755, "rental_uris": {"ios": "https://dc.lft.to/lastmile_qr_scan", "android": "https://dc.lft.to/lastmile_qr_scan"}, "is_reserved": 0, "fusion_lon": 0.0, "fusion_lat": 0.0, "lon": -76.99247216666667, "name": "b4493a4a4a6799474bdf9f401813cd81"}, {"bike_id": "67b7622d00c04cc395c2f6245a6261ca", "type": "electric_scooter", "is_disabled": 0, "lat": 38.911944, "rental_uris": {"ios": "https://dc.lft.to/lastmile_qr_scan", "android": "https://dc.lft.to/lastmile_qr_scan"}, "is_reserved": 0, "fusion_lon": 0.0, "fusion_lat": 0.0, "lon": -77.04524116666667, "name": "67b7622d00c04cc395c2f6245a6261ca"}, {"bike_id": "f0176082937182678fbe622b1e6dfb92", "type": "electric_scooter", "is_disabled": 0, "lat": 38.925008, "rental_uris": {"ios": "https://dc.lft.to/lastmile_qr_scan", "android": "https://dc.lft.to/lastmile_qr_scan"}, "is_reserved": 0, "fusion_lon": 0.0, "fusion_lat": 0.0, "lon": -77.0227525, "name": "f0176082937182678fbe622b1e6dfb92"}, {"bike_id": "361d5210e7ce8aef4ee2e9434d7bbb3a", "type": "electric_scooter", "is_disabled": 0, "lat": 38.8969665, "rental_uris": {"ios": "https://dc.lft.to/lastmile_qr_scan", "android": "https://dc.lft.to/lastmile_qr_scan"}, "is_reserved": 0, "fusion_lon": 0.0, "fusion_lat": 0.0, "lon": -77.0213315, "name": "361d5210e7ce8aef4ee2e9434d7bbb3a"}, {"bike_id": "313f5488f6d0b6348da150aae16bdf92", "type": "electric_scooter", "is_disabled": 0, "lat": 38.931149, "rental_uris": {"ios": "https://dc.lft.to/lastmile_qr_scan", "android": "https://dc.lft.to/lastmile_qr_scan"}, "is_reserved": 0, "fusion_lon": 0.0, "fusion_lat": 0.0, "lon": -77.02344783333334, "name": "313f5488f6d0b6348da150aae16bdf92"}, {"bike_id": "f55d721dd144edf245190607c33d0245", "type": "electric_scooter", "is_disabled": 0, "lat": 38.92532516666667, "rental_uris": {"ios": "https://dc.lft.to/lastmile_qr_scan", "android": "https://dc.lft.to/lastmile_qr_scan"}, "is_reserved": 0, "fusion_lon": 0.0, "fusion_lat": 0.0, "lon": -77.042776, "name": "f55d721dd144edf245190607c33d0245"}, {"bike_id": "4792c54e444f7164d7f82e33291b7753", "type": "electric_scooter", "is_disabled": 0, "lat": 38.918435333333335, "rental_uris": {"ios": "https://dc.lft.to/lastmile_qr_scan", "android": "https://dc.lft.to/lastmile_qr_scan"}, "is_reserved": 0, "fusion_lon": 0.0, "fusion_lat": 0.0, "lon": -76.96548316666667, "name": "4792c54e444f7164d7f82e33291b7753"}, {"bike_id": "2703eb734c6ae7406ba85b7bc5109f3f", "type": "electric_scooter", "is_disabled": 0, "lat": 38.877947666666664, "rental_uris": {"ios": "https://dc.lft.to/lastmile_qr_scan", "android": "https://dc.lft.to/lastmile_qr_scan"}, "is_reserved": 0, "fusion_lon": 0.0, "fusion_lat": 0.0, "lon": -76.93086883333334, "name": "2703eb734c6ae7406ba85b7bc5109f3f"}, {"bike_id": "fb4b2977cc641e2ff78b0b2493488e16", "type": "electric_bike", "is_disabled": 0, "lat": 38.89241216666667, "rental_uris": {"ios": "https://dc.lft.to/lastmile_qr_scan", "android": "https://dc.lft.to/lastmile_qr_scan"}, "is_reserved": 0, "fusion_lon": 0.0, "fusion_lat": 0.0, "lon": -76.98539533333333, "name": "fb4b2977cc641e2ff78b0b2493488e16"}, {"bike_id": "78c008215f32357f98c0d6de79672a17", "type": "electric_scooter", "is_disabled": 0, "lat": 38.89318, "rental_uris": {"ios": "https://dc.lft.to/lastmile_qr_scan", "android": "https://dc.lft.to/lastmile_qr_scan"}, "is_reserved": 0, "fusion_lon": 0.0, "fusion_lat": 0.0, "lon": -77.01227166666666, "name": "78c008215f32357f98c0d6de79672a17"}, {"bike_id": "9f4ae95dbdbd97e95f27c872623bbc0d", "type": "electric_scooter", "is_disabled": 0, "lat": 38.925237833333334, "rental_uris": {"ios": "https://dc.lft.to/lastmile_qr_scan", "android": "https://dc.lft.to/lastmile_qr_scan"}, "is_reserved": 0, "fusion_lon": 0.0, "fusion_lat": 0.0, "lon": -77.07716533333334, "name": "9f4ae95dbdbd97e95f27c872623bbc0d"}, {"bike_id": "32e43e565da54538a85bc62a039e521a", "type": "electric_scooter", "is_disabled": 0, "lat": 38.93680333333333, "rental_uris": {"ios": "https://dc.lft.to/lastmile_qr_scan", "android": "https://dc.lft.to/lastmile_qr_scan"}, "is_reserved": 0, "fusion_lon": 0.0, "fusion_lat": 0.0, "lon": -77.032756, "name": "32e43e565da54538a85bc62a039e521a"}, {"bike_id": "eb5594155b76c5550196cf26eaf877f5", "type": "electric_scooter", "is_disabled": 0, "lat": 38.91493966666667, "rental_uris": {"ios": "https://dc.lft.to/lastmile_qr_scan", "android": "https://dc.lft.to/lastmile_qr_scan"}, "is_reserved": 0, "fusion_lon": 0.0, "fusion_lat": 0.0, "lon": -77.0199335, "name": "eb5594155b76c5550196cf26eaf877f5"}, {"bike_id": "267a9a6e69c9dab755b0dced8950c07b", "type": "electric_scooter", "is_disabled": 0, "lat": 38.874606666666665, "rental_uris": {"ios": "https://dc.lft.to/lastmile_qr_scan", "android": "https://dc.lft.to/lastmile_qr_scan"}, "is_reserved": 0, "fusion_lon": 0.0, "fusion_lat": 0.0, "lon": -77.00944, "name": "267a9a6e69c9dab755b0dced8950c07b"}, {"bike_id": "1af44b01b91d362edde54248cb181112", "type": "electric_bike", "is_disabled": 0, "lat": 38.8551275, "rental_uris": {"ios": "https://dc.lft.to/lastmile_qr_scan", "android": "https://dc.lft.to/lastmile_qr_scan"}, "is_reserved": 0, "fusion_lon": 0.0, "fusion_lat": 0.0, "lon": -76.984377, "name": "1af44b01b91d362edde54248cb181112"}, {"bike_id": "ec846fc3a6a4858107de22d25ce02363", "type": "electric_scooter", "is_disabled": 0, "lat": 38.90372633333333, "rental_uris": {"ios": "https://dc.lft.to/lastmile_qr_scan", "android": "https://dc.lft.to/lastmile_qr_scan"}, "is_reserved": 0, "fusion_lon": 0.0, "fusion_lat": 0.0, "lon": -77.044979, "name": "ec846fc3a6a4858107de22d25ce02363"}, {"bike_id": "aa724285a381213e3e7239875833339d", "type": "electric_scooter", "is_disabled": 0, "lat": 38.9003745, "rental_uris": {"ios": "https://dc.lft.to/lastmile_qr_scan", "android": "https://dc.lft.to/lastmile_qr_scan"}, "is_reserved": 0, "fusion_lon": 0.0, "fusion_lat": 0.0, "lon": -76.919174, "name": "aa724285a381213e3e7239875833339d"}, {"bike_id": "7a311d3afb956228572c469eaff84128", "type": "electric_scooter", "is_disabled": 0, "lat": 38.90501866666666, "rental_uris": {"ios": "https://dc.lft.to/lastmile_qr_scan", "android": "https://dc.lft.to/lastmile_qr_scan"}, "is_reserved": 0, "fusion_lon": 0.0, "fusion_lat": 0.0, "lon": -77.06015733333334, "name": "7a311d3afb956228572c469eaff84128"}, {"bike_id": "3945faa95af0cff85436f7c53663bcc2", "type": "electric_scooter", "is_disabled": 0, "lat": 38.900885333333335, "rental_uris": {"ios": "https://dc.lft.to/lastmile_qr_scan", "android": "https://dc.lft.to/lastmile_qr_scan"}, "is_reserved": 0, "fusion_lon": 0.0, "fusion_lat": 0.0, "lon": -77.0176885, "name": "3945faa95af0cff85436f7c53663bcc2"}, {"bike_id": "5dac9d516b021017dfc0d58ffd6ac35c", "type": "electric_scooter", "is_disabled": 0, "lat": 38.920308166666665, "rental_uris": {"ios": "https://dc.lft.to/lastmile_qr_scan", "android": "https://dc.lft.to/lastmile_qr_scan"}, "is_reserved": 0, "fusion_lon": 0.0, "fusion_lat": 0.0, "lon": -77.02597966666667, "name": "5dac9d516b021017dfc0d58ffd6ac35c"}, {"bike_id": "6f724504d0a13b8ff6345430577736a7", "type": "electric_scooter", "is_disabled": 0, "lat": 38.9098335, "rental_uris": {"ios": "https://dc.lft.to/lastmile_qr_scan", "android": "https://dc.lft.to/lastmile_qr_scan"}, "is_reserved": 0, "fusion_lon": 0.0, "fusion_lat": 0.0, "lon": -77.03380816666666, "name": "6f724504d0a13b8ff6345430577736a7"}, {"bike_id": "ce00afe266cda05bbc6a0f18a09be788", "type": "electric_bike", "is_disabled": 0, "lat": 38.804225333333335, "rental_uris": {"ios": "https://dc.lft.to/lastmile_qr_scan", "android": "https://dc.lft.to/lastmile_qr_scan"}, "is_reserved": 0, "fusion_lon": 0.0, "fusion_lat": 0.0, "lon": -77.05573716666666, "name": "ce00afe266cda05bbc6a0f18a09be788"}, {"bike_id": "33104af847d2a89194e48162d4f998ca", "type": "electric_scooter", "is_disabled": 0, "lat": 38.863881166666665, "rental_uris": {"ios": "https://dc.lft.to/lastmile_qr_scan", "android": "https://dc.lft.to/lastmile_qr_scan"}, "is_reserved": 0, "fusion_lon": 0.0, "fusion_lat": 0.0, "lon": -76.99042566666667, "name": "33104af847d2a89194e48162d4f998ca"}, {"bike_id": "4bd48ffe2bd998e612d89abd04191312", "type": "electric_scooter", "is_disabled": 0, "lat": 38.876081166666665, "rental_uris": {"ios": "https://dc.lft.to/lastmile_qr_scan", "android": "https://dc.lft.to/lastmile_qr_scan"}, "is_reserved": 0, "fusion_lon": 0.0, "fusion_lat": 0.0, "lon": -77.00591633333333, "name": "4bd48ffe2bd998e612d89abd04191312"}, {"bike_id": "648da859785a34b63c0e5b020673922d", "type": "electric_scooter", "is_disabled": 0, "lat": 38.911167666666664, "rental_uris": {"ios": "https://dc.lft.to/lastmile_qr_scan", "android": "https://dc.lft.to/lastmile_qr_scan"}, "is_reserved": 0, "fusion_lon": 0.0, "fusion_lat": 0.0, "lon": -77.0417335, "name": "648da859785a34b63c0e5b020673922d"}, {"bike_id": "7aa137358af3b6af99693165f004e438", "type": "electric_scooter", "is_disabled": 0, "lat": 38.88613733333333, "rental_uris": {"ios": "https://dc.lft.to/lastmile_qr_scan", "android": "https://dc.lft.to/lastmile_qr_scan"}, "is_reserved": 0, "fusion_lon": 0.0, "fusion_lat": 0.0, "lon": -76.95578016666667, "name": "7aa137358af3b6af99693165f004e438"}, {"bike_id": "26204b78e8a12ad6e53f79759cfc6e1c", "type": "electric_scooter", "is_disabled": 0, "lat": 38.92968533333333, "rental_uris": {"ios": "https://dc.lft.to/lastmile_qr_scan", "android": "https://dc.lft.to/lastmile_qr_scan"}, "is_reserved": 0, "fusion_lon": 0.0, "fusion_lat": 0.0, "lon": -77.02821883333333, "name": "26204b78e8a12ad6e53f79759cfc6e1c"}, {"bike_id": "cfe2b1011094addd7d69ecd1acb9a519", "type": "electric_scooter", "is_disabled": 0, "lat": 38.911847333333334, "rental_uris": {"ios": "https://dc.lft.to/lastmile_qr_scan", "android": "https://dc.lft.to/lastmile_qr_scan"}, "is_reserved": 0, "fusion_lon": 0.0, "fusion_lat": 0.0, "lon": -77.03858216666667, "name": "cfe2b1011094addd7d69ecd1acb9a519"}, {"bike_id": "3dd9d31fe999dd0d8cde876fdb3f3de5", "type": "electric_scooter", "is_disabled": 0, "lat": 38.93422483333333, "rental_uris": {"ios": "https://dc.lft.to/lastmile_qr_scan", "android": "https://dc.lft.to/lastmile_qr_scan"}, "is_reserved": 0, "fusion_lon": 0.0, "fusion_lat": 0.0, "lon": -77.040016, "name": "3dd9d31fe999dd0d8cde876fdb3f3de5"}, {"bike_id": "77e88e062d11126098e43e398145e649", "type": "electric_scooter", "is_disabled": 0, "lat": 38.903191166666666, "rental_uris": {"ios": "https://dc.lft.to/lastmile_qr_scan", "android": "https://dc.lft.to/lastmile_qr_scan"}, "is_reserved": 0, "fusion_lon": 0.0, "fusion_lat": 0.0, "lon": -76.97549083333334, "name": "77e88e062d11126098e43e398145e649"}, {"bike_id": "3866148488d88fb112a69fd9c405b66c", "type": "electric_scooter", "is_disabled": 0, "lat": 38.941880166666664, "rental_uris": {"ios": "https://dc.lft.to/lastmile_qr_scan", "android": "https://dc.lft.to/lastmile_qr_scan"}, "is_reserved": 0, "fusion_lon": 0.0, "fusion_lat": 0.0, "lon": -77.024925, "name": "3866148488d88fb112a69fd9c405b66c"}, {"bike_id": "38c0c2f3e05f2ab31e2648410c14e5d2", "type": "electric_scooter", "is_disabled": 0, "lat": 38.9221085, "rental_uris": {"ios": "https://dc.lft.to/lastmile_qr_scan", "android": "https://dc.lft.to/lastmile_qr_scan"}, "is_reserved": 0, "fusion_lon": 0.0, "fusion_lat": 0.0, "lon": -77.03458566666667, "name": "38c0c2f3e05f2ab31e2648410c14e5d2"}, {"bike_id": "edcb9e61ebbee8ab365aad25bcbddb22", "type": "electric_bike", "is_disabled": 0, "lat": 38.809006333333336, "rental_uris": {"ios": "https://dc.lft.to/lastmile_qr_scan", "android": "https://dc.lft.to/lastmile_qr_scan"}, "is_reserved": 0, "fusion_lon": 0.0, "fusion_lat": 0.0, "lon": -77.08658666666666, "name": "edcb9e61ebbee8ab365aad25bcbddb22"}, {"bike_id": "ae10bfde0c0781ec04ecba1fb0f284ba", "type": "electric_scooter", "is_disabled": 0, "lat": 38.928439166666664, "rental_uris": {"ios": "https://dc.lft.to/lastmile_qr_scan", "android": "https://dc.lft.to/lastmile_qr_scan"}, "is_reserved": 0, "fusion_lon": 0.0, "fusion_lat": 0.0, "lon": -77.01420883333333, "name": "ae10bfde0c0781ec04ecba1fb0f284ba"}, {"bike_id": "44b9ca01939a2bc74c3823daaa694fa0", "type": "electric_scooter", "is_disabled": 0, "lat": 38.902664333333334, "rental_uris": {"ios": "https://dc.lft.to/lastmile_qr_scan", "android": "https://dc.lft.to/lastmile_qr_scan"}, "is_reserved": 0, "fusion_lon": 0.0, "fusion_lat": 0.0, "lon": -77.01864683333334, "name": "44b9ca01939a2bc74c3823daaa694fa0"}, {"bike_id": "8d4620c78bd666271824ef95a1f3f330", "type": "electric_scooter", "is_disabled": 0, "lat": 38.89849016666667, "rental_uris": {"ios": "https://dc.lft.to/lastmile_qr_scan", "android": "https://dc.lft.to/lastmile_qr_scan"}, "is_reserved": 0, "fusion_lon": 0.0, "fusion_lat": 0.0, "lon": -76.98174716666666, "name": "8d4620c78bd666271824ef95a1f3f330"}, {"bike_id": "bc7020f2217cbcc9db90421432c1212c", "type": "electric_scooter", "is_disabled": 0, "lat": 38.934734, "rental_uris": {"ios": "https://dc.lft.to/lastmile_qr_scan", "android": "https://dc.lft.to/lastmile_qr_scan"}, "is_reserved": 0, "fusion_lon": 0.0, "fusion_lat": 0.0, "lon": -77.07273, "name": "bc7020f2217cbcc9db90421432c1212c"}, {"bike_id": "b5cb32ed1dfef2b6e0bf70db83f4291f", "type": "electric_scooter", "is_disabled": 0, "lat": 38.887454166666664, "rental_uris": {"ios": "https://dc.lft.to/lastmile_qr_scan", "android": "https://dc.lft.to/lastmile_qr_scan"}, "is_reserved": 0, "fusion_lon": 0.0, "fusion_lat": 0.0, "lon": -77.027307, "name": "b5cb32ed1dfef2b6e0bf70db83f4291f"}, {"bike_id": "a57b5c437a34900192981cd2ec3e4e1c", "type": "electric_scooter", "is_disabled": 0, "lat": 38.89215033333333, "rental_uris": {"ios": "https://dc.lft.to/lastmile_qr_scan", "android": "https://dc.lft.to/lastmile_qr_scan"}, "is_reserved": 0, "fusion_lon": 0.0, "fusion_lat": 0.0, "lon": -77.04192566666667, "name": "a57b5c437a34900192981cd2ec3e4e1c"}, {"bike_id": "3f267a8c0f92101003180e71d49a8ee6", "type": "electric_scooter", "is_disabled": 0, "lat": 38.91683716666667, "rental_uris": {"ios": "https://dc.lft.to/lastmile_qr_scan", "android": "https://dc.lft.to/lastmile_qr_scan"}, "is_reserved": 0, "fusion_lon": 0.0, "fusion_lat": 0.0, "lon": -77.0271135, "name": "3f267a8c0f92101003180e71d49a8ee6"}, {"bike_id": "52271036f2202fb198588d50714c7e06", "type": "electric_scooter", "is_disabled": 0, "lat": 38.900174166666666, "rental_uris": {"ios": "https://dc.lft.to/lastmile_qr_scan", "android": "https://dc.lft.to/lastmile_qr_scan"}, "is_reserved": 0, "fusion_lon": 0.0, "fusion_lat": 0.0, "lon": -77.045062, "name": "52271036f2202fb198588d50714c7e06"}, {"bike_id": "75ffbbc21e0b343b2cefb330a91047af", "type": "electric_bike", "is_disabled": 0, "lat": 38.863659, "rental_uris": {"ios": "https://dc.lft.to/lastmile_qr_scan", "android": "https://dc.lft.to/lastmile_qr_scan"}, "is_reserved": 0, "fusion_lon": 0.0, "fusion_lat": 0.0, "lon": -76.97009166666666, "name": "75ffbbc21e0b343b2cefb330a91047af"}, {"bike_id": "65bce7f4d025c5fcd1936ba7660f3ad0", "type": "electric_scooter", "is_disabled": 0, "lat": 38.89178866666666, "rental_uris": {"ios": "https://dc.lft.to/lastmile_qr_scan", "android": "https://dc.lft.to/lastmile_qr_scan"}, "is_reserved": 0, "fusion_lon": 0.0, "fusion_lat": 0.0, "lon": -76.9118705, "name": "65bce7f4d025c5fcd1936ba7660f3ad0"}, {"bike_id": "33b3703cc2c2af451361d5cb4fc655df", "type": "electric_scooter", "is_disabled": 0, "lat": 38.93732033333333, "rental_uris": {"ios": "https://dc.lft.to/lastmile_qr_scan", "android": "https://dc.lft.to/lastmile_qr_scan"}, "is_reserved": 0, "fusion_lon": 0.0, "fusion_lat": 0.0, "lon": -77.03349466666667, "name": "33b3703cc2c2af451361d5cb4fc655df"}, {"bike_id": "ac76681633458c848abb37cfa909b42e", "type": "electric_scooter", "is_disabled": 0, "lat": 38.92340633333333, "rental_uris": {"ios": "https://dc.lft.to/lastmile_qr_scan", "android": "https://dc.lft.to/lastmile_qr_scan"}, "is_reserved": 0, "fusion_lon": 0.0, "fusion_lat": 0.0, "lon": -77.05244266666666, "name": "ac76681633458c848abb37cfa909b42e"}, {"bike_id": "c27519382f1b23676947ca35fb670622", "type": "electric_scooter", "is_disabled": 0, "lat": 38.941085, "rental_uris": {"ios": "https://dc.lft.to/lastmile_qr_scan", "android": "https://dc.lft.to/lastmile_qr_scan"}, "is_reserved": 0, "fusion_lon": 0.0, "fusion_lat": 0.0, "lon": -77.07718416666667, "name": "c27519382f1b23676947ca35fb670622"}, {"bike_id": "6b19f60c97394c894bd15d4a34341e9f", "type": "electric_scooter", "is_disabled": 0, "lat": 38.90602366666667, "rental_uris": {"ios": "https://dc.lft.to/lastmile_qr_scan", "android": "https://dc.lft.to/lastmile_qr_scan"}, "is_reserved": 0, "fusion_lon": 0.0, "fusion_lat": 0.0, "lon": -77.01211983333333, "name": "6b19f60c97394c894bd15d4a34341e9f"}, {"bike_id": "e6a78aa78e4993de6ee8ff9cc10fc8de", "type": "electric_scooter", "is_disabled": 0, "lat": 38.898254666666666, "rental_uris": {"ios": "https://dc.lft.to/lastmile_qr_scan", "android": "https://dc.lft.to/lastmile_qr_scan"}, "is_reserved": 0, "fusion_lon": 0.0, "fusion_lat": 0.0, "lon": -77.04342383333334, "name": "e6a78aa78e4993de6ee8ff9cc10fc8de"}, {"bike_id": "62d4e123ca6b15ecd039016377144356", "type": "electric_scooter", "is_disabled": 0, "lat": 38.930802, "rental_uris": {"ios": "https://dc.lft.to/lastmile_qr_scan", "android": "https://dc.lft.to/lastmile_qr_scan"}, "is_reserved": 0, "fusion_lon": 0.0, "fusion_lat": 0.0, "lon": -77.02806733333334, "name": "62d4e123ca6b15ecd039016377144356"}, {"bike_id": "91986848ddcaf76a82bd286a0db0efcd", "type": "electric_scooter", "is_disabled": 0, "lat": 38.920565333333336, "rental_uris": {"ios": "https://dc.lft.to/lastmile_qr_scan", "android": "https://dc.lft.to/lastmile_qr_scan"}, "is_reserved": 0, "fusion_lon": 0.0, "fusion_lat": 0.0, "lon": -77.03340066666667, "name": "91986848ddcaf76a82bd286a0db0efcd"}, {"bike_id": "e9a9e950f830377cbe25a246028a4bb9", "type": "electric_scooter", "is_disabled": 0, "lat": 38.906287166666665, "rental_uris": {"ios": "https://dc.lft.to/lastmile_qr_scan", "android": "https://dc.lft.to/lastmile_qr_scan"}, "is_reserved": 0, "fusion_lon": 0.0, "fusion_lat": 0.0, "lon": -77.05148666666666, "name": "e9a9e950f830377cbe25a246028a4bb9"}, {"bike_id": "234a0ec482a04a9aa5b2e77898c9796b", "type": "electric_scooter", "is_disabled": 0, "lat": 38.956517166666664, "rental_uris": {"ios": "https://dc.lft.to/lastmile_qr_scan", "android": "https://dc.lft.to/lastmile_qr_scan"}, "is_reserved": 0, "fusion_lon": 0.0, "fusion_lat": 0.0, "lon": -77.012741, "name": "234a0ec482a04a9aa5b2e77898c9796b"}, {"bike_id": "8ae0bae1145add2c8df2a0a54e1dd83e", "type": "electric_scooter", "is_disabled": 0, "lat": 38.91400483333334, "rental_uris": {"ios": "https://dc.lft.to/lastmile_qr_scan", "android": "https://dc.lft.to/lastmile_qr_scan"}, "is_reserved": 0, "fusion_lon": 0.0, "fusion_lat": 0.0, "lon": -77.02680933333333, "name": "8ae0bae1145add2c8df2a0a54e1dd83e"}, {"bike_id": "6de77c7c1a77d5d74712d291c7ba3808", "type": "electric_scooter", "is_disabled": 0, "lat": 38.933935166666664, "rental_uris": {"ios": "https://dc.lft.to/lastmile_qr_scan", "android": "https://dc.lft.to/lastmile_qr_scan"}, "is_reserved": 0, "fusion_lon": 0.0, "fusion_lat": 0.0, "lon": -77.03985966666667, "name": "6de77c7c1a77d5d74712d291c7ba3808"}, {"bike_id": "69142bc5937c406390b0661d4d24f37a", "type": "electric_scooter", "is_disabled": 0, "lat": 38.901567166666666, "rental_uris": {"ios": "https://dc.lft.to/lastmile_qr_scan", "android": "https://dc.lft.to/lastmile_qr_scan"}, "is_reserved": 0, "fusion_lon": 0.0, "fusion_lat": 0.0, "lon": -77.04157416666666, "name": "69142bc5937c406390b0661d4d24f37a"}, {"bike_id": "90b9da12227193ee46042575d12f93e2", "type": "electric_scooter", "is_disabled": 0, "lat": 38.917069166666664, "rental_uris": {"ios": "https://dc.lft.to/lastmile_qr_scan", "android": "https://dc.lft.to/lastmile_qr_scan"}, "is_reserved": 0, "fusion_lon": 0.0, "fusion_lat": 0.0, "lon": -77.041222, "name": "90b9da12227193ee46042575d12f93e2"}, {"bike_id": "94635d03e8c7b023cef6afc8accfed60", "type": "electric_bike", "is_disabled": 0, "lat": 39.05494816666667, "rental_uris": {"ios": "https://dc.lft.to/lastmile_qr_scan", "android": "https://dc.lft.to/lastmile_qr_scan"}, "is_reserved": 0, "fusion_lon": 0.0, "fusion_lat": 0.0, "lon": -77.04648483333334, "name": "94635d03e8c7b023cef6afc8accfed60"}, {"bike_id": "9b37b79fbda0c9c3fcf1b9a531f52aa6", "type": "electric_scooter", "is_disabled": 0, "lat": 38.926083166666665, "rental_uris": {"ios": "https://dc.lft.to/lastmile_qr_scan", "android": "https://dc.lft.to/lastmile_qr_scan"}, "is_reserved": 0, "fusion_lon": 0.0, "fusion_lat": 0.0, "lon": -77.02161766666667, "name": "9b37b79fbda0c9c3fcf1b9a531f52aa6"},