{"data": {"bikes": [{"is_disabled": 0, "fusion_lon": 0.0, "fusion_lat": 0.0, "lat": 38.9309005, "type": "electric_scooter", "lon": -77.07265316666667, "bike_id": "53baedf0672481afc1605731ad9e7c71", "rental_uris": {"android": "https://dc.lft.to/lastmile_qr_scan", "ios": "https://dc.lft.to/lastmile_qr_scan"}, "name": "53baedf0672481afc1605731ad9e7c71", "is_reserved": 0}, {"is_disabled": 0, "fusion_lon": 0.0, "fusion_lat": 0.0, "lat": 38.9032025, "type": "electric_scooter", "lon": -77.02198383333334, "bike_id": "e03b8613357c1efa6c51f30c8d82d320", "rental_uris": {"android": "https://dc.lft.to/lastmile_qr_scan", "ios": "https://dc.lft.to/lastmile_qr_scan"}, "name": "e03b8613357c1efa6c51f30c8d82d320", "is_reserved": 0}, {"is_disabled": 0, "fusion_lon": 0.0, "fusion_lat": 0.0, "lat": 38.924162833333334, "type": "electric_scooter", "lon": -77.0354745, "bike_id": "558fce2b50df12042130de9803a18483", "rental_uris": {"android": "https://dc.lft.to/lastmile_qr_scan", "ios": "https://dc.lft.to/lastmile_qr_scan"}, "name": "558fce2b50df12042130de9803a18483", "is_reserved": 0}, {"is_disabled": 0, "fusion_lon": 0.0, "fusion_lat": 0.0, "lat": 38.88202916666667, "type": "electric_scooter", "lon": -76.92704366666666, "bike_id": "abc9161cd4e7b3040476683dadc403fc", "rental_uris": {"android": "https://dc.lft.to/lastmile_qr_scan", "ios": "https://dc.lft.to/lastmile_qr_scan"}, "name": "abc9161cd4e7b3040476683dadc403fc", "is_reserved": 0}, {"is_disabled": 0, "fusion_lon": 0.0, "fusion_lat": 0.0, "lat": 38.90952133333333, "type": "electric_scooter", "lon": -77.0238495, "bike_id": "31cdad627e02c052d2d37033e693dc41", "rental_uris": {"android": "https://dc.lft.to/lastmile_qr_scan", "ios": "https://dc.lft.to/lastmile_qr_scan"}, "name": "31cdad627e02c052d2d37033e693dc41", "is_reserved": 0}, {"is_disabled": 0, "fusion_lon": 0.0, "fusion_lat": 0.0, "lat": 38.874829166666665, "type": "electric_scooter", "lon": -77.001021, "bike_id": "379fd215b6376c1e6168dbd4f5b86c66", "rental_uris": {"android": "https://dc.lft.to/lastmile_qr_scan", "ios": "https://dc.lft.to/lastmile_qr_scan"}, "name": "379fd215b6376c1e6168dbd4f5b86c66", "is_reserved": 0}, {"is_disabled": 0, "fusion_lon": 0.0, "fusion_lat": 0.0, "lat": 38.88418033333333, "type": "electric_scooter", "lon": -76.95414166666667, "bike_id": "eccaaff30fb4cf6c11dab0e78a914ef6", "rental_uris": {"android": "https://dc.lft.to/lastmile_qr_scan", "ios": "https://dc.lft.to/lastmile_qr_scan"}, "name": "eccaaff30fb4cf6c11dab0e78a914ef6", "is_reserved": 0}, {"is_disabled": 0, "fusion_lon": 0.0, "fusion_lat": 0.0, "lat": 38.9149105, "type": "electric_scooter", "lon": -77.03452933333334, "bike_id": "aafa40ed5f7b61644e65b70c7555ba7f", "rental_uris": {"android": "https://dc.lft.to/lastmile_qr_scan", "ios": "https://dc.lft.to/lastmile_qr_scan"}, "name": "aafa40ed5f7b61644e65b70c7555ba7f", "is_reserved": 0}, {"is_disabled": 0, "fusion_lon": 0.0, "fusion_lat": 0.0, "lat": 39.088408666666666, "type": "electric_bike", "lon": -77.17803083333334, "bike_id": "f4d056260ff55c74a7869ca9afa1aca8", "rental_uris": {"android": "https://dc.lft.to/lastmile_qr_scan", "ios": "https://dc.lft.to/lastmile_qr_scan"}, "name": "f4d056260ff55c74a7869ca9afa1aca8", "is_reserved": 0}, {"is_disabled": 0, "fusion_lon": 0.0, "fusion_lat": 0.0, "lat": 38.877932666666666, "type": "electric_scooter", "lon": -77.01739266666667, "bike_id": "24b13ebd1b11e3b86b1f94f2a1d72932", "rental_uris": {"android": "https://dc.lft.to/lastmile_qr_scan", "ios": "https://dc.lft.to/lastmile_qr_scan"}, "name": "24b13ebd1b11e3b86b1f94f2a1d72932", "is_reserved": 0}, {"is_disabled": 0, "fusion_lon": 0.0, "fusion_lat": 0.0, "lat": 38.907115, "type": "electric_scooter", "lon": -77.02714283333333, "bike_id": "09380767f9e3d585df9a3c56cfd1c67d", "rental_uris": {"android": "https://dc.lft.to/lastmile_qr_scan", "ios": "https://dc.lft.to/lastmile_qr_scan"}, "name": "09380767f9e3d585df9a3c56cfd1c67d", "is_reserved": 0}, {"is_disabled": 0, "fusion_lon": 0.0, "fusion_lat": 0.0, "lat": 38.90183866666667, "type": "electric_scooter", "lon": -77.05020983333333, "bike_id": "2a47198b469f82a764bca63047d123d8", "rental_uris": {"android": "https://dc.lft.to/lastmile_qr_scan", "ios": "https://dc.lft.to/lastmile_qr_scan"}, "name": "2a47198b469f82a764bca63047d123d8", "is_reserved": 0}, {"is_disabled": 0, "fusion_lon": 0.0, "fusion_lat": 0.0, "lat": 38.90290666666667, "type": "electric_scooter", "lon": -77.0242315, "bike_id": "7a0c2966144c9a7e733e0d75bd92bd8a", "rental_uris": {"android": "https://dc.lft.to/lastmile_qr_scan", "ios": "https://dc.lft.to/lastmile_qr_scan"}, "name": "7a0c2966144c9a7e733e0d75bd92bd8a", "is_reserved": 0}, {"is_disabled": 0, "fusion_lon": 0.0, "fusion_lat": 0.0, "lat": 38.903120666666666, "type": "electric_scooter", "lon": -77.02884083333333, "bike_id": "a7cd73c0b049f0ef0a447215eece1add", "rental_uris": {"android": "https://dc.lft.to/lastmile_qr_scan", "ios": "https://dc.lft.to/lastmile_qr_scan"}, "name": "a7cd73c0b049f0ef0a447215eece1add", "is_reserved": 0}, {"is_disabled": 0, "fusion_lon": 0.0, "fusion_lat": 0.0, "lat": 38.904396, "type": "electric_scooter", "lon": -77.06111166666666, "bike_id": "700f72afac9da39c611aba676613bb77", "rental_uris": {"android": "https://dc.lft.to/lastmile_qr_scan", "ios": "https://dc.lft.to/lastmile_qr_scan"}, "name": "700f72afac9da39c611aba676613bb77", "is_reserved": 0}, {"is_disabled": 0, "fusion_lon": 0.0, "fusion_lat": 0.0, "lat": 38.92954316666667, "type": "electric_scooter", "lon": -77.02338983333334, "bike_id": "14bb9cd3c92afb5aba37ad06c368d0d5", "rental_uris": {"android": "https://dc.lft.to/lastmile_qr_scan", "ios": "https://dc.lft.to/lastmile_qr_scan"}, "name": "14bb9cd3c92afb5aba37ad06c368d0d5", "is_reserved": 0}, {"is_disabled": 0, "fusion_lon": 0.0, "fusion_lat": 0.0, "lat": 38.92365183333333, "type": "electric_scooter", "lon": -77.050323, "bike_id": "ebcfd197d6014983cbaa174b69e64184", "rental_uris": {"android": "https://dc.lft.to/lastmile_qr_scan", "ios": "https://dc.lft.to/lastmile_qr_scan"}, "name": "ebcfd197d6014983cbaa174b69e64184", "is_reserved": 0}, {"is_disabled": 0, "fusion_lon": 0.0, "fusion_lat": 0.0, "lat": 38.96558133333333, "type": "electric_bike", "lon": -77.02305866666667, "bike_id": "19a5b716539cebda8a30ab07b605d55b", "rental_uris": {"android": "https://dc.lft.to/lastmile_qr_scan", "ios": "https://dc.lft.to/lastmile_qr_scan"}, "name": "19a5b716539cebda8a30ab07b605d55b", "is_reserved": 0}, {"is_disabled": 0, "fusion_lon": 0.0, "fusion_lat": 0.0, "lat": 39.00374466666667, "type": "electric_bike", "lon": -77.01290183333333, "bike_id": "47538c1801dd7370deef329c7c1d823e", "rental_uris": {"android": "https://dc.lft.to/lastmile_qr_scan", "ios": "https://dc.lft.to/lastmile_qr_scan"}, "name": "47538c1801dd7370deef329c7c1d823e", "is_reserved": 0}, {"is_disabled": 0, "fusion_lon": 0.0, "fusion_lat": 0.0, "lat": 38.894018333333335, "type": "electric_scooter", "lon": -77.02154983333334, "bike_id": "88c5d31caeffd730f0bb09f6fc6b2219", "rental_uris": {"android": "https://dc.lft.to/lastmile_qr_scan", "ios": "https://dc.lft.to/lastmile_qr_scan"}, "name": "88c5d31caeffd730f0bb09f6fc6b2219", "is_reserved": 0}, {"is_disabled": 0, "fusion_lon": 0.0, "fusion_lat": 0.0, "lat": 38.923035166666665, "type": "electric_scooter", "lon": -77.03109266666667, "bike_id": "e4005fdf71f145c6e089c0a01f0b56be", "rental_uris": {"android": "https://dc.lft.to/lastmile_qr_scan", "ios": "https://dc.lft.to/lastmile_qr_scan"}, "name": "e4005fdf71f145c6e089c0a01f0b56be", "is_reserved": 0}, {"is_disabled": 0, "fusion_lon": 0.0, "fusion_lat": 0.0, "lat": 38.94030016666667, "type": "electric_scooter", "lon": -77.029091, "bike_id": "cdedae26710f917ad46c510f7f13cbe1", "rental_uris": {"android": "https://dc.lft.to/lastmile_qr_scan", "ios": "https://dc.lft.to/lastmile_qr_scan"}, "name": "cdedae26710f917ad46c510f7f13cbe1", "is_reserved": 0}, {"is_disabled": 0, "fusion_lon": 0.0, "fusion_lat": 0.0, "lat": 38.92014916666667, "type": "electric_scooter", "lon": -77.044252, "bike_id": "af465374886fc3bf2994f51ed04623e7", "rental_uris": {"android": "https://dc.lft.to/lastmile_qr_scan", "ios": "https://dc.lft.to/lastmile_qr_scan"}, "name": "af465374886fc3bf2994f51ed04623e7", "is_reserved": 0}, {"is_disabled": 0, "fusion_lon": 0.0, "fusion_lat": 0.0, "lat": 38.9724675, "type": "electric_bike", "lon": -76.99273966666667, "bike_id": "7b4d2b6c5917bc503e3f2a7b65921021", "rental_uris": {"android": "https://dc.lft.to/lastmile_qr_scan", "ios": "https://dc.lft.to/lastmile_qr_scan"}, "name": "7b4d2b6c5917bc503e3f2a7b65921021", "is_reserved": 0}, {"is_disabled": 0, "fusion_lon": 0.0, "fusion_lat": 0.0, "lat": 38.919851666666666, "type": "electric_scooter", "lon": -76.97311333333333, "bike_id": "70d76511f81daaf2293332bc358cf7e7", "rental_uris": {"android": "https://dc.lft.to/lastmile_qr_scan", "ios": "https://dc.lft.to/lastmile_qr_scan"}, "name": "70d76511f81daaf2293332bc358cf7e7", "is_reserved": 0}, {"is_disabled": 0, "fusion_lon": 0.0, "fusion_lat": 0.0, "lat": 38.9203195, "type": "electric_scooter", "lon": -77.03122933333333, "bike_id": "84e1bf730e4ce37f2842b3a063197dd4", "rental_uris": {"android": "https://dc.lft.to/lastmile_qr_scan", "ios": "https://dc.lft.to/lastmile_qr_scan"}, "name": "84e1bf730e4ce37f2842b3a063197dd4", "is_reserved": 0}, {"is_disabled": 0, "fusion_lon": 0.0, "fusion_lat": 0.0, "lat": 38.89369816666667, "type": "electric_scooter", "lon": -76.97818766666667, "bike_id": "3be6946295e1acc53a34b1f6befd3ab6", "rental_uris": {"android": "https://dc.lft.to/lastmile_qr_scan", "ios": "https://dc.lft.to/lastmile_qr_scan"}, "name": "3be6946295e1acc53a34b1f6befd3ab6", "is_reserved": 0}, {"is_disabled": 0, "fusion_lon": 0.0, "fusion_lat": 0.0, "lat": 38.89522766666666, "type": "electric_scooter", "lon": -77.00203933333333, "bike_id": "7d76d8121ebafd28fdb74ae70d7c3eca", "rental_uris": {"android": "https://dc.lft.to/lastmile_qr_scan", "ios": "https://dc.lft.to/lastmile_qr_scan"}, "name": "7d76d8121ebafd28fdb74ae70d7c3eca", "is_reserved": 0}, {"is_disabled": 0, "fusion_lon": 0.0, "fusion_lat": 0.0, "lat": 38.9602895, "type": "electric_bike", "lon": -76.9272645, "bike_id": "ac8298bd8411dc2f71f596313464a64a", "rental_uris": {"android": "https://dc.lft.to/lastmile_qr_scan", "ios": "https://dc.lft.to/lastmile_qr_scan"}, "name": "ac8298bd8411dc2f71f596313464a64a", "is_reserved": 0}, {"is_disabled": 0, "fusion_lon": 0.0, "fusion_lat": 0.0, "lat": 38.89732933333333, "type": "electric_scooter", "lon": -77.02501, "bike_id": "93aa79d389f60940db50499874236160", "rental_uris": {"android": "https://dc.lft.to/lastmile_qr_scan", "ios": "https://dc.lft.to/lastmile_qr_scan"}, "name": "93aa79d389f60940db50499874236160", "is_reserved": 0}, {"is_disabled": 0, "fusion_lon": 0.0, "fusion_lat": 0.0, "lat": 38.89731466666667, "type": "electric_scooter", "lon": -77.0250435, "bike_id": "b4da7808d6a22dd635799906ffbd3eb5", "rental_uris": {"android": "https://dc.lft.to/lastmile_qr_scan", "ios": "https://dc.lft.to/lastmile_qr_scan"}, "name": "b4da7808d6a22dd635799906ffbd3eb5", "is_reserved": 0}, {"is_disabled": 0, "fusion_lon": 0.0, "fusion_lat": 0.0, "lat": 38.90848283333333, "type": "electric_scooter", "lon": -77.06345116666667, "bike_id": "16a4bf03cd79f66761aa5d41c649360f", "rental_uris": {"android": "https://dc.lft.to/lastmile_qr_scan", "ios": "https://dc.lft.to/lastmile_qr_scan"}, "name": "16a4bf03cd79f66761aa5d41c649360f", "is_reserved": 0}, {"is_disabled": 0, "fusion_lon": 0.0, "fusion_lat": 0.0, "lat": 38.858676833333334, "type": "electric_scooter", "lon": -76.9902535, "bike_id": "acd6e333023e7403b2751842f38a81f6", "rental_uris": {"android": "https://dc.lft.to/lastmile_qr_scan", "ios": "https://dc.lft.to/lastmile_qr_scan"}, "name": "acd6e333023e7403b2751842f38a81f6", "is_reserved": 0}, {"is_disabled": 0, "fusion_lon": 0.0, "fusion_lat": 0.0, "lat": 38.918934, "type": "electric_scooter", "lon": -77.04176683333333, "bike_id": "ef1c39b487479a118fdd42822cb00a6a", "rental_uris": {"android": "https://dc.lft.to/lastmile_qr_scan", "ios": "https://dc.lft.to/lastmile_qr_scan"}, "name": "ef1c39b487479a118fdd42822cb00a6a", "is_reserved": 0}, {"is_disabled": 0, "fusion_lon": 0.0, "fusion_lat": 0.0, "lat": 38.902606, "type": "electric_scooter", "lon": -77.03897116666667, "bike_id": "e6881e87524d477335230b02a7d140e3", "rental_uris": {"android": "https://dc.lft.to/lastmile_qr_scan", "ios": "https://dc.lft.to/lastmile_qr_scan"}, "name": "e6881e87524d477335230b02a7d140e3", "is_reserved": 0}, {"is_disabled": 0, "fusion_lon": 0.0, "fusion_lat": 0.0, "lat": 38.90986866666667, "type": "electric_scooter", "lon": -77.0220885, "bike_id": "7fc603acb54956e0c58f0af927f3e41e", "rental_uris": {"android": "https://dc.lft.to/lastmile_qr_scan", "ios": "https://dc.lft.to/lastmile_qr_scan"}, "name": "7fc603acb54956e0c58f0af927f3e41e", "is_reserved": 0}, {"is_disabled": 0, "fusion_lon": 0.0, "fusion_lat": 0.0, "lat": 38.90332466666667, "type": "electric_scooter", "lon": -77.02591516666666, "bike_id": "54f9d02a7816a6a55a8866b81fe7be77", "rental_uris": {"android": "https://dc.lft.to/lastmile_qr_scan", "ios": "https://dc.lft.to/lastmile_qr_scan"}, "name": "54f9d02a7816a6a55a8866b81fe7be77", "is_reserved": 0}, {"is_disabled": 0, "fusion_lon": 0.0, "fusion_lat": 0.0, "lat": 38.903286, "type": "electric_scooter", "lon": -77.02134216666667, "bike_id": "8177ec339c7b5487da015b70cefd7f24", "rental_uris": {"android": "https://dc.lft.to/lastmile_qr_scan", "ios": "https://dc.lft.to/lastmile_qr_scan"}, "name": "8177ec339c7b5487da015b70cefd7f24", "is_reserved": 0}, {"is_disabled": 0, "fusion_lon": 0.0, "fusion_lat": 0.0, "lat": 38.90953016666667, "type": "electric_scooter", "lon": -77.0476895, "bike_id": "40eb347b96405637b3ccc5e7f6f94821", "rental_uris": {"android": "https://dc.lft.to/lastmile_qr_scan", "ios": "https://dc.lft.to/lastmile_qr_scan"}, "name": "40eb347b96405637b3ccc5e7f6f94821", "is_reserved": 0}, {"is_disabled": 0, "fusion_lon": 0.0, "fusion_lat": 0.0, "lat": 38.90287416666666, "type": "electric_scooter", "lon": -77.04053983333333, "bike_id": "bc11da1164daac86ec57c1d9c69d4ff6", "rental_uris": {"android": "https://dc.lft.to/lastmile_qr_scan", "ios": "https://dc.lft.to/lastmile_qr_scan"}, "name": "bc11da1164daac86ec57c1d9c69d4ff6", "is_reserved": 0}, {"is_disabled": 0, "fusion_lon": 0.0, "fusion_lat": 0.0, "lat": 38.937534, "type": "electric_scooter", "lon": -77.02495133333333, "bike_id": "68ccfcfe022e209e7b9e26f51cee5027", "rental_uris": {"android": "https://dc.lft.to/lastmile_qr_scan", "ios": "https://dc.lft.to/lastmile_qr_scan"}, "name": "68ccfcfe022e209e7b9e26f51cee5027", "is_reserved": 0}, {"is_disabled": 0, "fusion_lon": 0.0, "fusion_lat": 0.0, "lat": 38.900225166666665, "type": "electric_scooter", "lon": -77.039854, "bike_id": "c8dcd9660084b4fba9eaf6be0d581a0b", "rental_uris": {"android": "https://dc.lft.to/lastmile_qr_scan", "ios": "https://dc.lft.to/lastmile_qr_scan"}, "name": "c8dcd9660084b4fba9eaf6be0d581a0b", "is_reserved": 0}, {"is_disabled": 0, "fusion_lon": 0.0, "fusion_lat": 0.0, "lat": 38.873171, "type": "electric_scooter", "lon": -77.00178966666667, "bike_id": "5983b2a4260b4c24a125c884a98ccfc3", "rental_uris": {"android": "https://dc.lft.to/lastmile_qr_scan", "ios": "https://dc.lft.to/lastmile_qr_scan"}, "name": "5983b2a4260b4c24a125c884a98ccfc3", "is_reserved": 0}, {"is_disabled": 0, "fusion_lon": 0.0, "fusion_lat": 0.0, "lat": 38.92957116666667, "type": "electric_bike", "lon": -77.05636383333334, "bike_id": "d1f544c172d09958f70377782ab78011", "rental_uris": {"android": "https://dc.lft.to/lastmile_qr_scan", "ios": "https://dc.lft.to/lastmile_qr_scan"}, "name": "d1f544c172d09958f70377782ab78011", "is_reserved": 0}, {"is_disabled": 0, "fusion_lon": 0.0, "fusion_lat": 0.0, "lat": 38.91338, "type": "electric_scooter", "lon": -77.04165966666666, "bike_id": "7a9a91cb14ae9401d6f21e9f47b367aa", "rental_uris": {"android": "https://dc.lft.to/lastmile_qr_scan", "ios": "https://dc.lft.to/lastmile_qr_scan"}, "name": "7a9a91cb14ae9401d6f21e9f47b367aa", "is_reserved": 0}, {"is_disabled": 0, "fusion_lon": 0.0, "fusion_lat": 0.0, "lat": 38.90471316666667, "type": "electric_bike", "lon": -76.92945716666667, "bike_id": "445c962a62008d0399c69eead6814685", "rental_uris": {"android": "https://dc.lft.to/lastmile_qr_scan", "ios": "https://dc.lft.to/lastmile_qr_scan"}, "name": "445c962a62008d0399c69eead6814685", "is_reserved": 0}, {"is_disabled": 0, "fusion_lon": 0.0, "fusion_lat": 0.0, "lat": 38.93414, "type": "electric_scooter", "lon": -77.038845, "bike_id": "8ba08f0d60ebfe954028396a27191d7b", "rental_uris": {"android": "https://dc.lft.to/lastmile_qr_scan", "ios": "https://dc.lft.to/lastmile_qr_scan"}, "name": "8ba08f0d60ebfe954028396a27191d7b", "is_reserved": 0}, {"is_disabled": 0, "fusion_lon": 0.0, "fusion_lat": 0.0, "lat": 38.9141735, "type": "electric_scooter", "lon": -77.03992766666667, "bike_id": "22931f1d0b1519b435a9411d877fc431", "rental_uris": {"android": "https://dc.lft.to/lastmile_qr_scan", "ios": "https://dc.lft.to/lastmile_qr_scan"}, "name": "22931f1d0b1519b435a9411d877fc431", "is_reserved": 0}, {"is_disabled": 0, "fusion_lon": 0.0, "fusion_lat": 0.0, "lat": 38.90264366666667, "type": "electric_scooter", "lon": -77.06273233333333, "bike_id": "070347c2a6a6302f5b107973575fd33c", "rental_uris": {"android": "https://dc.lft.to/lastmile_qr_scan", "ios": "https://dc.lft.to/lastmile_qr_scan"}, "name": "070347c2a6a6302f5b107973575fd33c", "is_reserved": 0}, {"is_disabled": 0, "fusion_lon": 0.0, "fusion_lat": 0.0, "lat": 38.904316333333334, "type": "electric_scooter", "lon": -77.0241585, "bike_id": "d912468c5585995d2acca9fbef879f77", "rental_uris": {"android": "https://dc.lft.to/lastmile_qr_scan", "ios": "https://dc.lft.to/lastmile_qr_scan"}, "name": "d912468c5585995d2acca9fbef879f77", "is_reserved": 0}, {"is_disabled": 0, "fusion_lon": 0.0, "fusion_lat": 0.0, "lat": 38.902625, "type": "electric_scooter", "lon": -77.03433016666666, "bike_id": "f9b7a963f21462116c41f31caa8eae20", "rental_uris": {"android": "https://dc.lft.to/lastmile_qr_scan", "ios": "https://dc.lft.to/lastmile_qr_scan"}, "name": "f9b7a963f21462116c41f31caa8eae20", "is_reserved": 0}, {"is_disabled": 0, "fusion_lon": 0.0, "fusion_lat": 0.0, "lat": 38.92860266666667, "type": "electric_scooter", "lon": -76.99770233333334, "bike_id": "2bac68f15032e5fb5f806f9d7cb53a43", "rental_uris": {"android": "https://dc.lft.to/lastmile_qr_scan", "ios": "https://dc.lft.to/lastmile_qr_scan"}, "name": "2bac68f15032e5fb5f806f9d7cb53a43", "is_reserved": 0}, {"is_disabled": 0, "fusion_lon": 0.0, "fusion_lat": 0.0, "lat": 38.85280733333333, "type": "electric_bike", "lon": -76.98153916666666, "bike_id": "82fa9349baac66c285511833d1adff3f", "rental_uris": {"android": "https://dc.lft.to/lastmile_qr_scan", "ios": "https://dc.lft.to/lastmile_qr_scan"}, "name": "82fa9349baac66c285511833d1adff3f", "is_reserved": 0}, {"is_disabled": 0, "fusion_lon": 0.0, "fusion_lat": 0.0, "lat": 38.87882066666667, "type": "electric_scooter", "lon": -77.02320683333333, "bike_id": "b734da22a0eb5a7cd95c65d44fc55ed8", "rental_uris": {"android": "https://dc.lft.to/lastmile_qr_scan", "ios": "https://dc.lft.to/lastmile_qr_scan"}, "name": "b734da22a0eb5a7cd95c65d44fc55ed8", "is_reserved": 0}, {"is_disabled": 0, "fusion_lon": 0.0, "fusion_lat": 0.0, "lat": 38.916085833333334, "type": "electric_scooter", "lon": -77.04510183333333, "bike_id": "743e686318660206d6989fd9d7943e81", "rental_uris": {"android": "https://dc.lft.to/lastmile_qr_scan", "ios": "https://dc.lft.to/lastmile_qr_scan"}, "name": "743e686318660206d6989fd9d7943e81", "is_reserved": 0}, {"is_disabled": 0, "fusion_lon": 0.0, "fusion_lat": 0.0, "lat": 38.878963166666665, "type": "electric_scooter", "lon": -76.93524816666667, "bike_id": "0b1d6d1c1a194a26820805c8f79ae091", "rental_uris": {"android": "https://dc.lft.to/lastmile_qr_scan", "ios": "https://dc.lft.to/lastmile_qr_scan"}, "name": "0b1d6d1c1a194a26820805c8f79ae091", "is_reserved": 0}, {"is_disabled": 0, "fusion_lon": 0.0, "fusion_lat": 0.0, "lat": 38.90464983333333, "type": "electric_scooter", "lon": -77.02590016666667, "bike_id": "3e73ed7b288790ed780234ec9049ccee", "rental_uris": {"android": "https://dc.lft.to/lastmile_qr_scan", "ios": "https://dc.lft.to/lastmile_qr_scan"}, "name": "3e73ed7b288790ed780234ec9049ccee", "is_reserved": 0}, {"is_disabled": 0, "fusion_lon": 0.0, "fusion_lat": 0.0, "lat": 38.88602183333333, "type": "electric_scooter", "lon": -76.99725233333334, "bike_id": "b7885a211ae5fbc6ea4a233e9fb1962a", "rental_uris": {"android": "https://dc.lft.to/lastmile_qr_scan", "ios": "https://dc.lft.to/lastmile_qr_scan"}, "name": "b7885a211ae5fbc6ea4a233e9fb1962a", "is_reserved": 0}, {"is_disabled": 0, "fusion_lon": 0.0, "fusion_lat": 0.0, "lat": 38.923322, "type": "electric_scooter", "lon": -77.04181266666667, "bike_id": "d5d4cd8d2f23b829c22ff1af07c773f6", "rental_uris": {"android": "https://dc.lft.to/lastmile_qr_scan", "ios": "https://dc.lft.to/lastmile_qr_scan"}, "name": "d5d4cd8d2f23b829c22ff1af07c773f6", "is_reserved": 0}, {"is_disabled": 0, "fusion_lon": 0.0, "fusion_lat": 0.0, "lat": 38.89469483333333, "type": "electric_scooter", "lon": -77.0213425, "bike_id": "ec98afb0fc0f7c67c13f2c3b5f36f82a", "rental_uris": {"android": "https://dc.lft.to/lastmile_qr_scan", "ios": "https://dc.lft.to/lastmile_qr_scan"}, "name": "ec98afb0fc0f7c67c13f2c3b5f36f82a", "is_reserved": 0}, {"is_disabled": 0, "fusion_lon": 0.0, "fusion_lat": 0.0, "lat": 38.91165566666667, "type": "electric_scooter", "lon": -77.04169283333333, "bike_id": "eb0da6f1142d1d9cac04af41a0e15ee3", "rental_uris": {"android": "https://dc.lft.to/lastmile_qr_scan", "ios": "https://dc.lft.to/lastmile_qr_scan"}, "name": "eb0da6f1142d1d9cac04af41a0e15ee3", "is_reserved": 0}, {"is_disabled": 0, "fusion_lon": 0.0, "fusion_lat": 0.0, "lat": 38.877240666666665, "type": "electric_scooter", "lon": -77.01767983333333, "bike_id": "1eb0d0cabb54a969c803031ec3c939be", "rental_uris": {"android": "https://dc.lft.to/lastmile_qr_scan", "ios": "https://dc.lft.to/lastmile_qr_scan"}, "name": "1eb0d0cabb54a969c803031ec3c939be", "is_reserved": 0}, {"is_disabled": 0, "fusion_lon": 0.0, "fusion_lat": 0.0, "lat": 38.894716333333335, "type": "electric_scooter", "lon": -76.9331005, "bike_id": "7bfceea7731ed9f85bf5d04a1fe3ff6b", "rental_uris": {"android": "https://dc.lft.to/lastmile_qr_scan", "ios": "https://dc.lft.to/lastmile_qr_scan"}, "name": "7bfceea7731ed9f85bf5d04a1fe3ff6b", "is_reserved": 0}, {"is_disabled": 0, "fusion_lon": 0.0, "fusion_lat": 0.0, "lat": 38.902638, "type": "electric_scooter", "lon": -77.03453083333333, "bike_id": "48d8464434873702ea67b8d21e74b62c", "rental_uris": {"android": "https://dc.lft.to/lastmile_qr_scan", "ios": "https://dc.lft.to/lastmile_qr_scan"}, "name": "48d8464434873702ea67b8d21e74b62c", "is_reserved": 0}, {"is_disabled": 0, "fusion_lon": 0.0, "fusion_lat": 0.0, "lat": 38.89866583333333, "type": "electric_scooter", "lon": -77.05296183333333, "bike_id": "04d05e38a0ddee5c473c3a62c6c6fc2e", "rental_uris": {"android": "https://dc.lft.to/lastmile_qr_scan", "ios": "https://dc.lft.to/lastmile_qr_scan"}, "name": "04d05e38a0ddee5c473c3a62c6c6fc2e", "is_reserved": 0}, {"is_disabled": 0, "fusion_lon": 0.0, "fusion_lat": 0.0, "lat": 38.89842383333333, "type": "electric_scooter", "lon": -76.94629983333333, "bike_id": "c2b159c92f9bb09ccb51327bd3557b43", "rental_uris": {"android": "https://dc.lft.to/lastmile_qr_scan", "ios": "https://dc.lft.to/lastmile_qr_scan"}, "name": "c2b159c92f9bb09ccb51327bd3557b43", "is_reserved": 0}, {"is_disabled": 0, "fusion_lon": 0.0, "fusion_lat": 0.0, "lat": 38.90308516666666, "type": "electric_scooter", "lon": -76.982431, "bike_id": "27976ed9d77095c5ab147b5990720f2f", "rental_uris": {"android": "https://dc.lft.to/lastmile_qr_scan", "ios": "https://dc.lft.to/lastmile_qr_scan"}, "name": "27976ed9d77095c5ab147b5990720f2f", "is_reserved": 0}, {"is_disabled": 0, "fusion_lon": 0.0, "fusion_lat": 0.0, "lat": 38.9188035, "type": "electric_scooter", "lon": -77.02451366666666, "bike_id": "2aaff2b0a99a75b589666d0fac9d42b6", "rental_uris": {"android": "https://dc.lft.to/lastmile_qr_scan", "ios": "https://dc.lft.to/lastmile_qr_scan"}, "name": "2aaff2b0a99a75b589666d0fac9d42b6", "is_reserved": 0}, {"is_disabled": 0, "fusion_lon": 0.0, "fusion_lat": 0.0, "lat": 38.92096133333333, "type": "electric_scooter", "lon": -77.01773983333334, "bike_id": "6a9dcac2e5ffcb38199b75f054bb3a51", "rental_uris": {"android": "https://dc.lft.to/lastmile_qr_scan", "ios": "https://dc.lft.to/lastmile_qr_scan"}, "name": "6a9dcac2e5ffcb38199b75f054bb3a51", "is_reserved": 0}, {"is_disabled": 0, "fusion_lon": 0.0, "fusion_lat": 0.0, "lat": 38.950896666666665, "type": "electric_bike", "lon": -76.9656285, "bike_id": "b019f06f4b7c2d8ee031dcfa2c75ee3a", "rental_uris": {"android": "https://dc.lft.to/lastmile_qr_scan", "ios": "https://dc.lft.to/lastmile_qr_scan"}, "name": "b019f06f4b7c2d8ee031dcfa2c75ee3a", "is_reserved": 0}, {"is_disabled": 0, "fusion_lon": 0.0, "fusion_lat": 0.0, "lat": 38.9102625, "type": "electric_scooter", "lon": -77.00760733333334, "bike_id": "95c2dd1b4ea01e9f67a7a70a9fb4ee07", "rental_uris": {"android": "https://dc.lft.to/lastmile_qr_scan", "ios": "https://dc.lft.to/lastmile_qr_scan"}, "name": "95c2dd1b4ea01e9f67a7a70a9fb4ee07", "is_reserved": 0}, {"is_disabled": 0, "fusion_lon": 0.0, "fusion_lat": 0.0, "lat": 38.93175466666667, "type": "electric_scooter", "lon": -77.07255366666666, "bike_id": "51a4429a5582799cda24e258a50e856c", "rental_uris": {"android": "https://dc.lft.to/lastmile_qr_scan", "ios": "https://dc.lft.to/lastmile_qr_scan"}, "name": "51a4429a5582799cda24e258a50e856c", "is_reserved": 0}, {"is_disabled": 0, "fusion_lon": 0.0, "fusion_lat": 0.0, "lat": 38.881858666666666, "type": "electric_scooter", "lon": -76.99507716666666, "bike_id": "66d76e03dcf763d9daf5ef56a7fad15d", "rental_uris": {"android": "https://dc.lft.to/lastmile_qr_scan", "ios": "https://dc.lft.to/lastmile_qr_scan"}, "name": "66d76e03dcf763d9daf5ef56a7fad15d", "is_reserved": 0}, {"is_disabled": 0, "fusion_lon": 0.0, "fusion_lat": 0.0, "lat": 38.90510283333333, "type": "electric_scooter", "lon": -77.01708583333334, "bike_id": "e1f74249afbbf4e703e94ee1296c1c2e", "rental_uris": {"android": "https://dc.lft.to/lastmile_qr_scan", "ios": "https://dc.lft.to/lastmile_qr_scan"}, "name": "e1f74249afbbf4e703e94ee1296c1c2e", "is_reserved": 0}, {"is_disabled": 0, "fusion_lon": 0.0, "fusion_lat": 0.0, "lat": 38.893883833333334, "type": "electric_scooter", "lon": -76.949967, "bike_id": "1fceb2938a586900ed12a6dabc17325a", "rental_uris": {"android": "https://dc.lft.to/lastmile_qr_scan", "ios": "https://dc.lft.to/lastmile_qr_scan"}, "name": "1fceb2938a586900ed12a6dabc17325a", "is_reserved": 0}, {"is_disabled": 0, "fusion_lon": 0.0, "fusion_lat": 0.0, "lat": 38.9344995, "type": "electric_scooter", "lon": -77.030542, "bike_id": "ae56fd3e3300a255efcdfc3e3efa3826", "rental_uris": {"android": "https://dc.lft.to/lastmile_qr_scan", "ios": "https://dc.lft.to/lastmile_qr_scan"}, "name": "ae56fd3e3300a255efcdfc3e3efa3826", "is_reserved": 0}, {"is_disabled": 0, "fusion_lon": 0.0, "fusion_lat": 0.0, "lat": 38.88151533333333, "type": "electric_scooter", "lon": -77.02696733333333, "bike_id": "8ee2523acc2046d3b46941d515c6786b", "rental_uris": {"android": "https://dc.lft.to/lastmile_qr_scan", "ios": "https://dc.lft.to/lastmile_qr_scan"}, "name": "8ee2523acc2046d3b46941d515c6786b", "is_reserved": 0}, {"is_disabled": 0, "fusion_lon": 0.0, "fusion_lat": 0.0, "lat": 38.945825, "type": "electric_bike", "lon": -77.344053, "bike_id": "a98e90e5aa2c9eec4669c51501d09e98", "rental_uris": {"android": "https://dc.lft.to/lastmile_qr_scan", "ios": "https://dc.lft.to/lastmile_qr_scan"}, "name": "a98e90e5aa2c9eec4669c51501d09e98", "is_reserved": 0}, {"is_disabled": 0, "fusion_lon": 0.0, "fusion_lat": 0.0, "lat": 39.0545785, "type": "electric_bike", "lon": -77.14326316666667, "bike_id": "c84f38531d2cbc488de885cc915977a6", "rental_uris": {"android": "https://dc.lft.to/lastmile_qr_scan", "ios": "https://dc.lft.to/lastmile_qr_scan"}, "name": "c84f38531d2cbc488de885cc915977a6", "is_reserved": 0}, {"is_disabled": 0, "fusion_lon": 0.0, "fusion_lat": 0.0, "lat": 38.912293, "type": "electric_scooter", "lon": -77.0488315, "bike_id": "fa0766f25d4a30229beac0ddf479eed8", "rental_uris": {"android": "https://dc.lft.to/lastmile_qr_scan", "ios": "https://dc.lft.to/lastmile_qr_scan"}, "name": "fa0766f25d4a30229beac0ddf479eed8", "is_reserved": 0}, {"is_disabled": 0, "fusion_lon": 0.0, "fusion_lat": 0.0, "lat": 38.88430133333333, "type": "electric_scooter", "lon": -77.02965816666666, "bike_id": "89d8c12af1dc50956e73b156ac82ac7e", "rental_uris": {"android": "https://dc.lft.to/lastmile_qr_scan", "ios": "https://dc.lft.to/lastmile_qr_scan"}, "name": "89d8c12af1dc50956e73b156ac82ac7e", "is_reserved": 0}, {"is_disabled": 0, "fusion_lon": 0.0, "fusion_lat": 0.0, "lat": 38.8948925, "type": "electric_scooter", "lon": -77.0095335, "bike_id": "e79407e3676a213bb7f7f5302bbd23a5", "rental_uris": {"android": "https://dc.lft.to/lastmile_qr_scan", "ios": "https://dc.lft.to/lastmile_qr_scan"}, "name": "e79407e3676a213bb7f7f5302bbd23a5", "is_reserved": 0}, {"is_disabled": 0, "fusion_lon": 0.0, "fusion_lat": 0.0, "lat": 38.92131883333333, "type": "electric_scooter", "lon": -77.0352475, "bike_id": "e48359aa83ba8630805b32d97c5431df", "rental_uris": {"android": "https://dc.lft.to/lastmile_qr_scan", "ios": "https://dc.lft.to/lastmile_qr_scan"}, "name": "e48359aa83ba8630805b32d97c5431df", "is_reserved": 0}, {"is_disabled": 0, "fusion_lon": 0.0, "fusion_lat": 0.0, "lat": 38.905492, "type": "electric_scooter", "lon": -76.98143033333334, "bike_id": "2fb386f565bfbc672f66c019bb7cdec4", "rental_uris": {"android": "https://dc.lft.to/lastmile_qr_scan", "ios": "https://dc.lft.to/lastmile_qr_scan"}, "name": "2fb386f565bfbc672f66c019bb7cdec4", "is_reserved": 0}, {"is_disabled": 0, "fusion_lon": 0.0, "fusion_lat": 0.0, "lat": 38.77619716666667, "type": "electric_bike", "lon": -77.08357766666667, "bike_id": "0a6493f41fda879fbdc9ad054680c64c", "rental_uris": {"android": "https://dc.lft.to/lastmile_qr_scan", "ios": "https://dc.lft.to/lastmile_qr_scan"}, "name": "0a6493f41fda879fbdc9ad054680c64c", "is_reserved": 0}, {"is_disabled": 0, "fusion_lon": 0.0, "fusion_lat": 0.0, "lat": 38.91856666666666, "type": "electric_bike", "lon": -76.9608505, "bike_id": "1ae3d43ccbe917b4cb8b59b83bc2afa6", "rental_uris": {"android": "https://dc.lft.to/lastmile_qr_scan", "ios": "https://dc.lft.to/lastmile_qr_scan"}, "name": "1ae3d43ccbe917b4cb8b59b83bc2afa6", "is_reserved": 0}, {"is_disabled": 0, "fusion_lon": 0.0, "fusion_lat": 0.0, "lat": 38.884196833333334, "type": "electric_scooter", "lon": -77.02488816666667, "bike_id": "82c060331bff4d8783b6d6df86a08019", "rental_uris": {"android": "https://dc.lft.to/lastmile_qr_scan", "ios": "https://dc.lft.to/lastmile_qr_scan"}, "name": "82c060331bff4d8783b6d6df86a08019", "is_reserved": 0}, {"is_disabled": 0, "fusion_lon": 0.0, "fusion_lat": 0.0, "lat": 38.84092716666667, "type": "electric_bike", "lon": -77.08937866666666, "bike_id": "3c73da9b3093f13abc23a094c80933e5", "rental_uris": {"android": "https://dc.lft.to/lastmile_qr_scan", "ios": "https://dc.lft.to/lastmile_qr_scan"}, "name": "3c73da9b3093f13abc23a094c80933e5", "is_reserved": 0}, {"is_disabled": 0, "fusion_lon": 0.0, "fusion_lat": 0.0, "lat": 38.917652, "type": "electric_scooter", "lon": -77.04060366666667, "bike_id": "db10d59b0d1a779e4e862d2a6274e9b2", "rental_uris": {"android": "https://dc.lft.to/lastmile_qr_scan", "ios": "https://dc.lft.to/lastmile_qr_scan"}, "name": "db10d59b0d1a779e4e862d2a6274e9b2", "is_reserved": 0}, {"is_disabled": 0, "fusion_lon": 0.0, "fusion_lat": 0.0, "lat": 38.9453875, "type": "electric_scooter", "lon": -77.0425335, "bike_id": "c1b99dcefd91f75be267f7acf6657862", "rental_uris": {"android": "https://dc.lft.to/lastmile_qr_scan", "ios": "https://dc.lft.to/lastmile_qr_scan"}, "name": "c1b99dcefd91f75be267f7acf6657862", "is_reserved": 0}, {"is_disabled": 0, "fusion_lon": 0.0, "fusion_lat": 0.0, "lat": 38.9295905, "type": "electric_scooter", "lon": -77.02334483333334, "bike_id": "ec557a58922a8c90a6e091b45a32f9ed", "rental_uris": {"android": "https://dc.lft.to/lastmile_qr_scan", "ios": "https://dc.lft.to/lastmile_qr_scan"}, "name": "ec557a58922a8c90a6e091b45a32f9ed", "is_reserved": 0}, {"is_disabled": 0, "fusion_lon": 0.0, "fusion_lat": 0.0, "lat": 38.92663016666667, "type": "electric_scooter", "lon": -77.04325566666667, "bike_id": "762ddf30d504832e4ca7de7c78e97119", "rental_uris": {"android": "https://dc.lft.to/lastmile_qr_scan", "ios": "https://dc.lft.to/lastmile_qr_scan"}, "name": "762ddf30d504832e4ca7de7c78e97119", "is_reserved": 0}, {"is_disabled": 0, "fusion_lon": 0.0, "fusion_lat": 0.0, "lat": 38.87109783333333, "type": "electric_scooter", "lon": -77.0076365, "bike_id": "77a30b4d5bf6484599611fd3194d41b3", "rental_uris": {"android": "https://dc.lft.to/lastmile_qr_scan", "ios": "https://dc.lft.to/lastmile_qr_scan"}, "name": "77a30b4d5bf6484599611fd3194d41b3", "is_reserved": 0}, {"is_disabled": 0, "fusion_lon": 0.0, "fusion_lat": 0.0, "lat": 38.93479683333333, "type": "electric_scooter", "lon": -77.07274516666666, "bike_id": "d80de39094e6a74bbf39877606b80d29", "rental_uris": {"android": "https://dc.lft.to/lastmile_qr_scan", "ios": "https://dc.lft.to/lastmile_qr_scan"}, "name": "d80de39094e6a74bbf39877606b80d29", "is_reserved": 0}, {"is_disabled": 0, "fusion_lon": 0.0, "fusion_lat": 0.0, "lat": 38.874645, "type": "electric_bike", "lon": -77.00758583333334, "bike_id": "bab8e888fd1b7c5d2a389dae34110712", "rental_uris": {"android": "https://dc.lft.to/lastmile_qr_scan", "ios": "https://dc.lft.to/lastmile_qr_scan"}, "name": "bab8e888fd1b7c5d2a389dae34110712", "is_reserved": 0}, {"is_disabled": 0, "fusion_lon": 0.0, "fusion_lat": 0.0, "lat": 38.93895283333333, "type": "electric_scooter", "lon": -77.07766383333333, "bike_id": "c53ccfa049025b3b7ddbfb50850ca953", "rental_uris": {"android": "https://dc.lft.to/lastmile_qr_scan", "ios": "https://dc.lft.to/lastmile_qr_scan"}, "name": "c53ccfa049025b3b7ddbfb50850ca953", "is_reserved": 0}, {"is_disabled": 0, "fusion_lon": 0.0, "fusion_lat": 0.0, "lat": 38.91129216666667, "type": "electric_scooter", "lon": -77.044233, "bike_id": "8f922b2f12bb0684b53d50891d8c3d88", "rental_uris": {"android": "https://dc.lft.to/lastmile_qr_scan", "ios": "https://dc.lft.to/lastmile_qr_scan"}, "name": "8f922b2f12bb0684b53d50891d8c3d88", "is_reserved": 0}, {"is_disabled": 0, "fusion_lon": 0.0, "fusion_lat": 0.0, "lat": 38.9065775, "type": "electric_scooter", "lon": -77.02966216666667, "bike_id": "e8dd8c841e14491daf7bfeaa7635b00d", "rental_uris": {"android": "https://dc.lft.to/lastmile_qr_scan", "ios": "https://dc.lft.to/lastmile_qr_scan"}, "name": "e8dd8c841e14491daf7bfeaa7635b00d", "is_reserved": 0}, {"is_disabled": 0, "fusion_lon": 0.0, "fusion_lat": 0.0, "lat": 38.91541333333333, "type": "electric_scooter", "lon": -77.02638083333333, "bike_id": "a70b35e227fed9fb4d03d2eb90422f09", "rental_uris": {"android": "https://dc.lft.to/lastmile_qr_scan", "ios": "https://dc.lft.to/lastmile_qr_scan"}, "name": "a70b35e227fed9fb4d03d2eb90422f09", "is_reserved": 0}, {"is_disabled": 0, "fusion_lon": 0.0, "fusion_lat": 0.0, "lat": 38.905249166666664, "type": "electric_scooter", "lon": -77.02494033333333, "bike_id": "84994e534ae03ceb6622df30ed08cb82", "rental_uris": {"android": "https://dc.lft.to/lastmile_qr_scan", "ios": "https://dc.lft.to/lastmile_qr_scan"}, "name": "84994e534ae03ceb6622df30ed08cb82", "is_reserved": 0}, {"is_disabled": 0, "fusion_lon": 0.0, "fusion_lat": 0.0, "lat": 38.87681466666667, "type": "electric_scooter", "lon": -77.00888433333333, "bike_id": "a3bd45ede4b5a0992963580deab6f10f", "rental_uris": {"android": "https://dc.lft.to/lastmile_qr_scan", "ios": "https://dc.lft.to/lastmile_qr_scan"}, "name": "a3bd45ede4b5a0992963580deab6f10f", "is_reserved": 0}, {"is_disabled": 0, "fusion_lon": 0.0, "fusion_lat": 0.0, "lat": 38.914517000000004, "type": "electric_scooter", "lon": -77.032074, "bike_id": "91d946a23b2beee60e7bf976a7fd639e", "rental_uris": {"android": "https://dc.lft.to/lastmile_qr_scan", "ios": "https://dc.lft.to/lastmile_qr_scan"}, "name": "91d946a23b2beee60e7bf976a7fd639e", "is_reserved": 0}, {"is_disabled": 0, "fusion_lon": 0.0, "fusion_lat": 0.0, "lat": 38.89729166666667, "type": "electric_scooter", "lon": -77.0216605, "bike_id": "f525f95b3087d08003978e4d132b3296", "rental_uris": {"android": "https://dc.lft.to/lastmile_qr_scan", "ios": "https://dc.lft.to/lastmile_qr_scan"}, "name": "f525f95b3087d08003978e4d132b3296", "is_reserved": 0}, {"is_disabled": 0, "fusion_lon": 0.0, "fusion_lat": 0.0, "lat": 38.90483066666667, "type": "electric_scooter", "lon": -76.97331216666667, "bike_id": "3b4484ed5925b41e80a275c8ae93d179", "rental_uris": {"android": "https://dc.lft.to/lastmile_qr_scan", "ios": "https://dc.lft.to/lastmile_qr_scan"}, "name": "3b4484ed5925b41e80a275c8ae93d179", "is_reserved": 0}, {"is_disabled": 0, "fusion_lon": 0.0, "fusion_lat": 0.0, "lat": 38.985011666666665, "type": "electric_bike", "lon": -76.98207583333334, "bike_id": "0557d60962a091cc1ad5dbcfb8c4682e", "rental_uris": {"android": "https://dc.lft.to/lastmile_qr_scan", "ios": "https://dc.lft.to/lastmile_qr_scan"}, "name": "0557d60962a091cc1ad5dbcfb8c4682e", "is_reserved": 0}, {"is_disabled": 0, "fusion_lon": 0.0, "fusion_lat": 0.0, "lat": 38.91703916666667, "type": "electric_scooter", "lon": -77.00115083333333, "bike_id": "601f3fc27e3af80f501afe9f882b9a28", "rental_uris": {"android": "https://dc.lft.to/lastmile_qr_scan", "ios": "https://dc.lft.to/lastmile_qr_scan"}, "name": "601f3fc27e3af80f501afe9f882b9a28", "is_reserved": 0}, {"is_disabled": 0, "fusion_lon": 0.0, "fusion_lat": 0.0, "lat": 38.91896333333333, "type": "electric_scooter", "lon": -77.04472116666666, "bike_id": "1e23872d4cbf0fa8e39016c67de77bf4", "rental_uris": {"android": "https://dc.lft.to/lastmile_qr_scan", "ios": "https://dc.lft.to/lastmile_qr_scan"}, "name": "1e23872d4cbf0fa8e39016c67de77bf4", "is_reserved": 0}, {"is_disabled": 0, "fusion_lon": 0.0, "fusion_lat": 0.0, "lat": 38.89221033333333, "type": "electric_scooter", "lon": -77.04647066666666, "bike_id": "207e3f34a2cb8132332fbd9a783f6787", "rental_uris": {"android": "https://dc.lft.to/lastmile_qr_scan", "ios": "https://dc.lft.to/lastmile_qr_scan"}, "name": "207e3f34a2cb8132332fbd9a783f6787", "is_reserved": 0}, {"is_disabled": 0, "fusion_lon": 0.0, "fusion_lat": 0.0, "lat": 38.90935783333333, "type": "electric_scooter", "lon": -77.0535935, "bike_id": "99f947b32fd57aa9e71a1226da1c3a3f", "rental_uris": {"android": "https://dc.lft.to/lastmile_qr_scan", "ios": "https://dc.lft.to/lastmile_qr_scan"}, "name": "99f947b32fd57aa9e71a1226da1c3a3f", "is_reserved": 0}, {"is_disabled": 0, "fusion_lon": 0.0, "fusion_lat": 0.0, "lat": 38.951742833333334, "type": "electric_scooter", "lon": -77.05656866666666, "bike_id": "7e883fc05f3be2ea1a136dbdf7d249a4", "rental_uris": {"android": "https://dc.lft.to/lastmile_qr_scan", "ios": "https://dc.lft.to/lastmile_qr_scan"}, "name": "7e883fc05f3be2ea1a136dbdf7d249a4", "is_reserved": 0}, {"is_disabled": 0, "fusion_lon": 0.0, "fusion_lat": 0.0, "lat": 38.96566766666667, "type": "electric_scooter", "lon": -77.01565683333334, "bike_id": "77fed7560d3e81f0ad1f90962fdbe3fa", "rental_uris": {"android": "https://dc.lft.to/lastmile_qr_scan", "ios": "https://dc.lft.to/lastmile_qr_scan"}, "name": "77fed7560d3e81f0ad1f90962fdbe3fa", "is_reserved": 0}, {"is_disabled": 0, "fusion_lon": 0.0, "fusion_lat": 0.0, "lat": 38.91555066666667, "type": "electric_scooter", "lon": -77.0417625, "bike_id": "c36529bec2ff3aa5789cb7e2e5ba1c2e", "rental_uris": {"android": "https://dc.lft.to/lastmile_qr_scan", "ios": "https://dc.lft.to/lastmile_qr_scan"}, "name": "c36529bec2ff3aa5789cb7e2e5ba1c2e", "is_reserved": 0}, {"is_disabled": 0, "fusion_lon": 0.0, "fusion_lat": 0.0, "lat": 38.87244866666666, "type": "electric_scooter", "lon": -76.977251, "bike_id": "9072a83ae14dfa8839b2f495c23db87e", "rental_uris": {"android": "https://dc.lft.to/lastmile_qr_scan", "ios": "https://dc.lft.to/lastmile_qr_scan"}, "name": "9072a83ae14dfa8839b2f495c23db87e", "is_reserved": 0}, {"is_disabled": 0, "fusion_lon": 0.0, "fusion_lat": 0.0, "lat": 38.95543583333333, "type": "electric_bike", "lon": -76.93523183333333, "bike_id": "02b697b7644e2303bfdd6ed1c298fca8", "rental_uris": {"android": "https://dc.lft.to/lastmile_qr_scan", "ios": "https://dc.lft.to/lastmile_qr_scan"}, "name": "02b697b7644e2303bfdd6ed1c298fca8", "is_reserved": 0}, {"is_disabled": 0, "fusion_lon": 0.0, "fusion_lat": 0.0, "lat": 38.898518333333335, "type": "electric_scooter", "lon": -76.99033, "bike_id": "872bbdf86f628bda7d2ca39ee9198c9d", "rental_uris": {"android": "https://dc.lft.to/lastmile_qr_scan", "ios": "https://dc.lft.to/lastmile_qr_scan"}, "name": "872bbdf86f628bda7d2ca39ee9198c9d", "is_reserved": 0}, {"is_disabled": 0, "fusion_lon": 0.0, "fusion_lat": 0.0, "lat": 38.88262916666667, "type": "electric_scooter", "lon": -76.98537516666667, "bike_id": "2060c1ca61f57fbd56831521b016e90f", "rental_uris": {"android": "https://dc.lft.to/lastmile_qr_scan", "ios": "https://dc.lft.to/lastmile_qr_scan"}, "name": "2060c1ca61f57fbd56831521b016e90f", "is_reserved": 0}, {"is_disabled": 0, "fusion_lon": 0.0, "fusion_lat": 0.0, "lat": 38.909728666666666, "type": "electric_scooter", "lon": -77.03433566666666, "bike_id": "99361885b0f25b998aa7274e631ac6b5", "rental_uris": {"android": "https://dc.lft.to/lastmile_qr_scan", "ios": "https://dc.lft.to/lastmile_qr_scan"}, "name": "99361885b0f25b998aa7274e631ac6b5", "is_reserved": 0}, {"is_disabled": 0, "fusion_lon": 0.0, "fusion_lat": 0.0, "lat": 38.908604833333335, "type": "electric_scooter", "lon": -77.02302433333334, "bike_id": "f500c8f54de8c3578c466dccf1e9845e", "rental_uris": {"android": "https://dc.lft.to/lastmile_qr_scan", "ios": "https://dc.lft.to/lastmile_qr_scan"}, "name": "f500c8f54de8c3578c466dccf1e9845e", "is_reserved": 0}, {"is_disabled": 0, "fusion_lon": 0.0, "fusion_lat": 0.0, "lat": 38.915545333333334, "type": "electric_scooter", "lon": -77.020483, "bike_id": "8ff4345298c7a847c1894d5237bc5036", "rental_uris": {"android": "https://dc.lft.to/lastmile_qr_scan", "ios": "https://dc.lft.to/lastmile_qr_scan"}, "name": "8ff4345298c7a847c1894d5237bc5036", "is_reserved": 0}, {"is_disabled": 0, "fusion_lon": 0.0, "fusion_lat": 0.0, "lat": 38.82866816666667, "type": "electric_bike", "lon": -77.1122425, "bike_id": "cf067e677d9d478798f9fd1684eeeba9", "rental_uris": {"android": "https://dc.lft.to/lastmile_qr_scan", "ios": "https://dc.lft.to/lastmile_qr_scan"}, "name": "cf067e677d9d478798f9fd1684eeeba9", "is_reserved": 0}, {"is_disabled": 0, "fusion_lon": 0.0, "fusion_lat": 0.0, "lat": 38.918200166666665, "type": "electric_scooter", "lon": -77.032644, "bike_id": "14dca3dfdd5ebe9d689d1476e643a738", "rental_uris": {"android": "https://dc.lft.to/lastmile_qr_scan", "ios": "https://dc.lft.to/lastmile_qr_scan"}, "name": "14dca3dfdd5ebe9d689d1476e643a738", "is_reserved": 0}, {"is_disabled": 0, "fusion_lon": 0.0, "fusion_lat": 0.0, "lat": 38.903355833333336, "type": "electric_scooter", "lon": -77.02495916666666, "bike_id": "4b33f7e331cc23a4dbe0fa5e47e8788c", "rental_uris": {"android": "https://dc.lft.to/lastmile_qr_scan", "ios": "https://dc.lft.to/lastmile_qr_scan"}, "name": "4b33f7e331cc23a4dbe0fa5e47e8788c", "is_reserved": 0}, {"is_disabled": 0, "fusion_lon": 0.0, "fusion_lat": 0.0, "lat": 38.906872, "type": "electric_scooter", "lon": -77.03719183333334, "bike_id": "d328b6a5e2566de46907d04cb4e4f057", "rental_uris": {"android": "https://dc.lft.to/lastmile_qr_scan", "ios": "https://dc.lft.to/lastmile_qr_scan"}, "name": "d328b6a5e2566de46907d04cb4e4f057", "is_reserved": 0}, {"is_disabled": 0, "fusion_lon": 0.0, "fusion_lat": 0.0, "lat": 38.88739533333333, "type": "electric_scooter", "lon": -77.01535266666667, "bike_id": "eb8b96fbb29bd77d79ccaf3a5c59e164", "rental_uris": {"android": "https://dc.lft.to/lastmile_qr_scan", "ios": "https://dc.lft.to/lastmile_qr_scan"}, "name": "eb8b96fbb29bd77d79ccaf3a5c59e164", "is_reserved": 0}, {"is_disabled": 0, "fusion_lon": 0.0, "fusion_lat": 0.0, "lat": 38.9003505, "type": "electric_scooter", "lon": -77.0079095, "bike_id": "4716f0b4a9f4932bcc9c03ea416d3902", "rental_uris": {"android": "https://dc.lft.to/lastmile_qr_scan", "ios": "https://dc.lft.to/lastmile_qr_scan"}, "name": "4716f0b4a9f4932bcc9c03ea416d3902", "is_reserved": 0}, {"is_disabled": 0, "fusion_lon": 0.0, "fusion_lat": 0.0, "lat": 38.906647666666665, "type": "electric_scooter", "lon": -77.02381966666667, "bike_id": "9669d00d7ed58b66fc9d3879d413be4f", "rental_uris": {"android": "https://dc.lft.to/lastmile_qr_scan", "ios": "https://dc.lft.to/lastmile_qr_scan"}, "name": "9669d00d7ed58b66fc9d3879d413be4f", "is_reserved": 0}, {"is_disabled": 0, "fusion_lon": 0.0, "fusion_lat": 0.0, "lat": 38.90731666666667, "type": "electric_scooter", "lon": -77.045023, "bike_id": "fe33447171022c0cb186a65519eee781", "rental_uris": {"android": "https://dc.lft.to/lastmile_qr_scan", "ios": "https://dc.lft.to/lastmile_qr_scan"}, "name": "fe33447171022c0cb186a65519eee781", "is_reserved": 0}, {"is_disabled": 0, "fusion_lon": 0.0, "fusion_lat": 0.0, "lat": 38.802957, "type": "electric_bike", "lon": -77.0398785, "bike_id": "cd5a62f8a178d14dc1ce5dec85b8b823", "rental_uris": {"android": "https://dc.lft.to/lastmile_qr_scan", "ios": "https://dc.lft.to/lastmile_qr_scan"}, "name": "cd5a62f8a178d14dc1ce5dec85b8b823", "is_reserved": 0}, {"is_disabled": 0, "fusion_lon": 0.0, "fusion_lat": 0.0, "lat": 38.9208845, "type": "electric_scooter", "lon": -77.025106, "bike_id": "3db84792c5105fea786155017d5531f9", "rental_uris": {"android": "https://dc.lft.to/lastmile_qr_scan", "ios": "https://dc.lft.to/lastmile_qr_scan"}, "name": "3db84792c5105fea786155017d5531f9", "is_reserved": 0}, {"is_disabled": 0, "fusion_lon": 0.0, "fusion_lat": 0.0, "lat": 38.88357766666667, "type": "electric_scooter", "lon": -77.02429083333334, "bike_id": "9d3c86d11707219b55bd5cc9d4ce5c68", "rental_uris": {"android": "https://dc.lft.to/lastmile_qr_scan", "ios": "https://dc.lft.to/lastmile_qr_scan"}, "name": "9d3c86d11707219b55bd5cc9d4ce5c68", "is_reserved": 0}, {"is_disabled": 0, "fusion_lon": 0.0, "fusion_lat": 0.0, "lat": 38.901359, "type": "electric_scooter", "lon": -77.03952516666666, "bike_id": "42d10b325e08f93a38591373b7a8f978", "rental_uris": {"android": "https://dc.lft.to/lastmile_qr_scan", "ios": "https://dc.lft.to/lastmile_qr_scan"}, "name": "42d10b325e08f93a38591373b7a8f978", "is_reserved": 0}, {"is_disabled": 0, "fusion_lon": 0.0, "fusion_lat": 0.0, "lat": 38.93084116666667, "type": "electric_scooter", "lon": -77.03392216666667, "bike_id": "f51d8abd4a91d0fc5cf3ee050adec36b", "rental_uris": {"android": "https://dc.lft.to/lastmile_qr_scan", "ios": "https://dc.lft.to/lastmile_qr_scan"}, "name": "f51d8abd4a91d0fc5cf3ee050adec36b", "is_reserved": 0}, {"is_disabled": 0, "fusion_lon": 0.0, "fusion_lat": 0.0, "lat": 38.90703533333333, "type": "electric_scooter", "lon": -77.045102, "bike_id": "e776fc92c2430c29a329ffbb6474ef96", "rental_uris": {"android": "https://dc.lft.to/lastmile_qr_scan", "ios": "https://dc.lft.to/lastmile_qr_scan"}, "name": "e776fc92c2430c29a329ffbb6474ef96", "is_reserved": 0}, {"is_disabled": 0, "fusion_lon": 0.0, "fusion_lat": 0.0, "lat": 38.9173005, "type": "electric_scooter", "lon": -77.0230465, "bike_id": "d110f7f03b2e3a091ef75d1141f5c987", "rental_uris": {"android": "https://dc.lft.to/lastmile_qr_scan", "ios": "https://dc.lft.to/lastmile_qr_scan"}, "name": "d110f7f03b2e3a091ef75d1141f5c987", "is_reserved": 0}, {"is_disabled": 0, "fusion_lon": 0.0, "fusion_lat": 0.0, "lat": 38.919506166666665, "type": "electric_scooter", "lon": -77.0139465, "bike_id": "3f5f3064307f86c512e15d2f79e2ba69", "rental_uris": {"android": "https://dc.lft.to/lastmile_qr_scan", "ios": "https://dc.lft.to/lastmile_qr_scan"}, "name": "3f5f3064307f86c512e15d2f79e2ba69", "is_reserved": 0}, {"is_disabled": 0, "fusion_lon": 0.0, "fusion_lat": 0.0, "lat": 38.922234333333336, "type": "electric_scooter", "lon": -77.033211, "bike_id": "09f9cf8694b6e0b06b61e2c452d296b3", "rental_uris": {"android": "https://dc.lft.to/lastmile_qr_scan", "ios": "https://dc.lft.to/lastmile_qr_scan"}, "name": "09f9cf8694b6e0b06b61e2c452d296b3", "is_reserved": 0}, {"is_disabled": 0, "fusion_lon": 0.0, "fusion_lat": 0.0, "lat": 38.9192165, "type": "electric_scooter", "lon": -77.031947, "bike_id": "5459195d5a83cdf8baa0912956abb8f5", "rental_uris": {"android": "https://dc.lft.to/lastmile_qr_scan", "ios": "https://dc.lft.to/lastmile_qr_scan"}, "name": "5459195d5a83cdf8baa0912956abb8f5", "is_reserved": 0}, {"is_disabled": 0, "fusion_lon": 0.0, "fusion_lat": 0.0, "lat": 38.917553, "type": "electric_scooter", "lon": -77.01505416666667, "bike_id": "fb167bdb3327a8434a99b14b18b8afeb", "rental_uris": {"android": "https://dc.lft.to/lastmile_qr_scan", "ios": "https://dc.lft.to/lastmile_qr_scan"}, "name": "fb167bdb3327a8434a99b14b18b8afeb", "is_reserved": 0}, {"is_disabled": 0, "fusion_lon": 0.0, "fusion_lat": 0.0, "lat": 38.8461865, "type": "electric_scooter", "lon": -76.9962735, "bike_id": "539649fc223651638d92e84cb43cc78d", "rental_uris": {"android": "https://dc.lft.to/lastmile_qr_scan", "ios": "https://dc.lft.to/lastmile_qr_scan"}, "name": "539649fc223651638d92e84cb43cc78d", "is_reserved": 0}, {"is_disabled": 0, "fusion_lon": 0.0, "fusion_lat": 0.0, "lat": 38.865225, "type": "electric_scooter", "lon": -76.98966533333333, "bike_id": "b87458aff5ea14685ed8d3a4e7856b4d", "rental_uris": {"android": "https://dc.lft.to/lastmile_qr_scan", "ios": "https://dc.lft.to/lastmile_qr_scan"}, "name": "b87458aff5ea14685ed8d3a4e7856b4d", "is_reserved": 0}, {"is_disabled": 0, "fusion_lon": 0.0, "fusion_lat": 0.0, "lat": 38.960113666666665, "type": "electric_scooter", "lon": -77.033118, "bike_id": "e5c4cccb94b65053e3f279b75e72f657", "rental_uris": {"android": "https://dc.lft.to/lastmile_qr_scan", "ios": "https://dc.lft.to/lastmile_qr_scan"}, "name": "e5c4cccb94b65053e3f279b75e72f657", "is_reserved": 0}, {"is_disabled": 0, "fusion_lon": 0.0, "fusion_lat": 0.0, "lat": 38.89175433333333, "type": "electric_scooter", "lon": -77.03292316666666, "bike_id": "8fa0d2cb50ff66453e57adf62864b677", "rental_uris": {"android": "https://dc.lft.to/lastmile_qr_scan", "ios": "https://dc.lft.to/lastmile_qr_scan"}, "name": "8fa0d2cb50ff66453e57adf62864b677", "is_reserved": 0}, {"is_disabled": 0, "fusion_lon": 0.0, "fusion_lat": 0.0, "lat": 38.903341833333336, "type": "electric_scooter", "lon": -76.9801325, "bike_id": "06e57924e1e8c1cbb9a966e353a4d47b", "rental_uris": {"android": "https://dc.lft.to/lastmile_qr_scan", "ios": "https://dc.lft.to/lastmile_qr_scan"}, "name": "06e57924e1e8c1cbb9a966e353a4d47b", "is_reserved": 0}, {"is_disabled": 0, "fusion_lon": 0.0, "fusion_lat": 0.0, "lat": 38.86578016666667, "type": "electric_scooter", "lon": -76.99046033333333, "bike_id": "b4f22f4bb7ef3b841f6b994f12d1461d", "rental_uris": {"android": "https://dc.lft.to/lastmile_qr_scan", "ios": "https://dc.lft.to/lastmile_qr_scan"}, "name": "b4f22f4bb7ef3b841f6b994f12d1461d", "is_reserved": 0}, {"is_disabled": 0, "fusion_lon": 0.0, "fusion_lat": 0.0, "lat": 38.918457, "type": "electric_scooter", "lon": -77.02449183333333, "bike_id": "9c7bcd9f77c0f683013c573627e51416", "rental_uris": {"android": "https://dc.lft.to/lastmile_qr_scan", "ios": "https://dc.lft.to/lastmile_qr_scan"}, "name": "9c7bcd9f77c0f683013c573627e51416", "is_reserved": 0}, {"is_disabled": 0, "fusion_lon": 0.0, "fusion_lat": 0.0, "lat": 38.90336166666667, "type": "electric_scooter", "lon": -77.0261955, "bike_id": "a45bba10f659c3573cfa86dd0231e66c", "rental_uris": {"android": "https://dc.lft.to/lastmile_qr_scan", "ios": "https://dc.lft.to/lastmile_qr_scan"}, "name": "a45bba10f659c3573cfa86dd0231e66c", "is_reserved": 0}, {"is_disabled": 0, "fusion_lon": 0.0, "fusion_lat": 0.0, "lat": 38.92058516666667, "type": "electric_scooter", "lon": -77.017997, "bike_id": "8e5d76693c93c150b1fc48951ef175ed", "rental_uris": {"android": "https://dc.lft.to/lastmile_qr_scan", "ios": "https://dc.lft.to/lastmile_qr_scan"}, "name": "8e5d76693c93c150b1fc48951ef175ed", "is_reserved": 0}, {"is_disabled": 0, "fusion_lon": 0.0, "fusion_lat": 0.0, "lat": 38.900164, "type": "electric_scooter", "lon": -76.98698016666667, "bike_id": "415377f1fafdd72fe55dca2166973c00", "rental_uris": {"android": "https://dc.lft.to/lastmile_qr_scan", "ios": "https://dc.lft.to/lastmile_qr_scan"}, "name": "415377f1fafdd72fe55dca2166973c00", "is_reserved": 0}, {"is_disabled": 0, "fusion_lon": 0.0, "fusion_lat": 0.0, "lat": 38.911351, "type": "electric_scooter", "lon": -77.032116, "bike_id": "8f7df8b79568c7d2441909c52c9bf3d1", "rental_uris": {"android": "https://dc.lft.to/lastmile_qr_scan", "ios": "https://dc.lft.to/lastmile_qr_scan"}, "name": "8f7df8b79568c7d2441909c52c9bf3d1", "is_reserved": 0}, {"is_disabled": 0, "fusion_lon": 0.0, "fusion_lat": 0.0, "lat": 38.8962255, "type": "electric_scooter", "lon": -76.99461383333333, "bike_id": "ef0cf0a1ab90e355d014c7f21e7a09c6", "rental_uris": {"android": "https://dc.lft.to/lastmile_qr_scan", "ios": "https://dc.lft.to/lastmile_qr_scan"}, "name": "ef0cf0a1ab90e355d014c7f21e7a09c6", "is_reserved": 0}, {"is_disabled": 0, "fusion_lon": 0.0, "fusion_lat": 0.0, "lat": 38.8988055, "type": "electric_scooter", "lon": -76.93156633333334, "bike_id": "186c78ecb48189503a5435c77a87aa0c", "rental_uris": {"android": "https://dc.lft.to/lastmile_qr_scan", "ios": "https://dc.lft.to/lastmile_qr_scan"}, "name": "186c78ecb48189503a5435c77a87aa0c", "is_reserved": 0}, {"is_disabled": 0, "fusion_lon": 0.0, "fusion_lat": 0.0, "lat": 38.91874116666666, "type": "electric_bike", "lon": -76.96124633333334, "bike_id": "5207d9f343f3e7125b8de84a26839b1b", "rental_uris": {"android": "https://dc.lft.to/lastmile_qr_scan", "ios": "https://dc.lft.to/lastmile_qr_scan"}, "name": "5207d9f343f3e7125b8de84a26839b1b", "is_reserved": 0}, {"is_disabled": 0, "fusion_lon": 0.0, "fusion_lat": 0.0, "lat": 38.90329116666667, "type": "electric_bike", "lon": -77.01628883333333, "bike_id": "fecb47bac1e1b00002805aa2285085cd", "rental_uris": {"android": "https://dc.lft.to/lastmile_qr_scan", "ios": "https://dc.lft.to/lastmile_qr_scan"}, "name": "fecb47bac1e1b00002805aa2285085cd", "is_reserved": 0}, {"is_disabled": 0, "fusion_lon": 0.0, "fusion_lat": 0.0, "lat": 38.931491333333334, "type": "electric_scooter", "lon": -77.04361583333333, "bike_id": "77bcd420994fb4094e1b2d881c04e6de", "rental_uris": {"android": "https://dc.lft.to/lastmile_qr_scan", "ios": "https://dc.lft.to/lastmile_qr_scan"}, "name": "77bcd420994fb4094e1b2d881c04e6de", "is_reserved": 0}, {"is_disabled": 0, "fusion_lon": 0.0, "fusion_lat": 0.0, "lat": 38.919008833333336, "type": "electric_scooter", "lon": -77.0320795, "bike_id": "c42e6a3ca71f0b261bdb248074221162", "rental_uris": {"android": "https://dc.lft.to/lastmile_qr_scan", "ios": "https://dc.lft.to/lastmile_qr_scan"}, "name": "c42e6a3ca71f0b261bdb248074221162", "is_reserved": 0}, {"is_disabled": 0, "fusion_lon": 0.0, "fusion_lat": 0.0, "lat": 38.91135766666667, "type": "electric_scooter", "lon": -77.03208133333334, "bike_id": "ce44e8fc5b440b1d7a94064e44ec26f1", "rental_uris": {"android": "https://dc.lft.to/lastmile_qr_scan", "ios": "https://dc.lft.to/lastmile_qr_scan"}, "name": "ce44e8fc5b440b1d7a94064e44ec26f1", "is_reserved": 0}, {"is_disabled": 0, "fusion_lon": 0.0, "fusion_lat": 0.0, "lat": 38.88162066666666, "type": "electric_scooter", "lon": -77.00904683333333, "bike_id": "9ead236935a5e8298d4a0dc5c6c9b9e3", "rental_uris": {"android": "https://dc.lft.to/lastmile_qr_scan", "ios": "https://dc.lft.to/lastmile_qr_scan"}, "name": "9ead236935a5e8298d4a0dc5c6c9b9e3", "is_reserved": 0}, {"is_disabled": 0, "fusion_lon": 0.0, "fusion_lat": 0.0, "lat": 38.85980333333333, "type": "electric_scooter", "lon": -76.98413466666666, "bike_id": "be1f9885a325254b7e5ffef63d5ad0a8", "rental_uris": {"android": "https://dc.lft.to/lastmile_qr_scan", "ios": "https://dc.lft.to/lastmile_qr_scan"}, "name": "be1f9885a325254b7e5ffef63d5ad0a8", "is_reserved": 0}, {"is_disabled": 0, "fusion_lon": 0.0, "fusion_lat": 0.0, "lat": 38.9216435, "type": "electric_scooter", "lon": -77.01210266666666, "bike_id": "1053e770d95f2ea4b09c4293da105536", "rental_uris": {"android": "https://dc.lft.to/lastmile_qr_scan", "ios": "https://dc.lft.to/lastmile_qr_scan"}, "name": "1053e770d95f2ea4b09c4293da105536", "is_reserved": 0}, {"is_disabled": 0, "fusion_lon": 0.0, "fusion_lat": 0.0, "lat": 38.927377166666666, "type": "electric_bike", "lon": -76.9936375, "bike_id": "5766771a3e71cf12121d26801d613040", "rental_uris": {"android": "https://dc.lft.to/lastmile_qr_scan", "ios": "https://dc.lft.to/lastmile_qr_scan"}, "name": "5766771a3e71cf12121d26801d613040", "is_reserved": 0}, {"is_disabled": 0, "fusion_lon": 0.0, "fusion_lat": 0.0, "lat": 38.8506595, "type": "electric_bike", "lon": -76.9733195, "bike_id": "130ffa9a2013059ae2475ffee4a155ae", "rental_uris": {"android": "https://dc.lft.to/lastmile_qr_scan", "ios": "https://dc.lft.to/lastmile_qr_scan"}, "name": "130ffa9a2013059ae2475ffee4a155ae", "is_reserved": 0}, {"is_disabled": 0, "fusion_lon": 0.0, "fusion_lat": 0.0, "lat": 38.927940166666666, "type": "electric_scooter", "lon": -77.02296683333333, "bike_id": "4e30fc202bbd66a33ef3daec1c0bcf54", "rental_uris": {"android": "https://dc.lft.to/lastmile_qr_scan", "ios": "https://dc.lft.to/lastmile_qr_scan"}, "name": "4e30fc202bbd66a33ef3daec1c0bcf54", "is_reserved": 0}, {"is_disabled": 0, "fusion_lon": 0.0, "fusion_lat": 0.0, "lat": 38.90249133333333, "type": "electric_scooter", "lon": -77.034381, "bike_id": "46b305c6d1a94ba74375139c63018ba3", "rental_uris": {"android": "https://dc.lft.to/lastmile_qr_scan", "ios": "https://dc.lft.to/lastmile_qr_scan"}, "name": "46b305c6d1a94ba74375139c63018ba3", "is_reserved": 0}, {"is_disabled": 0, "fusion_lon": 0.0, "fusion_lat": 0.0, "lat": 38.9001975, "type": "electric_scooter", "lon": -77.04661233333333, "bike_id": "36c90f25e44c5b1d8aaf85596484f9e7", "rental_uris": {"android": "https://dc.lft.to/lastmile_qr_scan", "ios": "https://dc.lft.to/lastmile_qr_scan"}, "name": "36c90f25e44c5b1d8aaf85596484f9e7", "is_reserved": 0}, {"is_disabled": 0, "fusion_lon": 0.0, "fusion_lat": 0.0, "lat": 38.91714533333333, "type": "electric_scooter", "lon": -77.02870916666667, "bike_id": "2480e6f271259a19b792daeb5c815b43", "rental_uris": {"android": "https://dc.lft.to/lastmile_qr_scan", "ios": "https://dc.lft.to/lastmile_qr_scan"}, "name": "2480e6f271259a19b792daeb5c815b43", "is_reserved": 0}, {"is_disabled": 0, "fusion_lon": 0.0, "fusion_lat": 0.0, "lat": 38.920173, "type": "electric_bike", "lon": -76.97301416666667, "bike_id": "e2804022032f3fcacdce7f01fcc197ad", "rental_uris": {"android": "https://dc.lft.to/lastmile_qr_scan", "ios": "https://dc.lft.to/lastmile_qr_scan"}, "name": "e2804022032f3fcacdce7f01fcc197ad", "is_reserved": 0}, {"is_disabled": 0, "fusion_lon": 0.0, "fusion_lat": 0.0, "lat": 38.95224433333333, "type": "electric_scooter", "lon": -77.02761366666667, "bike_id": "3df74778ce536df8b0830f075095d605", "rental_uris": {"android": "https://dc.lft.to/lastmile_qr_scan", "ios": "https://dc.lft.to/lastmile_qr_scan"}, "name": "3df74778ce536df8b0830f075095d605", "is_reserved": 0}, {"is_disabled": 0, "fusion_lon": 0.0, "fusion_lat": 0.0, "lat": 38.88488916666667, "type": "electric_scooter", "lon": -77.00722316666666, "bike_id": "e808b336c0bc55e6eaad4c3df5f6ea69", "rental_uris": {"android": "https://dc.lft.to/lastmile_qr_scan", "ios": "https://dc.lft.to/lastmile_qr_scan"}, "name": "e808b336c0bc55e6eaad4c3df5f6ea69", "is_reserved": 0}, {"is_disabled": 0, "fusion_lon": 0.0, "fusion_lat": 0.0, "lat": 38.916540166666664, "type": "electric_scooter", "lon": -77.0191415, "bike_id": "f9e3778c3bcae041f0b262c13c6eb266", "rental_uris": {"android": "https://dc.lft.to/lastmile_qr_scan", "ios": "https://dc.lft.to/lastmile_qr_scan"}, "name": "f9e3778c3bcae041f0b262c13c6eb266", "is_reserved": 0}, {"is_disabled": 0, "fusion_lon": 0.0, "fusion_lat": 0.0, "lat": 38.92645233333333, "type": "electric_scooter", "lon": -77.033766, "bike_id": "56dc68581bd9087d1e93adcb26b4323a", "rental_uris": {"android": "https://dc.lft.to/lastmile_qr_scan", "ios": "https://dc.lft.to/lastmile_qr_scan"}, "name": "56dc68581bd9087d1e93adcb26b4323a", "is_reserved": 0}, {"is_disabled": 0, "fusion_lon": 0.0, "fusion_lat": 0.0, "lat": 38.94922833333333, "type": "electric_bike", "lon": -77.00798166666667, "bike_id": "23d1a25b636fa8fcd74ba759ff4b162d", "rental_uris": {"android": "https://dc.lft.to/lastmile_qr_scan", "ios": "https://dc.lft.to/lastmile_qr_scan"}, "name": "23d1a25b636fa8fcd74ba759ff4b162d", "is_reserved": 0}, {"is_disabled": 0, "fusion_lon": 0.0, "fusion_lat": 0.0, "lat": 38.89223783333333, "type": "electric_scooter", "lon": -77.04333833333334, "bike_id": "3cb73273660f4536483c958dd1759b5f", "rental_uris": {"android": "https://dc.lft.to/lastmile_qr_scan", "ios": "https://dc.lft.to/lastmile_qr_scan"}, "name": "3cb73273660f4536483c958dd1759b5f", "is_reserved": 0}, {"is_disabled": 0, "fusion_lon": 0.0, "fusion_lat": 0.0, "lat": 38.90256383333333, "type": "electric_scooter", "lon": -77.061616, "bike_id": "925b44b71b328de3303661e24fb01e49", "rental_uris": {"android": "https://dc.lft.to/lastmile_qr_scan", "ios": "https://dc.lft.to/lastmile_qr_scan"}, "name": "925b44b71b328de3303661e24fb01e49", "is_reserved": 0}, {"is_disabled": 0, "fusion_lon": 0.0, "fusion_lat": 0.0, "lat": 38.8520315, "type": "electric_bike", "lon": -77.12759316666667, "bike_id": "aa5cae6f0a5312f7f3ec80413460601a", "rental_uris": {"android": "https://dc.lft.to/lastmile_qr_scan", "ios": "https://dc.lft.to/lastmile_qr_scan"}, "name": "aa5cae6f0a5312f7f3ec80413460601a", "is_reserved": 0}, {"is_disabled": 0, "fusion_lon": 0.0, "fusion_lat": 0.0, "lat": 38.89758333333333, "type": "electric_scooter", "lon": -77.05133466666666, "bike_id": "b4553c25f75ca1bd7c7656c8ec9a8280", "rental_uris": {"android": "https://dc.lft.to/lastmile_qr_scan", "ios": "https://dc.lft.to/lastmile_qr_scan"}, "name": "b4553c25f75ca1bd7c7656c8ec9a8280", "is_reserved": 0}, {"is_disabled": 0, "fusion_lon": 0.0, "fusion_lat": 0.0, "lat": 38.9163795, "type": "electric_scooter", "lon": -77.03203066666667, "bike_id": "ba88fc45ae0154dc0a32f373878373c6", "rental_uris": {"android": "https://dc.lft.to/lastmile_qr_scan", "ios": "https://dc.lft.to/lastmile_qr_scan"}, "name": "ba88fc45ae0154dc0a32f373878373c6", "is_reserved": 0}, {"is_disabled": 0, "fusion_lon": 0.0, "fusion_lat": 0.0, "lat": 38.914209, "type": "electric_scooter", "lon": -77.01415766666666, "bike_id": "2dc65525e50718b5a4844fcbd1464d05", "rental_uris": {"android": "https://dc.lft.to/lastmile_qr_scan", "ios": "https://dc.lft.to/lastmile_qr_scan"}, "name": "2dc65525e50718b5a4844fcbd1464d05", "is_reserved": 0}, {"is_disabled": 0, "fusion_lon": 0.0, "fusion_lat": 0.0, "lat": 38.946253666666664, "type": "electric_bike", "lon": -76.93410266666666, "bike_id": "019fe5af5c3d0e8ead90a17f1bc776d1", "rental_uris": {"android": "https://dc.lft.to/lastmile_qr_scan", "ios": "https://dc.lft.to/lastmile_qr_scan"}, "name": "019fe5af5c3d0e8ead90a17f1bc776d1", "is_reserved": 0}, {"is_disabled": 0, "fusion_lon": 0.0, "fusion_lat": 0.0, "lat": 38.910672, "type": "electric_scooter", "lon": -77.04405866666667, "bike_id": "74c0623d441e462af80a85f7e5b8c5c5", "rental_uris": {"android": "https://dc.lft.to/lastmile_qr_scan", "ios": "https://dc.lft.to/lastmile_qr_scan"}, "name": "74c0623d441e462af80a85f7e5b8c5c5", "is_reserved": 0}, {"is_disabled": 0, "fusion_lon": 0.0, "fusion_lat": 0.0, "lat": 38.916973166666665, "type": "electric_scooter", "lon": -77.03095983333333, "bike_id": "037102a6e0562eca41b78ffea5b2ba58", "rental_uris": {"android": "https://dc.lft.to/lastmile_qr_scan", "ios": "https://dc.lft.to/lastmile_qr_scan"}, "name": "037102a6e0562eca41b78ffea5b2ba58", "is_reserved": 0}, {"is_disabled": 0, "fusion_lon": 0.0, "fusion_lat": 0.0, "lat": 38.86948916666667, "type": "electric_scooter", "lon": -76.97596583333333, "bike_id": "24f968fb1958ce7975d5231653152a93", "rental_uris": {"android": "https://dc.lft.to/lastmile_qr_scan", "ios": "https://dc.lft.to/lastmile_qr_scan"}, "name": "24f968fb1958ce7975d5231653152a93", "is_reserved": 0}, {"is_disabled": 0, "fusion_lon": 0.0, "fusion_lat": 0.0, "lat": 38.91130116666667, "type": "electric_scooter", "lon": -77.0441075, "bike_id": "5bd823ab1cfbe2770f8b043f0701c896", "rental_uris": {"android": "https://dc.lft.to/lastmile_qr_scan", "ios": "https://dc.lft.to/lastmile_qr_scan"}, "name": "5bd823ab1cfbe2770f8b043f0701c896", "is_reserved": 0}, {"is_disabled": 0, "fusion_lon": 0.0, "fusion_lat": 0.0, "lat": 38.9038565, "type": "electric_scooter", "lon": -76.9900335, "bike_id": "67890cea49d90e41139c830c53613569", "rental_uris": {"android": "https://dc.lft.to/lastmile_qr_scan", "ios": "https://dc.lft.to/lastmile_qr_scan"}, "name": "67890cea49d90e41139c830c53613569", "is_reserved": 0}, {"is_disabled": 0, "fusion_lon": 0.0, "fusion_lat": 0.0, "lat": 38.917923, "type": "electric_scooter", "lon": -77.04159116666666, "bike_id": "0c1223d5fd365df7b3cbdecab93e06e2", "rental_uris": {"android": "https://dc.lft.to/lastmile_qr_scan", "ios": "https://dc.lft.to/lastmile_qr_scan"}, "name": "0c1223d5fd365df7b3cbdecab93e06e2", "is_reserved": 0}, {"is_disabled": 0, "fusion_lon": 0.0, "fusion_lat": 0.0, "lat": 38.920233833333334, "type": "electric_scooter", "lon": -77.03160183333334, "bike_id": "491c79e4503fe30358d24b971fac5834", "rental_uris": {"android": "https://dc.lft.to/lastmile_qr_scan", "ios": "https://dc.lft.to/lastmile_qr_scan"}, "name": "491c79e4503fe30358d24b971fac5834", "is_reserved": 0}, {"is_disabled": 0, "fusion_lon": 0.0, "fusion_lat": 0.0, "lat": 38.898245, "type": "electric_scooter", "lon": -76.946533, "bike_id": "653c0e20c6d082e4fc694c8774a4db33", "rental_uris": {"android": "https://dc.lft.to/lastmile_qr_scan", "ios": "https://dc.lft.to/lastmile_qr_scan"}, "name": "653c0e20c6d082e4fc694c8774a4db33", "is_reserved": 0}, {"is_disabled": 0, "fusion_lon": 0.0, "fusion_lat": 0.0, "lat": 38.89774716666667, "type": "electric_scooter", "lon": -77.024784, "bike_id": "f96f2dc3cbab4b6848b162982cad2917", "rental_uris": {"android": "https://dc.lft.to/lastmile_qr_scan", "ios": "https://dc.lft.to/lastmile_qr_scan"}, "name": "f96f2dc3cbab4b6848b162982cad2917", "is_reserved": 0}, {"is_disabled": 0, "fusion_lon": 0.0, "fusion_lat": 0.0, "lat": 38.894549166666664, "type": "electric_scooter", "lon": -77.02186283333333, "bike_id": "0332bab241bc43185621366e85cf698f", "rental_uris": {"android": "https://dc.lft.to/lastmile_qr_scan", "ios": "https://dc.lft.to/lastmile_qr_scan"}, "name": "0332bab241bc43185621366e85cf698f", "is_reserved": 0}, {"is_disabled": 0, "fusion_lon": 0.0, "fusion_lat": 0.0, "lat": 38.925344, "type": "electric_scooter", "lon": -77.07318833333333, "bike_id": "7b2762294b55739225d9fc1f05b11170", "rental_uris": {"android": "https://dc.lft.to/lastmile_qr_scan", "ios": "https://dc.lft.to/lastmile_qr_scan"}, "name": "7b2762294b55739225d9fc1f05b11170", "is_reserved": 0}, {"is_disabled": 0, "fusion_lon": 0.0, "fusion_lat": 0.0, "lat": 38.934475666666664, "type": "electric_scooter", "lon": -77.0305455, "bike_id": "a1476fe7fb1f8b931a60461dce5404c7", "rental_uris": {"android": "https://dc.lft.to/lastmile_qr_scan", "ios": "https://dc.lft.to/lastmile_qr_scan"}, "name": "a1476fe7fb1f8b931a60461dce5404c7", "is_reserved": 0}, {"is_disabled": 0, "fusion_lon": 0.0, "fusion_lat": 0.0, "lat": 38.89717783333333, "type": "electric_scooter", "lon": -77.02156716666667, "bike_id": "ac9f792e34dd58db91d98ddeda21fcc3", "rental_uris": {"android": "https://dc.lft.to/lastmile_qr_scan", "ios": "https://dc.lft.to/lastmile_qr_scan"}, "name": "ac9f792e34dd58db91d98ddeda21fcc3", "is_reserved": 0}, {"is_disabled": 0, "fusion_lon": 0.0, "fusion_lat": 0.0, "lat": 38.9181375, "type": "electric_scooter", "lon": -77.03806766666666, "bike_id": "0a0bf0c967e40e23c942fb369be9df08", "rental_uris": {"android": "https://dc.lft.to/lastmile_qr_scan", "ios": "https://dc.lft.to/lastmile_qr_scan"}, "name": "0a0bf0c967e40e23c942fb369be9df08", "is_reserved": 0}, {"is_disabled": 0, "fusion_lon": 0.0, "fusion_lat": 0.0, "lat": 38.9290785, "type": "electric_scooter", "lon": -77.03171166666667, "bike_id": "fb361defddeacc7dbf75f9fd97898ae5", "rental_uris": {"android": "https://dc.lft.to/lastmile_qr_scan", "ios": "https://dc.lft.to/lastmile_qr_scan"}, "name": "fb361defddeacc7dbf75f9fd97898ae5", "is_reserved": 0}, {"is_disabled": 0, "fusion_lon": 0.0, "fusion_lat": 0.0, "lat": 38.866985, "type": "electric_scooter", "lon": -76.9871345, "bike_id": "eaf7e710ef9b07b9127d302674309811", "rental_uris": {"android": "https://dc.lft.to/lastmile_qr_scan", "ios": "https://dc.lft.to/lastmile_qr_scan"}, "name": "eaf7e710ef9b07b9127d302674309811", "is_reserved": 0}, {"is_disabled": 0, "fusion_lon": 0.0, "fusion_lat": 0.0, "lat": 38.95266016666667, "type": "electric_scooter", "lon": -77.068606, "bike_id": "e82729346e41c1f81d58f13fe8927b92", "rental_uris": {"android": "https://dc.lft.to/lastmile_qr_scan", "ios": "https://dc.lft.to/lastmile_qr_scan"}, "name": "e82729346e41c1f81d58f13fe8927b92", "is_reserved": 0}, {"is_disabled": 0, "fusion_lon": 0.0, "fusion_lat": 0.0, "lat": 38.91128533333333, "type": "electric_scooter", "lon": -77.02206566666666, "bike_id": "118851f68535cb71aec634a866ecd2e9", "rental_uris": {"android": "https://dc.lft.to/lastmile_qr_scan", "ios": "https://dc.lft.to/lastmile_qr_scan"}, "name": "118851f68535cb71aec634a866ecd2e9", "is_reserved": 0}, {"is_disabled": 0, "fusion_lon": 0.0, "fusion_lat": 0.0, "lat": 38.9528525, "type": "electric_scooter", "lon": -77.0006365, "bike_id": "aa514eef2a7dfcebb11025c8348587b3", "rental_uris": {"android": "https://dc.lft.to/lastmile_qr_scan", "ios": "https://dc.lft.to/lastmile_qr_scan"}, "name": "aa514eef2a7dfcebb11025c8348587b3", "is_reserved": 0}, {"is_disabled": 0, "fusion_lon": 0.0, "fusion_lat": 0.0, "lat": 38.90531566666667, "type": "electric_scooter", "lon": -77.0433875, "bike_id": "308a6338b30222042f9af400fd9b4125", "rental_uris": {"android": "https://dc.lft.to/lastmile_qr_scan", "ios": "https://dc.lft.to/lastmile_qr_scan"}, "name": "308a6338b30222042f9af400fd9b4125", "is_reserved": 0}, {"is_disabled": 0, "fusion_lon": 0.0, "fusion_lat": 0.0, "lat": 38.9026885, "type": "electric_scooter", "lon": -77.02189833333334, "bike_id": "17c94cdf4aabd62c9512cc5be85ac975", "rental_uris": {"android": "https://dc.lft.to/lastmile_qr_scan", "ios": "https://dc.lft.to/lastmile_qr_scan"}, "name": "17c94cdf4aabd62c9512cc5be85ac975", "is_reserved": 0}, {"is_disabled": 0, "fusion_lon": 0.0, "fusion_lat": 0.0, "lat": 38.92095883333333, "type": "electric_scooter", "lon": -77.03167033333334, "bike_id": "42457f004bb48df813466b8738ad7975", "rental_uris": {"android": "https://dc.lft.to/lastmile_qr_scan", "ios": "https://dc.lft.to/lastmile_qr_scan"}, "name": "42457f004bb48df813466b8738ad7975", "is_reserved": 0}, {"is_disabled": 0, "fusion_lon": 0.0, "fusion_lat": 0.0, "lat": 38.92200916666667, "type": "electric_scooter", "lon": -77.0425015, "bike_id": "e171b560edcf7803ed0e0e6d37e690b2", "rental_uris": {"android": "https://dc.lft.to/lastmile_qr_scan", "ios": "https://dc.lft.to/lastmile_qr_scan"}, "name": "e171b560edcf7803ed0e0e6d37e690b2", "is_reserved": 0}, {"is_disabled": 0, "fusion_lon": 0.0, "fusion_lat": 0.0, "lat": 38.91796083333333, "type": "electric_scooter", "lon": -77.04155083333333, "bike_id": "41934fb5493709ebfe22bbf2594c09cf", "rental_uris": {"android": "https://dc.lft.to/lastmile_qr_scan", "ios": "https://dc.lft.to/lastmile_qr_scan"}, "name": "41934fb5493709ebfe22bbf2594c09cf", "is_reserved": 0}, {"is_disabled": 0, "fusion_lon": 0.0, "fusion_lat": 0.0, "lat": 38.907269, "type": "electric_scooter", "lon": -77.02251866666667, "bike_id": "94f2321141221d29912b93df7df48684", "rental_uris": {"android": "https://dc.lft.to/lastmile_qr_scan", "ios": "https://dc.lft.to/lastmile_qr_scan"}, "name": "94f2321141221d29912b93df7df48684", "is_reserved": 0}, {"is_disabled": 0, "fusion_lon": 0.0, "fusion_lat": 0.0, "lat": 38.903610666666665, "type": "electric_scooter", "lon": -77.0592205, "bike_id": "cb428ed853f8372ea8b1d651fefbbb29", "rental_uris": {"android": "https://dc.lft.to/lastmile_qr_scan", "ios": "https://dc.lft.to/lastmile_qr_scan"}, "name": "cb428ed853f8372ea8b1d651fefbbb29", "is_reserved": 0}, {"is_disabled": 0, "fusion_lon": 0.0, "fusion_lat": 0.0, "lat": 38.917065, "type": "electric_scooter", "lon": -77.02790083333333, "bike_id": "75399fdb31b8133886a7e15631f39823", "rental_uris": {"android": "https://dc.lft.to/lastmile_qr_scan", "ios": "https://dc.lft.to/lastmile_qr_scan"}, "name": "75399fdb31b8133886a7e15631f39823", "is_reserved": 0}, {"is_disabled": 0, "fusion_lon": 0.0, "fusion_lat": 0.0, "lat": 38.951801333333336, "type": "electric_scooter", "lon": -77.02770716666667, "bike_id": "b3ed96f56c80b2b6755166a90cec6d7d", "rental_uris": {"android": "https://dc.lft.to/lastmile_qr_scan", "ios": "https://dc.lft.to/lastmile_qr_scan"}, "name": "b3ed96f56c80b2b6755166a90cec6d7d", "is_reserved": 0}, {"is_disabled": 0, "fusion_lon": 0.0, "fusion_lat": 0.0, "lat": 38.8747405, "type": "electric_scooter", "lon": -77.0209055, "bike_id": "69506ca7c80c0d58d25c929feab43025", "rental_uris": {"android": "https://dc.lft.to/lastmile_qr_scan", "ios": "https://dc.lft.to/lastmile_qr_scan"}, "name": "69506ca7c80c0d58d25c929feab43025", "is_reserved": 0}, {"is_disabled": 0, "fusion_lon": 0.0, "fusion_lat": 0.0, "lat": 38.8244335, "type": "electric_bike", "lon": -77.07049933333333, "bike_id": "9f4242f6f404d4f4e35ea6ea8e87081d", "rental_uris": {"android": "https://dc.lft.to/lastmile_qr_scan", "ios": "https://dc.lft.to/lastmile_qr_scan"}, "name": "9f4242f6f404d4f4e35ea6ea8e87081d", "is_reserved": 0}, {"is_disabled": 0, "fusion_lon": 0.0, "fusion_lat": 0.0, "lat": 38.89831133333333, "type": "electric_scooter", "lon": -76.946327, "bike_id": "25b58b8b57dd86c4ecbeb0b46b7f1ae5", "rental_uris": {"android": "https://dc.lft.to/lastmile_qr_scan", "ios": "https://dc.lft.to/lastmile_qr_scan"}, "name": "25b58b8b57dd86c4ecbeb0b46b7f1ae5", "is_reserved": 0}, {"is_disabled": 0, "fusion_lon": 0.0, "fusion_lat": 0.0, "lat": 38.88531716666667, "type": "electric_scooter", "lon": -76.9270255, "bike_id": "41ffb38018c939f7fea605926d230d38", "rental_uris": {"android": "https://dc.lft.to/lastmile_qr_scan", "ios": "https://dc.lft.to/lastmile_qr_scan"}, "name": "41ffb38018c939f7fea605926d230d38", "is_reserved": 0}, {"is_disabled": 0, "fusion_lon": 0.0, "fusion_lat": 0.0, "lat": 38.90201033333334, "type": "electric_scooter", "lon": -77.02424966666666, "bike_id": "b36d3461386041e9a1529a43176e66e3", "rental_uris": {"android": "https://dc.lft.to/lastmile_qr_scan", "ios": "https://dc.lft.to/lastmile_qr_scan"}, "name": "b36d3461386041e9a1529a43176e66e3", "is_reserved": 0}, {"is_disabled": 0, "fusion_lon": 0.0, "fusion_lat": 0.0, "lat": 38.9279785, "type": "electric_scooter", "lon": -77.05352266666667, "bike_id": "c0b82d38e66ac1f6af5a334175e61583", "rental_uris": {"android": "https://dc.lft.to/lastmile_qr_scan", "ios": "https://dc.lft.to/lastmile_qr_scan"}, "name": "c0b82d38e66ac1f6af5a334175e61583", "is_reserved": 0}, {"is_disabled": 0, "fusion_lon": 0.0, "fusion_lat": 0.0, "lat": 38.8973075, "type": "electric_scooter", "lon": -77.021699, "bike_id": "783646be0ad6486703f05979ce6cd0e1", "rental_uris": {"android": "https://dc.lft.to/lastmile_qr_scan", "ios": "https://dc.lft.to/lastmile_qr_scan"}, "name": "783646be0ad6486703f05979ce6cd0e1", "is_reserved": 0}, {"is_disabled": 0, "fusion_lon": 0.0, "fusion_lat": 0.0, "lat": 38.902089333333336, "type": "electric_scooter", "lon": -77.024237, "bike_id": "840fe3aa15aade42f20a80ae56a0d85d", "rental_uris": {"android": "https://dc.lft.to/lastmile_qr_scan", "ios": "https://dc.lft.to/lastmile_qr_scan"}, "name": "840fe3aa15aade42f20a80ae56a0d85d", "is_reserved": 0}, {"is_disabled": 0, "fusion_lon": 0.0, "fusion_lat": 0.0, "lat": 38.897381833333334, "type": "electric_scooter", "lon": -77.00036133333333, "bike_id": "7ad8ef561c1bdfcb02d9cd54048c3939", "rental_uris": {"android": "https://dc.lft.to/lastmile_qr_scan", "ios": "https://dc.lft.to/lastmile_qr_scan"}, "name": "7ad8ef561c1bdfcb02d9cd54048c3939", "is_reserved": 0}, {"is_disabled": 0, "fusion_lon": 0.0, "fusion_lat": 0.0, "lat": 38.930280833333335, "type": "electric_scooter", "lon": -77.03456916666667, "bike_id": "2030008c046d1b173b1b6086d28198c4", "rental_uris": {"android": "https://dc.lft.to/lastmile_qr_scan", "ios": "https://dc.lft.to/lastmile_qr_scan"}, "name": "2030008c046d1b173b1b6086d28198c4", "is_reserved": 0}, {"is_disabled": 0, "fusion_lon": 0.0, "fusion_lat": 0.0, "lat": 38.827796166666666, "type": "electric_bike", "lon": -77.11079516666666, "bike_id": "da067261df48167639118093b7a96650", "rental_uris": {"android": "https://dc.lft.to/lastmile_qr_scan", "ios": "https://dc.lft.to/lastmile_qr_scan"}, "name": "da067261df48167639118093b7a96650", "is_reserved": 0}, {"is_disabled": 0, "fusion_lon": 0.0, "fusion_lat": 0.0, "lat": 38.93968983333333, "type": "electric_scooter", "lon": -77.03281933333334, "bike_id": "a5003be4f1be0f2e366bce0e307b46bd", "rental_uris": {"android": "https://dc.lft.to/lastmile_qr_scan", "ios": "https://dc.lft.to/lastmile_qr_scan"}, "name": "a5003be4f1be0f2e366bce0e307b46bd", "is_reserved": 0}, {"is_disabled": 0, "fusion_lon": 0.0, "fusion_lat": 0.0, "lat": 38.95614966666667, "type": "electric_scooter", "lon": -77.0276, "bike_id": "2e7d33704955307a7f267ccaf196aa59", "rental_uris": {"android": "https://dc.lft.to/lastmile_qr_scan", "ios": "https://dc.lft.to/lastmile_qr_scan"}, "name": "2e7d33704955307a7f267ccaf196aa59", "is_reserved": 0}, {"is_disabled": 0, "fusion_lon": 0.0, "fusion_lat": 0.0, "lat": 38.896623166666664, "type": "electric_bike", "lon": -77.00640316666667, "bike_id": "cc5843e98394a82f428aeb8956a2b797", "rental_uris": {"android": "https://dc.lft.to/lastmile_qr_scan", "ios": "https://dc.lft.to/lastmile_qr_scan"}, "name": "cc5843e98394a82f428aeb8956a2b797", "is_reserved": 0}, {"is_disabled": 0, "fusion_lon": 0.0, "fusion_lat": 0.0, "lat": 38.8966815, "type": "electric_scooter", "lon": -77.05154183333333, "bike_id": "1e74eda83820dbd63689f87d0f21abd7", "rental_uris": {"android": "https://dc.lft.to/lastmile_qr_scan", "ios": "https://dc.lft.to/lastmile_qr_scan"}, "name": "1e74eda83820dbd63689f87d0f21abd7", "is_reserved": 0}, {"is_disabled": 0, "fusion_lon": 0.0, "fusion_lat": 0.0, "lat": 38.9017465, "type": "electric_scooter", "lon": -77.026202, "bike_id": "5cbd85ccb6f8b811f0c3e5769163f764", "rental_uris": {"android": "https://dc.lft.to/lastmile_qr_scan", "ios": "https://dc.lft.to/lastmile_qr_scan"}, "name": "5cbd85ccb6f8b811f0c3e5769163f764", "is_reserved": 0}, {"is_disabled": 0, "fusion_lon": 0.0, "fusion_lat": 0.0, "lat": 38.90965333333333, "type": "electric_scooter", "lon": -77.06767116666667, "bike_id": "19b62ae69fc5539357a6b4a1de695b9d", "rental_uris": {"android": "https://dc.lft.to/lastmile_qr_scan", "ios": "https://dc.lft.to/lastmile_qr_scan"}, "name": "19b62ae69fc5539357a6b4a1de695b9d", "is_reserved": 0}, {"is_disabled": 0, "fusion_lon": 0.0, "fusion_lat": 0.0, "lat": 38.876224, "type": "electric_scooter", "lon": -76.965365, "bike_id": "e5143ead7589285d6cc200244ce43437", "rental_uris": {"android": "https://dc.lft.to/lastmile_qr_scan", "ios": "https://dc.lft.to/lastmile_qr_scan"}, "name": "e5143ead7589285d6cc200244ce43437", "is_reserved": 0}, {"is_disabled": 0, "fusion_lon": 0.0, "fusion_lat": 0.0, "lat": 38.925739166666666, "type": "electric_bike", "lon": -76.99502283333334, "bike_id": "cb7e0a347cb2515fbb1d37219dc40654", "rental_uris": {"android": "https://dc.lft.to/lastmile_qr_scan", "ios": "https://dc.lft.to/lastmile_qr_scan"}, "name": "cb7e0a347cb2515fbb1d37219dc40654", "is_reserved": 0}, {"is_disabled": 0, "fusion_lon": 0.0, "fusion_lat": 0.0, "lat": 38.929605333333335, "type": "electric_scooter", "lon": -77.055195, "bike_id": "98007d62fd358157b395c74916d2d25e", "rental_uris": {"android": "https://dc.lft.to/lastmile_qr_scan", "ios": "https://dc.lft.to/lastmile_qr_scan"}, "name": "98007d62fd358157b395c74916d2d25e", "is_reserved": 0}, {"is_disabled": 0, "fusion_lon": 0.0, "fusion_lat": 0.0, "lat": 38.92062966666667, "type": "electric_scooter", "lon": -77.00051966666666, "bike_id": "f998aa127ed0dcbf05daa1083689bb9e", "rental_uris": {"android": "https://dc.lft.to/lastmile_qr_scan", "ios": "https://dc.lft.to/lastmile_qr_scan"}, "name": "f998aa127ed0dcbf05daa1083689bb9e", "is_reserved": 0}, {"is_disabled": 0, "fusion_lon": 0.0, "fusion_lat": 0.0, "lat": 38.9118195, "type": "electric_scooter", "lon": -77.0383255, "bike_id": "f340f431ac52093abfbbdfc2d8bac17f", "rental_uris": {"android": "https://dc.lft.to/lastmile_qr_scan", "ios": "https://dc.lft.to/lastmile_qr_scan"}, "name": "f340f431ac52093abfbbdfc2d8bac17f", "is_reserved": 0}, {"is_disabled": 0, "fusion_lon": 0.0, "fusion_lat": 0.0, "lat": 38.885837333333335, "type": "electric_scooter", "lon": -77.01986366666667, "bike_id": "0ce185cd5a10d5ba1c9bd3f337bba818", "rental_uris": {"android": "https://dc.lft.to/lastmile_qr_scan", "ios": "https://dc.lft.to/lastmile_qr_scan"}, "name": "0ce185cd5a10d5ba1c9bd3f337bba818", "is_reserved": 0}, {"is_disabled": 0, "fusion_lon": 0.0, "fusion_lat": 0.0, "lat": 38.99087, "type": "electric_bike", "lon": -76.87493483333333, "bike_id": "573089ca06e194d0f34f741d6f7e55dc", "rental_uris": {"android": "https://dc.lft.to/lastmile_qr_scan", "ios": "https://dc.lft.to/lastmile_qr_scan"}, "name": "573089ca06e194d0f34f741d6f7e55dc", "is_reserved": 0}, {"is_disabled": 0, "fusion_lon": 0.0, "fusion_lat": 0.0, "lat": 38.909681666666664, "type": "electric_scooter", "lon": -77.04749283333334, "bike_id": "41a5a073fa31352bd0fa0484bb649fd2", "rental_uris": {"android": "https://dc.lft.to/lastmile_qr_scan", "ios": "https://dc.lft.to/lastmile_qr_scan"}, "name": "41a5a073fa31352bd0fa0484bb649fd2", "is_reserved": 0}, {"is_disabled": 0, "fusion_lon": 0.0, "fusion_lat": 0.0, "lat": 38.92255016666667, "type": "electric_scooter", "lon": -77.07133866666666, "bike_id": "4c0b5b26efb6b233a43e7a60c958cd40", "rental_uris": {"android": "https://dc.lft.to/lastmile_qr_scan", "ios": "https://dc.lft.to/lastmile_qr_scan"}, "name": "4c0b5b26efb6b233a43e7a60c958cd40", "is_reserved": 0}, {"is_disabled": 0, "fusion_lon": 0.0, "fusion_lat": 0.0, "lat": 38.898365166666665, "type": "electric_scooter", "lon": -77.029343, "bike_id": "e0bf8410c209d32b3b3cb99580941c15", "rental_uris": {"android": "https://dc.lft.to/lastmile_qr_scan", "ios": "https://dc.lft.to/lastmile_qr_scan"}, "name": "e0bf8410c209d32b3b3cb99580941c15", "is_reserved": 0}, {"is_disabled": 0, "fusion_lon": 0.0, "fusion_lat": 0.0, "lat": 38.920665, "type": "electric_scooter", "lon": -77.0437865, "bike_id": "4d22ea6a738497fcdae28133d0c58493", "rental_uris": {"android": "https://dc.lft.to/lastmile_qr_scan", "ios": "https://dc.lft.to/lastmile_qr_scan"}, "name": "4d22ea6a738497fcdae28133d0c58493", "is_reserved": 0}, {"is_disabled": 0, "fusion_lon": 0.0, "fusion_lat": 0.0, "lat": 38.904665666666666, "type": "electric_scooter", "lon": -76.99206, "bike_id": "23ac57e1b8906429fbc994e77ac35791", "rental_uris": {"android": "https://dc.lft.to/lastmile_qr_scan", "ios": "https://dc.lft.to/lastmile_qr_scan"}, "name": "23ac57e1b8906429fbc994e77ac35791", "is_reserved": 0}, {"is_disabled": 0, "fusion_lon": 0.0, "fusion_lat": 0.0, "lat": 38.9077735, "type": "electric_scooter", "lon": -76.9412645, "bike_id": "9b6427a471d1bb127f8fb4a2bb144875", "rental_uris": {"android": "https://dc.lft.to/lastmile_qr_scan", "ios": "https://dc.lft.to/lastmile_qr_scan"}, "name": "9b6427a471d1bb127f8fb4a2bb144875", "is_reserved": 0}, {"is_disabled": 0, "fusion_lon": 0.0, "fusion_lat": 0.0, "lat": 38.914629, "type": "electric_scooter", "lon": -77.01430133333334, "bike_id": "5943218f94e66b403487f75c127320a8", "rental_uris": {"android": "https://dc.lft.to/lastmile_qr_scan", "ios": "https://dc.lft.to/lastmile_qr_scan"}, "name": "5943218f94e66b403487f75c127320a8", "is_reserved": 0}, {"is_disabled": 0, "fusion_lon": 0.0, "fusion_lat": 0.0, "lat": 38.90208783333333, "type": "electric_scooter", "lon": -77.0243505, "bike_id": "6d36714073752d799313372bebb0b7e3", "rental_uris": {"android": "https://dc.lft.to/lastmile_qr_scan", "ios": "https://dc.lft.to/lastmile_qr_scan"}, "name": "6d36714073752d799313372bebb0b7e3", "is_reserved": 0}, {"is_disabled": 0, "fusion_lon": 0.0, "fusion_lat": 0.0, "lat": 38.914310666666665, "type": "electric_scooter", "lon": -77.028132, "bike_id": "f7bed98e85759eb0a336a61978d73e6a", "rental_uris": {"android": "https://dc.lft.to/lastmile_qr_scan", "ios": "https://dc.lft.to/lastmile_qr_scan"}, "name": "f7bed98e85759eb0a336a61978d73e6a", "is_reserved": 0}, {"is_disabled": 0, "fusion_lon": 0.0, "fusion_lat": 0.0, "lat": 38.92232166666667, "type": "electric_scooter", "lon": -77.0233385, "bike_id": "b4fe31d0c0866bda4443a93f9c682fcd", "rental_uris": {"android": "https://dc.lft.to/lastmile_qr_scan", "ios": "https://dc.lft.to/lastmile_qr_scan"}, "name": "b4fe31d0c0866bda4443a93f9c682fcd", "is_reserved": 0}, {"is_disabled": 0, "fusion_lon": 0.0, "fusion_lat": 0.0, "lat": 38.8709, "type": "electric_scooter", "lon": -77.00815816666666, "bike_id": "8e65658a8541e9b29f7d1b5357c14f58", "rental_uris": {"android": "https://dc.lft.to/lastmile_qr_scan", "ios": "https://dc.lft.to/lastmile_qr_scan"}, "name": "8e65658a8541e9b29f7d1b5357c14f58", "is_reserved": 0}, {"is_disabled": 0, "fusion_lon": 0.0, "fusion_lat": 0.0, "lat": 38.886661833333335, "type": "electric_scooter", "lon": -77.003541, "bike_id": "9d486a0cd11e3a5a6f06e1382c0ce1ad", "rental_uris": {"android": "https://dc.lft.to/lastmile_qr_scan", "ios": "https://dc.lft.to/lastmile_qr_scan"}, "name": "9d486a0cd11e3a5a6f06e1382c0ce1ad", "is_reserved": 0}, {"is_disabled": 0, "fusion_lon": 0.0, "fusion_lat": 0.0, "lat": 38.91766616666666, "type": "electric_scooter", "lon": -77.0406085, "bike_id": "1915eb04340835ca911af56712b1890f", "rental_uris": {"android": "https://dc.lft.to/lastmile_qr_scan", "ios": "https://dc.lft.to/lastmile_qr_scan"}, "name": "1915eb04340835ca911af56712b1890f", "is_reserved": 0}, {"is_disabled": 0, "fusion_lon": 0.0, "fusion_lat": 0.0, "lat": 38.90992833333333, "type": "electric_scooter", "lon": -77.02231016666667, "bike_id": "0573045fd740a2461fa1919ef95fb883", "rental_uris": {"android": "https://dc.lft.to/lastmile_qr_scan", "ios": "https://dc.lft.to/lastmile_qr_scan"}, "name": "0573045fd740a2461fa1919ef95fb883", "is_reserved": 0}, {"is_disabled": 0, "fusion_lon": 0.0, "fusion_lat": 0.0, "lat": 38.96814033333333, "type": "electric_scooter", "lon": -77.00888533333334, "bike_id": "b23b38d523ef61bc41515fd841f6e70d", "rental_uris": {"android": "https://dc.lft.to/lastmile_qr_scan", "ios": "https://dc.lft.to/lastmile_qr_scan"}, "name": "b23b38d523ef61bc41515fd841f6e70d", "is_reserved": 0}, {"is_disabled": 0, "fusion_lon": 0.0, "fusion_lat": 0.0, "lat": 38.90543533333334, "type": "electric_scooter", "lon": -77.02200316666666, "bike_id": "75518f1c530086f2f50e82b8c46c8f9a", "rental_uris": {"android": "https://dc.lft.to/lastmile_qr_scan", "ios": "https://dc.lft.to/lastmile_qr_scan"}, "name": "75518f1c530086f2f50e82b8c46c8f9a", "is_reserved": 0}, {"is_disabled": 0, "fusion_lon": 0.0, "fusion_lat": 0.0, "lat": 38.9184485, "type": "electric_scooter", "lon": -77.0243675, "bike_id": "1ff44cdddf40867bf7a592ff8613ab99", "rental_uris": {"android": "https://dc.lft.to/lastmile_qr_scan", "ios": "https://dc.lft.to/lastmile_qr_scan"}, "name": "1ff44cdddf40867bf7a592ff8613ab99", "is_reserved": 0}, {"is_disabled": 0, "fusion_lon": 0.0, "fusion_lat": 0.0, "lat": 38.89728316666667, "type": "electric_bike", "lon": -76.905401, "bike_id": "6e1cb43b8e0b3cd412c25bd6a9a659ef", "rental_uris": {"android": "https://dc.lft.to/lastmile_qr_scan", "ios": "https://dc.lft.to/lastmile_qr_scan"}, "name": "6e1cb43b8e0b3cd412c25bd6a9a659ef", "is_reserved": 0}, {"is_disabled": 0, "fusion_lon": 0.0, "fusion_lat": 0.0, "lat": 39.05200966666666, "type": "electric_bike", "lon": -77.0440975, "bike_id": "be1230d912a79f68cc29e4799351b17a", "rental_uris": {"android": "https://dc.lft.to/lastmile_qr_scan", "ios": "https://dc.lft.to/lastmile_qr_scan"}, "name": "be1230d912a79f68cc29e4799351b17a", "is_reserved": 0}, {"is_disabled": 0, "fusion_lon": 0.0, "fusion_lat": 0.0, "lat": 38.90021333333333, "type": "electric_scooter", "lon": -77.046782, "bike_id": "a1a7ce1f79a95d1b88cb54aeb35bacea", "rental_uris": {"android": "https://dc.lft.to/lastmile_qr_scan", "ios": "https://dc.lft.to/lastmile_qr_scan"}, "name": "a1a7ce1f79a95d1b88cb54aeb35bacea", "is_reserved": 0}, {"is_disabled": 0, "fusion_lon": 0.0, "fusion_lat": 0.0, "lat": 38.886875, "type": "electric_scooter", "lon": -77.01389716666667, "bike_id": "8e6d9bfb26a1970dda22ede158d835e5", "rental_uris": {"android": "https://dc.lft.to/lastmile_qr_scan", "ios": "https://dc.lft.to/lastmile_qr_scan"}, "name": "8e6d9bfb26a1970dda22ede158d835e5", "is_reserved": 0}, {"is_disabled": 0, "fusion_lon": 0.0, "fusion_lat": 0.0, "lat": 38.93901733333333, "type": "electric_scooter", "lon": -77.07803116666666, "bike_id": "7816e0ab0f9cfaa11d3a881e7d37027d", "rental_uris": {"android": "https://dc.lft.to/lastmile_qr_scan", "ios": "https://dc.lft.to/lastmile_qr_scan"}, "name": "7816e0ab0f9cfaa11d3a881e7d37027d", "is_reserved": 0}, {"is_disabled": 0, "fusion_lon": 0.0, "fusion_lat": 0.0, "lat": 38.865259, "type": "electric_scooter", "lon": -76.989674, "bike_id": "2a245889674ddfe795cd04d122efcef8", "rental_uris": {"android": "https://dc.lft.to/lastmile_qr_scan", "ios": "https://dc.lft.to/lastmile_qr_scan"}, "name": "2a245889674ddfe795cd04d122efcef8", "is_reserved": 0}, {"is_disabled": 0, "fusion_lon": 0.0, "fusion_lat": 0.0, "lat": 38.931831, "type": "electric_scooter", "lon": -77.04146716666666, "bike_id": "2157562458c2445882ef51694ef0d883", "rental_uris": {"android": "https://dc.lft.to/lastmile_qr_scan", "ios": "https://dc.lft.to/lastmile_qr_scan"}, "name": "2157562458c2445882ef51694ef0d883", "is_reserved": 0}, {"is_disabled": 0, "fusion_lon": 0.0, "fusion_lat": 0.0, "lat": 38.89483533333333, "type": "electric_scooter", "lon": -77.0228285, "bike_id": "e97617c59d295459a1b96ea384f9c998", "rental_uris": {"android": "https://dc.lft.to/lastmile_qr_scan", "ios": "https://dc.lft.to/lastmile_qr_scan"}, "name": "e97617c59d295459a1b96ea384f9c998", "is_reserved": 0}, {"is_disabled": 0, "fusion_lon": 0.0, "fusion_lat": 0.0, "lat": 38.89842633333333, "type": "electric_scooter", "lon": -76.94494533333334, "bike_id": "9ddb04e64b7d0a74e7e14e3600716b47", "rental_uris": {"android": "https://dc.lft.to/lastmile_qr_scan", "ios": "https://dc.lft.to/lastmile_qr_scan"}, "name": "9ddb04e64b7d0a74e7e14e3600716b47", "is_reserved": 0}, {"is_disabled": 0, "fusion_lon": 0.0, "fusion_lat": 0.0, "lat": 38.935530666666665, "type": "electric_scooter", "lon": -77.05901683333333, "bike_id": "6bb09ab45415c214e2226f005ce82d44", "rental_uris": {"android": "https://dc.lft.to/lastmile_qr_scan", "ios": "https://dc.lft.to/lastmile_qr_scan"}, "name": "6bb09ab45415c214e2226f005ce82d44", "is_reserved": 0}, {"is_disabled": 0, "fusion_lon": 0.0, "fusion_lat": 0.0, "lat": 38.90174733333333, "type": "electric_scooter", "lon": -77.04696333333334, "bike_id": "35622ceba7bff5af962a3fbf941c15c4", "rental_uris": {"android": "https://dc.lft.to/lastmile_qr_scan", "ios": "https://dc.lft.to/lastmile_qr_scan"}, "name": "35622ceba7bff5af962a3fbf941c15c4", "is_reserved": 0}, {"is_disabled": 0, "fusion_lon": 0.0, "fusion_lat": 0.0, "lat": 38.88871733333333, "type": "electric_bike", "lon": -77.02854216666667, "bike_id": "816c87f9f255d529185df10b5a953f2b", "rental_uris": {"android": "https://dc.lft.to/lastmile_qr_scan", "ios": "https://dc.lft.to/lastmile_qr_scan"}, "name": "816c87f9f255d529185df10b5a953f2b", "is_reserved": 0}, {"is_disabled": 0, "fusion_lon": 0.0, "fusion_lat": 0.0, "lat": 38.899883833333334, "type": "electric_scooter", "lon": -77.0451295, "bike_id": "825ac1368079b0bde593800917226c14", "rental_uris": {"android": "https://dc.lft.to/lastmile_qr_scan", "ios": "https://dc.lft.to/lastmile_qr_scan"}, "name": "825ac1368079b0bde593800917226c14", "is_reserved": 0}, {"is_disabled": 0, "fusion_lon": 0.0, "fusion_lat": 0.0, "lat": 38.8955215, "type": "electric_scooter", "lon": -76.948743, "bike_id": "80c33453254915fbef4a039a60fef2db", "rental_uris": {"android": "https://dc.lft.to/lastmile_qr_scan", "ios": "https://dc.lft.to/lastmile_qr_scan"}, "name": "80c33453254915fbef4a039a60fef2db", "is_reserved": 0}, {"is_disabled": 0, "fusion_lon": 0.0, "fusion_lat": 0.0, "lat": 38.904268, "type": "electric_scooter", "lon": -77.05140316666666, "bike_id": "c1da3594d14ee038c772060d077a1536", "rental_uris": {"android": "https://dc.lft.to/lastmile_qr_scan", "ios": "https://dc.lft.to/lastmile_qr_scan"}, "name": "c1da3594d14ee038c772060d077a1536", "is_reserved": 0}, {"is_disabled": 0, "fusion_lon": 0.0, "fusion_lat": 0.0, "lat": 38.95629133333333, "type": "electric_scooter", "lon": -77.02294266666667, "bike_id": "08e6d7fd44f07f0fe7d9bac67b5f89c6", "rental_uris": {"android": "https://dc.lft.to/lastmile_qr_scan", "ios": "https://dc.lft.to/lastmile_qr_scan"}, "name": "08e6d7fd44f07f0fe7d9bac67b5f89c6", "is_reserved": 0}, {"is_disabled": 0, "fusion_lon": 0.0, "fusion_lat": 0.0, "lat": 38.91404933333333, "type": "electric_scooter", "lon": -77.03095866666666, "bike_id": "6f9eb3e1a8ee0586b3dc54367186c91e", "rental_uris": {"android": "https://dc.lft.to/lastmile_qr_scan", "ios": "https://dc.lft.to/lastmile_qr_scan"}, "name": "6f9eb3e1a8ee0586b3dc54367186c91e", "is_reserved": 0}, {"is_disabled": 0, "fusion_lon": 0.0, "fusion_lat": 0.0, "lat": 38.89439133333333, "type": "electric_scooter", "lon": -77.02111183333334, "bike_id": "dd1c04cca30d4b0051461b03c746035c", "rental_uris": {"android": "https://dc.lft.to/lastmile_qr_scan", "ios": "https://dc.lft.to/lastmile_qr_scan"}, "name": "dd1c04cca30d4b0051461b03c746035c", "is_reserved": 0}, {"is_disabled": 0, "fusion_lon": 0.0, "fusion_lat": 0.0, "lat": 38.92035583333333, "type": "electric_scooter", "lon": -77.04258266666666, "bike_id": "4266ce99525915d2dbad4174f5804824", "rental_uris": {"android": "https://dc.lft.to/lastmile_qr_scan", "ios": "https://dc.lft.to/lastmile_qr_scan"}, "name": "4266ce99525915d2dbad4174f5804824", "is_reserved": 0}, {"is_disabled": 0, "fusion_lon": 0.0, "fusion_lat": 0.0, "lat": 38.892330666666666, "type": "electric_bike", "lon": -76.95222866666667, "bike_id": "bdb0ad8eb8f3f32f39978bfc080ce5e9", "rental_uris": {"android": "https://dc.lft.to/lastmile_qr_scan", "ios": "https://dc.lft.to/lastmile_qr_scan"}, "name": "bdb0ad8eb8f3f32f39978bfc080ce5e9", "is_reserved": 0}, {"is_disabled": 0, "fusion_lon": 0.0, "fusion_lat": 0.0, "lat": 38.88744916666667, "type": "electric_scooter", "lon": -77.0153865, "bike_id": "d71b55e86270a6a39e6410d23f721aab", "rental_uris": {"android": "https://dc.lft.to/lastmile_qr_scan", "ios": "https://dc.lft.to/lastmile_qr_scan"}, "name": "d71b55e86270a6a39e6410d23f721aab", "is_reserved": 0}, {"is_disabled": 0, "fusion_lon": 0.0, "fusion_lat": 0.0, "lat": 38.938574, "type": "electric_scooter", "lon": -77.02649816666667, "bike_id": "59b9ca1289bb11c59a5cbf7ba1c24c1a", "rental_uris": {"android": "https://dc.lft.to/lastmile_qr_scan", "ios": "https://dc.lft.to/lastmile_qr_scan"}, "name": "59b9ca1289bb11c59a5cbf7ba1c24c1a", "is_reserved": 0}, {"is_disabled": 0, "fusion_lon": 0.0, "fusion_lat": 0.0, "lat": 38.9258595, "type": "electric_bike", "lon": -76.88899833333333, "bike_id": "2cc1e14454583486d4c03ebb2a3d49cd", "rental_uris": {"android": "https://dc.lft.to/lastmile_qr_scan", "ios": "https://dc.lft.to/lastmile_qr_scan"}, "name": "2cc1e14454583486d4c03ebb2a3d49cd", "is_reserved": 0}, {"is_disabled": 0, "fusion_lon": 0.0, "fusion_lat": 0.0, "lat": 38.87284233333333, "type": "electric_scooter", "lon": -76.977316, "bike_id": "9afae933910153ae37eee4cf9d0655c5", "rental_uris": {"android": "https://dc.lft.to/lastmile_qr_scan", "ios": "https://dc.lft.to/lastmile_qr_scan"}, "name": "9afae933910153ae37eee4cf9d0655c5", "is_reserved": 0}, {"is_disabled": 0, "fusion_lon": 0.0, "fusion_lat": 0.0, "lat": 38.908486, "type": "electric_scooter", "lon": -77.07150716666666, "bike_id": "b94ee4d2f50f89612ff4b0fcc2e0c285", "rental_uris": {"android": "https://dc.lft.to/lastmile_qr_scan", "ios": "https://dc.lft.to/lastmile_qr_scan"}, "name": "b94ee4d2f50f89612ff4b0fcc2e0c285", "is_reserved": 0}, {"is_disabled": 0, "fusion_lon": 0.0, "fusion_lat": 0.0, "lat": 38.96921016666667, "type": "electric_bike", "lon": -77.02624316666666, "bike_id": "a5d0be0f197f7a3133846ac7af0e694e", "rental_uris": {"android": "https://dc.lft.to/lastmile_qr_scan", "ios": "https://dc.lft.to/lastmile_qr_scan"}, "name": "a5d0be0f197f7a3133846ac7af0e694e", "is_reserved": 0}, {"is_disabled": 0, "fusion_lon": 0.0, "fusion_lat": 0.0, "lat": 38.911901666666665, "type": "electric_scooter", "lon": -77.03851083333333, "bike_id": "3c7296e1932365126a9612cd331b4b58", "rental_uris": {"android": "https://dc.lft.to/lastmile_qr_scan", "ios": "https://dc.lft.to/lastmile_qr_scan"}, "name": "3c7296e1932365126a9612cd331b4b58", "is_reserved": 0}, {"is_disabled": 0, "fusion_lon": 0.0, "fusion_lat": 0.0, "lat": 38.892298, "type": "electric_scooter", "lon": -77.05003633333334, "bike_id": "5bbb976ba7d4716ef375f60f9dbf7a09", "rental_uris": {"android": "https://dc.lft.to/lastmile_qr_scan", "ios": "https://dc.lft.to/lastmile_qr_scan"}, "name": "5bbb976ba7d4716ef375f60f9dbf7a09", "is_reserved": 0}, {"is_disabled": 0, "fusion_lon": 0.0, "fusion_lat": 0.0, "lat": 38.9044365, "type": "electric_scooter", "lon": -77.0268755, "bike_id": "343e3630c5004ec8c62520adfd2427b7", "rental_uris": {"android": "https://dc.lft.to/lastmile_qr_scan", "ios": "https://dc.lft.to/lastmile_qr_scan"}, "name": "343e3630c5004ec8c62520adfd2427b7", "is_reserved": 0}, {"is_disabled": 0, "fusion_lon": 0.0, "fusion_lat": 0.0, "lat": 38.899104666666666, "type": "electric_scooter", "lon": -76.93394, "bike_id": "f0096e897c7e6dd1475f2717789b8662", "rental_uris": {"android": "https://dc.lft.to/lastmile_qr_scan", "ios": "https://dc.lft.to/lastmile_qr_scan"}, "name": "f0096e897c7e6dd1475f2717789b8662", "is_reserved": 0}, {"is_disabled": 0, "fusion_lon": 0.0, "fusion_lat": 0.0, "lat": 38.91846, "type": "electric_scooter", "lon": -77.02966766666667, "bike_id": "44263919679c452e8b731735009c53b2", "rental_uris": {"android": "https://dc.lft.to/lastmile_qr_scan", "ios": "https://dc.lft.to/lastmile_qr_scan"}, "name": "44263919679c452e8b731735009c53b2", "is_reserved": 0}, {"is_disabled": 0, "fusion_lon": 0.0, "fusion_lat": 0.0, "lat": 38.9191055, "type": "electric_scooter", "lon": -77.041528, "bike_id": "0c3d41cee98ab71e28d66bae3a957213", "rental_uris": {"android": "https://dc.lft.to/lastmile_qr_scan", "ios": "https://dc.lft.to/lastmile_qr_scan"}, "name": "0c3d41cee98ab71e28d66bae3a957213", "is_reserved": 0}, {"is_disabled": 0, "fusion_lon": 0.0, "fusion_lat": 0.0, "lat": 38.90245983333333, "type": "electric_scooter", "lon": -77.03444783333333, "bike_id": "e195dcedac0ac0a95d5d91aa88c9baf2", "rental_uris": {"android": "https://dc.lft.to/lastmile_qr_scan", "ios": "https://dc.lft.to/lastmile_qr_scan"}, "name": "e195dcedac0ac0a95d5d91aa88c9baf2", "is_reserved": 0}, {"is_disabled": 0, "fusion_lon": 0.0, "fusion_lat": 0.0, "lat": 38.921897, "type": "electric_scooter", "lon": -77.04343983333334, "bike_id": "db890e1d34e1d427e2bc460c6447e3c7", "rental_uris": {"android": "https://dc.lft.to/lastmile_qr_scan", "ios": "https://dc.lft.to/lastmile_qr_scan"}, "name": "db890e1d34e1d427e2bc460c6447e3c7", "is_reserved": 0}, {"is_disabled": 0, "fusion_lon": 0.0, "fusion_lat": 0.0, "lat": 38.912871833333334, "type": "electric_scooter", "lon": -76.9869115, "bike_id": "b0b2f885c7e8c0022f115327efa11c5e", "rental_uris": {"android": "https://dc.lft.to/lastmile_qr_scan", "ios": "https://dc.lft.to/lastmile_qr_scan"}, "name": "b0b2f885c7e8c0022f115327efa11c5e", "is_reserved": 0},