{"data": {"bikes": [{"rental_uris": {"ios": "https://dc.lft.to/lastmile_qr_scan", "android": "https://dc.lft.to/lastmile_qr_scan"}, "lon": -76.93930066666667, "type": "electric_scooter", "fusion_lat": 0.0, "lat": 38.89296733333333, "name": "6b948856cd737d8e579d09bb7822bedd", "fusion_lon": 0.0, "bike_id": "6b948856cd737d8e579d09bb7822bedd", "is_disabled": 0, "is_reserved": 0}, {"rental_uris": {"ios": "https://dc.lft.to/lastmile_qr_scan", "android": "https://dc.lft.to/lastmile_qr_scan"}, "lon": -77.01435583333334, "type": "electric_scooter", "fusion_lat": 0.0, "lat": 38.906411, "name": "97351154aa1878aa4221a7387f4bfd0d", "fusion_lon": 0.0, "bike_id": "97351154aa1878aa4221a7387f4bfd0d", "is_disabled": 0, "is_reserved": 0}, {"rental_uris": {"ios": "https://dc.lft.to/lastmile_qr_scan", "android": "https://dc.lft.to/lastmile_qr_scan"}, "lon": -77.00711483333333, "type": "electric_scooter", "fusion_lat": 0.0, "lat": 38.884921, "name": "f00492a7cee9f0d28d407b669d46cb90", "fusion_lon": 0.0, "bike_id": "f00492a7cee9f0d28d407b669d46cb90", "is_disabled": 0, "is_reserved": 0}, {"rental_uris": {"ios": "https://dc.lft.to/lastmile_qr_scan", "android": "https://dc.lft.to/lastmile_qr_scan"}, "lon": -76.98069466666666, "type": "electric_scooter", "fusion_lat": 0.0, "lat": 38.90168233333333, "name": "59cf373b5a6845ebb0e8cb9429e985c0", "fusion_lon": 0.0, "bike_id": "59cf373b5a6845ebb0e8cb9429e985c0", "is_disabled": 0, "is_reserved": 0}, {"rental_uris": {"ios": "https://dc.lft.to/lastmile_qr_scan", "android": "https://dc.lft.to/lastmile_qr_scan"}, "lon": -77.054677, "type": "electric_scooter", "fusion_lat": 0.0, "lat": 38.89667333333333, "name": "0095d40357a819b20b4edecc07326142", "fusion_lon": 0.0, "bike_id": "0095d40357a819b20b4edecc07326142", "is_disabled": 0, "is_reserved": 0}, {"rental_uris": {"ios": "https://dc.lft.to/lastmile_qr_scan", "android": "https://dc.lft.to/lastmile_qr_scan"}, "lon": -77.029606, "type": "electric_scooter", "fusion_lat": 0.0, "lat": 38.88743183333333, "name": "6b66ba8c347f17372fce4ceb2c34db93", "fusion_lon": 0.0, "bike_id": "6b66ba8c347f17372fce4ceb2c34db93", "is_disabled": 0, "is_reserved": 0}, {"rental_uris": {"ios": "https://dc.lft.to/lastmile_qr_scan", "android": "https://dc.lft.to/lastmile_qr_scan"}, "lon": -76.94625683333334, "type": "electric_bike", "fusion_lat": 0.0, "lat": 38.83233633333333, "name": "a23439c5f7de5653c0b65eb55045d955", "fusion_lon": 0.0, "bike_id": "a23439c5f7de5653c0b65eb55045d955", "is_disabled": 0, "is_reserved": 0}, {"rental_uris": {"ios": "https://dc.lft.to/lastmile_qr_scan", "android": "https://dc.lft.to/lastmile_qr_scan"}, "lon": -77.016435, "type": "electric_bike", "fusion_lat": 0.0, "lat": 38.88135716666667, "name": "c8ca19253d60c1424794092a23c9bf32", "fusion_lon": 0.0, "bike_id": "c8ca19253d60c1424794092a23c9bf32", "is_disabled": 0, "is_reserved": 0}, {"rental_uris": {"ios": "https://dc.lft.to/lastmile_qr_scan", "android": "https://dc.lft.to/lastmile_qr_scan"}, "lon": -77.0436895, "type": "electric_scooter", "fusion_lat": 0.0, "lat": 38.933351333333334, "name": "ad9d5776b420307e669104ff85087ef2", "fusion_lon": 0.0, "bike_id": "ad9d5776b420307e669104ff85087ef2", "is_disabled": 0, "is_reserved": 0}, {"rental_uris": {"ios": "https://dc.lft.to/lastmile_qr_scan", "android": "https://dc.lft.to/lastmile_qr_scan"}, "lon": -76.98546516666667, "type": "electric_scooter", "fusion_lat": 0.0, "lat": 38.90419333333333, "name": "5300f005f800e20883d567991266b3b5", "fusion_lon": 0.0, "bike_id": "5300f005f800e20883d567991266b3b5", "is_disabled": 0, "is_reserved": 0}, {"rental_uris": {"ios": "https://dc.lft.to/lastmile_qr_scan", "android": "https://dc.lft.to/lastmile_qr_scan"}, "lon": -77.03232766666666, "type": "electric_scooter", "fusion_lat": 0.0, "lat": 38.92758416666667, "name": "0af68a0a54054ef62510d3ee4bc2fe5d", "fusion_lon": 0.0, "bike_id": "0af68a0a54054ef62510d3ee4bc2fe5d", "is_disabled": 0, "is_reserved": 0}, {"rental_uris": {"ios": "https://dc.lft.to/lastmile_qr_scan", "android": "https://dc.lft.to/lastmile_qr_scan"}, "lon": -77.032173, "type": "electric_scooter", "fusion_lat": 0.0, "lat": 38.93380716666667, "name": "805a052e4b0873014c413c70200fa6f5", "fusion_lon": 0.0, "bike_id": "805a052e4b0873014c413c70200fa6f5", "is_disabled": 0, "is_reserved": 0}, {"rental_uris": {"ios": "https://dc.lft.to/lastmile_qr_scan", "android": "https://dc.lft.to/lastmile_qr_scan"}, "lon": -76.97215366666667, "type": "electric_bike", "fusion_lat": 0.0, "lat": 38.84478133333333, "name": "2f345de15bb1704af1ce50b407e654da", "fusion_lon": 0.0, "bike_id": "2f345de15bb1704af1ce50b407e654da", "is_disabled": 0, "is_reserved": 0}, {"rental_uris": {"ios": "https://dc.lft.to/lastmile_qr_scan", "android": "https://dc.lft.to/lastmile_qr_scan"}, "lon": -77.03187316666667, "type": "electric_scooter", "fusion_lat": 0.0, "lat": 38.90980916666667, "name": "b57580cc6b1562ec75e97883d91b6319", "fusion_lon": 0.0, "bike_id": "b57580cc6b1562ec75e97883d91b6319", "is_disabled": 0, "is_reserved": 0}, {"rental_uris": {"ios": "https://dc.lft.to/lastmile_qr_scan", "android": "https://dc.lft.to/lastmile_qr_scan"}, "lon": -77.011362, "type": "electric_scooter", "fusion_lat": 0.0, "lat": 38.9126245, "name": "c9807f03a874f043963ed3aeae9759f4", "fusion_lon": 0.0, "bike_id": "c9807f03a874f043963ed3aeae9759f4", "is_disabled": 0, "is_reserved": 0}, {"rental_uris": {"ios": "https://dc.lft.to/lastmile_qr_scan", "android": "https://dc.lft.to/lastmile_qr_scan"}, "lon": -76.94438783333334, "type": "electric_bike", "fusion_lat": 0.0, "lat": 38.902977666666665, "name": "d867ad3267e34944d3e61859a4b670d4", "fusion_lon": 0.0, "bike_id": "d867ad3267e34944d3e61859a4b670d4", "is_disabled": 0, "is_reserved": 0}, {"rental_uris": {"ios": "https://dc.lft.to/lastmile_qr_scan", "android": "https://dc.lft.to/lastmile_qr_scan"}, "lon": -77.04200283333333, "type": "electric_scooter", "fusion_lat": 0.0, "lat": 38.92048483333333, "name": "4f44145b7b27b52604b7451f64209c3d", "fusion_lon": 0.0, "bike_id": "4f44145b7b27b52604b7451f64209c3d", "is_disabled": 0, "is_reserved": 0}, {"rental_uris": {"ios": "https://dc.lft.to/lastmile_qr_scan", "android": "https://dc.lft.to/lastmile_qr_scan"}, "lon": -77.03782466666667, "type": "electric_scooter", "fusion_lat": 0.0, "lat": 38.93021366666667, "name": "98bb99ca2a0d6b9768b8ad088be19bc8", "fusion_lon": 0.0, "bike_id": "98bb99ca2a0d6b9768b8ad088be19bc8", "is_disabled": 0, "is_reserved": 0}, {"rental_uris": {"ios": "https://dc.lft.to/lastmile_qr_scan", "android": "https://dc.lft.to/lastmile_qr_scan"}, "lon": -76.95185783333334, "type": "electric_bike", "fusion_lat": 0.0, "lat": 38.90684483333333, "name": "b4de784cade39347dfad4f189e2bda25", "fusion_lon": 0.0, "bike_id": "b4de784cade39347dfad4f189e2bda25", "is_disabled": 0, "is_reserved": 0}, {"rental_uris": {"ios": "https://dc.lft.to/lastmile_qr_scan", "android": "https://dc.lft.to/lastmile_qr_scan"}, "lon": -77.02388966666666, "type": "electric_scooter", "fusion_lat": 0.0, "lat": 38.93608283333333, "name": "b7833d7329245bbe24b0effe9100be0c", "fusion_lon": 0.0, "bike_id": "b7833d7329245bbe24b0effe9100be0c", "is_disabled": 0, "is_reserved": 0}, {"rental_uris": {"ios": "https://dc.lft.to/lastmile_qr_scan", "android": "https://dc.lft.to/lastmile_qr_scan"}, "lon": -76.95904666666667, "type": "electric_scooter", "fusion_lat": 0.0, "lat": 38.92690966666667, "name": "701c7692e2299b364e96a707e06cad21", "fusion_lon": 0.0, "bike_id": "701c7692e2299b364e96a707e06cad21", "is_disabled": 0, "is_reserved": 0}, {"rental_uris": {"ios": "https://dc.lft.to/lastmile_qr_scan", "android": "https://dc.lft.to/lastmile_qr_scan"}, "lon": -77.013576, "type": "electric_scooter", "fusion_lat": 0.0, "lat": 38.8865175, "name": "f9f6664b0882eaa43f1cedab8fce35ba", "fusion_lon": 0.0, "bike_id": "f9f6664b0882eaa43f1cedab8fce35ba", "is_disabled": 0, "is_reserved": 0}, {"rental_uris": {"ios": "https://dc.lft.to/lastmile_qr_scan", "android": "https://dc.lft.to/lastmile_qr_scan"}, "lon": -77.04288566666666, "type": "electric_scooter", "fusion_lat": 0.0, "lat": 38.895308666666665, "name": "cac4e9d88a63ea961b5b90530d7a737e", "fusion_lon": 0.0, "bike_id": "cac4e9d88a63ea961b5b90530d7a737e", "is_disabled": 0, "is_reserved": 0}, {"rental_uris": {"ios": "https://dc.lft.to/lastmile_qr_scan", "android": "https://dc.lft.to/lastmile_qr_scan"}, "lon": -77.05275683333333, "type": "electric_scooter", "fusion_lat": 0.0, "lat": 38.934261, "name": "3b1c67f937291eddf01cc2d0a35cd2fd", "fusion_lon": 0.0, "bike_id": "3b1c67f937291eddf01cc2d0a35cd2fd", "is_disabled": 0, "is_reserved": 0}, {"rental_uris": {"ios": "https://dc.lft.to/lastmile_qr_scan", "android": "https://dc.lft.to/lastmile_qr_scan"}, "lon": -77.0286185, "type": "electric_scooter", "fusion_lat": 0.0, "lat": 38.9086425, "name": "cafcd94c5d8829d9a35c058beb87b32b", "fusion_lon": 0.0, "bike_id": "cafcd94c5d8829d9a35c058beb87b32b", "is_disabled": 0, "is_reserved": 0}, {"rental_uris": {"ios": "https://dc.lft.to/lastmile_qr_scan", "android": "https://dc.lft.to/lastmile_qr_scan"}, "lon": -77.03861883333333, "type": "electric_scooter", "fusion_lat": 0.0, "lat": 38.909335, "name": "1a9e895f86c9e562ed542ef3ca1d87ef", "fusion_lon": 0.0, "bike_id": "1a9e895f86c9e562ed542ef3ca1d87ef", "is_disabled": 0, "is_reserved": 0}, {"rental_uris": {"ios": "https://dc.lft.to/lastmile_qr_scan", "android": "https://dc.lft.to/lastmile_qr_scan"}, "lon": -77.00208033333334, "type": "electric_scooter", "fusion_lat": 0.0, "lat": 38.90036966666667, "name": "2fd13d2ae8ec6d1dca18f4a458fdbe29", "fusion_lon": 0.0, "bike_id": "2fd13d2ae8ec6d1dca18f4a458fdbe29", "is_disabled": 0, "is_reserved": 0}, {"rental_uris": {"ios": "https://dc.lft.to/lastmile_qr_scan", "android": "https://dc.lft.to/lastmile_qr_scan"}, "lon": -77.03286516666667, "type": "electric_scooter", "fusion_lat": 0.0, "lat": 38.938810833333335, "name": "ef01b9301a6bd2098e685bd2beb8bd4e", "fusion_lon": 0.0, "bike_id": "ef01b9301a6bd2098e685bd2beb8bd4e", "is_disabled": 0, "is_reserved": 0}, {"rental_uris": {"ios": "https://dc.lft.to/lastmile_qr_scan", "android": "https://dc.lft.to/lastmile_qr_scan"}, "lon": -76.9317845, "type": "electric_scooter", "fusion_lat": 0.0, "lat": 38.8988525, "name": "4b3153c27f794aa1e6ca356e9e7d00b7", "fusion_lon": 0.0, "bike_id": "4b3153c27f794aa1e6ca356e9e7d00b7", "is_disabled": 0, "is_reserved": 0}, {"rental_uris": {"ios": "https://dc.lft.to/lastmile_qr_scan", "android": "https://dc.lft.to/lastmile_qr_scan"}, "lon": -77.036871, "type": "electric_scooter", "fusion_lat": 0.0, "lat": 38.918707, "name": "5c777b5a7c4f815449586ab63303775a", "fusion_lon": 0.0, "bike_id": "5c777b5a7c4f815449586ab63303775a", "is_disabled": 0, "is_reserved": 0}, {"rental_uris": {"ios": "https://dc.lft.to/lastmile_qr_scan", "android": "https://dc.lft.to/lastmile_qr_scan"}, "lon": -77.04881083333333, "type": "electric_scooter", "fusion_lat": 0.0, "lat": 38.905974666666665, "name": "2b11a9bba2d64bf677b60484a3166d02", "fusion_lon": 0.0, "bike_id": "2b11a9bba2d64bf677b60484a3166d02", "is_disabled": 0, "is_reserved": 0}, {"rental_uris": {"ios": "https://dc.lft.to/lastmile_qr_scan", "android": "https://dc.lft.to/lastmile_qr_scan"}, "lon": -77.01114583333333, "type": "electric_scooter", "fusion_lat": 0.0, "lat": 38.903603833333335, "name": "f703b887a832cd630d116ba361990dcf", "fusion_lon": 0.0, "bike_id": "f703b887a832cd630d116ba361990dcf", "is_disabled": 0, "is_reserved": 0}, {"rental_uris": {"ios": "https://dc.lft.to/lastmile_qr_scan", "android": "https://dc.lft.to/lastmile_qr_scan"}, "lon": -76.98000616666667, "type": "electric_bike", "fusion_lat": 0.0, "lat": 38.900110166666664, "name": "e89c232a382d2d0718f9e8337dbe82ee", "fusion_lon": 0.0, "bike_id": "e89c232a382d2d0718f9e8337dbe82ee", "is_disabled": 0, "is_reserved": 0}, {"rental_uris": {"ios": "https://dc.lft.to/lastmile_qr_scan", "android": "https://dc.lft.to/lastmile_qr_scan"}, "lon": -77.04413933333333, "type": "electric_scooter", "fusion_lat": 0.0, "lat": 38.91314333333333, "name": "b90bf93125fe0833b4c01be93619f907", "fusion_lon": 0.0, "bike_id": "b90bf93125fe0833b4c01be93619f907", "is_disabled": 0, "is_reserved": 0}, {"rental_uris": {"ios": "https://dc.lft.to/lastmile_qr_scan", "android": "https://dc.lft.to/lastmile_qr_scan"}, "lon": -77.0131405, "type": "electric_scooter", "fusion_lat": 0.0, "lat": 38.89743333333333, "name": "8ed8a2f7882c5d79dd956983ae2a17b5", "fusion_lon": 0.0, "bike_id": "8ed8a2f7882c5d79dd956983ae2a17b5", "is_disabled": 0, "is_reserved": 0}, {"rental_uris": {"ios": "https://dc.lft.to/lastmile_qr_scan", "android": "https://dc.lft.to/lastmile_qr_scan"}, "lon": -77.04167033333333, "type": "electric_scooter", "fusion_lat": 0.0, "lat": 38.9141665, "name": "71dba8bc1f1add24a50e1b52b5c4afdf", "fusion_lon": 0.0, "bike_id": "71dba8bc1f1add24a50e1b52b5c4afdf", "is_disabled": 0, "is_reserved": 0}, {"rental_uris": {"ios": "https://dc.lft.to/lastmile_qr_scan", "android": "https://dc.lft.to/lastmile_qr_scan"}, "lon": -77.01168783333334, "type": "electric_scooter", "fusion_lat": 0.0, "lat": 38.900001833333334, "name": "bf5e916c3900f63efb1f10e94f3c12c8", "fusion_lon": 0.0, "bike_id": "bf5e916c3900f63efb1f10e94f3c12c8", "is_disabled": 0, "is_reserved": 0}, {"rental_uris": {"ios": "https://dc.lft.to/lastmile_qr_scan", "android": "https://dc.lft.to/lastmile_qr_scan"}, "lon": -77.0854915, "type": "electric_bike", "fusion_lat": 0.0, "lat": 38.856234, "name": "a534f617b88c0abd2a086441847fc51f", "fusion_lon": 0.0, "bike_id": "a534f617b88c0abd2a086441847fc51f", "is_disabled": 0, "is_reserved": 0}, {"rental_uris": {"ios": "https://dc.lft.to/lastmile_qr_scan", "android": "https://dc.lft.to/lastmile_qr_scan"}, "lon": -77.03422966666666, "type": "electric_scooter", "fusion_lat": 0.0, "lat": 38.91925066666667, "name": "e8f1d4d9afa63dd359bdccbf0110cf34", "fusion_lon": 0.0, "bike_id": "e8f1d4d9afa63dd359bdccbf0110cf34", "is_disabled": 0, "is_reserved": 0}, {"rental_uris": {"ios": "https://dc.lft.to/lastmile_qr_scan", "android": "https://dc.lft.to/lastmile_qr_scan"}, "lon": -77.03816033333334, "type": "electric_scooter", "fusion_lat": 0.0, "lat": 38.90828916666667, "name": "47fafcf144f3394b8ba95ac47c4a81a6", "fusion_lon": 0.0, "bike_id": "47fafcf144f3394b8ba95ac47c4a81a6", "is_disabled": 0, "is_reserved": 0}, {"rental_uris": {"ios": "https://dc.lft.to/lastmile_qr_scan", "android": "https://dc.lft.to/lastmile_qr_scan"}, "lon": -77.0222735, "type": "electric_scooter", "fusion_lat": 0.0, "lat": 38.8922215, "name": "5d35354ff5c541ddd5de4457f1b63229", "fusion_lon": 0.0, "bike_id": "5d35354ff5c541ddd5de4457f1b63229", "is_disabled": 0, "is_reserved": 0}, {"rental_uris": {"ios": "https://dc.lft.to/lastmile_qr_scan", "android": "https://dc.lft.to/lastmile_qr_scan"}, "lon": -76.98890716666666, "type": "electric_scooter", "fusion_lat": 0.0, "lat": 38.866604, "name": "51b848b9ec3b2a4293b562234c45a197", "fusion_lon": 0.0, "bike_id": "51b848b9ec3b2a4293b562234c45a197", "is_disabled": 0, "is_reserved": 0}, {"rental_uris": {"ios": "https://dc.lft.to/lastmile_qr_scan", "android": "https://dc.lft.to/lastmile_qr_scan"}, "lon": -77.0366795, "type": "electric_scooter", "fusion_lat": 0.0, "lat": 38.9028615, "name": "5c3373635b079cbcb7f6b93b8de69e4c", "fusion_lon": 0.0, "bike_id": "5c3373635b079cbcb7f6b93b8de69e4c", "is_disabled": 0, "is_reserved": 0}, {"rental_uris": {"ios": "https://dc.lft.to/lastmile_qr_scan", "android": "https://dc.lft.to/lastmile_qr_scan"}, "lon": -77.04498383333333, "type": "electric_scooter", "fusion_lat": 0.0, "lat": 38.911018166666665, "name": "178be47c276c0797465f700d3ec25441", "fusion_lon": 0.0, "bike_id": "178be47c276c0797465f700d3ec25441", "is_disabled": 0, "is_reserved": 0}, {"rental_uris": {"ios": "https://dc.lft.to/lastmile_qr_scan", "android": "https://dc.lft.to/lastmile_qr_scan"}, "lon": -77.03030316666667, "type": "electric_scooter", "fusion_lat": 0.0, "lat": 38.896061833333334, "name": "0bd51f314cb7239cb7fee47aeddf3d51", "fusion_lon": 0.0, "bike_id": "0bd51f314cb7239cb7fee47aeddf3d51", "is_disabled": 0, "is_reserved": 0}, {"rental_uris": {"ios": "https://dc.lft.to/lastmile_qr_scan", "android": "https://dc.lft.to/lastmile_qr_scan"}, "lon": -77.084004, "type": "electric_scooter", "fusion_lat": 0.0, "lat": 38.960989833333336, "name": "86b299beb66dc288897060a278b3c4d6", "fusion_lon": 0.0, "bike_id": "86b299beb66dc288897060a278b3c4d6", "is_disabled": 0, "is_reserved": 0}, {"rental_uris": {"ios": "https://dc.lft.to/lastmile_qr_scan", "android": "https://dc.lft.to/lastmile_qr_scan"}, "lon": -77.0488975, "type": "electric_scooter", "fusion_lat": 0.0, "lat": 38.901967666666664, "name": "c1f78f55eac3e30b9c215f5220a57c95", "fusion_lon": 0.0, "bike_id": "c1f78f55eac3e30b9c215f5220a57c95", "is_disabled": 0, "is_reserved": 0}, {"rental_uris": {"ios": "https://dc.lft.to/lastmile_qr_scan", "android": "https://dc.lft.to/lastmile_qr_scan"}, "lon": -77.04647366666667, "type": "electric_bike", "fusion_lat": 0.0, "lat": 38.85210516666667, "name": "5a555b2e42e2c13dee9e24ce35a27016", "fusion_lon": 0.0, "bike_id": "5a555b2e42e2c13dee9e24ce35a27016", "is_disabled": 0, "is_reserved": 0}, {"rental_uris": {"ios": "https://dc.lft.to/lastmile_qr_scan", "android": "https://dc.lft.to/lastmile_qr_scan"}, "lon": -77.0391235, "type": "electric_scooter", "fusion_lat": 0.0, "lat": 38.921062166666665, "name": "797021656f49ac26eb12e35c22f170f7", "fusion_lon": 0.0, "bike_id": "797021656f49ac26eb12e35c22f170f7", "is_disabled": 0, "is_reserved": 0}, {"rental_uris": {"ios": "https://dc.lft.to/lastmile_qr_scan", "android": "https://dc.lft.to/lastmile_qr_scan"}, "lon": -77.055276, "type": "electric_scooter", "fusion_lat": 0.0, "lat": 38.89727533333333, "name": "0fc90611787da1ed4c41045c50a8be7f", "fusion_lon": 0.0, "bike_id": "0fc90611787da1ed4c41045c50a8be7f", "is_disabled": 0, "is_reserved": 0}, {"rental_uris": {"ios": "https://dc.lft.to/lastmile_qr_scan", "android": "https://dc.lft.to/lastmile_qr_scan"}, "lon": -77.03642616666667, "type": "electric_scooter", "fusion_lat": 0.0, "lat": 38.902755166666665, "name": "5b7658fcab9c6e0a6e33c69f8fe6ba69", "fusion_lon": 0.0, "bike_id": "5b7658fcab9c6e0a6e33c69f8fe6ba69", "is_disabled": 0, "is_reserved": 0}, {"rental_uris": {"ios": "https://dc.lft.to/lastmile_qr_scan", "android": "https://dc.lft.to/lastmile_qr_scan"}, "lon": -77.0326565, "type": "electric_scooter", "fusion_lat": 0.0, "lat": 38.93737383333333, "name": "790f898c6b0b952d61e40feef48869e6", "fusion_lon": 0.0, "bike_id": "790f898c6b0b952d61e40feef48869e6", "is_disabled": 0, "is_reserved": 0}, {"rental_uris": {"ios": "https://dc.lft.to/lastmile_qr_scan", "android": "https://dc.lft.to/lastmile_qr_scan"}, "lon": -77.12965866666667, "type": "electric_bike", "fusion_lat": 0.0, "lat": 38.8079215, "name": "c94ca20366745fde75924e8bac266b6d", "fusion_lon": 0.0, "bike_id": "c94ca20366745fde75924e8bac266b6d", "is_disabled": 0, "is_reserved": 0}, {"rental_uris": {"ios": "https://dc.lft.to/lastmile_qr_scan", "android": "https://dc.lft.to/lastmile_qr_scan"}, "lon": -77.04672716666667, "type": "electric_scooter", "fusion_lat": 0.0, "lat": 38.932931333333336, "name": "a6e3ef29181593a2c1f7faca999b6136", "fusion_lon": 0.0, "bike_id": "a6e3ef29181593a2c1f7faca999b6136", "is_disabled": 0, "is_reserved": 0}, {"rental_uris": {"ios": "https://dc.lft.to/lastmile_qr_scan", "android": "https://dc.lft.to/lastmile_qr_scan"}, "lon": -77.01290716666666, "type": "electric_bike", "fusion_lat": 0.0, "lat": 39.0038245, "name": "452a45b36d017c0e39834b24365faa27", "fusion_lon": 0.0, "bike_id": "452a45b36d017c0e39834b24365faa27", "is_disabled": 0, "is_reserved": 0}, {"rental_uris": {"ios": "https://dc.lft.to/lastmile_qr_scan", "android": "https://dc.lft.to/lastmile_qr_scan"}, "lon": -77.0243415, "type": "electric_scooter", "fusion_lat": 0.0, "lat": 38.915527833333336, "name": "dad3e54a48c9de2c02f89a6a7c4c48e4", "fusion_lon": 0.0, "bike_id": "dad3e54a48c9de2c02f89a6a7c4c48e4", "is_disabled": 0, "is_reserved": 0}, {"rental_uris": {"ios": "https://dc.lft.to/lastmile_qr_scan", "android": "https://dc.lft.to/lastmile_qr_scan"}, "lon": -76.93246583333334, "type": "electric_scooter", "fusion_lat": 0.0, "lat": 38.894059, "name": "7e5c4152a99ad6c43bca0f4e47190217", "fusion_lon": 0.0, "bike_id": "7e5c4152a99ad6c43bca0f4e47190217", "is_disabled": 0, "is_reserved": 0}, {"rental_uris": {"ios": "https://dc.lft.to/lastmile_qr_scan", "android": "https://dc.lft.to/lastmile_qr_scan"}, "lon": -77.01581416666667, "type": "electric_scooter", "fusion_lat": 0.0, "lat": 38.901850833333334, "name": "1e7a9be01caf5c73344372dcb7eb9160", "fusion_lon": 0.0, "bike_id": "1e7a9be01caf5c73344372dcb7eb9160", "is_disabled": 0, "is_reserved": 0}, {"rental_uris": {"ios": "https://dc.lft.to/lastmile_qr_scan", "android": "https://dc.lft.to/lastmile_qr_scan"}, "lon": -77.03350966666666, "type": "electric_scooter", "fusion_lat": 0.0, "lat": 38.8953145, "name": "687cdc0ddc6413a29bb2cc84935121b5", "fusion_lon": 0.0, "bike_id": "687cdc0ddc6413a29bb2cc84935121b5", "is_disabled": 0, "is_reserved": 0}, {"rental_uris": {"ios": "https://dc.lft.to/lastmile_qr_scan", "android": "https://dc.lft.to/lastmile_qr_scan"}, "lon": -77.13100716666666, "type": "electric_bike", "fusion_lat": 0.0, "lat": 38.876301833333336, "name": "66e6b447ec77838a45e0d44a741c2424", "fusion_lon": 0.0, "bike_id": "66e6b447ec77838a45e0d44a741c2424", "is_disabled": 0, "is_reserved": 0}, {"rental_uris": {"ios": "https://dc.lft.to/lastmile_qr_scan", "android": "https://dc.lft.to/lastmile_qr_scan"}, "lon": -77.03933133333334, "type": "electric_scooter", "fusion_lat": 0.0, "lat": 38.8992125, "name": "2ea694b24ae91129e9469bcb2602b763", "fusion_lon": 0.0, "bike_id": "2ea694b24ae91129e9469bcb2602b763", "is_disabled": 0, "is_reserved": 0}, {"rental_uris": {"ios": "https://dc.lft.to/lastmile_qr_scan", "android": "https://dc.lft.to/lastmile_qr_scan"}, "lon": -77.02714733333333, "type": "electric_scooter", "fusion_lat": 0.0, "lat": 38.9176245, "name": "f3a19bb55cfc12de383237d0f89fad07", "fusion_lon": 0.0, "bike_id": "f3a19bb55cfc12de383237d0f89fad07", "is_disabled": 0, "is_reserved": 0}, {"rental_uris": {"ios": "https://dc.lft.to/lastmile_qr_scan", "android": "https://dc.lft.to/lastmile_qr_scan"}, "lon": -77.058621, "type": "electric_scooter", "fusion_lat": 0.0, "lat": 38.934262833333335, "name": "f3b0bfc7423b353fbe01d53d2d236bcf", "fusion_lon": 0.0, "bike_id": "f3b0bfc7423b353fbe01d53d2d236bcf", "is_disabled": 0, "is_reserved": 0}, {"rental_uris": {"ios": "https://dc.lft.to/lastmile_qr_scan", "android": "https://dc.lft.to/lastmile_qr_scan"}, "lon": -77.037607, "type": "electric_scooter", "fusion_lat": 0.0, "lat": 38.929065333333334, "name": "7273132d6a471cb7c55e1e6b7f50fee2", "fusion_lon": 0.0, "bike_id": "7273132d6a471cb7c55e1e6b7f50fee2", "is_disabled": 0, "is_reserved": 0}, {"rental_uris": {"ios": "https://dc.lft.to/lastmile_qr_scan", "android": "https://dc.lft.to/lastmile_qr_scan"}, "lon": -76.9870915, "type": "electric_scooter", "fusion_lat": 0.0, "lat": 38.86536533333334, "name": "f0db2927933c67530cc4a85a33dd4554", "fusion_lon": 0.0, "bike_id": "f0db2927933c67530cc4a85a33dd4554", "is_disabled": 0, "is_reserved": 0}, {"rental_uris": {"ios": "https://dc.lft.to/lastmile_qr_scan", "android": "https://dc.lft.to/lastmile_qr_scan"}, "lon": -77.05045333333334, "type": "electric_scooter", "fusion_lat": 0.0, "lat": 38.900533833333334, "name": "9f11959439867c99db3bd70fddc037ab", "fusion_lon": 0.0, "bike_id": "9f11959439867c99db3bd70fddc037ab", "is_disabled": 0, "is_reserved": 0}, {"rental_uris": {"ios": "https://dc.lft.to/lastmile_qr_scan", "android": "https://dc.lft.to/lastmile_qr_scan"}, "lon": -77.03185533333334, "type": "electric_scooter", "fusion_lat": 0.0, "lat": 38.89967933333333, "name": "a017fd115ac5653403506b70be6f981e", "fusion_lon": 0.0, "bike_id": "a017fd115ac5653403506b70be6f981e", "is_disabled": 0, "is_reserved": 0}, {"rental_uris": {"ios": "https://dc.lft.to/lastmile_qr_scan", "android": "https://dc.lft.to/lastmile_qr_scan"}, "lon": -77.01209533333333, "type": "electric_scooter", "fusion_lat": 0.0, "lat": 38.89994733333333, "name": "d05a46dbd25379d1f27a8e51327a0a83", "fusion_lon": 0.0, "bike_id": "d05a46dbd25379d1f27a8e51327a0a83", "is_disabled": 0, "is_reserved": 0}, {"rental_uris": {"ios": "https://dc.lft.to/lastmile_qr_scan", "android": "https://dc.lft.to/lastmile_qr_scan"}, "lon": -77.00525633333334, "type": "electric_scooter", "fusion_lat": 0.0, "lat": 38.929027, "name": "fca40f466dc94abdf1defc42e76f7641", "fusion_lon": 0.0, "bike_id": "fca40f466dc94abdf1defc42e76f7641", "is_disabled": 0, "is_reserved": 0}, {"rental_uris": {"ios": "https://dc.lft.to/lastmile_qr_scan", "android": "https://dc.lft.to/lastmile_qr_scan"}, "lon": -77.04493816666667, "type": "electric_scooter", "fusion_lat": 0.0, "lat": 38.908544666666664, "name": "9597ef40ef001271abf3661bd6e677d9", "fusion_lon": 0.0, "bike_id": "9597ef40ef001271abf3661bd6e677d9", "is_disabled": 0, "is_reserved": 0}, {"rental_uris": {"ios": "https://dc.lft.to/lastmile_qr_scan", "android": "https://dc.lft.to/lastmile_qr_scan"}, "lon": -77.07712833333333, "type": "electric_scooter", "fusion_lat": 0.0, "lat": 38.95616916666667, "name": "edb643a2d0aedc517f61ac9b379d0a2d", "fusion_lon": 0.0, "bike_id": "edb643a2d0aedc517f61ac9b379d0a2d", "is_disabled": 0, "is_reserved": 0}, {"rental_uris": {"ios": "https://dc.lft.to/lastmile_qr_scan", "android": "https://dc.lft.to/lastmile_qr_scan"}, "lon": -76.904407, "type": "electric_bike", "fusion_lat": 0.0, "lat": 38.89782233333333, "name": "0ead483debe284e94bd1a801565455da", "fusion_lon": 0.0, "bike_id": "0ead483debe284e94bd1a801565455da", "is_disabled": 0, "is_reserved": 0}, {"rental_uris": {"ios": "https://dc.lft.to/lastmile_qr_scan", "android": "https://dc.lft.to/lastmile_qr_scan"}, "lon": -77.042426, "type": "electric_scooter", "fusion_lat": 0.0, "lat": 38.9243105, "name": "ec8c70e99899a8608c9936cbe6aca86b", "fusion_lon": 0.0, "bike_id": "ec8c70e99899a8608c9936cbe6aca86b", "is_disabled": 0, "is_reserved": 0}, {"rental_uris": {"ios": "https://dc.lft.to/lastmile_qr_scan", "android": "https://dc.lft.to/lastmile_qr_scan"}, "lon": -77.03658216666666, "type": "electric_scooter", "fusion_lat": 0.0, "lat": 38.92121916666667, "name": "6ff23b0d079f3ff6e2c3dc96e12d7fc4", "fusion_lon": 0.0, "bike_id": "6ff23b0d079f3ff6e2c3dc96e12d7fc4", "is_disabled": 0, "is_reserved": 0}, {"rental_uris": {"ios": "https://dc.lft.to/lastmile_qr_scan", "android": "https://dc.lft.to/lastmile_qr_scan"}, "lon": -77.01964916666667, "type": "electric_scooter", "fusion_lat": 0.0, "lat": 38.93412266666667, "name": "d6d93b72281f6ed99e9cb270f0f90fea", "fusion_lon": 0.0, "bike_id": "d6d93b72281f6ed99e9cb270f0f90fea", "is_disabled": 0, "is_reserved": 0}, {"rental_uris": {"ios": "https://dc.lft.to/lastmile_qr_scan", "android": "https://dc.lft.to/lastmile_qr_scan"}, "lon": -76.99067433333333, "type": "electric_scooter", "fusion_lat": 0.0, "lat": 38.86362466666667, "name": "dda954ec1f0bccaee158399390d80c40", "fusion_lon": 0.0, "bike_id": "dda954ec1f0bccaee158399390d80c40", "is_disabled": 0, "is_reserved": 0}, {"rental_uris": {"ios": "https://dc.lft.to/lastmile_qr_scan", "android": "https://dc.lft.to/lastmile_qr_scan"}, "lon": -77.04831216666666, "type": "electric_scooter", "fusion_lat": 0.0, "lat": 38.9203605, "name": "98b7541c9bf9a20de30eb43b908340c7", "fusion_lon": 0.0, "bike_id": "98b7541c9bf9a20de30eb43b908340c7", "is_disabled": 0, "is_reserved": 0}, {"rental_uris": {"ios": "https://dc.lft.to/lastmile_qr_scan", "android": "https://dc.lft.to/lastmile_qr_scan"}, "lon": -76.99083466666667, "type": "electric_scooter", "fusion_lat": 0.0, "lat": 38.893543666666666, "name": "bd572db33ff42daf8102b737b852c0a5", "fusion_lon": 0.0, "bike_id": "bd572db33ff42daf8102b737b852c0a5", "is_disabled": 0, "is_reserved": 0}, {"rental_uris": {"ios": "https://dc.lft.to/lastmile_qr_scan", "android": "https://dc.lft.to/lastmile_qr_scan"}, "lon": -77.05001933333334, "type": "electric_scooter", "fusion_lat": 0.0, "lat": 38.90055, "name": "8d7194f49f988adf911178229a78c455", "fusion_lon": 0.0, "bike_id": "8d7194f49f988adf911178229a78c455", "is_disabled": 0, "is_reserved": 0}, {"rental_uris": {"ios": "https://dc.lft.to/lastmile_qr_scan", "android": "https://dc.lft.to/lastmile_qr_scan"}, "lon": -77.04204883333334, "type": "electric_scooter", "fusion_lat": 0.0, "lat": 38.92106866666666, "name": "7c23832cd88d785026372da5dafdb901", "fusion_lon": 0.0, "bike_id": "7c23832cd88d785026372da5dafdb901", "is_disabled": 0, "is_reserved": 0}, {"rental_uris": {"ios": "https://dc.lft.to/lastmile_qr_scan", "android": "https://dc.lft.to/lastmile_qr_scan"}, "lon": -76.9816145, "type": "electric_scooter", "fusion_lat": 0.0, "lat": 38.9329925, "name": "bda8847abf1fa1b6925cfe51c5eff3b5", "fusion_lon": 0.0, "bike_id": "bda8847abf1fa1b6925cfe51c5eff3b5", "is_disabled": 0, "is_reserved": 0}, {"rental_uris": {"ios": "https://dc.lft.to/lastmile_qr_scan", "android": "https://dc.lft.to/lastmile_qr_scan"}, "lon": -76.99507566666666, "type": "electric_scooter", "fusion_lat": 0.0, "lat": 38.92703366666667, "name": "57871ff2697b069edf7a28a388b7dc4b", "fusion_lon": 0.0, "bike_id": "57871ff2697b069edf7a28a388b7dc4b", "is_disabled": 0, "is_reserved": 0}, {"rental_uris": {"ios": "https://dc.lft.to/lastmile_qr_scan", "android": "https://dc.lft.to/lastmile_qr_scan"}, "lon": -77.00679866666667, "type": "electric_scooter", "fusion_lat": 0.0, "lat": 38.91697333333333, "name": "b912364f56d4e2d86377af13ffc81ae2", "fusion_lon": 0.0, "bike_id": "b912364f56d4e2d86377af13ffc81ae2", "is_disabled": 0, "is_reserved": 0}, {"rental_uris": {"ios": "https://dc.lft.to/lastmile_qr_scan", "android": "https://dc.lft.to/lastmile_qr_scan"}, "lon": -77.07083266666666, "type": "electric_bike", "fusion_lat": 0.0, "lat": 38.95560183333333, "name": "57592349f1619b9164fb63defe7e763d", "fusion_lon": 0.0, "bike_id": "57592349f1619b9164fb63defe7e763d", "is_disabled": 0, "is_reserved": 0}, {"rental_uris": {"ios": "https://dc.lft.to/lastmile_qr_scan", "android": "https://dc.lft.to/lastmile_qr_scan"}, "lon": -77.03072066666667, "type": "electric_scooter", "fusion_lat": 0.0, "lat": 38.89726183333333, "name": "3ef9252cc8ed1a91eae199dc2ca0b3b4", "fusion_lon": 0.0, "bike_id": "3ef9252cc8ed1a91eae199dc2ca0b3b4", "is_disabled": 0, "is_reserved": 0}, {"rental_uris": {"ios": "https://dc.lft.to/lastmile_qr_scan", "android": "https://dc.lft.to/lastmile_qr_scan"}, "lon": -77.011847, "type": "electric_scooter", "fusion_lat": 0.0, "lat": 38.9110845, "name": "a98201c5e5a59108e23f763b6e090da6", "fusion_lon": 0.0, "bike_id": "a98201c5e5a59108e23f763b6e090da6", "is_disabled": 0, "is_reserved": 0}, {"rental_uris": {"ios": "https://dc.lft.to/lastmile_qr_scan", "android": "https://dc.lft.to/lastmile_qr_scan"}, "lon": -77.040697, "type": "electric_scooter", "fusion_lat": 0.0, "lat": 38.92392016666667, "name": "1e8cb9f6e11bdaeb977a01dcc9fad7d5", "fusion_lon": 0.0, "bike_id": "1e8cb9f6e11bdaeb977a01dcc9fad7d5", "is_disabled": 0, "is_reserved": 0}, {"rental_uris": {"ios": "https://dc.lft.to/lastmile_qr_scan", "android": "https://dc.lft.to/lastmile_qr_scan"}, "lon": -77.02651083333333, "type": "electric_scooter", "fusion_lat": 0.0, "lat": 38.89589483333334, "name": "d9ec0a99391dbde3ae61db9321f5051d", "fusion_lon": 0.0, "bike_id": "d9ec0a99391dbde3ae61db9321f5051d", "is_disabled": 0, "is_reserved": 0}, {"rental_uris": {"ios": "https://dc.lft.to/lastmile_qr_scan", "android": "https://dc.lft.to/lastmile_qr_scan"}, "lon": -77.01226183333333, "type": "electric_scooter", "fusion_lat": 0.0, "lat": 38.91280533333333, "name": "7659baa151b57eca2d7f8fd8dd76fb01", "fusion_lon": 0.0, "bike_id": "7659baa151b57eca2d7f8fd8dd76fb01", "is_disabled": 0, "is_reserved": 0}, {"rental_uris": {"ios": "https://dc.lft.to/lastmile_qr_scan", "android": "https://dc.lft.to/lastmile_qr_scan"}, "lon": -77.027199, "type": "electric_scooter", "fusion_lat": 0.0, "lat": 38.906887, "name": "744f8eb185e1c219d06c97c8d4b6a3e8", "fusion_lon": 0.0, "bike_id": "744f8eb185e1c219d06c97c8d4b6a3e8", "is_disabled": 0, "is_reserved": 0}, {"rental_uris": {"ios": "https://dc.lft.to/lastmile_qr_scan", "android": "https://dc.lft.to/lastmile_qr_scan"}, "lon": -77.02618716666667, "type": "electric_scooter", "fusion_lat": 0.0, "lat": 38.9169015, "name": "0e3fdf995e69af488a239b207981bab9", "fusion_lon": 0.0, "bike_id": "0e3fdf995e69af488a239b207981bab9", "is_disabled": 0, "is_reserved": 0}, {"rental_uris": {"ios": "https://dc.lft.to/lastmile_qr_scan", "android": "https://dc.lft.to/lastmile_qr_scan"}, "lon": -77.0268415, "type": "electric_scooter", "fusion_lat": 0.0, "lat": 38.907213166666665, "name": "e53a65fcfe4a83745c8237214c07311f", "fusion_lon": 0.0, "bike_id": "e53a65fcfe4a83745c8237214c07311f", "is_disabled": 0, "is_reserved": 0}, {"rental_uris": {"ios": "https://dc.lft.to/lastmile_qr_scan", "android": "https://dc.lft.to/lastmile_qr_scan"}, "lon": -77.02423916666666, "type": "electric_scooter", "fusion_lat": 0.0, "lat": 38.92050966666667, "name": "e82b85f3ae08804da7b9beabe449642b", "fusion_lon": 0.0, "bike_id": "e82b85f3ae08804da7b9beabe449642b", "is_disabled": 0, "is_reserved": 0}, {"rental_uris": {"ios": "https://dc.lft.to/lastmile_qr_scan", "android": "https://dc.lft.to/lastmile_qr_scan"}, "lon": -76.99763483333334, "type": "electric_bike", "fusion_lat": 0.0, "lat": 38.922866, "name": "54a7cfeb96a68983a9a306ff1ff75789", "fusion_lon": 0.0, "bike_id": "54a7cfeb96a68983a9a306ff1ff75789", "is_disabled": 0, "is_reserved": 0}, {"rental_uris": {"ios": "https://dc.lft.to/lastmile_qr_scan", "android": "https://dc.lft.to/lastmile_qr_scan"}, "lon": -76.988834, "type": "electric_scooter", "fusion_lat": 0.0, "lat": 38.86658716666667, "name": "754920e4a020f18fd500c1ebc557ae0e", "fusion_lon": 0.0, "bike_id": "754920e4a020f18fd500c1ebc557ae0e", "is_disabled": 0, "is_reserved": 0}, {"rental_uris": {"ios": "https://dc.lft.to/lastmile_qr_scan", "android": "https://dc.lft.to/lastmile_qr_scan"}, "lon": -77.03857116666667, "type": "electric_scooter", "fusion_lat": 0.0, "lat": 38.9031025, "name": "75a0e86d1d412c0f197ec80e5498f997", "fusion_lon": 0.0, "bike_id": "75a0e86d1d412c0f197ec80e5498f997", "is_disabled": 0, "is_reserved": 0}, {"rental_uris": {"ios": "https://dc.lft.to/lastmile_qr_scan", "android": "https://dc.lft.to/lastmile_qr_scan"}, "lon": -77.03002533333333, "type": "electric_scooter", "fusion_lat": 0.0, "lat": 38.9125505, "name": "451d2e2b6ffd146f8f540069a0702677", "fusion_lon": 0.0, "bike_id": "451d2e2b6ffd146f8f540069a0702677", "is_disabled": 0, "is_reserved": 0}, {"rental_uris": {"ios": "https://dc.lft.to/lastmile_qr_scan", "android": "https://dc.lft.to/lastmile_qr_scan"}, "lon": -77.1131535, "type": "electric_bike", "fusion_lat": 0.0, "lat": 38.85562616666667, "name": "cca664bb65532bb9fd38ed8491182e5b", "fusion_lon": 0.0, "bike_id": "cca664bb65532bb9fd38ed8491182e5b", "is_disabled": 0, "is_reserved": 0}, {"rental_uris": {"ios": "https://dc.lft.to/lastmile_qr_scan", "android": "https://dc.lft.to/lastmile_qr_scan"}, "lon": -76.96532666666667, "type": "electric_bike", "fusion_lat": 0.0, "lat": 38.87482466666667, "name": "a7db331c26d17e8a963a2e94e2dc6432", "fusion_lon": 0.0, "bike_id": "a7db331c26d17e8a963a2e94e2dc6432", "is_disabled": 0, "is_reserved": 0}, {"rental_uris": {"ios": "https://dc.lft.to/lastmile_qr_scan", "android": "https://dc.lft.to/lastmile_qr_scan"}, "lon": -76.93177283333333, "type": "electric_scooter", "fusion_lat": 0.0, "lat": 38.898874, "name": "bf96d47cfe8a477a1c70a1fb903b5f08", "fusion_lon": 0.0, "bike_id": "bf96d47cfe8a477a1c70a1fb903b5f08", "is_disabled": 0, "is_reserved": 0}, {"rental_uris": {"ios": "https://dc.lft.to/lastmile_qr_scan", "android": "https://dc.lft.to/lastmile_qr_scan"}, "lon": -77.068861, "type": "electric_scooter", "fusion_lat": 0.0, "lat": 38.907674666666665, "name": "21d36dc35dc724ba59eb31d7946b24d8", "fusion_lon": 0.0, "bike_id": "21d36dc35dc724ba59eb31d7946b24d8", "is_disabled": 0, "is_reserved": 0}, {"rental_uris": {"ios": "https://dc.lft.to/lastmile_qr_scan", "android": "https://dc.lft.to/lastmile_qr_scan"}, "lon": -77.02983166666667, "type": "electric_scooter", "fusion_lat": 0.0, "lat": 38.938813333333336, "name": "b9b3acaa68c8540713827fe4073f757a", "fusion_lon": 0.0, "bike_id": "b9b3acaa68c8540713827fe4073f757a", "is_disabled": 0, "is_reserved": 0}, {"rental_uris": {"ios": "https://dc.lft.to/lastmile_qr_scan", "android": "https://dc.lft.to/lastmile_qr_scan"}, "lon": -76.9937125, "type": "electric_scooter", "fusion_lat": 0.0, "lat": 38.90039566666667, "name": "88037f0d361aade62469a9a68dfe24b1", "fusion_lon": 0.0, "bike_id": "88037f0d361aade62469a9a68dfe24b1", "is_disabled": 0, "is_reserved": 0}, {"rental_uris": {"ios": "https://dc.lft.to/lastmile_qr_scan", "android": "https://dc.lft.to/lastmile_qr_scan"}, "lon": -77.03446883333334, "type": "electric_scooter", "fusion_lat": 0.0, "lat": 38.90738316666667, "name": "b44b388f296c5c8efba040e2224bdcb2", "fusion_lon": 0.0, "bike_id": "b44b388f296c5c8efba040e2224bdcb2", "is_disabled": 0, "is_reserved": 0}, {"rental_uris": {"ios": "https://dc.lft.to/lastmile_qr_scan", "android": "https://dc.lft.to/lastmile_qr_scan"}, "lon": -77.04442033333333, "type": "electric_scooter", "fusion_lat": 0.0, "lat": 38.90573283333333, "name": "01af5760a72ac0e2cca79bcba4a31c93", "fusion_lon": 0.0, "bike_id": "01af5760a72ac0e2cca79bcba4a31c93", "is_disabled": 0, "is_reserved": 0}, {"rental_uris": {"ios": "https://dc.lft.to/lastmile_qr_scan", "android": "https://dc.lft.to/lastmile_qr_scan"}, "lon": -77.027187, "type": "electric_scooter", "fusion_lat": 0.0, "lat": 38.9181645, "name": "0383ec6e15b2d3f730c60d63ee65a2d8", "fusion_lon": 0.0, "bike_id": "0383ec6e15b2d3f730c60d63ee65a2d8", "is_disabled": 0, "is_reserved": 0}, {"rental_uris": {"ios": "https://dc.lft.to/lastmile_qr_scan", "android": "https://dc.lft.to/lastmile_qr_scan"}, "lon": -77.02476433333334, "type": "electric_scooter", "fusion_lat": 0.0, "lat": 38.90244283333333, "name": "fa289a303cc0d6864712fbd3ed32c156", "fusion_lon": 0.0, "bike_id": "fa289a303cc0d6864712fbd3ed32c156", "is_disabled": 0, "is_reserved": 0}, {"rental_uris": {"ios": "https://dc.lft.to/lastmile_qr_scan", "android": "https://dc.lft.to/lastmile_qr_scan"}, "lon": -77.01124483333334, "type": "electric_scooter", "fusion_lat": 0.0, "lat": 38.911818333333336, "name": "5d25a5b3c944beae3c47cc195b48b5f8", "fusion_lon": 0.0, "bike_id": "5d25a5b3c944beae3c47cc195b48b5f8", "is_disabled": 0, "is_reserved": 0}, {"rental_uris": {"ios": "https://dc.lft.to/lastmile_qr_scan", "android": "https://dc.lft.to/lastmile_qr_scan"}, "lon": -77.0551665, "type": "electric_scooter", "fusion_lat": 0.0, "lat": 38.910584166666666, "name": "5ef1252b66bc903bbb68ed5ba9a354c7", "fusion_lon": 0.0, "bike_id": "5ef1252b66bc903bbb68ed5ba9a354c7", "is_disabled": 0, "is_reserved": 0}, {"rental_uris": {"ios": "https://dc.lft.to/lastmile_qr_scan", "android": "https://dc.lft.to/lastmile_qr_scan"}, "lon": -77.04876766666666, "type": "electric_scooter", "fusion_lat": 0.0, "lat": 38.909517666666666, "name": "d88716053e7e9d2da7968fab55dabbcf", "fusion_lon": 0.0, "bike_id": "d88716053e7e9d2da7968fab55dabbcf", "is_disabled": 0, "is_reserved": 0}, {"rental_uris": {"ios": "https://dc.lft.to/lastmile_qr_scan", "android": "https://dc.lft.to/lastmile_qr_scan"}, "lon": -77.02697533333334, "type": "electric_scooter", "fusion_lat": 0.0, "lat": 38.918631, "name": "035ac7ba32837ecaf622fcebf6f3e558", "fusion_lon": 0.0, "bike_id": "035ac7ba32837ecaf622fcebf6f3e558", "is_disabled": 0, "is_reserved": 0}, {"rental_uris": {"ios": "https://dc.lft.to/lastmile_qr_scan", "android": "https://dc.lft.to/lastmile_qr_scan"}, "lon": -77.02968833333334, "type": "electric_scooter", "fusion_lat": 0.0, "lat": 38.92520916666667, "name": "c360ca6dadf965071f0932ce7ca2d402", "fusion_lon": 0.0, "bike_id": "c360ca6dadf965071f0932ce7ca2d402", "is_disabled": 0, "is_reserved": 0}, {"rental_uris": {"ios": "https://dc.lft.to/lastmile_qr_scan", "android": "https://dc.lft.to/lastmile_qr_scan"}, "lon": -76.99163833333333, "type": "electric_scooter", "fusion_lat": 0.0, "lat": 38.893418833333335, "name": "45dd800569eb630f3db31f205680473e", "fusion_lon": 0.0, "bike_id": "45dd800569eb630f3db31f205680473e", "is_disabled": 0, "is_reserved": 0}, {"rental_uris": {"ios": "https://dc.lft.to/lastmile_qr_scan", "android": "https://dc.lft.to/lastmile_qr_scan"}, "lon": -76.8953735, "type": "electric_bike", "fusion_lat": 0.0, "lat": 38.945510166666665, "name": "0011d58542e8c0405d5ee21ab5da996b", "fusion_lon": 0.0, "bike_id": "0011d58542e8c0405d5ee21ab5da996b", "is_disabled": 0, "is_reserved": 0}, {"rental_uris": {"ios": "https://dc.lft.to/lastmile_qr_scan", "android": "https://dc.lft.to/lastmile_qr_scan"}, "lon": -77.045259, "type": "electric_scooter", "fusion_lat": 0.0, "lat": 38.9037465, "name": "e3086454a6acbe4f25d1d83bf1ebd37b", "fusion_lon": 0.0, "bike_id": "e3086454a6acbe4f25d1d83bf1ebd37b", "is_disabled": 0, "is_reserved": 0}, {"rental_uris": {"ios": "https://dc.lft.to/lastmile_qr_scan", "android": "https://dc.lft.to/lastmile_qr_scan"}, "lon": -77.04801233333333, "type": "electric_scooter", "fusion_lat": 0.0, "lat": 38.897206833333335, "name": "091176785d9ea2e023546a58c4bacac7", "fusion_lon": 0.0, "bike_id": "091176785d9ea2e023546a58c4bacac7", "is_disabled": 0, "is_reserved": 0}, {"rental_uris": {"ios": "https://dc.lft.to/lastmile_qr_scan", "android": "https://dc.lft.to/lastmile_qr_scan"}, "lon": -77.027611, "type": "electric_scooter", "fusion_lat": 0.0, "lat": 38.916942666666664, "name": "363e84d651eb0d0963467d39bf3c2959", "fusion_lon": 0.0, "bike_id": "363e84d651eb0d0963467d39bf3c2959", "is_disabled": 0, "is_reserved": 0}, {"rental_uris": {"ios": "https://dc.lft.to/lastmile_qr_scan", "android": "https://dc.lft.to/lastmile_qr_scan"}, "lon": -77.01219266666666, "type": "electric_scooter", "fusion_lat": 0.0, "lat": 38.92033433333334, "name": "be7a1607077f8993380cd0374abd88fe", "fusion_lon": 0.0, "bike_id": "be7a1607077f8993380cd0374abd88fe", "is_disabled": 0, "is_reserved": 0}, {"rental_uris": {"ios": "https://dc.lft.to/lastmile_qr_scan", "android": "https://dc.lft.to/lastmile_qr_scan"}, "lon": -77.02370016666667, "type": "electric_scooter", "fusion_lat": 0.0, "lat": 38.919667833333335, "name": "31465f65da6dbeeec89a3271be6316a9", "fusion_lon": 0.0, "bike_id": "31465f65da6dbeeec89a3271be6316a9", "is_disabled": 0, "is_reserved": 0}, {"rental_uris": {"ios": "https://dc.lft.to/lastmile_qr_scan", "android": "https://dc.lft.to/lastmile_qr_scan"}, "lon": -77.02981416666667, "type": "electric_scooter", "fusion_lat": 0.0, "lat": 38.91625966666667, "name": "df125e39e9ee05e731f7f0258d638102", "fusion_lon": 0.0, "bike_id": "df125e39e9ee05e731f7f0258d638102", "is_disabled": 0, "is_reserved": 0}, {"rental_uris": {"ios": "https://dc.lft.to/lastmile_qr_scan", "android": "https://dc.lft.to/lastmile_qr_scan"}, "lon": -77.0390025, "type": "electric_scooter", "fusion_lat": 0.0, "lat": 38.91839916666667, "name": "fa34baa545fa74693d82686ee7a0db3f", "fusion_lon": 0.0, "bike_id": "fa34baa545fa74693d82686ee7a0db3f", "is_disabled": 0, "is_reserved": 0}, {"rental_uris": {"ios": "https://dc.lft.to/lastmile_qr_scan", "android": "https://dc.lft.to/lastmile_qr_scan"}, "lon": -77.05759733333333, "type": "electric_scooter", "fusion_lat": 0.0, "lat": 38.92458366666666, "name": "b1ae43c566d7af55347b1e34415bf97a", "fusion_lon": 0.0, "bike_id": "b1ae43c566d7af55347b1e34415bf97a", "is_disabled": 0, "is_reserved": 0}, {"rental_uris": {"ios": "https://dc.lft.to/lastmile_qr_scan", "android": "https://dc.lft.to/lastmile_qr_scan"}, "lon": -76.984399, "type": "electric_scooter", "fusion_lat": 0.0, "lat": 38.9145845, "name": "983159b595a74308277c26560d2a55e6", "fusion_lon": 0.0, "bike_id": "983159b595a74308277c26560d2a55e6", "is_disabled": 0, "is_reserved": 0}, {"rental_uris": {"ios": "https://dc.lft.to/lastmile_qr_scan", "android": "https://dc.lft.to/lastmile_qr_scan"}, "lon": -76.997951, "type": "electric_scooter", "fusion_lat": 0.0, "lat": 38.900001333333336, "name": "e171e7bbb3c8af1edbb7b801df12033c", "fusion_lon": 0.0, "bike_id": "e171e7bbb3c8af1edbb7b801df12033c", "is_disabled": 0, "is_reserved": 0}, {"rental_uris": {"ios": "https://dc.lft.to/lastmile_qr_scan", "android": "https://dc.lft.to/lastmile_qr_scan"}, "lon": -77.06607116666666, "type": "electric_bike", "fusion_lat": 0.0, "lat": 38.911333, "name": "d928f414be53a35f3efed1d76efd7512", "fusion_lon": 0.0, "bike_id": "d928f414be53a35f3efed1d76efd7512", "is_disabled": 0, "is_reserved": 0}, {"rental_uris": {"ios": "https://dc.lft.to/lastmile_qr_scan", "android": "https://dc.lft.to/lastmile_qr_scan"}, "lon": -77.03867233333334, "type": "electric_scooter", "fusion_lat": 0.0, "lat": 38.91560883333333, "name": "535f24581fec64bf3b7f1a8f42826a01", "fusion_lon": 0.0, "bike_id": "535f24581fec64bf3b7f1a8f42826a01", "is_disabled": 0, "is_reserved": 0}, {"rental_uris": {"ios": "https://dc.lft.to/lastmile_qr_scan", "android": "https://dc.lft.to/lastmile_qr_scan"}, "lon": -77.06688883333334, "type": "electric_scooter", "fusion_lat": 0.0, "lat": 38.909718, "name": "595c12b5082ba9574637dcff1e4dbcd8", "fusion_lon": 0.0, "bike_id": "595c12b5082ba9574637dcff1e4dbcd8", "is_disabled": 0, "is_reserved": 0}, {"rental_uris": {"ios": "https://dc.lft.to/lastmile_qr_scan", "android": "https://dc.lft.to/lastmile_qr_scan"}, "lon": -77.03519116666666, "type": "electric_scooter", "fusion_lat": 0.0, "lat": 38.923347166666666, "name": "996bcfa7ca08b01d5a0416680261f4e8", "fusion_lon": 0.0, "bike_id": "996bcfa7ca08b01d5a0416680261f4e8", "is_disabled": 0, "is_reserved": 0}, {"rental_uris": {"ios": "https://dc.lft.to/lastmile_qr_scan", "android": "https://dc.lft.to/lastmile_qr_scan"}, "lon": -77.03971366666667, "type": "electric_scooter", "fusion_lat": 0.0, "lat": 38.916225833333336, "name": "42ceaf5481bb415ccbee6ef7e8bdde4e", "fusion_lon": 0.0, "bike_id": "42ceaf5481bb415ccbee6ef7e8bdde4e", "is_disabled": 0, "is_reserved": 0}, {"rental_uris": {"ios": "https://dc.lft.to/lastmile_qr_scan", "android": "https://dc.lft.to/lastmile_qr_scan"}, "lon": -76.99033, "type": "electric_scooter", "fusion_lat": 0.0, "lat": 38.858691, "name": "46606999a51a38bdd10b7d3b3f9fe233", "fusion_lon": 0.0, "bike_id": "46606999a51a38bdd10b7d3b3f9fe233", "is_disabled": 0, "is_reserved": 0}, {"rental_uris": {"ios": "https://dc.lft.to/lastmile_qr_scan", "android": "https://dc.lft.to/lastmile_qr_scan"}, "lon": -77.00924883333333, "type": "electric_scooter", "fusion_lat": 0.0, "lat": 38.912404333333335, "name": "0ed2f1ecabe4a6bd8347a687be461782", "fusion_lon": 0.0, "bike_id": "0ed2f1ecabe4a6bd8347a687be461782", "is_disabled": 0, "is_reserved": 0}, {"rental_uris": {"ios": "https://dc.lft.to/lastmile_qr_scan", "android": "https://dc.lft.to/lastmile_qr_scan"}, "lon": -77.029696, "type": "electric_scooter", "fusion_lat": 0.0, "lat": 38.9052615, "name": "375d5c616cd404a87c14776bbf1f7015", "fusion_lon": 0.0, "bike_id": "375d5c616cd404a87c14776bbf1f7015", "is_disabled": 0, "is_reserved": 0}, {"rental_uris": {"ios": "https://dc.lft.to/lastmile_qr_scan", "android": "https://dc.lft.to/lastmile_qr_scan"}, "lon": -77.0286095, "type": "electric_scooter", "fusion_lat": 0.0, "lat": 38.92376016666667, "name": "eafb09fc938071b2613e1a55e746d36c", "fusion_lon": 0.0, "bike_id": "eafb09fc938071b2613e1a55e746d36c", "is_disabled": 0, "is_reserved": 0}, {"rental_uris": {"ios": "https://dc.lft.to/lastmile_qr_scan", "android": "https://dc.lft.to/lastmile_qr_scan"}, "lon": -77.04713166666667, "type": "electric_scooter", "fusion_lat": 0.0, "lat": 38.908593333333336, "name": "8bc10866deafc012b2aed266e13e6d63", "fusion_lon": 0.0, "bike_id": "8bc10866deafc012b2aed266e13e6d63", "is_disabled": 0, "is_reserved": 0}, {"rental_uris": {"ios": "https://dc.lft.to/lastmile_qr_scan", "android": "https://dc.lft.to/lastmile_qr_scan"}, "lon": -76.9760675, "type": "electric_bike", "fusion_lat": 0.0, "lat": 38.913101166666664, "name": "2aa306c5474da331baa6946103645629", "fusion_lon": 0.0, "bike_id": "2aa306c5474da331baa6946103645629", "is_disabled": 0, "is_reserved": 0}, {"rental_uris": {"ios": "https://dc.lft.to/lastmile_qr_scan", "android": "https://dc.lft.to/lastmile_qr_scan"}, "lon": -77.03863266666667, "type": "electric_scooter", "fusion_lat": 0.0, "lat": 38.92017966666667, "name": "8d80dd9903f285f17d48abc43da28285", "fusion_lon": 0.0, "bike_id": "8d80dd9903f285f17d48abc43da28285", "is_disabled": 0, "is_reserved": 0}, {"rental_uris": {"ios": "https://dc.lft.to/lastmile_qr_scan", "android": "https://dc.lft.to/lastmile_qr_scan"}, "lon": -76.97881116666667, "type": "electric_scooter", "fusion_lat": 0.0, "lat": 38.88509833333333, "name": "9ba852098d2ad5051be92be1f0821a42", "fusion_lon": 0.0, "bike_id": "9ba852098d2ad5051be92be1f0821a42", "is_disabled": 0, "is_reserved": 0}, {"rental_uris": {"ios": "https://dc.lft.to/lastmile_qr_scan", "android": "https://dc.lft.to/lastmile_qr_scan"}, "lon": -77.03271216666667, "type": "electric_scooter", "fusion_lat": 0.0, "lat": 38.909598833333334, "name": "7e8c6501cd7a267bafd67155cfa44997", "fusion_lon": 0.0, "bike_id": "7e8c6501cd7a267bafd67155cfa44997", "is_disabled": 0, "is_reserved": 0}, {"rental_uris": {"ios": "https://dc.lft.to/lastmile_qr_scan", "android": "https://dc.lft.to/lastmile_qr_scan"}, "lon": -76.98702966666667, "type": "electric_scooter", "fusion_lat": 0.0, "lat": 38.907051333333335, "name": "7149bc075c34561f5f597a5f2eb666e0", "fusion_lon": 0.0, "bike_id": "7149bc075c34561f5f597a5f2eb666e0", "is_disabled": 0, "is_reserved": 0}, {"rental_uris": {"ios": "https://dc.lft.to/lastmile_qr_scan", "android": "https://dc.lft.to/lastmile_qr_scan"}, "lon": -77.03609966666667, "type": "electric_scooter", "fusion_lat": 0.0, "lat": 38.9233365, "name": "ec6aa9b96eeadf7842466fd69b2275b3", "fusion_lon": 0.0, "bike_id": "ec6aa9b96eeadf7842466fd69b2275b3", "is_disabled": 0, "is_reserved": 0}, {"rental_uris": {"ios": "https://dc.lft.to/lastmile_qr_scan", "android": "https://dc.lft.to/lastmile_qr_scan"}, "lon": -77.01489016666666, "type": "electric_scooter", "fusion_lat": 0.0, "lat": 38.881221333333336, "name": "1884567a2e5ea01b8f9937a3805a3a9f", "fusion_lon": 0.0, "bike_id": "1884567a2e5ea01b8f9937a3805a3a9f", "is_disabled": 0, "is_reserved": 0}, {"rental_uris": {"ios": "https://dc.lft.to/lastmile_qr_scan", "android": "https://dc.lft.to/lastmile_qr_scan"}, "lon": -77.0351555, "type": "electric_bike", "fusion_lat": 0.0, "lat": 38.965173666666665, "name": "63842829a53b1f6061428f911c355df2", "fusion_lon": 0.0, "bike_id": "63842829a53b1f6061428f911c355df2", "is_disabled": 0, "is_reserved": 0}, {"rental_uris": {"ios": "https://dc.lft.to/lastmile_qr_scan", "android": "https://dc.lft.to/lastmile_qr_scan"}, "lon": -77.04043933333334, "type": "electric_scooter", "fusion_lat": 0.0, "lat": 38.90283633333333, "name": "dcead9b8c96315bf0fa80baad5a4d00e", "fusion_lon": 0.0, "bike_id": "dcead9b8c96315bf0fa80baad5a4d00e", "is_disabled": 0, "is_reserved": 0}, {"rental_uris": {"ios": "https://dc.lft.to/lastmile_qr_scan", "android": "https://dc.lft.to/lastmile_qr_scan"}, "lon": -77.02623966666667, "type": "electric_scooter", "fusion_lat": 0.0, "lat": 38.905648166666666, "name": "14be1d796605a4b2ecabb0962a4375e0", "fusion_lon": 0.0, "bike_id": "14be1d796605a4b2ecabb0962a4375e0", "is_disabled": 0, "is_reserved": 0}, {"rental_uris": {"ios": "https://dc.lft.to/lastmile_qr_scan", "android": "https://dc.lft.to/lastmile_qr_scan"}, "lon": -77.011228, "type": "electric_scooter", "fusion_lat": 0.0, "lat": 38.89501633333333, "name": "f42d137405257a51f2a996ded4e4022d", "fusion_lon": 0.0, "bike_id": "f42d137405257a51f2a996ded4e4022d", "is_disabled": 0, "is_reserved": 0}, {"rental_uris": {"ios": "https://dc.lft.to/lastmile_qr_scan", "android": "https://dc.lft.to/lastmile_qr_scan"}, "lon": -77.035069, "type": "electric_scooter", "fusion_lat": 0.0, "lat": 38.9215285, "name": "7c6e98eaf516a692bd2481ac01c96177", "fusion_lon": 0.0, "bike_id": "7c6e98eaf516a692bd2481ac01c96177", "is_disabled": 0, "is_reserved": 0}, {"rental_uris": {"ios": "https://dc.lft.to/lastmile_qr_scan", "android": "https://dc.lft.to/lastmile_qr_scan"}, "lon": -77.0347155, "type": "electric_scooter", "fusion_lat": 0.0, "lat": 38.917111, "name": "d18e1355bdb2609ba2d0db86be580689", "fusion_lon": 0.0, "bike_id": "d18e1355bdb2609ba2d0db86be580689", "is_disabled": 0, "is_reserved": 0}, {"rental_uris": {"ios": "https://dc.lft.to/lastmile_qr_scan", "android": "https://dc.lft.to/lastmile_qr_scan"}, "lon": -77.03929883333333, "type": "electric_scooter", "fusion_lat": 0.0, "lat": 38.89913833333333, "name": "d6af9e939b0103c9e0ab00e4acf733f8", "fusion_lon": 0.0, "bike_id": "d6af9e939b0103c9e0ab00e4acf733f8", "is_disabled": 0, "is_reserved": 0}, {"rental_uris": {"ios": "https://dc.lft.to/lastmile_qr_scan", "android": "https://dc.lft.to/lastmile_qr_scan"}, "lon": -77.031889, "type": "electric_scooter", "fusion_lat": 0.0, "lat": 38.90758066666667, "name": "f22800d59f40775755a98bdab3e8b5a2", "fusion_lon": 0.0, "bike_id": "f22800d59f40775755a98bdab3e8b5a2", "is_disabled": 0, "is_reserved": 0}, {"rental_uris": {"ios": "https://dc.lft.to/lastmile_qr_scan", "android": "https://dc.lft.to/lastmile_qr_scan"}, "lon": -77.024063, "type": "electric_scooter", "fusion_lat": 0.0, "lat": 38.9172065, "name": "e6c5ca97b312738652d20564d05072bf", "fusion_lon": 0.0, "bike_id": "e6c5ca97b312738652d20564d05072bf", "is_disabled": 0, "is_reserved": 0}, {"rental_uris": {"ios": "https://dc.lft.to/lastmile_qr_scan", "android": "https://dc.lft.to/lastmile_qr_scan"}, "lon": -77.02840533333334, "type": "electric_scooter", "fusion_lat": 0.0, "lat": 38.88723666666667, "name": "5f1ce7cb8541cba65f2fab6ce957bc27", "fusion_lon": 0.0, "bike_id": "5f1ce7cb8541cba65f2fab6ce957bc27", "is_disabled": 0, "is_reserved": 0}, {"rental_uris": {"ios": "https://dc.lft.to/lastmile_qr_scan", "android": "https://dc.lft.to/lastmile_qr_scan"}, "lon": -77.02636733333334, "type": "electric_scooter", "fusion_lat": 0.0, "lat": 38.895956166666664, "name": "083b21ecab1242b675d801b205ca8f6e", "fusion_lon": 0.0, "bike_id": "083b21ecab1242b675d801b205ca8f6e", "is_disabled": 0, "is_reserved": 0}, {"rental_uris": {"ios": "https://dc.lft.to/lastmile_qr_scan", "android": "https://dc.lft.to/lastmile_qr_scan"}, "lon": -77.0384065, "type": "electric_scooter", "fusion_lat": 0.0, "lat": 38.926477166666665, "name": "ce51640686e5ff62577664ebf183c916", "fusion_lon": 0.0, "bike_id": "ce51640686e5ff62577664ebf183c916", "is_disabled": 0, "is_reserved": 0}, {"rental_uris": {"ios": "https://dc.lft.to/lastmile_qr_scan", "android": "https://dc.lft.to/lastmile_qr_scan"}, "lon": -77.04694966666666, "type": "electric_scooter", "fusion_lat": 0.0, "lat": 38.90381433333334, "name": "60c707f4457d1ebb8bbcafcfeb8d0a09", "fusion_lon": 0.0, "bike_id": "60c707f4457d1ebb8bbcafcfeb8d0a09", "is_disabled": 0, "is_reserved": 0}, {"rental_uris": {"ios": "https://dc.lft.to/lastmile_qr_scan", "android": "https://dc.lft.to/lastmile_qr_scan"}, "lon": -77.04485033333333, "type": "electric_scooter", "fusion_lat": 0.0, "lat": 38.91871916666667, "name": "1b576cccda32126a6b587ac8267ca737", "fusion_lon": 0.0, "bike_id": "1b576cccda32126a6b587ac8267ca737", "is_disabled": 0, "is_reserved": 0}, {"rental_uris": {"ios": "https://dc.lft.to/lastmile_qr_scan", "android": "https://dc.lft.to/lastmile_qr_scan"}, "lon": -76.99889333333333, "type": "electric_scooter", "fusion_lat": 0.0, "lat": 38.90751516666667, "name": "dfaa6e4da3647dcfbc5fc7beae7194f8", "fusion_lon": 0.0, "bike_id": "dfaa6e4da3647dcfbc5fc7beae7194f8", "is_disabled": 0, "is_reserved": 0}, {"rental_uris": {"ios": "https://dc.lft.to/lastmile_qr_scan", "android": "https://dc.lft.to/lastmile_qr_scan"}, "lon": -77.015078, "type": "electric_scooter", "fusion_lat": 0.0, "lat": 38.901488666666665, "name": "760ff35e987b04511c5c5a0ee4e5bec5", "fusion_lon": 0.0, "bike_id": "760ff35e987b04511c5c5a0ee4e5bec5", "is_disabled": 0, "is_reserved": 0}, {"rental_uris": {"ios": "https://dc.lft.to/lastmile_qr_scan", "android": "https://dc.lft.to/lastmile_qr_scan"}, "lon": -76.9720815, "type": "electric_scooter", "fusion_lat": 0.0, "lat": 38.85498, "name": "af47de2d74aa3af963ee2a2c885f87e0", "fusion_lon": 0.0, "bike_id": "af47de2d74aa3af963ee2a2c885f87e0", "is_disabled": 0, "is_reserved": 0}, {"rental_uris": {"ios": "https://dc.lft.to/lastmile_qr_scan", "android": "https://dc.lft.to/lastmile_qr_scan"}, "lon": -77.0433285, "type": "electric_scooter", "fusion_lat": 0.0, "lat": 38.895871666666665, "name": "7917a55da85cf36dc514cef0fc879a2a", "fusion_lon": 0.0, "bike_id": "7917a55da85cf36dc514cef0fc879a2a", "is_disabled": 0, "is_reserved": 0}, {"rental_uris": {"ios": "https://dc.lft.to/lastmile_qr_scan", "android": "https://dc.lft.to/lastmile_qr_scan"}, "lon": -76.94633883333333, "type": "electric_bike", "fusion_lat": 0.0, "lat": 38.94623766666667, "name": "10956ff120eb790d4512b14b72508d60", "fusion_lon": 0.0, "bike_id": "10956ff120eb790d4512b14b72508d60", "is_disabled": 0, "is_reserved": 0}, {"rental_uris": {"ios": "https://dc.lft.to/lastmile_qr_scan", "android": "https://dc.lft.to/lastmile_qr_scan"}, "lon": -77.12734666666667, "type": "electric_bike", "fusion_lat": 0.0, "lat": 38.89561533333333, "name": "720b83f6f5f956fee89bfa9e333d93a5", "fusion_lon": 0.0, "bike_id": "720b83f6f5f956fee89bfa9e333d93a5", "is_disabled": 0, "is_reserved": 0}, {"rental_uris": {"ios": "https://dc.lft.to/lastmile_qr_scan", "android": "https://dc.lft.to/lastmile_qr_scan"}, "lon": -77.0107525, "type": "electric_bike", "fusion_lat": 0.0, "lat": 38.919117, "name": "372a38272226fdda9330f25878a9d88f", "fusion_lon": 0.0, "bike_id": "372a38272226fdda9330f25878a9d88f", "is_disabled": 0, "is_reserved": 0}, {"rental_uris": {"ios": "https://dc.lft.to/lastmile_qr_scan", "android": "https://dc.lft.to/lastmile_qr_scan"}, "lon": -77.00974333333333, "type": "electric_scooter", "fusion_lat": 0.0, "lat": 38.914157833333334, "name": "a0ce8714c884bec98f86200bb89856cd", "fusion_lon": 0.0, "bike_id": "a0ce8714c884bec98f86200bb89856cd", "is_disabled": 0, "is_reserved": 0}, {"rental_uris": {"ios": "https://dc.lft.to/lastmile_qr_scan", "android": "https://dc.lft.to/lastmile_qr_scan"}, "lon": -76.94865983333334, "type": "electric_scooter", "fusion_lat": 0.0, "lat": 38.895948833333335, "name": "0e5ffbd103cd412c8acec16a2be82263", "fusion_lon": 0.0, "bike_id": "0e5ffbd103cd412c8acec16a2be82263", "is_disabled": 0, "is_reserved": 0}, {"rental_uris": {"ios": "https://dc.lft.to/lastmile_qr_scan", "android": "https://dc.lft.to/lastmile_qr_scan"}, "lon": -77.03304916666667, "type": "electric_scooter", "fusion_lat": 0.0, "lat": 38.90945, "name": "639f30a0c7b4728a4eb56c1ebb701cdd", "fusion_lon": 0.0, "bike_id": "639f30a0c7b4728a4eb56c1ebb701cdd", "is_disabled": 0, "is_reserved": 0}, {"rental_uris": {"ios": "https://dc.lft.to/lastmile_qr_scan", "android": "https://dc.lft.to/lastmile_qr_scan"}, "lon": -77.02805866666667, "type": "electric_scooter", "fusion_lat": 0.0, "lat": 38.9106595, "name": "9c06737ba75645b88ac0ac01fdddef23", "fusion_lon": 0.0, "bike_id": "9c06737ba75645b88ac0ac01fdddef23", "is_disabled": 0, "is_reserved": 0}, {"rental_uris": {"ios": "https://dc.lft.to/lastmile_qr_scan", "android": "https://dc.lft.to/lastmile_qr_scan"}, "lon": -77.010704, "type": "electric_scooter", "fusion_lat": 0.0, "lat": 38.874751, "name": "719560b14ae3263e2de19f1240b248b4", "fusion_lon": 0.0, "bike_id": "719560b14ae3263e2de19f1240b248b4", "is_disabled": 0, "is_reserved": 0}, {"rental_uris": {"ios": "https://dc.lft.to/lastmile_qr_scan", "android": "https://dc.lft.to/lastmile_qr_scan"}, "lon": -76.91655966666667, "type": "electric_bike", "fusion_lat": 0.0, "lat": 38.868588333333335, "name": "3f41ea0ad9a258dd06f259a0f6b4e3be", "fusion_lon": 0.0, "bike_id": "3f41ea0ad9a258dd06f259a0f6b4e3be", "is_disabled": 0, "is_reserved": 0}, {"rental_uris": {"ios": "https://dc.lft.to/lastmile_qr_scan", "android": "https://dc.lft.to/lastmile_qr_scan"}, "lon": -76.99005933333333, "type": "electric_scooter", "fusion_lat": 0.0, "lat": 38.90391733333333, "name": "fd494f60eb644f983271032b85536f11", "fusion_lon": 0.0, "bike_id": "fd494f60eb644f983271032b85536f11", "is_disabled": 0, "is_reserved": 0}, {"rental_uris": {"ios": "https://dc.lft.to/lastmile_qr_scan", "android": "https://dc.lft.to/lastmile_qr_scan"}, "lon": -77.01840533333333, "type": "electric_scooter", "fusion_lat": 0.0, "lat": 38.90873, "name": "84e65dcffa30772684fcb9c3fe1cbcf9", "fusion_lon": 0.0, "bike_id": "84e65dcffa30772684fcb9c3fe1cbcf9", "is_disabled": 0, "is_reserved": 0}, {"rental_uris": {"ios": "https://dc.lft.to/lastmile_qr_scan", "android": "https://dc.lft.to/lastmile_qr_scan"}, "lon": -77.026206, "type": "electric_scooter", "fusion_lat": 0.0, "lat": 38.93400666666667, "name": "60cfdd7adde6418eb7a357d1cb5d6325", "fusion_lon": 0.0, "bike_id": "60cfdd7adde6418eb7a357d1cb5d6325", "is_disabled": 0, "is_reserved": 0}, {"rental_uris": {"ios": "https://dc.lft.to/lastmile_qr_scan", "android": "https://dc.lft.to/lastmile_qr_scan"}, "lon": -77.0698445, "type": "electric_scooter", "fusion_lat": 0.0, "lat": 38.954865, "name": "22e5110986a973d72aede526032873a5", "fusion_lon": 0.0, "bike_id": "22e5110986a973d72aede526032873a5", "is_disabled": 0, "is_reserved": 0}, {"rental_uris": {"ios": "https://dc.lft.to/lastmile_qr_scan", "android": "https://dc.lft.to/lastmile_qr_scan"}, "lon": -77.06326183333333, "type": "electric_scooter", "fusion_lat": 0.0, "lat": 38.90766033333333, "name": "3606c2993760df250c00be36b178e3b4", "fusion_lon": 0.0, "bike_id": "3606c2993760df250c00be36b178e3b4", "is_disabled": 0, "is_reserved": 0}, {"rental_uris": {"ios": "https://dc.lft.to/lastmile_qr_scan", "android": "https://dc.lft.to/lastmile_qr_scan"}, "lon": -76.99791566666667, "type": "electric_scooter", "fusion_lat": 0.0, "lat": 38.9218055, "name": "506517d219ec0a862e62bd8e5e39c454", "fusion_lon": 0.0, "bike_id": "506517d219ec0a862e62bd8e5e39c454", "is_disabled": 0, "is_reserved": 0}, {"rental_uris": {"ios": "https://dc.lft.to/lastmile_qr_scan", "android": "https://dc.lft.to/lastmile_qr_scan"}, "lon": -76.9950145, "type": "electric_bike", "fusion_lat": 0.0, "lat": 38.99997, "name": "2d2eb857e2adb2cfec02b1aca950ae9c", "fusion_lon": 0.0, "bike_id": "2d2eb857e2adb2cfec02b1aca950ae9c", "is_disabled": 0, "is_reserved": 0}, {"rental_uris": {"ios": "https://dc.lft.to/lastmile_qr_scan", "android": "https://dc.lft.to/lastmile_qr_scan"}, "lon": -77.005128, "type": "electric_scooter", "fusion_lat": 0.0, "lat": 38.91709, "name": "fbcde7dda7af947002631e31813d43ca", "fusion_lon": 0.0, "bike_id": "fbcde7dda7af947002631e31813d43ca", "is_disabled": 0, "is_reserved": 0}, {"rental_uris": {"ios": "https://dc.lft.to/lastmile_qr_scan", "android": "https://dc.lft.to/lastmile_qr_scan"}, "lon": -77.051433, "type": "electric_scooter", "fusion_lat": 0.0, "lat": 38.901248, "name": "93485d888d32317074f7fb31bfac3e75", "fusion_lon": 0.0, "bike_id": "93485d888d32317074f7fb31bfac3e75", "is_disabled": 0, "is_reserved": 0}, {"rental_uris": {"ios": "https://dc.lft.to/lastmile_qr_scan", "android": "https://dc.lft.to/lastmile_qr_scan"}, "lon": -76.99977483333333, "type": "electric_scooter", "fusion_lat": 0.0, "lat": 38.83838983333333, "name": "ee96fc05d5e33a820f6d8e836703696f", "fusion_lon": 0.0, "bike_id": "ee96fc05d5e33a820f6d8e836703696f", "is_disabled": 0, "is_reserved": 0}, {"rental_uris": {"ios": "https://dc.lft.to/lastmile_qr_scan", "android": "https://dc.lft.to/lastmile_qr_scan"}, "lon": -77.04010266666667, "type": "electric_scooter", "fusion_lat": 0.0, "lat": 38.9012465, "name": "36c608f2a6ee5f53c87aac7a8fd68c38", "fusion_lon": 0.0, "bike_id": "36c608f2a6ee5f53c87aac7a8fd68c38", "is_disabled": 0, "is_reserved": 0}, {"rental_uris": {"ios": "https://dc.lft.to/lastmile_qr_scan", "android": "https://dc.lft.to/lastmile_qr_scan"}, "lon": -77.03132283333333, "type": "electric_scooter", "fusion_lat": 0.0, "lat": 38.923754, "name": "2968e4c2f63a6fcb88a231e1d29c30a0", "fusion_lon": 0.0, "bike_id": "2968e4c2f63a6fcb88a231e1d29c30a0", "is_disabled": 0, "is_reserved": 0}, {"rental_uris": {"ios": "https://dc.lft.to/lastmile_qr_scan", "android": "https://dc.lft.to/lastmile_qr_scan"}, "lon": -77.02224033333333, "type": "electric_scooter", "fusion_lat": 0.0, "lat": 38.90539183333333, "name": "f9b38fe5b2ac73c64708b3ea056345a6", "fusion_lon": 0.0, "bike_id": "f9b38fe5b2ac73c64708b3ea056345a6", "is_disabled": 0, "is_reserved": 0}, {"rental_uris": {"ios": "https://dc.lft.to/lastmile_qr_scan", "android": "https://dc.lft.to/lastmile_qr_scan"}, "lon": -77.041477, "type": "electric_scooter", "fusion_lat": 0.0, "lat": 38.922965, "name": "c534890d7b3d80c6062000c04f39f07c", "fusion_lon": 0.0, "bike_id": "c534890d7b3d80c6062000c04f39f07c", "is_disabled": 0, "is_reserved": 0}, {"rental_uris": {"ios": "https://dc.lft.to/lastmile_qr_scan", "android": "https://dc.lft.to/lastmile_qr_scan"}, "lon": -77.03226516666666, "type": "electric_scooter", "fusion_lat": 0.0, "lat": 38.926694, "name": "1ac7c967e8820322bffa5dc9202794d3", "fusion_lon": 0.0, "bike_id": "1ac7c967e8820322bffa5dc9202794d3", "is_disabled": 0, "is_reserved": 0}, {"rental_uris": {"ios": "https://dc.lft.to/lastmile_qr_scan", "android": "https://dc.lft.to/lastmile_qr_scan"}, "lon": -76.99386016666666, "type": "electric_scooter", "fusion_lat": 0.0, "lat": 38.887493, "name": "ef32f5de58f68b31c24cb29df59a9ffc", "fusion_lon": 0.0, "bike_id": "ef32f5de58f68b31c24cb29df59a9ffc", "is_disabled": 0, "is_reserved": 0}, {"rental_uris": {"ios": "https://dc.lft.to/lastmile_qr_scan", "android": "https://dc.lft.to/lastmile_qr_scan"}, "lon": -76.9441815, "type": "electric_scooter", "fusion_lat": 0.0, "lat": 38.897895166666665, "name": "4bceae33b2ea7cab2b41c90078883c9a", "fusion_lon": 0.0, "bike_id": "4bceae33b2ea7cab2b41c90078883c9a", "is_disabled": 0, "is_reserved": 0}, {"rental_uris": {"ios": "https://dc.lft.to/lastmile_qr_scan", "android": "https://dc.lft.to/lastmile_qr_scan"}, "lon": -76.98355916666667, "type": "electric_scooter", "fusion_lat": 0.0, "lat": 38.915351666666666, "name": "9750bcd2f6d475b3e7b9a72e3f4a4d23", "fusion_lon": 0.0, "bike_id": "9750bcd2f6d475b3e7b9a72e3f4a4d23", "is_disabled": 0, "is_reserved": 0}, {"rental_uris": {"ios": "https://dc.lft.to/lastmile_qr_scan", "android": "https://dc.lft.to/lastmile_qr_scan"}, "lon": -77.042191, "type": "electric_scooter", "fusion_lat": 0.0, "lat": 38.921141166666665, "name": "300fd5ed38db6dd9ffc0cfddd0b94f67", "fusion_lon": 0.0, "bike_id": "300fd5ed38db6dd9ffc0cfddd0b94f67", "is_disabled": 0, "is_reserved": 0}, {"rental_uris": {"ios": "https://dc.lft.to/lastmile_qr_scan", "android": "https://dc.lft.to/lastmile_qr_scan"}, "lon": -77.06495483333333, "type": "electric_bike", "fusion_lat": 0.0, "lat": 38.96493233333333, "name": "9a6a34c52beaf27cbf9c04c7ad94f04f", "fusion_lon": 0.0, "bike_id": "9a6a34c52beaf27cbf9c04c7ad94f04f", "is_disabled": 0, "is_reserved": 0}, {"rental_uris": {"ios": "https://dc.lft.to/lastmile_qr_scan", "android": "https://dc.lft.to/lastmile_qr_scan"}, "lon": -77.03450616666667, "type": "electric_scooter", "fusion_lat": 0.0, "lat": 38.918771, "name": "096d390f5a736a8835484b86b8831aa5", "fusion_lon": 0.0, "bike_id": "096d390f5a736a8835484b86b8831aa5", "is_disabled": 0, "is_reserved": 0}, {"rental_uris": {"ios": "https://dc.lft.to/lastmile_qr_scan", "android": "https://dc.lft.to/lastmile_qr_scan"}, "lon": -76.990031, "type": "electric_scooter", "fusion_lat": 0.0, "lat": 38.9038715, "name": "ff62de7bd20c3dccd7f35488fe51c4e2", "fusion_lon": 0.0, "bike_id": "ff62de7bd20c3dccd7f35488fe51c4e2", "is_disabled": 0, "is_reserved": 0}, {"rental_uris": {"ios": "https://dc.lft.to/lastmile_qr_scan", "android": "https://dc.lft.to/lastmile_qr_scan"}, "lon": -77.03554616666666, "type": "electric_scooter", "fusion_lat": 0.0, "lat": 38.927426833333335, "name": "8c2eb8d87eb5c6cc28d2dbd96288f26d", "fusion_lon": 0.0, "bike_id": "8c2eb8d87eb5c6cc28d2dbd96288f26d", "is_disabled": 0, "is_reserved": 0}, {"rental_uris": {"ios": "https://dc.lft.to/lastmile_qr_scan", "android": "https://dc.lft.to/lastmile_qr_scan"}, "lon": -77.01020366666667, "type": "electric_scooter", "fusion_lat": 0.0, "lat": 38.91806666666667, "name": "a0efada054712a2f3947f865bd26413f", "fusion_lon": 0.0, "bike_id": "a0efada054712a2f3947f865bd26413f", "is_disabled": 0, "is_reserved": 0}, {"rental_uris": {"ios": "https://dc.lft.to/lastmile_qr_scan", "android": "https://dc.lft.to/lastmile_qr_scan"}, "lon": -77.05071383333333, "type": "electric_bike", "fusion_lat": 0.0, "lat": 39.061306333333334, "name": "1a09ea3048f520b2a315b835bf77bc54", "fusion_lon": 0.0, "bike_id": "1a09ea3048f520b2a315b835bf77bc54", "is_disabled": 0, "is_reserved": 0}, {"rental_uris": {"ios": "https://dc.lft.to/lastmile_qr_scan", "android": "https://dc.lft.to/lastmile_qr_scan"}, "lon": -77.02836683333334, "type": "electric_scooter", "fusion_lat": 0.0, "lat": 38.928586, "name": "b06cf845cda070f89bd1f51e7af05968", "fusion_lon": 0.0, "bike_id": "b06cf845cda070f89bd1f51e7af05968", "is_disabled": 0, "is_reserved": 0}, {"rental_uris": {"ios": "https://dc.lft.to/lastmile_qr_scan", "android": "https://dc.lft.to/lastmile_qr_scan"}, "lon": -77.019933, "type": "electric_scooter", "fusion_lat": 0.0, "lat": 38.93783033333333, "name": "4956fd4e022046a8c1f74a3c84531b1f", "fusion_lon": 0.0, "bike_id": "4956fd4e022046a8c1f74a3c84531b1f", "is_disabled": 0, "is_reserved": 0}, {"rental_uris": {"ios": "https://dc.lft.to/lastmile_qr_scan", "android": "https://dc.lft.to/lastmile_qr_scan"}, "lon": -77.03525566666667, "type": "electric_scooter", "fusion_lat": 0.0, "lat": 38.93586, "name": "6805f9358f88d8eae30a964b8a1e2669", "fusion_lon": 0.0, "bike_id": "6805f9358f88d8eae30a964b8a1e2669", "is_disabled": 0, "is_reserved": 0}, {"rental_uris": {"ios": "https://dc.lft.to/lastmile_qr_scan", "android": "https://dc.lft.to/lastmile_qr_scan"}, "lon": -77.0592885, "type": "electric_scooter", "fusion_lat": 0.0, "lat": 38.909575333333336, "name": "0e87b3dc65d34644d4668c5fabbbf92f", "fusion_lon": 0.0, "bike_id": "0e87b3dc65d34644d4668c5fabbbf92f", "is_disabled": 0, "is_reserved": 0}, {"rental_uris": {"ios": "https://dc.lft.to/lastmile_qr_scan", "android": "https://dc.lft.to/lastmile_qr_scan"}, "lon": -77.009359, "type": "electric_scooter", "fusion_lat": 0.0, "lat": 38.871947166666665, "name": "5845415276cfd936659fd60e25148dd3", "fusion_lon": 0.0, "bike_id": "5845415276cfd936659fd60e25148dd3", "is_disabled": 0, "is_reserved": 0}, {"rental_uris": {"ios": "https://dc.lft.to/lastmile_qr_scan", "android": "https://dc.lft.to/lastmile_qr_scan"}, "lon": -76.9745975, "type": "electric_scooter", "fusion_lat": 0.0, "lat": 38.86539666666667, "name": "4f5c39829979b5cde4c8af8a632e12fd", "fusion_lon": 0.0, "bike_id": "4f5c39829979b5cde4c8af8a632e12fd", "is_disabled": 0, "is_reserved": 0}, {"rental_uris": {"ios": "https://dc.lft.to/lastmile_qr_scan", "android": "https://dc.lft.to/lastmile_qr_scan"}, "lon": -76.98365716666666, "type": "electric_scooter", "fusion_lat": 0.0, "lat": 38.91537966666667, "name": "f538929b35f10b16331d5941462433ef", "fusion_lon": 0.0, "bike_id": "f538929b35f10b16331d5941462433ef", "is_disabled": 0, "is_reserved": 0}, {"rental_uris": {"ios": "https://dc.lft.to/lastmile_qr_scan", "android": "https://dc.lft.to/lastmile_qr_scan"}, "lon": -77.02228483333333, "type": "electric_scooter", "fusion_lat": 0.0, "lat": 38.912675166666666, "name": "cac5d295b5a52e1d67e85f1cd2b95b31", "fusion_lon": 0.0, "bike_id": "cac5d295b5a52e1d67e85f1cd2b95b31", "is_disabled": 0, "is_reserved": 0}, {"rental_uris": {"ios": "https://dc.lft.to/lastmile_qr_scan", "android": "https://dc.lft.to/lastmile_qr_scan"}, "lon": -76.987916, "type": "electric_bike", "fusion_lat": 0.0, "lat": 38.904175333333335, "name": "ee81b7763c62207d4d6ec160d1ff1965", "fusion_lon": 0.0, "bike_id": "ee81b7763c62207d4d6ec160d1ff1965", "is_disabled": 0, "is_reserved": 0}, {"rental_uris": {"ios": "https://dc.lft.to/lastmile_qr_scan", "android": "https://dc.lft.to/lastmile_qr_scan"}, "lon": -76.95467866666667, "type": "electric_bike", "fusion_lat": 0.0, "lat": 38.88642883333333, "name": "326b25a7196bc934d7da5d24f303aefd", "fusion_lon": 0.0, "bike_id": "326b25a7196bc934d7da5d24f303aefd", "is_disabled": 0, "is_reserved": 0}, {"rental_uris": {"ios": "https://dc.lft.to/lastmile_qr_scan", "android": "https://dc.lft.to/lastmile_qr_scan"}, "lon": -76.990687, "type": "electric_scooter", "fusion_lat": 0.0, "lat": 38.86359516666667, "name": "b6218c249f36c92d52787c4eaea87d42", "fusion_lon": 0.0, "bike_id": "b6218c249f36c92d52787c4eaea87d42", "is_disabled": 0, "is_reserved": 0}, {"rental_uris": {"ios": "https://dc.lft.to/lastmile_qr_scan", "android": "https://dc.lft.to/lastmile_qr_scan"}, "lon": -77.03403283333333, "type": "electric_scooter", "fusion_lat": 0.0, "lat": 38.921457, "name": "c898d72d1b19abeb98c081a4576dede5", "fusion_lon": 0.0, "bike_id": "c898d72d1b19abeb98c081a4576dede5", "is_disabled": 0, "is_reserved": 0}, {"rental_uris": {"ios": "https://dc.lft.to/lastmile_qr_scan", "android": "https://dc.lft.to/lastmile_qr_scan"}, "lon": -77.0270995, "type": "electric_scooter", "fusion_lat": 0.0, "lat": 38.9181615, "name": "a608ed76a1a0aab7342e744bc3a95357", "fusion_lon": 0.0, "bike_id": "a608ed76a1a0aab7342e744bc3a95357", "is_disabled": 0, "is_reserved": 0}, {"rental_uris": {"ios": "https://dc.lft.to/lastmile_qr_scan", "android": "https://dc.lft.to/lastmile_qr_scan"}, "lon": -77.012256, "type": "electric_scooter", "fusion_lat": 0.0, "lat": 38.915979166666666, "name": "a5f2a2a3ecde60cdac9294f932ad882c", "fusion_lon": 0.0, "bike_id": "a5f2a2a3ecde60cdac9294f932ad882c", "is_disabled": 0, "is_reserved": 0}, {"rental_uris": {"ios": "https://dc.lft.to/lastmile_qr_scan", "android": "https://dc.lft.to/lastmile_qr_scan"}, "lon": -77.11796716666667, "type": "electric_bike", "fusion_lat": 0.0, "lat": 38.898374, "name": "3a1387b62409bf70c308770cf384b385", "fusion_lon": 0.0, "bike_id": "3a1387b62409bf70c308770cf384b385", "is_disabled": 0, "is_reserved": 0}, {"rental_uris": {"ios": "https://dc.lft.to/lastmile_qr_scan", "android": "https://dc.lft.to/lastmile_qr_scan"}, "lon": -77.05993916666667, "type": "electric_scooter", "fusion_lat": 0.0, "lat": 38.935528166666664, "name": "0877aafd98571eb50f7fae54aa69e201", "fusion_lon": 0.0, "bike_id": "0877aafd98571eb50f7fae54aa69e201", "is_disabled": 0, "is_reserved": 0}, {"rental_uris": {"ios": "https://dc.lft.to/lastmile_qr_scan", "android": "https://dc.lft.to/lastmile_qr_scan"}, "lon": -77.032078, "type": "electric_scooter", "fusion_lat": 0.0, "lat": 38.900371, "name": "056de89bb6afb8984dfb2bf05a65120f", "fusion_lon": 0.0, "bike_id": "056de89bb6afb8984dfb2bf05a65120f", "is_disabled": 0, "is_reserved": 0}, {"rental_uris": {"ios": "https://dc.lft.to/lastmile_qr_scan", "android": "https://dc.lft.to/lastmile_qr_scan"}, "lon": -77.01216933333333, "type": "electric_scooter", "fusion_lat": 0.0, "lat": 38.914940666666666, "name": "46a4cbaf95af57bf4b5483b215c697b8", "fusion_lon": 0.0, "bike_id": "46a4cbaf95af57bf4b5483b215c697b8", "is_disabled": 0, "is_reserved": 0}, {"rental_uris": {"ios": "https://dc.lft.to/lastmile_qr_scan", "android": "https://dc.lft.to/lastmile_qr_scan"}, "lon": -77.03837916666667, "type": "electric_scooter", "fusion_lat": 0.0, "lat": 38.9264055, "name": "cff918cb9b1e9577cdb99ce224f23a2c", "fusion_lon": 0.0, "bike_id": "cff918cb9b1e9577cdb99ce224f23a2c", "is_disabled": 0, "is_reserved": 0}, {"rental_uris": {"ios": "https://dc.lft.to/lastmile_qr_scan", "android": "https://dc.lft.to/lastmile_qr_scan"}, "lon": -77.05225033333333, "type": "electric_scooter", "fusion_lat": 0.0, "lat": 38.898131, "name": "4ed07abae8c39b6cf9ee7b5c56b94b1d", "fusion_lon": 0.0, "bike_id": "4ed07abae8c39b6cf9ee7b5c56b94b1d", "is_disabled": 0, "is_reserved": 0}, {"rental_uris": {"ios": "https://dc.lft.to/lastmile_qr_scan", "android": "https://dc.lft.to/lastmile_qr_scan"}, "lon": -77.01516983333333, "type": "electric_scooter", "fusion_lat": 0.0, "lat": 38.88735783333333, "name": "bfb2b1dbcccce2fbc34993964093c7be", "fusion_lon": 0.0, "bike_id": "bfb2b1dbcccce2fbc34993964093c7be", "is_disabled": 0, "is_reserved": 0}, {"rental_uris": {"ios": "https://dc.lft.to/lastmile_qr_scan", "android": "https://dc.lft.to/lastmile_qr_scan"}, "lon": -77.046223, "type": "electric_scooter", "fusion_lat": 0.0, "lat": 38.919046, "name": "1ee6bd4cc0a7f6cc19666d092dd8ff5d", "fusion_lon": 0.0, "bike_id": "1ee6bd4cc0a7f6cc19666d092dd8ff5d", "is_disabled": 0, "is_reserved": 0}, {"rental_uris": {"ios": "https://dc.lft.to/lastmile_qr_scan", "android": "https://dc.lft.to/lastmile_qr_scan"}, "lon": -77.0296485, "type": "electric_scooter", "fusion_lat": 0.0, "lat": 38.92567016666667, "name": "d7576e66da880a66854d0f9729e35e0e", "fusion_lon": 0.0, "bike_id": "d7576e66da880a66854d0f9729e35e0e", "is_disabled": 0, "is_reserved": 0}, {"rental_uris": {"ios": "https://dc.lft.to/lastmile_qr_scan", "android": "https://dc.lft.to/lastmile_qr_scan"}, "lon": -77.03327683333333, "type": "electric_scooter", "fusion_lat": 0.0, "lat": 38.92164316666667, "name": "b508e78a4823a3de249749f78f2d53bb", "fusion_lon": 0.0, "bike_id": "b508e78a4823a3de249749f78f2d53bb", "is_disabled": 0, "is_reserved": 0}, {"rental_uris": {"ios": "https://dc.lft.to/lastmile_qr_scan", "android": "https://dc.lft.to/lastmile_qr_scan"}, "lon": -77.002517, "type": "electric_scooter", "fusion_lat": 0.0, "lat": 38.905323833333334, "name": "6795f5cf38e3043a83998fd2175b651d", "fusion_lon": 0.0, "bike_id": "6795f5cf38e3043a83998fd2175b651d", "is_disabled": 0, "is_reserved": 0}, {"rental_uris": {"ios": "https://dc.lft.to/lastmile_qr_scan", "android": "https://dc.lft.to/lastmile_qr_scan"}, "lon": -77.02386483333333, "type": "electric_scooter", "fusion_lat": 0.0, "lat": 38.91793533333333, "name": "0df95078ed02184f00202aa7d224dfa1", "fusion_lon": 0.0, "bike_id": "0df95078ed02184f00202aa7d224dfa1", "is_disabled": 0, "is_reserved": 0}, {"rental_uris": {"ios": "https://dc.lft.to/lastmile_qr_scan", "android": "https://dc.lft.to/lastmile_qr_scan"}, "lon": -76.98409616666666, "type": "electric_scooter", "fusion_lat": 0.0, "lat": 38.9138925, "name": "e06ee7d94c7a8524ea149a58ba57aa77", "fusion_lon": 0.0, "bike_id": "e06ee7d94c7a8524ea149a58ba57aa77", "is_disabled": 0, "is_reserved": 0}, {"rental_uris": {"ios": "https://dc.lft.to/lastmile_qr_scan", "android": "https://dc.lft.to/lastmile_qr_scan"}, "lon": -77.07491416666667, "type": "electric_scooter", "fusion_lat": 0.0, "lat": 38.914911833333335, "name": "2bc0fdf42b958e70dee1dd2fc33e4c7a", "fusion_lon": 0.0, "bike_id": "2bc0fdf42b958e70dee1dd2fc33e4c7a", "is_disabled": 0, "is_reserved": 0}, {"rental_uris": {"ios": "https://dc.lft.to/lastmile_qr_scan", "android": "https://dc.lft.to/lastmile_qr_scan"}, "lon": -76.9938275, "type": "electric_scooter", "fusion_lat": 0.0, "lat": 38.88720083333333, "name": "31847adba42016e757648973f39ee373", "fusion_lon": 0.0, "bike_id": "31847adba42016e757648973f39ee373", "is_disabled": 0, "is_reserved": 0}, {"rental_uris": {"ios": "https://dc.lft.to/lastmile_qr_scan", "android": "https://dc.lft.to/lastmile_qr_scan"}, "lon": -77.03627866666666, "type": "electric_scooter", "fusion_lat": 0.0, "lat": 38.918196, "name": "d1648b42f7fff7bb098c9faa711f67ca", "fusion_lon": 0.0, "bike_id": "d1648b42f7fff7bb098c9faa711f67ca", "is_disabled": 0, "is_reserved": 0}, {"rental_uris": {"ios": "https://dc.lft.to/lastmile_qr_scan", "android": "https://dc.lft.to/lastmile_qr_scan"}, "lon": -77.00312066666666, "type": "electric_scooter", "fusion_lat": 0.0, "lat": 38.909345333333334, "name": "45ce8dba7903214918d31e698330e9b0", "fusion_lon": 0.0, "bike_id": "45ce8dba7903214918d31e698330e9b0", "is_disabled": 0, "is_reserved": 0}, {"rental_uris": {"ios": "https://dc.lft.to/lastmile_qr_scan", "android": "https://dc.lft.to/lastmile_qr_scan"}, "lon": -76.967834, "type": "electric_scooter", "fusion_lat": 0.0, "lat": 38.861429666666666, "name": "b16fbb90ddbe02ed3f302f6ea9697141", "fusion_lon": 0.0, "bike_id": "b16fbb90ddbe02ed3f302f6ea9697141", "is_disabled": 0, "is_reserved": 0}, {"rental_uris": {"ios": "https://dc.lft.to/lastmile_qr_scan", "android": "https://dc.lft.to/lastmile_qr_scan"}, "lon": -77.1142985, "type": "electric_bike", "fusion_lat": 0.0, "lat": 38.85243666666667, "name": "84eb18f7fd5f6502f8d5f6886d35ce9e", "fusion_lon": 0.0, "bike_id": "84eb18f7fd5f6502f8d5f6886d35ce9e", "is_disabled": 0, "is_reserved": 0}, {"rental_uris": {"ios": "https://dc.lft.to/lastmile_qr_scan", "android": "https://dc.lft.to/lastmile_qr_scan"}, "lon": -77.03184883333333, "type": "electric_scooter", "fusion_lat": 0.0, "lat": 38.89968316666667, "name": "4832634f557ec7407f1bab8535812525", "fusion_lon": 0.0, "bike_id": "4832634f557ec7407f1bab8535812525", "is_disabled": 0, "is_reserved": 0}, {"rental_uris": {"ios": "https://dc.lft.to/lastmile_qr_scan", "android": "https://dc.lft.to/lastmile_qr_scan"}, "lon": -77.050265, "type": "electric_scooter", "fusion_lat": 0.0, "lat": 38.89656383333333, "name": "9f598e431d1d65201d1b39a6e3bd8d6c", "fusion_lon": 0.0, "bike_id": "9f598e431d1d65201d1b39a6e3bd8d6c", "is_disabled": 0, "is_reserved": 0}, {"rental_uris": {"ios": "https://dc.lft.to/lastmile_qr_scan", "android": "https://dc.lft.to/lastmile_qr_scan"}, "lon": -77.034602, "type": "electric_scooter", "fusion_lat": 0.0, "lat": 38.902757, "name": "d43cb259619849e6938c64fd6ca3e35b", "fusion_lon": 0.0, "bike_id": "d43cb259619849e6938c64fd6ca3e35b", "is_disabled": 0, "is_reserved": 0}, {"rental_uris": {"ios": "https://dc.lft.to/lastmile_qr_scan", "android": "https://dc.lft.to/lastmile_qr_scan"}, "lon": -77.02969316666666, "type": "electric_scooter", "fusion_lat": 0.0, "lat": 38.905212666666664, "name": "ca9143ba1a1d14edfc9f549bbdf31299", "fusion_lon": 0.0, "bike_id": "ca9143ba1a1d14edfc9f549bbdf31299", "is_disabled": 0, "is_reserved": 0}, {"rental_uris": {"ios": "https://dc.lft.to/lastmile_qr_scan", "android": "https://dc.lft.to/lastmile_qr_scan"}, "lon": -76.98745266666667, "type": "electric_bike", "fusion_lat": 0.0, "lat": 38.85790816666667, "name": "8d4d4f97a85bef617f7caa67255f5066", "fusion_lon": 0.0, "bike_id": "8d4d4f97a85bef617f7caa67255f5066", "is_disabled": 0, "is_reserved": 0}, {"rental_uris": {"ios": "https://dc.lft.to/lastmile_qr_scan", "android": "https://dc.lft.to/lastmile_qr_scan"}, "lon": -77.02715733333334, "type": "electric_scooter", "fusion_lat": 0.0, "lat": 38.9180625, "name": "75d3ffea9cb91d401ccb44f3f786ccdb", "fusion_lon": 0.0, "bike_id": "75d3ffea9cb91d401ccb44f3f786ccdb", "is_disabled": 0, "is_reserved": 0}, {"rental_uris": {"ios": "https://dc.lft.to/lastmile_qr_scan", "android": "https://dc.lft.to/lastmile_qr_scan"}, "lon": -77.04708, "type": "electric_scooter", "fusion_lat": 0.0, "lat": 38.92174083333333, "name": "34798cf97247aa28a1d8e5001f336973", "fusion_lon": 0.0, "bike_id": "34798cf97247aa28a1d8e5001f336973", "is_disabled": 0, "is_reserved": 0}, {"rental_uris": {"ios": "https://dc.lft.to/lastmile_qr_scan", "android": "https://dc.lft.to/lastmile_qr_scan"}, "lon": -76.984972, "type": "electric_scooter", "fusion_lat": 0.0, "lat": 38.8604555, "name": "d4422d9b6ba076ba06e4d9a01fc60d65", "fusion_lon": 0.0, "bike_id": "d4422d9b6ba076ba06e4d9a01fc60d65", "is_disabled": 0, "is_reserved": 0}, {"rental_uris": {"ios": "https://dc.lft.to/lastmile_qr_scan", "android": "https://dc.lft.to/lastmile_qr_scan"}, "lon": -77.04239683333333, "type": "electric_scooter", "fusion_lat": 0.0, "lat": 38.906083, "name": "87645d3855b5ddaa2e143f184ba44873", "fusion_lon": 0.0, "bike_id": "87645d3855b5ddaa2e143f184ba44873", "is_disabled": 0, "is_reserved": 0}, {"rental_uris": {"ios": "https://dc.lft.to/lastmile_qr_scan", "android": "https://dc.lft.to/lastmile_qr_scan"}, "lon": -77.03926066666666, "type": "electric_scooter", "fusion_lat": 0.0, "lat": 38.8991815, "name": "dc490efa7deed471788f6636f1636595", "fusion_lon": 0.0, "bike_id": "dc490efa7deed471788f6636f1636595", "is_disabled": 0, "is_reserved": 0}, {"rental_uris": {"ios": "https://dc.lft.to/lastmile_qr_scan", "android": "https://dc.lft.to/lastmile_qr_scan"}, "lon": -76.978882, "type": "electric_scooter", "fusion_lat": 0.0, "lat": 38.904211833333335, "name": "7a181a51883a2f559e63d215ceeaf5ff", "fusion_lon": 0.0, "bike_id": "7a181a51883a2f559e63d215ceeaf5ff", "is_disabled": 0, "is_reserved": 0}, {"rental_uris": {"ios": "https://dc.lft.to/lastmile_qr_scan", "android": "https://dc.lft.to/lastmile_qr_scan"}, "lon": -77.100905, "type": "electric_bike", "fusion_lat": 0.0, "lat": 38.95955166666667, "name": "a3ada7b3f4a92af47e797b1116099e3a", "fusion_lon": 0.0, "bike_id": "a3ada7b3f4a92af47e797b1116099e3a", "is_disabled": 0, "is_reserved": 0}, {"rental_uris": {"ios": "https://dc.lft.to/lastmile_qr_scan", "android": "https://dc.lft.to/lastmile_qr_scan"}, "lon": -77.0391145, "type": "electric_scooter", "fusion_lat": 0.0, "lat": 38.891989, "name": "8b74b903c510a6f6715749cd20d38015", "fusion_lon": 0.0, "bike_id": "8b74b903c510a6f6715749cd20d38015", "is_disabled": 0, "is_reserved": 0}, {"rental_uris": {"ios": "https://dc.lft.to/lastmile_qr_scan", "android": "https://dc.lft.to/lastmile_qr_scan"}, "lon": -77.0315015, "type": "electric_scooter", "fusion_lat": 0.0, "lat": 38.91565266666667, "name": "90a8548c37075a590474ade9d5e9320d", "fusion_lon": 0.0, "bike_id": "90a8548c37075a590474ade9d5e9320d", "is_disabled": 0, "is_reserved": 0}, {"rental_uris": {"ios": "https://dc.lft.to/lastmile_qr_scan", "android": "https://dc.lft.to/lastmile_qr_scan"}, "lon": -77.0139195, "type": "electric_scooter", "fusion_lat": 0.0, "lat": 38.97015316666667, "name": "12d0104d7abc6e5cfea78fed2aa2e2f9", "fusion_lon": 0.0, "bike_id": "12d0104d7abc6e5cfea78fed2aa2e2f9", "is_disabled": 0, "is_reserved": 0}, {"rental_uris": {"ios": "https://dc.lft.to/lastmile_qr_scan", "android": "https://dc.lft.to/lastmile_qr_scan"}, "lon": -77.01532766666666, "type": "electric_scooter", "fusion_lat": 0.0, "lat": 38.9020235, "name": "4b43026d6abfff7e9dc57e1851a51e55", "fusion_lon": 0.0, "bike_id": "4b43026d6abfff7e9dc57e1851a51e55", "is_disabled": 0, "is_reserved": 0}, {"rental_uris": {"ios": "https://dc.lft.to/lastmile_qr_scan", "android": "https://dc.lft.to/lastmile_qr_scan"}, "lon": -77.03428016666666, "type": "electric_scooter", "fusion_lat": 0.0, "lat": 38.902681333333334, "name": "7fd5f48442d743ccfa21434e098133a7", "fusion_lon": 0.0, "bike_id": "7fd5f48442d743ccfa21434e098133a7", "is_disabled": 0, "is_reserved": 0}, {"rental_uris": {"ios": "https://dc.lft.to/lastmile_qr_scan", "android": "https://dc.lft.to/lastmile_qr_scan"}, "lon": -76.99793683333333, "type": "electric_scooter", "fusion_lat": 0.0, "lat": 38.92180233333333, "name": "c4b33f4ec8bd56a081340f4ce215acc2", "fusion_lon": 0.0, "bike_id": "c4b33f4ec8bd56a081340f4ce215acc2", "is_disabled": 0, "is_reserved": 0}, {"rental_uris": {"ios": "https://dc.lft.to/lastmile_qr_scan", "android": "https://dc.lft.to/lastmile_qr_scan"}, "lon": -77.0366975, "type": "electric_scooter", "fusion_lat": 0.0, "lat": 38.918181833333335, "name": "622a2b3702e59d95a673942bebf096ef", "fusion_lon": 0.0, "bike_id": "622a2b3702e59d95a673942bebf096ef", "is_disabled": 0, "is_reserved": 0}, {"rental_uris": {"ios": "https://dc.lft.to/lastmile_qr_scan", "android": "https://dc.lft.to/lastmile_qr_scan"}, "lon": -76.9960015, "type": "electric_scooter", "fusion_lat": 0.0, "lat": 38.845392, "name": "b8bd21f5c894609b27e40d079378c64c", "fusion_lon": 0.0, "bike_id": "b8bd21f5c894609b27e40d079378c64c", "is_disabled": 0, "is_reserved": 0}, {"rental_uris": {"ios": "https://dc.lft.to/lastmile_qr_scan", "android": "https://dc.lft.to/lastmile_qr_scan"}, "lon": -77.03317633333333, "type": "electric_scooter", "fusion_lat": 0.0, "lat": 38.9015765, "name": "c987f93147a3ca6cf5e5d05f2ab23d52", "fusion_lon": 0.0, "bike_id": "c987f93147a3ca6cf5e5d05f2ab23d52", "is_disabled": 0, "is_reserved": 0}, {"rental_uris": {"ios": "https://dc.lft.to/lastmile_qr_scan", "android": "https://dc.lft.to/lastmile_qr_scan"}, "lon": -76.97824716666666, "type": "electric_scooter", "fusion_lat": 0.0, "lat": 38.89517983333333, "name": "676ef0dfc6d375f295405ac2fa30d138", "fusion_lon": 0.0, "bike_id": "676ef0dfc6d375f295405ac2fa30d138", "is_disabled": 0, "is_reserved": 0}, {"rental_uris": {"ios": "https://dc.lft.to/lastmile_qr_scan", "android": "https://dc.lft.to/lastmile_qr_scan"}, "lon": -77.0178065, "type": "electric_scooter", "fusion_lat": 0.0, "lat": 38.900238333333334, "name": "3e18460e0c9a06983cc2de7413c2376e", "fusion_lon": 0.0, "bike_id": "3e18460e0c9a06983cc2de7413c2376e", "is_disabled": 0, "is_reserved": 0}, {"rental_uris": {"ios": "https://dc.lft.to/lastmile_qr_scan", "android": "https://dc.lft.to/lastmile_qr_scan"}, "lon": -77.02509, "type": "electric_scooter", "fusion_lat": 0.0, "lat": 38.90717633333333, "name": "e42f8843c607ea8bfaa0f70e0906ba49", "fusion_lon": 0.0, "bike_id": "e42f8843c607ea8bfaa0f70e0906ba49", "is_disabled": 0, "is_reserved": 0}, {"rental_uris": {"ios": "https://dc.lft.to/lastmile_qr_scan", "android": "https://dc.lft.to/lastmile_qr_scan"}, "lon": -77.0346845, "type": "electric_scooter", "fusion_lat": 0.0, "lat": 38.907702666666665, "name": "93c2a0386a620cc9ef6b0c7ffaf21643", "fusion_lon": 0.0, "bike_id": "93c2a0386a620cc9ef6b0c7ffaf21643", "is_disabled": 0, "is_reserved": 0}, {"rental_uris": {"ios": "https://dc.lft.to/lastmile_qr_scan", "android": "https://dc.lft.to/lastmile_qr_scan"}, "lon": -77.18299183333333, "type": "electric_bike", "fusion_lat": 0.0, "lat": 38.883405833333335, "name": "05f956ac6246ea06e45d40291fe9f7ff", "fusion_lon": 0.0, "bike_id": "05f956ac6246ea06e45d40291fe9f7ff", "is_disabled": 0, "is_reserved": 0}, {"rental_uris": {"ios": "https://dc.lft.to/lastmile_qr_scan", "android": "https://dc.lft.to/lastmile_qr_scan"}, "lon": -76.95003833333334, "type": "electric_scooter", "fusion_lat": 0.0, "lat": 38.893715, "name": "457c4b7e7668ff814390e63726b5ef25", "fusion_lon": 0.0, "bike_id": "457c4b7e7668ff814390e63726b5ef25", "is_disabled": 0, "is_reserved": 0}, {"rental_uris": {"ios": "https://dc.lft.to/lastmile_qr_scan", "android": "https://dc.lft.to/lastmile_qr_scan"}, "lon": -77.03862533333333, "type": "electric_scooter", "fusion_lat": 0.0, "lat": 38.903081, "name": "b1000cda55762e4a026abf22487a7231", "fusion_lon": 0.0, "bike_id": "b1000cda55762e4a026abf22487a7231", "is_disabled": 0, "is_reserved": 0}, {"rental_uris": {"ios": "https://dc.lft.to/lastmile_qr_scan", "android": "https://dc.lft.to/lastmile_qr_scan"}, "lon": -77.01212083333333, "type": "electric_scooter", "fusion_lat": 0.0, "lat": 38.91423983333333, "name": "aa0e55664aae5d9f4a193b61fbb89ef5", "fusion_lon": 0.0, "bike_id": "aa0e55664aae5d9f4a193b61fbb89ef5", "is_disabled": 0, "is_reserved": 0}, {"rental_uris": {"ios": "https://dc.lft.to/lastmile_qr_scan", "android": "https://dc.lft.to/lastmile_qr_scan"}, "lon": -77.0380885, "type": "electric_bike", "fusion_lat": 0.0, "lat": 38.9180975, "name": "ba8e81963bcd0958481d61aa16e278ec", "fusion_lon": 0.0, "bike_id": "ba8e81963bcd0958481d61aa16e278ec", "is_disabled": 0, "is_reserved": 0}, {"rental_uris": {"ios": "https://dc.lft.to/lastmile_qr_scan", "android": "https://dc.lft.to/lastmile_qr_scan"}, "lon": -77.07196366666666, "type": "electric_scooter", "fusion_lat": 0.0, "lat": 38.931890833333334, "name": "9aab2af162be3f2c5b87b09083b05ac7", "fusion_lon": 0.0, "bike_id": "9aab2af162be3f2c5b87b09083b05ac7", "is_disabled": 0, "is_reserved": 0}, {"rental_uris": {"ios": "https://dc.lft.to/lastmile_qr_scan", "android": "https://dc.lft.to/lastmile_qr_scan"}, "lon": -77.05078783333333, "type": "electric_scooter", "fusion_lat": 0.0, "lat": 38.900521499999996, "name": "eed3c2fc8c43f34f34a8ac00c50bad93", "fusion_lon": 0.0, "bike_id": "eed3c2fc8c43f34f34a8ac00c50bad93", "is_disabled": 0, "is_reserved": 0}, {"rental_uris": {"ios": "https://dc.lft.to/lastmile_qr_scan", "android": "https://dc.lft.to/lastmile_qr_scan"}, "lon": -77.0248145, "type": "electric_scooter", "fusion_lat": 0.0, "lat": 38.930982, "name": "a18257b3a2903fec387f869b48182550", "fusion_lon": 0.0, "bike_id": "a18257b3a2903fec387f869b48182550", "is_disabled": 0, "is_reserved": 0}, {"rental_uris": {"ios": "https://dc.lft.to/lastmile_qr_scan", "android": "https://dc.lft.to/lastmile_qr_scan"}, "lon": -77.032153, "type": "electric_scooter", "fusion_lat": 0.0, "lat": 38.92588816666667, "name": "1c3480d33f136006beda3d9e84c67725", "fusion_lon": 0.0, "bike_id": "1c3480d33f136006beda3d9e84c67725", "is_disabled": 0, "is_reserved": 0}, {"rental_uris": {"ios": "https://dc.lft.to/lastmile_qr_scan", "android": "https://dc.lft.to/lastmile_qr_scan"}, "lon": -77.01133333333334, "type": "electric_scooter", "fusion_lat": 0.0, "lat": 38.903580833333336, "name": "14a83acc88f2ccbcdd2fb30e2b10f22f", "fusion_lon": 0.0, "bike_id": "14a83acc88f2ccbcdd2fb30e2b10f22f", "is_disabled": 0, "is_reserved": 0}, {"rental_uris": {"ios": "https://dc.lft.to/lastmile_qr_scan", "android": "https://dc.lft.to/lastmile_qr_scan"}, "lon": -77.02478266666667, "type": "electric_scooter", "fusion_lat": 0.0, "lat": 38.93822316666667, "name": "bc8a5ed1847411635b8ae17f3577f92f", "fusion_lon": 0.0, "bike_id": "bc8a5ed1847411635b8ae17f3577f92f", "is_disabled": 0, "is_reserved": 0}, {"rental_uris": {"ios": "https://dc.lft.to/lastmile_qr_scan", "android": "https://dc.lft.to/lastmile_qr_scan"}, "lon": -77.036454, "type": "electric_scooter", "fusion_lat": 0.0, "lat": 38.91732483333333, "name": "2d16dfc4753e35d83bd1a7ed70584800", "fusion_lon": 0.0, "bike_id": "2d16dfc4753e35d83bd1a7ed70584800", "is_disabled": 0, "is_reserved": 0}, {"rental_uris": {"ios": "https://dc.lft.to/lastmile_qr_scan", "android": "https://dc.lft.to/lastmile_qr_scan"}, "lon": -76.9652885, "type": "electric_scooter", "fusion_lat": 0.0, "lat": 38.8762835, "name": "dfafa303b09a8c8473dbd35d2f3f5f6a", "fusion_lon": 0.0, "bike_id": "dfafa303b09a8c8473dbd35d2f3f5f6a", "is_disabled": 0, "is_reserved": 0}, {"rental_uris": {"ios": "https://dc.lft.to/lastmile_qr_scan", "android": "https://dc.lft.to/lastmile_qr_scan"}, "lon": -76.94752266666667, "type": "electric_scooter", "fusion_lat": 0.0, "lat": 38.90051283333333, "name": "4e0f29c92500c608dd43e70ae5f0ef1d", "fusion_lon": 0.0, "bike_id": "4e0f29c92500c608dd43e70ae5f0ef1d", "is_disabled": 0, "is_reserved": 0}, {"rental_uris": {"ios": "https://dc.lft.to/lastmile_qr_scan", "android": "https://dc.lft.to/lastmile_qr_scan"}, "lon": -77.03195766666667, "type": "electric_scooter", "fusion_lat": 0.0, "lat": 38.91800816666667, "name": "9ddd7a3888ee3bd84ab82009367a6651", "fusion_lon": 0.0, "bike_id": "9ddd7a3888ee3bd84ab82009367a6651", "is_disabled": 0, "is_reserved": 0}, {"rental_uris": {"ios": "https://dc.lft.to/lastmile_qr_scan", "android": "https://dc.lft.to/lastmile_qr_scan"}, "lon": -77.04486933333334, "type": "electric_bike", "fusion_lat": 0.0, "lat": 38.91290633333333, "name": "10646f67815ecaefd5f4f043926a3b8d", "fusion_lon": 0.0, "bike_id": "10646f67815ecaefd5f4f043926a3b8d", "is_disabled": 0, "is_reserved": 0}, {"rental_uris": {"ios": "https://dc.lft.to/lastmile_qr_scan", "android": "https://dc.lft.to/lastmile_qr_scan"}, "lon": -76.96380833333333, "type": "electric_bike", "fusion_lat": 0.0, "lat": 38.9489935, "name": "e489bfe5a0016caab51cd38ccfccb5d4", "fusion_lon": 0.0, "bike_id": "e489bfe5a0016caab51cd38ccfccb5d4", "is_disabled": 0, "is_reserved": 0}, {"rental_uris": {"ios": "https://dc.lft.to/lastmile_qr_scan", "android": "https://dc.lft.to/lastmile_qr_scan"}, "lon": -77.06117633333334, "type": "electric_scooter", "fusion_lat": 0.0, "lat": 38.91291983333333, "name": "c8dec9a3d492448b51a25bab8cf4ee91", "fusion_lon": 0.0, "bike_id": "c8dec9a3d492448b51a25bab8cf4ee91", "is_disabled": 0, "is_reserved": 0}, {"rental_uris": {"ios": "https://dc.lft.to/lastmile_qr_scan", "android": "https://dc.lft.to/lastmile_qr_scan"}, "lon": -77.036739, "type": "electric_scooter", "fusion_lat": 0.0, "lat": 38.9170875, "name": "21ba1ac06de181c01d5a867131927fff", "fusion_lon": 0.0, "bike_id": "21ba1ac06de181c01d5a867131927fff", "is_disabled": 0, "is_reserved": 0}, {"rental_uris": {"ios": "https://dc.lft.to/lastmile_qr_scan", "android": "https://dc.lft.to/lastmile_qr_scan"}, "lon": -76.9900635, "type": "electric_scooter", "fusion_lat": 0.0, "lat": 38.865074, "name": "5f5af75e1bec273dc80560f2d8032b33", "fusion_lon": 0.0, "bike_id": "5f5af75e1bec273dc80560f2d8032b33", "is_disabled": 0, "is_reserved": 0}, {"rental_uris": {"ios": "https://dc.lft.to/lastmile_qr_scan", "android": "https://dc.lft.to/lastmile_qr_scan"}, "lon": -77.0249085, "type": "electric_scooter", "fusion_lat": 0.0, "lat": 38.94184833333333, "name": "7f94a9ee19da50082bc870e822ddadc1", "fusion_lon": 0.0, "bike_id": "7f94a9ee19da50082bc870e822ddadc1", "is_disabled": 0, "is_reserved": 0}, {"rental_uris": {"ios": "https://dc.lft.to/lastmile_qr_scan", "android": "https://dc.lft.to/lastmile_qr_scan"}, "lon": -77.038691, "type": "electric_scooter", "fusion_lat": 0.0, "lat": 38.942037, "name": "b4fb6bc6359f1d587263e92bb8c251bb", "fusion_lon": 0.0, "bike_id": "b4fb6bc6359f1d587263e92bb8c251bb", "is_disabled": 0, "is_reserved": 0}, {"rental_uris": {"ios": "https://dc.lft.to/lastmile_qr_scan", "android": "https://dc.lft.to/lastmile_qr_scan"}, "lon": -77.0322725, "type": "electric_scooter", "fusion_lat": 0.0, "lat": 38.91248566666667, "name": "c8d456732d54547db0c68b43d237b111", "fusion_lon": 0.0, "bike_id": "c8d456732d54547db0c68b43d237b111", "is_disabled": 0, "is_reserved": 0}, {"rental_uris": {"ios": "https://dc.lft.to/lastmile_qr_scan", "android": "https://dc.lft.to/lastmile_qr_scan"}, "lon": -77.00618433333334, "type": "electric_scooter", "fusion_lat": 0.0, "lat": 38.905787333333336, "name": "53e8bf1bb4ae16eae4a03963fbfe537e", "fusion_lon": 0.0, "bike_id": "53e8bf1bb4ae16eae4a03963fbfe537e", "is_disabled": 0, "is_reserved": 0}, {"rental_uris": {"ios": "https://dc.lft.to/lastmile_qr_scan", "android": "https://dc.lft.to/lastmile_qr_scan"}, "lon": -77.04887233333334, "type": "electric_scooter", "fusion_lat": 0.0, "lat": 38.90604016666666, "name": "508b36392c431596b5fab50d587a92b8", "fusion_lon": 0.0, "bike_id": "508b36392c431596b5fab50d587a92b8", "is_disabled": 0, "is_reserved": 0}, {"rental_uris": {"ios": "https://dc.lft.to/lastmile_qr_scan", "android": "https://dc.lft.to/lastmile_qr_scan"}, "lon": -77.03869533333334, "type": "electric_scooter", "fusion_lat": 0.0, "lat": 38.91560833333333, "name": "6bba3eb6a50f4a04a0428587043d4df3", "fusion_lon": 0.0, "bike_id": "6bba3eb6a50f4a04a0428587043d4df3", "is_disabled": 0, "is_reserved": 0}, {"rental_uris": {"ios": "https://dc.lft.to/lastmile_qr_scan", "android": "https://dc.lft.to/lastmile_qr_scan"}, "lon": -76.98059983333333, "type": "electric_scooter", "fusion_lat": 0.0, "lat": 38.88530433333333, "name": "7ea35dd1f18eb4c77603fbd3899bd9b0", "fusion_lon": 0.0, "bike_id": "7ea35dd1f18eb4c77603fbd3899bd9b0", "is_disabled": 0, "is_reserved": 0}, {"rental_uris": {"ios": "https://dc.lft.to/lastmile_qr_scan", "android": "https://dc.lft.to/lastmile_qr_scan"}, "lon": -77.04240466666667, "type": "electric_scooter", "fusion_lat": 0.0, "lat": 38.92155233333333, "name": "77ae1d5bfe7a7a36a89f087f4055c913", "fusion_lon": 0.0, "bike_id": "77ae1d5bfe7a7a36a89f087f4055c913", "is_disabled": 0, "is_reserved": 0}, {"rental_uris": {"ios": "https://dc.lft.to/lastmile_qr_scan", "android": "https://dc.lft.to/lastmile_qr_scan"}, "lon": -77.01758266666667, "type": "electric_scooter", "fusion_lat": 0.0, "lat": 38.9389265, "name": "0d6154d3a335aa9d8603dcde7c8e9ae4", "fusion_lon": 0.0, "bike_id": "0d6154d3a335aa9d8603dcde7c8e9ae4", "is_disabled": 0, "is_reserved": 0}, {"rental_uris": {"ios": "https://dc.lft.to/lastmile_qr_scan", "android": "https://dc.lft.to/lastmile_qr_scan"}, "lon": -76.97891066666666, "type": "electric_scooter", "fusion_lat": 0.0, "lat": 38.916753666666665, "name": "c30d634a7d9d49871d2bc2745df2d9e5", "fusion_lon": 0.0, "bike_id": "c30d634a7d9d49871d2bc2745df2d9e5", "is_disabled": 0, "is_reserved": 0}, {"rental_uris": {"ios": "https://dc.lft.to/lastmile_qr_scan", "android": "https://dc.lft.to/lastmile_qr_scan"}, "lon": -76.9380135, "type": "electric_scooter", "fusion_lat": 0.0, "lat": 38.912880333333334, "name": "7e2df693752faac5d22665551d658e7d", "fusion_lon": 0.0, "bike_id": "7e2df693752faac5d22665551d658e7d", "is_disabled": 0, "is_reserved": 0}, {"rental_uris": {"ios": "https://dc.lft.to/lastmile_qr_scan", "android": "https://dc.lft.to/lastmile_qr_scan"},