{"data": {"bikes": [{"lat": 38.92845416666667, "fusion_lat": 0.0, "is_reserved": 0, "is_disabled": 0, "type": "electric_scooter", "name": "477485f6c58dc8f08cd213d6680ffeca", "lon": -77.013965, "fusion_lon": 0.0, "rental_uris": {"android": "https://dc.lft.to/lastmile_qr_scan", "ios": "https://dc.lft.to/lastmile_qr_scan"}, "bike_id": "477485f6c58dc8f08cd213d6680ffeca"}, {"lat": 38.92459366666667, "fusion_lat": 0.0, "is_reserved": 0, "is_disabled": 0, "type": "electric_scooter", "name": "80e3029ae1caa0be62c1c108e9259639", "lon": -77.022431, "fusion_lon": 0.0, "rental_uris": {"android": "https://dc.lft.to/lastmile_qr_scan", "ios": "https://dc.lft.to/lastmile_qr_scan"}, "bike_id": "80e3029ae1caa0be62c1c108e9259639"}, {"lat": 38.94174566666667, "fusion_lat": 0.0, "is_reserved": 0, "is_disabled": 0, "type": "electric_scooter", "name": "b9e3fe13b3f2fbbafd5052d2d5714bb8", "lon": -77.01535383333334, "fusion_lon": 0.0, "rental_uris": {"android": "https://dc.lft.to/lastmile_qr_scan", "ios": "https://dc.lft.to/lastmile_qr_scan"}, "bike_id": "b9e3fe13b3f2fbbafd5052d2d5714bb8"}, {"lat": 38.9148245, "fusion_lat": 0.0, "is_reserved": 0, "is_disabled": 0, "type": "electric_scooter", "name": "f442456f41ed2d1a05a90eedc0589ac6", "lon": -77.01891883333333, "fusion_lon": 0.0, "rental_uris": {"android": "https://dc.lft.to/lastmile_qr_scan", "ios": "https://dc.lft.to/lastmile_qr_scan"}, "bike_id": "f442456f41ed2d1a05a90eedc0589ac6"}, {"lat": 38.921684, "fusion_lat": 0.0, "is_reserved": 0, "is_disabled": 0, "type": "electric_scooter", "name": "20afc96cb564308a7d2dad742b990ea6", "lon": -77.042327, "fusion_lon": 0.0, "rental_uris": {"android": "https://dc.lft.to/lastmile_qr_scan", "ios": "https://dc.lft.to/lastmile_qr_scan"}, "bike_id": "20afc96cb564308a7d2dad742b990ea6"}, {"lat": 38.89664033333333, "fusion_lat": 0.0, "is_reserved": 0, "is_disabled": 0, "type": "electric_scooter", "name": "cefe01470a6aa7690b0212820076efac", "lon": -76.9490315, "fusion_lon": 0.0, "rental_uris": {"android": "https://dc.lft.to/lastmile_qr_scan", "ios": "https://dc.lft.to/lastmile_qr_scan"}, "bike_id": "cefe01470a6aa7690b0212820076efac"}, {"lat": 38.916904333333335, "fusion_lat": 0.0, "is_reserved": 0, "is_disabled": 0, "type": "electric_scooter", "name": "c3d700ec525707f4588bd058d5229024", "lon": -77.037749, "fusion_lon": 0.0, "rental_uris": {"android": "https://dc.lft.to/lastmile_qr_scan", "ios": "https://dc.lft.to/lastmile_qr_scan"}, "bike_id": "c3d700ec525707f4588bd058d5229024"}, {"lat": 38.90973366666667, "fusion_lat": 0.0, "is_reserved": 0, "is_disabled": 0, "type": "electric_scooter", "name": "e2f4921288290079461e5352938a153d", "lon": -77.02416766666667, "fusion_lon": 0.0, "rental_uris": {"android": "https://dc.lft.to/lastmile_qr_scan", "ios": "https://dc.lft.to/lastmile_qr_scan"}, "bike_id": "e2f4921288290079461e5352938a153d"}, {"lat": 38.899091166666665, "fusion_lat": 0.0, "is_reserved": 0, "is_disabled": 0, "type": "electric_scooter", "name": "d7909f2aa8e64d0f729c29668633c8e7", "lon": -76.93391666666666, "fusion_lon": 0.0, "rental_uris": {"android": "https://dc.lft.to/lastmile_qr_scan", "ios": "https://dc.lft.to/lastmile_qr_scan"}, "bike_id": "d7909f2aa8e64d0f729c29668633c8e7"}, {"lat": 38.878736833333335, "fusion_lat": 0.0, "is_reserved": 0, "is_disabled": 0, "type": "electric_bike", "name": "ab9c5ff354be120087cc0eb84e08c577", "lon": -76.99022583333333, "fusion_lon": 0.0, "rental_uris": {"android": "https://dc.lft.to/lastmile_qr_scan", "ios": "https://dc.lft.to/lastmile_qr_scan"}, "bike_id": "ab9c5ff354be120087cc0eb84e08c577"}, {"lat": 38.829232, "fusion_lat": 0.0, "is_reserved": 0, "is_disabled": 0, "type": "electric_bike", "name": "42011b2208e9d0640df01ad7965c5a04", "lon": -77.06879966666666, "fusion_lon": 0.0, "rental_uris": {"android": "https://dc.lft.to/lastmile_qr_scan", "ios": "https://dc.lft.to/lastmile_qr_scan"}, "bike_id": "42011b2208e9d0640df01ad7965c5a04"}, {"lat": 38.90153, "fusion_lat": 0.0, "is_reserved": 0, "is_disabled": 0, "type": "electric_scooter", "name": "6efc68758f304e9e048d54ddebb512b8", "lon": -76.9742325, "fusion_lon": 0.0, "rental_uris": {"android": "https://dc.lft.to/lastmile_qr_scan", "ios": "https://dc.lft.to/lastmile_qr_scan"}, "bike_id": "6efc68758f304e9e048d54ddebb512b8"}, {"lat": 38.92261666666667, "fusion_lat": 0.0, "is_reserved": 0, "is_disabled": 0, "type": "electric_scooter", "name": "02ad90ecd0f6240b5999cf869757a957", "lon": -77.072812, "fusion_lon": 0.0, "rental_uris": {"android": "https://dc.lft.to/lastmile_qr_scan", "ios": "https://dc.lft.to/lastmile_qr_scan"}, "bike_id": "02ad90ecd0f6240b5999cf869757a957"}, {"lat": 38.92873066666667, "fusion_lat": 0.0, "is_reserved": 0, "is_disabled": 0, "type": "electric_scooter", "name": "fff464d7de84eb7f136cb9467df55ece", "lon": -77.056605, "fusion_lon": 0.0, "rental_uris": {"android": "https://dc.lft.to/lastmile_qr_scan", "ios": "https://dc.lft.to/lastmile_qr_scan"}, "bike_id": "fff464d7de84eb7f136cb9467df55ece"}, {"lat": 38.90139666666666, "fusion_lat": 0.0, "is_reserved": 0, "is_disabled": 0, "type": "electric_scooter", "name": "a61b8f377abcc97a8ddafb09ca982556", "lon": -77.02955983333334, "fusion_lon": 0.0, "rental_uris": {"android": "https://dc.lft.to/lastmile_qr_scan", "ios": "https://dc.lft.to/lastmile_qr_scan"}, "bike_id": "a61b8f377abcc97a8ddafb09ca982556"}, {"lat": 38.880427, "fusion_lat": 0.0, "is_reserved": 0, "is_disabled": 0, "type": "electric_scooter", "name": "8d68be0233483ec3899bf9debb7b7fb6", "lon": -76.927173, "fusion_lon": 0.0, "rental_uris": {"android": "https://dc.lft.to/lastmile_qr_scan", "ios": "https://dc.lft.to/lastmile_qr_scan"}, "bike_id": "8d68be0233483ec3899bf9debb7b7fb6"}, {"lat": 38.892264, "fusion_lat": 0.0, "is_reserved": 0, "is_disabled": 0, "type": "electric_scooter", "name": "a0709121a11384b6b61b610b75288d58", "lon": -77.05005283333334, "fusion_lon": 0.0, "rental_uris": {"android": "https://dc.lft.to/lastmile_qr_scan", "ios": "https://dc.lft.to/lastmile_qr_scan"}, "bike_id": "a0709121a11384b6b61b610b75288d58"}, {"lat": 38.9157825, "fusion_lat": 0.0, "is_reserved": 0, "is_disabled": 0, "type": "electric_scooter", "name": "afe7ed590f5419a3abb1a48da59b57bf", "lon": -77.01999416666666, "fusion_lon": 0.0, "rental_uris": {"android": "https://dc.lft.to/lastmile_qr_scan", "ios": "https://dc.lft.to/lastmile_qr_scan"}, "bike_id": "afe7ed590f5419a3abb1a48da59b57bf"}, {"lat": 38.892299, "fusion_lat": 0.0, "is_reserved": 0, "is_disabled": 0, "type": "electric_scooter", "name": "a7306da343b41fe6a4c605c81d7d7dc5", "lon": -77.031606, "fusion_lon": 0.0, "rental_uris": {"android": "https://dc.lft.to/lastmile_qr_scan", "ios": "https://dc.lft.to/lastmile_qr_scan"}, "bike_id": "a7306da343b41fe6a4c605c81d7d7dc5"}, {"lat": 38.89220533333334, "fusion_lat": 0.0, "is_reserved": 0, "is_disabled": 0, "type": "electric_scooter", "name": "af9722681e659997faa4b859e95f5fcd", "lon": -77.01372066666667, "fusion_lon": 0.0, "rental_uris": {"android": "https://dc.lft.to/lastmile_qr_scan", "ios": "https://dc.lft.to/lastmile_qr_scan"}, "bike_id": "af9722681e659997faa4b859e95f5fcd"}, {"lat": 38.91066516666667, "fusion_lat": 0.0, "is_reserved": 0, "is_disabled": 0, "type": "electric_scooter", "name": "cf70d9181bbfeea34822c615005a11d9", "lon": -77.04117333333333, "fusion_lon": 0.0, "rental_uris": {"android": "https://dc.lft.to/lastmile_qr_scan", "ios": "https://dc.lft.to/lastmile_qr_scan"}, "bike_id": "cf70d9181bbfeea34822c615005a11d9"}, {"lat": 38.92360733333334, "fusion_lat": 0.0, "is_reserved": 0, "is_disabled": 0, "type": "electric_scooter", "name": "71fdbaa960fd45841b3536cde0939515", "lon": -77.04324766666667, "fusion_lon": 0.0, "rental_uris": {"android": "https://dc.lft.to/lastmile_qr_scan", "ios": "https://dc.lft.to/lastmile_qr_scan"}, "bike_id": "71fdbaa960fd45841b3536cde0939515"}, {"lat": 38.91890166666666, "fusion_lat": 0.0, "is_reserved": 0, "is_disabled": 0, "type": "electric_scooter", "name": "00aef497ad884f7b1fbeb6f29a05fae3", "lon": -77.04178366666666, "fusion_lon": 0.0, "rental_uris": {"android": "https://dc.lft.to/lastmile_qr_scan", "ios": "https://dc.lft.to/lastmile_qr_scan"}, "bike_id": "00aef497ad884f7b1fbeb6f29a05fae3"}, {"lat": 38.9270455, "fusion_lat": 0.0, "is_reserved": 0, "is_disabled": 0, "type": "electric_scooter", "name": "3ba6ae48bdfae5df044b9fd05d9d42e8", "lon": -76.960807, "fusion_lon": 0.0, "rental_uris": {"android": "https://dc.lft.to/lastmile_qr_scan", "ios": "https://dc.lft.to/lastmile_qr_scan"}, "bike_id": "3ba6ae48bdfae5df044b9fd05d9d42e8"}, {"lat": 38.87701416666667, "fusion_lat": 0.0, "is_reserved": 0, "is_disabled": 0, "type": "electric_scooter", "name": "4b172e5541a8165d9e53cad73992ce01", "lon": -77.01768783333333, "fusion_lon": 0.0, "rental_uris": {"android": "https://dc.lft.to/lastmile_qr_scan", "ios": "https://dc.lft.to/lastmile_qr_scan"}, "bike_id": "4b172e5541a8165d9e53cad73992ce01"}, {"lat": 38.9181875, "fusion_lat": 0.0, "is_reserved": 0, "is_disabled": 0, "type": "electric_scooter", "name": "337fbe3ff0d063c73083f3c0a9af811e", "lon": -77.02529733333333, "fusion_lon": 0.0, "rental_uris": {"android": "https://dc.lft.to/lastmile_qr_scan", "ios": "https://dc.lft.to/lastmile_qr_scan"}, "bike_id": "337fbe3ff0d063c73083f3c0a9af811e"}, {"lat": 38.897185, "fusion_lat": 0.0, "is_reserved": 0, "is_disabled": 0, "type": "electric_scooter", "name": "c6791b784dbf04aba627e2b6981f8b38", "lon": -77.0129595, "fusion_lon": 0.0, "rental_uris": {"android": "https://dc.lft.to/lastmile_qr_scan", "ios": "https://dc.lft.to/lastmile_qr_scan"}, "bike_id": "c6791b784dbf04aba627e2b6981f8b38"}, {"lat": 38.92526866666667, "fusion_lat": 0.0, "is_reserved": 0, "is_disabled": 0, "type": "electric_scooter", "name": "09e8f095a4afe24245d5777b8dd2f571", "lon": -77.03849383333333, "fusion_lon": 0.0, "rental_uris": {"android": "https://dc.lft.to/lastmile_qr_scan", "ios": "https://dc.lft.to/lastmile_qr_scan"}, "bike_id": "09e8f095a4afe24245d5777b8dd2f571"}, {"lat": 38.9491205, "fusion_lat": 0.0, "is_reserved": 0, "is_disabled": 0, "type": "electric_scooter", "name": "367b8a461c05eb0c420a196d5fef32da", "lon": -77.0208525, "fusion_lon": 0.0, "rental_uris": {"android": "https://dc.lft.to/lastmile_qr_scan", "ios": "https://dc.lft.to/lastmile_qr_scan"}, "bike_id": "367b8a461c05eb0c420a196d5fef32da"}, {"lat": 38.8752625, "fusion_lat": 0.0, "is_reserved": 0, "is_disabled": 0, "type": "electric_scooter", "name": "96134a7c9e8f79dabd2fb3c71ad80f67", "lon": -77.01229683333334, "fusion_lon": 0.0, "rental_uris": {"android": "https://dc.lft.to/lastmile_qr_scan", "ios": "https://dc.lft.to/lastmile_qr_scan"}, "bike_id": "96134a7c9e8f79dabd2fb3c71ad80f67"}, {"lat": 38.8922845, "fusion_lat": 0.0, "is_reserved": 0, "is_disabled": 0, "type": "electric_scooter", "name": "fd202a90915a5cebf0bf4843b464d118", "lon": -77.04504083333333, "fusion_lon": 0.0, "rental_uris": {"android": "https://dc.lft.to/lastmile_qr_scan", "ios": "https://dc.lft.to/lastmile_qr_scan"}, "bike_id": "fd202a90915a5cebf0bf4843b464d118"}, {"lat": 38.88718316666667, "fusion_lat": 0.0, "is_reserved": 0, "is_disabled": 0, "type": "electric_scooter", "name": "f623d51646d45f98586a8d8c3e652ec6", "lon": -76.99612516666667, "fusion_lon": 0.0, "rental_uris": {"android": "https://dc.lft.to/lastmile_qr_scan", "ios": "https://dc.lft.to/lastmile_qr_scan"}, "bike_id": "f623d51646d45f98586a8d8c3e652ec6"}, {"lat": 38.974721333333335, "fusion_lat": 0.0, "is_reserved": 0, "is_disabled": 0, "type": "electric_bike", "name": "4d5f5812047c0017d157601b7f8214db", "lon": -76.98666033333333, "fusion_lon": 0.0, "rental_uris": {"android": "https://dc.lft.to/lastmile_qr_scan", "ios": "https://dc.lft.to/lastmile_qr_scan"}, "bike_id": "4d5f5812047c0017d157601b7f8214db"}, {"lat": 38.834898833333334, "fusion_lat": 0.0, "is_reserved": 0, "is_disabled": 0, "type": "electric_bike", "name": "8d41ccf4261c3dc9e5b417c478b3569c", "lon": -77.00434283333334, "fusion_lon": 0.0, "rental_uris": {"android": "https://dc.lft.to/lastmile_qr_scan", "ios": "https://dc.lft.to/lastmile_qr_scan"}, "bike_id": "8d41ccf4261c3dc9e5b417c478b3569c"}, {"lat": 38.8983145, "fusion_lat": 0.0, "is_reserved": 0, "is_disabled": 0, "type": "electric_scooter", "name": "d31c90bd8aebee539e781bc558296264", "lon": -77.02950783333333, "fusion_lon": 0.0, "rental_uris": {"android": "https://dc.lft.to/lastmile_qr_scan", "ios": "https://dc.lft.to/lastmile_qr_scan"}, "bike_id": "d31c90bd8aebee539e781bc558296264"}, {"lat": 38.914437666666664, "fusion_lat": 0.0, "is_reserved": 0, "is_disabled": 0, "type": "electric_bike", "name": "d019f081ac279d2cbc46e650ebc5d59a", "lon": -77.06712916666666, "fusion_lon": 0.0, "rental_uris": {"android": "https://dc.lft.to/lastmile_qr_scan", "ios": "https://dc.lft.to/lastmile_qr_scan"}, "bike_id": "d019f081ac279d2cbc46e650ebc5d59a"}, {"lat": 38.90847316666667, "fusion_lat": 0.0, "is_reserved": 0, "is_disabled": 0, "type": "electric_scooter", "name": "65e1cb8c5359dd89eb0de6ba2243e216", "lon": -76.99794133333333, "fusion_lon": 0.0, "rental_uris": {"android": "https://dc.lft.to/lastmile_qr_scan", "ios": "https://dc.lft.to/lastmile_qr_scan"}, "bike_id": "65e1cb8c5359dd89eb0de6ba2243e216"}, {"lat": 38.908208, "fusion_lat": 0.0, "is_reserved": 0, "is_disabled": 0, "type": "electric_scooter", "name": "41f62e4cac13c35293c923a33e69cb11", "lon": -77.04337583333333, "fusion_lon": 0.0, "rental_uris": {"android": "https://dc.lft.to/lastmile_qr_scan", "ios": "https://dc.lft.to/lastmile_qr_scan"}, "bike_id": "41f62e4cac13c35293c923a33e69cb11"}, {"lat": 38.90856333333333, "fusion_lat": 0.0, "is_reserved": 0, "is_disabled": 0, "type": "electric_scooter", "name": "18501e6783afabc6bea3fbf5668a343b", "lon": -77.0483385, "fusion_lon": 0.0, "rental_uris": {"android": "https://dc.lft.to/lastmile_qr_scan", "ios": "https://dc.lft.to/lastmile_qr_scan"}, "bike_id": "18501e6783afabc6bea3fbf5668a343b"}, {"lat": 38.84029983333333, "fusion_lat": 0.0, "is_reserved": 0, "is_disabled": 0, "type": "electric_bike", "name": "8927dbca021c41054eeb35f880951b0d", "lon": -76.97630883333333, "fusion_lon": 0.0, "rental_uris": {"android": "https://dc.lft.to/lastmile_qr_scan", "ios": "https://dc.lft.to/lastmile_qr_scan"}, "bike_id": "8927dbca021c41054eeb35f880951b0d"}, {"lat": 38.92559283333333, "fusion_lat": 0.0, "is_reserved": 0, "is_disabled": 0, "type": "electric_scooter", "name": "1f7c73d9cf32ed883e63114e5af97278", "lon": -77.02980866666667, "fusion_lon": 0.0, "rental_uris": {"android": "https://dc.lft.to/lastmile_qr_scan", "ios": "https://dc.lft.to/lastmile_qr_scan"}, "bike_id": "1f7c73d9cf32ed883e63114e5af97278"}, {"lat": 39.029294666666665, "fusion_lat": 0.0, "is_reserved": 0, "is_disabled": 0, "type": "electric_bike", "name": "224f7db46a4869de66d800f9d52c000f", "lon": -77.0136005, "fusion_lon": 0.0, "rental_uris": {"android": "https://dc.lft.to/lastmile_qr_scan", "ios": "https://dc.lft.to/lastmile_qr_scan"}, "bike_id": "224f7db46a4869de66d800f9d52c000f"}, {"lat": 38.90660883333334, "fusion_lat": 0.0, "is_reserved": 0, "is_disabled": 0, "type": "electric_bike", "name": "8882ad73ce050ba111543b1dcead542f", "lon": -77.04385566666667, "fusion_lon": 0.0, "rental_uris": {"android": "https://dc.lft.to/lastmile_qr_scan", "ios": "https://dc.lft.to/lastmile_qr_scan"}, "bike_id": "8882ad73ce050ba111543b1dcead542f"}, {"lat": 38.922075, "fusion_lat": 0.0, "is_reserved": 0, "is_disabled": 0, "type": "electric_scooter", "name": "8662800ba7d7215c5afd78e0a5dc8418", "lon": -77.042586, "fusion_lon": 0.0, "rental_uris": {"android": "https://dc.lft.to/lastmile_qr_scan", "ios": "https://dc.lft.to/lastmile_qr_scan"}, "bike_id": "8662800ba7d7215c5afd78e0a5dc8418"}, {"lat": 38.88489283333333, "fusion_lat": 0.0, "is_reserved": 0, "is_disabled": 0, "type": "electric_scooter", "name": "f781bf61e28f958acaaa416f21fc50f4", "lon": -77.0071565, "fusion_lon": 0.0, "rental_uris": {"android": "https://dc.lft.to/lastmile_qr_scan", "ios": "https://dc.lft.to/lastmile_qr_scan"}, "bike_id": "f781bf61e28f958acaaa416f21fc50f4"}, {"lat": 38.892216833333336, "fusion_lat": 0.0, "is_reserved": 0, "is_disabled": 0, "type": "electric_scooter", "name": "c77d5c2e2eacc5c37f0a425f028d45a8", "lon": -77.04639516666667, "fusion_lon": 0.0, "rental_uris": {"android": "https://dc.lft.to/lastmile_qr_scan", "ios": "https://dc.lft.to/lastmile_qr_scan"}, "bike_id": "c77d5c2e2eacc5c37f0a425f028d45a8"}, {"lat": 38.902680833333335, "fusion_lat": 0.0, "is_reserved": 0, "is_disabled": 0, "type": "electric_scooter", "name": "ed829600e396d947ef2ed8977ba971b2", "lon": -77.02822383333333, "fusion_lon": 0.0, "rental_uris": {"android": "https://dc.lft.to/lastmile_qr_scan", "ios": "https://dc.lft.to/lastmile_qr_scan"}, "bike_id": "ed829600e396d947ef2ed8977ba971b2"}, {"lat": 38.923283833333336, "fusion_lat": 0.0, "is_reserved": 0, "is_disabled": 0, "type": "electric_scooter", "name": "5e21ac052b7f4fa1bd1a3839e62736cc", "lon": -77.0196375, "fusion_lon": 0.0, "rental_uris": {"android": "https://dc.lft.to/lastmile_qr_scan", "ios": "https://dc.lft.to/lastmile_qr_scan"}, "bike_id": "5e21ac052b7f4fa1bd1a3839e62736cc"}, {"lat": 38.88184666666667, "fusion_lat": 0.0, "is_reserved": 0, "is_disabled": 0, "type": "electric_scooter", "name": "b024e855837de8e6d5ef93cb15bd98ff", "lon": -77.00600266666666, "fusion_lon": 0.0, "rental_uris": {"android": "https://dc.lft.to/lastmile_qr_scan", "ios": "https://dc.lft.to/lastmile_qr_scan"}, "bike_id": "b024e855837de8e6d5ef93cb15bd98ff"}, {"lat": 38.91695766666667, "fusion_lat": 0.0, "is_reserved": 0, "is_disabled": 0, "type": "electric_scooter", "name": "c1cb1069cc729985ef55bb434d379529", "lon": -77.01195016666667, "fusion_lon": 0.0, "rental_uris": {"android": "https://dc.lft.to/lastmile_qr_scan", "ios": "https://dc.lft.to/lastmile_qr_scan"}, "bike_id": "c1cb1069cc729985ef55bb434d379529"}, {"lat": 38.928406333333335, "fusion_lat": 0.0, "is_reserved": 0, "is_disabled": 0, "type": "electric_scooter", "name": "645bb37a176d35c9aeba513ad73a44b6", "lon": -77.05427783333333, "fusion_lon": 0.0, "rental_uris": {"android": "https://dc.lft.to/lastmile_qr_scan", "ios": "https://dc.lft.to/lastmile_qr_scan"}, "bike_id": "645bb37a176d35c9aeba513ad73a44b6"}, {"lat": 38.923318, "fusion_lat": 0.0, "is_reserved": 0, "is_disabled": 0, "type": "electric_scooter", "name": "c72de9f7d6cc25db78ca8671eb658b09", "lon": -77.03611583333333, "fusion_lon": 0.0, "rental_uris": {"android": "https://dc.lft.to/lastmile_qr_scan", "ios": "https://dc.lft.to/lastmile_qr_scan"}, "bike_id": "c72de9f7d6cc25db78ca8671eb658b09"}, {"lat": 38.940406333333335, "fusion_lat": 0.0, "is_reserved": 0, "is_disabled": 0, "type": "electric_scooter", "name": "5d6a60e46ea229780397d366b9e82b5c", "lon": -77.01766033333334, "fusion_lon": 0.0, "rental_uris": {"android": "https://dc.lft.to/lastmile_qr_scan", "ios": "https://dc.lft.to/lastmile_qr_scan"}, "bike_id": "5d6a60e46ea229780397d366b9e82b5c"}, {"lat": 38.888723166666665, "fusion_lat": 0.0, "is_reserved": 0, "is_disabled": 0, "type": "electric_bike", "name": "f71d2a0e5032ca4524118fadc476280d", "lon": -76.95703766666666, "fusion_lon": 0.0, "rental_uris": {"android": "https://dc.lft.to/lastmile_qr_scan", "ios": "https://dc.lft.to/lastmile_qr_scan"}, "bike_id": "f71d2a0e5032ca4524118fadc476280d"}, {"lat": 38.93755016666667, "fusion_lat": 0.0, "is_reserved": 0, "is_disabled": 0, "type": "electric_scooter", "name": "dff8b1f8abdb4610d64495729c972781", "lon": -77.032634, "fusion_lon": 0.0, "rental_uris": {"android": "https://dc.lft.to/lastmile_qr_scan", "ios": "https://dc.lft.to/lastmile_qr_scan"}, "bike_id": "dff8b1f8abdb4610d64495729c972781"}, {"lat": 38.8972805, "fusion_lat": 0.0, "is_reserved": 0, "is_disabled": 0, "type": "electric_bike", "name": "ef4e67b75e5568063b880429ab7cb635", "lon": -77.04783983333333, "fusion_lon": 0.0, "rental_uris": {"android": "https://dc.lft.to/lastmile_qr_scan", "ios": "https://dc.lft.to/lastmile_qr_scan"}, "bike_id": "ef4e67b75e5568063b880429ab7cb635"}, {"lat": 38.89957616666667, "fusion_lat": 0.0, "is_reserved": 0, "is_disabled": 0, "type": "electric_scooter", "name": "d6e2daa010fda65a69b2f72e3c0abaa9", "lon": -77.04526983333334, "fusion_lon": 0.0, "rental_uris": {"android": "https://dc.lft.to/lastmile_qr_scan", "ios": "https://dc.lft.to/lastmile_qr_scan"}, "bike_id": "d6e2daa010fda65a69b2f72e3c0abaa9"}, {"lat": 38.930208, "fusion_lat": 0.0, "is_reserved": 0, "is_disabled": 0, "type": "electric_scooter", "name": "6a3b8c685c40a6f7b0902a2933107adc", "lon": -77.02340966666667, "fusion_lon": 0.0, "rental_uris": {"android": "https://dc.lft.to/lastmile_qr_scan", "ios": "https://dc.lft.to/lastmile_qr_scan"}, "bike_id": "6a3b8c685c40a6f7b0902a2933107adc"}, {"lat": 38.925584666666666, "fusion_lat": 0.0, "is_reserved": 0, "is_disabled": 0, "type": "electric_scooter", "name": "d00983d803ffdf2a53a6f464ccc662d8", "lon": -77.02981883333334, "fusion_lon": 0.0, "rental_uris": {"android": "https://dc.lft.to/lastmile_qr_scan", "ios": "https://dc.lft.to/lastmile_qr_scan"}, "bike_id": "d00983d803ffdf2a53a6f464ccc662d8"}, {"lat": 38.92746533333333, "fusion_lat": 0.0, "is_reserved": 0, "is_disabled": 0, "type": "electric_scooter", "name": "1693a61e9a5f11e1f982fc22dd7ed2b2", "lon": -77.064685, "fusion_lon": 0.0, "rental_uris": {"android": "https://dc.lft.to/lastmile_qr_scan", "ios": "https://dc.lft.to/lastmile_qr_scan"}, "bike_id": "1693a61e9a5f11e1f982fc22dd7ed2b2"}, {"lat": 38.88745433333333, "fusion_lat": 0.0, "is_reserved": 0, "is_disabled": 0, "type": "electric_scooter", "name": "98cea3bd22fed4f3f974056906f6202c", "lon": -77.02231583333334, "fusion_lon": 0.0, "rental_uris": {"android": "https://dc.lft.to/lastmile_qr_scan", "ios": "https://dc.lft.to/lastmile_qr_scan"}, "bike_id": "98cea3bd22fed4f3f974056906f6202c"}, {"lat": 38.846869833333336, "fusion_lat": 0.0, "is_reserved": 0, "is_disabled": 0, "type": "electric_scooter", "name": "111892a03b849cad1a31155fc62fc599", "lon": -76.96853716666666, "fusion_lon": 0.0, "rental_uris": {"android": "https://dc.lft.to/lastmile_qr_scan", "ios": "https://dc.lft.to/lastmile_qr_scan"}, "bike_id": "111892a03b849cad1a31155fc62fc599"}, {"lat": 38.90504883333333, "fusion_lat": 0.0, "is_reserved": 0, "is_disabled": 0, "type": "electric_scooter", "name": "14c60ac1931ccbcc19df90c2d399b1ad", "lon": -77.0089265, "fusion_lon": 0.0, "rental_uris": {"android": "https://dc.lft.to/lastmile_qr_scan", "ios": "https://dc.lft.to/lastmile_qr_scan"}, "bike_id": "14c60ac1931ccbcc19df90c2d399b1ad"}, {"lat": 38.90012633333333, "fusion_lat": 0.0, "is_reserved": 0, "is_disabled": 0, "type": "electric_scooter", "name": "5ea97bea637ad11185ab7a1afaea4517", "lon": -77.0403185, "fusion_lon": 0.0, "rental_uris": {"android": "https://dc.lft.to/lastmile_qr_scan", "ios": "https://dc.lft.to/lastmile_qr_scan"}, "bike_id": "5ea97bea637ad11185ab7a1afaea4517"}, {"lat": 38.917956, "fusion_lat": 0.0, "is_reserved": 0, "is_disabled": 0, "type": "electric_scooter", "name": "0b0de5221218c877e4969d9c4d80042b", "lon": -77.02820583333333, "fusion_lon": 0.0, "rental_uris": {"android": "https://dc.lft.to/lastmile_qr_scan", "ios": "https://dc.lft.to/lastmile_qr_scan"}, "bike_id": "0b0de5221218c877e4969d9c4d80042b"}, {"lat": 38.892804, "fusion_lat": 0.0, "is_reserved": 0, "is_disabled": 0, "type": "electric_scooter", "name": "2787ac11eefd76dd7bc31b118deceecc", "lon": -77.050396, "fusion_lon": 0.0, "rental_uris": {"android": "https://dc.lft.to/lastmile_qr_scan", "ios": "https://dc.lft.to/lastmile_qr_scan"}, "bike_id": "2787ac11eefd76dd7bc31b118deceecc"}, {"lat": 38.90894, "fusion_lat": 0.0, "is_reserved": 0, "is_disabled": 0, "type": "electric_scooter", "name": "567c6acc8dfc9f6ea160d4dd4f1b753a", "lon": -77.0339495, "fusion_lon": 0.0, "rental_uris": {"android": "https://dc.lft.to/lastmile_qr_scan", "ios": "https://dc.lft.to/lastmile_qr_scan"}, "bike_id": "567c6acc8dfc9f6ea160d4dd4f1b753a"}, {"lat": 38.92127266666667, "fusion_lat": 0.0, "is_reserved": 0, "is_disabled": 0, "type": "electric_scooter", "name": "cda11b66485f33ef7a073fc63067e719", "lon": -77.01796916666666, "fusion_lon": 0.0, "rental_uris": {"android": "https://dc.lft.to/lastmile_qr_scan", "ios": "https://dc.lft.to/lastmile_qr_scan"}, "bike_id": "cda11b66485f33ef7a073fc63067e719"}, {"lat": 38.92332733333333, "fusion_lat": 0.0, "is_reserved": 0, "is_disabled": 0, "type": "electric_scooter", "name": "9eabbcefa30f4235f891b7c0e625317c", "lon": -77.01952316666667, "fusion_lon": 0.0, "rental_uris": {"android": "https://dc.lft.to/lastmile_qr_scan", "ios": "https://dc.lft.to/lastmile_qr_scan"}, "bike_id": "9eabbcefa30f4235f891b7c0e625317c"}, {"lat": 38.935291, "fusion_lat": 0.0, "is_reserved": 0, "is_disabled": 0, "type": "electric_scooter", "name": "f21e89cb33a707440e848df303ce7c8b", "lon": -77.0728995, "fusion_lon": 0.0, "rental_uris": {"android": "https://dc.lft.to/lastmile_qr_scan", "ios": "https://dc.lft.to/lastmile_qr_scan"}, "bike_id": "f21e89cb33a707440e848df303ce7c8b"}, {"lat": 38.83107783333333, "fusion_lat": 0.0, "is_reserved": 0, "is_disabled": 0, "type": "electric_bike", "name": "62c1d2166002ddbd96ba3aae5ab6f46d", "lon": -77.00835016666667, "fusion_lon": 0.0, "rental_uris": {"android": "https://dc.lft.to/lastmile_qr_scan", "ios": "https://dc.lft.to/lastmile_qr_scan"}, "bike_id": "62c1d2166002ddbd96ba3aae5ab6f46d"}, {"lat": 38.9095555, "fusion_lat": 0.0, "is_reserved": 0, "is_disabled": 0, "type": "electric_scooter", "name": "42c6d7a8f5c819749f8cc2edd6b52dc0", "lon": -77.01134433333333, "fusion_lon": 0.0, "rental_uris": {"android": "https://dc.lft.to/lastmile_qr_scan", "ios": "https://dc.lft.to/lastmile_qr_scan"}, "bike_id": "42c6d7a8f5c819749f8cc2edd6b52dc0"}, {"lat": 38.88681233333333, "fusion_lat": 0.0, "is_reserved": 0, "is_disabled": 0, "type": "electric_scooter", "name": "5b39acd4818a9470b19af18d077fd053", "lon": -77.0479675, "fusion_lon": 0.0, "rental_uris": {"android": "https://dc.lft.to/lastmile_qr_scan", "ios": "https://dc.lft.to/lastmile_qr_scan"}, "bike_id": "5b39acd4818a9470b19af18d077fd053"}, {"lat": 38.9178895, "fusion_lat": 0.0, "is_reserved": 0, "is_disabled": 0, "type": "electric_scooter", "name": "48f65aad20cd97bb29987853792175fb", "lon": -77.04669116666666, "fusion_lon": 0.0, "rental_uris": {"android": "https://dc.lft.to/lastmile_qr_scan", "ios": "https://dc.lft.to/lastmile_qr_scan"}, "bike_id": "48f65aad20cd97bb29987853792175fb"}, {"lat": 38.9267315, "fusion_lat": 0.0, "is_reserved": 0, "is_disabled": 0, "type": "electric_scooter", "name": "8b67d2dc76f0b6b91f99873f3cca65b8", "lon": -77.01507116666667, "fusion_lon": 0.0, "rental_uris": {"android": "https://dc.lft.to/lastmile_qr_scan", "ios": "https://dc.lft.to/lastmile_qr_scan"}, "bike_id": "8b67d2dc76f0b6b91f99873f3cca65b8"}, {"lat": 38.9175925, "fusion_lat": 0.0, "is_reserved": 0, "is_disabled": 0, "type": "electric_scooter", "name": "9558a4372298c03872e509e580beaedb", "lon": -77.03644083333333, "fusion_lon": 0.0, "rental_uris": {"android": "https://dc.lft.to/lastmile_qr_scan", "ios": "https://dc.lft.to/lastmile_qr_scan"}, "bike_id": "9558a4372298c03872e509e580beaedb"}, {"lat": 38.92135366666667, "fusion_lat": 0.0, "is_reserved": 0, "is_disabled": 0, "type": "electric_scooter", "name": "baadaae20621ba0054ae6b97fde92f81", "lon": -77.0008655, "fusion_lon": 0.0, "rental_uris": {"android": "https://dc.lft.to/lastmile_qr_scan", "ios": "https://dc.lft.to/lastmile_qr_scan"}, "bike_id": "baadaae20621ba0054ae6b97fde92f81"}, {"lat": 38.89086616666667, "fusion_lat": 0.0, "is_reserved": 0, "is_disabled": 0, "type": "electric_bike", "name": "feb224ef9064a74bb18ea4fa628ab260", "lon": -76.9546735, "fusion_lon": 0.0, "rental_uris": {"android": "https://dc.lft.to/lastmile_qr_scan", "ios": "https://dc.lft.to/lastmile_qr_scan"}, "bike_id": "feb224ef9064a74bb18ea4fa628ab260"}, {"lat": 38.9322815, "fusion_lat": 0.0, "is_reserved": 0, "is_disabled": 0, "type": "electric_scooter", "name": "0086bfc4b10a6368d4894bfa7f8a042a", "lon": -77.030316, "fusion_lon": 0.0, "rental_uris": {"android": "https://dc.lft.to/lastmile_qr_scan", "ios": "https://dc.lft.to/lastmile_qr_scan"}, "bike_id": "0086bfc4b10a6368d4894bfa7f8a042a"}, {"lat": 38.91257366666667, "fusion_lat": 0.0, "is_reserved": 0, "is_disabled": 0, "type": "electric_scooter", "name": "84c238341e72e3cded881eec4f9afda6", "lon": -77.03880283333334, "fusion_lon": 0.0, "rental_uris": {"android": "https://dc.lft.to/lastmile_qr_scan", "ios": "https://dc.lft.to/lastmile_qr_scan"}, "bike_id": "84c238341e72e3cded881eec4f9afda6"}, {"lat": 38.95638266666667, "fusion_lat": 0.0, "is_reserved": 0, "is_disabled": 0, "type": "electric_scooter", "name": "a1ef1525afcdbfc59450db4d75fc6b84", "lon": -77.03632116666667, "fusion_lon": 0.0, "rental_uris": {"android": "https://dc.lft.to/lastmile_qr_scan", "ios": "https://dc.lft.to/lastmile_qr_scan"}, "bike_id": "a1ef1525afcdbfc59450db4d75fc6b84"}, {"lat": 38.892198666666665, "fusion_lat": 0.0, "is_reserved": 0, "is_disabled": 0, "type": "electric_scooter", "name": "52bd25c3715591e20075e730d38dfc02", "lon": -77.03168016666666, "fusion_lon": 0.0, "rental_uris": {"android": "https://dc.lft.to/lastmile_qr_scan", "ios": "https://dc.lft.to/lastmile_qr_scan"}, "bike_id": "52bd25c3715591e20075e730d38dfc02"}, {"lat": 38.93194483333333, "fusion_lat": 0.0, "is_reserved": 0, "is_disabled": 0, "type": "electric_scooter", "name": "03bea9586653ad4b103f93b856ad562e", "lon": -77.01873133333333, "fusion_lon": 0.0, "rental_uris": {"android": "https://dc.lft.to/lastmile_qr_scan", "ios": "https://dc.lft.to/lastmile_qr_scan"}, "bike_id": "03bea9586653ad4b103f93b856ad562e"}, {"lat": 38.807687333333334, "fusion_lat": 0.0, "is_reserved": 0, "is_disabled": 0, "type": "electric_bike", "name": "4ed9beef297932c98e2746b779e2e017", "lon": -77.05741133333333, "fusion_lon": 0.0, "rental_uris": {"android": "https://dc.lft.to/lastmile_qr_scan", "ios": "https://dc.lft.to/lastmile_qr_scan"}, "bike_id": "4ed9beef297932c98e2746b779e2e017"}, {"lat": 38.866840833333335, "fusion_lat": 0.0, "is_reserved": 0, "is_disabled": 0, "type": "electric_scooter", "name": "3d78bceee16e3534bbecfcdba7919673", "lon": -76.94855716666666, "fusion_lon": 0.0, "rental_uris": {"android": "https://dc.lft.to/lastmile_qr_scan", "ios": "https://dc.lft.to/lastmile_qr_scan"}, "bike_id": "3d78bceee16e3534bbecfcdba7919673"}, {"lat": 38.9049145, "fusion_lat": 0.0, "is_reserved": 0, "is_disabled": 0, "type": "electric_scooter", "name": "3eb15ddaf450a0c4cc1432114f83f773", "lon": -76.94958633333333, "fusion_lon": 0.0, "rental_uris": {"android": "https://dc.lft.to/lastmile_qr_scan", "ios": "https://dc.lft.to/lastmile_qr_scan"}, "bike_id": "3eb15ddaf450a0c4cc1432114f83f773"}, {"lat": 38.92132683333333, "fusion_lat": 0.0, "is_reserved": 0, "is_disabled": 0, "type": "electric_scooter", "name": "dc897d71621a659d9d13b825589ce17e", "lon": -77.01904666666667, "fusion_lon": 0.0, "rental_uris": {"android": "https://dc.lft.to/lastmile_qr_scan", "ios": "https://dc.lft.to/lastmile_qr_scan"}, "bike_id": "dc897d71621a659d9d13b825589ce17e"}, {"lat": 38.876614833333335, "fusion_lat": 0.0, "is_reserved": 0, "is_disabled": 0, "type": "electric_scooter", "name": "03e1e3d4b3ee25e4758164a91be27b9b", "lon": -77.0043735, "fusion_lon": 0.0, "rental_uris": {"android": "https://dc.lft.to/lastmile_qr_scan", "ios": "https://dc.lft.to/lastmile_qr_scan"}, "bike_id": "03e1e3d4b3ee25e4758164a91be27b9b"}, {"lat": 38.90783583333333, "fusion_lat": 0.0, "is_reserved": 0, "is_disabled": 0, "type": "electric_scooter", "name": "ab26c2ab4ddab6ccef81ffc2a5561949", "lon": -77.04251616666667, "fusion_lon": 0.0, "rental_uris": {"android": "https://dc.lft.to/lastmile_qr_scan", "ios": "https://dc.lft.to/lastmile_qr_scan"}, "bike_id": "ab26c2ab4ddab6ccef81ffc2a5561949"}, {"lat": 38.8562745, "fusion_lat": 0.0, "is_reserved": 0, "is_disabled": 0, "type": "electric_scooter", "name": "6a92470f0c9baa556b77be1c2d6857b9", "lon": -76.98227566666667, "fusion_lon": 0.0, "rental_uris": {"android": "https://dc.lft.to/lastmile_qr_scan", "ios": "https://dc.lft.to/lastmile_qr_scan"}, "bike_id": "6a92470f0c9baa556b77be1c2d6857b9"}, {"lat": 38.892211, "fusion_lat": 0.0, "is_reserved": 0, "is_disabled": 0, "type": "electric_scooter", "name": "c0b2f1a594250fd0ff1aca14d9ad4711", "lon": -77.02374733333333, "fusion_lon": 0.0, "rental_uris": {"android": "https://dc.lft.to/lastmile_qr_scan", "ios": "https://dc.lft.to/lastmile_qr_scan"}, "bike_id": "c0b2f1a594250fd0ff1aca14d9ad4711"}, {"lat": 38.88474083333333, "fusion_lat": 0.0, "is_reserved": 0, "is_disabled": 0, "type": "electric_scooter", "name": "6ce067e0dbe5fd5ca319792bc8feca28", "lon": -77.02650116666666, "fusion_lon": 0.0, "rental_uris": {"android": "https://dc.lft.to/lastmile_qr_scan", "ios": "https://dc.lft.to/lastmile_qr_scan"}, "bike_id": "6ce067e0dbe5fd5ca319792bc8feca28"}, {"lat": 38.910290833333335, "fusion_lat": 0.0, "is_reserved": 0, "is_disabled": 0, "type": "electric_scooter", "name": "0716c5f9717a2f4f2e7ef109ac6ba15a", "lon": -77.0426815, "fusion_lon": 0.0, "rental_uris": {"android": "https://dc.lft.to/lastmile_qr_scan", "ios": "https://dc.lft.to/lastmile_qr_scan"}, "bike_id": "0716c5f9717a2f4f2e7ef109ac6ba15a"}, {"lat": 38.90785433333333, "fusion_lat": 0.0, "is_reserved": 0, "is_disabled": 0, "type": "electric_scooter", "name": "8fe6debec5cecb3c3fc0e0ae3b9e9beb", "lon": -77.04508366666667, "fusion_lon": 0.0, "rental_uris": {"android": "https://dc.lft.to/lastmile_qr_scan", "ios": "https://dc.lft.to/lastmile_qr_scan"}, "bike_id": "8fe6debec5cecb3c3fc0e0ae3b9e9beb"}, {"lat": 38.90783866666666, "fusion_lat": 0.0, "is_reserved": 0, "is_disabled": 0, "type": "electric_scooter", "name": "a0001633bcf37a5187f1f5d727706dfd", "lon": -77.045117, "fusion_lon": 0.0, "rental_uris": {"android": "https://dc.lft.to/lastmile_qr_scan", "ios": "https://dc.lft.to/lastmile_qr_scan"}, "bike_id": "a0001633bcf37a5187f1f5d727706dfd"}, {"lat": 38.89609466666667, "fusion_lat": 0.0, "is_reserved": 0, "is_disabled": 0, "type": "electric_scooter", "name": "d42e42c6024260e1261f9d36648dc0da", "lon": -77.04543516666666, "fusion_lon": 0.0, "rental_uris": {"android": "https://dc.lft.to/lastmile_qr_scan", "ios": "https://dc.lft.to/lastmile_qr_scan"}, "bike_id": "d42e42c6024260e1261f9d36648dc0da"}, {"lat": 38.90556183333333, "fusion_lat": 0.0, "is_reserved": 0, "is_disabled": 0, "type": "electric_scooter", "name": "63fedc9a1d15f203285b44eb918a9938", "lon": -77.00712216666666, "fusion_lon": 0.0, "rental_uris": {"android": "https://dc.lft.to/lastmile_qr_scan", "ios": "https://dc.lft.to/lastmile_qr_scan"}, "bike_id": "63fedc9a1d15f203285b44eb918a9938"}, {"lat": 38.9492395, "fusion_lat": 0.0, "is_reserved": 0, "is_disabled": 0, "type": "electric_scooter", "name": "29cddd0cd0c292f649d9e7ace2b95279", "lon": -77.023192, "fusion_lon": 0.0, "rental_uris": {"android": "https://dc.lft.to/lastmile_qr_scan", "ios": "https://dc.lft.to/lastmile_qr_scan"}, "bike_id": "29cddd0cd0c292f649d9e7ace2b95279"}, {"lat": 38.903603333333336, "fusion_lat": 0.0, "is_reserved": 0, "is_disabled": 0, "type": "electric_scooter", "name": "7b5e33d32c7f94c5052ef338f160d363", "lon": -77.03180733333333, "fusion_lon": 0.0, "rental_uris": {"android": "https://dc.lft.to/lastmile_qr_scan", "ios": "https://dc.lft.to/lastmile_qr_scan"}, "bike_id": "7b5e33d32c7f94c5052ef338f160d363"}, {"lat": 38.91059216666667, "fusion_lat": 0.0, "is_reserved": 0, "is_disabled": 0, "type": "electric_scooter", "name": "7880cbf2cfb08abe6da5375321fd33ea", "lon": -77.023063, "fusion_lon": 0.0, "rental_uris": {"android": "https://dc.lft.to/lastmile_qr_scan", "ios": "https://dc.lft.to/lastmile_qr_scan"}, "bike_id": "7880cbf2cfb08abe6da5375321fd33ea"}, {"lat": 38.902772, "fusion_lat": 0.0, "is_reserved": 0, "is_disabled": 0, "type": "electric_scooter", "name": "3c54e162fc106984df7e648b1aa6679a", "lon": -77.03896566666667, "fusion_lon": 0.0, "rental_uris": {"android": "https://dc.lft.to/lastmile_qr_scan", "ios": "https://dc.lft.to/lastmile_qr_scan"}, "bike_id": "3c54e162fc106984df7e648b1aa6679a"}, {"lat": 38.876317, "fusion_lat": 0.0, "is_reserved": 0, "is_disabled": 0, "type": "electric_scooter", "name": "c8db562c1e76c5688c6a5bc6c7fb37a7", "lon": -77.00959616666667, "fusion_lon": 0.0, "rental_uris": {"android": "https://dc.lft.to/lastmile_qr_scan", "ios": "https://dc.lft.to/lastmile_qr_scan"}, "bike_id": "c8db562c1e76c5688c6a5bc6c7fb37a7"}, {"lat": 38.917904166666666, "fusion_lat": 0.0, "is_reserved": 0, "is_disabled": 0, "type": "electric_scooter", "name": "35dee5adf400c7fcce6363f762811705", "lon": -77.03208716666667, "fusion_lon": 0.0, "rental_uris": {"android": "https://dc.lft.to/lastmile_qr_scan", "ios": "https://dc.lft.to/lastmile_qr_scan"}, "bike_id": "35dee5adf400c7fcce6363f762811705"}, {"lat": 38.89400966666667, "fusion_lat": 0.0, "is_reserved": 0, "is_disabled": 0, "type": "electric_scooter", "name": "e6a7c140d7a263d741b3af7e85881b9c", "lon": -77.04663866666667, "fusion_lon": 0.0, "rental_uris": {"android": "https://dc.lft.to/lastmile_qr_scan", "ios": "https://dc.lft.to/lastmile_qr_scan"}, "bike_id": "e6a7c140d7a263d741b3af7e85881b9c"}, {"lat": 38.876703666666664, "fusion_lat": 0.0, "is_reserved": 0, "is_disabled": 0, "type": "electric_scooter", "name": "883c9c315dd9c2e9d5b103e94375093a", "lon": -77.01760866666666, "fusion_lon": 0.0, "rental_uris": {"android": "https://dc.lft.to/lastmile_qr_scan", "ios": "https://dc.lft.to/lastmile_qr_scan"}, "bike_id": "883c9c315dd9c2e9d5b103e94375093a"}, {"lat": 38.92448983333333, "fusion_lat": 0.0, "is_reserved": 0, "is_disabled": 0, "type": "electric_scooter", "name": "22e6c8d532a2ac8be77eb7c898dcc950", "lon": -77.022489, "fusion_lon": 0.0, "rental_uris": {"android": "https://dc.lft.to/lastmile_qr_scan", "ios": "https://dc.lft.to/lastmile_qr_scan"}, "bike_id": "22e6c8d532a2ac8be77eb7c898dcc950"}, {"lat": 38.864861833333336, "fusion_lat": 0.0, "is_reserved": 0, "is_disabled": 0, "type": "electric_bike", "name": "7564652f204a8c0a276c15d34e4376f5", "lon": -76.97743983333334, "fusion_lon": 0.0, "rental_uris": {"android": "https://dc.lft.to/lastmile_qr_scan", "ios": "https://dc.lft.to/lastmile_qr_scan"}, "bike_id": "7564652f204a8c0a276c15d34e4376f5"}, {"lat": 38.89936766666667, "fusion_lat": 0.0, "is_reserved": 0, "is_disabled": 0, "type": "electric_scooter", "name": "0108c1f4e44ea16a9e8661ee37f6ec8f", "lon": -77.04138083333333, "fusion_lon": 0.0, "rental_uris": {"android": "https://dc.lft.to/lastmile_qr_scan", "ios": "https://dc.lft.to/lastmile_qr_scan"}, "bike_id": "0108c1f4e44ea16a9e8661ee37f6ec8f"}, {"lat": 38.892204166666666, "fusion_lat": 0.0, "is_reserved": 0, "is_disabled": 0, "type": "electric_scooter", "name": "249b3c6a9bdae35df45536ea865b0957", "lon": -77.04640283333333, "fusion_lon": 0.0, "rental_uris": {"android": "https://dc.lft.to/lastmile_qr_scan", "ios": "https://dc.lft.to/lastmile_qr_scan"}, "bike_id": "249b3c6a9bdae35df45536ea865b0957"}, {"lat": 38.94918966666667, "fusion_lat": 0.0, "is_reserved": 0, "is_disabled": 0, "type": "electric_scooter", "name": "32b1def3dbffbed0adb2bf7b5a0bbc9e", "lon": -77.0185755, "fusion_lon": 0.0, "rental_uris": {"android": "https://dc.lft.to/lastmile_qr_scan", "ios": "https://dc.lft.to/lastmile_qr_scan"}, "bike_id": "32b1def3dbffbed0adb2bf7b5a0bbc9e"}, {"lat": 38.886576833333336, "fusion_lat": 0.0, "is_reserved": 0, "is_disabled": 0, "type": "electric_scooter", "name": "45f6e7ba2fca3102904151752055d21f", "lon": -77.03390733333333, "fusion_lon": 0.0, "rental_uris": {"android": "https://dc.lft.to/lastmile_qr_scan", "ios": "https://dc.lft.to/lastmile_qr_scan"}, "bike_id": "45f6e7ba2fca3102904151752055d21f"}, {"lat": 38.89231433333333, "fusion_lat": 0.0, "is_reserved": 0, "is_disabled": 0, "type": "electric_scooter", "name": "30280f9e1ac88f64c2a8bb563f3f0ff7", "lon": -77.04361, "fusion_lon": 0.0, "rental_uris": {"android": "https://dc.lft.to/lastmile_qr_scan", "ios": "https://dc.lft.to/lastmile_qr_scan"}, "bike_id": "30280f9e1ac88f64c2a8bb563f3f0ff7"}, {"lat": 38.90159666666667, "fusion_lat": 0.0, "is_reserved": 0, "is_disabled": 0, "type": "electric_scooter", "name": "0a7084249e5d4fc2fee44206cc38de11", "lon": -77.024854, "fusion_lon": 0.0, "rental_uris": {"android": "https://dc.lft.to/lastmile_qr_scan", "ios": "https://dc.lft.to/lastmile_qr_scan"}, "bike_id": "0a7084249e5d4fc2fee44206cc38de11"}, {"lat": 38.89988833333334, "fusion_lat": 0.0, "is_reserved": 0, "is_disabled": 0, "type": "electric_scooter", "name": "d4d51e9d370f1ec76ec5c6ccf2c90929", "lon": -77.009276, "fusion_lon": 0.0, "rental_uris": {"android": "https://dc.lft.to/lastmile_qr_scan", "ios": "https://dc.lft.to/lastmile_qr_scan"}, "bike_id": "d4d51e9d370f1ec76ec5c6ccf2c90929"}, {"lat": 38.95643483333333, "fusion_lat": 0.0, "is_reserved": 0, "is_disabled": 0, "type": "electric_scooter", "name": "0505fa69aaddc73c088877e9872023e3", "lon": -77.01953383333333, "fusion_lon": 0.0, "rental_uris": {"android": "https://dc.lft.to/lastmile_qr_scan", "ios": "https://dc.lft.to/lastmile_qr_scan"}, "bike_id": "0505fa69aaddc73c088877e9872023e3"}, {"lat": 38.91272033333333, "fusion_lat": 0.0, "is_reserved": 0, "is_disabled": 0, "type": "electric_scooter", "name": "5a70de2bb1dac57acda851cb5d643526", "lon": -77.0487015, "fusion_lon": 0.0, "rental_uris": {"android": "https://dc.lft.to/lastmile_qr_scan", "ios": "https://dc.lft.to/lastmile_qr_scan"}, "bike_id": "5a70de2bb1dac57acda851cb5d643526"}, {"lat": 38.905662, "fusion_lat": 0.0, "is_reserved": 0, "is_disabled": 0, "type": "electric_scooter", "name": "8cca796001ca22db65d2ece49472ecc3", "lon": -77.006902, "fusion_lon": 0.0, "rental_uris": {"android": "https://dc.lft.to/lastmile_qr_scan", "ios": "https://dc.lft.to/lastmile_qr_scan"}, "bike_id": "8cca796001ca22db65d2ece49472ecc3"}, {"lat": 38.9025765, "fusion_lat": 0.0, "is_reserved": 0, "is_disabled": 0, "type": "electric_scooter", "name": "615b3fe0e75fbb82e28847bac42e0831", "lon": -77.0174005, "fusion_lon": 0.0, "rental_uris": {"android": "https://dc.lft.to/lastmile_qr_scan", "ios": "https://dc.lft.to/lastmile_qr_scan"}, "bike_id": "615b3fe0e75fbb82e28847bac42e0831"}, {"lat": 38.902452333333336, "fusion_lat": 0.0, "is_reserved": 0, "is_disabled": 0, "type": "electric_scooter", "name": "c65d8ecb17f5966f7a83898cd76e4797", "lon": -77.05196616666667, "fusion_lon": 0.0, "rental_uris": {"android": "https://dc.lft.to/lastmile_qr_scan", "ios": "https://dc.lft.to/lastmile_qr_scan"}, "bike_id": "c65d8ecb17f5966f7a83898cd76e4797"}, {"lat": 38.92039533333333, "fusion_lat": 0.0, "is_reserved": 0, "is_disabled": 0, "type": "electric_scooter", "name": "6602bfbead3e453f040b5743de8b99fc", "lon": -77.0259265, "fusion_lon": 0.0, "rental_uris": {"android": "https://dc.lft.to/lastmile_qr_scan", "ios": "https://dc.lft.to/lastmile_qr_scan"}, "bike_id": "6602bfbead3e453f040b5743de8b99fc"}, {"lat": 38.892252, "fusion_lat": 0.0, "is_reserved": 0, "is_disabled": 0, "type": "electric_scooter", "name": "245ee53e129395aa838cce36ed3d964f", "lon": -77.044968, "fusion_lon": 0.0, "rental_uris": {"android": "https://dc.lft.to/lastmile_qr_scan", "ios": "https://dc.lft.to/lastmile_qr_scan"}, "bike_id": "245ee53e129395aa838cce36ed3d964f"}, {"lat": 38.959283166666665, "fusion_lat": 0.0, "is_reserved": 0, "is_disabled": 0, "type": "electric_bike", "name": "c04ea70e136f2176b1f1ac86cb06978e", "lon": -76.92534616666667, "fusion_lon": 0.0, "rental_uris": {"android": "https://dc.lft.to/lastmile_qr_scan", "ios": "https://dc.lft.to/lastmile_qr_scan"}, "bike_id": "c04ea70e136f2176b1f1ac86cb06978e"}, {"lat": 38.892718, "fusion_lat": 0.0, "is_reserved": 0, "is_disabled": 0, "type": "electric_scooter", "name": "cac114ddde3a4747bcc636dadd13cd49", "lon": -77.0465995, "fusion_lon": 0.0, "rental_uris": {"android": "https://dc.lft.to/lastmile_qr_scan", "ios": "https://dc.lft.to/lastmile_qr_scan"}, "bike_id": "cac114ddde3a4747bcc636dadd13cd49"}, {"lat": 38.90885383333333, "fusion_lat": 0.0, "is_reserved": 0, "is_disabled": 0, "type": "electric_scooter", "name": "a6182f5a1c417a83385bee5655afb82b", "lon": -77.023081, "fusion_lon": 0.0, "rental_uris": {"android": "https://dc.lft.to/lastmile_qr_scan", "ios": "https://dc.lft.to/lastmile_qr_scan"}, "bike_id": "a6182f5a1c417a83385bee5655afb82b"}, {"lat": 38.916253, "fusion_lat": 0.0, "is_reserved": 0, "is_disabled": 0, "type": "electric_scooter", "name": "52d90db7e54ca4c27a080ce1d9c5ab74", "lon": -77.0389135, "fusion_lon": 0.0, "rental_uris": {"android": "https://dc.lft.to/lastmile_qr_scan", "ios": "https://dc.lft.to/lastmile_qr_scan"}, "bike_id": "52d90db7e54ca4c27a080ce1d9c5ab74"}, {"lat": 38.852439, "fusion_lat": 0.0, "is_reserved": 0, "is_disabled": 0, "type": "electric_bike", "name": "2b4d17608dee47b0bfe986cf72636a2a", "lon": -77.10710633333333, "fusion_lon": 0.0, "rental_uris": {"android": "https://dc.lft.to/lastmile_qr_scan", "ios": "https://dc.lft.to/lastmile_qr_scan"}, "bike_id": "2b4d17608dee47b0bfe986cf72636a2a"}, {"lat": 38.9284415, "fusion_lat": 0.0, "is_reserved": 0, "is_disabled": 0, "type": "electric_scooter", "name": "29008f2e73c316e16a48eac2d6e98291", "lon": -77.013585, "fusion_lon": 0.0, "rental_uris": {"android": "https://dc.lft.to/lastmile_qr_scan", "ios": "https://dc.lft.to/lastmile_qr_scan"}, "bike_id": "29008f2e73c316e16a48eac2d6e98291"}, {"lat": 38.94442266666667, "fusion_lat": 0.0, "is_reserved": 0, "is_disabled": 0, "type": "electric_scooter", "name": "ff381bf8fa412da3ace3e565cc8226f7", "lon": -77.063598, "fusion_lon": 0.0, "rental_uris": {"android": "https://dc.lft.to/lastmile_qr_scan", "ios": "https://dc.lft.to/lastmile_qr_scan"}, "bike_id": "ff381bf8fa412da3ace3e565cc8226f7"}, {"lat": 38.920545, "fusion_lat": 0.0, "is_reserved": 0, "is_disabled": 0, "type": "electric_bike", "name": "cbbb87f5c68d1f1007f38d621cd05f58", "lon": -76.97073966666666, "fusion_lon": 0.0, "rental_uris": {"android": "https://dc.lft.to/lastmile_qr_scan", "ios": "https://dc.lft.to/lastmile_qr_scan"}, "bike_id": "cbbb87f5c68d1f1007f38d621cd05f58"}, {"lat": 38.9272295, "fusion_lat": 0.0, "is_reserved": 0, "is_disabled": 0, "type": "electric_scooter", "name": "e578ce614b182ab410fa0fa154dcb510", "lon": -77.05141816666666, "fusion_lon": 0.0, "rental_uris": {"android": "https://dc.lft.to/lastmile_qr_scan", "ios": "https://dc.lft.to/lastmile_qr_scan"}, "bike_id": "e578ce614b182ab410fa0fa154dcb510"}, {"lat": 38.900102833333335, "fusion_lat": 0.0, "is_reserved": 0, "is_disabled": 0, "type": "electric_scooter", "name": "fc9b3d6d20cb9f9de634ca0665a5f0b6", "lon": -77.027304, "fusion_lon": 0.0, "rental_uris": {"android": "https://dc.lft.to/lastmile_qr_scan", "ios": "https://dc.lft.to/lastmile_qr_scan"}, "bike_id": "fc9b3d6d20cb9f9de634ca0665a5f0b6"}, {"lat": 38.86368616666667, "fusion_lat": 0.0, "is_reserved": 0, "is_disabled": 0, "type": "electric_scooter", "name": "49499bcc1ffbd08fbb78b8f198fdce0f", "lon": -77.013673, "fusion_lon": 0.0, "rental_uris": {"android": "https://dc.lft.to/lastmile_qr_scan", "ios": "https://dc.lft.to/lastmile_qr_scan"}, "bike_id": "49499bcc1ffbd08fbb78b8f198fdce0f"}, {"lat": 38.91794616666667, "fusion_lat": 0.0, "is_reserved": 0, "is_disabled": 0, "type": "electric_scooter", "name": "82f343d2fdd8754a1741dc5564ba3962", "lon": -77.02815283333334, "fusion_lon": 0.0, "rental_uris": {"android": "https://dc.lft.to/lastmile_qr_scan", "ios": "https://dc.lft.to/lastmile_qr_scan"}, "bike_id": "82f343d2fdd8754a1741dc5564ba3962"}, {"lat": 38.878511, "fusion_lat": 0.0, "is_reserved": 0, "is_disabled": 0, "type": "electric_scooter", "name": "83bb628cf7ba99066ccc448c00915076", "lon": -77.01871333333334, "fusion_lon": 0.0, "rental_uris": {"android": "https://dc.lft.to/lastmile_qr_scan", "ios": "https://dc.lft.to/lastmile_qr_scan"}, "bike_id": "83bb628cf7ba99066ccc448c00915076"}, {"lat": 38.89473483333333, "fusion_lat": 0.0, "is_reserved": 0, "is_disabled": 0, "type": "electric_scooter", "name": "1497b653f5fe6aee6e0ad3207cce1df0", "lon": -77.019992, "fusion_lon": 0.0, "rental_uris": {"android": "https://dc.lft.to/lastmile_qr_scan", "ios": "https://dc.lft.to/lastmile_qr_scan"}, "bike_id": "1497b653f5fe6aee6e0ad3207cce1df0"}, {"lat": 38.89649283333333, "fusion_lat": 0.0, "is_reserved": 0, "is_disabled": 0, "type": "electric_scooter", "name": "8bc5a13153b878cd1201e98f31ee9653", "lon": -77.0501995, "fusion_lon": 0.0, "rental_uris": {"android": "https://dc.lft.to/lastmile_qr_scan", "ios": "https://dc.lft.to/lastmile_qr_scan"}, "bike_id": "8bc5a13153b878cd1201e98f31ee9653"}, {"lat": 38.922471, "fusion_lat": 0.0, "is_reserved": 0, "is_disabled": 0, "type": "electric_scooter", "name": "d30c10cc5a1275b540d47fa6dd0f7f64", "lon": -77.02991866666666, "fusion_lon": 0.0, "rental_uris": {"android": "https://dc.lft.to/lastmile_qr_scan", "ios": "https://dc.lft.to/lastmile_qr_scan"}, "bike_id": "d30c10cc5a1275b540d47fa6dd0f7f64"}, {"lat": 38.89742233333333, "fusion_lat": 0.0, "is_reserved": 0, "is_disabled": 0, "type": "electric_scooter", "name": "9718e12a55baf937171962fb66bba854", "lon": -77.0128085, "fusion_lon": 0.0, "rental_uris": {"android": "https://dc.lft.to/lastmile_qr_scan", "ios": "https://dc.lft.to/lastmile_qr_scan"}, "bike_id": "9718e12a55baf937171962fb66bba854"}, {"lat": 38.899737, "fusion_lat": 0.0, "is_reserved": 0, "is_disabled": 0, "type": "electric_scooter", "name": "1407befd8921163a81ee6ebeddcb84fc", "lon": -77.01643783333333, "fusion_lon": 0.0, "rental_uris": {"android": "https://dc.lft.to/lastmile_qr_scan", "ios": "https://dc.lft.to/lastmile_qr_scan"}, "bike_id": "1407befd8921163a81ee6ebeddcb84fc"}, {"lat": 38.920337, "fusion_lat": 0.0, "is_reserved": 0, "is_disabled": 0, "type": "electric_scooter", "name": "92eea01a567fab408bed4f23734fff1e", "lon": -77.03175766666666, "fusion_lon": 0.0, "rental_uris": {"android": "https://dc.lft.to/lastmile_qr_scan", "ios": "https://dc.lft.to/lastmile_qr_scan"}, "bike_id": "92eea01a567fab408bed4f23734fff1e"}, {"lat": 38.91118933333333, "fusion_lat": 0.0, "is_reserved": 0, "is_disabled": 0, "type": "electric_scooter", "name": "d4c6fa370ec5e454d00db49939c2658c", "lon": -77.03290583333333, "fusion_lon": 0.0, "rental_uris": {"android": "https://dc.lft.to/lastmile_qr_scan", "ios": "https://dc.lft.to/lastmile_qr_scan"}, "bike_id": "d4c6fa370ec5e454d00db49939c2658c"}, {"lat": 38.91957133333333, "fusion_lat": 0.0, "is_reserved": 0, "is_disabled": 0, "type": "electric_scooter", "name": "cb80f4f4c91b09f7a99a259d556fd24b", "lon": -77.02474816666667, "fusion_lon": 0.0, "rental_uris": {"android": "https://dc.lft.to/lastmile_qr_scan", "ios": "https://dc.lft.to/lastmile_qr_scan"}, "bike_id": "cb80f4f4c91b09f7a99a259d556fd24b"}, {"lat": 38.9324675, "fusion_lat": 0.0, "is_reserved": 0, "is_disabled": 0, "type": "electric_scooter", "name": "4eb289c7625016978023c70ed1adfb0f", "lon": -77.03864116666666, "fusion_lon": 0.0, "rental_uris": {"android": "https://dc.lft.to/lastmile_qr_scan", "ios": "https://dc.lft.to/lastmile_qr_scan"}, "bike_id": "4eb289c7625016978023c70ed1adfb0f"}, {"lat": 38.897209, "fusion_lat": 0.0, "is_reserved": 0, "is_disabled": 0, "type": "electric_scooter", "name": "b39d05b5dec623af4ee8075755042888", "lon": -77.02775583333333, "fusion_lon": 0.0, "rental_uris": {"android": "https://dc.lft.to/lastmile_qr_scan", "ios": "https://dc.lft.to/lastmile_qr_scan"}, "bike_id": "b39d05b5dec623af4ee8075755042888"}, {"lat": 38.848583833333336, "fusion_lat": 0.0, "is_reserved": 0, "is_disabled": 0, "type": "electric_bike", "name": "9b674abcd02eed2861a9b86ec25757dc", "lon": -77.06831566666666, "fusion_lon": 0.0, "rental_uris": {"android": "https://dc.lft.to/lastmile_qr_scan", "ios": "https://dc.lft.to/lastmile_qr_scan"}, "bike_id": "9b674abcd02eed2861a9b86ec25757dc"}, {"lat": 38.92227233333333, "fusion_lat": 0.0, "is_reserved": 0, "is_disabled": 0, "type": "electric_bike", "name": "75b3f2753fb80a8d9482924a7f86df13", "lon": -77.02828883333333, "fusion_lon": 0.0, "rental_uris": {"android": "https://dc.lft.to/lastmile_qr_scan", "ios": "https://dc.lft.to/lastmile_qr_scan"}, "bike_id": "75b3f2753fb80a8d9482924a7f86df13"}, {"lat": 38.8922605, "fusion_lat": 0.0, "is_reserved": 0, "is_disabled": 0, "type": "electric_scooter", "name": "0a2ab0c23e3c3667fa290160c7c104bf", "lon": -77.03168816666667, "fusion_lon": 0.0, "rental_uris": {"android": "https://dc.lft.to/lastmile_qr_scan", "ios": "https://dc.lft.to/lastmile_qr_scan"}, "bike_id": "0a2ab0c23e3c3667fa290160c7c104bf"}, {"lat": 38.917284, "fusion_lat": 0.0, "is_reserved": 0, "is_disabled": 0, "type": "electric_scooter", "name": "eb08b2ebdcf747e9bda49bccd462f994", "lon": -77.02971883333333, "fusion_lon": 0.0, "rental_uris": {"android": "https://dc.lft.to/lastmile_qr_scan", "ios": "https://dc.lft.to/lastmile_qr_scan"}, "bike_id": "eb08b2ebdcf747e9bda49bccd462f994"}, {"lat": 38.908515333333334, "fusion_lat": 0.0, "is_reserved": 0, "is_disabled": 0, "type": "electric_scooter", "name": "8216604ec97aa79c74c3c742f6f30454", "lon": -77.04831766666666, "fusion_lon": 0.0, "rental_uris": {"android": "https://dc.lft.to/lastmile_qr_scan", "ios": "https://dc.lft.to/lastmile_qr_scan"}, "bike_id": "8216604ec97aa79c74c3c742f6f30454"}, {"lat": 38.9122745, "fusion_lat": 0.0, "is_reserved": 0, "is_disabled": 0, "type": "electric_scooter", "name": "2facf91c8fa2a47746be98b68399f75e", "lon": -77.07752333333333, "fusion_lon": 0.0, "rental_uris": {"android": "https://dc.lft.to/lastmile_qr_scan", "ios": "https://dc.lft.to/lastmile_qr_scan"}, "bike_id": "2facf91c8fa2a47746be98b68399f75e"}, {"lat": 38.91758383333333, "fusion_lat": 0.0, "is_reserved": 0, "is_disabled": 0, "type": "electric_scooter", "name": "11484c06bd4eaea85f2e75eb863a75b7", "lon": -77.0239435, "fusion_lon": 0.0, "rental_uris": {"android": "https://dc.lft.to/lastmile_qr_scan", "ios": "https://dc.lft.to/lastmile_qr_scan"}, "bike_id": "11484c06bd4eaea85f2e75eb863a75b7"}, {"lat": 38.90190416666667, "fusion_lat": 0.0, "is_reserved": 0, "is_disabled": 0, "type": "electric_scooter", "name": "357ab31bba1b2976b5c91dbaca332785", "lon": -77.05089816666667, "fusion_lon": 0.0, "rental_uris": {"android": "https://dc.lft.to/lastmile_qr_scan", "ios": "https://dc.lft.to/lastmile_qr_scan"}, "bike_id": "357ab31bba1b2976b5c91dbaca332785"}, {"lat": 38.91353383333333, "fusion_lat": 0.0, "is_reserved": 0, "is_disabled": 0, "type": "electric_scooter", "name": "5e3ad399e32a303f30be5b079013230d", "lon": -77.03214583333333, "fusion_lon": 0.0, "rental_uris": {"android": "https://dc.lft.to/lastmile_qr_scan", "ios": "https://dc.lft.to/lastmile_qr_scan"}, "bike_id": "5e3ad399e32a303f30be5b079013230d"}, {"lat": 38.917864333333334, "fusion_lat": 0.0, "is_reserved": 0, "is_disabled": 0, "type": "electric_scooter", "name": "729dca9a052a385fa04e6fbf2be30567", "lon": -77.02476466666667, "fusion_lon": 0.0, "rental_uris": {"android": "https://dc.lft.to/lastmile_qr_scan", "ios": "https://dc.lft.to/lastmile_qr_scan"}, "bike_id": "729dca9a052a385fa04e6fbf2be30567"}, {"lat": 38.9472655, "fusion_lat": 0.0, "is_reserved": 0, "is_disabled": 0, "type": "electric_scooter", "name": "a45cac71eb78b690d4f1b0c29a626c14", "lon": -77.02357866666667, "fusion_lon": 0.0, "rental_uris": {"android": "https://dc.lft.to/lastmile_qr_scan", "ios": "https://dc.lft.to/lastmile_qr_scan"}, "bike_id": "a45cac71eb78b690d4f1b0c29a626c14"}, {"lat": 38.8959985, "fusion_lat": 0.0, "is_reserved": 0, "is_disabled": 0, "type": "electric_scooter", "name": "8d70e1bf9573a82b2e253bf775ccb62f", "lon": -77.0253225, "fusion_lon": 0.0, "rental_uris": {"android": "https://dc.lft.to/lastmile_qr_scan", "ios": "https://dc.lft.to/lastmile_qr_scan"}, "bike_id": "8d70e1bf9573a82b2e253bf775ccb62f"}, {"lat": 38.929693666666665, "fusion_lat": 0.0, "is_reserved": 0, "is_disabled": 0, "type": "electric_scooter", "name": "f709b475f4628a15976d48812fca79c2", "lon": -77.0420475, "fusion_lon": 0.0, "rental_uris": {"android": "https://dc.lft.to/lastmile_qr_scan", "ios": "https://dc.lft.to/lastmile_qr_scan"}, "bike_id": "f709b475f4628a15976d48812fca79c2"}, {"lat": 38.901397833333334, "fusion_lat": 0.0, "is_reserved": 0, "is_disabled": 0, "type": "electric_scooter", "name": "b54ffbf1932f3b27fb6049d71274900e", "lon": -77.046685, "fusion_lon": 0.0, "rental_uris": {"android": "https://dc.lft.to/lastmile_qr_scan", "ios": "https://dc.lft.to/lastmile_qr_scan"}, "bike_id": "b54ffbf1932f3b27fb6049d71274900e"}, {"lat": 38.908927, "fusion_lat": 0.0, "is_reserved": 0, "is_disabled": 0, "type": "electric_scooter", "name": "4d54ddf369d7f786f9553a556db2a3e0", "lon": -77.043459, "fusion_lon": 0.0, "rental_uris": {"android": "https://dc.lft.to/lastmile_qr_scan", "ios": "https://dc.lft.to/lastmile_qr_scan"}, "bike_id": "4d54ddf369d7f786f9553a556db2a3e0"}, {"lat": 38.909408, "fusion_lat": 0.0, "is_reserved": 0, "is_disabled": 0, "type": "electric_scooter", "name": "e14ec146fb08037e97f67a93005a99b2", "lon": -77.04170116666667, "fusion_lon": 0.0, "rental_uris": {"android": "https://dc.lft.to/lastmile_qr_scan", "ios": "https://dc.lft.to/lastmile_qr_scan"}, "bike_id": "e14ec146fb08037e97f67a93005a99b2"}, {"lat": 38.905623166666665, "fusion_lat": 0.0, "is_reserved": 0, "is_disabled": 0, "type": "electric_scooter", "name": "0f57a89c387607f071158b7c1d8ba95d", "lon": -77.00660416666666, "fusion_lon": 0.0, "rental_uris": {"android": "https://dc.lft.to/lastmile_qr_scan", "ios": "https://dc.lft.to/lastmile_qr_scan"}, "bike_id": "0f57a89c387607f071158b7c1d8ba95d"}, {"lat": 38.8917145, "fusion_lat": 0.0, "is_reserved": 0, "is_disabled": 0, "type": "electric_scooter", "name": "9e64c7a3ab6d42fa444f47a8391a3066", "lon": -77.01552, "fusion_lon": 0.0, "rental_uris": {"android": "https://dc.lft.to/lastmile_qr_scan", "ios": "https://dc.lft.to/lastmile_qr_scan"}, "bike_id": "9e64c7a3ab6d42fa444f47a8391a3066"}, {"lat": 38.91274383333333, "fusion_lat": 0.0, "is_reserved": 0, "is_disabled": 0, "type": "electric_scooter", "name": "93ef1be715d06e1d06e8b0e0ac52ab78", "lon": -77.02299083333334, "fusion_lon": 0.0, "rental_uris": {"android": "https://dc.lft.to/lastmile_qr_scan", "ios": "https://dc.lft.to/lastmile_qr_scan"}, "bike_id": "93ef1be715d06e1d06e8b0e0ac52ab78"}, {"lat": 38.916873, "fusion_lat": 0.0, "is_reserved": 0, "is_disabled": 0, "type": "electric_bike", "name": "51b2833c2e2312399c40f1d197902636", "lon": -77.02421316666667, "fusion_lon": 0.0, "rental_uris": {"android": "https://dc.lft.to/lastmile_qr_scan", "ios": "https://dc.lft.to/lastmile_qr_scan"}, "bike_id": "51b2833c2e2312399c40f1d197902636"}, {"lat": 38.920764166666665, "fusion_lat": 0.0, "is_reserved": 0, "is_disabled": 0, "type": "electric_scooter", "name": "c42fb74bf81c5b674f611ef1f21d3ea4", "lon": -77.0230335, "fusion_lon": 0.0, "rental_uris": {"android": "https://dc.lft.to/lastmile_qr_scan", "ios": "https://dc.lft.to/lastmile_qr_scan"}, "bike_id": "c42fb74bf81c5b674f611ef1f21d3ea4"}, {"lat": 38.90359433333333, "fusion_lat": 0.0, "is_reserved": 0, "is_disabled": 0, "type": "electric_scooter", "name": "3378dab3b230bb2f572017ab47707b07", "lon": -77.037215, "fusion_lon": 0.0, "rental_uris": {"android": "https://dc.lft.to/lastmile_qr_scan", "ios": "https://dc.lft.to/lastmile_qr_scan"}, "bike_id": "3378dab3b230bb2f572017ab47707b07"}, {"lat": 38.91108833333333, "fusion_lat": 0.0, "is_reserved": 0, "is_disabled": 0, "type": "electric_scooter", "name": "bf078c5fcc60e8440990f0a3902fea45", "lon": -77.03834516666667, "fusion_lon": 0.0, "rental_uris": {"android": "https://dc.lft.to/lastmile_qr_scan", "ios": "https://dc.lft.to/lastmile_qr_scan"}, "bike_id": "bf078c5fcc60e8440990f0a3902fea45"}, {"lat": 38.891755, "fusion_lat": 0.0, "is_reserved": 0, "is_disabled": 0, "type": "electric_scooter", "name": "cb5dea547359b27f9dc99c3844af32d1", "lon": -77.01562183333333, "fusion_lon": 0.0, "rental_uris": {"android": "https://dc.lft.to/lastmile_qr_scan", "ios": "https://dc.lft.to/lastmile_qr_scan"}, "bike_id": "cb5dea547359b27f9dc99c3844af32d1"}, {"lat": 38.908333666666664, "fusion_lat": 0.0, "is_reserved": 0, "is_disabled": 0, "type": "electric_scooter", "name": "32780ba2e06894046843297ff9890b43", "lon": -77.039774, "fusion_lon": 0.0, "rental_uris": {"android": "https://dc.lft.to/lastmile_qr_scan", "ios": "https://dc.lft.to/lastmile_qr_scan"}, "bike_id": "32780ba2e06894046843297ff9890b43"}, {"lat": 38.8974585, "fusion_lat": 0.0, "is_reserved": 0, "is_disabled": 0, "type": "electric_scooter", "name": "8ead81067e88e8f6e4d8546f4b682eb6", "lon": -76.990441, "fusion_lon": 0.0, "rental_uris": {"android": "https://dc.lft.to/lastmile_qr_scan", "ios": "https://dc.lft.to/lastmile_qr_scan"}, "bike_id": "8ead81067e88e8f6e4d8546f4b682eb6"}, {"lat": 38.91008933333333, "fusion_lat": 0.0, "is_reserved": 0, "is_disabled": 0, "type": "electric_scooter", "name": "af9c95f10a610df8eb17b0fd0923cc16", "lon": -77.04176016666666, "fusion_lon": 0.0, "rental_uris": {"android": "https://dc.lft.to/lastmile_qr_scan", "ios": "https://dc.lft.to/lastmile_qr_scan"}, "bike_id": "af9c95f10a610df8eb17b0fd0923cc16"}, {"lat": 38.892257, "fusion_lat": 0.0, "is_reserved": 0, "is_disabled": 0, "type": "electric_scooter", "name": "3b46abcdf5961432fed1585aeba6afa0", "lon": -77.04868616666667, "fusion_lon": 0.0, "rental_uris": {"android": "https://dc.lft.to/lastmile_qr_scan", "ios": "https://dc.lft.to/lastmile_qr_scan"}, "bike_id": "3b46abcdf5961432fed1585aeba6afa0"}, {"lat": 38.961765, "fusion_lat": 0.0, "is_reserved": 0, "is_disabled": 0, "type": "electric_scooter", "name": "9356dc71dc809511f1e6cfd93b70ee5e", "lon": -77.03228366666667, "fusion_lon": 0.0, "rental_uris": {"android": "https://dc.lft.to/lastmile_qr_scan", "ios": "https://dc.lft.to/lastmile_qr_scan"}, "bike_id": "9356dc71dc809511f1e6cfd93b70ee5e"}, {"lat": 38.89513133333333, "fusion_lat": 0.0, "is_reserved": 0, "is_disabled": 0, "type": "electric_scooter", "name": "d3a23d30093e2c8bcf37395d15ed4e25", "lon": -77.0417975, "fusion_lon": 0.0, "rental_uris": {"android": "https://dc.lft.to/lastmile_qr_scan", "ios": "https://dc.lft.to/lastmile_qr_scan"}, "bike_id": "d3a23d30093e2c8bcf37395d15ed4e25"}, {"lat": 38.9418095, "fusion_lat": 0.0, "is_reserved": 0, "is_disabled": 0, "type": "electric_scooter", "name": "1d918b116db33abdb5946b8f1e055cf3", "lon": -77.03151583333333, "fusion_lon": 0.0, "rental_uris": {"android": "https://dc.lft.to/lastmile_qr_scan", "ios": "https://dc.lft.to/lastmile_qr_scan"}, "bike_id": "1d918b116db33abdb5946b8f1e055cf3"}, {"lat": 38.876667, "fusion_lat": 0.0, "is_reserved": 0, "is_disabled": 0, "type": "electric_scooter", "name": "e4176bf11374625fc570a9223a729ea1", "lon": -77.00570933333333, "fusion_lon": 0.0, "rental_uris": {"android": "https://dc.lft.to/lastmile_qr_scan", "ios": "https://dc.lft.to/lastmile_qr_scan"}, "bike_id": "e4176bf11374625fc570a9223a729ea1"}, {"lat": 38.899609166666664, "fusion_lat": 0.0, "is_reserved": 0, "is_disabled": 0, "type": "electric_scooter", "name": "708002d9f964d58d7c4e7ed398e0987e", "lon": -77.030779, "fusion_lon": 0.0, "rental_uris": {"android": "https://dc.lft.to/lastmile_qr_scan", "ios": "https://dc.lft.to/lastmile_qr_scan"}, "bike_id": "708002d9f964d58d7c4e7ed398e0987e"}, {"lat": 38.922591833333335, "fusion_lat": 0.0, "is_reserved": 0, "is_disabled": 0, "type": "electric_scooter", "name": "87b7fe2c9320d4ef45226519586d82f9", "lon": -77.01888466666666, "fusion_lon": 0.0, "rental_uris": {"android": "https://dc.lft.to/lastmile_qr_scan", "ios": "https://dc.lft.to/lastmile_qr_scan"}, "bike_id": "87b7fe2c9320d4ef45226519586d82f9"}, {"lat": 38.889567666666665, "fusion_lat": 0.0, "is_reserved": 0, "is_disabled": 0, "type": "electric_scooter", "name": "c6fb16da6dfe34c3b6006be6053c17d5", "lon": -76.93606683333333, "fusion_lon": 0.0, "rental_uris": {"android": "https://dc.lft.to/lastmile_qr_scan", "ios": "https://dc.lft.to/lastmile_qr_scan"}, "bike_id": "c6fb16da6dfe34c3b6006be6053c17d5"}, {"lat": 38.91131383333333, "fusion_lat": 0.0, "is_reserved": 0, "is_disabled": 0, "type": "electric_scooter", "name": "754fb714bbd29d8c305ac7f0d3776773", "lon": -77.02203216666666, "fusion_lon": 0.0, "rental_uris": {"android": "https://dc.lft.to/lastmile_qr_scan", "ios": "https://dc.lft.to/lastmile_qr_scan"}, "bike_id": "754fb714bbd29d8c305ac7f0d3776773"}, {"lat": 38.89453533333333, "fusion_lat": 0.0, "is_reserved": 0, "is_disabled": 0, "type": "electric_bike", "name": "05c75709db1d4c9b07fe0155a3f41c2c", "lon": -77.158282, "fusion_lon": 0.0, "rental_uris": {"android": "https://dc.lft.to/lastmile_qr_scan", "ios": "https://dc.lft.to/lastmile_qr_scan"}, "bike_id": "05c75709db1d4c9b07fe0155a3f41c2c"}, {"lat": 38.935255, "fusion_lat": 0.0, "is_reserved": 0, "is_disabled": 0, "type": "electric_scooter", "name": "74f3cbd48d11a744d2335da229908ee6", "lon": -77.03815716666666, "fusion_lon": 0.0, "rental_uris": {"android": "https://dc.lft.to/lastmile_qr_scan", "ios": "https://dc.lft.to/lastmile_qr_scan"}, "bike_id": "74f3cbd48d11a744d2335da229908ee6"}, {"lat": 38.922525, "fusion_lat": 0.0, "is_reserved": 0, "is_disabled": 0, "type": "electric_scooter", "name": "558b55a53de28bbe644ef4129f7f58eb", "lon": -77.01952666666666, "fusion_lon": 0.0, "rental_uris": {"android": "https://dc.lft.to/lastmile_qr_scan", "ios": "https://dc.lft.to/lastmile_qr_scan"}, "bike_id": "558b55a53de28bbe644ef4129f7f58eb"}, {"lat": 38.965083166666666, "fusion_lat": 0.0, "is_reserved": 0, "is_disabled": 0, "type": "electric_bike", "name": "03b0b8f51fd1d955b41edff9796adebc", "lon": -77.03368983333333, "fusion_lon": 0.0, "rental_uris": {"android": "https://dc.lft.to/lastmile_qr_scan", "ios": "https://dc.lft.to/lastmile_qr_scan"}, "bike_id": "03b0b8f51fd1d955b41edff9796adebc"}, {"lat": 38.886575666666666, "fusion_lat": 0.0, "is_reserved": 0, "is_disabled": 0, "type": "electric_scooter", "name": "2d04632b1e7fec7ca5818e370e61fee3", "lon": -77.03389666666666, "fusion_lon": 0.0, "rental_uris": {"android": "https://dc.lft.to/lastmile_qr_scan", "ios": "https://dc.lft.to/lastmile_qr_scan"}, "bike_id": "2d04632b1e7fec7ca5818e370e61fee3"}, {"lat": 38.92435533333333, "fusion_lat": 0.0, "is_reserved": 0, "is_disabled": 0, "type": "electric_bike", "name": "9122aaa934193a2bfc6ca5182c784442", "lon": -76.97162083333333, "fusion_lon": 0.0, "rental_uris": {"android": "https://dc.lft.to/lastmile_qr_scan", "ios": "https://dc.lft.to/lastmile_qr_scan"}, "bike_id": "9122aaa934193a2bfc6ca5182c784442"}, {"lat": 38.891997333333336, "fusion_lat": 0.0, "is_reserved": 0, "is_disabled": 0, "type": "electric_scooter", "name": "200eb9512b51ded69531a7a5dcc4e7ac", "lon": -77.04387416666667, "fusion_lon": 0.0, "rental_uris": {"android": "https://dc.lft.to/lastmile_qr_scan", "ios": "https://dc.lft.to/lastmile_qr_scan"}, "bike_id": "200eb9512b51ded69531a7a5dcc4e7ac"}, {"lat": 38.89224016666667, "fusion_lat": 0.0, "is_reserved": 0, "is_disabled": 0, "type": "electric_scooter", "name": "1ba5fa94768219cc09ae9b74a11b22ac", "lon": -77.02221716666666, "fusion_lon": 0.0, "rental_uris": {"android": "https://dc.lft.to/lastmile_qr_scan", "ios": "https://dc.lft.to/lastmile_qr_scan"}, "bike_id": "1ba5fa94768219cc09ae9b74a11b22ac"}, {"lat": 38.82210583333333, "fusion_lat": 0.0, "is_reserved": 0, "is_disabled": 0, "type": "electric_bike", "name": "719fdaa6b1e1efdd3b599fb58794376e", "lon": -76.97708283333333, "fusion_lon": 0.0, "rental_uris": {"android": "https://dc.lft.to/lastmile_qr_scan", "ios": "https://dc.lft.to/lastmile_qr_scan"}, "bike_id": "719fdaa6b1e1efdd3b599fb58794376e"}, {"lat": 38.9112155, "fusion_lat": 0.0, "is_reserved": 0, "is_disabled": 0, "type": "electric_scooter", "name": "7deff0735ccbfb7f48e864e209fa29d7", "lon": -77.03871783333334, "fusion_lon": 0.0, "rental_uris": {"android": "https://dc.lft.to/lastmile_qr_scan", "ios": "https://dc.lft.to/lastmile_qr_scan"}, "bike_id": "7deff0735ccbfb7f48e864e209fa29d7"}, {"lat": 38.91547, "fusion_lat": 0.0, "is_reserved": 0, "is_disabled": 0, "type": "electric_scooter", "name": "b1c6067881eec0a86c969cc6e9e65b34", "lon": -77.00078366666666, "fusion_lon": 0.0, "rental_uris": {"android": "https://dc.lft.to/lastmile_qr_scan", "ios": "https://dc.lft.to/lastmile_qr_scan"}, "bike_id": "b1c6067881eec0a86c969cc6e9e65b34"}, {"lat": 38.89015, "fusion_lat": 0.0, "is_reserved": 0, "is_disabled": 0, "type": "electric_scooter", "name": "17fa5d5a5f65d663778db554e5f7d66e", "lon": -76.93730566666666, "fusion_lon": 0.0, "rental_uris": {"android": "https://dc.lft.to/lastmile_qr_scan", "ios": "https://dc.lft.to/lastmile_qr_scan"}, "bike_id": "17fa5d5a5f65d663778db554e5f7d66e"}, {"lat": 38.89228583333333, "fusion_lat": 0.0, "is_reserved": 0, "is_disabled": 0, "type": "electric_scooter", "name": "b4291f5b963a5b6ac52e6dfc49e2d8f5", "lon": -77.05004833333334, "fusion_lon": 0.0, "rental_uris": {"android": "https://dc.lft.to/lastmile_qr_scan", "ios": "https://dc.lft.to/lastmile_qr_scan"}, "bike_id": "b4291f5b963a5b6ac52e6dfc49e2d8f5"}, {"lat": 38.9175425, "fusion_lat": 0.0, "is_reserved": 0, "is_disabled": 0, "type": "electric_scooter", "name": "a1f17a5e13ddc188a1777d851cbb574b", "lon": -77.03909683333333, "fusion_lon": 0.0, "rental_uris": {"android": "https://dc.lft.to/lastmile_qr_scan", "ios": "https://dc.lft.to/lastmile_qr_scan"}, "bike_id": "a1f17a5e13ddc188a1777d851cbb574b"}, {"lat": 38.88357216666667, "fusion_lat": 0.0, "is_reserved": 0, "is_disabled": 0, "type": "electric_scooter", "name": "d484fe2094f04eba1f25435015f2074d", "lon": -76.9576825, "fusion_lon": 0.0, "rental_uris": {"android": "https://dc.lft.to/lastmile_qr_scan", "ios": "https://dc.lft.to/lastmile_qr_scan"}, "bike_id": "d484fe2094f04eba1f25435015f2074d"}, {"lat": 38.919987166666665, "fusion_lat": 0.0, "is_reserved": 0, "is_disabled": 0, "type": "electric_scooter", "name": "59aa61102a18853e82a397c26bab0684", "lon": -77.04749866666667, "fusion_lon": 0.0, "rental_uris": {"android": "https://dc.lft.to/lastmile_qr_scan", "ios": "https://dc.lft.to/lastmile_qr_scan"}, "bike_id": "59aa61102a18853e82a397c26bab0684"}, {"lat": 38.898467333333336, "fusion_lat": 0.0, "is_reserved": 0, "is_disabled": 0, "type": "electric_bike", "name": "3e3b10c739fb4426f83060218a9964ce", "lon": -76.9425765, "fusion_lon": 0.0, "rental_uris": {"android": "https://dc.lft.to/lastmile_qr_scan", "ios": "https://dc.lft.to/lastmile_qr_scan"}, "bike_id": "3e3b10c739fb4426f83060218a9964ce"}, {"lat": 38.903672, "fusion_lat": 0.0, "is_reserved": 0, "is_disabled": 0, "type": "electric_scooter", "name": "4fd90fda739c36fa8f94e1836ea679d7", "lon": -77.0484215, "fusion_lon": 0.0, "rental_uris": {"android": "https://dc.lft.to/lastmile_qr_scan", "ios": "https://dc.lft.to/lastmile_qr_scan"}, "bike_id": "4fd90fda739c36fa8f94e1836ea679d7"}, {"lat": 38.90440816666667, "fusion_lat": 0.0, "is_reserved": 0, "is_disabled": 0, "type": "electric_scooter", "name": "8db183962618cd3a40975a5446e2ac51", "lon": -77.02596383333334, "fusion_lon": 0.0, "rental_uris": {"android": "https://dc.lft.to/lastmile_qr_scan", "ios": "https://dc.lft.to/lastmile_qr_scan"}, "bike_id": "8db183962618cd3a40975a5446e2ac51"}, {"lat": 38.922557166666664, "fusion_lat": 0.0, "is_reserved": 0, "is_disabled": 0, "type": "electric_scooter", "name": "bfa740aaed9a2c3c232627cd5b986432", "lon": -77.029671, "fusion_lon": 0.0, "rental_uris": {"android": "https://dc.lft.to/lastmile_qr_scan", "ios": "https://dc.lft.to/lastmile_qr_scan"}, "bike_id": "bfa740aaed9a2c3c232627cd5b986432"}, {"lat": 38.886179, "fusion_lat": 0.0, "is_reserved": 0, "is_disabled": 0, "type": "electric_scooter", "name": "c1ed4fde08b73c3081be7c34879e3744", "lon": -77.02208233333333, "fusion_lon": 0.0, "rental_uris": {"android": "https://dc.lft.to/lastmile_qr_scan", "ios": "https://dc.lft.to/lastmile_qr_scan"}, "bike_id": "c1ed4fde08b73c3081be7c34879e3744"}, {"lat": 38.9803635, "fusion_lat": 0.0, "is_reserved": 0, "is_disabled": 0, "type": "electric_bike", "name": "5901e5e0d67a9d29e314aa888c87a944", "lon": -76.94255516666666, "fusion_lon": 0.0, "rental_uris": {"android": "https://dc.lft.to/lastmile_qr_scan", "ios": "https://dc.lft.to/lastmile_qr_scan"}, "bike_id": "5901e5e0d67a9d29e314aa888c87a944"}, {"lat": 38.953152, "fusion_lat": 0.0, "is_reserved": 0, "is_disabled": 0, "type": "electric_scooter", "name": "509ca013ed5e2dacd7947c0318e39539", "lon": -76.99461516666666, "fusion_lon": 0.0, "rental_uris": {"android": "https://dc.lft.to/lastmile_qr_scan", "ios": "https://dc.lft.to/lastmile_qr_scan"}, "bike_id": "509ca013ed5e2dacd7947c0318e39539"}, {"lat": 38.930941, "fusion_lat": 0.0, "is_reserved": 0, "is_disabled": 0, "type": "electric_scooter", "name": "183ac5e12a01b7d46e27f73294d04771", "lon": -77.03438566666667, "fusion_lon": 0.0, "rental_uris": {"android": "https://dc.lft.to/lastmile_qr_scan", "ios": "https://dc.lft.to/lastmile_qr_scan"}, "bike_id": "183ac5e12a01b7d46e27f73294d04771"}, {"lat": 38.8904615, "fusion_lat": 0.0, "is_reserved": 0, "is_disabled": 0, "type": "electric_scooter", "name": "9027fae617eb961626c241b9e9f21da6", "lon": -76.93744, "fusion_lon": 0.0, "rental_uris": {"android": "https://dc.lft.to/lastmile_qr_scan", "ios": "https://dc.lft.to/lastmile_qr_scan"}, "bike_id": "9027fae617eb961626c241b9e9f21da6"}, {"lat": 38.944301333333335, "fusion_lat": 0.0, "is_reserved": 0, "is_disabled": 0, "type": "electric_bike", "name": "ed7c49cdae40f3cd3cb435e408302afe", "lon": -77.01385583333334, "fusion_lon": 0.0, "rental_uris": {"android": "https://dc.lft.to/lastmile_qr_scan", "ios": "https://dc.lft.to/lastmile_qr_scan"}, "bike_id": "ed7c49cdae40f3cd3cb435e408302afe"}, {"lat": 38.9265095, "fusion_lat": 0.0, "is_reserved": 0, "is_disabled": 0, "type": "electric_scooter", "name": "4b9b6bc6d20b57b39ae7044e92a61531", "lon": -77.03864566666667, "fusion_lon": 0.0, "rental_uris": {"android": "https://dc.lft.to/lastmile_qr_scan", "ios": "https://dc.lft.to/lastmile_qr_scan"}, "bike_id": "4b9b6bc6d20b57b39ae7044e92a61531"}, {"lat": 38.8717235, "fusion_lat": 0.0, "is_reserved": 0, "is_disabled": 0, "type": "electric_bike", "name": "44983e43af0a28ebea48d28b36210643", "lon": -77.2339215, "fusion_lon": 0.0, "rental_uris": {"android": "https://dc.lft.to/lastmile_qr_scan", "ios": "https://dc.lft.to/lastmile_qr_scan"}, "bike_id": "44983e43af0a28ebea48d28b36210643"}, {"lat": 38.89898316666667, "fusion_lat": 0.0, "is_reserved": 0, "is_disabled": 0, "type": "electric_scooter", "name": "118f8b6db82aeb633fcb82d31f07fa74", "lon": -77.03285016666666, "fusion_lon": 0.0, "rental_uris": {"android": "https://dc.lft.to/lastmile_qr_scan", "ios": "https://dc.lft.to/lastmile_qr_scan"}, "bike_id": "118f8b6db82aeb633fcb82d31f07fa74"}, {"lat": 38.88521433333333, "fusion_lat": 0.0, "is_reserved": 0, "is_disabled": 0, "type": "electric_scooter", "name": "6cb703d5cf001471855ad5a8ab29d568", "lon": -76.97709616666667, "fusion_lon": 0.0, "rental_uris": {"android": "https://dc.lft.to/lastmile_qr_scan", "ios": "https://dc.lft.to/lastmile_qr_scan"}, "bike_id": "6cb703d5cf001471855ad5a8ab29d568"}, {"lat": 38.9059955, "fusion_lat": 0.0, "is_reserved": 0, "is_disabled": 0, "type": "electric_scooter", "name": "29965ddd668a2dc5bb238e14c5ca2469", "lon": -77.02984366666666, "fusion_lon": 0.0, "rental_uris": {"android": "https://dc.lft.to/lastmile_qr_scan", "ios": "https://dc.lft.to/lastmile_qr_scan"}, "bike_id": "29965ddd668a2dc5bb238e14c5ca2469"}, {"lat": 38.93703266666667, "fusion_lat": 0.0, "is_reserved": 0, "is_disabled": 0, "type": "electric_scooter", "name": "1cf87c6ce9d62fc78bd13e6485909ec9", "lon": -77.05600833333334, "fusion_lon": 0.0, "rental_uris": {"android": "https://dc.lft.to/lastmile_qr_scan", "ios": "https://dc.lft.to/lastmile_qr_scan"}, "bike_id": "1cf87c6ce9d62fc78bd13e6485909ec9"}, {"lat": 38.89356183333334, "fusion_lat": 0.0, "is_reserved": 0, "is_disabled": 0, "type": "electric_scooter", "name": "a0bc46b863a275c77ecbd3107b604a8a", "lon": -77.00335166666666, "fusion_lon": 0.0, "rental_uris": {"android": "https://dc.lft.to/lastmile_qr_scan", "ios": "https://dc.lft.to/lastmile_qr_scan"}, "bike_id": "a0bc46b863a275c77ecbd3107b604a8a"}, {"lat": 38.8745145, "fusion_lat": 0.0, "is_reserved": 0, "is_disabled": 0, "type": "electric_scooter", "name": "05ff8398005de9caa8000c16d2b04dd9", "lon": -77.00048366666667, "fusion_lon": 0.0, "rental_uris": {"android": "https://dc.lft.to/lastmile_qr_scan", "ios": "https://dc.lft.to/lastmile_qr_scan"}, "bike_id": "05ff8398005de9caa8000c16d2b04dd9"}, {"lat": 38.9234005, "fusion_lat": 0.0, "is_reserved": 0, "is_disabled": 0, "type": "electric_scooter", "name": "4faebd470f28a59013c053a0790af121", "lon": -76.99878283333334, "fusion_lon": 0.0, "rental_uris": {"android": "https://dc.lft.to/lastmile_qr_scan", "ios": "https://dc.lft.to/lastmile_qr_scan"}, "bike_id": "4faebd470f28a59013c053a0790af121"}, {"lat": 38.89235083333333, "fusion_lat": 0.0, "is_reserved": 0, "is_disabled": 0, "type": "electric_scooter", "name": "c17c2c35db93e82b639d2e302592eae6", "lon": -77.03209866666667, "fusion_lon": 0.0, "rental_uris": {"android": "https://dc.lft.to/lastmile_qr_scan", "ios": "https://dc.lft.to/lastmile_qr_scan"}, "bike_id": "c17c2c35db93e82b639d2e302592eae6"}, {"lat": 38.900367, "fusion_lat": 0.0, "is_reserved": 0, "is_disabled": 0, "type": "electric_bike", "name": "d044b467f73fc813c91ffd0e9fec14d2", "lon": -76.97225466666667, "fusion_lon": 0.0, "rental_uris": {"android": "https://dc.lft.to/lastmile_qr_scan", "ios": "https://dc.lft.to/lastmile_qr_scan"}, "bike_id": "d044b467f73fc813c91ffd0e9fec14d2"}, {"lat": 38.930713833333336, "fusion_lat": 0.0, "is_reserved": 0, "is_disabled": 0, "type": "electric_scooter", "name": "b03e3309813a918d3a8488729129343a", "lon": -77.0216985, "fusion_lon": 0.0, "rental_uris": {"android": "https://dc.lft.to/lastmile_qr_scan", "ios": "https://dc.lft.to/lastmile_qr_scan"}, "bike_id": "b03e3309813a918d3a8488729129343a"}, {"lat": 38.926038, "fusion_lat": 0.0, "is_reserved": 0, "is_disabled": 0, "type": "electric_scooter", "name": "1047a921aee3d97dd5a67db18d5266e8", "lon": -77.0215915, "fusion_lon": 0.0, "rental_uris": {"android": "https://dc.lft.to/lastmile_qr_scan", "ios": "https://dc.lft.to/lastmile_qr_scan"}, "bike_id": "1047a921aee3d97dd5a67db18d5266e8"}, {"lat": 38.89807233333333, "fusion_lat": 0.0, "is_reserved": 0, "is_disabled": 0, "type": "electric_scooter", "name": "0f7081da5fbba28f0f03c83bc778c1f1", "lon": -76.97178033333333, "fusion_lon": 0.0, "rental_uris": {"android": "https://dc.lft.to/lastmile_qr_scan", "ios": "https://dc.lft.to/lastmile_qr_scan"}, "bike_id": "0f7081da5fbba28f0f03c83bc778c1f1"}, {"lat": 38.920679166666666, "fusion_lat": 0.0, "is_reserved": 0, "is_disabled": 0, "type": "electric_scooter", "name": "d43c44c6098ffd1d25f6f3aa3c457c60", "lon": -77.026117, "fusion_lon": 0.0, "rental_uris": {"android": "https://dc.lft.to/lastmile_qr_scan", "ios": "https://dc.lft.to/lastmile_qr_scan"}, "bike_id": "d43c44c6098ffd1d25f6f3aa3c457c60"}, {"lat": 38.895489, "fusion_lat": 0.0, "is_reserved": 0, "is_disabled": 0, "type": "electric_scooter", "name": "128951a0b8a43695bbd1fc3663f0a5f9", "lon": -77.04268416666666, "fusion_lon": 0.0, "rental_uris": {"android": "https://dc.lft.to/lastmile_qr_scan", "ios": "https://dc.lft.to/lastmile_qr_scan"}, "bike_id": "128951a0b8a43695bbd1fc3663f0a5f9"}, {"lat": 38.92971716666667, "fusion_lat": 0.0, "is_reserved": 0, "is_disabled": 0, "type": "electric_scooter", "name": "9af3f126fb056c9bc89228ee8cfd6892", "lon": -77.028177, "fusion_lon": 0.0, "rental_uris": {"android": "https://dc.lft.to/lastmile_qr_scan", "ios": "https://dc.lft.to/lastmile_qr_scan"}, "bike_id": "9af3f126fb056c9bc89228ee8cfd6892"}, {"lat": 38.904947166666666, "fusion_lat": 0.0, "is_reserved": 0, "is_disabled": 0, "type": "electric_scooter", "name": "ca63d62444240b79626267e15e6464d2", "lon": -77.0656815, "fusion_lon": 0.0, "rental_uris": {"android": "https://dc.lft.to/lastmile_qr_scan", "ios": "https://dc.lft.to/lastmile_qr_scan"}, "bike_id": "ca63d62444240b79626267e15e6464d2"}, {"lat": 38.8874665, "fusion_lat": 0.0, "is_reserved": 0, "is_disabled": 0, "type": "electric_scooter", "name": "d9961e75e3a6a79bda678233838930e9", "lon": -77.02844466666667, "fusion_lon": 0.0, "rental_uris": {"android": "https://dc.lft.to/lastmile_qr_scan", "ios": "https://dc.lft.to/lastmile_qr_scan"}, "bike_id": "d9961e75e3a6a79bda678233838930e9"}, {"lat": 38.91523216666667, "fusion_lat": 0.0, "is_reserved": 0, "is_disabled": 0, "type": "electric_scooter", "name": "1c28a541483dd66e06db83bd6a686280", "lon": -77.0185795, "fusion_lon": 0.0, "rental_uris": {"android": "https://dc.lft.to/lastmile_qr_scan", "ios": "https://dc.lft.to/lastmile_qr_scan"}, "bike_id": "1c28a541483dd66e06db83bd6a686280"}, {"lat": 38.928400833333335, "fusion_lat": 0.0, "is_reserved": 0, "is_disabled": 0, "type": "electric_scooter", "name": "c9960dd073ff2b79f0c6648a90a59f5a", "lon": -77.05421583333333, "fusion_lon": 0.0, "rental_uris": {"android": "https://dc.lft.to/lastmile_qr_scan", "ios": "https://dc.lft.to/lastmile_qr_scan"}, "bike_id": "c9960dd073ff2b79f0c6648a90a59f5a"}, {"lat": 38.876644166666665, "fusion_lat": 0.0, "is_reserved": 0, "is_disabled": 0, "type": "electric_scooter", "name": "234d6e78bdbbc6bd6f3a16356fb25e89", "lon": -77.00833483333334, "fusion_lon": 0.0, "rental_uris": {"android": "https://dc.lft.to/lastmile_qr_scan", "ios": "https://dc.lft.to/lastmile_qr_scan"}, "bike_id": "234d6e78bdbbc6bd6f3a16356fb25e89"}, {"lat": 38.915976666666666, "fusion_lat": 0.0, "is_reserved": 0, "is_disabled": 0, "type": "electric_scooter", "name": "74f429c3a2c3d590cbd5210d3a57e076", "lon": -77.04537183333333, "fusion_lon": 0.0, "rental_uris": {"android": "https://dc.lft.to/lastmile_qr_scan", "ios": "https://dc.lft.to/lastmile_qr_scan"}, "bike_id": "74f429c3a2c3d590cbd5210d3a57e076"}, {"lat": 38.89472116666666, "fusion_lat": 0.0, "is_reserved": 0, "is_disabled": 0, "type": "electric_bike", "name": "9a36c017dc56f06b8d19c5571763cd7f", "lon": -77.02202583333333, "fusion_lon": 0.0, "rental_uris": {"android": "https://dc.lft.to/lastmile_qr_scan", "ios": "https://dc.lft.to/lastmile_qr_scan"}, "bike_id": "9a36c017dc56f06b8d19c5571763cd7f"}, {"lat": 38.932255, "fusion_lat": 0.0, "is_reserved": 0, "is_disabled": 0, "type": "electric_scooter", "name": "6092da6ca3d4796a87cf575a6175b9e8", "lon": -76.982598, "fusion_lon": 0.0, "rental_uris": {"android": "https://dc.lft.to/lastmile_qr_scan", "ios": "https://dc.lft.to/lastmile_qr_scan"}, "bike_id": "6092da6ca3d4796a87cf575a6175b9e8"}, {"lat": 38.92277, "fusion_lat": 0.0, "is_reserved": 0, "is_disabled": 0, "type": "electric_scooter", "name": "7142b279e860f36382b4dbc86dadef19", "lon": -77.042432, "fusion_lon": 0.0, "rental_uris": {"android": "https://dc.lft.to/lastmile_qr_scan", "ios": "https://dc.lft.to/lastmile_qr_scan"}, "bike_id": "7142b279e860f36382b4dbc86dadef19"}, {"lat": 38.91692616666667, "fusion_lat": 0.0, "is_reserved": 0, "is_disabled": 0, "type": "electric_scooter", "name": "a4172a1ebc3e8fe148b951b00822a4ed", "lon": -77.02523716666667, "fusion_lon": 0.0, "rental_uris": {"android": "https://dc.lft.to/lastmile_qr_scan", "ios": "https://dc.lft.to/lastmile_qr_scan"}, "bike_id": "a4172a1ebc3e8fe148b951b00822a4ed"}, {"lat": 38.896222333333334, "fusion_lat": 0.0, "is_reserved": 0, "is_disabled": 0, "type": "electric_scooter", "name": "56daf664263ec6bb2afc313346040132", "lon": -77.02204366666666, "fusion_lon": 0.0, "rental_uris": {"android": "https://dc.lft.to/lastmile_qr_scan", "ios": "https://dc.lft.to/lastmile_qr_scan"}, "bike_id": "56daf664263ec6bb2afc313346040132"}, {"lat": 38.89513566666667, "fusion_lat": 0.0, "is_reserved": 0, "is_disabled": 0, "type": "electric_scooter", "name": "7566129d730af604f7e08b582c346d13", "lon": -76.9950685, "fusion_lon": 0.0, "rental_uris": {"android": "https://dc.lft.to/lastmile_qr_scan", "ios": "https://dc.lft.to/lastmile_qr_scan"}, "bike_id": "7566129d730af604f7e08b582c346d13"}, {"lat": 38.915923666666664, "fusion_lat": 0.0, "is_reserved": 0, "is_disabled": 0, "type": "electric_scooter", "name": "4f548ab6e77bcefeec293fe76380bda4", "lon": -77.02003966666666, "fusion_lon": 0.0, "rental_uris": {"android": "https://dc.lft.to/lastmile_qr_scan", "ios": "https://dc.lft.to/lastmile_qr_scan"}, "bike_id": "4f548ab6e77bcefeec293fe76380bda4"}, {"lat": 39.0107435, "fusion_lat": 0.0, "is_reserved": 0, "is_disabled": 0, "type": "electric_bike", "name": "6fb3285936d2b678f9fa22dda23e9d37", "lon": -76.91066033333334, "fusion_lon": 0.0, "rental_uris": {"android": "https://dc.lft.to/lastmile_qr_scan", "ios": "https://dc.lft.to/lastmile_qr_scan"}, "bike_id": "6fb3285936d2b678f9fa22dda23e9d37"}, {"lat": 38.870377833333336, "fusion_lat": 0.0, "is_reserved": 0, "is_disabled": 0, "type": "electric_bike", "name": "53a75f5edebbe2962f7aae414f58022f", "lon": -77.22908116666666, "fusion_lon": 0.0, "rental_uris": {"android": "https://dc.lft.to/lastmile_qr_scan", "ios": "https://dc.lft.to/lastmile_qr_scan"}, "bike_id": "53a75f5edebbe2962f7aae414f58022f"}, {"lat": 38.9224545, "fusion_lat": 0.0, "is_reserved": 0, "is_disabled": 0, "type": "electric_scooter", "name": "cde07dd506a5402e09d8b9d16b49eee8", "lon": -77.03067133333333, "fusion_lon": 0.0, "rental_uris": {"android": "https://dc.lft.to/lastmile_qr_scan", "ios": "https://dc.lft.to/lastmile_qr_scan"}, "bike_id": "cde07dd506a5402e09d8b9d16b49eee8"}, {"lat": 38.899306833333334, "fusion_lat": 0.0, "is_reserved": 0, "is_disabled": 0, "type": "electric_scooter", "name": "c054cf13c859087902323435d968f72c", "lon": -77.02384233333333, "fusion_lon": 0.0, "rental_uris": {"android": "https://dc.lft.to/lastmile_qr_scan", "ios": "https://dc.lft.to/lastmile_qr_scan"}, "bike_id": "c054cf13c859087902323435d968f72c"}, {"lat": 38.9144075, "fusion_lat": 0.0, "is_reserved": 0, "is_disabled": 0, "type": "electric_bike", "name": "5c6daf37126e8c95b7f246d82bc6070a", "lon": -77.01710183333333, "fusion_lon": 0.0, "rental_uris": {"android": "https://dc.lft.to/lastmile_qr_scan", "ios": "https://dc.lft.to/lastmile_qr_scan"}, "bike_id": "5c6daf37126e8c95b7f246d82bc6070a"}, {"lat": 38.92108283333334, "fusion_lat": 0.0, "is_reserved": 0, "is_disabled": 0, "type": "electric_scooter", "name": "0d4d58c6e9f303a38e8c9d42eaf423f0", "lon": -77.02214433333333, "fusion_lon": 0.0, "rental_uris": {"android": "https://dc.lft.to/lastmile_qr_scan", "ios": "https://dc.lft.to/lastmile_qr_scan"}, "bike_id": "0d4d58c6e9f303a38e8c9d42eaf423f0"}, {"lat": 38.92469616666666, "fusion_lat": 0.0, "is_reserved": 0, "is_disabled": 0, "type": "electric_scooter", "name": "ce94c9c08821f556f022c09860aff7f1", "lon": -77.02209616666667, "fusion_lon": 0.0, "rental_uris": {"android": "https://dc.lft.to/lastmile_qr_scan", "ios": "https://dc.lft.to/lastmile_qr_scan"}, "bike_id": "ce94c9c08821f556f022c09860aff7f1"}, {"lat": 38.921278, "fusion_lat": 0.0, "is_reserved": 0, "is_disabled": 0, "type": "electric_scooter", "name": "faf6f83c9d6597727b3a901f168a4928", "lon": -77.00939416666667, "fusion_lon": 0.0, "rental_uris": {"android": "https://dc.lft.to/lastmile_qr_scan", "ios": "https://dc.lft.to/lastmile_qr_scan"}, "bike_id": "faf6f83c9d6597727b3a901f168a4928"}, {"lat": 38.90240516666667, "fusion_lat": 0.0, "is_reserved": 0, "is_disabled": 0, "type": "electric_scooter", "name": "aaa99ebec4a5cf37c29d69cd241e7894", "lon": -77.02653983333333, "fusion_lon": 0.0, "rental_uris": {"android": "https://dc.lft.to/lastmile_qr_scan", "ios": "https://dc.lft.to/lastmile_qr_scan"}, "bike_id": "aaa99ebec4a5cf37c29d69cd241e7894"}, {"lat": 38.898268, "fusion_lat": 0.0, "is_reserved": 0, "is_disabled": 0, "type": "electric_scooter", "name": "256c5c589a94c694b3e3fe182c26d0a4", "lon": -77.02853733333333, "fusion_lon": 0.0, "rental_uris": {"android": "https://dc.lft.to/lastmile_qr_scan", "ios": "https://dc.lft.to/lastmile_qr_scan"}, "bike_id": "256c5c589a94c694b3e3fe182c26d0a4"}, {"lat": 38.89251483333334, "fusion_lat": 0.0, "is_reserved": 0, "is_disabled": 0, "type": "electric_scooter", "name": "437be6d4e9ae553b8ded633db3d846f4", "lon": -77.04659116666667, "fusion_lon": 0.0, "rental_uris": {"android": "https://dc.lft.to/lastmile_qr_scan", "ios": "https://dc.lft.to/lastmile_qr_scan"}, "bike_id": "437be6d4e9ae553b8ded633db3d846f4"}, {"lat": 38.92426416666667, "fusion_lat": 0.0, "is_reserved": 0, "is_disabled": 0, "type": "electric_scooter", "name": "0a767904cdfb6236abbf906a23da7ba6", "lon": -77.020335, "fusion_lon": 0.0, "rental_uris": {"android": "https://dc.lft.to/lastmile_qr_scan", "ios": "https://dc.lft.to/lastmile_qr_scan"}, "bike_id": "0a767904cdfb6236abbf906a23da7ba6"}, {"lat": 38.8801285, "fusion_lat": 0.0, "is_reserved": 0, "is_disabled": 0, "type": "electric_scooter", "name": "710a7ba01375fd11b4e5c7c6c763835f", "lon": -76.99614483333333, "fusion_lon": 0.0, "rental_uris": {"android": "https://dc.lft.to/lastmile_qr_scan", "ios": "https://dc.lft.to/lastmile_qr_scan"}, "bike_id": "710a7ba01375fd11b4e5c7c6c763835f"}, {"lat": 38.882983, "fusion_lat": 0.0, "is_reserved": 0, "is_disabled": 0, "type": "electric_scooter", "name": "5286476d098548fd3aa8bc3d68f6c0ae", "lon": -76.93497066666667, "fusion_lon": 0.0, "rental_uris": {"android": "https://dc.lft.to/lastmile_qr_scan", "ios": "https://dc.lft.to/lastmile_qr_scan"}, "bike_id": "5286476d098548fd3aa8bc3d68f6c0ae"}, {"lat": 38.90526233333333, "fusion_lat": 0.0, "is_reserved": 0, "is_disabled": 0, "type": "electric_scooter", "name": "69f6bca6114f5a6bcb1abd16ac429dcf", "lon": -77.05934333333333, "fusion_lon": 0.0, "rental_uris": {"android": "https://dc.lft.to/lastmile_qr_scan", "ios": "https://dc.lft.to/lastmile_qr_scan"}, "bike_id": "69f6bca6114f5a6bcb1abd16ac429dcf"}, {"lat": 38.91441366666667, "fusion_lat": 0.0, "is_reserved": 0, "is_disabled": 0, "type": "electric_bike", "name": "fcee46a1235ea57b264eecafa9c9c9ec", "lon": -76.97222116666667, "fusion_lon": 0.0, "rental_uris": {"android": "https://dc.lft.to/lastmile_qr_scan", "ios": "https://dc.lft.to/lastmile_qr_scan"}, "bike_id": "fcee46a1235ea57b264eecafa9c9c9ec"}, {"lat": 38.92795783333333, "fusion_lat": 0.0, "is_reserved": 0, "is_disabled": 0, "type": "electric_scooter", "name": "bdef50b96c6d5c5ea9699402016434c7", "lon": -77.0155545, "fusion_lon": 0.0, "rental_uris": {"android": "https://dc.lft.to/lastmile_qr_scan", "ios": "https://dc.lft.to/lastmile_qr_scan"}, "bike_id": "bdef50b96c6d5c5ea9699402016434c7"}, {"lat": 38.911181666666664, "fusion_lat": 0.0, "is_reserved": 0, "is_disabled": 0, "type": "electric_scooter", "name": "a400f72578b9141ff152407e053dfb83", "lon": -77.03873183333333, "fusion_lon": 0.0, "rental_uris": {"android": "https://dc.lft.to/lastmile_qr_scan", "ios": "https://dc.lft.to/lastmile_qr_scan"}, "bike_id": "a400f72578b9141ff152407e053dfb83"}, {"lat": 38.91958066666667, "fusion_lat": 0.0, "is_reserved": 0, "is_disabled": 0, "type": "electric_scooter", "name": "21518fa13b4c9eb141dc72fcbde9ca51", "lon": -77.04247683333334, "fusion_lon": 0.0, "rental_uris": {"android": "https://dc.lft.to/lastmile_qr_scan", "ios": "https://dc.lft.to/lastmile_qr_scan"}, "bike_id": "21518fa13b4c9eb141dc72fcbde9ca51"}, {"lat": 38.91347, "fusion_lat": 0.0, "is_reserved": 0, "is_disabled": 0, "type": "electric_scooter", "name": "f99be1d545f225cd94d710adb6da3695", "lon": -77.03210616666667, "fusion_lon": 0.0, "rental_uris": {"android": "https://dc.lft.to/lastmile_qr_scan", "ios": "https://dc.lft.to/lastmile_qr_scan"}, "bike_id": "f99be1d545f225cd94d710adb6da3695"}, {"lat": 38.804816333333335, "fusion_lat": 0.0, "is_reserved": 0, "is_disabled": 0, "type": "electric_bike", "name": "e2d4987999081cbced0eaacd4f230497", "lon": -76.99110966666667, "fusion_lon": 0.0, "rental_uris": {"android": "https://dc.lft.to/lastmile_qr_scan", "ios": "https://dc.lft.to/lastmile_qr_scan"}, "bike_id": "e2d4987999081cbced0eaacd4f230497"}, {"lat": 38.90063816666667, "fusion_lat": 0.0, "is_reserved": 0, "is_disabled": 0, "type": "electric_scooter", "name": "11806735ba4d815cd4d8848694397ea7", "lon": -77.04536333333333, "fusion_lon": 0.0, "rental_uris": {"android": "https://dc.lft.to/lastmile_qr_scan", "ios": "https://dc.lft.to/lastmile_qr_scan"}, "bike_id": "11806735ba4d815cd4d8848694397ea7"}, {"lat": 38.7846345, "fusion_lat": 0.0, "is_reserved": 0, "is_disabled": 0, "type": "electric_bike", "name": "8e2aa7ede8a25611dda1eac85f9e1838", "lon": -77.05442383333333, "fusion_lon": 0.0, "rental_uris": {"android": "https://dc.lft.to/lastmile_qr_scan", "ios": "https://dc.lft.to/lastmile_qr_scan"}, "bike_id": "8e2aa7ede8a25611dda1eac85f9e1838"}, {"lat": 38.95885783333333, "fusion_lat": 0.0, "is_reserved": 0, "is_disabled": 0, "type": "electric_bike", "name": "189f41b96fd35626c9e13125b6dacb92", "lon": -76.981013, "fusion_lon": 0.0, "rental_uris": {"android": "https://dc.lft.to/lastmile_qr_scan", "ios": "https://dc.lft.to/lastmile_qr_scan"}, "bike_id": "189f41b96fd35626c9e13125b6dacb92"}, {"lat": 38.877121833333334, "fusion_lat": 0.0, "is_reserved": 0, "is_disabled": 0, "type": "electric_scooter", "name": "9718fb7587a3e8410b8eb24b22806c83", "lon": -77.0067425, "fusion_lon": 0.0, "rental_uris": {"android": "https://dc.lft.to/lastmile_qr_scan", "ios": "https://dc.lft.to/lastmile_qr_scan"}, "bike_id": "9718fb7587a3e8410b8eb24b22806c83"}, {"lat": 38.90051233333333, "fusion_lat": 0.0, "is_reserved": 0, "is_disabled": 0, "type": "electric_scooter", "name": "46b6dfea721ef8052dfe7f11ceff8dcb", "lon": -77.04335316666666, "fusion_lon": 0.0, "rental_uris": {"android": "https://dc.lft.to/lastmile_qr_scan", "ios": "https://dc.lft.to/lastmile_qr_scan"}, "bike_id": "46b6dfea721ef8052dfe7f11ceff8dcb"}, {"lat": 38.927928, "fusion_lat": 0.0, "is_reserved": 0, "is_disabled": 0, "type": "electric_scooter", "name": "24e6f69cb0ecf016a558e5205b02e793", "lon": -77.05595183333334, "fusion_lon": 0.0, "rental_uris": {"android": "https://dc.lft.to/lastmile_qr_scan", "ios": "https://dc.lft.to/lastmile_qr_scan"}, "bike_id": "24e6f69cb0ecf016a558e5205b02e793"}, {"lat": 38.898351, "fusion_lat": 0.0, "is_reserved": 0, "is_disabled": 0, "type": "electric_scooter", "name": "7c82fb6d1cf9ad7d70440a63cc8b3bc3", "lon": -77.02945483333333, "fusion_lon": 0.0, "rental_uris": {"android": "https://dc.lft.to/lastmile_qr_scan", "ios": "https://dc.lft.to/lastmile_qr_scan"}, "bike_id": "7c82fb6d1cf9ad7d70440a63cc8b3bc3"}, {"lat": 38.931407666666665, "fusion_lat": 0.0, "is_reserved": 0, "is_disabled": 0, "type": "electric_scooter", "name": "dfeb9793fbc039145a97c5f244893875", "lon": -77.023616, "fusion_lon": 0.0, "rental_uris": {"android": "https://dc.lft.to/lastmile_qr_scan", "ios": "https://dc.lft.to/lastmile_qr_scan"}, "bike_id": "dfeb9793fbc039145a97c5f244893875"}, {"lat": 38.92063066666667, "fusion_lat": 0.0, "is_reserved": 0, "is_disabled": 0, "type": "electric_scooter", "name": "d668393deade05ff4d1160f40b2f40b4", "lon": -77.04358433333333, "fusion_lon": 0.0, "rental_uris": {"android": "https://dc.lft.to/lastmile_qr_scan", "ios": "https://dc.lft.to/lastmile_qr_scan"}, "bike_id": "d668393deade05ff4d1160f40b2f40b4"}, {"lat": 38.898392, "fusion_lat": 0.0, "is_reserved": 0, "is_disabled": 0, "type": "electric_scooter", "name": "7cbff0b07ef775503f86ad7e78de87b8", "lon": -77.02723666666667, "fusion_lon": 0.0, "rental_uris": {"android": "https://dc.lft.to/lastmile_qr_scan", "ios": "https://dc.lft.to/lastmile_qr_scan"}, "bike_id": "7cbff0b07ef775503f86ad7e78de87b8"}, {"lat": 38.92398816666667, "fusion_lat": 0.0, "is_reserved": 0, "is_disabled": 0, "type": "electric_scooter", "name": "e10540b79a7c17fc69b1580376000de2", "lon": -76.993674, "fusion_lon": 0.0, "rental_uris": {"android": "https://dc.lft.to/lastmile_qr_scan", "ios": "https://dc.lft.to/lastmile_qr_scan"}, "bike_id": "e10540b79a7c17fc69b1580376000de2"}, {"lat": 38.899596833333334, "fusion_lat": 0.0, "is_reserved": 0, "is_disabled": 0, "type": "electric_scooter", "name": "2b3162afe8cb9022b6405ad7437b95ed", "lon": -77.04529966666666, "fusion_lon": 0.0, "rental_uris": {"android": "https://dc.lft.to/lastmile_qr_scan", "ios": "https://dc.lft.to/lastmile_qr_scan"}, "bike_id": "2b3162afe8cb9022b6405ad7437b95ed"}, {"lat": 38.90712716666667, "fusion_lat": 0.0, "is_reserved": 0, "is_disabled": 0, "type": "electric_scooter", "name": "7d652d2d4c82844ec854b5e2c8a77363", "lon": -77.00586383333334, "fusion_lon": 0.0, "rental_uris": {"android": "https://dc.lft.to/lastmile_qr_scan", "ios": "https://dc.lft.to/lastmile_qr_scan"}, "bike_id": "7d652d2d4c82844ec854b5e2c8a77363"}, {"lat": 38.91998383333333, "fusion_lat": 0.0, "is_reserved": 0, "is_disabled": 0, "type": "electric_scooter", "name": "58564aef4877d9657b6c63af98c9ec31", "lon": -77.041785, "fusion_lon": 0.0, "rental_uris": {"android": "https://dc.lft.to/lastmile_qr_scan", "ios": "https://dc.lft.to/lastmile_qr_scan"}, "bike_id": "58564aef4877d9657b6c63af98c9ec31"}, {"lat": 38.8929275, "fusion_lat": 0.0, "is_reserved": 0, "is_disabled": 0, "type": "electric_bike", "name": "a3a2c0a0e2128e341707c01c23820699", "lon": -76.976172, "fusion_lon": 0.0, "rental_uris": {"android": "https://dc.lft.to/lastmile_qr_scan", "ios": "https://dc.lft.to/lastmile_qr_scan"}, "bike_id": "a3a2c0a0e2128e341707c01c23820699"}, {"lat": 38.892092166666664, "fusion_lat": 0.0, "is_reserved": 0, "is_disabled": 0, "type": "electric_scooter", "name": "f78f6e57ab10c2ed784a40399981532d", "lon": -76.99840566666667, "fusion_lon": 0.0, "rental_uris": {"android": "https://dc.lft.to/lastmile_qr_scan", "ios": "https://dc.lft.to/lastmile_qr_scan"}, "bike_id": "f78f6e57ab10c2ed784a40399981532d"}, {"lat": 38.911022833333334, "fusion_lat": 0.0, "is_reserved": 0, "is_disabled": 0, "type": "electric_scooter", "name": "395c785041b73b6524396fd2fbeea857", "lon": -77.02230983333334, "fusion_lon": 0.0, "rental_uris": {"android": "https://dc.lft.to/lastmile_qr_scan", "ios": "https://dc.lft.to/lastmile_qr_scan"}, "bike_id": "395c785041b73b6524396fd2fbeea857"}, {"lat": 38.907978166666666, "fusion_lat": 0.0, "is_reserved": 0, "is_disabled": 0, "type": "electric_scooter", "name": "ab60ae9d6ea65fff15b7b05a7bb9201e", "lon": -77.04989166666667, "fusion_lon": 0.0, "rental_uris": {"android": "https://dc.lft.to/lastmile_qr_scan", "ios": "https://dc.lft.to/lastmile_qr_scan"}, "bike_id": "ab60ae9d6ea65fff15b7b05a7bb9201e"}, {"lat": 38.923565333333336, "fusion_lat": 0.0, "is_reserved": 0, "is_disabled": 0, "type": "electric_scooter", "name": "d89fd8c55736c85f373e6399cb2d4791", "lon": -77.07308883333333, "fusion_lon": 0.0, "rental_uris": {"android": "https://dc.lft.to/lastmile_qr_scan", "ios": "https://dc.lft.to/lastmile_qr_scan"}, "bike_id": "d89fd8c55736c85f373e6399cb2d4791"}, {"lat": 38.90256183333333, "fusion_lat": 0.0, "is_reserved": 0, "is_disabled": 0, "type": "electric_scooter", "name": "949d29ee98f95af72be9b95faab197f5", "lon": -77.00174333333334, "fusion_lon": 0.0, "rental_uris": {"android": "https://dc.lft.to/lastmile_qr_scan", "ios": "https://dc.lft.to/lastmile_qr_scan"}, "bike_id": "949d29ee98f95af72be9b95faab197f5"}, {"lat": 38.93255333333333, "fusion_lat": 0.0, "is_reserved": 0, "is_disabled": 0, "type": "electric_scooter", "name": "ae816bad2a9e015c063a556ec1640306", "lon": -77.03281066666666, "fusion_lon": 0.0, "rental_uris": {"android": "https://dc.lft.to/lastmile_qr_scan", "ios": "https://dc.lft.to/lastmile_qr_scan"}, "bike_id": "ae816bad2a9e015c063a556ec1640306"}, {"lat": 38.905176166666664, "fusion_lat": 0.0, "is_reserved": 0, "is_disabled": 0, "type": "electric_scooter", "name": "ea4db731bffdea11b4379b9d462c6506", "lon": -77.04147983333333, "fusion_lon": 0.0, "rental_uris": {"android": "https://dc.lft.to/lastmile_qr_scan", "ios": "https://dc.lft.to/lastmile_qr_scan"}, "bike_id": "ea4db731bffdea11b4379b9d462c6506"}, {"lat": 38.9370155, "fusion_lat": 0.0, "is_reserved": 0, "is_disabled": 0, "type": "electric_scooter", "name": "e4eb95f86de74bfbba4b866f65c5597f", "lon": -77.055986, "fusion_lon": 0.0, "rental_uris": {"android": "https://dc.lft.to/lastmile_qr_scan", "ios": "https://dc.lft.to/lastmile_qr_scan"}, "bike_id": "e4eb95f86de74bfbba4b866f65c5597f"}, {"lat": 38.91762266666667, "fusion_lat": 0.0, "is_reserved": 0, "is_disabled": 0, "type": "electric_scooter", "name": "dc6719628d3075a2e5bb0603ff83cc65", "lon": -77.03644766666666, "fusion_lon": 0.0, "rental_uris": {"android": "https://dc.lft.to/lastmile_qr_scan", "ios": "https://dc.lft.to/lastmile_qr_scan"}, "bike_id": "dc6719628d3075a2e5bb0603ff83cc65"}, {"lat": 38.92181583333333, "fusion_lat": 0.0, "is_reserved": 0, "is_disabled": 0, "type": "electric_bike", "name": "dc8947f48736133abd715f20953b5536", "lon": -77.02967966666667, "fusion_lon": 0.0, "rental_uris": {"android": "https://dc.lft.to/lastmile_qr_scan", "ios": "https://dc.lft.to/lastmile_qr_scan"}, "bike_id": "dc8947f48736133abd715f20953b5536"},