{"data": {"bikes": [{"rental_uris": {"ios": "https://dc.lft.to/lastmile_qr_scan", "android": "https://dc.lft.to/lastmile_qr_scan"}, "lon": -77.02217383333333, "type": "electric_scooter", "fusion_lat": 0.0, "lat": 38.91554133333333, "name": "194bcce64444c19a3791f7477c70477b", "fusion_lon": 0.0, "bike_id": "194bcce64444c19a3791f7477c70477b", "is_disabled": 0, "is_reserved": 0}, {"rental_uris": {"ios": "https://dc.lft.to/lastmile_qr_scan", "android": "https://dc.lft.to/lastmile_qr_scan"}, "lon": -77.038333, "type": "electric_scooter", "fusion_lat": 0.0, "lat": 38.91116816666667, "name": "b89b766f38ff29046b3afd84eb76905e", "fusion_lon": 0.0, "bike_id": "b89b766f38ff29046b3afd84eb76905e", "is_disabled": 0, "is_reserved": 0}, {"rental_uris": {"ios": "https://dc.lft.to/lastmile_qr_scan", "android": "https://dc.lft.to/lastmile_qr_scan"}, "lon": -77.0240665, "type": "electric_scooter", "fusion_lat": 0.0, "lat": 38.911061833333335, "name": "9ecb186a8b141f985630301078617d0c", "fusion_lon": 0.0, "bike_id": "9ecb186a8b141f985630301078617d0c", "is_disabled": 0, "is_reserved": 0}, {"rental_uris": {"ios": "https://dc.lft.to/lastmile_qr_scan", "android": "https://dc.lft.to/lastmile_qr_scan"}, "lon": -77.01701866666667, "type": "electric_scooter", "fusion_lat": 0.0, "lat": 38.92020566666667, "name": "b2e141c2c4e82fd8a9ab7e6f327f6193", "fusion_lon": 0.0, "bike_id": "b2e141c2c4e82fd8a9ab7e6f327f6193", "is_disabled": 0, "is_reserved": 0}, {"rental_uris": {"ios": "https://dc.lft.to/lastmile_qr_scan", "android": "https://dc.lft.to/lastmile_qr_scan"}, "lon": -77.00150616666667, "type": "electric_scooter", "fusion_lat": 0.0, "lat": 38.90011883333333, "name": "68222ba9b6b188d0be7366f9ef209190", "fusion_lon": 0.0, "bike_id": "68222ba9b6b188d0be7366f9ef209190", "is_disabled": 0, "is_reserved": 0}, {"rental_uris": {"ios": "https://dc.lft.to/lastmile_qr_scan", "android": "https://dc.lft.to/lastmile_qr_scan"}, "lon": -77.04900233333333, "type": "electric_scooter", "fusion_lat": 0.0, "lat": 38.9006855, "name": "eb356c0d470a9a0d6838bf4bd0107e6f", "fusion_lon": 0.0, "bike_id": "eb356c0d470a9a0d6838bf4bd0107e6f", "is_disabled": 0, "is_reserved": 0}, {"rental_uris": {"ios": "https://dc.lft.to/lastmile_qr_scan", "android": "https://dc.lft.to/lastmile_qr_scan"}, "lon": -77.03347683333334, "type": "electric_scooter", "fusion_lat": 0.0, "lat": 38.92881783333333, "name": "31acfaa856255c5a753ef07264a06c64", "fusion_lon": 0.0, "bike_id": "31acfaa856255c5a753ef07264a06c64", "is_disabled": 0, "is_reserved": 0}, {"rental_uris": {"ios": "https://dc.lft.to/lastmile_qr_scan", "android": "https://dc.lft.to/lastmile_qr_scan"}, "lon": -77.03901616666667, "type": "electric_scooter", "fusion_lat": 0.0, "lat": 38.921727, "name": "bf56f02a597c63a7cb89463948d58a58", "fusion_lon": 0.0, "bike_id": "bf56f02a597c63a7cb89463948d58a58", "is_disabled": 0, "is_reserved": 0}, {"rental_uris": {"ios": "https://dc.lft.to/lastmile_qr_scan", "android": "https://dc.lft.to/lastmile_qr_scan"}, "lon": -77.0320885, "type": "electric_scooter", "fusion_lat": 0.0, "lat": 38.917402, "name": "b9012c36d993a20a715565d422917000", "fusion_lon": 0.0, "bike_id": "b9012c36d993a20a715565d422917000", "is_disabled": 0, "is_reserved": 0}, {"rental_uris": {"ios": "https://dc.lft.to/lastmile_qr_scan", "android": "https://dc.lft.to/lastmile_qr_scan"}, "lon": -77.02837933333333, "type": "electric_scooter", "fusion_lat": 0.0, "lat": 38.8876875, "name": "56813eb907211bc03a41a36c6929f2c3", "fusion_lon": 0.0, "bike_id": "56813eb907211bc03a41a36c6929f2c3", "is_disabled": 0, "is_reserved": 0}, {"rental_uris": {"ios": "https://dc.lft.to/lastmile_qr_scan", "android": "https://dc.lft.to/lastmile_qr_scan"}, "lon": -77.01857233333334, "type": "electric_scooter", "fusion_lat": 0.0, "lat": 38.9399995, "name": "c90226afdb667afa0100f515d092224d", "fusion_lon": 0.0, "bike_id": "c90226afdb667afa0100f515d092224d", "is_disabled": 0, "is_reserved": 0}, {"rental_uris": {"ios": "https://dc.lft.to/lastmile_qr_scan", "android": "https://dc.lft.to/lastmile_qr_scan"}, "lon": -77.03821766666667, "type": "electric_scooter", "fusion_lat": 0.0, "lat": 38.907731166666665, "name": "af984682da442e4f33cb05cab1929777", "fusion_lon": 0.0, "bike_id": "af984682da442e4f33cb05cab1929777", "is_disabled": 0, "is_reserved": 0}, {"rental_uris": {"ios": "https://dc.lft.to/lastmile_qr_scan", "android": "https://dc.lft.to/lastmile_qr_scan"}, "lon": -77.03222016666666, "type": "electric_scooter", "fusion_lat": 0.0, "lat": 38.91814516666667, "name": "0dc1f5c26ccd669dcf90696484eb4c84", "fusion_lon": 0.0, "bike_id": "0dc1f5c26ccd669dcf90696484eb4c84", "is_disabled": 0, "is_reserved": 0}, {"rental_uris": {"ios": "https://dc.lft.to/lastmile_qr_scan", "android": "https://dc.lft.to/lastmile_qr_scan"}, "lon": -76.93175866666667, "type": "electric_scooter", "fusion_lat": 0.0, "lat": 38.89882816666667, "name": "c983d98d8ac48f03a7b63522d0ccc9cb", "fusion_lon": 0.0, "bike_id": "c983d98d8ac48f03a7b63522d0ccc9cb", "is_disabled": 0, "is_reserved": 0}, {"rental_uris": {"ios": "https://dc.lft.to/lastmile_qr_scan", "android": "https://dc.lft.to/lastmile_qr_scan"}, "lon": -77.01912666666666, "type": "electric_scooter", "fusion_lat": 0.0, "lat": 38.90245133333333, "name": "96f07638a0bd14395d2b6aad6e263d16", "fusion_lon": 0.0, "bike_id": "96f07638a0bd14395d2b6aad6e263d16", "is_disabled": 0, "is_reserved": 0}, {"rental_uris": {"ios": "https://dc.lft.to/lastmile_qr_scan", "android": "https://dc.lft.to/lastmile_qr_scan"}, "lon": -77.031756, "type": "electric_scooter", "fusion_lat": 0.0, "lat": 38.8862705, "name": "759a71320537ee4e288e3c30e0d058d9", "fusion_lon": 0.0, "bike_id": "759a71320537ee4e288e3c30e0d058d9", "is_disabled": 0, "is_reserved": 0}, {"rental_uris": {"ios": "https://dc.lft.to/lastmile_qr_scan", "android": "https://dc.lft.to/lastmile_qr_scan"}, "lon": -76.99500433333333, "type": "electric_scooter", "fusion_lat": 0.0, "lat": 38.881000666666665, "name": "908a07a63056de7b429eb5cb3b60fe64", "fusion_lon": 0.0, "bike_id": "908a07a63056de7b429eb5cb3b60fe64", "is_disabled": 0, "is_reserved": 0}, {"rental_uris": {"ios": "https://dc.lft.to/lastmile_qr_scan", "android": "https://dc.lft.to/lastmile_qr_scan"}, "lon": -77.053198, "type": "electric_scooter", "fusion_lat": 0.0, "lat": 38.902864, "name": "d6c2d0a4e56aa17a9a281faa43e72dca", "fusion_lon": 0.0, "bike_id": "d6c2d0a4e56aa17a9a281faa43e72dca", "is_disabled": 0, "is_reserved": 0}, {"rental_uris": {"ios": "https://dc.lft.to/lastmile_qr_scan", "android": "https://dc.lft.to/lastmile_qr_scan"}, "lon": -77.03316583333333, "type": "electric_scooter", "fusion_lat": 0.0, "lat": 38.898891666666664, "name": "a4036c7d7ed923f02de42e8fba20033f", "fusion_lon": 0.0, "bike_id": "a4036c7d7ed923f02de42e8fba20033f", "is_disabled": 0, "is_reserved": 0}, {"rental_uris": {"ios": "https://dc.lft.to/lastmile_qr_scan", "android": "https://dc.lft.to/lastmile_qr_scan"}, "lon": -77.00211666666667, "type": "electric_scooter", "fusion_lat": 0.0, "lat": 38.902230833333334, "name": "3da81607cada57a654a1ba49daffa12e", "fusion_lon": 0.0, "bike_id": "3da81607cada57a654a1ba49daffa12e", "is_disabled": 0, "is_reserved": 0}, {"rental_uris": {"ios": "https://dc.lft.to/lastmile_qr_scan", "android": "https://dc.lft.to/lastmile_qr_scan"}, "lon": -77.032629, "type": "electric_scooter", "fusion_lat": 0.0, "lat": 38.90424616666667, "name": "faf61c88293b70c254ac5346f5610d22", "fusion_lon": 0.0, "bike_id": "faf61c88293b70c254ac5346f5610d22", "is_disabled": 0, "is_reserved": 0}, {"rental_uris": {"ios": "https://dc.lft.to/lastmile_qr_scan", "android": "https://dc.lft.to/lastmile_qr_scan"}, "lon": -77.04656083333333, "type": "electric_scooter", "fusion_lat": 0.0, "lat": 38.89329766666667, "name": "249c9b9f0c903e5c12f0930e81c762f7", "fusion_lon": 0.0, "bike_id": "249c9b9f0c903e5c12f0930e81c762f7", "is_disabled": 0, "is_reserved": 0}, {"rental_uris": {"ios": "https://dc.lft.to/lastmile_qr_scan", "android": "https://dc.lft.to/lastmile_qr_scan"}, "lon": -77.03256233333333, "type": "electric_scooter", "fusion_lat": 0.0, "lat": 38.918212833333335, "name": "78379406ec4c7c8c519d3dc694d43cdc", "fusion_lon": 0.0, "bike_id": "78379406ec4c7c8c519d3dc694d43cdc", "is_disabled": 0, "is_reserved": 0}, {"rental_uris": {"ios": "https://dc.lft.to/lastmile_qr_scan", "android": "https://dc.lft.to/lastmile_qr_scan"}, "lon": -77.0611905, "type": "electric_scooter", "fusion_lat": 0.0, "lat": 38.90497633333333, "name": "0348cfe96a9ff9046455084a9edba51e", "fusion_lon": 0.0, "bike_id": "0348cfe96a9ff9046455084a9edba51e", "is_disabled": 0, "is_reserved": 0}, {"rental_uris": {"ios": "https://dc.lft.to/lastmile_qr_scan", "android": "https://dc.lft.to/lastmile_qr_scan"}, "lon": -77.080497, "type": "electric_bike", "fusion_lat": 0.0, "lat": 38.8484335, "name": "62aca56b427439baaa5652977addc922", "fusion_lon": 0.0, "bike_id": "62aca56b427439baaa5652977addc922", "is_disabled": 0, "is_reserved": 0}, {"rental_uris": {"ios": "https://dc.lft.to/lastmile_qr_scan", "android": "https://dc.lft.to/lastmile_qr_scan"}, "lon": -77.040017, "type": "electric_scooter", "fusion_lat": 0.0, "lat": 38.91811516666667, "name": "5070f8b5a8531366cde5583243283292", "fusion_lon": 0.0, "bike_id": "5070f8b5a8531366cde5583243283292", "is_disabled": 0, "is_reserved": 0}, {"rental_uris": {"ios": "https://dc.lft.to/lastmile_qr_scan", "android": "https://dc.lft.to/lastmile_qr_scan"}, "lon": -77.0344525, "type": "electric_scooter", "fusion_lat": 0.0, "lat": 38.908117833333336, "name": "b9796f085e4e5b4599d5648d23265c09", "fusion_lon": 0.0, "bike_id": "b9796f085e4e5b4599d5648d23265c09", "is_disabled": 0, "is_reserved": 0}, {"rental_uris": {"ios": "https://dc.lft.to/lastmile_qr_scan", "android": "https://dc.lft.to/lastmile_qr_scan"}, "lon": -77.03641033333334, "type": "electric_scooter", "fusion_lat": 0.0, "lat": 38.902846833333335, "name": "66797ad88ee027124da6053b71802038", "fusion_lon": 0.0, "bike_id": "66797ad88ee027124da6053b71802038", "is_disabled": 0, "is_reserved": 0}, {"rental_uris": {"ios": "https://dc.lft.to/lastmile_qr_scan", "android": "https://dc.lft.to/lastmile_qr_scan"}, "lon": -77.04168433333334, "type": "electric_scooter", "fusion_lat": 0.0, "lat": 38.90531383333333, "name": "f85b71b4951af55807339dd121a6f9ba", "fusion_lon": 0.0, "bike_id": "f85b71b4951af55807339dd121a6f9ba", "is_disabled": 0, "is_reserved": 0}, {"rental_uris": {"ios": "https://dc.lft.to/lastmile_qr_scan", "android": "https://dc.lft.to/lastmile_qr_scan"}, "lon": -76.995227, "type": "electric_scooter", "fusion_lat": 0.0, "lat": 38.90010866666667, "name": "892cfb7ff55595a642ee05ac0e7ef41a", "fusion_lon": 0.0, "bike_id": "892cfb7ff55595a642ee05ac0e7ef41a", "is_disabled": 0, "is_reserved": 0}, {"rental_uris": {"ios": "https://dc.lft.to/lastmile_qr_scan", "android": "https://dc.lft.to/lastmile_qr_scan"}, "lon": -76.99488933333333, "type": "electric_bike", "fusion_lat": 0.0, "lat": 38.899713, "name": "417f6612c1b25d77fcc6abe321bb7a1d", "fusion_lon": 0.0, "bike_id": "417f6612c1b25d77fcc6abe321bb7a1d", "is_disabled": 0, "is_reserved": 0}, {"rental_uris": {"ios": "https://dc.lft.to/lastmile_qr_scan", "android": "https://dc.lft.to/lastmile_qr_scan"}, "lon": -77.006203, "type": "electric_scooter", "fusion_lat": 0.0, "lat": 38.90548966666667, "name": "3c0f11839be7de851999914277e1950c", "fusion_lon": 0.0, "bike_id": "3c0f11839be7de851999914277e1950c", "is_disabled": 0, "is_reserved": 0}, {"rental_uris": {"ios": "https://dc.lft.to/lastmile_qr_scan", "android": "https://dc.lft.to/lastmile_qr_scan"}, "lon": -76.95679583333333, "type": "electric_bike", "fusion_lat": 0.0, "lat": 38.947312833333335, "name": "01333f8450372c747cd3b82e1e6be778", "fusion_lon": 0.0, "bike_id": "01333f8450372c747cd3b82e1e6be778", "is_disabled": 0, "is_reserved": 0}, {"rental_uris": {"ios": "https://dc.lft.to/lastmile_qr_scan", "android": "https://dc.lft.to/lastmile_qr_scan"}, "lon": -77.01114933333334, "type": "electric_scooter", "fusion_lat": 0.0, "lat": 38.870733666666666, "name": "23807307744c5caf9dbaaa90f5a212cd", "fusion_lon": 0.0, "bike_id": "23807307744c5caf9dbaaa90f5a212cd", "is_disabled": 0, "is_reserved": 0}, {"rental_uris": {"ios": "https://dc.lft.to/lastmile_qr_scan", "android": "https://dc.lft.to/lastmile_qr_scan"}, "lon": -76.95109333333333, "type": "electric_scooter", "fusion_lat": 0.0, "lat": 38.88789716666667, "name": "bbe3ecbe977701949381cc477f49d7e0", "fusion_lon": 0.0, "bike_id": "bbe3ecbe977701949381cc477f49d7e0", "is_disabled": 0, "is_reserved": 0}, {"rental_uris": {"ios": "https://dc.lft.to/lastmile_qr_scan", "android": "https://dc.lft.to/lastmile_qr_scan"}, "lon": -76.994583, "type": "electric_scooter", "fusion_lat": 0.0, "lat": 38.851626333333336, "name": "8c977776e5fcfad0d220f560761ec459", "fusion_lon": 0.0, "bike_id": "8c977776e5fcfad0d220f560761ec459", "is_disabled": 0, "is_reserved": 0}, {"rental_uris": {"ios": "https://dc.lft.to/lastmile_qr_scan", "android": "https://dc.lft.to/lastmile_qr_scan"}, "lon": -77.03157533333334, "type": "electric_scooter", "fusion_lat": 0.0, "lat": 38.893515666666666, "name": "1bf08850a96b19e6d614465088ad2170", "fusion_lon": 0.0, "bike_id": "1bf08850a96b19e6d614465088ad2170", "is_disabled": 0, "is_reserved": 0}, {"rental_uris": {"ios": "https://dc.lft.to/lastmile_qr_scan", "android": "https://dc.lft.to/lastmile_qr_scan"}, "lon": -77.0231315, "type": "electric_scooter", "fusion_lat": 0.0, "lat": 38.9180685, "name": "b31748e0ac14b445c3999c8a2ad20e72", "fusion_lon": 0.0, "bike_id": "b31748e0ac14b445c3999c8a2ad20e72", "is_disabled": 0, "is_reserved": 0}, {"rental_uris": {"ios": "https://dc.lft.to/lastmile_qr_scan", "android": "https://dc.lft.to/lastmile_qr_scan"}, "lon": -77.0387065, "type": "electric_scooter", "fusion_lat": 0.0, "lat": 38.90811933333333, "name": "2376aafe57203d778819a90509e6301f", "fusion_lon": 0.0, "bike_id": "2376aafe57203d778819a90509e6301f", "is_disabled": 0, "is_reserved": 0}, {"rental_uris": {"ios": "https://dc.lft.to/lastmile_qr_scan", "android": "https://dc.lft.to/lastmile_qr_scan"}, "lon": -77.002236, "type": "electric_scooter", "fusion_lat": 0.0, "lat": 38.894528333333334, "name": "ebe70c24f196448a8440f5cbf16e7a59", "fusion_lon": 0.0, "bike_id": "ebe70c24f196448a8440f5cbf16e7a59", "is_disabled": 0, "is_reserved": 0}, {"rental_uris": {"ios": "https://dc.lft.to/lastmile_qr_scan", "android": "https://dc.lft.to/lastmile_qr_scan"}, "lon": -77.02112666666666, "type": "electric_scooter", "fusion_lat": 0.0, "lat": 38.90258016666667, "name": "dc4961f53e008093deb517bbc8db7f73", "fusion_lon": 0.0, "bike_id": "dc4961f53e008093deb517bbc8db7f73", "is_disabled": 0, "is_reserved": 0}, {"rental_uris": {"ios": "https://dc.lft.to/lastmile_qr_scan", "android": "https://dc.lft.to/lastmile_qr_scan"}, "lon": -77.033204, "type": "electric_scooter", "fusion_lat": 0.0, "lat": 38.902833333333334, "name": "dab06ef5e966ecfab59cc0fdc99bdfff", "fusion_lon": 0.0, "bike_id": "dab06ef5e966ecfab59cc0fdc99bdfff", "is_disabled": 0, "is_reserved": 0}, {"rental_uris": {"ios": "https://dc.lft.to/lastmile_qr_scan", "android": "https://dc.lft.to/lastmile_qr_scan"}, "lon": -77.04285316666666, "type": "electric_scooter", "fusion_lat": 0.0, "lat": 38.90733783333334, "name": "e476004bbb1919191660128b5bc4559b", "fusion_lon": 0.0, "bike_id": "e476004bbb1919191660128b5bc4559b", "is_disabled": 0, "is_reserved": 0}, {"rental_uris": {"ios": "https://dc.lft.to/lastmile_qr_scan", "android": "https://dc.lft.to/lastmile_qr_scan"}, "lon": -77.02408416666667, "type": "electric_scooter", "fusion_lat": 0.0, "lat": 38.920849, "name": "99ba1f92ee052550d132ea5c2009ecf0", "fusion_lon": 0.0, "bike_id": "99ba1f92ee052550d132ea5c2009ecf0", "is_disabled": 0, "is_reserved": 0}, {"rental_uris": {"ios": "https://dc.lft.to/lastmile_qr_scan", "android": "https://dc.lft.to/lastmile_qr_scan"}, "lon": -76.928813, "type": "electric_scooter", "fusion_lat": 0.0, "lat": 38.884491, "name": "2d7016c1c9a45d44eb52aed03fd9d0e9", "fusion_lon": 0.0, "bike_id": "2d7016c1c9a45d44eb52aed03fd9d0e9", "is_disabled": 0, "is_reserved": 0}, {"rental_uris": {"ios": "https://dc.lft.to/lastmile_qr_scan", "android": "https://dc.lft.to/lastmile_qr_scan"}, "lon": -77.0440855, "type": "electric_scooter", "fusion_lat": 0.0, "lat": 38.87435683333333, "name": "8fcb45a03c0366f0ae228050917489c5", "fusion_lon": 0.0, "bike_id": "8fcb45a03c0366f0ae228050917489c5", "is_disabled": 0, "is_reserved": 0}, {"rental_uris": {"ios": "https://dc.lft.to/lastmile_qr_scan", "android": "https://dc.lft.to/lastmile_qr_scan"}, "lon": -77.031257, "type": "electric_scooter", "fusion_lat": 0.0, "lat": 38.973766499999996, "name": "66b358242d3ea724021b60a0a159ae6b", "fusion_lon": 0.0, "bike_id": "66b358242d3ea724021b60a0a159ae6b", "is_disabled": 0, "is_reserved": 0}, {"rental_uris": {"ios": "https://dc.lft.to/lastmile_qr_scan", "android": "https://dc.lft.to/lastmile_qr_scan"}, "lon": -76.96176616666666, "type": "electric_bike", "fusion_lat": 0.0, "lat": 38.918634833333336, "name": "40164b3c55ef2ba4e5e5b17ac35ae4e2", "fusion_lon": 0.0, "bike_id": "40164b3c55ef2ba4e5e5b17ac35ae4e2", "is_disabled": 0, "is_reserved": 0}, {"rental_uris": {"ios": "https://dc.lft.to/lastmile_qr_scan", "android": "https://dc.lft.to/lastmile_qr_scan"}, "lon": -77.03380333333334, "type": "electric_scooter", "fusion_lat": 0.0, "lat": 38.91042483333333, "name": "f4958ef7250658f969f999fcdb84e06c", "fusion_lon": 0.0, "bike_id": "f4958ef7250658f969f999fcdb84e06c", "is_disabled": 0, "is_reserved": 0}, {"rental_uris": {"ios": "https://dc.lft.to/lastmile_qr_scan", "android": "https://dc.lft.to/lastmile_qr_scan"}, "lon": -77.02306916666667, "type": "electric_scooter", "fusion_lat": 0.0, "lat": 38.917820666666664, "name": "83bed89b85042565d821cc277c421489", "fusion_lon": 0.0, "bike_id": "83bed89b85042565d821cc277c421489", "is_disabled": 0, "is_reserved": 0}, {"rental_uris": {"ios": "https://dc.lft.to/lastmile_qr_scan", "android": "https://dc.lft.to/lastmile_qr_scan"}, "lon": -77.05598316666666, "type": "electric_scooter", "fusion_lat": 0.0, "lat": 38.937034, "name": "dd0a59d41fdc60a193b272ac6b618e7a", "fusion_lon": 0.0, "bike_id": "dd0a59d41fdc60a193b272ac6b618e7a", "is_disabled": 0, "is_reserved": 0}, {"rental_uris": {"ios": "https://dc.lft.to/lastmile_qr_scan", "android": "https://dc.lft.to/lastmile_qr_scan"}, "lon": -77.01336983333333, "type": "electric_scooter", "fusion_lat": 0.0, "lat": 38.9660965, "name": "77605844b78f2e87b8efc68b1707f137", "fusion_lon": 0.0, "bike_id": "77605844b78f2e87b8efc68b1707f137", "is_disabled": 0, "is_reserved": 0}, {"rental_uris": {"ios": "https://dc.lft.to/lastmile_qr_scan", "android": "https://dc.lft.to/lastmile_qr_scan"}, "lon": -77.03233116666667, "type": "electric_scooter", "fusion_lat": 0.0, "lat": 38.896463833333335, "name": "a75089e33ff476f15a73bf81aa6ce773", "fusion_lon": 0.0, "bike_id": "a75089e33ff476f15a73bf81aa6ce773", "is_disabled": 0, "is_reserved": 0}, {"rental_uris": {"ios": "https://dc.lft.to/lastmile_qr_scan", "android": "https://dc.lft.to/lastmile_qr_scan"}, "lon": -77.13091233333333, "type": "electric_bike", "fusion_lat": 0.0, "lat": 38.861618166666666, "name": "853a0e026ed404b9766f206864ba9613", "fusion_lon": 0.0, "bike_id": "853a0e026ed404b9766f206864ba9613", "is_disabled": 0, "is_reserved": 0}, {"rental_uris": {"ios": "https://dc.lft.to/lastmile_qr_scan", "android": "https://dc.lft.to/lastmile_qr_scan"}, "lon": -77.04192966666666, "type": "electric_scooter", "fusion_lat": 0.0, "lat": 38.901438666666664, "name": "a36b7f76b37becc5cebf53056ccb4cd7", "fusion_lon": 0.0, "bike_id": "a36b7f76b37becc5cebf53056ccb4cd7", "is_disabled": 0, "is_reserved": 0}, {"rental_uris": {"ios": "https://dc.lft.to/lastmile_qr_scan", "android": "https://dc.lft.to/lastmile_qr_scan"}, "lon": -77.04183, "type": "electric_scooter", "fusion_lat": 0.0, "lat": 38.920607333333336, "name": "e5a7bd3a9a62359d10940fac608cc8f7", "fusion_lon": 0.0, "bike_id": "e5a7bd3a9a62359d10940fac608cc8f7", "is_disabled": 0, "is_reserved": 0}, {"rental_uris": {"ios": "https://dc.lft.to/lastmile_qr_scan", "android": "https://dc.lft.to/lastmile_qr_scan"}, "lon": -77.02862433333334, "type": "electric_scooter", "fusion_lat": 0.0, "lat": 38.907153666666666, "name": "61d82f6e26b75410d7b85ee02fbd18d4", "fusion_lon": 0.0, "bike_id": "61d82f6e26b75410d7b85ee02fbd18d4", "is_disabled": 0, "is_reserved": 0}, {"rental_uris": {"ios": "https://dc.lft.to/lastmile_qr_scan", "android": "https://dc.lft.to/lastmile_qr_scan"}, "lon": -77.0231905, "type": "electric_scooter", "fusion_lat": 0.0, "lat": 38.883396833333336, "name": "9a8570673a482d01d791abf06e22e998", "fusion_lon": 0.0, "bike_id": "9a8570673a482d01d791abf06e22e998", "is_disabled": 0, "is_reserved": 0}, {"rental_uris": {"ios": "https://dc.lft.to/lastmile_qr_scan", "android": "https://dc.lft.to/lastmile_qr_scan"}, "lon": -77.0261305, "type": "electric_bike", "fusion_lat": 0.0, "lat": 38.961994, "name": "20d07046d017bc3640cf9cd3d5677f43", "fusion_lon": 0.0, "bike_id": "20d07046d017bc3640cf9cd3d5677f43", "is_disabled": 0, "is_reserved": 0}, {"rental_uris": {"ios": "https://dc.lft.to/lastmile_qr_scan", "android": "https://dc.lft.to/lastmile_qr_scan"}, "lon": -77.03789066666667, "type": "electric_scooter", "fusion_lat": 0.0, "lat": 38.9358445, "name": "05f05e1e37a7adfc98560115e4cde536", "fusion_lon": 0.0, "bike_id": "05f05e1e37a7adfc98560115e4cde536", "is_disabled": 0, "is_reserved": 0}, {"rental_uris": {"ios": "https://dc.lft.to/lastmile_qr_scan", "android": "https://dc.lft.to/lastmile_qr_scan"}, "lon": -77.02419083333334, "type": "electric_scooter", "fusion_lat": 0.0, "lat": 38.909707166666664, "name": "44cce826e82544a4ef8f8150ae875f2d", "fusion_lon": 0.0, "bike_id": "44cce826e82544a4ef8f8150ae875f2d", "is_disabled": 0, "is_reserved": 0}, {"rental_uris": {"ios": "https://dc.lft.to/lastmile_qr_scan", "android": "https://dc.lft.to/lastmile_qr_scan"}, "lon": -77.09161216666666, "type": "electric_bike", "fusion_lat": 0.0, "lat": 38.96762783333333, "name": "9abb041620027eab828254dafb8d40c1", "fusion_lon": 0.0, "bike_id": "9abb041620027eab828254dafb8d40c1", "is_disabled": 0, "is_reserved": 0}, {"rental_uris": {"ios": "https://dc.lft.to/lastmile_qr_scan", "android": "https://dc.lft.to/lastmile_qr_scan"}, "lon": -77.0329335, "type": "electric_scooter", "fusion_lat": 0.0, "lat": 38.92228683333333, "name": "098cc3c211bed144051696f6a0205650", "fusion_lon": 0.0, "bike_id": "098cc3c211bed144051696f6a0205650", "is_disabled": 0, "is_reserved": 0}, {"rental_uris": {"ios": "https://dc.lft.to/lastmile_qr_scan", "android": "https://dc.lft.to/lastmile_qr_scan"}, "lon": -77.02734166666667, "type": "electric_scooter", "fusion_lat": 0.0, "lat": 38.92851266666667, "name": "ce1aadb61715c7389757cef10fab0d33", "fusion_lon": 0.0, "bike_id": "ce1aadb61715c7389757cef10fab0d33", "is_disabled": 0, "is_reserved": 0}, {"rental_uris": {"ios": "https://dc.lft.to/lastmile_qr_scan", "android": "https://dc.lft.to/lastmile_qr_scan"}, "lon": -76.99945216666667, "type": "electric_scooter", "fusion_lat": 0.0, "lat": 38.919307333333336, "name": "61449fcab18a477a37befef4646101e4", "fusion_lon": 0.0, "bike_id": "61449fcab18a477a37befef4646101e4", "is_disabled": 0, "is_reserved": 0}, {"rental_uris": {"ios": "https://dc.lft.to/lastmile_qr_scan", "android": "https://dc.lft.to/lastmile_qr_scan"}, "lon": -77.03454133333334, "type": "electric_scooter", "fusion_lat": 0.0, "lat": 38.90811683333333, "name": "f2d67656c1c15ae0280424ef8090a5fc", "fusion_lon": 0.0, "bike_id": "f2d67656c1c15ae0280424ef8090a5fc", "is_disabled": 0, "is_reserved": 0}, {"rental_uris": {"ios": "https://dc.lft.to/lastmile_qr_scan", "android": "https://dc.lft.to/lastmile_qr_scan"}, "lon": -77.031808, "type": "electric_scooter", "fusion_lat": 0.0, "lat": 38.9164575, "name": "1a32f4e46e846eaf9bf33258d9ef1c25", "fusion_lon": 0.0, "bike_id": "1a32f4e46e846eaf9bf33258d9ef1c25", "is_disabled": 0, "is_reserved": 0}, {"rental_uris": {"ios": "https://dc.lft.to/lastmile_qr_scan", "android": "https://dc.lft.to/lastmile_qr_scan"}, "lon": -77.012364, "type": "electric_scooter", "fusion_lat": 0.0, "lat": 38.9155275, "name": "800e8f73f40b01d41a23a69c3645b606", "fusion_lon": 0.0, "bike_id": "800e8f73f40b01d41a23a69c3645b606", "is_disabled": 0, "is_reserved": 0}, {"rental_uris": {"ios": "https://dc.lft.to/lastmile_qr_scan", "android": "https://dc.lft.to/lastmile_qr_scan"}, "lon": -77.03184583333334, "type": "electric_scooter", "fusion_lat": 0.0, "lat": 38.916248833333334, "name": "106ff2f22537f0464ab4b0cb2ebeb789", "fusion_lon": 0.0, "bike_id": "106ff2f22537f0464ab4b0cb2ebeb789", "is_disabled": 0, "is_reserved": 0}, {"rental_uris": {"ios": "https://dc.lft.to/lastmile_qr_scan", "android": "https://dc.lft.to/lastmile_qr_scan"}, "lon": -77.0366405, "type": "electric_scooter", "fusion_lat": 0.0, "lat": 38.92120766666667, "name": "1b2d48271564246bfefde3a7efc8063e", "fusion_lon": 0.0, "bike_id": "1b2d48271564246bfefde3a7efc8063e", "is_disabled": 0, "is_reserved": 0}, {"rental_uris": {"ios": "https://dc.lft.to/lastmile_qr_scan", "android": "https://dc.lft.to/lastmile_qr_scan"}, "lon": -76.94778866666667, "type": "electric_bike", "fusion_lat": 0.0, "lat": 38.89439216666667, "name": "61f3557d019120f66bf2e3e6b1c7879d", "fusion_lon": 0.0, "bike_id": "61f3557d019120f66bf2e3e6b1c7879d", "is_disabled": 0, "is_reserved": 0}, {"rental_uris": {"ios": "https://dc.lft.to/lastmile_qr_scan", "android": "https://dc.lft.to/lastmile_qr_scan"}, "lon": -77.02826533333334, "type": "electric_scooter", "fusion_lat": 0.0, "lat": 38.932897, "name": "b3d870bf535c18557635c002b431c410", "fusion_lon": 0.0, "bike_id": "b3d870bf535c18557635c002b431c410", "is_disabled": 0, "is_reserved": 0}, {"rental_uris": {"ios": "https://dc.lft.to/lastmile_qr_scan", "android": "https://dc.lft.to/lastmile_qr_scan"}, "lon": -77.3608745, "type": "electric_bike", "fusion_lat": 0.0, "lat": 38.9396, "name": "afbd8295cddae7eb0267717a0d062f6c", "fusion_lon": 0.0, "bike_id": "afbd8295cddae7eb0267717a0d062f6c", "is_disabled": 0, "is_reserved": 0}, {"rental_uris": {"ios": "https://dc.lft.to/lastmile_qr_scan", "android": "https://dc.lft.to/lastmile_qr_scan"}, "lon": -77.019715, "type": "electric_scooter", "fusion_lat": 0.0, "lat": 38.900041333333334, "name": "7e6392b989b2de4c7e1528cdff18b087", "fusion_lon": 0.0, "bike_id": "7e6392b989b2de4c7e1528cdff18b087", "is_disabled": 0, "is_reserved": 0}, {"rental_uris": {"ios": "https://dc.lft.to/lastmile_qr_scan", "android": "https://dc.lft.to/lastmile_qr_scan"}, "lon": -77.00106733333334, "type": "electric_scooter", "fusion_lat": 0.0, "lat": 38.89430016666667, "name": "1137fb3a55217b44526636bac6e06c03", "fusion_lon": 0.0, "bike_id": "1137fb3a55217b44526636bac6e06c03", "is_disabled": 0, "is_reserved": 0}, {"rental_uris": {"ios": "https://dc.lft.to/lastmile_qr_scan", "android": "https://dc.lft.to/lastmile_qr_scan"}, "lon": -77.02535916666666, "type": "electric_scooter", "fusion_lat": 0.0, "lat": 38.940929, "name": "83e104dda236d672b533b06f0ff4449d", "fusion_lon": 0.0, "bike_id": "83e104dda236d672b533b06f0ff4449d", "is_disabled": 0, "is_reserved": 0}, {"rental_uris": {"ios": "https://dc.lft.to/lastmile_qr_scan", "android": "https://dc.lft.to/lastmile_qr_scan"}, "lon": -76.97984966666667, "type": "electric_bike", "fusion_lat": 0.0, "lat": 38.8775485, "name": "2ce27963a7b76a2b3815e954ca011a31", "fusion_lon": 0.0, "bike_id": "2ce27963a7b76a2b3815e954ca011a31", "is_disabled": 0, "is_reserved": 0}, {"rental_uris": {"ios": "https://dc.lft.to/lastmile_qr_scan", "android": "https://dc.lft.to/lastmile_qr_scan"}, "lon": -77.02098466666666, "type": "electric_scooter", "fusion_lat": 0.0, "lat": 38.91008683333333, "name": "156f8acd5713a68b54b4f60a719c0e13", "fusion_lon": 0.0, "bike_id": "156f8acd5713a68b54b4f60a719c0e13", "is_disabled": 0, "is_reserved": 0}, {"rental_uris": {"ios": "https://dc.lft.to/lastmile_qr_scan", "android": "https://dc.lft.to/lastmile_qr_scan"}, "lon": -77.0461065, "type": "electric_scooter", "fusion_lat": 0.0, "lat": 38.902484666666666, "name": "5ceb05a72c5b3fb53da12f192b18ed2c", "fusion_lon": 0.0, "bike_id": "5ceb05a72c5b3fb53da12f192b18ed2c", "is_disabled": 0, "is_reserved": 0}, {"rental_uris": {"ios": "https://dc.lft.to/lastmile_qr_scan", "android": "https://dc.lft.to/lastmile_qr_scan"}, "lon": -76.99021033333334, "type": "electric_scooter", "fusion_lat": 0.0, "lat": 38.85868383333333, "name": "cc67a43b2b1aa4f2cd0b979e5c6200e7", "fusion_lon": 0.0, "bike_id": "cc67a43b2b1aa4f2cd0b979e5c6200e7", "is_disabled": 0, "is_reserved": 0}, {"rental_uris": {"ios": "https://dc.lft.to/lastmile_qr_scan", "android": "https://dc.lft.to/lastmile_qr_scan"}, "lon": -77.0372145, "type": "electric_scooter", "fusion_lat": 0.0, "lat": 38.9171075, "name": "18ffd7b853045c68c789151112f32dbc", "fusion_lon": 0.0, "bike_id": "18ffd7b853045c68c789151112f32dbc", "is_disabled": 0, "is_reserved": 0}, {"rental_uris": {"ios": "https://dc.lft.to/lastmile_qr_scan", "android": "https://dc.lft.to/lastmile_qr_scan"}, "lon": -77.03179716666666, "type": "electric_scooter", "fusion_lat": 0.0, "lat": 38.901180833333335, "name": "da38eea756f75b5a6636bc7b6b5fba46", "fusion_lon": 0.0, "bike_id": "da38eea756f75b5a6636bc7b6b5fba46", "is_disabled": 0, "is_reserved": 0}, {"rental_uris": {"ios": "https://dc.lft.to/lastmile_qr_scan", "android": "https://dc.lft.to/lastmile_qr_scan"}, "lon": -77.050034, "type": "electric_scooter", "fusion_lat": 0.0, "lat": 38.892267833333335, "name": "0bf9fdac79d5e15f14898f98f86953fb", "fusion_lon": 0.0, "bike_id": "0bf9fdac79d5e15f14898f98f86953fb", "is_disabled": 0, "is_reserved": 0}, {"rental_uris": {"ios": "https://dc.lft.to/lastmile_qr_scan", "android": "https://dc.lft.to/lastmile_qr_scan"}, "lon": -77.0348945, "type": "electric_scooter", "fusion_lat": 0.0, "lat": 38.917102166666666, "name": "da645ba0f99d1b816abd3f649f75326c", "fusion_lon": 0.0, "bike_id": "da645ba0f99d1b816abd3f649f75326c", "is_disabled": 0, "is_reserved": 0}, {"rental_uris": {"ios": "https://dc.lft.to/lastmile_qr_scan", "android": "https://dc.lft.to/lastmile_qr_scan"}, "lon": -77.025426, "type": "electric_scooter", "fusion_lat": 0.0, "lat": 38.920706333333335, "name": "aa3e059432917dea89f321b7535ceae0", "fusion_lon": 0.0, "bike_id": "aa3e059432917dea89f321b7535ceae0", "is_disabled": 0, "is_reserved": 0}, {"rental_uris": {"ios": "https://dc.lft.to/lastmile_qr_scan", "android": "https://dc.lft.to/lastmile_qr_scan"}, "lon": -77.04851533333333, "type": "electric_scooter", "fusion_lat": 0.0, "lat": 38.91967733333333, "name": "b92d5632361eb2a11b092bd8d60cd6d1", "fusion_lon": 0.0, "bike_id": "b92d5632361eb2a11b092bd8d60cd6d1", "is_disabled": 0, "is_reserved": 0}, {"rental_uris": {"ios": "https://dc.lft.to/lastmile_qr_scan", "android": "https://dc.lft.to/lastmile_qr_scan"}, "lon": -77.03861266666667, "type": "electric_scooter", "fusion_lat": 0.0, "lat": 38.908097166666664, "name": "3dbaa6122ac258017bdd373dd24a89ce", "fusion_lon": 0.0, "bike_id": "3dbaa6122ac258017bdd373dd24a89ce", "is_disabled": 0, "is_reserved": 0}, {"rental_uris": {"ios": "https://dc.lft.to/lastmile_qr_scan", "android": "https://dc.lft.to/lastmile_qr_scan"}, "lon": -77.0253805, "type": "electric_scooter", "fusion_lat": 0.0, "lat": 38.892212, "name": "6bfd6407d6b5f016a59468593d06ecde", "fusion_lon": 0.0, "bike_id": "6bfd6407d6b5f016a59468593d06ecde", "is_disabled": 0, "is_reserved": 0}, {"rental_uris": {"ios": "https://dc.lft.to/lastmile_qr_scan", "android": "https://dc.lft.to/lastmile_qr_scan"}, "lon": -77.01859716666667, "type": "electric_scooter", "fusion_lat": 0.0, "lat": 38.892611333333335, "name": "bf857548f2996b8cf9be5c23017858ba", "fusion_lon": 0.0, "bike_id": "bf857548f2996b8cf9be5c23017858ba", "is_disabled": 0, "is_reserved": 0}, {"rental_uris": {"ios": "https://dc.lft.to/lastmile_qr_scan", "android": "https://dc.lft.to/lastmile_qr_scan"}, "lon": -76.99182816666666, "type": "electric_scooter", "fusion_lat": 0.0, "lat": 38.905097, "name": "39ba30e45c44e7840d194493cdb4ad10", "fusion_lon": 0.0, "bike_id": "39ba30e45c44e7840d194493cdb4ad10", "is_disabled": 0, "is_reserved": 0}, {"rental_uris": {"ios": "https://dc.lft.to/lastmile_qr_scan", "android": "https://dc.lft.to/lastmile_qr_scan"}, "lon": -77.02965766666667, "type": "electric_scooter", "fusion_lat": 0.0, "lat": 38.90794316666667, "name": "a79f21d9ec1f05508f67a2568372f5c8", "fusion_lon": 0.0, "bike_id": "a79f21d9ec1f05508f67a2568372f5c8", "is_disabled": 0, "is_reserved": 0}, {"rental_uris": {"ios": "https://dc.lft.to/lastmile_qr_scan", "android": "https://dc.lft.to/lastmile_qr_scan"}, "lon": -76.97821766666667, "type": "electric_scooter", "fusion_lat": 0.0, "lat": 38.8952315, "name": "8b45cf1a226ebc2aca17fdf048e1b0e2", "fusion_lon": 0.0, "bike_id": "8b45cf1a226ebc2aca17fdf048e1b0e2", "is_disabled": 0, "is_reserved": 0}, {"rental_uris": {"ios": "https://dc.lft.to/lastmile_qr_scan", "android": "https://dc.lft.to/lastmile_qr_scan"}, "lon": -77.0225635, "type": "electric_scooter", "fusion_lat": 0.0, "lat": 38.91264183333333, "name": "3bb09b1c32a916207286c628e3e983a9", "fusion_lon": 0.0, "bike_id": "3bb09b1c32a916207286c628e3e983a9", "is_disabled": 0, "is_reserved": 0}, {"rental_uris": {"ios": "https://dc.lft.to/lastmile_qr_scan", "android": "https://dc.lft.to/lastmile_qr_scan"}, "lon": -77.0335715, "type": "electric_scooter", "fusion_lat": 0.0, "lat": 38.88509166666667, "name": "3ffa5593cf8f61d84b0052d8ba63a30b", "fusion_lon": 0.0, "bike_id": "3ffa5593cf8f61d84b0052d8ba63a30b", "is_disabled": 0, "is_reserved": 0}, {"rental_uris": {"ios": "https://dc.lft.to/lastmile_qr_scan", "android": "https://dc.lft.to/lastmile_qr_scan"}, "lon": -76.995579, "type": "electric_scooter", "fusion_lat": 0.0, "lat": 38.88616583333334, "name": "03d7ceafa4196876fe6a1f8683a097b1", "fusion_lon": 0.0, "bike_id": "03d7ceafa4196876fe6a1f8683a097b1", "is_disabled": 0, "is_reserved": 0}, {"rental_uris": {"ios": "https://dc.lft.to/lastmile_qr_scan", "android": "https://dc.lft.to/lastmile_qr_scan"}, "lon": -77.03076133333333, "type": "electric_scooter", "fusion_lat": 0.0, "lat": 38.912637, "name": "ad05edf6b4f1b0615cd3a71b5402f642", "fusion_lon": 0.0, "bike_id": "ad05edf6b4f1b0615cd3a71b5402f642", "is_disabled": 0, "is_reserved": 0}, {"rental_uris": {"ios": "https://dc.lft.to/lastmile_qr_scan", "android": "https://dc.lft.to/lastmile_qr_scan"}, "lon": -77.02191933333333, "type": "electric_scooter", "fusion_lat": 0.0, "lat": 38.91559866666667, "name": "0418168e134f8df62becfa25a14500e6", "fusion_lon": 0.0, "bike_id": "0418168e134f8df62becfa25a14500e6", "is_disabled": 0, "is_reserved": 0}, {"rental_uris": {"ios": "https://dc.lft.to/lastmile_qr_scan", "android": "https://dc.lft.to/lastmile_qr_scan"}, "lon": -77.03038583333333, "type": "electric_scooter", "fusion_lat": 0.0, "lat": 38.90253666666667, "name": "29ec059f71c617ae9e42e38ff1f48787", "fusion_lon": 0.0, "bike_id": "29ec059f71c617ae9e42e38ff1f48787", "is_disabled": 0, "is_reserved": 0}, {"rental_uris": {"ios": "https://dc.lft.to/lastmile_qr_scan", "android": "https://dc.lft.to/lastmile_qr_scan"}, "lon": -77.02349283333334, "type": "electric_scooter", "fusion_lat": 0.0, "lat": 38.931775333333334, "name": "2b167fecf9cb51653464606b5fbaeefc", "fusion_lon": 0.0, "bike_id": "2b167fecf9cb51653464606b5fbaeefc", "is_disabled": 0, "is_reserved": 0}, {"rental_uris": {"ios": "https://dc.lft.to/lastmile_qr_scan", "android": "https://dc.lft.to/lastmile_qr_scan"}, "lon": -77.17849466666667, "type": "electric_bike", "fusion_lat": 0.0, "lat": 39.08904116666667, "name": "e14579b963d0061320af38c947bd210d", "fusion_lon": 0.0, "bike_id": "e14579b963d0061320af38c947bd210d", "is_disabled": 0, "is_reserved": 0}, {"rental_uris": {"ios": "https://dc.lft.to/lastmile_qr_scan", "android": "https://dc.lft.to/lastmile_qr_scan"}, "lon": -77.08539783333333, "type": "electric_bike", "fusion_lat": 0.0, "lat": 38.856229166666665, "name": "958c2af9ec650a421f8eed4212234940", "fusion_lon": 0.0, "bike_id": "958c2af9ec650a421f8eed4212234940", "is_disabled": 0, "is_reserved": 0}, {"rental_uris": {"ios": "https://dc.lft.to/lastmile_qr_scan", "android": "https://dc.lft.to/lastmile_qr_scan"}, "lon": -77.03188966666667, "type": "electric_scooter", "fusion_lat": 0.0, "lat": 38.91570016666667, "name": "07106d22a1623d44ea0dae26787e2328", "fusion_lon": 0.0, "bike_id": "07106d22a1623d44ea0dae26787e2328", "is_disabled": 0, "is_reserved": 0}, {"rental_uris": {"ios": "https://dc.lft.to/lastmile_qr_scan", "android": "https://dc.lft.to/lastmile_qr_scan"}, "lon": -77.04024716666666, "type": "electric_scooter", "fusion_lat": 0.0, "lat": 38.918777, "name": "4faaf775a1d47ede072818a8f8ce60e9", "fusion_lon": 0.0, "bike_id": "4faaf775a1d47ede072818a8f8ce60e9", "is_disabled": 0, "is_reserved": 0}, {"rental_uris": {"ios": "https://dc.lft.to/lastmile_qr_scan", "android": "https://dc.lft.to/lastmile_qr_scan"}, "lon": -77.0262875, "type": "electric_bike", "fusion_lat": 0.0, "lat": 38.962263166666666, "name": "a3c0d14ecf602624500aca6c8b565cc4", "fusion_lon": 0.0, "bike_id": "a3c0d14ecf602624500aca6c8b565cc4", "is_disabled": 0, "is_reserved": 0}, {"rental_uris": {"ios": "https://dc.lft.to/lastmile_qr_scan", "android": "https://dc.lft.to/lastmile_qr_scan"}, "lon": -77.03454333333333, "type": "electric_scooter", "fusion_lat": 0.0, "lat": 38.9457645, "name": "4efdacf05871c18a627d4bbd2e9044c1", "fusion_lon": 0.0, "bike_id": "4efdacf05871c18a627d4bbd2e9044c1", "is_disabled": 0, "is_reserved": 0}, {"rental_uris": {"ios": "https://dc.lft.to/lastmile_qr_scan", "android": "https://dc.lft.to/lastmile_qr_scan"}, "lon": -77.0072745, "type": "electric_scooter", "fusion_lat": 0.0, "lat": 38.88492633333333, "name": "5b237bd8044aee3873686f747d05cd70", "fusion_lon": 0.0, "bike_id": "5b237bd8044aee3873686f747d05cd70", "is_disabled": 0, "is_reserved": 0}, {"rental_uris": {"ios": "https://dc.lft.to/lastmile_qr_scan", "android": "https://dc.lft.to/lastmile_qr_scan"}, "lon": -77.04422, "type": "electric_scooter", "fusion_lat": 0.0, "lat": 38.891896, "name": "3085bacdff0c4d752e402648cad55df7", "fusion_lon": 0.0, "bike_id": "3085bacdff0c4d752e402648cad55df7", "is_disabled": 0, "is_reserved": 0}, {"rental_uris": {"ios": "https://dc.lft.to/lastmile_qr_scan", "android": "https://dc.lft.to/lastmile_qr_scan"}, "lon": -76.99498633333333, "type": "electric_scooter", "fusion_lat": 0.0, "lat": 38.862464833333334, "name": "70fba879eceadc74aa7437cacafdfc2d", "fusion_lon": 0.0, "bike_id": "70fba879eceadc74aa7437cacafdfc2d", "is_disabled": 0, "is_reserved": 0}, {"rental_uris": {"ios": "https://dc.lft.to/lastmile_qr_scan", "android": "https://dc.lft.to/lastmile_qr_scan"}, "lon": -77.02893366666666, "type": "electric_scooter", "fusion_lat": 0.0, "lat": 38.958411166666664, "name": "eebfee27c9937f97a93d032727551855", "fusion_lon": 0.0, "bike_id": "eebfee27c9937f97a93d032727551855", "is_disabled": 0, "is_reserved": 0}, {"rental_uris": {"ios": "https://dc.lft.to/lastmile_qr_scan", "android": "https://dc.lft.to/lastmile_qr_scan"}, "lon": -77.03607016666666, "type": "electric_scooter", "fusion_lat": 0.0, "lat": 38.9561575, "name": "042138501040876565ecd8b9d1baa9df", "fusion_lon": 0.0, "bike_id": "042138501040876565ecd8b9d1baa9df", "is_disabled": 0, "is_reserved": 0}, {"rental_uris": {"ios": "https://dc.lft.to/lastmile_qr_scan", "android": "https://dc.lft.to/lastmile_qr_scan"}, "lon": -77.04904416666666, "type": "electric_scooter", "fusion_lat": 0.0, "lat": 38.8974535, "name": "c213cf66ebfd6c01bc10e84a0049ddf0", "fusion_lon": 0.0, "bike_id": "c213cf66ebfd6c01bc10e84a0049ddf0", "is_disabled": 0, "is_reserved": 0}, {"rental_uris": {"ios": "https://dc.lft.to/lastmile_qr_scan", "android": "https://dc.lft.to/lastmile_qr_scan"}, "lon": -76.98729333333333, "type": "electric_scooter", "fusion_lat": 0.0, "lat": 38.86716883333333, "name": "cd4a65f9e1ee6fbca37e7c21ce3e6d3b", "fusion_lon": 0.0, "bike_id": "cd4a65f9e1ee6fbca37e7c21ce3e6d3b", "is_disabled": 0, "is_reserved": 0}, {"rental_uris": {"ios": "https://dc.lft.to/lastmile_qr_scan", "android": "https://dc.lft.to/lastmile_qr_scan"}, "lon": -77.05555733333334, "type": "electric_scooter", "fusion_lat": 0.0, "lat": 38.89973466666667, "name": "91b767aebd55c597459ff0202d4d042a", "fusion_lon": 0.0, "bike_id": "91b767aebd55c597459ff0202d4d042a", "is_disabled": 0, "is_reserved": 0}, {"rental_uris": {"ios": "https://dc.lft.to/lastmile_qr_scan", "android": "https://dc.lft.to/lastmile_qr_scan"}, "lon": -77.0322145, "type": "electric_scooter", "fusion_lat": 0.0, "lat": 38.89221466666667, "name": "85de2ed82e31760b213ba2e6b694d0f9", "fusion_lon": 0.0, "bike_id": "85de2ed82e31760b213ba2e6b694d0f9", "is_disabled": 0, "is_reserved": 0}, {"rental_uris": {"ios": "https://dc.lft.to/lastmile_qr_scan", "android": "https://dc.lft.to/lastmile_qr_scan"}, "lon": -76.999337, "type": "electric_scooter", "fusion_lat": 0.0, "lat": 38.896189666666665, "name": "32c81740632f303c2e5bfc90db35b9e7", "fusion_lon": 0.0, "bike_id": "32c81740632f303c2e5bfc90db35b9e7", "is_disabled": 0, "is_reserved": 0}, {"rental_uris": {"ios": "https://dc.lft.to/lastmile_qr_scan", "android": "https://dc.lft.to/lastmile_qr_scan"}, "lon": -77.04491383333334, "type": "electric_scooter", "fusion_lat": 0.0, "lat": 38.914153666666664, "name": "dc0370ff3f011d13ff2e96b33435b032", "fusion_lon": 0.0, "bike_id": "dc0370ff3f011d13ff2e96b33435b032", "is_disabled": 0, "is_reserved": 0}, {"rental_uris": {"ios": "https://dc.lft.to/lastmile_qr_scan", "android": "https://dc.lft.to/lastmile_qr_scan"}, "lon": -77.0246445, "type": "electric_scooter", "fusion_lat": 0.0, "lat": 38.919248833333334, "name": "529ce5afd2af1a44431d0a11b9d016bb", "fusion_lon": 0.0, "bike_id": "529ce5afd2af1a44431d0a11b9d016bb", "is_disabled": 0, "is_reserved": 0}, {"rental_uris": {"ios": "https://dc.lft.to/lastmile_qr_scan", "android": "https://dc.lft.to/lastmile_qr_scan"}, "lon": -77.0290175, "type": "electric_scooter", "fusion_lat": 0.0, "lat": 38.900746166666664, "name": "8595cc464b5c262fb8dc95e9c5ea7298", "fusion_lon": 0.0, "bike_id": "8595cc464b5c262fb8dc95e9c5ea7298", "is_disabled": 0, "is_reserved": 0}, {"rental_uris": {"ios": "https://dc.lft.to/lastmile_qr_scan", "android": "https://dc.lft.to/lastmile_qr_scan"}, "lon": -76.97995233333333, "type": "electric_scooter", "fusion_lat": 0.0, "lat": 38.90107183333333, "name": "280cb1a64ef211623116a76f3f6019fc", "fusion_lon": 0.0, "bike_id": "280cb1a64ef211623116a76f3f6019fc", "is_disabled": 0, "is_reserved": 0}, {"rental_uris": {"ios": "https://dc.lft.to/lastmile_qr_scan", "android": "https://dc.lft.to/lastmile_qr_scan"}, "lon": -77.04380833333333, "type": "electric_scooter", "fusion_lat": 0.0, "lat": 38.907172, "name": "36da1a111d07801b451caaa88e910128", "fusion_lon": 0.0, "bike_id": "36da1a111d07801b451caaa88e910128", "is_disabled": 0, "is_reserved": 0}, {"rental_uris": {"ios": "https://dc.lft.to/lastmile_qr_scan", "android": "https://dc.lft.to/lastmile_qr_scan"}, "lon": -76.99549683333333, "type": "electric_scooter", "fusion_lat": 0.0, "lat": 38.862358, "name": "2215fa938513990fb675c8a6914c5f67", "fusion_lon": 0.0, "bike_id": "2215fa938513990fb675c8a6914c5f67", "is_disabled": 0, "is_reserved": 0}, {"rental_uris": {"ios": "https://dc.lft.to/lastmile_qr_scan", "android": "https://dc.lft.to/lastmile_qr_scan"}, "lon": -77.03476816666667, "type": "electric_scooter", "fusion_lat": 0.0, "lat": 38.91814733333333, "name": "15737e0ce37fb9fd76f6ac1e4ad20cce", "fusion_lon": 0.0, "bike_id": "15737e0ce37fb9fd76f6ac1e4ad20cce", "is_disabled": 0, "is_reserved": 0}, {"rental_uris": {"ios": "https://dc.lft.to/lastmile_qr_scan", "android": "https://dc.lft.to/lastmile_qr_scan"}, "lon": -77.02010933333334, "type": "electric_scooter", "fusion_lat": 0.0, "lat": 38.937814333333336, "name": "3822047e937cd0dad4748a89c9bc332e", "fusion_lon": 0.0, "bike_id": "3822047e937cd0dad4748a89c9bc332e", "is_disabled": 0, "is_reserved": 0}, {"rental_uris": {"ios": "https://dc.lft.to/lastmile_qr_scan", "android": "https://dc.lft.to/lastmile_qr_scan"}, "lon": -76.99835716666666, "type": "electric_scooter", "fusion_lat": 0.0, "lat": 38.9003745, "name": "eee59e9c208d716b18fa38423a5f9df7", "fusion_lon": 0.0, "bike_id": "eee59e9c208d716b18fa38423a5f9df7", "is_disabled": 0, "is_reserved": 0}, {"rental_uris": {"ios": "https://dc.lft.to/lastmile_qr_scan", "android": "https://dc.lft.to/lastmile_qr_scan"}, "lon": -77.02483383333333, "type": "electric_scooter", "fusion_lat": 0.0, "lat": 38.917081333333336, "name": "3f1335e0a0b4400b3bd58d689bcdbe5b", "fusion_lon": 0.0, "bike_id": "3f1335e0a0b4400b3bd58d689bcdbe5b", "is_disabled": 0, "is_reserved": 0}, {"rental_uris": {"ios": "https://dc.lft.to/lastmile_qr_scan", "android": "https://dc.lft.to/lastmile_qr_scan"}, "lon": -77.05444133333333, "type": "electric_scooter", "fusion_lat": 0.0, "lat": 38.9281825, "name": "97702a9d37aad23394b9908bdcdd01ae", "fusion_lon": 0.0, "bike_id": "97702a9d37aad23394b9908bdcdd01ae", "is_disabled": 0, "is_reserved": 0}, {"rental_uris": {"ios": "https://dc.lft.to/lastmile_qr_scan", "android": "https://dc.lft.to/lastmile_qr_scan"}, "lon": -77.0103205, "type": "electric_scooter", "fusion_lat": 0.0, "lat": 38.918162333333335, "name": "79f3f92769bfb4c81fa8338932fa6818", "fusion_lon": 0.0, "bike_id": "79f3f92769bfb4c81fa8338932fa6818", "is_disabled": 0, "is_reserved": 0}, {"rental_uris": {"ios": "https://dc.lft.to/lastmile_qr_scan", "android": "https://dc.lft.to/lastmile_qr_scan"}, "lon": -77.03143483333334, "type": "electric_scooter", "fusion_lat": 0.0, "lat": 38.914071166666666, "name": "eb8086524d7afe58d0f8cad8e380bd55", "fusion_lon": 0.0, "bike_id": "eb8086524d7afe58d0f8cad8e380bd55", "is_disabled": 0, "is_reserved": 0}, {"rental_uris": {"ios": "https://dc.lft.to/lastmile_qr_scan", "android": "https://dc.lft.to/lastmile_qr_scan"}, "lon": -76.98995033333334, "type": "electric_scooter", "fusion_lat": 0.0, "lat": 38.903911, "name": "37a386f456d3b7a4a5856f6c9efa64ff", "fusion_lon": 0.0, "bike_id": "37a386f456d3b7a4a5856f6c9efa64ff", "is_disabled": 0, "is_reserved": 0}, {"rental_uris": {"ios": "https://dc.lft.to/lastmile_qr_scan", "android": "https://dc.lft.to/lastmile_qr_scan"}, "lon": -76.931734, "type": "electric_scooter", "fusion_lat": 0.0, "lat": 38.89882266666667, "name": "686c7912293d0a62a8b18206376ed83e", "fusion_lon": 0.0, "bike_id": "686c7912293d0a62a8b18206376ed83e", "is_disabled": 0, "is_reserved": 0}, {"rental_uris": {"ios": "https://dc.lft.to/lastmile_qr_scan", "android": "https://dc.lft.to/lastmile_qr_scan"}, "lon": -77.01895216666666, "type": "electric_scooter", "fusion_lat": 0.0, "lat": 38.9099435, "name": "425a134fc522ea5741dad114c5bbfdec", "fusion_lon": 0.0, "bike_id": "425a134fc522ea5741dad114c5bbfdec", "is_disabled": 0, "is_reserved": 0}, {"rental_uris": {"ios": "https://dc.lft.to/lastmile_qr_scan", "android": "https://dc.lft.to/lastmile_qr_scan"}, "lon": -77.03840116666667, "type": "electric_scooter", "fusion_lat": 0.0, "lat": 38.918225166666666, "name": "f7f787e103aa96614c823977f2e26ce0", "fusion_lon": 0.0, "bike_id": "f7f787e103aa96614c823977f2e26ce0", "is_disabled": 0, "is_reserved": 0}, {"rental_uris": {"ios": "https://dc.lft.to/lastmile_qr_scan", "android": "https://dc.lft.to/lastmile_qr_scan"}, "lon": -77.0265105, "type": "electric_scooter", "fusion_lat": 0.0, "lat": 38.8811585, "name": "10438d54b24ade38da341c9692b01f32", "fusion_lon": 0.0, "bike_id": "10438d54b24ade38da341c9692b01f32", "is_disabled": 0, "is_reserved": 0}, {"rental_uris": {"ios": "https://dc.lft.to/lastmile_qr_scan", "android": "https://dc.lft.to/lastmile_qr_scan"}, "lon": -77.00021783333334, "type": "electric_scooter", "fusion_lat": 0.0, "lat": 38.87653666666667, "name": "991f105362918218915d52e8ff6a50e5", "fusion_lon": 0.0, "bike_id": "991f105362918218915d52e8ff6a50e5", "is_disabled": 0, "is_reserved": 0}, {"rental_uris": {"ios": "https://dc.lft.to/lastmile_qr_scan", "android": "https://dc.lft.to/lastmile_qr_scan"}, "lon": -77.03241483333333, "type": "electric_scooter", "fusion_lat": 0.0, "lat": 38.934568666666664, "name": "641ab815d5ada5ed9a1006b6ff740668", "fusion_lon": 0.0, "bike_id": "641ab815d5ada5ed9a1006b6ff740668", "is_disabled": 0, "is_reserved": 0}, {"rental_uris": {"ios": "https://dc.lft.to/lastmile_qr_scan", "android": "https://dc.lft.to/lastmile_qr_scan"}, "lon": -76.99510133333334, "type": "electric_scooter", "fusion_lat": 0.0, "lat": 38.844685, "name": "ffde4c9b6db1b1c95e2d6f1377e06fcb", "fusion_lon": 0.0, "bike_id": "ffde4c9b6db1b1c95e2d6f1377e06fcb", "is_disabled": 0, "is_reserved": 0}, {"rental_uris": {"ios": "https://dc.lft.to/lastmile_qr_scan", "android": "https://dc.lft.to/lastmile_qr_scan"}, "lon": -77.0317275, "type": "electric_scooter", "fusion_lat": 0.0, "lat": 38.893369166666666, "name": "e4aa0f782d8d5e4f522127376aaa2952", "fusion_lon": 0.0, "bike_id": "e4aa0f782d8d5e4f522127376aaa2952", "is_disabled": 0, "is_reserved": 0}, {"rental_uris": {"ios": "https://dc.lft.to/lastmile_qr_scan", "android": "https://dc.lft.to/lastmile_qr_scan"}, "lon": -77.03044966666667, "type": "electric_scooter", "fusion_lat": 0.0, "lat": 38.8843135, "name": "d9795ec381ec399a08c5b38c9ef330fd", "fusion_lon": 0.0, "bike_id": "d9795ec381ec399a08c5b38c9ef330fd", "is_disabled": 0, "is_reserved": 0}, {"rental_uris": {"ios": "https://dc.lft.to/lastmile_qr_scan", "android": "https://dc.lft.to/lastmile_qr_scan"}, "lon": -77.00643933333333, "type": "electric_scooter", "fusion_lat": 0.0, "lat": 38.883111, "name": "05d9962816a83af01204225685d0a128", "fusion_lon": 0.0, "bike_id": "05d9962816a83af01204225685d0a128", "is_disabled": 0, "is_reserved": 0}, {"rental_uris": {"ios": "https://dc.lft.to/lastmile_qr_scan", "android": "https://dc.lft.to/lastmile_qr_scan"}, "lon": -77.02561316666667, "type": "electric_scooter", "fusion_lat": 0.0, "lat": 38.9014705, "name": "bc0e5d0392217e1ba266746de3c9dde1", "fusion_lon": 0.0, "bike_id": "bc0e5d0392217e1ba266746de3c9dde1", "is_disabled": 0, "is_reserved": 0}, {"rental_uris": {"ios": "https://dc.lft.to/lastmile_qr_scan", "android": "https://dc.lft.to/lastmile_qr_scan"}, "lon": -76.97604083333333, "type": "electric_scooter", "fusion_lat": 0.0, "lat": 38.9020955, "name": "a3dbf03994746ac0d20a45601aaaf706", "fusion_lon": 0.0, "bike_id": "a3dbf03994746ac0d20a45601aaaf706", "is_disabled": 0, "is_reserved": 0}, {"rental_uris": {"ios": "https://dc.lft.to/lastmile_qr_scan", "android": "https://dc.lft.to/lastmile_qr_scan"}, "lon": -76.98843166666667, "type": "electric_bike", "fusion_lat": 0.0, "lat": 38.84270883333333, "name": "5a60a5129c7a07bc06323929d4141a75", "fusion_lon": 0.0, "bike_id": "5a60a5129c7a07bc06323929d4141a75", "is_disabled": 0, "is_reserved": 0}, {"rental_uris": {"ios": "https://dc.lft.to/lastmile_qr_scan", "android": "https://dc.lft.to/lastmile_qr_scan"}, "lon": -77.01200966666667, "type": "electric_scooter", "fusion_lat": 0.0, "lat": 38.90009966666667, "name": "76b64cae41c179587ab741b0f47e6427", "fusion_lon": 0.0, "bike_id": "76b64cae41c179587ab741b0f47e6427", "is_disabled": 0, "is_reserved": 0}, {"rental_uris": {"ios": "https://dc.lft.to/lastmile_qr_scan", "android": "https://dc.lft.to/lastmile_qr_scan"}, "lon": -76.9953745, "type": "electric_scooter", "fusion_lat": 0.0, "lat": 38.9266895, "name": "a4846705431cdb68f1eccaebdb4241d3", "fusion_lon": 0.0, "bike_id": "a4846705431cdb68f1eccaebdb4241d3", "is_disabled": 0, "is_reserved": 0}, {"rental_uris": {"ios": "https://dc.lft.to/lastmile_qr_scan", "android": "https://dc.lft.to/lastmile_qr_scan"}, "lon": -77.02691866666666, "type": "electric_bike", "fusion_lat": 0.0, "lat": 38.972204833333336, "name": "eb3cf0e754be27bbcf2e8b974d0d6d45", "fusion_lon": 0.0, "bike_id": "eb3cf0e754be27bbcf2e8b974d0d6d45", "is_disabled": 0, "is_reserved": 0}, {"rental_uris": {"ios": "https://dc.lft.to/lastmile_qr_scan", "android": "https://dc.lft.to/lastmile_qr_scan"}, "lon": -77.02712233333334, "type": "electric_scooter", "fusion_lat": 0.0, "lat": 38.920647, "name": "2532888155d1320cf33068421dd58579", "fusion_lon": 0.0, "bike_id": "2532888155d1320cf33068421dd58579", "is_disabled": 0, "is_reserved": 0}, {"rental_uris": {"ios": "https://dc.lft.to/lastmile_qr_scan", "android": "https://dc.lft.to/lastmile_qr_scan"}, "lon": -76.99064133333333, "type": "electric_scooter", "fusion_lat": 0.0, "lat": 38.863564, "name": "2630c2c050b397a876f8dad08dc6c3f8", "fusion_lon": 0.0, "bike_id": "2630c2c050b397a876f8dad08dc6c3f8", "is_disabled": 0, "is_reserved": 0}, {"rental_uris": {"ios": "https://dc.lft.to/lastmile_qr_scan", "android": "https://dc.lft.to/lastmile_qr_scan"}, "lon": -77.0274925, "type": "electric_scooter", "fusion_lat": 0.0, "lat": 38.96625616666667, "name": "a866e2b254ad6d56ab8ab554198901de", "fusion_lon": 0.0, "bike_id": "a866e2b254ad6d56ab8ab554198901de", "is_disabled": 0, "is_reserved": 0}, {"rental_uris": {"ios": "https://dc.lft.to/lastmile_qr_scan", "android": "https://dc.lft.to/lastmile_qr_scan"}, "lon": -77.028078, "type": "electric_scooter", "fusion_lat": 0.0, "lat": 38.9092465, "name": "72291f2be08969e5dd8114c485bff59b", "fusion_lon": 0.0, "bike_id": "72291f2be08969e5dd8114c485bff59b", "is_disabled": 0, "is_reserved": 0}, {"rental_uris": {"ios": "https://dc.lft.to/lastmile_qr_scan", "android": "https://dc.lft.to/lastmile_qr_scan"}, "lon": -77.04635316666666, "type": "electric_scooter", "fusion_lat": 0.0, "lat": 38.909623833333335, "name": "0192e4c47a7abcdcfa0648766d4ad548", "fusion_lon": 0.0, "bike_id": "0192e4c47a7abcdcfa0648766d4ad548", "is_disabled": 0, "is_reserved": 0}, {"rental_uris": {"ios": "https://dc.lft.to/lastmile_qr_scan", "android": "https://dc.lft.to/lastmile_qr_scan"}, "lon": -76.970347, "type": "electric_scooter", "fusion_lat": 0.0, "lat": 38.90311783333333, "name": "3434c1b580c4688c3675c4f04e0a0148", "fusion_lon": 0.0, "bike_id": "3434c1b580c4688c3675c4f04e0a0148", "is_disabled": 0, "is_reserved": 0}, {"rental_uris": {"ios": "https://dc.lft.to/lastmile_qr_scan", "android": "https://dc.lft.to/lastmile_qr_scan"}, "lon": -77.02181116666667, "type": "electric_scooter", "fusion_lat": 0.0, "lat": 38.91135216666667, "name": "7163387ba7a95eaa501eaa92cf4c728d", "fusion_lon": 0.0, "bike_id": "7163387ba7a95eaa501eaa92cf4c728d", "is_disabled": 0, "is_reserved": 0}, {"rental_uris": {"ios": "https://dc.lft.to/lastmile_qr_scan", "android": "https://dc.lft.to/lastmile_qr_scan"}, "lon": -77.02629366666666, "type": "electric_scooter", "fusion_lat": 0.0, "lat": 38.88407633333333, "name": "974d7698313f526eed4a6ac96b0db7b9", "fusion_lon": 0.0, "bike_id": "974d7698313f526eed4a6ac96b0db7b9", "is_disabled": 0, "is_reserved": 0}, {"rental_uris": {"ios": "https://dc.lft.to/lastmile_qr_scan", "android": "https://dc.lft.to/lastmile_qr_scan"}, "lon": -76.9733135, "type": "electric_bike", "fusion_lat": 0.0, "lat": 38.85063316666667, "name": "86b89848fb4ec5158d419562f71aa92a", "fusion_lon": 0.0, "bike_id": "86b89848fb4ec5158d419562f71aa92a", "is_disabled": 0, "is_reserved": 0}, {"rental_uris": {"ios": "https://dc.lft.to/lastmile_qr_scan", "android": "https://dc.lft.to/lastmile_qr_scan"}, "lon": -77.04540916666667, "type": "electric_scooter", "fusion_lat": 0.0, "lat": 38.91943883333333, "name": "bde5461940ded63b666c67666e44c043", "fusion_lon": 0.0, "bike_id": "bde5461940ded63b666c67666e44c043", "is_disabled": 0, "is_reserved": 0}, {"rental_uris": {"ios": "https://dc.lft.to/lastmile_qr_scan", "android": "https://dc.lft.to/lastmile_qr_scan"}, "lon": -77.03810333333334, "type": "electric_scooter", "fusion_lat": 0.0, "lat": 38.91420983333333, "name": "fe8a939a6dcdf1b2bc829d60745df86a", "fusion_lon": 0.0, "bike_id": "fe8a939a6dcdf1b2bc829d60745df86a", "is_disabled": 0, "is_reserved": 0}, {"rental_uris": {"ios": "https://dc.lft.to/lastmile_qr_scan", "android": "https://dc.lft.to/lastmile_qr_scan"}, "lon": -77.0465695, "type": "electric_scooter", "fusion_lat": 0.0, "lat": 38.914305, "name": "890ce958247d3e2aec55fbfca04eccbd", "fusion_lon": 0.0, "bike_id": "890ce958247d3e2aec55fbfca04eccbd", "is_disabled": 0, "is_reserved": 0}, {"rental_uris": {"ios": "https://dc.lft.to/lastmile_qr_scan", "android": "https://dc.lft.to/lastmile_qr_scan"}, "lon": -77.0526905, "type": "electric_scooter", "fusion_lat": 0.0, "lat": 38.91009966666667, "name": "6c635204fbe5aafadecc736f457b0084", "fusion_lon": 0.0, "bike_id": "6c635204fbe5aafadecc736f457b0084", "is_disabled": 0, "is_reserved": 0}, {"rental_uris": {"ios": "https://dc.lft.to/lastmile_qr_scan", "android": "https://dc.lft.to/lastmile_qr_scan"}, "lon": -77.03255466666667, "type": "electric_scooter", "fusion_lat": 0.0, "lat": 38.91819533333334, "name": "ae7621d1553df1da8830bcb8f2763361", "fusion_lon": 0.0, "bike_id": "ae7621d1553df1da8830bcb8f2763361", "is_disabled": 0, "is_reserved": 0}, {"rental_uris": {"ios": "https://dc.lft.to/lastmile_qr_scan", "android": "https://dc.lft.to/lastmile_qr_scan"}, "lon": -77.0575455, "type": "electric_scooter", "fusion_lat": 0.0, "lat": 38.934147, "name": "115e5a2e18e7238b7ec5b624ac3db548", "fusion_lon": 0.0, "bike_id": "115e5a2e18e7238b7ec5b624ac3db548", "is_disabled": 0, "is_reserved": 0}, {"rental_uris": {"ios": "https://dc.lft.to/lastmile_qr_scan", "android": "https://dc.lft.to/lastmile_qr_scan"}, "lon": -77.0415505, "type": "electric_scooter", "fusion_lat": 0.0, "lat": 38.92334983333333, "name": "ba87d46bc99ddcf24a63687cbb481479", "fusion_lon": 0.0, "bike_id": "ba87d46bc99ddcf24a63687cbb481479", "is_disabled": 0, "is_reserved": 0}, {"rental_uris": {"ios": "https://dc.lft.to/lastmile_qr_scan", "android": "https://dc.lft.to/lastmile_qr_scan"}, "lon": -77.03408666666667, "type": "electric_scooter", "fusion_lat": 0.0, "lat": 38.91921833333333, "name": "15859f2a7cb4a7a398e16ad7235e4643", "fusion_lon": 0.0, "bike_id": "15859f2a7cb4a7a398e16ad7235e4643", "is_disabled": 0, "is_reserved": 0}, {"rental_uris": {"ios": "https://dc.lft.to/lastmile_qr_scan", "android": "https://dc.lft.to/lastmile_qr_scan"}, "lon": -77.04393783333333, "type": "electric_scooter", "fusion_lat": 0.0, "lat": 38.9108485, "name": "cab3f55f76ddc6434a30770ac23edd61", "fusion_lon": 0.0, "bike_id": "cab3f55f76ddc6434a30770ac23edd61", "is_disabled": 0, "is_reserved": 0}, {"rental_uris": {"ios": "https://dc.lft.to/lastmile_qr_scan", "android": "https://dc.lft.to/lastmile_qr_scan"}, "lon": -76.9991815, "type": "electric_scooter", "fusion_lat": 0.0, "lat": 38.90943983333333, "name": "a0ed45bca9e62faea0cbd2b3d59998a9", "fusion_lon": 0.0, "bike_id": "a0ed45bca9e62faea0cbd2b3d59998a9", "is_disabled": 0, "is_reserved": 0}, {"rental_uris": {"ios": "https://dc.lft.to/lastmile_qr_scan", "android": "https://dc.lft.to/lastmile_qr_scan"}, "lon": -77.04244566666667, "type": "electric_scooter", "fusion_lat": 0.0, "lat": 38.90567633333333, "name": "2e0bc059cfbb059605036189a09b8029", "fusion_lon": 0.0, "bike_id": "2e0bc059cfbb059605036189a09b8029", "is_disabled": 0, "is_reserved": 0}, {"rental_uris": {"ios": "https://dc.lft.to/lastmile_qr_scan", "android": "https://dc.lft.to/lastmile_qr_scan"}, "lon": -77.041128, "type": "electric_scooter", "fusion_lat": 0.0, "lat": 38.915657833333334, "name": "9e793a2c565db20c62f5b9452c502bcc", "fusion_lon": 0.0, "bike_id": "9e793a2c565db20c62f5b9452c502bcc", "is_disabled": 0, "is_reserved": 0}, {"rental_uris": {"ios": "https://dc.lft.to/lastmile_qr_scan", "android": "https://dc.lft.to/lastmile_qr_scan"}, "lon": -77.0684845, "type": "electric_scooter", "fusion_lat": 0.0, "lat": 38.91732316666667, "name": "10ab19ed5970e02eeb418400e7182946", "fusion_lon": 0.0, "bike_id": "10ab19ed5970e02eeb418400e7182946", "is_disabled": 0, "is_reserved": 0}, {"rental_uris": {"ios": "https://dc.lft.to/lastmile_qr_scan", "android": "https://dc.lft.to/lastmile_qr_scan"}, "lon": -77.0385355, "type": "electric_scooter", "fusion_lat": 0.0, "lat": 38.9325785, "name": "e120df5333457dc160aedd143df5318f", "fusion_lon": 0.0, "bike_id": "e120df5333457dc160aedd143df5318f", "is_disabled": 0, "is_reserved": 0}, {"rental_uris": {"ios": "https://dc.lft.to/lastmile_qr_scan", "android": "https://dc.lft.to/lastmile_qr_scan"}, "lon": -77.02354133333333, "type": "electric_scooter", "fusion_lat": 0.0, "lat": 38.911095, "name": "e4f0697cc4b02da2bff6ff3365e5fb2b", "fusion_lon": 0.0, "bike_id": "e4f0697cc4b02da2bff6ff3365e5fb2b", "is_disabled": 0, "is_reserved": 0}, {"rental_uris": {"ios": "https://dc.lft.to/lastmile_qr_scan", "android": "https://dc.lft.to/lastmile_qr_scan"}, "lon": -77.03739, "type": "electric_scooter", "fusion_lat": 0.0, "lat": 38.929175666666666, "name": "1a0b5fa01b61406604bc6edf9e998738", "fusion_lon": 0.0, "bike_id": "1a0b5fa01b61406604bc6edf9e998738", "is_disabled": 0, "is_reserved": 0}, {"rental_uris": {"ios": "https://dc.lft.to/lastmile_qr_scan", "android": "https://dc.lft.to/lastmile_qr_scan"}, "lon": -77.0283795, "type": "electric_scooter", "fusion_lat": 0.0, "lat": 38.88770316666667, "name": "35301fb2957578b3d197298055bf1a90", "fusion_lon": 0.0, "bike_id": "35301fb2957578b3d197298055bf1a90", "is_disabled": 0, "is_reserved": 0}, {"rental_uris": {"ios": "https://dc.lft.to/lastmile_qr_scan", "android": "https://dc.lft.to/lastmile_qr_scan"}, "lon": -77.10623266666667, "type": "electric_bike", "fusion_lat": 0.0, "lat": 38.87325416666667, "name": "fd8b551ccb28305430198abadeaefc53", "fusion_lon": 0.0, "bike_id": "fd8b551ccb28305430198abadeaefc53", "is_disabled": 0, "is_reserved": 0}, {"rental_uris": {"ios": "https://dc.lft.to/lastmile_qr_scan", "android": "https://dc.lft.to/lastmile_qr_scan"}, "lon": -76.93175833333333, "type": "electric_scooter", "fusion_lat": 0.0, "lat": 38.89884633333333, "name": "d9bcfde59ba385a4937e5c694db424fb", "fusion_lon": 0.0, "bike_id": "d9bcfde59ba385a4937e5c694db424fb", "is_disabled": 0, "is_reserved": 0}, {"rental_uris": {"ios": "https://dc.lft.to/lastmile_qr_scan", "android": "https://dc.lft.to/lastmile_qr_scan"}, "lon": -77.027101, "type": "electric_bike", "fusion_lat": 0.0, "lat": 38.92485583333333, "name": "549d27d8768f431def50fa344a0077d6", "fusion_lon": 0.0, "bike_id": "549d27d8768f431def50fa344a0077d6", "is_disabled": 0, "is_reserved": 0}, {"rental_uris": {"ios": "https://dc.lft.to/lastmile_qr_scan", "android": "https://dc.lft.to/lastmile_qr_scan"}, "lon": -76.91922883333334, "type": "electric_scooter", "fusion_lat": 0.0, "lat": 38.8907975, "name": "3e403d7314e48b8af1925045d664d593", "fusion_lon": 0.0, "bike_id": "3e403d7314e48b8af1925045d664d593", "is_disabled": 0, "is_reserved": 0}, {"rental_uris": {"ios": "https://dc.lft.to/lastmile_qr_scan", "android": "https://dc.lft.to/lastmile_qr_scan"}, "lon": -77.02761966666667, "type": "electric_scooter", "fusion_lat": 0.0, "lat": 38.913452666666664, "name": "211bfb2c95d30e64939438fec78ef751", "fusion_lon": 0.0, "bike_id": "211bfb2c95d30e64939438fec78ef751", "is_disabled": 0, "is_reserved": 0}, {"rental_uris": {"ios": "https://dc.lft.to/lastmile_qr_scan", "android": "https://dc.lft.to/lastmile_qr_scan"}, "lon": -77.051443, "type": "electric_scooter", "fusion_lat": 0.0, "lat": 38.90207866666667, "name": "3eea5f91e8e22d67e03f20e76d98931f", "fusion_lon": 0.0, "bike_id": "3eea5f91e8e22d67e03f20e76d98931f", "is_disabled": 0, "is_reserved": 0}, {"rental_uris": {"ios": "https://dc.lft.to/lastmile_qr_scan", "android": "https://dc.lft.to/lastmile_qr_scan"}, "lon": -77.02287683333333, "type": "electric_scooter", "fusion_lat": 0.0, "lat": 38.956429, "name": "b15fb7b2147e0a7ed0662b234b86f289", "fusion_lon": 0.0, "bike_id": "b15fb7b2147e0a7ed0662b234b86f289", "is_disabled": 0, "is_reserved": 0}, {"rental_uris": {"ios": "https://dc.lft.to/lastmile_qr_scan", "android": "https://dc.lft.to/lastmile_qr_scan"}, "lon": -77.0382295, "type": "electric_scooter", "fusion_lat": 0.0, "lat": 38.920716666666664, "name": "84e8ff997efbe4101ffb198d0c683db2", "fusion_lon": 0.0, "bike_id": "84e8ff997efbe4101ffb198d0c683db2", "is_disabled": 0, "is_reserved": 0}, {"rental_uris": {"ios": "https://dc.lft.to/lastmile_qr_scan", "android": "https://dc.lft.to/lastmile_qr_scan"}, "lon": -76.92371233333333, "type": "electric_bike", "fusion_lat": 0.0, "lat": 38.883768333333336, "name": "c571314e42ba7101bd82c34e69f517d1", "fusion_lon": 0.0, "bike_id": "c571314e42ba7101bd82c34e69f517d1", "is_disabled": 0, "is_reserved": 0}, {"rental_uris": {"ios": "https://dc.lft.to/lastmile_qr_scan", "android": "https://dc.lft.to/lastmile_qr_scan"}, "lon": -76.99586366666666, "type": "electric_scooter", "fusion_lat": 0.0, "lat": 38.955015, "name": "ad166f5b48b8b584d3e3a5bcd92db96c", "fusion_lon": 0.0, "bike_id": "ad166f5b48b8b584d3e3a5bcd92db96c", "is_disabled": 0, "is_reserved": 0}, {"rental_uris": {"ios": "https://dc.lft.to/lastmile_qr_scan", "android": "https://dc.lft.to/lastmile_qr_scan"}, "lon": -77.03987883333333, "type": "electric_bike", "fusion_lat": 0.0, "lat": 38.9036605, "name": "623ea5aecd1106bf6347bfd1fb8fdac3", "fusion_lon": 0.0, "bike_id": "623ea5aecd1106bf6347bfd1fb8fdac3", "is_disabled": 0, "is_reserved": 0}, {"rental_uris": {"ios": "https://dc.lft.to/lastmile_qr_scan", "android": "https://dc.lft.to/lastmile_qr_scan"}, "lon": -77.0449595, "type": "electric_scooter", "fusion_lat": 0.0, "lat": 38.9110855, "name": "e85b22d15ad7285eb9bbac738878f0a4", "fusion_lon": 0.0, "bike_id": "e85b22d15ad7285eb9bbac738878f0a4", "is_disabled": 0, "is_reserved": 0}, {"rental_uris": {"ios": "https://dc.lft.to/lastmile_qr_scan", "android": "https://dc.lft.to/lastmile_qr_scan"}, "lon": -77.06297883333333, "type": "electric_scooter", "fusion_lat": 0.0, "lat": 38.905966166666666, "name": "30b57b8f87f409026f667445e147dc6e", "fusion_lon": 0.0, "bike_id": "30b57b8f87f409026f667445e147dc6e", "is_disabled": 0, "is_reserved": 0}, {"rental_uris": {"ios": "https://dc.lft.to/lastmile_qr_scan", "android": "https://dc.lft.to/lastmile_qr_scan"}, "lon": -77.03270383333333, "type": "electric_scooter", "fusion_lat": 0.0, "lat": 38.9071805, "name": "4830218ec0f352bd0933426db7cc9f7f", "fusion_lon": 0.0, "bike_id": "4830218ec0f352bd0933426db7cc9f7f", "is_disabled": 0, "is_reserved": 0}, {"rental_uris": {"ios": "https://dc.lft.to/lastmile_qr_scan", "android": "https://dc.lft.to/lastmile_qr_scan"}, "lon": -77.0235665, "type": "electric_scooter", "fusion_lat": 0.0, "lat": 38.920649, "name": "f5648961d7ad1bd5fd6c562a4e6aedd5", "fusion_lon": 0.0, "bike_id": "f5648961d7ad1bd5fd6c562a4e6aedd5", "is_disabled": 0, "is_reserved": 0}, {"rental_uris": {"ios": "https://dc.lft.to/lastmile_qr_scan", "android": "https://dc.lft.to/lastmile_qr_scan"}, "lon": -76.99570133333333, "type": "electric_scooter", "fusion_lat": 0.0, "lat": 38.900343, "name": "81c9e0d0db129ab5c7fce880db742b85", "fusion_lon": 0.0, "bike_id": "81c9e0d0db129ab5c7fce880db742b85", "is_disabled": 0, "is_reserved": 0}, {"rental_uris": {"ios": "https://dc.lft.to/lastmile_qr_scan", "android": "https://dc.lft.to/lastmile_qr_scan"}, "lon": -77.024044, "type": "electric_scooter", "fusion_lat": 0.0, "lat": 38.92085866666667, "name": "a1d2b38840a71c0b41959868b749a656", "fusion_lon": 0.0, "bike_id": "a1d2b38840a71c0b41959868b749a656", "is_disabled": 0, "is_reserved": 0}, {"rental_uris": {"ios": "https://dc.lft.to/lastmile_qr_scan", "android": "https://dc.lft.to/lastmile_qr_scan"}, "lon": -77.047895, "type": "electric_scooter", "fusion_lat": 0.0, "lat": 38.8937295, "name": "59b80a53738bb8fcfa66161432294f48", "fusion_lon": 0.0, "bike_id": "59b80a53738bb8fcfa66161432294f48", "is_disabled": 0, "is_reserved": 0}, {"rental_uris": {"ios": "https://dc.lft.to/lastmile_qr_scan", "android": "https://dc.lft.to/lastmile_qr_scan"}, "lon": -77.0316765, "type": "electric_scooter", "fusion_lat": 0.0, "lat": 38.893806833333336, "name": "c2b6e0a7e4f3a195ece7c6b62feaccd8", "fusion_lon": 0.0, "bike_id": "c2b6e0a7e4f3a195ece7c6b62feaccd8", "is_disabled": 0, "is_reserved": 0}, {"rental_uris": {"ios": "https://dc.lft.to/lastmile_qr_scan", "android": "https://dc.lft.to/lastmile_qr_scan"}, "lon": -77.03856766666667, "type": "electric_scooter", "fusion_lat": 0.0, "lat": 38.91172266666667, "name": "3454cd97d87a270ecdbf89f00c077fc4", "fusion_lon": 0.0, "bike_id": "3454cd97d87a270ecdbf89f00c077fc4", "is_disabled": 0, "is_reserved": 0}, {"rental_uris": {"ios": "https://dc.lft.to/lastmile_qr_scan", "android": "https://dc.lft.to/lastmile_qr_scan"}, "lon": -77.06288333333333, "type": "electric_scooter", "fusion_lat": 0.0, "lat": 38.90481533333333, "name": "e7176399d774bd18453068892dc2d1dc", "fusion_lon": 0.0, "bike_id": "e7176399d774bd18453068892dc2d1dc", "is_disabled": 0, "is_reserved": 0}, {"rental_uris": {"ios": "https://dc.lft.to/lastmile_qr_scan", "android": "https://dc.lft.to/lastmile_qr_scan"}, "lon": -77.0198145, "type": "electric_scooter", "fusion_lat": 0.0, "lat": 38.90254616666667, "name": "4ede30b6079d14c45c65138a77c6c415", "fusion_lon": 0.0, "bike_id": "4ede30b6079d14c45c65138a77c6c415", "is_disabled": 0, "is_reserved": 0}, {"rental_uris": {"ios": "https://dc.lft.to/lastmile_qr_scan", "android": "https://dc.lft.to/lastmile_qr_scan"}, "lon": -77.042002, "type": "electric_scooter", "fusion_lat": 0.0, "lat": 38.9187965, "name": "7eca651c9bb8fcfac25674ff7c280364", "fusion_lon": 0.0, "bike_id": "7eca651c9bb8fcfac25674ff7c280364", "is_disabled": 0, "is_reserved": 0}, {"rental_uris": {"ios": "https://dc.lft.to/lastmile_qr_scan", "android": "https://dc.lft.to/lastmile_qr_scan"}, "lon": -77.00807933333333, "type": "electric_scooter", "fusion_lat": 0.0, "lat": 38.905801333333336, "name": "7f2bf36290ac45dc2402356bbc26a36c", "fusion_lon": 0.0, "bike_id": "7f2bf36290ac45dc2402356bbc26a36c", "is_disabled": 0, "is_reserved": 0}, {"rental_uris": {"ios": "https://dc.lft.to/lastmile_qr_scan", "android": "https://dc.lft.to/lastmile_qr_scan"}, "lon": -77.042633, "type": "electric_scooter", "fusion_lat": 0.0, "lat": 38.90289, "name": "8844e00be00d4cf0408d28f574adf04c", "fusion_lon": 0.0, "bike_id": "8844e00be00d4cf0408d28f574adf04c", "is_disabled": 0, "is_reserved": 0}, {"rental_uris": {"ios": "https://dc.lft.to/lastmile_qr_scan", "android": "https://dc.lft.to/lastmile_qr_scan"}, "lon": -77.0490395, "type": "electric_scooter", "fusion_lat": 0.0, "lat": 38.9053665, "name": "3812b290d673127dcf698b0174415897", "fusion_lon": 0.0, "bike_id": "3812b290d673127dcf698b0174415897", "is_disabled": 0, "is_reserved": 0}, {"rental_uris": {"ios": "https://dc.lft.to/lastmile_qr_scan", "android": "https://dc.lft.to/lastmile_qr_scan"}, "lon": -77.10682766666666, "type": "electric_bike", "fusion_lat": 0.0, "lat": 38.935810333333336, "name": "9afe69c1d5042f3c7316a9b28a555231", "fusion_lon": 0.0, "bike_id": "9afe69c1d5042f3c7316a9b28a555231", "is_disabled": 0, "is_reserved": 0}, {"rental_uris": {"ios": "https://dc.lft.to/lastmile_qr_scan", "android": "https://dc.lft.to/lastmile_qr_scan"}, "lon": -77.02713983333334, "type": "electric_scooter", "fusion_lat": 0.0, "lat": 38.906718833333336, "name": "bae843708c6903f8a9adea074d07ef17", "fusion_lon": 0.0, "bike_id": "bae843708c6903f8a9adea074d07ef17", "is_disabled": 0, "is_reserved": 0}, {"rental_uris": {"ios": "https://dc.lft.to/lastmile_qr_scan", "android": "https://dc.lft.to/lastmile_qr_scan"}, "lon": -77.04475866666667, "type": "electric_scooter", "fusion_lat": 0.0, "lat": 38.9120555, "name": "4a32feea49005a3c4234bac63ebc3d2b", "fusion_lon": 0.0, "bike_id": "4a32feea49005a3c4234bac63ebc3d2b", "is_disabled": 0, "is_reserved": 0}, {"rental_uris": {"ios": "https://dc.lft.to/lastmile_qr_scan", "android": "https://dc.lft.to/lastmile_qr_scan"}, "lon": -77.02413783333333, "type": "electric_scooter", "fusion_lat": 0.0, "lat": 38.9042895, "name": "63431b930559aa467cde3401aac99f52", "fusion_lon": 0.0, "bike_id": "63431b930559aa467cde3401aac99f52", "is_disabled": 0, "is_reserved": 0}, {"rental_uris": {"ios": "https://dc.lft.to/lastmile_qr_scan", "android": "https://dc.lft.to/lastmile_qr_scan"}, "lon": -77.04661966666667, "type": "electric_scooter", "fusion_lat": 0.0, "lat": 38.89337183333333, "name": "c8d9eaf6eb8f7233f15d2568a6363b30", "fusion_lon": 0.0, "bike_id": "c8d9eaf6eb8f7233f15d2568a6363b30", "is_disabled": 0, "is_reserved": 0}, {"rental_uris": {"ios": "https://dc.lft.to/lastmile_qr_scan", "android": "https://dc.lft.to/lastmile_qr_scan"}, "lon": -76.99156916666666, "type": "electric_scooter", "fusion_lat": 0.0, "lat": 38.90035666666667, "name": "00274bc987be6bb54bfb4c0739df15c2", "fusion_lon": 0.0, "bike_id": "00274bc987be6bb54bfb4c0739df15c2", "is_disabled": 0, "is_reserved": 0}, {"rental_uris": {"ios": "https://dc.lft.to/lastmile_qr_scan", "android": "https://dc.lft.to/lastmile_qr_scan"}, "lon": -77.01086716666667, "type": "electric_scooter", "fusion_lat": 0.0, "lat": 38.89399816666667, "name": "c5748dcfc2f752b77fc367190f3594a2", "fusion_lon": 0.0, "bike_id": "c5748dcfc2f752b77fc367190f3594a2", "is_disabled": 0, "is_reserved": 0}, {"rental_uris": {"ios": "https://dc.lft.to/lastmile_qr_scan", "android": "https://dc.lft.to/lastmile_qr_scan"}, "lon": -77.03222283333334, "type": "electric_scooter", "fusion_lat": 0.0, "lat": 38.89223366666667, "name": "feecbc2ae6fc2f05776d0b68ddc2473b", "fusion_lon": 0.0, "bike_id": "feecbc2ae6fc2f05776d0b68ddc2473b", "is_disabled": 0, "is_reserved": 0}, {"rental_uris": {"ios": "https://dc.lft.to/lastmile_qr_scan", "android": "https://dc.lft.to/lastmile_qr_scan"}, "lon": -77.03076816666666, "type": "electric_scooter", "fusion_lat": 0.0, "lat": 38.90803, "name": "9d632dfeba6c42ee174e52e3d1b74b18", "fusion_lon": 0.0, "bike_id": "9d632dfeba6c42ee174e52e3d1b74b18", "is_disabled": 0, "is_reserved": 0}, {"rental_uris": {"ios": "https://dc.lft.to/lastmile_qr_scan", "android": "https://dc.lft.to/lastmile_qr_scan"}, "lon": -77.05324683333333, "type": "electric_scooter", "fusion_lat": 0.0, "lat": 38.905021, "name": "7fb7dba44938d2abd5c4a525af4491be", "fusion_lon": 0.0, "bike_id": "7fb7dba44938d2abd5c4a525af4491be", "is_disabled": 0, "is_reserved": 0}, {"rental_uris": {"ios": "https://dc.lft.to/lastmile_qr_scan", "android": "https://dc.lft.to/lastmile_qr_scan"}, "lon": -77.03079183333334, "type": "electric_scooter", "fusion_lat": 0.0, "lat": 38.899733166666664, "name": "e10d0f020a43034ad4e7a66ceca74b3c", "fusion_lon": 0.0, "bike_id": "e10d0f020a43034ad4e7a66ceca74b3c", "is_disabled": 0, "is_reserved": 0}, {"rental_uris": {"ios": "https://dc.lft.to/lastmile_qr_scan", "android": "https://dc.lft.to/lastmile_qr_scan"}, "lon": -77.04474583333334, "type": "electric_scooter", "fusion_lat": 0.0, "lat": 38.908895, "name": "d81fe0f743660c0beeb92d903ceeb043", "fusion_lon": 0.0, "bike_id": "d81fe0f743660c0beeb92d903ceeb043", "is_disabled": 0, "is_reserved": 0}, {"rental_uris": {"ios": "https://dc.lft.to/lastmile_qr_scan", "android": "https://dc.lft.to/lastmile_qr_scan"}, "lon": -77.03372516666667, "type": "electric_scooter", "fusion_lat": 0.0, "lat": 38.9097965, "name": "891958a44661c5f6c924aee86e61124b", "fusion_lon": 0.0, "bike_id": "891958a44661c5f6c924aee86e61124b", "is_disabled": 0, "is_reserved": 0}, {"rental_uris": {"ios": "https://dc.lft.to/lastmile_qr_scan", "android": "https://dc.lft.to/lastmile_qr_scan"}, "lon": -76.99771633333333, "type": "electric_scooter", "fusion_lat": 0.0, "lat": 38.9227165, "name": "868ff61b53dfe4982eda865e37d6ec9e", "fusion_lon": 0.0, "bike_id": "868ff61b53dfe4982eda865e37d6ec9e", "is_disabled": 0, "is_reserved": 0}, {"rental_uris": {"ios": "https://dc.lft.to/lastmile_qr_scan", "android": "https://dc.lft.to/lastmile_qr_scan"}, "lon": -77.032209, "type": "electric_scooter", "fusion_lat": 0.0, "lat": 38.892247833333336, "name": "a5bd096b847ce948dee5348c51bec97c", "fusion_lon": 0.0, "bike_id": "a5bd096b847ce948dee5348c51bec97c", "is_disabled": 0, "is_reserved": 0}, {"rental_uris": {"ios": "https://dc.lft.to/lastmile_qr_scan", "android": "https://dc.lft.to/lastmile_qr_scan"}, "lon": -77.02297766666666, "type": "electric_scooter", "fusion_lat": 0.0, "lat": 38.91771766666667, "name": "65085af4e56ba8e40e8ac1f416fe3aff", "fusion_lon": 0.0, "bike_id": "65085af4e56ba8e40e8ac1f416fe3aff", "is_disabled": 0, "is_reserved": 0}, {"rental_uris": {"ios": "https://dc.lft.to/lastmile_qr_scan", "android": "https://dc.lft.to/lastmile_qr_scan"}, "lon": -77.01225783333334, "type": "electric_scooter", "fusion_lat": 0.0, "lat": 38.91403433333333, "name": "5a4bffbdbdea6c96a1e33acd0c682dc3", "fusion_lon": 0.0, "bike_id": "5a4bffbdbdea6c96a1e33acd0c682dc3", "is_disabled": 0, "is_reserved": 0}, {"rental_uris": {"ios": "https://dc.lft.to/lastmile_qr_scan", "android": "https://dc.lft.to/lastmile_qr_scan"}, "lon": -77.02209066666667, "type": "electric_scooter", "fusion_lat": 0.0, "lat": 38.88766533333333, "name": "4889d2fcf9d4bc4305ea1ab9769504c6", "fusion_lon": 0.0, "bike_id": "4889d2fcf9d4bc4305ea1ab9769504c6", "is_disabled": 0, "is_reserved": 0}, {"rental_uris": {"ios": "https://dc.lft.to/lastmile_qr_scan", "android": "https://dc.lft.to/lastmile_qr_scan"}, "lon": -77.03464533333333, "type": "electric_scooter", "fusion_lat": 0.0, "lat": 38.92047316666667, "name": "16361c06ec1f91f926c7797a1afeeec3", "fusion_lon": 0.0, "bike_id": "16361c06ec1f91f926c7797a1afeeec3", "is_disabled": 0, "is_reserved": 0}, {"rental_uris": {"ios": "https://dc.lft.to/lastmile_qr_scan", "android": "https://dc.lft.to/lastmile_qr_scan"}, "lon": -76.98361716666666, "type": "electric_scooter", "fusion_lat": 0.0, "lat": 38.864825833333335, "name": "01dc7c738a672e64137e0d6f4eceab9c", "fusion_lon": 0.0, "bike_id": "01dc7c738a672e64137e0d6f4eceab9c", "is_disabled": 0, "is_reserved": 0}, {"rental_uris": {"ios": "https://dc.lft.to/lastmile_qr_scan", "android": "https://dc.lft.to/lastmile_qr_scan"}, "lon": -77.11428933333333, "type": "electric_bike", "fusion_lat": 0.0, "lat": 38.85243233333333, "name": "979f13adc10005bbec73e1688b1aa87c", "fusion_lon": 0.0, "bike_id": "979f13adc10005bbec73e1688b1aa87c", "is_disabled": 0, "is_reserved": 0}, {"rental_uris": {"ios": "https://dc.lft.to/lastmile_qr_scan", "android": "https://dc.lft.to/lastmile_qr_scan"}, "lon": -77.02888733333333, "type": "electric_scooter", "fusion_lat": 0.0, "lat": 38.90734333333333, "name": "6e405085d8f5d1e38a97a309fe41c8ac", "fusion_lon": 0.0, "bike_id": "6e405085d8f5d1e38a97a309fe41c8ac", "is_disabled": 0, "is_reserved": 0}, {"rental_uris": {"ios": "https://dc.lft.to/lastmile_qr_scan", "android": "https://dc.lft.to/lastmile_qr_scan"}, "lon": -76.96784783333334, "type": "electric_scooter", "fusion_lat": 0.0, "lat": 38.86151266666667, "name": "7577b80b3e7aa88d5e1f5cdbe150b737", "fusion_lon": 0.0, "bike_id": "7577b80b3e7aa88d5e1f5cdbe150b737", "is_disabled": 0, "is_reserved": 0}, {"rental_uris": {"ios": "https://dc.lft.to/lastmile_qr_scan", "android": "https://dc.lft.to/lastmile_qr_scan"}, "lon": -76.97085833333334, "type": "electric_scooter", "fusion_lat": 0.0, "lat": 38.87877533333333, "name": "019163d75d78d9659dfe880ba0406795", "fusion_lon": 0.0, "bike_id": "019163d75d78d9659dfe880ba0406795", "is_disabled": 0, "is_reserved": 0}, {"rental_uris": {"ios": "https://dc.lft.to/lastmile_qr_scan", "android": "https://dc.lft.to/lastmile_qr_scan"}, "lon": -77.03217866666667, "type": "electric_scooter", "fusion_lat": 0.0, "lat": 38.91630983333334, "name": "10fc27ae7409c9445b3c013e4d6b232a", "fusion_lon": 0.0, "bike_id": "10fc27ae7409c9445b3c013e4d6b232a", "is_disabled": 0, "is_reserved": 0}, {"rental_uris": {"ios": "https://dc.lft.to/lastmile_qr_scan", "android": "https://dc.lft.to/lastmile_qr_scan"}, "lon": -77.032203, "type": "electric_scooter", "fusion_lat": 0.0, "lat": 38.892207666666664, "name": "87bb740e1ef982334d692f73e6ce6bad", "fusion_lon": 0.0, "bike_id": "87bb740e1ef982334d692f73e6ce6bad", "is_disabled": 0, "is_reserved": 0}, {"rental_uris": {"ios": "https://dc.lft.to/lastmile_qr_scan", "android": "https://dc.lft.to/lastmile_qr_scan"}, "lon": -77.0317425, "type": "electric_scooter", "fusion_lat": 0.0, "lat": 38.919229333333334, "name": "ccb794c6d56872ca2eebc3bad9855727", "fusion_lon": 0.0, "bike_id": "ccb794c6d56872ca2eebc3bad9855727", "is_disabled": 0, "is_reserved": 0}, {"rental_uris": {"ios": "https://dc.lft.to/lastmile_qr_scan", "android": "https://dc.lft.to/lastmile_qr_scan"}, "lon": -76.99828583333333, "type": "electric_scooter", "fusion_lat": 0.0, "lat": 38.84421316666667, "name": "5d50a87bc04b2e73e2de73bd641419f6", "fusion_lon": 0.0, "bike_id": "5d50a87bc04b2e73e2de73bd641419f6", "is_disabled": 0, "is_reserved": 0}, {"rental_uris": {"ios": "https://dc.lft.to/lastmile_qr_scan", "android": "https://dc.lft.to/lastmile_qr_scan"}, "lon": -77.07167266666667, "type": "electric_scooter", "fusion_lat": 0.0, "lat": 38.907775666666666, "name": "cc6732ea5766be20d46f70ee554d54f7", "fusion_lon": 0.0, "bike_id": "cc6732ea5766be20d46f70ee554d54f7", "is_disabled": 0, "is_reserved": 0}, {"rental_uris": {"ios": "https://dc.lft.to/lastmile_qr_scan", "android": "https://dc.lft.to/lastmile_qr_scan"}, "lon": -76.98843616666667, "type": "electric_bike", "fusion_lat": 0.0, "lat": 38.842767333333335, "name": "6693fa6259fa89c7aae2ed0458959970", "fusion_lon": 0.0, "bike_id": "6693fa6259fa89c7aae2ed0458959970", "is_disabled": 0, "is_reserved": 0}, {"rental_uris": {"ios": "https://dc.lft.to/lastmile_qr_scan", "android": "https://dc.lft.to/lastmile_qr_scan"}, "lon": -77.0296095, "type": "electric_scooter", "fusion_lat": 0.0, "lat": 38.89219466666667, "name": "c43741a61364d99cb957706ad4c272ee", "fusion_lon": 0.0, "bike_id": "c43741a61364d99cb957706ad4c272ee", "is_disabled": 0, "is_reserved": 0}, {"rental_uris": {"ios": "https://dc.lft.to/lastmile_qr_scan", "android": "https://dc.lft.to/lastmile_qr_scan"}, "lon": -77.02721183333334, "type": "electric_scooter", "fusion_lat": 0.0, "lat": 38.8973895, "name": "db5687403c79d12c64d602f552c62620", "fusion_lon": 0.0, "bike_id": "db5687403c79d12c64d602f552c62620", "is_disabled": 0, "is_reserved": 0}, {"rental_uris": {"ios": "https://dc.lft.to/lastmile_qr_scan", "android": "https://dc.lft.to/lastmile_qr_scan"}, "lon": -77.03122933333333, "type": "electric_scooter", "fusion_lat": 0.0, "lat": 38.910280666666665, "name": "4ac88f2891651b77b73da14b925949ad", "fusion_lon": 0.0, "bike_id": "4ac88f2891651b77b73da14b925949ad", "is_disabled": 0, "is_reserved": 0}, {"rental_uris": {"ios": "https://dc.lft.to/lastmile_qr_scan", "android": "https://dc.lft.to/lastmile_qr_scan"}, "lon": -77.04330733333333, "type": "electric_scooter", "fusion_lat": 0.0, "lat": 38.9036855, "name": "3b3567e39f18501d0cb52cc3099e33e3", "fusion_lon": 0.0, "bike_id": "3b3567e39f18501d0cb52cc3099e33e3", "is_disabled": 0, "is_reserved": 0}, {"rental_uris": {"ios": "https://dc.lft.to/lastmile_qr_scan", "android": "https://dc.lft.to/lastmile_qr_scan"}, "lon": -77.03998083333333, "type": "electric_scooter", "fusion_lat": 0.0, "lat": 38.89880433333333, "name": "5742ff1175e031be85984867065834dd", "fusion_lon": 0.0, "bike_id": "5742ff1175e031be85984867065834dd", "is_disabled": 0, "is_reserved": 0}, {"rental_uris": {"ios": "https://dc.lft.to/lastmile_qr_scan", "android": "https://dc.lft.to/lastmile_qr_scan"}, "lon": -76.9839375, "type": "electric_bike", "fusion_lat": 0.0, "lat": 38.922004666666666, "name": "11aeacf7997443161340a2cb52ccce54", "fusion_lon": 0.0, "bike_id": "11aeacf7997443161340a2cb52ccce54", "is_disabled": 0, "is_reserved": 0}, {"rental_uris": {"ios": "https://dc.lft.to/lastmile_qr_scan", "android": "https://dc.lft.to/lastmile_qr_scan"}, "lon": -77.03323916666666, "type": "electric_scooter", "fusion_lat": 0.0, "lat": 38.8900845, "name": "ffaed9433e81e83b3599f8e11c9813f0", "fusion_lon": 0.0, "bike_id": "ffaed9433e81e83b3599f8e11c9813f0", "is_disabled": 0, "is_reserved": 0}, {"rental_uris": {"ios": "https://dc.lft.to/lastmile_qr_scan", "android": "https://dc.lft.to/lastmile_qr_scan"}, "lon": -77.126288, "type": "electric_bike", "fusion_lat": 0.0, "lat": 39.05813466666667, "name": "1e594bfef10708f3c0734f9b1f2b64e1", "fusion_lon": 0.0, "bike_id": "1e594bfef10708f3c0734f9b1f2b64e1", "is_disabled": 0, "is_reserved": 0}, {"rental_uris": {"ios": "https://dc.lft.to/lastmile_qr_scan", "android": "https://dc.lft.to/lastmile_qr_scan"}, "lon": -77.02197933333333, "type": "electric_scooter", "fusion_lat": 0.0, "lat": 38.9168695, "name": "d14e1131ddce020a5953a2547654f601", "fusion_lon": 0.0, "bike_id": "d14e1131ddce020a5953a2547654f601", "is_disabled": 0, "is_reserved": 0}, {"rental_uris": {"ios": "https://dc.lft.to/lastmile_qr_scan", "android": "https://dc.lft.to/lastmile_qr_scan"}, "lon": -76.99151933333333, "type": "electric_scooter", "fusion_lat": 0.0, "lat": 38.88593016666667, "name": "455026e4e5e24888d93a3ce4821e56b2", "fusion_lon": 0.0, "bike_id": "455026e4e5e24888d93a3ce4821e56b2", "is_disabled": 0, "is_reserved": 0}, {"rental_uris": {"ios": "https://dc.lft.to/lastmile_qr_scan", "android": "https://dc.lft.to/lastmile_qr_scan"}, "lon": -77.04230633333333, "type": "electric_scooter", "fusion_lat": 0.0, "lat": 38.91111383333333, "name": "c0b57f08cfa82ab6b5979b54d3eee09a", "fusion_lon": 0.0, "bike_id": "c0b57f08cfa82ab6b5979b54d3eee09a", "is_disabled": 0, "is_reserved": 0}, {"rental_uris": {"ios": "https://dc.lft.to/lastmile_qr_scan", "android": "https://dc.lft.to/lastmile_qr_scan"}, "lon": -77.04644516666667, "type": "electric_scooter", "fusion_lat": 0.0, "lat": 38.892281, "name": "ab7826fe3d033d23dd14070ca9ab7efa", "fusion_lon": 0.0, "bike_id": "ab7826fe3d033d23dd14070ca9ab7efa", "is_disabled": 0, "is_reserved": 0}, {"rental_uris": {"ios": "https://dc.lft.to/lastmile_qr_scan", "android": "https://dc.lft.to/lastmile_qr_scan"}, "lon": -77.05160083333334, "type": "electric_scooter", "fusion_lat": 0.0, "lat": 38.905872333333335, "name": "f06c0954b6df414a210c09202b3e9540", "fusion_lon": 0.0, "bike_id": "f06c0954b6df414a210c09202b3e9540", "is_disabled": 0, "is_reserved": 0}, {"rental_uris": {"ios": "https://dc.lft.to/lastmile_qr_scan", "android": "https://dc.lft.to/lastmile_qr_scan"}, "lon": -77.0250175, "type": "electric_scooter", "fusion_lat": 0.0, "lat": 38.9064995, "name": "e095676bc30347465ddf0f99b0eb5316", "fusion_lon": 0.0, "bike_id": "e095676bc30347465ddf0f99b0eb5316", "is_disabled": 0, "is_reserved": 0}, {"rental_uris": {"ios": "https://dc.lft.to/lastmile_qr_scan", "android": "https://dc.lft.to/lastmile_qr_scan"}, "lon": -77.04153933333333, "type": "electric_scooter", "fusion_lat": 0.0, "lat": 38.917515, "name": "11ccd854eff054269901bc7efef0b2b0", "fusion_lon": 0.0, "bike_id": "11ccd854eff054269901bc7efef0b2b0", "is_disabled": 0, "is_reserved": 0}, {"rental_uris": {"ios": "https://dc.lft.to/lastmile_qr_scan", "android": "https://dc.lft.to/lastmile_qr_scan"}, "lon": -76.9977895, "type": "electric_scooter", "fusion_lat": 0.0, "lat": 38.885543166666665, "name": "7c9a32a7553df2cfc64407783f7f3c75", "fusion_lon": 0.0, "bike_id": "7c9a32a7553df2cfc64407783f7f3c75", "is_disabled": 0, "is_reserved": 0}, {"rental_uris": {"ios": "https://dc.lft.to/lastmile_qr_scan", "android": "https://dc.lft.to/lastmile_qr_scan"}, "lon": -76.95516366666666, "type": "electric_scooter", "fusion_lat": 0.0, "lat": 38.890542833333335, "name": "c5ed3a7b0e611e7983c506ba16cc9909", "fusion_lon": 0.0, "bike_id": "c5ed3a7b0e611e7983c506ba16cc9909", "is_disabled": 0, "is_reserved": 0}, {"rental_uris": {"ios": "https://dc.lft.to/lastmile_qr_scan", "android": "https://dc.lft.to/lastmile_qr_scan"}, "lon": -77.042672, "type": "electric_scooter", "fusion_lat": 0.0, "lat": 38.934145666666666, "name": "9bb2e0e69f331aeeba9f21dbdda486d4", "fusion_lon": 0.0, "bike_id": "9bb2e0e69f331aeeba9f21dbdda486d4", "is_disabled": 0, "is_reserved": 0}, {"rental_uris": {"ios": "https://dc.lft.to/lastmile_qr_scan", "android": "https://dc.lft.to/lastmile_qr_scan"}, "lon": -77.03284383333333, "type": "electric_scooter", "fusion_lat": 0.0, "lat": 38.92877166666667, "name": "f03747a64c2b82f95e3f91c4ea79c8ae", "fusion_lon": 0.0, "bike_id": "f03747a64c2b82f95e3f91c4ea79c8ae", "is_disabled": 0, "is_reserved": 0}, {"rental_uris": {"ios": "https://dc.lft.to/lastmile_qr_scan", "android": "https://dc.lft.to/lastmile_qr_scan"}, "lon": -77.0766125, "type": "electric_scooter", "fusion_lat": 0.0, "lat": 38.90626966666667, "name": "ea8cee7b9e7a6a0ff420fb4b02a9d45b", "fusion_lon": 0.0, "bike_id": "ea8cee7b9e7a6a0ff420fb4b02a9d45b", "is_disabled": 0, "is_reserved": 0}, {"rental_uris": {"ios": "https://dc.lft.to/lastmile_qr_scan", "android": "https://dc.lft.to/lastmile_qr_scan"}, "lon": -77.03170366666667, "type": "electric_scooter", "fusion_lat": 0.0, "lat": 38.893958, "name": "c5589de4d7d6c9e0b9eab7cd3662f3f9", "fusion_lon": 0.0, "bike_id": "c5589de4d7d6c9e0b9eab7cd3662f3f9", "is_disabled": 0, "is_reserved": 0}, {"rental_uris": {"ios": "https://dc.lft.to/lastmile_qr_scan", "android": "https://dc.lft.to/lastmile_qr_scan"}, "lon": -76.94629216666667, "type": "electric_bike", "fusion_lat": 0.0, "lat": 38.94624316666667, "name": "862c38a0dc577cf2754266e9184edb0b", "fusion_lon": 0.0, "bike_id": "862c38a0dc577cf2754266e9184edb0b", "is_disabled": 0, "is_reserved": 0}, {"rental_uris": {"ios": "https://dc.lft.to/lastmile_qr_scan", "android": "https://dc.lft.to/lastmile_qr_scan"}, "lon": -76.97197466666667, "type": "electric_scooter", "fusion_lat": 0.0, "lat": 38.854911, "name": "c07e8172a4147a34e5020f1680ead099", "fusion_lon": 0.0, "bike_id": "c07e8172a4147a34e5020f1680ead099", "is_disabled": 0, "is_reserved": 0}, {"rental_uris": {"ios": "https://dc.lft.to/lastmile_qr_scan", "android": "https://dc.lft.to/lastmile_qr_scan"}, "lon": -76.98558483333333, "type": "electric_bike", "fusion_lat": 0.0, "lat": 38.8689115, "name": "54987416625bc8ed004609e35ad3f8fc", "fusion_lon": 0.0, "bike_id": "54987416625bc8ed004609e35ad3f8fc", "is_disabled": 0, "is_reserved": 0}, {"rental_uris": {"ios": "https://dc.lft.to/lastmile_qr_scan", "android": "https://dc.lft.to/lastmile_qr_scan"}, "lon": -77.0183795, "type": "electric_scooter", "fusion_lat": 0.0, "lat": 38.91345333333334, "name": "d718d96e9de05a933802cd6ae588acd6", "fusion_lon": 0.0, "bike_id": "d718d96e9de05a933802cd6ae588acd6", "is_disabled": 0, "is_reserved": 0}, {"rental_uris": {"ios": "https://dc.lft.to/lastmile_qr_scan", "android": "https://dc.lft.to/lastmile_qr_scan"}, "lon": -77.0269535, "type": "electric_scooter", "fusion_lat": 0.0, "lat": 38.90935, "name": "c3b3c9d2db40d247c95959769c32582f", "fusion_lon": 0.0, "bike_id": "c3b3c9d2db40d247c95959769c32582f", "is_disabled": 0, "is_reserved": 0}, {"rental_uris": {"ios": "https://dc.lft.to/lastmile_qr_scan", "android": "https://dc.lft.to/lastmile_qr_scan"}, "lon": -77.03074883333333, "type": "electric_scooter", "fusion_lat": 0.0, "lat": 38.922468, "name": "6aa7ce566b38650807da540fb2940c63", "fusion_lon": 0.0, "bike_id": "6aa7ce566b38650807da540fb2940c63", "is_disabled": 0, "is_reserved": 0}, {"rental_uris": {"ios": "https://dc.lft.to/lastmile_qr_scan", "android": "https://dc.lft.to/lastmile_qr_scan"}, "lon": -77.02135083333333, "type": "electric_scooter", "fusion_lat": 0.0, "lat": 38.93762366666667, "name": "655d88964c6f6fc226047389c285a2a5", "fusion_lon": 0.0, "bike_id": "655d88964c6f6fc226047389c285a2a5", "is_disabled": 0, "is_reserved": 0}, {"rental_uris": {"ios": "https://dc.lft.to/lastmile_qr_scan", "android": "https://dc.lft.to/lastmile_qr_scan"}, "lon": -77.01967866666666, "type": "electric_scooter", "fusion_lat": 0.0, "lat": 38.901309833333336, "name": "1aebc76c17521c1bfb8592691ec90728", "fusion_lon": 0.0, "bike_id": "1aebc76c17521c1bfb8592691ec90728", "is_disabled": 0, "is_reserved": 0}, {"rental_uris": {"ios": "https://dc.lft.to/lastmile_qr_scan", "android": "https://dc.lft.to/lastmile_qr_scan"}, "lon": -76.99450566666667, "type": "electric_scooter", "fusion_lat": 0.0, "lat": 38.900302333333336, "name": "8d1df80f3afdf43b2c9b78483c117115", "fusion_lon": 0.0, "bike_id": "8d1df80f3afdf43b2c9b78483c117115", "is_disabled": 0, "is_reserved": 0}, {"rental_uris": {"ios": "https://dc.lft.to/lastmile_qr_scan", "android": "https://dc.lft.to/lastmile_qr_scan"}, "lon": -76.947567, "type": "electric_scooter", "fusion_lat": 0.0, "lat": 38.900595333333335, "name": "375c7962bab73d6f17582bd8d30789b0", "fusion_lon": 0.0, "bike_id": "375c7962bab73d6f17582bd8d30789b0", "is_disabled": 0, "is_reserved": 0}, {"rental_uris": {"ios": "https://dc.lft.to/lastmile_qr_scan", "android": "https://dc.lft.to/lastmile_qr_scan"}, "lon": -77.021995, "type": "electric_scooter", "fusion_lat": 0.0, "lat": 38.9110625, "name": "4232ab4a6ada55b7bd17f5203860946a", "fusion_lon": 0.0, "bike_id": "4232ab4a6ada55b7bd17f5203860946a", "is_disabled": 0, "is_reserved": 0}, {"rental_uris": {"ios": "https://dc.lft.to/lastmile_qr_scan", "android": "https://dc.lft.to/lastmile_qr_scan"}, "lon": -77.04517466666667, "type": "electric_scooter", "fusion_lat": 0.0, "lat": 38.907603333333334, "name": "e4e89b785f01648b5e5f5ad0b5051743", "fusion_lon": 0.0, "bike_id": "e4e89b785f01648b5e5f5ad0b5051743", "is_disabled": 0, "is_reserved": 0}, {"rental_uris": {"ios": "https://dc.lft.to/lastmile_qr_scan", "android": "https://dc.lft.to/lastmile_qr_scan"}, "lon": -77.0175935, "type": "electric_scooter", "fusion_lat": 0.0, "lat": 38.902697, "name": "36fdec7370edff283d90f5155a08b662", "fusion_lon": 0.0, "bike_id": "36fdec7370edff283d90f5155a08b662", "is_disabled": 0, "is_reserved": 0}, {"rental_uris": {"ios": "https://dc.lft.to/lastmile_qr_scan", "android": "https://dc.lft.to/lastmile_qr_scan"}, "lon": -76.99019383333334, "type": "electric_scooter", "fusion_lat": 0.0, "lat": 38.86106066666667, "name": "e870990c9a60908e41ea9d246a41b3c0", "fusion_lon": 0.0, "bike_id": "e870990c9a60908e41ea9d246a41b3c0", "is_disabled": 0, "is_reserved": 0}, {"rental_uris": {"ios": "https://dc.lft.to/lastmile_qr_scan", "android": "https://dc.lft.to/lastmile_qr_scan"}, "lon": -77.0098515, "type": "electric_bike", "fusion_lat": 0.0, "lat": 38.988496, "name": "20815f8c1d4101360673f6cfb678a4e0", "fusion_lon": 0.0, "bike_id": "20815f8c1d4101360673f6cfb678a4e0", "is_disabled": 0, "is_reserved": 0}, {"rental_uris": {"ios": "https://dc.lft.to/lastmile_qr_scan", "android": "https://dc.lft.to/lastmile_qr_scan"}, "lon": -77.02379616666667, "type": "electric_scooter", "fusion_lat": 0.0, "lat": 38.95243116666666, "name": "d7b330e7351f00fc585de88f8247eae0", "fusion_lon": 0.0, "bike_id": "d7b330e7351f00fc585de88f8247eae0", "is_disabled": 0, "is_reserved": 0}, {"rental_uris": {"ios": "https://dc.lft.to/lastmile_qr_scan", "android": "https://dc.lft.to/lastmile_qr_scan"}, "lon": -76.99630316666666, "type": "electric_scooter", "fusion_lat": 0.0, "lat": 38.84622433333333, "name": "bd81452033d5c7e1f0a91281c78a2305", "fusion_lon": 0.0, "bike_id": "bd81452033d5c7e1f0a91281c78a2305", "is_disabled": 0, "is_reserved": 0}, {"rental_uris": {"ios": "https://dc.lft.to/lastmile_qr_scan", "android": "https://dc.lft.to/lastmile_qr_scan"}, "lon": -77.02370983333333, "type": "electric_scooter", "fusion_lat": 0.0, "lat": 38.902044333333336, "name": "2564604d46be023f007e5fbb89ff6dd3", "fusion_lon": 0.0, "bike_id": "2564604d46be023f007e5fbb89ff6dd3", "is_disabled": 0, "is_reserved": 0}, {"rental_uris": {"ios": "https://dc.lft.to/lastmile_qr_scan", "android": "https://dc.lft.to/lastmile_qr_scan"}, "lon": -77.03693483333333, "type": "electric_scooter", "fusion_lat": 0.0, "lat": 38.91676233333333, "name": "816656a8458d7f47b1e0de589cf9a2d1", "fusion_lon": 0.0, "bike_id": "816656a8458d7f47b1e0de589cf9a2d1", "is_disabled": 0, "is_reserved": 0}, {"rental_uris": {"ios": "https://dc.lft.to/lastmile_qr_scan", "android": "https://dc.lft.to/lastmile_qr_scan"}, "lon": -76.975061, "type": "electric_bike", "fusion_lat": 0.0, "lat": 38.9193395, "name": "75c563025e0f20f87540cec9f5b41b02", "fusion_lon": 0.0, "bike_id": "75c563025e0f20f87540cec9f5b41b02", "is_disabled": 0, "is_reserved": 0}, {"rental_uris": {"ios": "https://dc.lft.to/lastmile_qr_scan", "android": "https://dc.lft.to/lastmile_qr_scan"}, "lon": -76.98377216666667, "type": "electric_scooter", "fusion_lat": 0.0, "lat": 38.860342333333335, "name": "cd5af3ae90bfa34ddbce79a1f159f319", "fusion_lon": 0.0, "bike_id": "cd5af3ae90bfa34ddbce79a1f159f319", "is_disabled": 0, "is_reserved": 0}, {"rental_uris": {"ios": "https://dc.lft.to/lastmile_qr_scan", "android": "https://dc.lft.to/lastmile_qr_scan"}, "lon": -77.0161885, "type": "electric_scooter", "fusion_lat": 0.0, "lat": 38.91021716666667, "name": "eff7071a1e8e65ac2b54614da5e58462", "fusion_lon": 0.0, "bike_id": "eff7071a1e8e65ac2b54614da5e58462", "is_disabled": 0, "is_reserved": 0}, {"rental_uris": {"ios": "https://dc.lft.to/lastmile_qr_scan", "android": "https://dc.lft.to/lastmile_qr_scan"}, "lon": -77.03645033333333, "type": "electric_scooter", "fusion_lat": 0.0, "lat": 38.91872983333333, "name": "7260273a53b455009eb6f4bef6b43867", "fusion_lon": 0.0, "bike_id": "7260273a53b455009eb6f4bef6b43867", "is_disabled": 0, "is_reserved": 0}, {"rental_uris": {"ios": "https://dc.lft.to/lastmile_qr_scan", "android": "https://dc.lft.to/lastmile_qr_scan"}, "lon": -77.04635966666666, "type": "electric_scooter", "fusion_lat": 0.0, "lat": 38.8922305, "name": "a0a137f89124827d64ca086f39b61764", "fusion_lon": 0.0, "bike_id": "a0a137f89124827d64ca086f39b61764", "is_disabled": 0, "is_reserved": 0}, {"rental_uris": {"ios": "https://dc.lft.to/lastmile_qr_scan", "android": "https://dc.lft.to/lastmile_qr_scan"}, "lon": -76.97562283333333, "type": "electric_scooter", "fusion_lat": 0.0, "lat": 38.90442183333333, "name": "0583940755d948367bcfef7f4bcd05d3", "fusion_lon": 0.0, "bike_id": "0583940755d948367bcfef7f4bcd05d3", "is_disabled": 0, "is_reserved": 0}, {"rental_uris": {"ios": "https://dc.lft.to/lastmile_qr_scan", "android": "https://dc.lft.to/lastmile_qr_scan"}, "lon": -77.025738, "type": "electric_scooter", "fusion_lat": 0.0, "lat": 38.897460833333334, "name": "566afc2e8d4e8e657645391c231b180b", "fusion_lon": 0.0, "bike_id": "566afc2e8d4e8e657645391c231b180b", "is_disabled": 0, "is_reserved": 0}, {"rental_uris": {"ios": "https://dc.lft.to/lastmile_qr_scan", "android": "https://dc.lft.to/lastmile_qr_scan"}, "lon": -76.996066, "type": "electric_scooter", "fusion_lat": 0.0, "lat": 38.886235, "name": "7bde23aa180477f3288c57603f8d91d0", "fusion_lon": 0.0, "bike_id": "7bde23aa180477f3288c57603f8d91d0", "is_disabled": 0, "is_reserved": 0}, {"rental_uris": {"ios": "https://dc.lft.to/lastmile_qr_scan", "android": "https://dc.lft.to/lastmile_qr_scan"}, "lon": -77.02971733333334, "type": "electric_scooter", "fusion_lat": 0.0, "lat": 38.917795166666664, "name": "403af80111ee3e3ef570b059264f3b48", "fusion_lon": 0.0, "bike_id": "403af80111ee3e3ef570b059264f3b48", "is_disabled": 0, "is_reserved": 0}, {"rental_uris": {"ios": "https://dc.lft.to/lastmile_qr_scan", "android": "https://dc.lft.to/lastmile_qr_scan"}, "lon": -76.97322666666666, "type": "electric_scooter", "fusion_lat": 0.0, "lat": 38.93030183333333, "name": "f52d0a01a46459de8457ad104a8779e1", "fusion_lon": 0.0, "bike_id": "f52d0a01a46459de8457ad104a8779e1", "is_disabled": 0, "is_reserved": 0}, {"rental_uris": {"ios": "https://dc.lft.to/lastmile_qr_scan", "android": "https://dc.lft.to/lastmile_qr_scan"}, "lon": -76.98567983333334, "type": "electric_scooter", "fusion_lat": 0.0, "lat": 38.8614725, "name": "129d3e4ac55909cd6abfb4e8b2075f82", "fusion_lon": 0.0, "bike_id": "129d3e4ac55909cd6abfb4e8b2075f82", "is_disabled": 0, "is_reserved": 0}, {"rental_uris": {"ios": "https://dc.lft.to/lastmile_qr_scan", "android": "https://dc.lft.to/lastmile_qr_scan"}, "lon": -77.04028633333333, "type": "electric_bike", "fusion_lat": 0.0, "lat": 38.804198166666666, "name": "5fc11440400e6ecb8d1e7c17ad24d9f4", "fusion_lon": 0.0, "bike_id": "5fc11440400e6ecb8d1e7c17ad24d9f4", "is_disabled": 0, "is_reserved": 0}, {"rental_uris": {"ios": "https://dc.lft.to/lastmile_qr_scan", "android": "https://dc.lft.to/lastmile_qr_scan"}, "lon": -77.00001383333333, "type": "electric_scooter", "fusion_lat": 0.0, "lat": 38.90032466666667, "name": "c4b95186933eaa79db35c28f7c560799", "fusion_lon": 0.0, "bike_id": "c4b95186933eaa79db35c28f7c560799", "is_disabled": 0, "is_reserved": 0}, {"rental_uris": {"ios": "https://dc.lft.to/lastmile_qr_scan", "android": "https://dc.lft.to/lastmile_qr_scan"}, "lon": -77.03333933333333, "type": "electric_scooter", "fusion_lat": 0.0, "lat": 38.90143783333333, "name": "79905cb8dc519be97b11a4ebb11b084c", "fusion_lon": 0.0, "bike_id": "79905cb8dc519be97b11a4ebb11b084c", "is_disabled": 0, "is_reserved": 0}, {"rental_uris": {"ios": "https://dc.lft.to/lastmile_qr_scan", "android": "https://dc.lft.to/lastmile_qr_scan"}, "lon": -76.93111999999999, "type": "electric_scooter", "fusion_lat": 0.0, "lat": 38.8983115, "name": "4bba17aa4192210fdf7cec4a14196b29", "fusion_lon": 0.0, "bike_id": "4bba17aa4192210fdf7cec4a14196b29", "is_disabled": 0, "is_reserved": 0}, {"rental_uris": {"ios": "https://dc.lft.to/lastmile_qr_scan", "android": "https://dc.lft.to/lastmile_qr_scan"},