{"data": {"bikes": [{"name": "cdc5b04a0955e09296e490179460e6ad", "type": "electric_scooter", "lat": 38.90403716666667, "is_reserved": 0, "lon": -77.0175395, "fusion_lon": 0.0, "is_disabled": 0, "fusion_lat": 0.0, "bike_id": "cdc5b04a0955e09296e490179460e6ad", "rental_uris": {"ios": "https://dc.lft.to/lastmile_qr_scan", "android": "https://dc.lft.to/lastmile_qr_scan"}}, {"name": "70ffb48799244be38d12073900567d64", "type": "electric_bike", "lat": 38.880859666666666, "is_reserved": 0, "lon": -76.98525016666666, "fusion_lon": 0.0, "is_disabled": 0, "fusion_lat": 0.0, "bike_id": "70ffb48799244be38d12073900567d64", "rental_uris": {"ios": "https://dc.lft.to/lastmile_qr_scan", "android": "https://dc.lft.to/lastmile_qr_scan"}}, {"name": "8954fcf191c69940f4367065960f8f77", "type": "electric_scooter", "lat": 38.91758266666667, "is_reserved": 0, "lon": -77.02704483333333, "fusion_lon": 0.0, "is_disabled": 0, "fusion_lat": 0.0, "bike_id": "8954fcf191c69940f4367065960f8f77", "rental_uris": {"ios": "https://dc.lft.to/lastmile_qr_scan", "android": "https://dc.lft.to/lastmile_qr_scan"}}, {"name": "f0ccceac11d1220d0b9a46ccb6bd14eb", "type": "electric_scooter", "lat": 38.90872066666667, "is_reserved": 0, "lon": -77.02503616666667, "fusion_lon": 0.0, "is_disabled": 0, "fusion_lat": 0.0, "bike_id": "f0ccceac11d1220d0b9a46ccb6bd14eb", "rental_uris": {"ios": "https://dc.lft.to/lastmile_qr_scan", "android": "https://dc.lft.to/lastmile_qr_scan"}}, {"name": "de9d87e7999f425298671f219dc2fa4a", "type": "electric_scooter", "lat": 38.903525333333334, "is_reserved": 0, "lon": -77.04477733333333, "fusion_lon": 0.0, "is_disabled": 0, "fusion_lat": 0.0, "bike_id": "de9d87e7999f425298671f219dc2fa4a", "rental_uris": {"ios": "https://dc.lft.to/lastmile_qr_scan", "android": "https://dc.lft.to/lastmile_qr_scan"}}, {"name": "84dae9fd81cf06a5e78a6b00bb1782c6", "type": "electric_scooter", "lat": 38.902700833333334, "is_reserved": 0, "lon": -77.053117, "fusion_lon": 0.0, "is_disabled": 0, "fusion_lat": 0.0, "bike_id": "84dae9fd81cf06a5e78a6b00bb1782c6", "rental_uris": {"ios": "https://dc.lft.to/lastmile_qr_scan", "android": "https://dc.lft.to/lastmile_qr_scan"}}, {"name": "99bfc3c70bd13149298c90385724c1df", "type": "electric_scooter", "lat": 38.9157125, "is_reserved": 0, "lon": -77.04614583333333, "fusion_lon": 0.0, "is_disabled": 0, "fusion_lat": 0.0, "bike_id": "99bfc3c70bd13149298c90385724c1df", "rental_uris": {"ios": "https://dc.lft.to/lastmile_qr_scan", "android": "https://dc.lft.to/lastmile_qr_scan"}}, {"name": "b80960866e66d5aa27450b6a0bd69525", "type": "electric_scooter", "lat": 38.90239783333333, "is_reserved": 0, "lon": -77.001949, "fusion_lon": 0.0, "is_disabled": 0, "fusion_lat": 0.0, "bike_id": "b80960866e66d5aa27450b6a0bd69525", "rental_uris": {"ios": "https://dc.lft.to/lastmile_qr_scan", "android": "https://dc.lft.to/lastmile_qr_scan"}}, {"name": "327f834dc7c292713d3fde2d8ede1105", "type": "electric_scooter", "lat": 38.9170455, "is_reserved": 0, "lon": -77.031181, "fusion_lon": 0.0, "is_disabled": 0, "fusion_lat": 0.0, "bike_id": "327f834dc7c292713d3fde2d8ede1105", "rental_uris": {"ios": "https://dc.lft.to/lastmile_qr_scan", "android": "https://dc.lft.to/lastmile_qr_scan"}}, {"name": "44f67c84eedf0872d022c5f6913b5137", "type": "electric_scooter", "lat": 38.885112666666664, "is_reserved": 0, "lon": -77.00571233333334, "fusion_lon": 0.0, "is_disabled": 0, "fusion_lat": 0.0, "bike_id": "44f67c84eedf0872d022c5f6913b5137", "rental_uris": {"ios": "https://dc.lft.to/lastmile_qr_scan", "android": "https://dc.lft.to/lastmile_qr_scan"}}, {"name": "3a1086406f0597275be5af86376f348f", "type": "electric_scooter", "lat": 38.92241516666667, "is_reserved": 0, "lon": -77.0308815, "fusion_lon": 0.0, "is_disabled": 0, "fusion_lat": 0.0, "bike_id": "3a1086406f0597275be5af86376f348f", "rental_uris": {"ios": "https://dc.lft.to/lastmile_qr_scan", "android": "https://dc.lft.to/lastmile_qr_scan"}}, {"name": "f9f25136293beb40410ec9129be6fede", "type": "electric_scooter", "lat": 38.89810833333333, "is_reserved": 0, "lon": -77.03130466666667, "fusion_lon": 0.0, "is_disabled": 0, "fusion_lat": 0.0, "bike_id": "f9f25136293beb40410ec9129be6fede", "rental_uris": {"ios": "https://dc.lft.to/lastmile_qr_scan", "android": "https://dc.lft.to/lastmile_qr_scan"}}, {"name": "56de86d130c0f7b62318b7fce753bcb6", "type": "electric_scooter", "lat": 38.91409016666667, "is_reserved": 0, "lon": -77.00841066666666, "fusion_lon": 0.0, "is_disabled": 0, "fusion_lat": 0.0, "bike_id": "56de86d130c0f7b62318b7fce753bcb6", "rental_uris": {"ios": "https://dc.lft.to/lastmile_qr_scan", "android": "https://dc.lft.to/lastmile_qr_scan"}}, {"name": "093105dd15e0173424db85964240add7", "type": "electric_scooter", "lat": 38.895194333333336, "is_reserved": 0, "lon": -77.01127483333333, "fusion_lon": 0.0, "is_disabled": 0, "fusion_lat": 0.0, "bike_id": "093105dd15e0173424db85964240add7", "rental_uris": {"ios": "https://dc.lft.to/lastmile_qr_scan", "android": "https://dc.lft.to/lastmile_qr_scan"}}, {"name": "4f810a913547d8ad545b5649f6f6610f", "type": "electric_scooter", "lat": 38.924452, "is_reserved": 0, "lon": -77.0336855, "fusion_lon": 0.0, "is_disabled": 0, "fusion_lat": 0.0, "bike_id": "4f810a913547d8ad545b5649f6f6610f", "rental_uris": {"ios": "https://dc.lft.to/lastmile_qr_scan", "android": "https://dc.lft.to/lastmile_qr_scan"}}, {"name": "08ee5da297db17cd5fc383c0ed69ee71", "type": "electric_scooter", "lat": 38.92714083333333, "is_reserved": 0, "lon": -77.02287216666667, "fusion_lon": 0.0, "is_disabled": 0, "fusion_lat": 0.0, "bike_id": "08ee5da297db17cd5fc383c0ed69ee71", "rental_uris": {"ios": "https://dc.lft.to/lastmile_qr_scan", "android": "https://dc.lft.to/lastmile_qr_scan"}}, {"name": "91b0fc7c3535f4229a3da966aa4c91cb", "type": "electric_scooter", "lat": 38.972358, "is_reserved": 0, "lon": -77.02715, "fusion_lon": 0.0, "is_disabled": 0, "fusion_lat": 0.0, "bike_id": "91b0fc7c3535f4229a3da966aa4c91cb", "rental_uris": {"ios": "https://dc.lft.to/lastmile_qr_scan", "android": "https://dc.lft.to/lastmile_qr_scan"}}, {"name": "a3591ad9ee71c0bbe95357d5cc3eefd4", "type": "electric_scooter", "lat": 38.92449883333333, "is_reserved": 0, "lon": -77.02030883333333, "fusion_lon": 0.0, "is_disabled": 0, "fusion_lat": 0.0, "bike_id": "a3591ad9ee71c0bbe95357d5cc3eefd4", "rental_uris": {"ios": "https://dc.lft.to/lastmile_qr_scan", "android": "https://dc.lft.to/lastmile_qr_scan"}}, {"name": "b9e4b3e4fac85473f7f560dad5918b81", "type": "electric_scooter", "lat": 38.855269166666666, "is_reserved": 0, "lon": -76.969169, "fusion_lon": 0.0, "is_disabled": 0, "fusion_lat": 0.0, "bike_id": "b9e4b3e4fac85473f7f560dad5918b81", "rental_uris": {"ios": "https://dc.lft.to/lastmile_qr_scan", "android": "https://dc.lft.to/lastmile_qr_scan"}}, {"name": "7f4a6f12134a595e08d78105447fb931", "type": "electric_scooter", "lat": 38.8940065, "is_reserved": 0, "lon": -76.94808433333333, "fusion_lon": 0.0, "is_disabled": 0, "fusion_lat": 0.0, "bike_id": "7f4a6f12134a595e08d78105447fb931", "rental_uris": {"ios": "https://dc.lft.to/lastmile_qr_scan", "android": "https://dc.lft.to/lastmile_qr_scan"}}, {"name": "40924c69604dc172b094d5811554acd3", "type": "electric_scooter", "lat": 38.90001516666667, "is_reserved": 0, "lon": -76.9950725, "fusion_lon": 0.0, "is_disabled": 0, "fusion_lat": 0.0, "bike_id": "40924c69604dc172b094d5811554acd3", "rental_uris": {"ios": "https://dc.lft.to/lastmile_qr_scan", "android": "https://dc.lft.to/lastmile_qr_scan"}}, {"name": "c92442db96fc2bdf10c117b4990bf121", "type": "electric_scooter", "lat": 38.907213666666664, "is_reserved": 0, "lon": -77.03444833333333, "fusion_lon": 0.0, "is_disabled": 0, "fusion_lat": 0.0, "bike_id": "c92442db96fc2bdf10c117b4990bf121", "rental_uris": {"ios": "https://dc.lft.to/lastmile_qr_scan", "android": "https://dc.lft.to/lastmile_qr_scan"}}, {"name": "9b5f3f82ae90a2d0b4f780263576580c", "type": "electric_scooter", "lat": 38.940958, "is_reserved": 0, "lon": -77.0327985, "fusion_lon": 0.0, "is_disabled": 0, "fusion_lat": 0.0, "bike_id": "9b5f3f82ae90a2d0b4f780263576580c", "rental_uris": {"ios": "https://dc.lft.to/lastmile_qr_scan", "android": "https://dc.lft.to/lastmile_qr_scan"}}, {"name": "e0c732b53ad50f01b11d5e770b857783", "type": "electric_bike", "lat": 38.94508716666667, "is_reserved": 0, "lon": -77.00667633333333, "fusion_lon": 0.0, "is_disabled": 0, "fusion_lat": 0.0, "bike_id": "e0c732b53ad50f01b11d5e770b857783", "rental_uris": {"ios": "https://dc.lft.to/lastmile_qr_scan", "android": "https://dc.lft.to/lastmile_qr_scan"}}, {"name": "7ed4feaf15466d7a0a33e38bbd10d9ca", "type": "electric_scooter", "lat": 38.917556, "is_reserved": 0, "lon": -77.03962016666667, "fusion_lon": 0.0, "is_disabled": 0, "fusion_lat": 0.0, "bike_id": "7ed4feaf15466d7a0a33e38bbd10d9ca", "rental_uris": {"ios": "https://dc.lft.to/lastmile_qr_scan", "android": "https://dc.lft.to/lastmile_qr_scan"}}, {"name": "60ef395d5afbff6424ea0e5519c1e8f3", "type": "electric_scooter", "lat": 38.90558516666667, "is_reserved": 0, "lon": -77.02174533333333, "fusion_lon": 0.0, "is_disabled": 0, "fusion_lat": 0.0, "bike_id": "60ef395d5afbff6424ea0e5519c1e8f3", "rental_uris": {"ios": "https://dc.lft.to/lastmile_qr_scan", "android": "https://dc.lft.to/lastmile_qr_scan"}}, {"name": "e96ffb594db6f7105cfa567df7f7be77", "type": "electric_scooter", "lat": 38.8640805, "is_reserved": 0, "lon": -76.9804565, "fusion_lon": 0.0, "is_disabled": 0, "fusion_lat": 0.0, "bike_id": "e96ffb594db6f7105cfa567df7f7be77", "rental_uris": {"ios": "https://dc.lft.to/lastmile_qr_scan", "android": "https://dc.lft.to/lastmile_qr_scan"}}, {"name": "9b8b9430c18a886d9475d2d3290acc9e", "type": "electric_scooter", "lat": 38.901366, "is_reserved": 0, "lon": -77.0333875, "fusion_lon": 0.0, "is_disabled": 0, "fusion_lat": 0.0, "bike_id": "9b8b9430c18a886d9475d2d3290acc9e", "rental_uris": {"ios": "https://dc.lft.to/lastmile_qr_scan", "android": "https://dc.lft.to/lastmile_qr_scan"}}, {"name": "b8ff23ddefb815caf7eb967f25f72fa3", "type": "electric_scooter", "lat": 38.916822833333335, "is_reserved": 0, "lon": -77.0368405, "fusion_lon": 0.0, "is_disabled": 0, "fusion_lat": 0.0, "bike_id": "b8ff23ddefb815caf7eb967f25f72fa3", "rental_uris": {"ios": "https://dc.lft.to/lastmile_qr_scan", "android": "https://dc.lft.to/lastmile_qr_scan"}}, {"name": "a622fb4acd6707aa69959172136375e3", "type": "electric_scooter", "lat": 38.930493, "is_reserved": 0, "lon": -77.0279595, "fusion_lon": 0.0, "is_disabled": 0, "fusion_lat": 0.0, "bike_id": "a622fb4acd6707aa69959172136375e3", "rental_uris": {"ios": "https://dc.lft.to/lastmile_qr_scan", "android": "https://dc.lft.to/lastmile_qr_scan"}}, {"name": "0e2ad7da35364f43cfb20c16b08fe1af", "type": "electric_scooter", "lat": 38.93357783333333, "is_reserved": 0, "lon": -77.06937866666667, "fusion_lon": 0.0, "is_disabled": 0, "fusion_lat": 0.0, "bike_id": "0e2ad7da35364f43cfb20c16b08fe1af", "rental_uris": {"ios": "https://dc.lft.to/lastmile_qr_scan", "android": "https://dc.lft.to/lastmile_qr_scan"}}, {"name": "4bc6e5d828f4471062cbc68225e02e91", "type": "electric_scooter", "lat": 38.9027555, "is_reserved": 0, "lon": -77.03824816666666, "fusion_lon": 0.0, "is_disabled": 0, "fusion_lat": 0.0, "bike_id": "4bc6e5d828f4471062cbc68225e02e91", "rental_uris": {"ios": "https://dc.lft.to/lastmile_qr_scan", "android": "https://dc.lft.to/lastmile_qr_scan"}}, {"name": "6186830d897e516d2d62ffe5153042eb", "type": "electric_scooter", "lat": 38.88775583333333, "is_reserved": 0, "lon": -76.95530683333334, "fusion_lon": 0.0, "is_disabled": 0, "fusion_lat": 0.0, "bike_id": "6186830d897e516d2d62ffe5153042eb", "rental_uris": {"ios": "https://dc.lft.to/lastmile_qr_scan", "android": "https://dc.lft.to/lastmile_qr_scan"}}, {"name": "181c1b8695e84f545a59151bce65a48a", "type": "electric_scooter", "lat": 38.9199125, "is_reserved": 0, "lon": -77.034688, "fusion_lon": 0.0, "is_disabled": 0, "fusion_lat": 0.0, "bike_id": "181c1b8695e84f545a59151bce65a48a", "rental_uris": {"ios": "https://dc.lft.to/lastmile_qr_scan", "android": "https://dc.lft.to/lastmile_qr_scan"}}, {"name": "77dd673e14256dd8575766ef2bea859b", "type": "electric_scooter", "lat": 38.912, "is_reserved": 0, "lon": -77.04546816666667, "fusion_lon": 0.0, "is_disabled": 0, "fusion_lat": 0.0, "bike_id": "77dd673e14256dd8575766ef2bea859b", "rental_uris": {"ios": "https://dc.lft.to/lastmile_qr_scan", "android": "https://dc.lft.to/lastmile_qr_scan"}}, {"name": "91108d170e317550266d9610347a850a", "type": "electric_scooter", "lat": 38.89921066666667, "is_reserved": 0, "lon": -77.03921983333333, "fusion_lon": 0.0, "is_disabled": 0, "fusion_lat": 0.0, "bike_id": "91108d170e317550266d9610347a850a", "rental_uris": {"ios": "https://dc.lft.to/lastmile_qr_scan", "android": "https://dc.lft.to/lastmile_qr_scan"}}, {"name": "7e335f82216300cd0844cf0bc384986b", "type": "electric_scooter", "lat": 38.8920025, "is_reserved": 0, "lon": -77.00243566666667, "fusion_lon": 0.0, "is_disabled": 0, "fusion_lat": 0.0, "bike_id": "7e335f82216300cd0844cf0bc384986b", "rental_uris": {"ios": "https://dc.lft.to/lastmile_qr_scan", "android": "https://dc.lft.to/lastmile_qr_scan"}}, {"name": "4b212534764fed202d04fa93d7c23ce1", "type": "electric_scooter", "lat": 38.909567833333334, "is_reserved": 0, "lon": -77.04858183333333, "fusion_lon": 0.0, "is_disabled": 0, "fusion_lat": 0.0, "bike_id": "4b212534764fed202d04fa93d7c23ce1", "rental_uris": {"ios": "https://dc.lft.to/lastmile_qr_scan", "android": "https://dc.lft.to/lastmile_qr_scan"}}, {"name": "57df48ff2dac3245b1a6126c47e4ddde", "type": "electric_bike", "lat": 38.90535416666667, "is_reserved": 0, "lon": -76.99805033333334, "fusion_lon": 0.0, "is_disabled": 0, "fusion_lat": 0.0, "bike_id": "57df48ff2dac3245b1a6126c47e4ddde", "rental_uris": {"ios": "https://dc.lft.to/lastmile_qr_scan", "android": "https://dc.lft.to/lastmile_qr_scan"}}, {"name": "1a7edd2c9e932c597fc6350c80945d44", "type": "electric_bike", "lat": 38.99091966666667, "is_reserved": 0, "lon": -76.8749745, "fusion_lon": 0.0, "is_disabled": 0, "fusion_lat": 0.0, "bike_id": "1a7edd2c9e932c597fc6350c80945d44", "rental_uris": {"ios": "https://dc.lft.to/lastmile_qr_scan", "android": "https://dc.lft.to/lastmile_qr_scan"}}, {"name": "463d29da099e1fcededec0b02086b0b9", "type": "electric_scooter", "lat": 38.866989333333336, "is_reserved": 0, "lon": -76.98706033333333, "fusion_lon": 0.0, "is_disabled": 0, "fusion_lat": 0.0, "bike_id": "463d29da099e1fcededec0b02086b0b9", "rental_uris": {"ios": "https://dc.lft.to/lastmile_qr_scan", "android": "https://dc.lft.to/lastmile_qr_scan"}}, {"name": "53a1dc10496e08bcf43c38c7c0c027ab", "type": "electric_scooter", "lat": 38.906731, "is_reserved": 0, "lon": -77.03823616666666, "fusion_lon": 0.0, "is_disabled": 0, "fusion_lat": 0.0, "bike_id": "53a1dc10496e08bcf43c38c7c0c027ab", "rental_uris": {"ios": "https://dc.lft.to/lastmile_qr_scan", "android": "https://dc.lft.to/lastmile_qr_scan"}}, {"name": "febc300aec5f5243b153477eabd92ea9", "type": "electric_scooter", "lat": 38.937186833333335, "is_reserved": 0, "lon": -77.03651816666667, "fusion_lon": 0.0, "is_disabled": 0, "fusion_lat": 0.0, "bike_id": "febc300aec5f5243b153477eabd92ea9", "rental_uris": {"ios": "https://dc.lft.to/lastmile_qr_scan", "android": "https://dc.lft.to/lastmile_qr_scan"}}, {"name": "497c021929bf7f59961701c5466d8152", "type": "electric_scooter", "lat": 38.922902666666666, "is_reserved": 0, "lon": -77.0206935, "fusion_lon": 0.0, "is_disabled": 0, "fusion_lat": 0.0, "bike_id": "497c021929bf7f59961701c5466d8152", "rental_uris": {"ios": "https://dc.lft.to/lastmile_qr_scan", "android": "https://dc.lft.to/lastmile_qr_scan"}}, {"name": "6224c898d46c98be02e20e2d176a78e8", "type": "electric_scooter", "lat": 38.89672233333334, "is_reserved": 0, "lon": -77.05397716666667, "fusion_lon": 0.0, "is_disabled": 0, "fusion_lat": 0.0, "bike_id": "6224c898d46c98be02e20e2d176a78e8", "rental_uris": {"ios": "https://dc.lft.to/lastmile_qr_scan", "android": "https://dc.lft.to/lastmile_qr_scan"}}, {"name": "176f41f2f7598dce1d6dae2b7cfa06ad", "type": "electric_scooter", "lat": 38.9133405, "is_reserved": 0, "lon": -77.03042283333333, "fusion_lon": 0.0, "is_disabled": 0, "fusion_lat": 0.0, "bike_id": "176f41f2f7598dce1d6dae2b7cfa06ad", "rental_uris": {"ios": "https://dc.lft.to/lastmile_qr_scan", "android": "https://dc.lft.to/lastmile_qr_scan"}}, {"name": "43a8023cef6d5b1975dc78396ae59cbb", "type": "electric_scooter", "lat": 38.93100116666667, "is_reserved": 0, "lon": -77.02665933333333, "fusion_lon": 0.0, "is_disabled": 0, "fusion_lat": 0.0, "bike_id": "43a8023cef6d5b1975dc78396ae59cbb", "rental_uris": {"ios": "https://dc.lft.to/lastmile_qr_scan", "android": "https://dc.lft.to/lastmile_qr_scan"}}, {"name": "a2f480f798f2d567c4a7c5661511a99c", "type": "electric_scooter", "lat": 38.941513666666665, "is_reserved": 0, "lon": -77.0364845, "fusion_lon": 0.0, "is_disabled": 0, "fusion_lat": 0.0, "bike_id": "a2f480f798f2d567c4a7c5661511a99c", "rental_uris": {"ios": "https://dc.lft.to/lastmile_qr_scan", "android": "https://dc.lft.to/lastmile_qr_scan"}}, {"name": "0100768924ee3e619e461f5409a100b7", "type": "electric_scooter", "lat": 38.8982815, "is_reserved": 0, "lon": -76.92644983333334, "fusion_lon": 0.0, "is_disabled": 0, "fusion_lat": 0.0, "bike_id": "0100768924ee3e619e461f5409a100b7", "rental_uris": {"ios": "https://dc.lft.to/lastmile_qr_scan", "android": "https://dc.lft.to/lastmile_qr_scan"}}, {"name": "6603b231daa7eda0d35f6e62c7c822a0", "type": "electric_scooter", "lat": 38.899012166666665, "is_reserved": 0, "lon": -77.00701316666667, "fusion_lon": 0.0, "is_disabled": 0, "fusion_lat": 0.0, "bike_id": "6603b231daa7eda0d35f6e62c7c822a0", "rental_uris": {"ios": "https://dc.lft.to/lastmile_qr_scan", "android": "https://dc.lft.to/lastmile_qr_scan"}}, {"name": "3f0bae451f44a42c78bbcb4e2ce9388f", "type": "electric_bike", "lat": 38.98501983333333, "is_reserved": 0, "lon": -76.981889, "fusion_lon": 0.0, "is_disabled": 0, "fusion_lat": 0.0, "bike_id": "3f0bae451f44a42c78bbcb4e2ce9388f", "rental_uris": {"ios": "https://dc.lft.to/lastmile_qr_scan", "android": "https://dc.lft.to/lastmile_qr_scan"}}, {"name": "032140b9e82540917695aa39fe1da714", "type": "electric_scooter", "lat": 38.87007966666667, "is_reserved": 0, "lon": -77.0122265, "fusion_lon": 0.0, "is_disabled": 0, "fusion_lat": 0.0, "bike_id": "032140b9e82540917695aa39fe1da714", "rental_uris": {"ios": "https://dc.lft.to/lastmile_qr_scan", "android": "https://dc.lft.to/lastmile_qr_scan"}}, {"name": "4d7b3e3fc8d857ca206f395964e6a534", "type": "electric_scooter", "lat": 38.87936833333333, "is_reserved": 0, "lon": -77.00381666666667, "fusion_lon": 0.0, "is_disabled": 0, "fusion_lat": 0.0, "bike_id": "4d7b3e3fc8d857ca206f395964e6a534", "rental_uris": {"ios": "https://dc.lft.to/lastmile_qr_scan", "android": "https://dc.lft.to/lastmile_qr_scan"}}, {"name": "e00a19713db53e80bb1e64efebf4503d", "type": "electric_scooter", "lat": 38.93234616666667, "is_reserved": 0, "lon": -77.0383565, "fusion_lon": 0.0, "is_disabled": 0, "fusion_lat": 0.0, "bike_id": "e00a19713db53e80bb1e64efebf4503d", "rental_uris": {"ios": "https://dc.lft.to/lastmile_qr_scan", "android": "https://dc.lft.to/lastmile_qr_scan"}}, {"name": "08a613ab0ffc16b9b45ac567cf4ead43", "type": "electric_scooter", "lat": 38.90314, "is_reserved": 0, "lon": -77.03190083333334, "fusion_lon": 0.0, "is_disabled": 0, "fusion_lat": 0.0, "bike_id": "08a613ab0ffc16b9b45ac567cf4ead43", "rental_uris": {"ios": "https://dc.lft.to/lastmile_qr_scan", "android": "https://dc.lft.to/lastmile_qr_scan"}}, {"name": "ebbf29cc2181b9a2399fbe5cc3b8245b", "type": "electric_scooter", "lat": 38.936103, "is_reserved": 0, "lon": -77.02245116666667, "fusion_lon": 0.0, "is_disabled": 0, "fusion_lat": 0.0, "bike_id": "ebbf29cc2181b9a2399fbe5cc3b8245b", "rental_uris": {"ios": "https://dc.lft.to/lastmile_qr_scan", "android": "https://dc.lft.to/lastmile_qr_scan"}}, {"name": "9bd8be61af57845143a5c43799f52415", "type": "electric_bike", "lat": 38.820507, "is_reserved": 0, "lon": -77.05316216666667, "fusion_lon": 0.0, "is_disabled": 0, "fusion_lat": 0.0, "bike_id": "9bd8be61af57845143a5c43799f52415", "rental_uris": {"ios": "https://dc.lft.to/lastmile_qr_scan", "android": "https://dc.lft.to/lastmile_qr_scan"}}, {"name": "e9ba6ab2a6a9117b2265a509bd09c4bd", "type": "electric_scooter", "lat": 38.93276733333333, "is_reserved": 0, "lon": -77.03499383333333, "fusion_lon": 0.0, "is_disabled": 0, "fusion_lat": 0.0, "bike_id": "e9ba6ab2a6a9117b2265a509bd09c4bd", "rental_uris": {"ios": "https://dc.lft.to/lastmile_qr_scan", "android": "https://dc.lft.to/lastmile_qr_scan"}}, {"name": "0e27c10c09408fc4235300c3ef1b9d20", "type": "electric_scooter", "lat": 38.94463233333333, "is_reserved": 0, "lon": -77.00656483333333, "fusion_lon": 0.0, "is_disabled": 0, "fusion_lat": 0.0, "bike_id": "0e27c10c09408fc4235300c3ef1b9d20", "rental_uris": {"ios": "https://dc.lft.to/lastmile_qr_scan", "android": "https://dc.lft.to/lastmile_qr_scan"}}, {"name": "c14bc78263c8e9d1719d14514c32b56f", "type": "electric_scooter", "lat": 38.90928366666667, "is_reserved": 0, "lon": -76.9998045, "fusion_lon": 0.0, "is_disabled": 0, "fusion_lat": 0.0, "bike_id": "c14bc78263c8e9d1719d14514c32b56f", "rental_uris": {"ios": "https://dc.lft.to/lastmile_qr_scan", "android": "https://dc.lft.to/lastmile_qr_scan"}}, {"name": "63950763e6c3667c88b08a3c3b533ccd", "type": "electric_scooter", "lat": 38.92643, "is_reserved": 0, "lon": -77.0370045, "fusion_lon": 0.0, "is_disabled": 0, "fusion_lat": 0.0, "bike_id": "63950763e6c3667c88b08a3c3b533ccd", "rental_uris": {"ios": "https://dc.lft.to/lastmile_qr_scan", "android": "https://dc.lft.to/lastmile_qr_scan"}}, {"name": "0abd6793a923935e00508ff27b8d9b7b", "type": "electric_scooter", "lat": 38.86566416666667, "is_reserved": 0, "lon": -76.98548666666667, "fusion_lon": 0.0, "is_disabled": 0, "fusion_lat": 0.0, "bike_id": "0abd6793a923935e00508ff27b8d9b7b", "rental_uris": {"ios": "https://dc.lft.to/lastmile_qr_scan", "android": "https://dc.lft.to/lastmile_qr_scan"}}, {"name": "f64f651cef3e5b2a9fa7dc05e2a5346a", "type": "electric_scooter", "lat": 38.93069233333333, "is_reserved": 0, "lon": -77.03393366666667, "fusion_lon": 0.0, "is_disabled": 0, "fusion_lat": 0.0, "bike_id": "f64f651cef3e5b2a9fa7dc05e2a5346a", "rental_uris": {"ios": "https://dc.lft.to/lastmile_qr_scan", "android": "https://dc.lft.to/lastmile_qr_scan"}}, {"name": "7bc79e4a75ab753f0411acc85d340923", "type": "electric_scooter", "lat": 38.94437283333333, "is_reserved": 0, "lon": -77.0635305, "fusion_lon": 0.0, "is_disabled": 0, "fusion_lat": 0.0, "bike_id": "7bc79e4a75ab753f0411acc85d340923", "rental_uris": {"ios": "https://dc.lft.to/lastmile_qr_scan", "android": "https://dc.lft.to/lastmile_qr_scan"}}, {"name": "959ae1e9a25c483e6cf4a6d908b406e4", "type": "electric_scooter", "lat": 38.9006695, "is_reserved": 0, "lon": -76.98710583333333, "fusion_lon": 0.0, "is_disabled": 0, "fusion_lat": 0.0, "bike_id": "959ae1e9a25c483e6cf4a6d908b406e4", "rental_uris": {"ios": "https://dc.lft.to/lastmile_qr_scan", "android": "https://dc.lft.to/lastmile_qr_scan"}}, {"name": "fded70da92d1f6c2a067bc1c85d1534e", "type": "electric_bike", "lat": 38.869884666666664, "is_reserved": 0, "lon": -76.9598655, "fusion_lon": 0.0, "is_disabled": 0, "fusion_lat": 0.0, "bike_id": "fded70da92d1f6c2a067bc1c85d1534e", "rental_uris": {"ios": "https://dc.lft.to/lastmile_qr_scan", "android": "https://dc.lft.to/lastmile_qr_scan"}}, {"name": "456dd1e47be172175ee6db82e53b3108", "type": "electric_scooter", "lat": 38.87344816666667, "is_reserved": 0, "lon": -77.01855, "fusion_lon": 0.0, "is_disabled": 0, "fusion_lat": 0.0, "bike_id": "456dd1e47be172175ee6db82e53b3108", "rental_uris": {"ios": "https://dc.lft.to/lastmile_qr_scan", "android": "https://dc.lft.to/lastmile_qr_scan"}}, {"name": "2fd6d3b535c7edc46ad8c619552ab45b", "type": "electric_scooter", "lat": 38.862416, "is_reserved": 0, "lon": -76.99492433333333, "fusion_lon": 0.0, "is_disabled": 0, "fusion_lat": 0.0, "bike_id": "2fd6d3b535c7edc46ad8c619552ab45b", "rental_uris": {"ios": "https://dc.lft.to/lastmile_qr_scan", "android": "https://dc.lft.to/lastmile_qr_scan"}}, {"name": "2f8bf43b73c878df8e59806f1418ee93", "type": "electric_scooter", "lat": 38.924808166666665, "is_reserved": 0, "lon": -77.028843, "fusion_lon": 0.0, "is_disabled": 0, "fusion_lat": 0.0, "bike_id": "2f8bf43b73c878df8e59806f1418ee93", "rental_uris": {"ios": "https://dc.lft.to/lastmile_qr_scan", "android": "https://dc.lft.to/lastmile_qr_scan"}}, {"name": "a5a66354f05745b90603ced09e125b61", "type": "electric_scooter", "lat": 38.9056155, "is_reserved": 0, "lon": -77.02169183333334, "fusion_lon": 0.0, "is_disabled": 0, "fusion_lat": 0.0, "bike_id": "a5a66354f05745b90603ced09e125b61", "rental_uris": {"ios": "https://dc.lft.to/lastmile_qr_scan", "android": "https://dc.lft.to/lastmile_qr_scan"}}, {"name": "4cf539dc6c1e0c878515caa99b30180f", "type": "electric_scooter", "lat": 38.89957666666667, "is_reserved": 0, "lon": -76.985618, "fusion_lon": 0.0, "is_disabled": 0, "fusion_lat": 0.0, "bike_id": "4cf539dc6c1e0c878515caa99b30180f", "rental_uris": {"ios": "https://dc.lft.to/lastmile_qr_scan", "android": "https://dc.lft.to/lastmile_qr_scan"}}, {"name": "f1abcf76fc7af53478d530f90f4229a2", "type": "electric_scooter", "lat": 38.866558833333336, "is_reserved": 0, "lon": -76.99011016666667, "fusion_lon": 0.0, "is_disabled": 0, "fusion_lat": 0.0, "bike_id": "f1abcf76fc7af53478d530f90f4229a2", "rental_uris": {"ios": "https://dc.lft.to/lastmile_qr_scan", "android": "https://dc.lft.to/lastmile_qr_scan"}}, {"name": "6be357244b1b76fa9657cc1e9e71486f", "type": "electric_scooter", "lat": 38.914176166666664, "is_reserved": 0, "lon": -77.02275233333333, "fusion_lon": 0.0, "is_disabled": 0, "fusion_lat": 0.0, "bike_id": "6be357244b1b76fa9657cc1e9e71486f", "rental_uris": {"ios": "https://dc.lft.to/lastmile_qr_scan", "android": "https://dc.lft.to/lastmile_qr_scan"}}, {"name": "8e615a73ab29ac7db56082dc22d1518a", "type": "electric_scooter", "lat": 38.901156, "is_reserved": 0, "lon": -77.05080066666666, "fusion_lon": 0.0, "is_disabled": 0, "fusion_lat": 0.0, "bike_id": "8e615a73ab29ac7db56082dc22d1518a", "rental_uris": {"ios": "https://dc.lft.to/lastmile_qr_scan", "android": "https://dc.lft.to/lastmile_qr_scan"}}, {"name": "e47310f78626dc170a3f6158fe0895b5", "type": "electric_scooter", "lat": 38.898269166666665, "is_reserved": 0, "lon": -76.94651883333333, "fusion_lon": 0.0, "is_disabled": 0, "fusion_lat": 0.0, "bike_id": "e47310f78626dc170a3f6158fe0895b5", "rental_uris": {"ios": "https://dc.lft.to/lastmile_qr_scan", "android": "https://dc.lft.to/lastmile_qr_scan"}}, {"name": "6b7e9396a12456694dd43448a0a7de51", "type": "electric_scooter", "lat": 38.93066533333333, "is_reserved": 0, "lon": -77.02985833333334, "fusion_lon": 0.0, "is_disabled": 0, "fusion_lat": 0.0, "bike_id": "6b7e9396a12456694dd43448a0a7de51", "rental_uris": {"ios": "https://dc.lft.to/lastmile_qr_scan", "android": "https://dc.lft.to/lastmile_qr_scan"}}, {"name": "405bf059515335e71cc73621a83d0b67", "type": "electric_scooter", "lat": 38.9307105, "is_reserved": 0, "lon": -77.02917883333333, "fusion_lon": 0.0, "is_disabled": 0, "fusion_lat": 0.0, "bike_id": "405bf059515335e71cc73621a83d0b67", "rental_uris": {"ios": "https://dc.lft.to/lastmile_qr_scan", "android": "https://dc.lft.to/lastmile_qr_scan"}}, {"name": "e29cf6d4f54cdb2b22f9b5b153584c1f", "type": "electric_scooter", "lat": 38.9191955, "is_reserved": 0, "lon": -77.03425616666667, "fusion_lon": 0.0, "is_disabled": 0, "fusion_lat": 0.0, "bike_id": "e29cf6d4f54cdb2b22f9b5b153584c1f", "rental_uris": {"ios": "https://dc.lft.to/lastmile_qr_scan", "android": "https://dc.lft.to/lastmile_qr_scan"}}, {"name": "05ef97bb4e23a1f0398ff18dfe16655c", "type": "electric_scooter", "lat": 38.937707833333334, "is_reserved": 0, "lon": -77.022641, "fusion_lon": 0.0, "is_disabled": 0, "fusion_lat": 0.0, "bike_id": "05ef97bb4e23a1f0398ff18dfe16655c", "rental_uris": {"ios": "https://dc.lft.to/lastmile_qr_scan", "android": "https://dc.lft.to/lastmile_qr_scan"}}, {"name": "285ab3506a5cebbea2f1e6338e1c492b", "type": "electric_bike", "lat": 38.83975066666667, "is_reserved": 0, "lon": -77.0054905, "fusion_lon": 0.0, "is_disabled": 0, "fusion_lat": 0.0, "bike_id": "285ab3506a5cebbea2f1e6338e1c492b", "rental_uris": {"ios": "https://dc.lft.to/lastmile_qr_scan", "android": "https://dc.lft.to/lastmile_qr_scan"}}, {"name": "c9627a797851a5c39250628d365e5ece", "type": "electric_bike", "lat": 38.922049, "is_reserved": 0, "lon": -77.0819205, "fusion_lon": 0.0, "is_disabled": 0, "fusion_lat": 0.0, "bike_id": "c9627a797851a5c39250628d365e5ece", "rental_uris": {"ios": "https://dc.lft.to/lastmile_qr_scan", "android": "https://dc.lft.to/lastmile_qr_scan"}}, {"name": "dd3963418e438b117d3a5851bcd5e6a3", "type": "electric_bike", "lat": 38.870772333333335, "is_reserved": 0, "lon": -77.01206566666667, "fusion_lon": 0.0, "is_disabled": 0, "fusion_lat": 0.0, "bike_id": "dd3963418e438b117d3a5851bcd5e6a3", "rental_uris": {"ios": "https://dc.lft.to/lastmile_qr_scan", "android": "https://dc.lft.to/lastmile_qr_scan"}}, {"name": "3b3898b6d82f597a56c4804467b867ce", "type": "electric_bike", "lat": 38.93693716666667, "is_reserved": 0, "lon": -77.0564995, "fusion_lon": 0.0, "is_disabled": 0, "fusion_lat": 0.0, "bike_id": "3b3898b6d82f597a56c4804467b867ce", "rental_uris": {"ios": "https://dc.lft.to/lastmile_qr_scan", "android": "https://dc.lft.to/lastmile_qr_scan"}}, {"name": "6e072dfbe7fb75db2ccac3ef4a7fe5b6", "type": "electric_scooter", "lat": 38.91109516666667, "is_reserved": 0, "lon": -77.04228833333333, "fusion_lon": 0.0, "is_disabled": 0, "fusion_lat": 0.0, "bike_id": "6e072dfbe7fb75db2ccac3ef4a7fe5b6", "rental_uris": {"ios": "https://dc.lft.to/lastmile_qr_scan", "android": "https://dc.lft.to/lastmile_qr_scan"}}, {"name": "c19f642e9e3fd8ab51973320170470b1", "type": "electric_bike", "lat": 38.9370215, "is_reserved": 0, "lon": -77.02976933333333, "fusion_lon": 0.0, "is_disabled": 0, "fusion_lat": 0.0, "bike_id": "c19f642e9e3fd8ab51973320170470b1", "rental_uris": {"ios": "https://dc.lft.to/lastmile_qr_scan", "android": "https://dc.lft.to/lastmile_qr_scan"}}, {"name": "954a56419ccc750b8a99611ecbe890f8", "type": "electric_scooter", "lat": 38.906249, "is_reserved": 0, "lon": -76.98321683333333, "fusion_lon": 0.0, "is_disabled": 0, "fusion_lat": 0.0, "bike_id": "954a56419ccc750b8a99611ecbe890f8", "rental_uris": {"ios": "https://dc.lft.to/lastmile_qr_scan", "android": "https://dc.lft.to/lastmile_qr_scan"}}, {"name": "3afa65e53d0438e3cb859efc23a11319", "type": "electric_scooter", "lat": 38.896095333333335, "is_reserved": 0, "lon": -77.04502816666667, "fusion_lon": 0.0, "is_disabled": 0, "fusion_lat": 0.0, "bike_id": "3afa65e53d0438e3cb859efc23a11319", "rental_uris": {"ios": "https://dc.lft.to/lastmile_qr_scan", "android": "https://dc.lft.to/lastmile_qr_scan"}}, {"name": "2166a16ae8f1c1f31d7da23213588fb8", "type": "electric_scooter", "lat": 38.860937166666666, "is_reserved": 0, "lon": -76.98374833333334, "fusion_lon": 0.0, "is_disabled": 0, "fusion_lat": 0.0, "bike_id": "2166a16ae8f1c1f31d7da23213588fb8", "rental_uris": {"ios": "https://dc.lft.to/lastmile_qr_scan", "android": "https://dc.lft.to/lastmile_qr_scan"}}, {"name": "91ee4f9e0ae34494141e18a36fc5940f", "type": "electric_scooter", "lat": 38.89515133333333, "is_reserved": 0, "lon": -77.02286266666667, "fusion_lon": 0.0, "is_disabled": 0, "fusion_lat": 0.0, "bike_id": "91ee4f9e0ae34494141e18a36fc5940f", "rental_uris": {"ios": "https://dc.lft.to/lastmile_qr_scan", "android": "https://dc.lft.to/lastmile_qr_scan"}}, {"name": "d082eaed381ecb7251f4b4423cccc569", "type": "electric_scooter", "lat": 38.8910505, "is_reserved": 0, "lon": -76.98703233333333, "fusion_lon": 0.0, "is_disabled": 0, "fusion_lat": 0.0, "bike_id": "d082eaed381ecb7251f4b4423cccc569", "rental_uris": {"ios": "https://dc.lft.to/lastmile_qr_scan", "android": "https://dc.lft.to/lastmile_qr_scan"}}, {"name": "f711b51b4e5b2d10b19f7313c3ebedba", "type": "electric_scooter", "lat": 38.902427, "is_reserved": 0, "lon": -77.00201083333333, "fusion_lon": 0.0, "is_disabled": 0, "fusion_lat": 0.0, "bike_id": "f711b51b4e5b2d10b19f7313c3ebedba", "rental_uris": {"ios": "https://dc.lft.to/lastmile_qr_scan", "android": "https://dc.lft.to/lastmile_qr_scan"}}, {"name": "d8498f6c0c09d14eda1d086f7c6f8a13", "type": "electric_scooter", "lat": 38.95906516666667, "is_reserved": 0, "lon": -77.08073233333333, "fusion_lon": 0.0, "is_disabled": 0, "fusion_lat": 0.0, "bike_id": "d8498f6c0c09d14eda1d086f7c6f8a13", "rental_uris": {"ios": "https://dc.lft.to/lastmile_qr_scan", "android": "https://dc.lft.to/lastmile_qr_scan"}}, {"name": "52c56700ba5c0455272891925737b9e5", "type": "electric_scooter", "lat": 38.9149895, "is_reserved": 0, "lon": -77.01849383333334, "fusion_lon": 0.0, "is_disabled": 0, "fusion_lat": 0.0, "bike_id": "52c56700ba5c0455272891925737b9e5", "rental_uris": {"ios": "https://dc.lft.to/lastmile_qr_scan", "android": "https://dc.lft.to/lastmile_qr_scan"}}, {"name": "bf06a2699063690e759fcc0675a9475f", "type": "electric_scooter", "lat": 38.89234, "is_reserved": 0, "lon": -77.01272933333334, "fusion_lon": 0.0, "is_disabled": 0, "fusion_lat": 0.0, "bike_id": "bf06a2699063690e759fcc0675a9475f", "rental_uris": {"ios": "https://dc.lft.to/lastmile_qr_scan", "android": "https://dc.lft.to/lastmile_qr_scan"}}, {"name": "0880a909f4853eb03b2846c070493b9e", "type": "electric_scooter", "lat": 38.88025966666667, "is_reserved": 0, "lon": -76.98830866666667, "fusion_lon": 0.0, "is_disabled": 0, "fusion_lat": 0.0, "bike_id": "0880a909f4853eb03b2846c070493b9e", "rental_uris": {"ios": "https://dc.lft.to/lastmile_qr_scan", "android": "https://dc.lft.to/lastmile_qr_scan"}}, {"name": "cdd549e334d3d942b60753ca807a80b1", "type": "electric_scooter", "lat": 38.87725416666667, "is_reserved": 0, "lon": -77.0057085, "fusion_lon": 0.0, "is_disabled": 0, "fusion_lat": 0.0, "bike_id": "cdd549e334d3d942b60753ca807a80b1", "rental_uris": {"ios": "https://dc.lft.to/lastmile_qr_scan", "android": "https://dc.lft.to/lastmile_qr_scan"}}, {"name": "9e0af1d51a4ce94696d64eac10aa7524", "type": "electric_scooter", "lat": 38.93398416666667, "is_reserved": 0, "lon": -77.038826, "fusion_lon": 0.0, "is_disabled": 0, "fusion_lat": 0.0, "bike_id": "9e0af1d51a4ce94696d64eac10aa7524", "rental_uris": {"ios": "https://dc.lft.to/lastmile_qr_scan", "android": "https://dc.lft.to/lastmile_qr_scan"}}, {"name": "71fd77677c2457e22d2264df278f6af4", "type": "electric_scooter", "lat": 38.904987166666665, "is_reserved": 0, "lon": -77.05312016666667, "fusion_lon": 0.0, "is_disabled": 0, "fusion_lat": 0.0, "bike_id": "71fd77677c2457e22d2264df278f6af4", "rental_uris": {"ios": "https://dc.lft.to/lastmile_qr_scan", "android": "https://dc.lft.to/lastmile_qr_scan"}}, {"name": "9d4e318cc3ae8ddc017991db19b913eb", "type": "electric_scooter", "lat": 38.8712625, "is_reserved": 0, "lon": -77.00596483333334, "fusion_lon": 0.0, "is_disabled": 0, "fusion_lat": 0.0, "bike_id": "9d4e318cc3ae8ddc017991db19b913eb", "rental_uris": {"ios": "https://dc.lft.to/lastmile_qr_scan", "android": "https://dc.lft.to/lastmile_qr_scan"}}, {"name": "5a0c011cbfbea3242b6b9db0b1e27200", "type": "electric_bike", "lat": 38.908628666666665, "is_reserved": 0, "lon": -76.93159833333333, "fusion_lon": 0.0, "is_disabled": 0, "fusion_lat": 0.0, "bike_id": "5a0c011cbfbea3242b6b9db0b1e27200", "rental_uris": {"ios": "https://dc.lft.to/lastmile_qr_scan", "android": "https://dc.lft.to/lastmile_qr_scan"}}, {"name": "5b43f3d2eae2de645c5a6645f74dd5be", "type": "electric_scooter", "lat": 38.913381666666666, "is_reserved": 0, "lon": -77.01624933333333, "fusion_lon": 0.0, "is_disabled": 0, "fusion_lat": 0.0, "bike_id": "5b43f3d2eae2de645c5a6645f74dd5be", "rental_uris": {"ios": "https://dc.lft.to/lastmile_qr_scan", "android": "https://dc.lft.to/lastmile_qr_scan"}}, {"name": "b87dd4dee0a803d874ec3ef31af3d7f2", "type": "electric_scooter", "lat": 38.906775833333334, "is_reserved": 0, "lon": -77.02493166666666, "fusion_lon": 0.0, "is_disabled": 0, "fusion_lat": 0.0, "bike_id": "b87dd4dee0a803d874ec3ef31af3d7f2", "rental_uris": {"ios": "https://dc.lft.to/lastmile_qr_scan", "android": "https://dc.lft.to/lastmile_qr_scan"}}, {"name": "c5852f2e6ee826d18d04d9b228819d65", "type": "electric_scooter", "lat": 38.89346116666667, "is_reserved": 0, "lon": -76.99387683333333, "fusion_lon": 0.0, "is_disabled": 0, "fusion_lat": 0.0, "bike_id": "c5852f2e6ee826d18d04d9b228819d65", "rental_uris": {"ios": "https://dc.lft.to/lastmile_qr_scan", "android": "https://dc.lft.to/lastmile_qr_scan"}}, {"name": "033e2d39514f1ad223be1c53602c3f00", "type": "electric_scooter", "lat": 38.863671333333336, "is_reserved": 0, "lon": -77.01365333333334, "fusion_lon": 0.0, "is_disabled": 0, "fusion_lat": 0.0, "bike_id": "033e2d39514f1ad223be1c53602c3f00", "rental_uris": {"ios": "https://dc.lft.to/lastmile_qr_scan", "android": "https://dc.lft.to/lastmile_qr_scan"}}, {"name": "0381fb01901ebc3e027d01b4fd19be8c", "type": "electric_scooter", "lat": 38.92305066666667, "is_reserved": 0, "lon": -77.01210466666667, "fusion_lon": 0.0, "is_disabled": 0, "fusion_lat": 0.0, "bike_id": "0381fb01901ebc3e027d01b4fd19be8c", "rental_uris": {"ios": "https://dc.lft.to/lastmile_qr_scan", "android": "https://dc.lft.to/lastmile_qr_scan"}}, {"name": "80fe260fe43943bfaa819a240f6fcffb", "type": "electric_scooter", "lat": 38.90264916666667, "is_reserved": 0, "lon": -77.01757816666667, "fusion_lon": 0.0, "is_disabled": 0, "fusion_lat": 0.0, "bike_id": "80fe260fe43943bfaa819a240f6fcffb", "rental_uris": {"ios": "https://dc.lft.to/lastmile_qr_scan", "android": "https://dc.lft.to/lastmile_qr_scan"}}, {"name": "9d5cd993e0d7fb670c515ffa3c5325b8", "type": "electric_bike", "lat": 38.845707166666664, "is_reserved": 0, "lon": -77.09623333333333, "fusion_lon": 0.0, "is_disabled": 0, "fusion_lat": 0.0, "bike_id": "9d5cd993e0d7fb670c515ffa3c5325b8", "rental_uris": {"ios": "https://dc.lft.to/lastmile_qr_scan", "android": "https://dc.lft.to/lastmile_qr_scan"}}, {"name": "dcded67f810d9b1758d001f7b3499223", "type": "electric_scooter", "lat": 38.96110916666667, "is_reserved": 0, "lon": -77.02811683333333, "fusion_lon": 0.0, "is_disabled": 0, "fusion_lat": 0.0, "bike_id": "dcded67f810d9b1758d001f7b3499223", "rental_uris": {"ios": "https://dc.lft.to/lastmile_qr_scan", "android": "https://dc.lft.to/lastmile_qr_scan"}}, {"name": "61f3a4560fba5a2c4743d20f6ee71c5a", "type": "electric_bike", "lat": 38.99906383333333, "is_reserved": 0, "lon": -77.04618233333333, "fusion_lon": 0.0, "is_disabled": 0, "fusion_lat": 0.0, "bike_id": "61f3a4560fba5a2c4743d20f6ee71c5a", "rental_uris": {"ios": "https://dc.lft.to/lastmile_qr_scan", "android": "https://dc.lft.to/lastmile_qr_scan"}}, {"name": "0696b559119300683a4bba70a1f3e4fa", "type": "electric_scooter", "lat": 38.907217333333335, "is_reserved": 0, "lon": -77.043539, "fusion_lon": 0.0, "is_disabled": 0, "fusion_lat": 0.0, "bike_id": "0696b559119300683a4bba70a1f3e4fa", "rental_uris": {"ios": "https://dc.lft.to/lastmile_qr_scan", "android": "https://dc.lft.to/lastmile_qr_scan"}}, {"name": "de4bdba7debd6ce3da4d56a848f124c5", "type": "electric_scooter", "lat": 38.91931916666667, "is_reserved": 0, "lon": -77.04498116666667, "fusion_lon": 0.0, "is_disabled": 0, "fusion_lat": 0.0, "bike_id": "de4bdba7debd6ce3da4d56a848f124c5", "rental_uris": {"ios": "https://dc.lft.to/lastmile_qr_scan", "android": "https://dc.lft.to/lastmile_qr_scan"}}, {"name": "445ac4edd7f8b2a41a0bfcbd1a37da63", "type": "electric_scooter", "lat": 38.94137416666667, "is_reserved": 0, "lon": -77.01546016666667, "fusion_lon": 0.0, "is_disabled": 0, "fusion_lat": 0.0, "bike_id": "445ac4edd7f8b2a41a0bfcbd1a37da63", "rental_uris": {"ios": "https://dc.lft.to/lastmile_qr_scan", "android": "https://dc.lft.to/lastmile_qr_scan"}}, {"name": "c1c6e5335db9a7650149bcf402cfd80a", "type": "electric_bike", "lat": 38.832368333333335, "is_reserved": 0, "lon": -76.94621366666667, "fusion_lon": 0.0, "is_disabled": 0, "fusion_lat": 0.0, "bike_id": "c1c6e5335db9a7650149bcf402cfd80a", "rental_uris": {"ios": "https://dc.lft.to/lastmile_qr_scan", "android": "https://dc.lft.to/lastmile_qr_scan"}}, {"name": "681769ba3a49ab776321f50a13a0c1ac", "type": "electric_scooter", "lat": 38.898131666666664, "is_reserved": 0, "lon": -77.03293066666667, "fusion_lon": 0.0, "is_disabled": 0, "fusion_lat": 0.0, "bike_id": "681769ba3a49ab776321f50a13a0c1ac", "rental_uris": {"ios": "https://dc.lft.to/lastmile_qr_scan", "android": "https://dc.lft.to/lastmile_qr_scan"}}, {"name": "1e09a47862fd9225fbcd67311db2fbb7", "type": "electric_scooter", "lat": 38.92170433333333, "is_reserved": 0, "lon": -77.03258316666667, "fusion_lon": 0.0, "is_disabled": 0, "fusion_lat": 0.0, "bike_id": "1e09a47862fd9225fbcd67311db2fbb7", "rental_uris": {"ios": "https://dc.lft.to/lastmile_qr_scan", "android": "https://dc.lft.to/lastmile_qr_scan"}}, {"name": "8d217968125aa8585bb8f63500635304", "type": "electric_scooter", "lat": 38.909483333333334, "is_reserved": 0, "lon": -77.04325316666667, "fusion_lon": 0.0, "is_disabled": 0, "fusion_lat": 0.0, "bike_id": "8d217968125aa8585bb8f63500635304", "rental_uris": {"ios": "https://dc.lft.to/lastmile_qr_scan", "android": "https://dc.lft.to/lastmile_qr_scan"}}, {"name": "852cb0cb20efd6592e681f6b06ba7861", "type": "electric_scooter", "lat": 38.9094945, "is_reserved": 0, "lon": -76.99895, "fusion_lon": 0.0, "is_disabled": 0, "fusion_lat": 0.0, "bike_id": "852cb0cb20efd6592e681f6b06ba7861", "rental_uris": {"ios": "https://dc.lft.to/lastmile_qr_scan", "android": "https://dc.lft.to/lastmile_qr_scan"}}, {"name": "704eb3c4b3968fb01512eedca2abe19b", "type": "electric_scooter", "lat": 38.91590033333333, "is_reserved": 0, "lon": -76.9839245, "fusion_lon": 0.0, "is_disabled": 0, "fusion_lat": 0.0, "bike_id": "704eb3c4b3968fb01512eedca2abe19b", "rental_uris": {"ios": "https://dc.lft.to/lastmile_qr_scan", "android": "https://dc.lft.to/lastmile_qr_scan"}}, {"name": "6a67ae168d70bc070426e18dca7fb9cf", "type": "electric_bike", "lat": 38.87132066666667, "is_reserved": 0, "lon": -76.93727483333333, "fusion_lon": 0.0, "is_disabled": 0, "fusion_lat": 0.0, "bike_id": "6a67ae168d70bc070426e18dca7fb9cf", "rental_uris": {"ios": "https://dc.lft.to/lastmile_qr_scan", "android": "https://dc.lft.to/lastmile_qr_scan"}}, {"name": "a7e4a1e92e5f57d8cac3207cbad85e2e", "type": "electric_scooter", "lat": 38.929922, "is_reserved": 0, "lon": -77.07947066666667, "fusion_lon": 0.0, "is_disabled": 0, "fusion_lat": 0.0, "bike_id": "a7e4a1e92e5f57d8cac3207cbad85e2e", "rental_uris": {"ios": "https://dc.lft.to/lastmile_qr_scan", "android": "https://dc.lft.to/lastmile_qr_scan"}}, {"name": "9ceffff02bf686cabb57ebc3828f0171", "type": "electric_scooter", "lat": 38.9248875, "is_reserved": 0, "lon": -77.027135, "fusion_lon": 0.0, "is_disabled": 0, "fusion_lat": 0.0, "bike_id": "9ceffff02bf686cabb57ebc3828f0171", "rental_uris": {"ios": "https://dc.lft.to/lastmile_qr_scan", "android": "https://dc.lft.to/lastmile_qr_scan"}}, {"name": "69c4adab1a8167129030c660d5b8d3b9", "type": "electric_scooter", "lat": 38.905846833333335, "is_reserved": 0, "lon": -77.02934983333333, "fusion_lon": 0.0, "is_disabled": 0, "fusion_lat": 0.0, "bike_id": "69c4adab1a8167129030c660d5b8d3b9", "rental_uris": {"ios": "https://dc.lft.to/lastmile_qr_scan", "android": "https://dc.lft.to/lastmile_qr_scan"}}, {"name": "3bb920505d595a1f44a8730ba29cac20", "type": "electric_scooter", "lat": 38.875501666666665, "is_reserved": 0, "lon": -76.96491433333334, "fusion_lon": 0.0, "is_disabled": 0, "fusion_lat": 0.0, "bike_id": "3bb920505d595a1f44a8730ba29cac20", "rental_uris": {"ios": "https://dc.lft.to/lastmile_qr_scan", "android": "https://dc.lft.to/lastmile_qr_scan"}}, {"name": "4d87f9bd3f6b8defb27494ac3ff9b454", "type": "electric_scooter", "lat": 38.915384833333334, "is_reserved": 0, "lon": -77.04602966666667, "fusion_lon": 0.0, "is_disabled": 0, "fusion_lat": 0.0, "bike_id": "4d87f9bd3f6b8defb27494ac3ff9b454", "rental_uris": {"ios": "https://dc.lft.to/lastmile_qr_scan", "android": "https://dc.lft.to/lastmile_qr_scan"}}, {"name": "595bf8ad99e8239d0a13571a5c046caf", "type": "electric_scooter", "lat": 38.914969666666664, "is_reserved": 0, "lon": -77.018526, "fusion_lon": 0.0, "is_disabled": 0, "fusion_lat": 0.0, "bike_id": "595bf8ad99e8239d0a13571a5c046caf", "rental_uris": {"ios": "https://dc.lft.to/lastmile_qr_scan", "android": "https://dc.lft.to/lastmile_qr_scan"}}, {"name": "cd066bda53027fd3feec4b92ff840235", "type": "electric_scooter", "lat": 38.899953333333336, "is_reserved": 0, "lon": -76.9856335, "fusion_lon": 0.0, "is_disabled": 0, "fusion_lat": 0.0, "bike_id": "cd066bda53027fd3feec4b92ff840235", "rental_uris": {"ios": "https://dc.lft.to/lastmile_qr_scan", "android": "https://dc.lft.to/lastmile_qr_scan"}}, {"name": "1def13a56f4fa9aa54887bbcf1aac0bb", "type": "electric_scooter", "lat": 38.912676, "is_reserved": 0, "lon": -77.00368633333333, "fusion_lon": 0.0, "is_disabled": 0, "fusion_lat": 0.0, "bike_id": "1def13a56f4fa9aa54887bbcf1aac0bb", "rental_uris": {"ios": "https://dc.lft.to/lastmile_qr_scan", "android": "https://dc.lft.to/lastmile_qr_scan"}}, {"name": "b72b12915b1f000943ca69a226fa3b10", "type": "electric_scooter", "lat": 38.89484183333333, "is_reserved": 0, "lon": -76.94869966666667, "fusion_lon": 0.0, "is_disabled": 0, "fusion_lat": 0.0, "bike_id": "b72b12915b1f000943ca69a226fa3b10", "rental_uris": {"ios": "https://dc.lft.to/lastmile_qr_scan", "android": "https://dc.lft.to/lastmile_qr_scan"}}, {"name": "3f5ce852e9143bbadd8a1bdcde720ed6", "type": "electric_scooter", "lat": 38.9306705, "is_reserved": 0, "lon": -77.04129633333334, "fusion_lon": 0.0, "is_disabled": 0, "fusion_lat": 0.0, "bike_id": "3f5ce852e9143bbadd8a1bdcde720ed6", "rental_uris": {"ios": "https://dc.lft.to/lastmile_qr_scan", "android": "https://dc.lft.to/lastmile_qr_scan"}}, {"name": "5a065dce9897fc2a67e9f73a2b9e1eef", "type": "electric_scooter", "lat": 38.91264966666667, "is_reserved": 0, "lon": -77.03143116666666, "fusion_lon": 0.0, "is_disabled": 0, "fusion_lat": 0.0, "bike_id": "5a065dce9897fc2a67e9f73a2b9e1eef", "rental_uris": {"ios": "https://dc.lft.to/lastmile_qr_scan", "android": "https://dc.lft.to/lastmile_qr_scan"}}, {"name": "1652d691f233bc3ca570b284dfc9e450", "type": "electric_bike", "lat": 38.923499166666666, "is_reserved": 0, "lon": -76.99252983333334, "fusion_lon": 0.0, "is_disabled": 0, "fusion_lat": 0.0, "bike_id": "1652d691f233bc3ca570b284dfc9e450", "rental_uris": {"ios": "https://dc.lft.to/lastmile_qr_scan", "android": "https://dc.lft.to/lastmile_qr_scan"}}, {"name": "900844992c1a33d34fb9eecdd67466f9", "type": "electric_bike", "lat": 38.904754833333335, "is_reserved": 0, "lon": -76.92943183333334, "fusion_lon": 0.0, "is_disabled": 0, "fusion_lat": 0.0, "bike_id": "900844992c1a33d34fb9eecdd67466f9", "rental_uris": {"ios": "https://dc.lft.to/lastmile_qr_scan", "android": "https://dc.lft.to/lastmile_qr_scan"}}, {"name": "f814883f1e053ee8c478125d1bf230b4", "type": "electric_scooter", "lat": 38.8922465, "is_reserved": 0, "lon": -77.04371983333333, "fusion_lon": 0.0, "is_disabled": 0, "fusion_lat": 0.0, "bike_id": "f814883f1e053ee8c478125d1bf230b4", "rental_uris": {"ios": "https://dc.lft.to/lastmile_qr_scan", "android": "https://dc.lft.to/lastmile_qr_scan"}}, {"name": "471f45d3ea9d669ee50decdfc1c0006d", "type": "electric_scooter", "lat": 38.91106416666667, "is_reserved": 0, "lon": -77.00752633333333, "fusion_lon": 0.0, "is_disabled": 0, "fusion_lat": 0.0, "bike_id": "471f45d3ea9d669ee50decdfc1c0006d", "rental_uris": {"ios": "https://dc.lft.to/lastmile_qr_scan", "android": "https://dc.lft.to/lastmile_qr_scan"}}, {"name": "cf2b346f56229bfecc4629fa05668581", "type": "electric_scooter", "lat": 38.89537266666667, "is_reserved": 0, "lon": -77.04841283333333, "fusion_lon": 0.0, "is_disabled": 0, "fusion_lat": 0.0, "bike_id": "cf2b346f56229bfecc4629fa05668581", "rental_uris": {"ios": "https://dc.lft.to/lastmile_qr_scan", "android": "https://dc.lft.to/lastmile_qr_scan"}}, {"name": "93a44208c43c9fecee59d733dec2d28a", "type": "electric_scooter", "lat": 38.90000783333333, "is_reserved": 0, "lon": -77.0523315, "fusion_lon": 0.0, "is_disabled": 0, "fusion_lat": 0.0, "bike_id": "93a44208c43c9fecee59d733dec2d28a", "rental_uris": {"ios": "https://dc.lft.to/lastmile_qr_scan", "android": "https://dc.lft.to/lastmile_qr_scan"}}, {"name": "aae88500f19f909b6c69bdade0ebbf19", "type": "electric_scooter", "lat": 38.914109833333335, "is_reserved": 0, "lon": -77.039034, "fusion_lon": 0.0, "is_disabled": 0, "fusion_lat": 0.0, "bike_id": "aae88500f19f909b6c69bdade0ebbf19", "rental_uris": {"ios": "https://dc.lft.to/lastmile_qr_scan", "android": "https://dc.lft.to/lastmile_qr_scan"}}, {"name": "8fe63dd621b736c338544c2bf58ac75c", "type": "electric_scooter", "lat": 38.903645166666664, "is_reserved": 0, "lon": -77.03385183333333, "fusion_lon": 0.0, "is_disabled": 0, "fusion_lat": 0.0, "bike_id": "8fe63dd621b736c338544c2bf58ac75c", "rental_uris": {"ios": "https://dc.lft.to/lastmile_qr_scan", "android": "https://dc.lft.to/lastmile_qr_scan"}}, {"name": "9b736eed41462f97ae131aeb80a14451", "type": "electric_scooter", "lat": 38.909563, "is_reserved": 0, "lon": -77.04862316666667, "fusion_lon": 0.0, "is_disabled": 0, "fusion_lat": 0.0, "bike_id": "9b736eed41462f97ae131aeb80a14451", "rental_uris": {"ios": "https://dc.lft.to/lastmile_qr_scan", "android": "https://dc.lft.to/lastmile_qr_scan"}}, {"name": "3874076643d8c590365b4bdacb444af9", "type": "electric_scooter", "lat": 38.883273333333335, "is_reserved": 0, "lon": -77.01753883333333, "fusion_lon": 0.0, "is_disabled": 0, "fusion_lat": 0.0, "bike_id": "3874076643d8c590365b4bdacb444af9", "rental_uris": {"ios": "https://dc.lft.to/lastmile_qr_scan", "android": "https://dc.lft.to/lastmile_qr_scan"}}, {"name": "28895f6feb2ad5850e5a691583104138", "type": "electric_scooter", "lat": 38.92951166666667, "is_reserved": 0, "lon": -77.03466366666666, "fusion_lon": 0.0, "is_disabled": 0, "fusion_lat": 0.0, "bike_id": "28895f6feb2ad5850e5a691583104138", "rental_uris": {"ios": "https://dc.lft.to/lastmile_qr_scan", "android": "https://dc.lft.to/lastmile_qr_scan"}}, {"name": "a7ea3700f2bd648e188965887200b1ae", "type": "electric_scooter", "lat": 38.91181783333333, "is_reserved": 0, "lon": -77.005488, "fusion_lon": 0.0, "is_disabled": 0, "fusion_lat": 0.0, "bike_id": "a7ea3700f2bd648e188965887200b1ae", "rental_uris": {"ios": "https://dc.lft.to/lastmile_qr_scan", "android": "https://dc.lft.to/lastmile_qr_scan"}}, {"name": "01529b347b3d07da98c205400f39b9b6", "type": "electric_scooter", "lat": 38.947682, "is_reserved": 0, "lon": -77.06534183333333, "fusion_lon": 0.0, "is_disabled": 0, "fusion_lat": 0.0, "bike_id": "01529b347b3d07da98c205400f39b9b6", "rental_uris": {"ios": "https://dc.lft.to/lastmile_qr_scan", "android": "https://dc.lft.to/lastmile_qr_scan"}}, {"name": "5b2f3dffeaa8885723b916439829a5f4", "type": "electric_scooter", "lat": 38.94077133333333, "is_reserved": 0, "lon": -77.02699316666667, "fusion_lon": 0.0, "is_disabled": 0, "fusion_lat": 0.0, "bike_id": "5b2f3dffeaa8885723b916439829a5f4", "rental_uris": {"ios": "https://dc.lft.to/lastmile_qr_scan", "android": "https://dc.lft.to/lastmile_qr_scan"}}, {"name": "3bf6be91361f349739cba4b2f0c21502", "type": "electric_scooter", "lat": 38.92332716666667, "is_reserved": 0, "lon": -77.03509116666666, "fusion_lon": 0.0, "is_disabled": 0, "fusion_lat": 0.0, "bike_id": "3bf6be91361f349739cba4b2f0c21502", "rental_uris": {"ios": "https://dc.lft.to/lastmile_qr_scan", "android": "https://dc.lft.to/lastmile_qr_scan"}}, {"name": "05deb9f08d8aa8fe53cd3515b6406f01", "type": "electric_scooter", "lat": 38.91313516666666, "is_reserved": 0, "lon": -77.04477933333334, "fusion_lon": 0.0, "is_disabled": 0, "fusion_lat": 0.0, "bike_id": "05deb9f08d8aa8fe53cd3515b6406f01", "rental_uris": {"ios": "https://dc.lft.to/lastmile_qr_scan", "android": "https://dc.lft.to/lastmile_qr_scan"}}, {"name": "b5ab1636e35a555a2c6e518d141d97f7", "type": "electric_scooter", "lat": 38.907160166666664, "is_reserved": 0, "lon": -77.03066033333333, "fusion_lon": 0.0, "is_disabled": 0, "fusion_lat": 0.0, "bike_id": "b5ab1636e35a555a2c6e518d141d97f7", "rental_uris": {"ios": "https://dc.lft.to/lastmile_qr_scan", "android": "https://dc.lft.to/lastmile_qr_scan"}}, {"name": "54f986c749ea127bc2eaf1b9db5dd885", "type": "electric_bike", "lat": 38.99065866666667, "is_reserved": 0, "lon": -77.1002675, "fusion_lon": 0.0, "is_disabled": 0, "fusion_lat": 0.0, "bike_id": "54f986c749ea127bc2eaf1b9db5dd885", "rental_uris": {"ios": "https://dc.lft.to/lastmile_qr_scan", "android": "https://dc.lft.to/lastmile_qr_scan"}}, {"name": "823f6cb7746a08c6063800b8568a3e34", "type": "electric_scooter", "lat": 38.93969516666667, "is_reserved": 0, "lon": -77.03255116666666, "fusion_lon": 0.0, "is_disabled": 0, "fusion_lat": 0.0, "bike_id": "823f6cb7746a08c6063800b8568a3e34", "rental_uris": {"ios": "https://dc.lft.to/lastmile_qr_scan", "android": "https://dc.lft.to/lastmile_qr_scan"}}, {"name": "d0de043abd6f2ffd341e2b28f8206364", "type": "electric_scooter", "lat": 38.881145333333336, "is_reserved": 0, "lon": -76.99944133333334, "fusion_lon": 0.0, "is_disabled": 0, "fusion_lat": 0.0, "bike_id": "d0de043abd6f2ffd341e2b28f8206364", "rental_uris": {"ios": "https://dc.lft.to/lastmile_qr_scan", "android": "https://dc.lft.to/lastmile_qr_scan"}}, {"name": "b297a49786520323b4077358d07a2954", "type": "electric_scooter", "lat": 38.93948133333333, "is_reserved": 0, "lon": -77.03266816666667, "fusion_lon": 0.0, "is_disabled": 0, "fusion_lat": 0.0, "bike_id": "b297a49786520323b4077358d07a2954", "rental_uris": {"ios": "https://dc.lft.to/lastmile_qr_scan", "android": "https://dc.lft.to/lastmile_qr_scan"}}, {"name": "ca78baf8867bec6327ee75849d043759", "type": "electric_scooter", "lat": 38.9179165, "is_reserved": 0, "lon": -77.02709866666666, "fusion_lon": 0.0, "is_disabled": 0, "fusion_lat": 0.0, "bike_id": "ca78baf8867bec6327ee75849d043759", "rental_uris": {"ios": "https://dc.lft.to/lastmile_qr_scan", "android": "https://dc.lft.to/lastmile_qr_scan"}}, {"name": "f4d8fbc82b56ca265b13913a983581db", "type": "electric_scooter", "lat": 38.90328933333333, "is_reserved": 0, "lon": -77.03821666666667, "fusion_lon": 0.0, "is_disabled": 0, "fusion_lat": 0.0, "bike_id": "f4d8fbc82b56ca265b13913a983581db", "rental_uris": {"ios": "https://dc.lft.to/lastmile_qr_scan", "android": "https://dc.lft.to/lastmile_qr_scan"}}, {"name": "138891cc160497d73eea1e3d335a7500", "type": "electric_scooter", "lat": 38.9157245, "is_reserved": 0, "lon": -77.04677333333333, "fusion_lon": 0.0, "is_disabled": 0, "fusion_lat": 0.0, "bike_id": "138891cc160497d73eea1e3d335a7500", "rental_uris": {"ios": "https://dc.lft.to/lastmile_qr_scan", "android": "https://dc.lft.to/lastmile_qr_scan"}}, {"name": "8097fcb34cdbfdba5452d767ae592254", "type": "electric_scooter", "lat": 38.92796333333333, "is_reserved": 0, "lon": -77.04355116666666, "fusion_lon": 0.0, "is_disabled": 0, "fusion_lat": 0.0, "bike_id": "8097fcb34cdbfdba5452d767ae592254", "rental_uris": {"ios": "https://dc.lft.to/lastmile_qr_scan", "android": "https://dc.lft.to/lastmile_qr_scan"}}, {"name": "bee63a93fd2d9c63f057f8efbd71a1d7", "type": "electric_scooter", "lat": 38.94942416666667, "is_reserved": 0, "lon": -77.01606883333334, "fusion_lon": 0.0, "is_disabled": 0, "fusion_lat": 0.0, "bike_id": "bee63a93fd2d9c63f057f8efbd71a1d7", "rental_uris": {"ios": "https://dc.lft.to/lastmile_qr_scan", "android": "https://dc.lft.to/lastmile_qr_scan"}}, {"name": "60df610c57e7212133d66f7b5d626881", "type": "electric_scooter", "lat": 38.900641, "is_reserved": 0, "lon": -77.02587233333334, "fusion_lon": 0.0, "is_disabled": 0, "fusion_lat": 0.0, "bike_id": "60df610c57e7212133d66f7b5d626881", "rental_uris": {"ios": "https://dc.lft.to/lastmile_qr_scan", "android": "https://dc.lft.to/lastmile_qr_scan"}}, {"name": "c450ac5bd6762af78bc4967c270c4eb8", "type": "electric_scooter", "lat": 38.91102866666667, "is_reserved": 0, "lon": -77.04671083333334, "fusion_lon": 0.0, "is_disabled": 0, "fusion_lat": 0.0, "bike_id": "c450ac5bd6762af78bc4967c270c4eb8", "rental_uris": {"ios": "https://dc.lft.to/lastmile_qr_scan", "android": "https://dc.lft.to/lastmile_qr_scan"}}, {"name": "27ab194864e19e3e799c94ea6863d55c", "type": "electric_bike", "lat": 38.937172, "is_reserved": 0, "lon": -77.0209825, "fusion_lon": 0.0, "is_disabled": 0, "fusion_lat": 0.0, "bike_id": "27ab194864e19e3e799c94ea6863d55c", "rental_uris": {"ios": "https://dc.lft.to/lastmile_qr_scan", "android": "https://dc.lft.to/lastmile_qr_scan"}}, {"name": "06d89641562b5afe4e57344d7a53f66b", "type": "electric_scooter", "lat": 38.90521233333333, "is_reserved": 0, "lon": -77.05141083333334, "fusion_lon": 0.0, "is_disabled": 0, "fusion_lat": 0.0, "bike_id": "06d89641562b5afe4e57344d7a53f66b", "rental_uris": {"ios": "https://dc.lft.to/lastmile_qr_scan", "android": "https://dc.lft.to/lastmile_qr_scan"}}, {"name": "b04e6fe348a4edac67e7bb587509620d", "type": "electric_scooter", "lat": 38.902399, "is_reserved": 0, "lon": -77.05339933333333, "fusion_lon": 0.0, "is_disabled": 0, "fusion_lat": 0.0, "bike_id": "b04e6fe348a4edac67e7bb587509620d", "rental_uris": {"ios": "https://dc.lft.to/lastmile_qr_scan", "android": "https://dc.lft.to/lastmile_qr_scan"}}, {"name": "82026aba619f454b9f5ff23f4b782838", "type": "electric_bike", "lat": 38.874795, "is_reserved": 0, "lon": -76.96521816666667, "fusion_lon": 0.0, "is_disabled": 0, "fusion_lat": 0.0, "bike_id": "82026aba619f454b9f5ff23f4b782838", "rental_uris": {"ios": "https://dc.lft.to/lastmile_qr_scan", "android": "https://dc.lft.to/lastmile_qr_scan"}}, {"name": "0c2dba1e82647590dbf35211807eac42", "type": "electric_scooter", "lat": 38.89775133333333, "is_reserved": 0, "lon": -77.0271055, "fusion_lon": 0.0, "is_disabled": 0, "fusion_lat": 0.0, "bike_id": "0c2dba1e82647590dbf35211807eac42", "rental_uris": {"ios": "https://dc.lft.to/lastmile_qr_scan", "android": "https://dc.lft.to/lastmile_qr_scan"}}, {"name": "cba1c8136d1da41e83c6910b0fa3c447", "type": "electric_scooter", "lat": 38.882049333333335, "is_reserved": 0, "lon": -77.01443933333333, "fusion_lon": 0.0, "is_disabled": 0, "fusion_lat": 0.0, "bike_id": "cba1c8136d1da41e83c6910b0fa3c447", "rental_uris": {"ios": "https://dc.lft.to/lastmile_qr_scan", "android": "https://dc.lft.to/lastmile_qr_scan"}}, {"name": "394434cd6226d747f305e8d5d95a1843", "type": "electric_scooter", "lat": 38.92525966666667, "is_reserved": 0, "lon": -77.03522933333333, "fusion_lon": 0.0, "is_disabled": 0, "fusion_lat": 0.0, "bike_id": "394434cd6226d747f305e8d5d95a1843", "rental_uris": {"ios": "https://dc.lft.to/lastmile_qr_scan", "android": "https://dc.lft.to/lastmile_qr_scan"}}, {"name": "d418673d88ff00db2409794125b1829e", "type": "electric_scooter", "lat": 38.921692666666665, "is_reserved": 0, "lon": -77.026797, "fusion_lon": 0.0, "is_disabled": 0, "fusion_lat": 0.0, "bike_id": "d418673d88ff00db2409794125b1829e", "rental_uris": {"ios": "https://dc.lft.to/lastmile_qr_scan", "android": "https://dc.lft.to/lastmile_qr_scan"}}, {"name": "4374a65b63f79a7d74963d0edb93930b", "type": "electric_scooter", "lat": 38.90836933333333, "is_reserved": 0, "lon": -77.02692, "fusion_lon": 0.0, "is_disabled": 0, "fusion_lat": 0.0, "bike_id": "4374a65b63f79a7d74963d0edb93930b", "rental_uris": {"ios": "https://dc.lft.to/lastmile_qr_scan", "android": "https://dc.lft.to/lastmile_qr_scan"}}, {"name": "4f7684660887eacd7ab8b107f2928bb8", "type": "electric_scooter", "lat": 38.906604333333334, "is_reserved": 0, "lon": -77.03830316666667, "fusion_lon": 0.0, "is_disabled": 0, "fusion_lat": 0.0, "bike_id": "4f7684660887eacd7ab8b107f2928bb8", "rental_uris": {"ios": "https://dc.lft.to/lastmile_qr_scan", "android": "https://dc.lft.to/lastmile_qr_scan"}}, {"name": "c73e67472a937bc0c90db16e9570125e", "type": "electric_scooter", "lat": 38.90862516666667, "is_reserved": 0, "lon": -77.04295233333333, "fusion_lon": 0.0, "is_disabled": 0, "fusion_lat": 0.0, "bike_id": "c73e67472a937bc0c90db16e9570125e", "rental_uris": {"ios": "https://dc.lft.to/lastmile_qr_scan", "android": "https://dc.lft.to/lastmile_qr_scan"}}, {"name": "c14c155a83e7ec7105f83d08745a54d1", "type": "electric_scooter", "lat": 38.919584, "is_reserved": 0, "lon": -77.01444083333334, "fusion_lon": 0.0, "is_disabled": 0, "fusion_lat": 0.0, "bike_id": "c14c155a83e7ec7105f83d08745a54d1", "rental_uris": {"ios": "https://dc.lft.to/lastmile_qr_scan", "android": "https://dc.lft.to/lastmile_qr_scan"}}, {"name": "241ff8193a922fce35ed5e92c5d1cbfc", "type": "electric_scooter", "lat": 38.893820166666664, "is_reserved": 0, "lon": -76.94972883333334, "fusion_lon": 0.0, "is_disabled": 0, "fusion_lat": 0.0, "bike_id": "241ff8193a922fce35ed5e92c5d1cbfc", "rental_uris": {"ios": "https://dc.lft.to/lastmile_qr_scan", "android": "https://dc.lft.to/lastmile_qr_scan"}}, {"name": "7bfc0186de9f198720315d8030a0376e", "type": "electric_scooter", "lat": 38.91205566666667, "is_reserved": 0, "lon": -77.00655366666666, "fusion_lon": 0.0, "is_disabled": 0, "fusion_lat": 0.0, "bike_id": "7bfc0186de9f198720315d8030a0376e", "rental_uris": {"ios": "https://dc.lft.to/lastmile_qr_scan", "android": "https://dc.lft.to/lastmile_qr_scan"}}, {"name": "2ccce751601600d163447778940e19f8", "type": "electric_scooter", "lat": 38.9270675, "is_reserved": 0, "lon": -77.02100016666667, "fusion_lon": 0.0, "is_disabled": 0, "fusion_lat": 0.0, "bike_id": "2ccce751601600d163447778940e19f8", "rental_uris": {"ios": "https://dc.lft.to/lastmile_qr_scan", "android": "https://dc.lft.to/lastmile_qr_scan"}}, {"name": "c02b2110fc61f66d26ed2b6077f6e7e5", "type": "electric_bike", "lat": 38.992309166666665, "is_reserved": 0, "lon": -76.878179, "fusion_lon": 0.0, "is_disabled": 0, "fusion_lat": 0.0, "bike_id": "c02b2110fc61f66d26ed2b6077f6e7e5", "rental_uris": {"ios": "https://dc.lft.to/lastmile_qr_scan", "android": "https://dc.lft.to/lastmile_qr_scan"}}, {"name": "f6f2c6c7aeea84514be8b23e05ae77d2", "type": "electric_scooter", "lat": 38.90051916666667, "is_reserved": 0, "lon": -77.02605166666666, "fusion_lon": 0.0, "is_disabled": 0, "fusion_lat": 0.0, "bike_id": "f6f2c6c7aeea84514be8b23e05ae77d2", "rental_uris": {"ios": "https://dc.lft.to/lastmile_qr_scan", "android": "https://dc.lft.to/lastmile_qr_scan"}}, {"name": "53a3ee0bb60ed7222dd2f305f5753202", "type": "electric_scooter", "lat": 38.91598833333333, "is_reserved": 0, "lon": -77.0319505, "fusion_lon": 0.0, "is_disabled": 0, "fusion_lat": 0.0, "bike_id": "53a3ee0bb60ed7222dd2f305f5753202", "rental_uris": {"ios": "https://dc.lft.to/lastmile_qr_scan", "android": "https://dc.lft.to/lastmile_qr_scan"}}, {"name": "2ec5a065e9c6e0565db1cebff965d083", "type": "electric_scooter", "lat": 38.902740333333334, "is_reserved": 0, "lon": -77.06086016666667, "fusion_lon": 0.0, "is_disabled": 0, "fusion_lat": 0.0, "bike_id": "2ec5a065e9c6e0565db1cebff965d083", "rental_uris": {"ios": "https://dc.lft.to/lastmile_qr_scan", "android": "https://dc.lft.to/lastmile_qr_scan"}}, {"name": "1d1945d423b2756e347127413a4d495e", "type": "electric_scooter", "lat": 38.90127316666667, "is_reserved": 0, "lon": -77.01191066666667, "fusion_lon": 0.0, "is_disabled": 0, "fusion_lat": 0.0, "bike_id": "1d1945d423b2756e347127413a4d495e", "rental_uris": {"ios": "https://dc.lft.to/lastmile_qr_scan", "android": "https://dc.lft.to/lastmile_qr_scan"}}, {"name": "c7580620f93f73c2b061e4d42e90ee7e", "type": "electric_scooter", "lat": 38.84292333333333, "is_reserved": 0, "lon": -76.99952816666666, "fusion_lon": 0.0, "is_disabled": 0, "fusion_lat": 0.0, "bike_id": "c7580620f93f73c2b061e4d42e90ee7e", "rental_uris": {"ios": "https://dc.lft.to/lastmile_qr_scan", "android": "https://dc.lft.to/lastmile_qr_scan"}}, {"name": "b3365655371002b502a4e20510649694", "type": "electric_bike", "lat": 38.922101, "is_reserved": 0, "lon": -76.98831066666666, "fusion_lon": 0.0, "is_disabled": 0, "fusion_lat": 0.0, "bike_id": "b3365655371002b502a4e20510649694", "rental_uris": {"ios": "https://dc.lft.to/lastmile_qr_scan", "android": "https://dc.lft.to/lastmile_qr_scan"}}, {"name": "a00914c47acec48cb7d5dfee21c81c60", "type": "electric_scooter", "lat": 38.897266, "is_reserved": 0, "lon": -77.05563216666667, "fusion_lon": 0.0, "is_disabled": 0, "fusion_lat": 0.0, "bike_id": "a00914c47acec48cb7d5dfee21c81c60", "rental_uris": {"ios": "https://dc.lft.to/lastmile_qr_scan", "android": "https://dc.lft.to/lastmile_qr_scan"}}, {"name": "4dd134f6f5e0a7d10ec40e00581caacc", "type": "electric_scooter", "lat": 38.89221766666667, "is_reserved": 0, "lon": -77.03212633333334, "fusion_lon": 0.0, "is_disabled": 0, "fusion_lat": 0.0, "bike_id": "4dd134f6f5e0a7d10ec40e00581caacc", "rental_uris": {"ios": "https://dc.lft.to/lastmile_qr_scan", "android": "https://dc.lft.to/lastmile_qr_scan"}}, {"name": "fa2cc1b2bfcdd075b662ae741369431d", "type": "electric_scooter", "lat": 38.90073666666667, "is_reserved": 0, "lon": -76.9387125, "fusion_lon": 0.0, "is_disabled": 0, "fusion_lat": 0.0, "bike_id": "fa2cc1b2bfcdd075b662ae741369431d", "rental_uris": {"ios": "https://dc.lft.to/lastmile_qr_scan", "android": "https://dc.lft.to/lastmile_qr_scan"}}, {"name": "8750b1e04080b8b11780c88c9ccff447", "type": "electric_scooter", "lat": 38.91678566666667, "is_reserved": 0, "lon": -77.02971566666666, "fusion_lon": 0.0, "is_disabled": 0, "fusion_lat": 0.0, "bike_id": "8750b1e04080b8b11780c88c9ccff447", "rental_uris": {"ios": "https://dc.lft.to/lastmile_qr_scan", "android": "https://dc.lft.to/lastmile_qr_scan"}}, {"name": "e567de2f637a4998488b35f52689cc81", "type": "electric_scooter", "lat": 38.91687833333334, "is_reserved": 0, "lon": -77.01216316666667, "fusion_lon": 0.0, "is_disabled": 0, "fusion_lat": 0.0, "bike_id": "e567de2f637a4998488b35f52689cc81", "rental_uris": {"ios": "https://dc.lft.to/lastmile_qr_scan", "android": "https://dc.lft.to/lastmile_qr_scan"}}, {"name": "f146705d29183572a194fd83ba80752c", "type": "electric_scooter", "lat": 38.934380833333336, "is_reserved": 0, "lon": -77.07252666666666, "fusion_lon": 0.0, "is_disabled": 0, "fusion_lat": 0.0, "bike_id": "f146705d29183572a194fd83ba80752c", "rental_uris": {"ios": "https://dc.lft.to/lastmile_qr_scan", "android": "https://dc.lft.to/lastmile_qr_scan"}}, {"name": "343719ce51ab2b2acf279668b7b2e177", "type": "electric_bike", "lat": 38.90240283333333, "is_reserved": 0, "lon": -77.05910983333334, "fusion_lon": 0.0, "is_disabled": 0, "fusion_lat": 0.0, "bike_id": "343719ce51ab2b2acf279668b7b2e177", "rental_uris": {"ios": "https://dc.lft.to/lastmile_qr_scan", "android": "https://dc.lft.to/lastmile_qr_scan"}}, {"name": "4ad62c53a112e5cd06714ea985336d75", "type": "electric_scooter", "lat": 38.89684283333333, "is_reserved": 0, "lon": -76.996173, "fusion_lon": 0.0, "is_disabled": 0, "fusion_lat": 0.0, "bike_id": "4ad62c53a112e5cd06714ea985336d75", "rental_uris": {"ios": "https://dc.lft.to/lastmile_qr_scan", "android": "https://dc.lft.to/lastmile_qr_scan"}}, {"name": "34f45c82471f85aa298f306013076c0a", "type": "electric_scooter", "lat": 38.91174483333333, "is_reserved": 0, "lon": -77.019856, "fusion_lon": 0.0, "is_disabled": 0, "fusion_lat": 0.0, "bike_id": "34f45c82471f85aa298f306013076c0a", "rental_uris": {"ios": "https://dc.lft.to/lastmile_qr_scan", "android": "https://dc.lft.to/lastmile_qr_scan"}}, {"name": "8f95f584cd92e7023b34d319c979cd3c", "type": "electric_scooter", "lat": 38.8961505, "is_reserved": 0, "lon": -76.99970233333333, "fusion_lon": 0.0, "is_disabled": 0, "fusion_lat": 0.0, "bike_id": "8f95f584cd92e7023b34d319c979cd3c", "rental_uris": {"ios": "https://dc.lft.to/lastmile_qr_scan", "android": "https://dc.lft.to/lastmile_qr_scan"}}, {"name": "2bd0856bc896deebb2e4c92f8d30eeda", "type": "electric_bike", "lat": 38.94333916666667, "is_reserved": 0, "lon": -76.9617675, "fusion_lon": 0.0, "is_disabled": 0, "fusion_lat": 0.0, "bike_id": "2bd0856bc896deebb2e4c92f8d30eeda", "rental_uris": {"ios": "https://dc.lft.to/lastmile_qr_scan", "android": "https://dc.lft.to/lastmile_qr_scan"}}, {"name": "126363a765829c0af8d8a7223b862402", "type": "electric_scooter", "lat": 38.86374, "is_reserved": 0, "lon": -77.01347466666667, "fusion_lon": 0.0, "is_disabled": 0, "fusion_lat": 0.0, "bike_id": "126363a765829c0af8d8a7223b862402", "rental_uris": {"ios": "https://dc.lft.to/lastmile_qr_scan", "android": "https://dc.lft.to/lastmile_qr_scan"}}, {"name": "15212ed5d9f4dc40ff20d4387aabd8f1", "type": "electric_scooter", "lat": 38.942048, "is_reserved": 0, "lon": -77.02512933333334, "fusion_lon": 0.0, "is_disabled": 0, "fusion_lat": 0.0, "bike_id": "15212ed5d9f4dc40ff20d4387aabd8f1", "rental_uris": {"ios": "https://dc.lft.to/lastmile_qr_scan", "android": "https://dc.lft.to/lastmile_qr_scan"}}, {"name": "1497b94dd52d1ab6a311c58d0ef44ecf", "type": "electric_scooter", "lat": 38.88401783333333, "is_reserved": 0, "lon": -76.9952325, "fusion_lon": 0.0, "is_disabled": 0, "fusion_lat": 0.0, "bike_id": "1497b94dd52d1ab6a311c58d0ef44ecf", "rental_uris": {"ios": "https://dc.lft.to/lastmile_qr_scan", "android": "https://dc.lft.to/lastmile_qr_scan"}}, {"name": "5a2832c494f6d43a7b0af81716dbee55", "type": "electric_bike", "lat": 38.945849333333335, "is_reserved": 0, "lon": -77.002666, "fusion_lon": 0.0, "is_disabled": 0, "fusion_lat": 0.0, "bike_id": "5a2832c494f6d43a7b0af81716dbee55", "rental_uris": {"ios": "https://dc.lft.to/lastmile_qr_scan", "android": "https://dc.lft.to/lastmile_qr_scan"}}, {"name": "25eca83830a02f283bced8dc0059f704", "type": "electric_scooter", "lat": 38.92870516666667, "is_reserved": 0, "lon": -77.0375125, "fusion_lon": 0.0, "is_disabled": 0, "fusion_lat": 0.0, "bike_id": "25eca83830a02f283bced8dc0059f704", "rental_uris": {"ios": "https://dc.lft.to/lastmile_qr_scan", "android": "https://dc.lft.to/lastmile_qr_scan"}}, {"name": "f905b5a8fefeeef3a152648826e979e0", "type": "electric_scooter", "lat": 38.93569266666667, "is_reserved": 0, "lon": -77.03735016666667, "fusion_lon": 0.0, "is_disabled": 0, "fusion_lat": 0.0, "bike_id": "f905b5a8fefeeef3a152648826e979e0", "rental_uris": {"ios": "https://dc.lft.to/lastmile_qr_scan", "android": "https://dc.lft.to/lastmile_qr_scan"}}, {"name": "9430a66f398defd1e5d98979559871ba", "type": "electric_scooter", "lat": 38.887621333333335, "is_reserved": 0, "lon": -77.02019366666667, "fusion_lon": 0.0, "is_disabled": 0, "fusion_lat": 0.0, "bike_id": "9430a66f398defd1e5d98979559871ba", "rental_uris": {"ios": "https://dc.lft.to/lastmile_qr_scan", "android": "https://dc.lft.to/lastmile_qr_scan"}}, {"name": "a15813f3b457d52c3cfcae3ad46f4d4e", "type": "electric_scooter", "lat": 38.884988, "is_reserved": 0, "lon": -77.00726883333333, "fusion_lon": 0.0, "is_disabled": 0, "fusion_lat": 0.0, "bike_id": "a15813f3b457d52c3cfcae3ad46f4d4e", "rental_uris": {"ios": "https://dc.lft.to/lastmile_qr_scan", "android": "https://dc.lft.to/lastmile_qr_scan"}}, {"name": "c333239efca79e02ba9fc3679474b973", "type": "electric_scooter", "lat": 38.924520666666666, "is_reserved": 0, "lon": -77.00212533333334, "fusion_lon": 0.0, "is_disabled": 0, "fusion_lat": 0.0, "bike_id": "c333239efca79e02ba9fc3679474b973", "rental_uris": {"ios": "https://dc.lft.to/lastmile_qr_scan", "android": "https://dc.lft.to/lastmile_qr_scan"}}, {"name": "c7deae0c3527676ac1a9a7e2b8e89ccb", "type": "electric_scooter", "lat": 38.944382166666664, "is_reserved": 0, "lon": -77.06343683333333, "fusion_lon": 0.0, "is_disabled": 0, "fusion_lat": 0.0, "bike_id": "c7deae0c3527676ac1a9a7e2b8e89ccb", "rental_uris": {"ios": "https://dc.lft.to/lastmile_qr_scan", "android": "https://dc.lft.to/lastmile_qr_scan"}}, {"name": "18ef37b1c3b9b2c5351c90a067440542", "type": "electric_scooter", "lat": 38.91187883333333, "is_reserved": 0, "lon": -76.99617816666667, "fusion_lon": 0.0, "is_disabled": 0, "fusion_lat": 0.0, "bike_id": "18ef37b1c3b9b2c5351c90a067440542", "rental_uris": {"ios": "https://dc.lft.to/lastmile_qr_scan", "android": "https://dc.lft.to/lastmile_qr_scan"}}, {"name": "6ebd69ad6e57b79af4b6bffa81ece753", "type": "electric_scooter", "lat": 38.897737666666664, "is_reserved": 0, "lon": -77.029581, "fusion_lon": 0.0, "is_disabled": 0, "fusion_lat": 0.0, "bike_id": "6ebd69ad6e57b79af4b6bffa81ece753", "rental_uris": {"ios": "https://dc.lft.to/lastmile_qr_scan", "android": "https://dc.lft.to/lastmile_qr_scan"}}, {"name": "8cd4d28050c8af9428d9f697985b8de4", "type": "electric_scooter", "lat": 38.89225783333333, "is_reserved": 0, "lon": -77.04261366666667, "fusion_lon": 0.0, "is_disabled": 0, "fusion_lat": 0.0, "bike_id": "8cd4d28050c8af9428d9f697985b8de4", "rental_uris": {"ios": "https://dc.lft.to/lastmile_qr_scan", "android": "https://dc.lft.to/lastmile_qr_scan"}}, {"name": "c91596e6ea916de299994483945503ff", "type": "electric_scooter", "lat": 38.92068783333333, "is_reserved": 0, "lon": -77.02921383333333, "fusion_lon": 0.0, "is_disabled": 0, "fusion_lat": 0.0, "bike_id": "c91596e6ea916de299994483945503ff", "rental_uris": {"ios": "https://dc.lft.to/lastmile_qr_scan", "android": "https://dc.lft.to/lastmile_qr_scan"}}, {"name": "0b2a6ed32c7dc25eb58190b2d809d0ed", "type": "electric_scooter", "lat": 38.883320833333336, "is_reserved": 0, "lon": -77.01745233333334, "fusion_lon": 0.0, "is_disabled": 0, "fusion_lat": 0.0, "bike_id": "0b2a6ed32c7dc25eb58190b2d809d0ed", "rental_uris": {"ios": "https://dc.lft.to/lastmile_qr_scan", "android": "https://dc.lft.to/lastmile_qr_scan"}}, {"name": "f90bd4003e78a0d48f314e9c0bd8a9bd", "type": "electric_scooter", "lat": 38.961113833333336, "is_reserved": 0, "lon": -77.02818116666667, "fusion_lon": 0.0, "is_disabled": 0, "fusion_lat": 0.0, "bike_id": "f90bd4003e78a0d48f314e9c0bd8a9bd", "rental_uris": {"ios": "https://dc.lft.to/lastmile_qr_scan", "android": "https://dc.lft.to/lastmile_qr_scan"}}, {"name": "eda0d42b481e3a36041af54ab9c6be54", "type": "electric_scooter", "lat": 38.917180333333334, "is_reserved": 0, "lon": -77.03103316666666, "fusion_lon": 0.0, "is_disabled": 0, "fusion_lat": 0.0, "bike_id": "eda0d42b481e3a36041af54ab9c6be54", "rental_uris": {"ios": "https://dc.lft.to/lastmile_qr_scan", "android": "https://dc.lft.to/lastmile_qr_scan"}}, {"name": "d415ea660f375f04358eaa760442d7a6", "type": "electric_bike", "lat": 38.85491666666667, "is_reserved": 0, "lon": -77.115223, "fusion_lon": 0.0, "is_disabled": 0, "fusion_lat": 0.0, "bike_id": "d415ea660f375f04358eaa760442d7a6", "rental_uris": {"ios": "https://dc.lft.to/lastmile_qr_scan", "android": "https://dc.lft.to/lastmile_qr_scan"}}, {"name": "70233dfa2ad90f2ed846d4bcbe7c76c5", "type": "electric_scooter", "lat": 38.9194585, "is_reserved": 0, "lon": -77.01347366666667, "fusion_lon": 0.0, "is_disabled": 0, "fusion_lat": 0.0, "bike_id": "70233dfa2ad90f2ed846d4bcbe7c76c5", "rental_uris": {"ios": "https://dc.lft.to/lastmile_qr_scan", "android": "https://dc.lft.to/lastmile_qr_scan"}}, {"name": "9dc02078257ba9f47dc4fe69c6b086ce", "type": "electric_scooter", "lat": 38.9256215, "is_reserved": 0, "lon": -77.0391785, "fusion_lon": 0.0, "is_disabled": 0, "fusion_lat": 0.0, "bike_id": "9dc02078257ba9f47dc4fe69c6b086ce", "rental_uris": {"ios": "https://dc.lft.to/lastmile_qr_scan", "android": "https://dc.lft.to/lastmile_qr_scan"}}, {"name": "837f04664e7a5d1dd421166eda1e1234", "type": "electric_scooter", "lat": 38.90035783333333, "is_reserved": 0, "lon": -77.01183033333334, "fusion_lon": 0.0, "is_disabled": 0, "fusion_lat": 0.0, "bike_id": "837f04664e7a5d1dd421166eda1e1234", "rental_uris": {"ios": "https://dc.lft.to/lastmile_qr_scan", "android": "https://dc.lft.to/lastmile_qr_scan"}}, {"name": "6ec0fa95283d69e7d011b77b622750ee", "type": "electric_scooter", "lat": 38.911227, "is_reserved": 0, "lon": -77.03300583333333, "fusion_lon": 0.0, "is_disabled": 0, "fusion_lat": 0.0, "bike_id": "6ec0fa95283d69e7d011b77b622750ee", "rental_uris": {"ios": "https://dc.lft.to/lastmile_qr_scan", "android": "https://dc.lft.to/lastmile_qr_scan"}}, {"name": "6149257b0803a7be796d54e1fcd93cf1", "type": "electric_scooter", "lat": 38.8974565, "is_reserved": 0, "lon": -77.013208, "fusion_lon": 0.0, "is_disabled": 0, "fusion_lat": 0.0, "bike_id": "6149257b0803a7be796d54e1fcd93cf1", "rental_uris": {"ios": "https://dc.lft.to/lastmile_qr_scan", "android": "https://dc.lft.to/lastmile_qr_scan"}}, {"name": "ff0b1820323ac98a39150c9528f55019", "type": "electric_scooter", "lat": 38.913327, "is_reserved": 0, "lon": -77.03118783333333, "fusion_lon": 0.0, "is_disabled": 0, "fusion_lat": 0.0, "bike_id": "ff0b1820323ac98a39150c9528f55019", "rental_uris": {"ios": "https://dc.lft.to/lastmile_qr_scan", "android": "https://dc.lft.to/lastmile_qr_scan"}}, {"name": "29ad357f36998dbf15f471a1eda9c594", "type": "electric_scooter", "lat": 38.927423166666664, "is_reserved": 0, "lon": -77.01200783333333, "fusion_lon": 0.0, "is_disabled": 0, "fusion_lat": 0.0, "bike_id": "29ad357f36998dbf15f471a1eda9c594", "rental_uris": {"ios": "https://dc.lft.to/lastmile_qr_scan", "android": "https://dc.lft.to/lastmile_qr_scan"}}, {"name": "e9f3a004726facc7b1f38fed1b7cf027", "type": "electric_scooter", "lat": 38.9095615, "is_reserved": 0, "lon": -76.98539083333333, "fusion_lon": 0.0, "is_disabled": 0, "fusion_lat": 0.0, "bike_id": "e9f3a004726facc7b1f38fed1b7cf027", "rental_uris": {"ios": "https://dc.lft.to/lastmile_qr_scan", "android": "https://dc.lft.to/lastmile_qr_scan"}}, {"name": "7b05678c7be992f41486f4e27c95ec4d", "type": "electric_scooter", "lat": 38.884108833333336, "is_reserved": 0, "lon": -76.9759795, "fusion_lon": 0.0, "is_disabled": 0, "fusion_lat": 0.0, "bike_id": "7b05678c7be992f41486f4e27c95ec4d", "rental_uris": {"ios": "https://dc.lft.to/lastmile_qr_scan", "android": "https://dc.lft.to/lastmile_qr_scan"}}, {"name": "15f30a70a44a295e6b88f2397fa090e6", "type": "electric_scooter", "lat": 38.9008405, "is_reserved": 0, "lon": -77.05066133333334, "fusion_lon": 0.0, "is_disabled": 0, "fusion_lat": 0.0, "bike_id": "15f30a70a44a295e6b88f2397fa090e6", "rental_uris": {"ios": "https://dc.lft.to/lastmile_qr_scan", "android": "https://dc.lft.to/lastmile_qr_scan"}}, {"name": "e648d5c1cc5c36128cfc994c4e361f14", "type": "electric_scooter", "lat": 38.90320333333333, "is_reserved": 0, "lon": -77.038241, "fusion_lon": 0.0, "is_disabled": 0, "fusion_lat": 0.0, "bike_id": "e648d5c1cc5c36128cfc994c4e361f14", "rental_uris": {"ios": "https://dc.lft.to/lastmile_qr_scan", "android": "https://dc.lft.to/lastmile_qr_scan"}}, {"name": "b27df8765cd8ae6eeb301972ceaaff87", "type": "electric_scooter", "lat": 38.920308, "is_reserved": 0, "lon": -77.0260385, "fusion_lon": 0.0, "is_disabled": 0, "fusion_lat": 0.0, "bike_id": "b27df8765cd8ae6eeb301972ceaaff87", "rental_uris": {"ios": "https://dc.lft.to/lastmile_qr_scan", "android": "https://dc.lft.to/lastmile_qr_scan"}}, {"name": "e27fea66229848af919ae228f3dfe8e3", "type": "electric_scooter", "lat": 38.949793, "is_reserved": 0, "lon": -77.0793425, "fusion_lon": 0.0, "is_disabled": 0, "fusion_lat": 0.0, "bike_id": "e27fea66229848af919ae228f3dfe8e3", "rental_uris": {"ios": "https://dc.lft.to/lastmile_qr_scan", "android": "https://dc.lft.to/lastmile_qr_scan"}}, {"name": "97e8d32299468345b658c8c3d6502934", "type": "electric_scooter", "lat": 38.969859, "is_reserved": 0, "lon": -77.02715866666666, "fusion_lon": 0.0, "is_disabled": 0, "fusion_lat": 0.0, "bike_id": "97e8d32299468345b658c8c3d6502934", "rental_uris": {"ios": "https://dc.lft.to/lastmile_qr_scan", "android": "https://dc.lft.to/lastmile_qr_scan"}}, {"name": "9a84cf522313f02ff786e12455a5faab", "type": "electric_scooter", "lat": 38.876838666666664, "is_reserved": 0, "lon": -77.000767, "fusion_lon": 0.0, "is_disabled": 0, "fusion_lat": 0.0, "bike_id": "9a84cf522313f02ff786e12455a5faab", "rental_uris": {"ios": "https://dc.lft.to/lastmile_qr_scan", "android": "https://dc.lft.to/lastmile_qr_scan"}}, {"name": "eba8f000365952c7407a80829c9cd661", "type": "electric_scooter", "lat": 38.84291783333333, "is_reserved": 0, "lon": -76.999471, "fusion_lon": 0.0, "is_disabled": 0, "fusion_lat": 0.0, "bike_id": "eba8f000365952c7407a80829c9cd661", "rental_uris": {"ios": "https://dc.lft.to/lastmile_qr_scan", "android": "https://dc.lft.to/lastmile_qr_scan"}}, {"name": "8880f098768af1d2e116bbfc2209dfc1", "type": "electric_scooter", "lat": 38.9201995, "is_reserved": 0, "lon": -77.03874383333333, "fusion_lon": 0.0, "is_disabled": 0, "fusion_lat": 0.0, "bike_id": "8880f098768af1d2e116bbfc2209dfc1", "rental_uris": {"ios": "https://dc.lft.to/lastmile_qr_scan", "android": "https://dc.lft.to/lastmile_qr_scan"}}, {"name": "9f72bff06f76c301db850d99338888de", "type": "electric_scooter", "lat": 38.8669835, "is_reserved": 0, "lon": -76.98712416666666, "fusion_lon": 0.0, "is_disabled": 0, "fusion_lat": 0.0, "bike_id": "9f72bff06f76c301db850d99338888de", "rental_uris": {"ios": "https://dc.lft.to/lastmile_qr_scan", "android": "https://dc.lft.to/lastmile_qr_scan"}}, {"name": "7754eac65fbf5b103d11e8ba95d7bfad", "type": "electric_bike", "lat": 38.9654475, "is_reserved": 0, "lon": -77.03522566666666, "fusion_lon": 0.0, "is_disabled": 0, "fusion_lat": 0.0, "bike_id": "7754eac65fbf5b103d11e8ba95d7bfad", "rental_uris": {"ios": "https://dc.lft.to/lastmile_qr_scan", "android": "https://dc.lft.to/lastmile_qr_scan"}}, {"name": "459c7058fc3d0370a8d4d1c7de815e40", "type": "electric_scooter", "lat": 38.90616833333333, "is_reserved": 0, "lon": -77.012846, "fusion_lon": 0.0, "is_disabled": 0, "fusion_lat": 0.0, "bike_id": "459c7058fc3d0370a8d4d1c7de815e40", "rental_uris": {"ios": "https://dc.lft.to/lastmile_qr_scan", "android": "https://dc.lft.to/lastmile_qr_scan"}}, {"name": "3b9599381764f3853d98c1ccdc6baacf", "type": "electric_bike", "lat": 38.85223466666667, "is_reserved": 0, "lon": -77.12949366666666, "fusion_lon": 0.0, "is_disabled": 0, "fusion_lat": 0.0, "bike_id": "3b9599381764f3853d98c1ccdc6baacf", "rental_uris": {"ios": "https://dc.lft.to/lastmile_qr_scan", "android": "https://dc.lft.to/lastmile_qr_scan"}}, {"name": "95104ad11ff4425a7ad04a7320188cb1", "type": "electric_scooter", "lat": 38.9027815, "is_reserved": 0, "lon": -77.040789, "fusion_lon": 0.0, "is_disabled": 0, "fusion_lat": 0.0, "bike_id": "95104ad11ff4425a7ad04a7320188cb1", "rental_uris": {"ios": "https://dc.lft.to/lastmile_qr_scan", "android": "https://dc.lft.to/lastmile_qr_scan"}}, {"name": "902505802cb461adb54fb2bddb27f883", "type": "electric_bike", "lat": 38.83236616666667, "is_reserved": 0, "lon": -77.007173, "fusion_lon": 0.0, "is_disabled": 0, "fusion_lat": 0.0, "bike_id": "902505802cb461adb54fb2bddb27f883", "rental_uris": {"ios": "https://dc.lft.to/lastmile_qr_scan", "android": "https://dc.lft.to/lastmile_qr_scan"}}, {"name": "4e96c7efd39639a99a2754efbbf6ed7a", "type": "electric_scooter", "lat": 38.88588766666667, "is_reserved": 0, "lon": -76.952612, "fusion_lon": 0.0, "is_disabled": 0, "fusion_lat": 0.0, "bike_id": "4e96c7efd39639a99a2754efbbf6ed7a", "rental_uris": {"ios": "https://dc.lft.to/lastmile_qr_scan", "android": "https://dc.lft.to/lastmile_qr_scan"}}, {"name": "2039dca5d5c7b4ec5b28215f8a1e27e0", "type": "electric_scooter", "lat": 38.93948066666667, "is_reserved": 0, "lon": -77.03267883333334, "fusion_lon": 0.0, "is_disabled": 0, "fusion_lat": 0.0, "bike_id": "2039dca5d5c7b4ec5b28215f8a1e27e0", "rental_uris": {"ios": "https://dc.lft.to/lastmile_qr_scan", "android": "https://dc.lft.to/lastmile_qr_scan"}}, {"name": "dd32792e0da21ba2bc46bad016dff784", "type": "electric_scooter", "lat": 38.92762033333333, "is_reserved": 0, "lon": -77.05384183333334, "fusion_lon": 0.0, "is_disabled": 0, "fusion_lat": 0.0, "bike_id": "dd32792e0da21ba2bc46bad016dff784", "rental_uris": {"ios": "https://dc.lft.to/lastmile_qr_scan", "android": "https://dc.lft.to/lastmile_qr_scan"}}, {"name": "ff5afa866836486c2578d4bc017f2e0d", "type": "electric_scooter", "lat": 38.939529, "is_reserved": 0, "lon": -77.03274033333334, "fusion_lon": 0.0, "is_disabled": 0, "fusion_lat": 0.0, "bike_id": "ff5afa866836486c2578d4bc017f2e0d", "rental_uris": {"ios": "https://dc.lft.to/lastmile_qr_scan", "android": "https://dc.lft.to/lastmile_qr_scan"}}, {"name": "034b375b908bf843fe24c32914dfab85", "type": "electric_scooter", "lat": 38.92236333333334, "is_reserved": 0, "lon": -77.03511533333334, "fusion_lon": 0.0, "is_disabled": 0, "fusion_lat": 0.0, "bike_id": "034b375b908bf843fe24c32914dfab85", "rental_uris": {"ios": "https://dc.lft.to/lastmile_qr_scan", "android": "https://dc.lft.to/lastmile_qr_scan"}}, {"name": "55a63405a01c1df27869a37604d4c9ed", "type": "electric_bike", "lat": 38.8659275, "is_reserved": 0, "lon": -76.9323415, "fusion_lon": 0.0, "is_disabled": 0, "fusion_lat": 0.0, "bike_id": "55a63405a01c1df27869a37604d4c9ed", "rental_uris": {"ios": "https://dc.lft.to/lastmile_qr_scan", "android": "https://dc.lft.to/lastmile_qr_scan"}}, {"name": "03d81c054ee92d05387e120964065df1", "type": "electric_bike", "lat": 38.80695216666667, "is_reserved": 0, "lon": -77.05965416666666, "fusion_lon": 0.0, "is_disabled": 0, "fusion_lat": 0.0, "bike_id": "03d81c054ee92d05387e120964065df1", "rental_uris": {"ios": "https://dc.lft.to/lastmile_qr_scan", "android": "https://dc.lft.to/lastmile_qr_scan"}}, {"name": "2bac8953540da0d24684d6e9d7cc30ed", "type": "electric_scooter", "lat": 38.905812, "is_reserved": 0, "lon": -77.06278533333334, "fusion_lon": 0.0, "is_disabled": 0, "fusion_lat": 0.0, "bike_id": "2bac8953540da0d24684d6e9d7cc30ed", "rental_uris": {"ios": "https://dc.lft.to/lastmile_qr_scan", "android": "https://dc.lft.to/lastmile_qr_scan"}}, {"name": "05e71adb0091de893854de2a18588611", "type": "electric_scooter", "lat": 38.9248855, "is_reserved": 0, "lon": -77.027134, "fusion_lon": 0.0, "is_disabled": 0, "fusion_lat": 0.0, "bike_id": "05e71adb0091de893854de2a18588611", "rental_uris": {"ios": "https://dc.lft.to/lastmile_qr_scan", "android": "https://dc.lft.to/lastmile_qr_scan"}}, {"name": "d54b36587392a0714ce68ad34f3013db", "type": "electric_scooter", "lat": 38.88301583333333, "is_reserved": 0, "lon": -77.01742566666667, "fusion_lon": 0.0, "is_disabled": 0, "fusion_lat": 0.0, "bike_id": "d54b36587392a0714ce68ad34f3013db", "rental_uris": {"ios": "https://dc.lft.to/lastmile_qr_scan", "android": "https://dc.lft.to/lastmile_qr_scan"}}, {"name": "3c82e40321a98ec85ab8811173e9bd39", "type": "electric_bike", "lat": 38.91663616666666, "is_reserved": 0, "lon": -77.04699983333333, "fusion_lon": 0.0, "is_disabled": 0, "fusion_lat": 0.0, "bike_id": "3c82e40321a98ec85ab8811173e9bd39", "rental_uris": {"ios": "https://dc.lft.to/lastmile_qr_scan", "android": "https://dc.lft.to/lastmile_qr_scan"}}, {"name": "d69fd890a1ccd521dc1d3a01268eaf43", "type": "electric_scooter", "lat": 38.929695333333335, "is_reserved": 0, "lon": -77.005273, "fusion_lon": 0.0, "is_disabled": 0, "fusion_lat": 0.0, "bike_id": "d69fd890a1ccd521dc1d3a01268eaf43", "rental_uris": {"ios": "https://dc.lft.to/lastmile_qr_scan", "android": "https://dc.lft.to/lastmile_qr_scan"}}, {"name": "883020091892b5f535208a9f1b959767", "type": "electric_scooter", "lat": 38.90024483333333, "is_reserved": 0, "lon": -77.0118105, "fusion_lon": 0.0, "is_disabled": 0, "fusion_lat": 0.0, "bike_id": "883020091892b5f535208a9f1b959767", "rental_uris": {"ios": "https://dc.lft.to/lastmile_qr_scan", "android": "https://dc.lft.to/lastmile_qr_scan"}}, {"name": "bcf988a2abfd93a3a10223de71db2dd3", "type": "electric_scooter", "lat": 38.896728833333334, "is_reserved": 0, "lon": -77.0260505, "fusion_lon": 0.0, "is_disabled": 0, "fusion_lat": 0.0, "bike_id": "bcf988a2abfd93a3a10223de71db2dd3", "rental_uris": {"ios": "https://dc.lft.to/lastmile_qr_scan", "android": "https://dc.lft.to/lastmile_qr_scan"}}, {"name": "12beb0e63b8d84770ab0110514e7b967", "type": "electric_scooter", "lat": 38.90682483333333, "is_reserved": 0, "lon": -77.03828716666666, "fusion_lon": 0.0, "is_disabled": 0, "fusion_lat": 0.0, "bike_id": "12beb0e63b8d84770ab0110514e7b967", "rental_uris": {"ios": "https://dc.lft.to/lastmile_qr_scan", "android": "https://dc.lft.to/lastmile_qr_scan"}}, {"name": "7583333ec27677f925a975520b7d26c9", "type": "electric_scooter", "lat": 38.90539116666667, "is_reserved": 0, "lon": -77.05024233333333, "fusion_lon": 0.0, "is_disabled": 0, "fusion_lat": 0.0, "bike_id": "7583333ec27677f925a975520b7d26c9", "rental_uris": {"ios": "https://dc.lft.to/lastmile_qr_scan", "android": "https://dc.lft.to/lastmile_qr_scan"}}, {"name": "3a4cad8f483e3a4275af0c8588200440", "type": "electric_scooter", "lat": 38.923347, "is_reserved": 0, "lon": -77.04748933333333, "fusion_lon": 0.0, "is_disabled": 0, "fusion_lat": 0.0, "bike_id": "3a4cad8f483e3a4275af0c8588200440", "rental_uris": {"ios": "https://dc.lft.to/lastmile_qr_scan", "android": "https://dc.lft.to/lastmile_qr_scan"}}, {"name": "33351a984c260ff2bc1e7a12b3ec5620", "type": "electric_scooter", "lat": 38.9154695, "is_reserved": 0, "lon": -77.03857216666667, "fusion_lon": 0.0, "is_disabled": 0, "fusion_lat": 0.0, "bike_id": "33351a984c260ff2bc1e7a12b3ec5620", "rental_uris": {"ios": "https://dc.lft.to/lastmile_qr_scan", "android": "https://dc.lft.to/lastmile_qr_scan"}}, {"name": "3aa8663b0bbf6252e96c1031be54c57d", "type": "electric_scooter", "lat": 38.898235666666665, "is_reserved": 0, "lon": -76.94648483333333, "fusion_lon": 0.0, "is_disabled": 0, "fusion_lat": 0.0, "bike_id": "3aa8663b0bbf6252e96c1031be54c57d", "rental_uris": {"ios": "https://dc.lft.to/lastmile_qr_scan", "android": "https://dc.lft.to/lastmile_qr_scan"}}, {"name": "666e46d40c70e2c49bbca27547a2e0f4", "type": "electric_scooter", "lat": 38.89825916666667, "is_reserved": 0, "lon": -76.9465245, "fusion_lon": 0.0, "is_disabled": 0, "fusion_lat": 0.0, "bike_id": "666e46d40c70e2c49bbca27547a2e0f4", "rental_uris": {"ios": "https://dc.lft.to/lastmile_qr_scan", "android": "https://dc.lft.to/lastmile_qr_scan"}}, {"name": "b6f4cca396f4b0767961a6557e87c322", "type": "electric_scooter", "lat": 38.8877435, "is_reserved": 0, "lon": -76.93259916666666, "fusion_lon": 0.0, "is_disabled": 0, "fusion_lat": 0.0, "bike_id": "b6f4cca396f4b0767961a6557e87c322", "rental_uris": {"ios": "https://dc.lft.to/lastmile_qr_scan", "android": "https://dc.lft.to/lastmile_qr_scan"}}, {"name": "b79f97ccbfb4da89b9b3d4610e648125", "type": "electric_scooter", "lat": 38.892216833333336, "is_reserved": 0, "lon": -77.04865766666667, "fusion_lon": 0.0, "is_disabled": 0, "fusion_lat": 0.0, "bike_id": "b79f97ccbfb4da89b9b3d4610e648125", "rental_uris": {"ios": "https://dc.lft.to/lastmile_qr_scan", "android": "https://dc.lft.to/lastmile_qr_scan"}}, {"name": "5787f34f4848855dae9ddb71aa7e7094", "type": "electric_scooter", "lat": 38.92254116666667, "is_reserved": 0, "lon": -77.03466566666667, "fusion_lon": 0.0, "is_disabled": 0, "fusion_lat": 0.0, "bike_id": "5787f34f4848855dae9ddb71aa7e7094", "rental_uris": {"ios": "https://dc.lft.to/lastmile_qr_scan", "android": "https://dc.lft.to/lastmile_qr_scan"}}, {"name": "f0c21b9b3b1c7c90b74f6a36fae9984a", "type": "electric_bike", "lat": 38.93956266666667, "is_reserved": 0, "lon": -77.36077833333333, "fusion_lon": 0.0, "is_disabled": 0, "fusion_lat": 0.0, "bike_id": "f0c21b9b3b1c7c90b74f6a36fae9984a", "rental_uris": {"ios": "https://dc.lft.to/lastmile_qr_scan", "android": "https://dc.lft.to/lastmile_qr_scan"}}, {"name": "b6d7261aedbe6571005c0d2ca5a5a2c3", "type": "electric_scooter", "lat": 38.915507, "is_reserved": 0, "lon": -77.03844866666667, "fusion_lon": 0.0, "is_disabled": 0, "fusion_lat": 0.0, "bike_id": "b6d7261aedbe6571005c0d2ca5a5a2c3", "rental_uris": {"ios": "https://dc.lft.to/lastmile_qr_scan", "android": "https://dc.lft.to/lastmile_qr_scan"}}, {"name": "3d24e7b896e97594f67b1f08de625070", "type": "electric_scooter", "lat": 38.86961316666667, "is_reserved": 0, "lon": -77.01375116666667, "fusion_lon": 0.0, "is_disabled": 0, "fusion_lat": 0.0, "bike_id": "3d24e7b896e97594f67b1f08de625070", "rental_uris": {"ios": "https://dc.lft.to/lastmile_qr_scan", "android": "https://dc.lft.to/lastmile_qr_scan"}}, {"name": "45ece4e07969daf505dea4aaa0f99650", "type": "electric_scooter", "lat": 38.974997333333334, "is_reserved": 0, "lon": -77.01684816666666, "fusion_lon": 0.0, "is_disabled": 0, "fusion_lat": 0.0, "bike_id": "45ece4e07969daf505dea4aaa0f99650", "rental_uris": {"ios": "https://dc.lft.to/lastmile_qr_scan", "android": "https://dc.lft.to/lastmile_qr_scan"}}, {"name": "608540ed4a59b37cd99cd18521d2237c", "type": "electric_bike", "lat": 38.95329383333333, "is_reserved": 0, "lon": -76.98253633333333, "fusion_lon": 0.0, "is_disabled": 0, "fusion_lat": 0.0, "bike_id": "608540ed4a59b37cd99cd18521d2237c", "rental_uris": {"ios": "https://dc.lft.to/lastmile_qr_scan", "android": "https://dc.lft.to/lastmile_qr_scan"}}, {"name": "261e727b0e8bb1489719ae92957f6cf8", "type": "electric_bike", "lat": 38.877557833333334, "is_reserved": 0, "lon": -76.97983266666667, "fusion_lon": 0.0, "is_disabled": 0, "fusion_lat": 0.0, "bike_id": "261e727b0e8bb1489719ae92957f6cf8", "rental_uris": {"ios": "https://dc.lft.to/lastmile_qr_scan", "android": "https://dc.lft.to/lastmile_qr_scan"}}, {"name": "f1a71a110f5b296aa1a28ea838abab4f", "type": "electric_scooter", "lat": 38.90288683333333, "is_reserved": 0, "lon": -77.0382525, "fusion_lon": 0.0, "is_disabled": 0, "fusion_lat": 0.0, "bike_id": "f1a71a110f5b296aa1a28ea838abab4f", "rental_uris": {"ios": "https://dc.lft.to/lastmile_qr_scan", "android": "https://dc.lft.to/lastmile_qr_scan"}}, {"name": "f68c07d4cc822bb36c6c1baef0b36fad", "type": "electric_bike", "lat": 38.95932416666667, "is_reserved": 0, "lon": -76.92532266666667, "fusion_lon": 0.0, "is_disabled": 0, "fusion_lat": 0.0, "bike_id": "f68c07d4cc822bb36c6c1baef0b36fad", "rental_uris": {"ios": "https://dc.lft.to/lastmile_qr_scan", "android": "https://dc.lft.to/lastmile_qr_scan"}}, {"name": "3ec9d91be9dfa28b58b7ff48b45619b2", "type": "electric_scooter", "lat": 38.91239616666667, "is_reserved": 0, "lon": -77.04877433333333, "fusion_lon": 0.0, "is_disabled": 0, "fusion_lat": 0.0, "bike_id": "3ec9d91be9dfa28b58b7ff48b45619b2", "rental_uris": {"ios": "https://dc.lft.to/lastmile_qr_scan", "android": "https://dc.lft.to/lastmile_qr_scan"}}, {"name": "7ca6bd9cd2941404a4b8b3f6782c6975", "type": "electric_scooter", "lat": 38.9096575, "is_reserved": 0, "lon": -77.0111265, "fusion_lon": 0.0, "is_disabled": 0, "fusion_lat": 0.0, "bike_id": "7ca6bd9cd2941404a4b8b3f6782c6975", "rental_uris": {"ios": "https://dc.lft.to/lastmile_qr_scan", "android": "https://dc.lft.to/lastmile_qr_scan"}}, {"name": "3cacb709ff35a77dd11c09a3de46b469", "type": "electric_bike", "lat": 38.92758083333333, "is_reserved": 0, "lon": -77.0322655, "fusion_lon": 0.0, "is_disabled": 0, "fusion_lat": 0.0, "bike_id": "3cacb709ff35a77dd11c09a3de46b469", "rental_uris": {"ios": "https://dc.lft.to/lastmile_qr_scan", "android": "https://dc.lft.to/lastmile_qr_scan"}}, {"name": "778eff73687cbfaec6b49de25e2606fd", "type": "electric_scooter", "lat": 38.924374, "is_reserved": 0, "lon": -77.0424955, "fusion_lon": 0.0, "is_disabled": 0, "fusion_lat": 0.0, "bike_id": "778eff73687cbfaec6b49de25e2606fd", "rental_uris": {"ios": "https://dc.lft.to/lastmile_qr_scan", "android": "https://dc.lft.to/lastmile_qr_scan"}}, {"name": "9bf10a1996ff060ae06650d8b80bfdd8", "type": "electric_scooter", "lat": 38.906648, "is_reserved": 0, "lon": -77.02689433333333, "fusion_lon": 0.0, "is_disabled": 0, "fusion_lat": 0.0, "bike_id": "9bf10a1996ff060ae06650d8b80bfdd8", "rental_uris": {"ios": "https://dc.lft.to/lastmile_qr_scan", "android": "https://dc.lft.to/lastmile_qr_scan"}}, {"name": "00345a4c8f902d6c3a9d4afaa72927af", "type": "electric_scooter", "lat": 38.877826666666664, "is_reserved": 0, "lon": -76.99410116666667, "fusion_lon": 0.0, "is_disabled": 0, "fusion_lat": 0.0, "bike_id": "00345a4c8f902d6c3a9d4afaa72927af", "rental_uris": {"ios": "https://dc.lft.to/lastmile_qr_scan", "android": "https://dc.lft.to/lastmile_qr_scan"}}, {"name": "b82b058c778d69609012ca08571f84a9", "type": "electric_scooter", "lat": 38.906678, "is_reserved": 0, "lon": -77.02689033333333, "fusion_lon": 0.0, "is_disabled": 0, "fusion_lat": 0.0, "bike_id": "b82b058c778d69609012ca08571f84a9", "rental_uris": {"ios": "https://dc.lft.to/lastmile_qr_scan", "android": "https://dc.lft.to/lastmile_qr_scan"}}, {"name": "1c9aa10aa2495ac9a5ecab7c7fa3804d", "type": "electric_scooter", "lat": 38.9236075, "is_reserved": 0, "lon": -77.05030783333333, "fusion_lon": 0.0, "is_disabled": 0, "fusion_lat": 0.0, "bike_id": "1c9aa10aa2495ac9a5ecab7c7fa3804d", "rental_uris": {"ios": "https://dc.lft.to/lastmile_qr_scan", "android": "https://dc.lft.to/lastmile_qr_scan"}}, {"name": "60c83f32147a4afc0afa12bd6d74764d", "type": "electric_scooter", "lat": 38.9256615, "is_reserved": 0, "lon": -77.02283166666666, "fusion_lon": 0.0, "is_disabled": 0, "fusion_lat": 0.0, "bike_id": "60c83f32147a4afc0afa12bd6d74764d", "rental_uris": {"ios": "https://dc.lft.to/lastmile_qr_scan", "android": "https://dc.lft.to/lastmile_qr_scan"}}, {"name": "36b86831a5a39647870353695f791f47", "type": "electric_bike", "lat": 38.96505633333334, "is_reserved": 0, "lon": -77.10336333333333, "fusion_lon": 0.0, "is_disabled": 0, "fusion_lat": 0.0, "bike_id": "36b86831a5a39647870353695f791f47", "rental_uris": {"ios": "https://dc.lft.to/lastmile_qr_scan", "android": "https://dc.lft.to/lastmile_qr_scan"}}, {"name": "70ba8fe51ee76228772a23232e188a11", "type": "electric_scooter", "lat": 38.92730516666666, "is_reserved": 0, "lon": -77.020675, "fusion_lon": 0.0, "is_disabled": 0, "fusion_lat": 0.0, "bike_id": "70ba8fe51ee76228772a23232e188a11", "rental_uris": {"ios": "https://dc.lft.to/lastmile_qr_scan", "android": "https://dc.lft.to/lastmile_qr_scan"}}, {"name": "5948ca3f3e8d9c062460346ad4202e1b", "type": "electric_scooter", "lat": 38.942746666666665, "is_reserved": 0, "lon": -77.02505416666666, "fusion_lon": 0.0, "is_disabled": 0, "fusion_lat": 0.0, "bike_id": "5948ca3f3e8d9c062460346ad4202e1b", "rental_uris": {"ios": "https://dc.lft.to/lastmile_qr_scan", "android": "https://dc.lft.to/lastmile_qr_scan"}}, {"name": "5f351dac0a61a92f1cacb902d6b1e152", "type": "electric_scooter", "lat": 38.86658383333334, "is_reserved": 0, "lon": -76.98884166666667, "fusion_lon": 0.0, "is_disabled": 0, "fusion_lat": 0.0, "bike_id": "5f351dac0a61a92f1cacb902d6b1e152", "rental_uris": {"ios": "https://dc.lft.to/lastmile_qr_scan", "android": "https://dc.lft.to/lastmile_qr_scan"}}, {"name": "a07ae40acece82263ca4b1809c18853c", "type": "electric_scooter", "lat": 38.896451, "is_reserved": 0, "lon": -77.03227383333333, "fusion_lon": 0.0, "is_disabled": 0, "fusion_lat": 0.0, "bike_id": "a07ae40acece82263ca4b1809c18853c", "rental_uris": {"ios": "https://dc.lft.to/lastmile_qr_scan", "android": "https://dc.lft.to/lastmile_qr_scan"}}, {"name": "e5afad0314d2c7b47d37716c47e610e5", "type": "electric_scooter", "lat": 38.8985025, "is_reserved": 0, "lon": -76.99026783333333, "fusion_lon": 0.0, "is_disabled": 0, "fusion_lat": 0.0, "bike_id": "e5afad0314d2c7b47d37716c47e610e5", "rental_uris": {"ios": "https://dc.lft.to/lastmile_qr_scan", "android": "https://dc.lft.to/lastmile_qr_scan"}}, {"name": "384b484faea55be040d5a019308e4976", "type": "electric_scooter", "lat": 38.91629966666667, "is_reserved": 0, "lon": -77.01086683333334, "fusion_lon": 0.0, "is_disabled": 0, "fusion_lat": 0.0, "bike_id": "384b484faea55be040d5a019308e4976", "rental_uris": {"ios": "https://dc.lft.to/lastmile_qr_scan", "android": "https://dc.lft.to/lastmile_qr_scan"}}, {"name": "8cd48e2e768b00fa2855e007d4c7cbea", "type": "electric_scooter", "lat": 38.916298, "is_reserved": 0, "lon": -77.03640233333333, "fusion_lon": 0.0, "is_disabled": 0, "fusion_lat": 0.0, "bike_id": "8cd48e2e768b00fa2855e007d4c7cbea", "rental_uris": {"ios": "https://dc.lft.to/lastmile_qr_scan", "android": "https://dc.lft.to/lastmile_qr_scan"}}, {"name": "d98b8c552dafbfd90d9190924a0d24cb", "type": "electric_scooter", "lat": 38.876359666666666, "is_reserved": 0, "lon": -77.00917833333334, "fusion_lon": 0.0, "is_disabled": 0, "fusion_lat": 0.0, "bike_id": "d98b8c552dafbfd90d9190924a0d24cb", "rental_uris": {"ios": "https://dc.lft.to/lastmile_qr_scan", "android": "https://dc.lft.to/lastmile_qr_scan"}}, {"name": "23f17c87e16d7bbe07144297364dae3d", "type": "electric_scooter", "lat": 38.8771685, "is_reserved": 0, "lon": -77.018555, "fusion_lon": 0.0, "is_disabled": 0, "fusion_lat": 0.0, "bike_id": "23f17c87e16d7bbe07144297364dae3d", "rental_uris": {"ios": "https://dc.lft.to/lastmile_qr_scan", "android": "https://dc.lft.to/lastmile_qr_scan"}},