{"data": {"bikes": [{"fusion_lon": 0.0, "bike_id": "7a4e4f4002e36a8ee0f59ba6efb501dc", "name": "7a4e4f4002e36a8ee0f59ba6efb501dc", "type": "electric_scooter", "lon": -77.034654, "rental_uris": {"android": "https://dc.lft.to/lastmile_qr_scan", "ios": "https://dc.lft.to/lastmile_qr_scan"}, "lat": 38.91718483333333, "is_reserved": 0, "is_disabled": 0, "fusion_lat": 0.0}, {"fusion_lon": 0.0, "bike_id": "21b0b77ead73a6154e41ab07bec9e0fc", "name": "21b0b77ead73a6154e41ab07bec9e0fc", "type": "electric_scooter", "lon": -77.0386825, "rental_uris": {"android": "https://dc.lft.to/lastmile_qr_scan", "ios": "https://dc.lft.to/lastmile_qr_scan"}, "lat": 38.912708333333335, "is_reserved": 0, "is_disabled": 0, "fusion_lat": 0.0}, {"fusion_lon": 0.0, "bike_id": "8d3e2bdfc1570a6f6f9ed211095e474a", "name": "8d3e2bdfc1570a6f6f9ed211095e474a", "type": "electric_scooter", "lon": -76.94285716666667, "rental_uris": {"android": "https://dc.lft.to/lastmile_qr_scan", "ios": "https://dc.lft.to/lastmile_qr_scan"}, "lat": 38.883064833333336, "is_reserved": 0, "is_disabled": 0, "fusion_lat": 0.0}, {"fusion_lon": 0.0, "bike_id": "df996217985d1f8655f6f4471dd93f22", "name": "df996217985d1f8655f6f4471dd93f22", "type": "electric_scooter", "lon": -77.0259, "rental_uris": {"android": "https://dc.lft.to/lastmile_qr_scan", "ios": "https://dc.lft.to/lastmile_qr_scan"}, "lat": 38.94200433333334, "is_reserved": 0, "is_disabled": 0, "fusion_lat": 0.0}, {"fusion_lon": 0.0, "bike_id": "1648927957b5fe6c43b65bd05817621d", "name": "1648927957b5fe6c43b65bd05817621d", "type": "electric_scooter", "lon": -77.04364166666667, "rental_uris": {"android": "https://dc.lft.to/lastmile_qr_scan", "ios": "https://dc.lft.to/lastmile_qr_scan"}, "lat": 38.901140833333336, "is_reserved": 0, "is_disabled": 0, "fusion_lat": 0.0}, {"fusion_lon": 0.0, "bike_id": "79783b9365f13db92ab8fb73c0bdfdbb", "name": "79783b9365f13db92ab8fb73c0bdfdbb", "type": "electric_scooter", "lon": -76.98337233333334, "rental_uris": {"android": "https://dc.lft.to/lastmile_qr_scan", "ios": "https://dc.lft.to/lastmile_qr_scan"}, "lat": 38.8625625, "is_reserved": 0, "is_disabled": 0, "fusion_lat": 0.0}, {"fusion_lon": 0.0, "bike_id": "9da5c03b550c614b54cfa8cd088ab258", "name": "9da5c03b550c614b54cfa8cd088ab258", "type": "electric_bike", "lon": -77.089444, "rental_uris": {"android": "https://dc.lft.to/lastmile_qr_scan", "ios": "https://dc.lft.to/lastmile_qr_scan"}, "lat": 38.841061833333335, "is_reserved": 0, "is_disabled": 0, "fusion_lat": 0.0}, {"fusion_lon": 0.0, "bike_id": "25c5ada770b31c7f256b70b9963e81df", "name": "25c5ada770b31c7f256b70b9963e81df", "type": "electric_scooter", "lon": -77.00294316666667, "rental_uris": {"android": "https://dc.lft.to/lastmile_qr_scan", "ios": "https://dc.lft.to/lastmile_qr_scan"}, "lat": 38.905674833333336, "is_reserved": 0, "is_disabled": 0, "fusion_lat": 0.0}, {"fusion_lon": 0.0, "bike_id": "999e12d690c5bec9009e81a3eecab664", "name": "999e12d690c5bec9009e81a3eecab664", "type": "electric_scooter", "lon": -77.02292166666666, "rental_uris": {"android": "https://dc.lft.to/lastmile_qr_scan", "ios": "https://dc.lft.to/lastmile_qr_scan"}, "lat": 38.93762383333333, "is_reserved": 0, "is_disabled": 0, "fusion_lat": 0.0}, {"fusion_lon": 0.0, "bike_id": "311ad35e840ba782c96044d5f763ee07", "name": "311ad35e840ba782c96044d5f763ee07", "type": "electric_scooter", "lon": -77.00444783333333, "rental_uris": {"android": "https://dc.lft.to/lastmile_qr_scan", "ios": "https://dc.lft.to/lastmile_qr_scan"}, "lat": 38.9071585, "is_reserved": 0, "is_disabled": 0, "fusion_lat": 0.0}, {"fusion_lon": 0.0, "bike_id": "f64ab7c41056b5a221c1fbc8fda08f67", "name": "f64ab7c41056b5a221c1fbc8fda08f67", "type": "electric_bike", "lon": -76.98837816666666, "rental_uris": {"android": "https://dc.lft.to/lastmile_qr_scan", "ios": "https://dc.lft.to/lastmile_qr_scan"}, "lat": 38.842769833333335, "is_reserved": 0, "is_disabled": 0, "fusion_lat": 0.0}, {"fusion_lon": 0.0, "bike_id": "11c669ed1a779c5b656034a33a1b0b32", "name": "11c669ed1a779c5b656034a33a1b0b32", "type": "electric_scooter", "lon": -77.03292266666666, "rental_uris": {"android": "https://dc.lft.to/lastmile_qr_scan", "ios": "https://dc.lft.to/lastmile_qr_scan"}, "lat": 38.9565085, "is_reserved": 0, "is_disabled": 0, "fusion_lat": 0.0}, {"fusion_lon": 0.0, "bike_id": "8e538ee3e21af29afe28fdde41ab836c", "name": "8e538ee3e21af29afe28fdde41ab836c", "type": "electric_scooter", "lon": -76.94939766666667, "rental_uris": {"android": "https://dc.lft.to/lastmile_qr_scan", "ios": "https://dc.lft.to/lastmile_qr_scan"}, "lat": 38.88321083333334, "is_reserved": 0, "is_disabled": 0, "fusion_lat": 0.0}, {"fusion_lon": 0.0, "bike_id": "2683aca1bc80d4c757e46d857cc55b25", "name": "2683aca1bc80d4c757e46d857cc55b25", "type": "electric_scooter", "lon": -77.02301016666667, "rental_uris": {"android": "https://dc.lft.to/lastmile_qr_scan", "ios": "https://dc.lft.to/lastmile_qr_scan"}, "lat": 38.915664, "is_reserved": 0, "is_disabled": 0, "fusion_lat": 0.0}, {"fusion_lon": 0.0, "bike_id": "87ce4d80d9ec1b753af034f2220fc27f", "name": "87ce4d80d9ec1b753af034f2220fc27f", "type": "electric_scooter", "lon": -77.02387, "rental_uris": {"android": "https://dc.lft.to/lastmile_qr_scan", "ios": "https://dc.lft.to/lastmile_qr_scan"}, "lat": 38.907431333333335, "is_reserved": 0, "is_disabled": 0, "fusion_lat": 0.0}, {"fusion_lon": 0.0, "bike_id": "66be089a59d94f902366252c8077653a", "name": "66be089a59d94f902366252c8077653a", "type": "electric_bike", "lon": -77.08941616666667, "rental_uris": {"android": "https://dc.lft.to/lastmile_qr_scan", "ios": "https://dc.lft.to/lastmile_qr_scan"}, "lat": 38.840974, "is_reserved": 0, "is_disabled": 0, "fusion_lat": 0.0}, {"fusion_lon": 0.0, "bike_id": "396287f6f6ada983be5b2368a9707e77", "name": "396287f6f6ada983be5b2368a9707e77", "type": "electric_scooter", "lon": -77.04357266666666, "rental_uris": {"android": "https://dc.lft.to/lastmile_qr_scan", "ios": "https://dc.lft.to/lastmile_qr_scan"}, "lat": 38.90738533333333, "is_reserved": 0, "is_disabled": 0, "fusion_lat": 0.0}, {"fusion_lon": 0.0, "bike_id": "fc287a101eb580ac8ae25e1fff1c9737", "name": "fc287a101eb580ac8ae25e1fff1c9737", "type": "electric_scooter", "lon": -77.02997983333333, "rental_uris": {"android": "https://dc.lft.to/lastmile_qr_scan", "ios": "https://dc.lft.to/lastmile_qr_scan"}, "lat": 38.924819, "is_reserved": 0, "is_disabled": 0, "fusion_lat": 0.0}, {"fusion_lon": 0.0, "bike_id": "69d331cf742cee7fd117b29f0628d2f1", "name": "69d331cf742cee7fd117b29f0628d2f1", "type": "electric_scooter", "lon": -76.94772083333334, "rental_uris": {"android": "https://dc.lft.to/lastmile_qr_scan", "ios": "https://dc.lft.to/lastmile_qr_scan"}, "lat": 38.89636016666667, "is_reserved": 0, "is_disabled": 0, "fusion_lat": 0.0}, {"fusion_lon": 0.0, "bike_id": "3f06600792d8b50cff7b9edef69bb224", "name": "3f06600792d8b50cff7b9edef69bb224", "type": "electric_scooter", "lon": -77.0179065, "rental_uris": {"android": "https://dc.lft.to/lastmile_qr_scan", "ios": "https://dc.lft.to/lastmile_qr_scan"}, "lat": 38.90640066666667, "is_reserved": 0, "is_disabled": 0, "fusion_lat": 0.0}, {"fusion_lon": 0.0, "bike_id": "144b918f18b75bf4c6f8ebb5ac5c0aa5", "name": "144b918f18b75bf4c6f8ebb5ac5c0aa5", "type": "electric_scooter", "lon": -77.031053, "rental_uris": {"android": "https://dc.lft.to/lastmile_qr_scan", "ios": "https://dc.lft.to/lastmile_qr_scan"}, "lat": 38.91925033333333, "is_reserved": 0, "is_disabled": 0, "fusion_lat": 0.0}, {"fusion_lon": 0.0, "bike_id": "69cdf8b327408b06c9ab9945dd8c7c69", "name": "69cdf8b327408b06c9ab9945dd8c7c69", "type": "electric_scooter", "lon": -77.0317705, "rental_uris": {"android": "https://dc.lft.to/lastmile_qr_scan", "ios": "https://dc.lft.to/lastmile_qr_scan"}, "lat": 38.90389666666667, "is_reserved": 0, "is_disabled": 0, "fusion_lat": 0.0}, {"fusion_lon": 0.0, "bike_id": "9b893e4146cb83489404ec0097131394", "name": "9b893e4146cb83489404ec0097131394", "type": "electric_scooter", "lon": -77.038327, "rental_uris": {"android": "https://dc.lft.to/lastmile_qr_scan", "ios": "https://dc.lft.to/lastmile_qr_scan"}, "lat": 38.904127, "is_reserved": 0, "is_disabled": 0, "fusion_lat": 0.0}, {"fusion_lon": 0.0, "bike_id": "a774f258a9745d67fb0d4b49d2446a99", "name": "a774f258a9745d67fb0d4b49d2446a99", "type": "electric_scooter", "lon": -76.96531716666667, "rental_uris": {"android": "https://dc.lft.to/lastmile_qr_scan", "ios": "https://dc.lft.to/lastmile_qr_scan"}, "lat": 38.87486116666667, "is_reserved": 0, "is_disabled": 0, "fusion_lat": 0.0}, {"fusion_lon": 0.0, "bike_id": "8e122da8816cdd9c79dc15c88eb6091e", "name": "8e122da8816cdd9c79dc15c88eb6091e", "type": "electric_scooter", "lon": -77.0452925, "rental_uris": {"android": "https://dc.lft.to/lastmile_qr_scan", "ios": "https://dc.lft.to/lastmile_qr_scan"}, "lat": 38.90334566666667, "is_reserved": 0, "is_disabled": 0, "fusion_lat": 0.0}, {"fusion_lon": 0.0, "bike_id": "bee752d97fa99dc9feb17291ce1a4682", "name": "bee752d97fa99dc9feb17291ce1a4682", "type": "electric_scooter", "lon": -77.03832116666666, "rental_uris": {"android": "https://dc.lft.to/lastmile_qr_scan", "ios": "https://dc.lft.to/lastmile_qr_scan"}, "lat": 38.911167166666665, "is_reserved": 0, "is_disabled": 0, "fusion_lat": 0.0}, {"fusion_lon": 0.0, "bike_id": "6b9cee3508e1ade7018f3fb5c315845a", "name": "6b9cee3508e1ade7018f3fb5c315845a", "type": "electric_scooter", "lon": -77.02233183333334, "rental_uris": {"android": "https://dc.lft.to/lastmile_qr_scan", "ios": "https://dc.lft.to/lastmile_qr_scan"}, "lat": 38.911050333333336, "is_reserved": 0, "is_disabled": 0, "fusion_lat": 0.0}, {"fusion_lon": 0.0, "bike_id": "f4c6dae0445215d4bab936c920a061a1", "name": "f4c6dae0445215d4bab936c920a061a1", "type": "electric_scooter", "lon": -77.05788183333334, "rental_uris": {"android": "https://dc.lft.to/lastmile_qr_scan", "ios": "https://dc.lft.to/lastmile_qr_scan"}, "lat": 38.9347935, "is_reserved": 0, "is_disabled": 0, "fusion_lat": 0.0}, {"fusion_lon": 0.0, "bike_id": "bcb4412dd0588371acf296d670622b41", "name": "bcb4412dd0588371acf296d670622b41", "type": "electric_scooter", "lon": -77.0415125, "rental_uris": {"android": "https://dc.lft.to/lastmile_qr_scan", "ios": "https://dc.lft.to/lastmile_qr_scan"}, "lat": 38.91720266666667, "is_reserved": 0, "is_disabled": 0, "fusion_lat": 0.0}, {"fusion_lon": 0.0, "bike_id": "b429a63816f6231b73f2e06d8f9c7257", "name": "b429a63816f6231b73f2e06d8f9c7257", "type": "electric_scooter", "lon": -77.00318883333334, "rental_uris": {"android": "https://dc.lft.to/lastmile_qr_scan", "ios": "https://dc.lft.to/lastmile_qr_scan"}, "lat": 38.88991166666667, "is_reserved": 0, "is_disabled": 0, "fusion_lat": 0.0}, {"fusion_lon": 0.0, "bike_id": "259bd8ea73e77cf13da6f3946cd0e059", "name": "259bd8ea73e77cf13da6f3946cd0e059", "type": "electric_scooter", "lon": -77.00542883333334, "rental_uris": {"android": "https://dc.lft.to/lastmile_qr_scan", "ios": "https://dc.lft.to/lastmile_qr_scan"}, "lat": 38.874588, "is_reserved": 0, "is_disabled": 0, "fusion_lat": 0.0}, {"fusion_lon": 0.0, "bike_id": "420ca104702825180f20081ed8b5e5c3", "name": "420ca104702825180f20081ed8b5e5c3", "type": "electric_scooter", "lon": -77.05699616666666, "rental_uris": {"android": "https://dc.lft.to/lastmile_qr_scan", "ios": "https://dc.lft.to/lastmile_qr_scan"}, "lat": 38.910596166666664, "is_reserved": 0, "is_disabled": 0, "fusion_lat": 0.0}, {"fusion_lon": 0.0, "bike_id": "a1db559c9a70ada30c283b3c17c078b1", "name": "a1db559c9a70ada30c283b3c17c078b1", "type": "electric_scooter", "lon": -77.03858633333333, "rental_uris": {"android": "https://dc.lft.to/lastmile_qr_scan", "ios": "https://dc.lft.to/lastmile_qr_scan"}, "lat": 38.93213016666667, "is_reserved": 0, "is_disabled": 0, "fusion_lat": 0.0}, {"fusion_lon": 0.0, "bike_id": "0d69f10329bc490addb4a86e1bcb08ca", "name": "0d69f10329bc490addb4a86e1bcb08ca", "type": "electric_scooter", "lon": -76.99371683333334, "rental_uris": {"android": "https://dc.lft.to/lastmile_qr_scan", "ios": "https://dc.lft.to/lastmile_qr_scan"}, "lat": 38.91018916666667, "is_reserved": 0, "is_disabled": 0, "fusion_lat": 0.0}, {"fusion_lon": 0.0, "bike_id": "3100e899943974876fc4ce522d4fc64f", "name": "3100e899943974876fc4ce522d4fc64f", "type": "electric_scooter", "lon": -77.003084, "rental_uris": {"android": "https://dc.lft.to/lastmile_qr_scan", "ios": "https://dc.lft.to/lastmile_qr_scan"}, "lat": 38.907590166666665, "is_reserved": 0, "is_disabled": 0, "fusion_lat": 0.0}, {"fusion_lon": 0.0, "bike_id": "87e85fd9eb734e6a42694960d02c7068", "name": "87e85fd9eb734e6a42694960d02c7068", "type": "electric_scooter", "lon": -77.0264625, "rental_uris": {"android": "https://dc.lft.to/lastmile_qr_scan", "ios": "https://dc.lft.to/lastmile_qr_scan"}, "lat": 38.90278216666667, "is_reserved": 0, "is_disabled": 0, "fusion_lat": 0.0}, {"fusion_lon": 0.0, "bike_id": "a74049db5712ed37cfd26345bc2bf18d", "name": "a74049db5712ed37cfd26345bc2bf18d", "type": "electric_scooter", "lon": -76.93742933333333, "rental_uris": {"android": "https://dc.lft.to/lastmile_qr_scan", "ios": "https://dc.lft.to/lastmile_qr_scan"}, "lat": 38.890190833333335, "is_reserved": 0, "is_disabled": 0, "fusion_lat": 0.0}, {"fusion_lon": 0.0, "bike_id": "e5fa3f8c1872cb46ec5c4ce7286f5a1b", "name": "e5fa3f8c1872cb46ec5c4ce7286f5a1b", "type": "electric_scooter", "lon": -77.02836283333333, "rental_uris": {"android": "https://dc.lft.to/lastmile_qr_scan", "ios": "https://dc.lft.to/lastmile_qr_scan"}, "lat": 38.90567083333333, "is_reserved": 0, "is_disabled": 0, "fusion_lat": 0.0}, {"fusion_lon": 0.0, "bike_id": "472dfb963005b4379999f6b9b95af4ed", "name": "472dfb963005b4379999f6b9b95af4ed", "type": "electric_scooter", "lon": -76.948416, "rental_uris": {"android": "https://dc.lft.to/lastmile_qr_scan", "ios": "https://dc.lft.to/lastmile_qr_scan"}, "lat": 38.894898, "is_reserved": 0, "is_disabled": 0, "fusion_lat": 0.0}, {"fusion_lon": 0.0, "bike_id": "efa7c75be9269e1f52926206b41b9a02", "name": "efa7c75be9269e1f52926206b41b9a02", "type": "electric_scooter", "lon": -77.0637845, "rental_uris": {"android": "https://dc.lft.to/lastmile_qr_scan", "ios": "https://dc.lft.to/lastmile_qr_scan"}, "lat": 38.90524816666667, "is_reserved": 0, "is_disabled": 0, "fusion_lat": 0.0}, {"fusion_lon": 0.0, "bike_id": "39768e3ee6c3c187f832e63d78d1fe7a", "name": "39768e3ee6c3c187f832e63d78d1fe7a", "type": "electric_scooter", "lon": -77.08216716666666, "rental_uris": {"android": "https://dc.lft.to/lastmile_qr_scan", "ios": "https://dc.lft.to/lastmile_qr_scan"}, "lat": 38.93557716666667, "is_reserved": 0, "is_disabled": 0, "fusion_lat": 0.0}, {"fusion_lon": 0.0, "bike_id": "064c377909c892fb88281808e545d577", "name": "064c377909c892fb88281808e545d577", "type": "electric_scooter", "lon": -77.03268083333333, "rental_uris": {"android": "https://dc.lft.to/lastmile_qr_scan", "ios": "https://dc.lft.to/lastmile_qr_scan"}, "lat": 38.933373833333334, "is_reserved": 0, "is_disabled": 0, "fusion_lat": 0.0}, {"fusion_lon": 0.0, "bike_id": "79de46f5dad81656d82b1c5ce4633441", "name": "79de46f5dad81656d82b1c5ce4633441", "type": "electric_scooter", "lon": -76.99494066666666, "rental_uris": {"android": "https://dc.lft.to/lastmile_qr_scan", "ios": "https://dc.lft.to/lastmile_qr_scan"}, "lat": 38.86244083333333, "is_reserved": 0, "is_disabled": 0, "fusion_lat": 0.0}, {"fusion_lon": 0.0, "bike_id": "8d10890188d38811fbc7f960cf1ff745", "name": "8d10890188d38811fbc7f960cf1ff745", "type": "electric_scooter", "lon": -77.03517683333334, "rental_uris": {"android": "https://dc.lft.to/lastmile_qr_scan", "ios": "https://dc.lft.to/lastmile_qr_scan"}, "lat": 38.92159083333333, "is_reserved": 0, "is_disabled": 0, "fusion_lat": 0.0}, {"fusion_lon": 0.0, "bike_id": "85843e79bd6c8fb16da6a11c0e4bc122", "name": "85843e79bd6c8fb16da6a11c0e4bc122", "type": "electric_scooter", "lon": -77.04326883333333, "rental_uris": {"android": "https://dc.lft.to/lastmile_qr_scan", "ios": "https://dc.lft.to/lastmile_qr_scan"}, "lat": 38.9144825, "is_reserved": 0, "is_disabled": 0, "fusion_lat": 0.0}, {"fusion_lon": 0.0, "bike_id": "d10ffe3e068a9d04b1a40cdf5accf70e", "name": "d10ffe3e068a9d04b1a40cdf5accf70e", "type": "electric_scooter", "lon": -77.0481615, "rental_uris": {"android": "https://dc.lft.to/lastmile_qr_scan", "ios": "https://dc.lft.to/lastmile_qr_scan"}, "lat": 38.91486366666667, "is_reserved": 0, "is_disabled": 0, "fusion_lat": 0.0}, {"fusion_lon": 0.0, "bike_id": "900c5890d99ba579b169d646654a4137", "name": "900c5890d99ba579b169d646654a4137", "type": "electric_scooter", "lon": -77.04470866666666, "rental_uris": {"android": "https://dc.lft.to/lastmile_qr_scan", "ios": "https://dc.lft.to/lastmile_qr_scan"}, "lat": 38.907234833333334, "is_reserved": 0, "is_disabled": 0, "fusion_lat": 0.0}, {"fusion_lon": 0.0, "bike_id": "0efd35316885ef9491a72be23fd9a88d", "name": "0efd35316885ef9491a72be23fd9a88d", "type": "electric_scooter", "lon": -77.02619866666667, "rental_uris": {"android": "https://dc.lft.to/lastmile_qr_scan", "ios": "https://dc.lft.to/lastmile_qr_scan"}, "lat": 38.90020283333333, "is_reserved": 0, "is_disabled": 0, "fusion_lat": 0.0}, {"fusion_lon": 0.0, "bike_id": "fbe407cd4e59ddf679bba39d60b8a999", "name": "fbe407cd4e59ddf679bba39d60b8a999", "type": "electric_scooter", "lon": -77.00350416666667, "rental_uris": {"android": "https://dc.lft.to/lastmile_qr_scan", "ios": "https://dc.lft.to/lastmile_qr_scan"}, "lat": 38.89688483333333, "is_reserved": 0, "is_disabled": 0, "fusion_lat": 0.0}, {"fusion_lon": 0.0, "bike_id": "95650130130971dd165741bbb28f4b39", "name": "95650130130971dd165741bbb28f4b39", "type": "electric_bike", "lon": -76.990687, "rental_uris": {"android": "https://dc.lft.to/lastmile_qr_scan", "ios": "https://dc.lft.to/lastmile_qr_scan"}, "lat": 38.8981735, "is_reserved": 0, "is_disabled": 0, "fusion_lat": 0.0}, {"fusion_lon": 0.0, "bike_id": "82528c9c55907a81486cf8585ca6b504", "name": "82528c9c55907a81486cf8585ca6b504", "type": "electric_scooter", "lon": -77.02963316666667, "rental_uris": {"android": "https://dc.lft.to/lastmile_qr_scan", "ios": "https://dc.lft.to/lastmile_qr_scan"}, "lat": 38.921472333333334, "is_reserved": 0, "is_disabled": 0, "fusion_lat": 0.0}, {"fusion_lon": 0.0, "bike_id": "d9dae2b0b5defb15322ffa0ea25d2a04", "name": "d9dae2b0b5defb15322ffa0ea25d2a04", "type": "electric_scooter", "lon": -77.02645166666667, "rental_uris": {"android": "https://dc.lft.to/lastmile_qr_scan", "ios": "https://dc.lft.to/lastmile_qr_scan"}, "lat": 38.902746, "is_reserved": 0, "is_disabled": 0, "fusion_lat": 0.0}, {"fusion_lon": 0.0, "bike_id": "b8caed06c993d3cd0f0ee30e45c62702", "name": "b8caed06c993d3cd0f0ee30e45c62702", "type": "electric_scooter", "lon": -77.0248895, "rental_uris": {"android": "https://dc.lft.to/lastmile_qr_scan", "ios": "https://dc.lft.to/lastmile_qr_scan"}, "lat": 38.94196733333333, "is_reserved": 0, "is_disabled": 0, "fusion_lat": 0.0}, {"fusion_lon": 0.0, "bike_id": "f2fd23404079c1afa7d0df6cbc09fdc4", "name": "f2fd23404079c1afa7d0df6cbc09fdc4", "type": "electric_scooter", "lon": -77.03479433333334, "rental_uris": {"android": "https://dc.lft.to/lastmile_qr_scan", "ios": "https://dc.lft.to/lastmile_qr_scan"}, "lat": 38.91119233333333, "is_reserved": 0, "is_disabled": 0, "fusion_lat": 0.0}, {"fusion_lon": 0.0, "bike_id": "6bdd1f9aae42567965be336e4b751f5a", "name": "6bdd1f9aae42567965be336e4b751f5a", "type": "electric_bike", "lon": -77.0120575, "rental_uris": {"android": "https://dc.lft.to/lastmile_qr_scan", "ios": "https://dc.lft.to/lastmile_qr_scan"}, "lat": 38.87084683333333, "is_reserved": 0, "is_disabled": 0, "fusion_lat": 0.0}, {"fusion_lon": 0.0, "bike_id": "f4e25b2954557581b60c747564e16768", "name": "f4e25b2954557581b60c747564e16768", "type": "electric_scooter", "lon": -77.043957, "rental_uris": {"android": "https://dc.lft.to/lastmile_qr_scan", "ios": "https://dc.lft.to/lastmile_qr_scan"}, "lat": 38.9228335, "is_reserved": 0, "is_disabled": 0, "fusion_lat": 0.0}, {"fusion_lon": 0.0, "bike_id": "752efa40728493148bae26b7a60d077e", "name": "752efa40728493148bae26b7a60d077e", "type": "electric_scooter", "lon": -76.96506266666667, "rental_uris": {"android": "https://dc.lft.to/lastmile_qr_scan", "ios": "https://dc.lft.to/lastmile_qr_scan"}, "lat": 38.87647583333333, "is_reserved": 0, "is_disabled": 0, "fusion_lat": 0.0}, {"fusion_lon": 0.0, "bike_id": "0cdd454e907ff5c6ce42069af3a9cbeb", "name": "0cdd454e907ff5c6ce42069af3a9cbeb", "type": "electric_scooter", "lon": -77.032176, "rental_uris": {"android": "https://dc.lft.to/lastmile_qr_scan", "ios": "https://dc.lft.to/lastmile_qr_scan"}, "lat": 38.89221466666667, "is_reserved": 0, "is_disabled": 0, "fusion_lat": 0.0}, {"fusion_lon": 0.0, "bike_id": "445a8aff1a1b358ac8833e63e22f92bf", "name": "445a8aff1a1b358ac8833e63e22f92bf", "type": "electric_scooter", "lon": -77.04661566666667, "rental_uris": {"android": "https://dc.lft.to/lastmile_qr_scan", "ios": "https://dc.lft.to/lastmile_qr_scan"}, "lat": 38.90421083333333, "is_reserved": 0, "is_disabled": 0, "fusion_lat": 0.0}, {"fusion_lon": 0.0, "bike_id": "99e667c58acd6bc28bb11cac7062765f", "name": "99e667c58acd6bc28bb11cac7062765f", "type": "electric_scooter", "lon": -77.04342566666666, "rental_uris": {"android": "https://dc.lft.to/lastmile_qr_scan", "ios": "https://dc.lft.to/lastmile_qr_scan"}, "lat": 38.90345283333333, "is_reserved": 0, "is_disabled": 0, "fusion_lat": 0.0}, {"fusion_lon": 0.0, "bike_id": "9eeac664b339e98b03644ff35c7e2cd1", "name": "9eeac664b339e98b03644ff35c7e2cd1", "type": "electric_bike", "lon": -76.9756655, "rental_uris": {"android": "https://dc.lft.to/lastmile_qr_scan", "ios": "https://dc.lft.to/lastmile_qr_scan"}, "lat": 38.924609333333336, "is_reserved": 0, "is_disabled": 0, "fusion_lat": 0.0}, {"fusion_lon": 0.0, "bike_id": "7079ff2ba822aadad09ed89646bc726b", "name": "7079ff2ba822aadad09ed89646bc726b", "type": "electric_scooter", "lon": -77.05091783333333, "rental_uris": {"android": "https://dc.lft.to/lastmile_qr_scan", "ios": "https://dc.lft.to/lastmile_qr_scan"}, "lat": 38.905439333333334, "is_reserved": 0, "is_disabled": 0, "fusion_lat": 0.0}, {"fusion_lon": 0.0, "bike_id": "2d263ca32b7be975c5fd3d3f429bfabd", "name": "2d263ca32b7be975c5fd3d3f429bfabd", "type": "electric_scooter", "lon": -76.99490683333333, "rental_uris": {"android": "https://dc.lft.to/lastmile_qr_scan", "ios": "https://dc.lft.to/lastmile_qr_scan"}, "lat": 38.8624485, "is_reserved": 0, "is_disabled": 0, "fusion_lat": 0.0}, {"fusion_lon": 0.0, "bike_id": "9c7354a849085d005191d17e2c8b64e3", "name": "9c7354a849085d005191d17e2c8b64e3", "type": "electric_scooter", "lon": -77.00806716666666, "rental_uris": {"android": "https://dc.lft.to/lastmile_qr_scan", "ios": "https://dc.lft.to/lastmile_qr_scan"}, "lat": 38.87656, "is_reserved": 0, "is_disabled": 0, "fusion_lat": 0.0}, {"fusion_lon": 0.0, "bike_id": "0fbdf6fd62ea4b9caaf1353695c07af6", "name": "0fbdf6fd62ea4b9caaf1353695c07af6", "type": "electric_scooter", "lon": -77.04900833333333, "rental_uris": {"android": "https://dc.lft.to/lastmile_qr_scan", "ios": "https://dc.lft.to/lastmile_qr_scan"}, "lat": 38.892584, "is_reserved": 0, "is_disabled": 0, "fusion_lat": 0.0}, {"fusion_lon": 0.0, "bike_id": "81ba8fb66be1c65440e183a2d7643ec3", "name": "81ba8fb66be1c65440e183a2d7643ec3", "type": "electric_scooter", "lon": -76.98920616666666, "rental_uris": {"android": "https://dc.lft.to/lastmile_qr_scan", "ios": "https://dc.lft.to/lastmile_qr_scan"}, "lat": 38.866309, "is_reserved": 0, "is_disabled": 0, "fusion_lat": 0.0}, {"fusion_lon": 0.0, "bike_id": "09391c0f964671d5ec18c05601508b6d", "name": "09391c0f964671d5ec18c05601508b6d", "type": "electric_scooter", "lon": -77.03274, "rental_uris": {"android": "https://dc.lft.to/lastmile_qr_scan", "ios": "https://dc.lft.to/lastmile_qr_scan"}, "lat": 38.915624, "is_reserved": 0, "is_disabled": 0, "fusion_lat": 0.0}, {"fusion_lon": 0.0, "bike_id": "f7b12ffcc74f971042ff115aa58e797a", "name": "f7b12ffcc74f971042ff115aa58e797a", "type": "electric_scooter", "lon": -76.97303283333333, "rental_uris": {"android": "https://dc.lft.to/lastmile_qr_scan", "ios": "https://dc.lft.to/lastmile_qr_scan"}, "lat": 38.91989566666667, "is_reserved": 0, "is_disabled": 0, "fusion_lat": 0.0}, {"fusion_lon": 0.0, "bike_id": "8725b46124ad7bdfe367add99558555f", "name": "8725b46124ad7bdfe367add99558555f", "type": "electric_scooter", "lon": -77.017503, "rental_uris": {"android": "https://dc.lft.to/lastmile_qr_scan", "ios": "https://dc.lft.to/lastmile_qr_scan"}, "lat": 38.908688, "is_reserved": 0, "is_disabled": 0, "fusion_lat": 0.0}, {"fusion_lon": 0.0, "bike_id": "01171147601b5fc324a01295c7437cfc", "name": "01171147601b5fc324a01295c7437cfc", "type": "electric_scooter", "lon": -77.024495, "rental_uris": {"android": "https://dc.lft.to/lastmile_qr_scan", "ios": "https://dc.lft.to/lastmile_qr_scan"}, "lat": 38.93745333333333, "is_reserved": 0, "is_disabled": 0, "fusion_lat": 0.0}, {"fusion_lon": 0.0, "bike_id": "12dfcb2116b06381281710aae2e29b8c", "name": "12dfcb2116b06381281710aae2e29b8c", "type": "electric_scooter", "lon": -77.02592183333333, "rental_uris": {"android": "https://dc.lft.to/lastmile_qr_scan", "ios": "https://dc.lft.to/lastmile_qr_scan"}, "lat": 38.942021, "is_reserved": 0, "is_disabled": 0, "fusion_lat": 0.0}, {"fusion_lon": 0.0, "bike_id": "481120c503b0265155be302c77775e9e", "name": "481120c503b0265155be302c77775e9e", "type": "electric_scooter", "lon": -76.99960083333333, "rental_uris": {"android": "https://dc.lft.to/lastmile_qr_scan", "ios": "https://dc.lft.to/lastmile_qr_scan"}, "lat": 38.903851, "is_reserved": 0, "is_disabled": 0, "fusion_lat": 0.0}, {"fusion_lon": 0.0, "bike_id": "47f040625c9ce8bf2d9a0a04b9da2d45", "name": "47f040625c9ce8bf2d9a0a04b9da2d45", "type": "electric_scooter", "lon": -77.0394255, "rental_uris": {"android": "https://dc.lft.to/lastmile_qr_scan", "ios": "https://dc.lft.to/lastmile_qr_scan"}, "lat": 38.90964816666666, "is_reserved": 0, "is_disabled": 0, "fusion_lat": 0.0}, {"fusion_lon": 0.0, "bike_id": "23d4fa07c2f506ac27c4451590df93ea", "name": "23d4fa07c2f506ac27c4451590df93ea", "type": "electric_bike", "lon": -77.12897666666667, "rental_uris": {"android": "https://dc.lft.to/lastmile_qr_scan", "ios": "https://dc.lft.to/lastmile_qr_scan"}, "lat": 38.863819666666664, "is_reserved": 0, "is_disabled": 0, "fusion_lat": 0.0}, {"fusion_lon": 0.0, "bike_id": "b5f9bcefa425e8370a27d7aeb7c77ade", "name": "b5f9bcefa425e8370a27d7aeb7c77ade", "type": "electric_scooter", "lon": -77.02230316666666, "rental_uris": {"android": "https://dc.lft.to/lastmile_qr_scan", "ios": "https://dc.lft.to/lastmile_qr_scan"}, "lat": 38.887697833333334, "is_reserved": 0, "is_disabled": 0, "fusion_lat": 0.0}, {"fusion_lon": 0.0, "bike_id": "2a61d35260cfbe9b3cc2dbda57fce969", "name": "2a61d35260cfbe9b3cc2dbda57fce969", "type": "electric_scooter", "lon": -77.04676316666666, "rental_uris": {"android": "https://dc.lft.to/lastmile_qr_scan", "ios": "https://dc.lft.to/lastmile_qr_scan"}, "lat": 38.89556783333333, "is_reserved": 0, "is_disabled": 0, "fusion_lat": 0.0}, {"fusion_lon": 0.0, "bike_id": "8cb1edc09a68124194b066c7d1512a2f", "name": "8cb1edc09a68124194b066c7d1512a2f", "type": "electric_scooter", "lon": -77.04705033333333, "rental_uris": {"android": "https://dc.lft.to/lastmile_qr_scan", "ios": "https://dc.lft.to/lastmile_qr_scan"}, "lat": 38.916642333333336, "is_reserved": 0, "is_disabled": 0, "fusion_lat": 0.0}, {"fusion_lon": 0.0, "bike_id": "093cae14d0ad9895f9016eaa9126e4fb", "name": "093cae14d0ad9895f9016eaa9126e4fb", "type": "electric_scooter", "lon": -77.0507505, "rental_uris": {"android": "https://dc.lft.to/lastmile_qr_scan", "ios": "https://dc.lft.to/lastmile_qr_scan"}, "lat": 38.90520133333333, "is_reserved": 0, "is_disabled": 0, "fusion_lat": 0.0}, {"fusion_lon": 0.0, "bike_id": "6071b44059fc6e07d4d38c7f85583bce", "name": "6071b44059fc6e07d4d38c7f85583bce", "type": "electric_scooter", "lon": -77.06041816666666, "rental_uris": {"android": "https://dc.lft.to/lastmile_qr_scan", "ios": "https://dc.lft.to/lastmile_qr_scan"}, "lat": 38.93922533333333, "is_reserved": 0, "is_disabled": 0, "fusion_lat": 0.0}, {"fusion_lon": 0.0, "bike_id": "5704f2cc523e6cd066db75ffa4da57cc", "name": "5704f2cc523e6cd066db75ffa4da57cc", "type": "electric_scooter", "lon": -77.00576166666667, "rental_uris": {"android": "https://dc.lft.to/lastmile_qr_scan", "ios": "https://dc.lft.to/lastmile_qr_scan"}, "lat": 38.8853175, "is_reserved": 0, "is_disabled": 0, "fusion_lat": 0.0}, {"fusion_lon": 0.0, "bike_id": "b7872cf3800ed7e65dda6ceb9668c6ec", "name": "b7872cf3800ed7e65dda6ceb9668c6ec", "type": "electric_bike", "lon": -77.02103866666667, "rental_uris": {"android": "https://dc.lft.to/lastmile_qr_scan", "ios": "https://dc.lft.to/lastmile_qr_scan"}, "lat": 39.0229765, "is_reserved": 0, "is_disabled": 0, "fusion_lat": 0.0}, {"fusion_lon": 0.0, "bike_id": "b0b3618aafa0d93f9193825a461f0452", "name": "b0b3618aafa0d93f9193825a461f0452", "type": "electric_scooter", "lon": -77.0386065, "rental_uris": {"android": "https://dc.lft.to/lastmile_qr_scan", "ios": "https://dc.lft.to/lastmile_qr_scan"}, "lat": 38.90819283333333, "is_reserved": 0, "is_disabled": 0, "fusion_lat": 0.0}, {"fusion_lon": 0.0, "bike_id": "550aba5907592d8cf42b4e44961d946a", "name": "550aba5907592d8cf42b4e44961d946a", "type": "electric_scooter", "lon": -77.03214116666666, "rental_uris": {"android": "https://dc.lft.to/lastmile_qr_scan", "ios": "https://dc.lft.to/lastmile_qr_scan"}, "lat": 38.93870666666667, "is_reserved": 0, "is_disabled": 0, "fusion_lat": 0.0}, {"fusion_lon": 0.0, "bike_id": "b20650ddb583773e8ac8e44e9496bb38", "name": "b20650ddb583773e8ac8e44e9496bb38", "type": "electric_scooter", "lon": -77.0744055, "rental_uris": {"android": "https://dc.lft.to/lastmile_qr_scan", "ios": "https://dc.lft.to/lastmile_qr_scan"}, "lat": 38.9109255, "is_reserved": 0, "is_disabled": 0, "fusion_lat": 0.0}, {"fusion_lon": 0.0, "bike_id": "26670c03a8e53e9b9c201a812828bc2f", "name": "26670c03a8e53e9b9c201a812828bc2f", "type": "electric_scooter", "lon": -77.03894383333333, "rental_uris": {"android": "https://dc.lft.to/lastmile_qr_scan", "ios": "https://dc.lft.to/lastmile_qr_scan"}, "lat": 38.906462166666664, "is_reserved": 0, "is_disabled": 0, "fusion_lat": 0.0}, {"fusion_lon": 0.0, "bike_id": "e19a9ab951e9a0f2a90cab6a524b6742", "name": "e19a9ab951e9a0f2a90cab6a524b6742", "type": "electric_scooter", "lon": -77.009154, "rental_uris": {"android": "https://dc.lft.to/lastmile_qr_scan", "ios": "https://dc.lft.to/lastmile_qr_scan"}, "lat": 38.959546333333336, "is_reserved": 0, "is_disabled": 0, "fusion_lat": 0.0}, {"fusion_lon": 0.0, "bike_id": "07f25ea0f7986f0af5a3f869ec9d509a", "name": "07f25ea0f7986f0af5a3f869ec9d509a", "type": "electric_scooter", "lon": -77.04240433333334, "rental_uris": {"android": "https://dc.lft.to/lastmile_qr_scan", "ios": "https://dc.lft.to/lastmile_qr_scan"}, "lat": 38.90971666666667, "is_reserved": 0, "is_disabled": 0, "fusion_lat": 0.0}, {"fusion_lon": 0.0, "bike_id": "e11cb078548c51a24ac4e46031a595d4", "name": "e11cb078548c51a24ac4e46031a595d4", "type": "electric_scooter", "lon": -76.99018583333333, "rental_uris": {"android": "https://dc.lft.to/lastmile_qr_scan", "ios": "https://dc.lft.to/lastmile_qr_scan"}, "lat": 38.905029, "is_reserved": 0, "is_disabled": 0, "fusion_lat": 0.0}, {"fusion_lon": 0.0, "bike_id": "199c4218e1e5da78479c66625a1fb384", "name": "199c4218e1e5da78479c66625a1fb384", "type": "electric_scooter", "lon": -77.0363785, "rental_uris": {"android": "https://dc.lft.to/lastmile_qr_scan", "ios": "https://dc.lft.to/lastmile_qr_scan"}, "lat": 38.91848533333334, "is_reserved": 0, "is_disabled": 0, "fusion_lat": 0.0}, {"fusion_lon": 0.0, "bike_id": "f409b25c1d7df483d97bba2d91524b31", "name": "f409b25c1d7df483d97bba2d91524b31", "type": "electric_scooter", "lon": -77.05927816666667, "rental_uris": {"android": "https://dc.lft.to/lastmile_qr_scan", "ios": "https://dc.lft.to/lastmile_qr_scan"}, "lat": 38.93664733333333, "is_reserved": 0, "is_disabled": 0, "fusion_lat": 0.0}, {"fusion_lon": 0.0, "bike_id": "b3da9b5ed1f9d94c629e2a39f1ac4433", "name": "b3da9b5ed1f9d94c629e2a39f1ac4433", "type": "electric_scooter", "lon": -77.05918516666667, "rental_uris": {"android": "https://dc.lft.to/lastmile_qr_scan", "ios": "https://dc.lft.to/lastmile_qr_scan"}, "lat": 38.900841666666665, "is_reserved": 0, "is_disabled": 0, "fusion_lat": 0.0}, {"fusion_lon": 0.0, "bike_id": "0b98463cc399cc53fe74c4a5f38eeb98", "name": "0b98463cc399cc53fe74c4a5f38eeb98", "type": "electric_scooter", "lon": -76.98469016666667, "rental_uris": {"android": "https://dc.lft.to/lastmile_qr_scan", "ios": "https://dc.lft.to/lastmile_qr_scan"}, "lat": 38.893527, "is_reserved": 0, "is_disabled": 0, "fusion_lat": 0.0}, {"fusion_lon": 0.0, "bike_id": "b61419f73b9688eafcb128bdc2596ec9", "name": "b61419f73b9688eafcb128bdc2596ec9", "type": "electric_scooter", "lon": -77.0436085, "rental_uris": {"android": "https://dc.lft.to/lastmile_qr_scan", "ios": "https://dc.lft.to/lastmile_qr_scan"}, "lat": 38.9111865, "is_reserved": 0, "is_disabled": 0, "fusion_lat": 0.0}, {"fusion_lon": 0.0, "bike_id": "626702ec05a44cc9c23670fef49a796c", "name": "626702ec05a44cc9c23670fef49a796c", "type": "electric_scooter", "lon": -77.04272633333333, "rental_uris": {"android": "https://dc.lft.to/lastmile_qr_scan", "ios": "https://dc.lft.to/lastmile_qr_scan"}, "lat": 38.916986333333334, "is_reserved": 0, "is_disabled": 0, "fusion_lat": 0.0}, {"fusion_lon": 0.0, "bike_id": "6affaced9a6d3c96caea1e246c390e2f", "name": "6affaced9a6d3c96caea1e246c390e2f", "type": "electric_scooter", "lon": -76.99693616666667, "rental_uris": {"android": "https://dc.lft.to/lastmile_qr_scan", "ios": "https://dc.lft.to/lastmile_qr_scan"}, "lat": 38.884214666666665, "is_reserved": 0, "is_disabled": 0, "fusion_lat": 0.0}, {"fusion_lon": 0.0, "bike_id": "2e1ec83927cfb4162de1e54a938a272f", "name": "2e1ec83927cfb4162de1e54a938a272f", "type": "electric_scooter", "lon": -76.9963065, "rental_uris": {"android": "https://dc.lft.to/lastmile_qr_scan", "ios": "https://dc.lft.to/lastmile_qr_scan"}, "lat": 38.886096333333334, "is_reserved": 0, "is_disabled": 0, "fusion_lat": 0.0}, {"fusion_lon": 0.0, "bike_id": "74b7fc65794ae4204648c7731de6c1b4", "name": "74b7fc65794ae4204648c7731de6c1b4", "type": "electric_scooter", "lon": -77.0349095, "rental_uris": {"android": "https://dc.lft.to/lastmile_qr_scan", "ios": "https://dc.lft.to/lastmile_qr_scan"}, "lat": 38.903543166666665, "is_reserved": 0, "is_disabled": 0, "fusion_lat": 0.0}, {"fusion_lon": 0.0, "bike_id": "bb713c2be60c18752c4b3019fff584e1", "name": "bb713c2be60c18752c4b3019fff584e1", "type": "electric_scooter", "lon": -77.03975466666667, "rental_uris": {"android": "https://dc.lft.to/lastmile_qr_scan", "ios": "https://dc.lft.to/lastmile_qr_scan"}, "lat": 38.916297666666665, "is_reserved": 0, "is_disabled": 0, "fusion_lat": 0.0}, {"fusion_lon": 0.0, "bike_id": "04e9e6a98aa2867a787bab6f057ba60d", "name": "04e9e6a98aa2867a787bab6f057ba60d", "type": "electric_scooter", "lon": -77.02235083333333, "rental_uris": {"android": "https://dc.lft.to/lastmile_qr_scan", "ios": "https://dc.lft.to/lastmile_qr_scan"}, "lat": 38.914174833333334, "is_reserved": 0, "is_disabled": 0, "fusion_lat": 0.0}, {"fusion_lon": 0.0, "bike_id": "2b998fbb5cbcace133e70f6af4daf7b4", "name": "2b998fbb5cbcace133e70f6af4daf7b4", "type": "electric_scooter", "lon": -77.03962383333334, "rental_uris": {"android": "https://dc.lft.to/lastmile_qr_scan", "ios": "https://dc.lft.to/lastmile_qr_scan"}, "lat": 38.9197895, "is_reserved": 0, "is_disabled": 0, "fusion_lat": 0.0}, {"fusion_lon": 0.0, "bike_id": "a9bad47f504a43eea4e2eedfdc98c5e8", "name": "a9bad47f504a43eea4e2eedfdc98c5e8", "type": "electric_scooter", "lon": -77.03991633333334, "rental_uris": {"android": "https://dc.lft.to/lastmile_qr_scan", "ios": "https://dc.lft.to/lastmile_qr_scan"}, "lat": 38.8935125, "is_reserved": 0, "is_disabled": 0, "fusion_lat": 0.0}, {"fusion_lon": 0.0, "bike_id": "15f63e10e77bcae973fd39f58f90e6c1", "name": "15f63e10e77bcae973fd39f58f90e6c1", "type": "electric_scooter", "lon": -76.9898625, "rental_uris": {"android": "https://dc.lft.to/lastmile_qr_scan", "ios": "https://dc.lft.to/lastmile_qr_scan"}, "lat": 38.906099, "is_reserved": 0, "is_disabled": 0, "fusion_lat": 0.0}, {"fusion_lon": 0.0, "bike_id": "d691b1316c412aebef3bf5ecf7cbbb46", "name": "d691b1316c412aebef3bf5ecf7cbbb46", "type": "electric_scooter", "lon": -77.03763566666667, "rental_uris": {"android": "https://dc.lft.to/lastmile_qr_scan", "ios": "https://dc.lft.to/lastmile_qr_scan"}, "lat": 38.903464666666665, "is_reserved": 0, "is_disabled": 0, "fusion_lat": 0.0}, {"fusion_lon": 0.0, "bike_id": "328798629a374868b4967244ee804439", "name": "328798629a374868b4967244ee804439", "type": "electric_scooter", "lon": -77.03931433333334, "rental_uris": {"android": "https://dc.lft.to/lastmile_qr_scan", "ios": "https://dc.lft.to/lastmile_qr_scan"}, "lat": 38.924935166666664, "is_reserved": 0, "is_disabled": 0, "fusion_lat": 0.0}, {"fusion_lon": 0.0, "bike_id": "8864fbef35bfea928d0c110f60823356", "name": "8864fbef35bfea928d0c110f60823356", "type": "electric_scooter", "lon": -77.02781233333333, "rental_uris": {"android": "https://dc.lft.to/lastmile_qr_scan", "ios": "https://dc.lft.to/lastmile_qr_scan"}, "lat": 38.892241166666665, "is_reserved": 0, "is_disabled": 0, "fusion_lat": 0.0}, {"fusion_lon": 0.0, "bike_id": "b11e36125f4a1b366b58ffedf5f20502", "name": "b11e36125f4a1b366b58ffedf5f20502", "type": "electric_bike", "lon": -77.0321155, "rental_uris": {"android": "https://dc.lft.to/lastmile_qr_scan", "ios": "https://dc.lft.to/lastmile_qr_scan"}, "lat": 38.91723366666667, "is_reserved": 0, "is_disabled": 0, "fusion_lat": 0.0}, {"fusion_lon": 0.0, "bike_id": "d8c728b1c4a71f99fa4f976874da4e33", "name": "d8c728b1c4a71f99fa4f976874da4e33", "type": "electric_scooter", "lon": -76.96434766666667, "rental_uris": {"android": "https://dc.lft.to/lastmile_qr_scan", "ios": "https://dc.lft.to/lastmile_qr_scan"}, "lat": 38.934658, "is_reserved": 0, "is_disabled": 0, "fusion_lat": 0.0}, {"fusion_lon": 0.0, "bike_id": "90548e9a42fedd18444d71ab9eafa513", "name": "90548e9a42fedd18444d71ab9eafa513", "type": "electric_bike", "lon": -77.10717033333333, "rental_uris": {"android": "https://dc.lft.to/lastmile_qr_scan", "ios": "https://dc.lft.to/lastmile_qr_scan"}, "lat": 38.855417833333334, "is_reserved": 0, "is_disabled": 0, "fusion_lat": 0.0}, {"fusion_lon": 0.0, "bike_id": "04e29f712b5f7b190f703f405b0dafca", "name": "04e29f712b5f7b190f703f405b0dafca", "type": "electric_bike", "lon": -77.05621916666666, "rental_uris": {"android": "https://dc.lft.to/lastmile_qr_scan", "ios": "https://dc.lft.to/lastmile_qr_scan"}, "lat": 38.85726416666667, "is_reserved": 0, "is_disabled": 0, "fusion_lat": 0.0}, {"fusion_lon": 0.0, "bike_id": "4f894a217b14aef2aa855bd59dc7657b", "name": "4f894a217b14aef2aa855bd59dc7657b", "type": "electric_scooter", "lon": -77.038772, "rental_uris": {"android": "https://dc.lft.to/lastmile_qr_scan", "ios": "https://dc.lft.to/lastmile_qr_scan"}, "lat": 38.93430383333333, "is_reserved": 0, "is_disabled": 0, "fusion_lat": 0.0}, {"fusion_lon": 0.0, "bike_id": "91c8784e87b2ee8044a2e6c954903028", "name": "91c8784e87b2ee8044a2e6c954903028", "type": "electric_scooter", "lon": -77.04450883333334, "rental_uris": {"android": "https://dc.lft.to/lastmile_qr_scan", "ios": "https://dc.lft.to/lastmile_qr_scan"}, "lat": 38.909955, "is_reserved": 0, "is_disabled": 0, "fusion_lat": 0.0}, {"fusion_lon": 0.0, "bike_id": "0551480db4b9eb7e90bd4676a5097205", "name": "0551480db4b9eb7e90bd4676a5097205", "type": "electric_scooter", "lon": -77.06363783333333, "rental_uris": {"android": "https://dc.lft.to/lastmile_qr_scan", "ios": "https://dc.lft.to/lastmile_qr_scan"}, "lat": 38.944168833333336, "is_reserved": 0, "is_disabled": 0, "fusion_lat": 0.0}, {"fusion_lon": 0.0, "bike_id": "fcefb7bd164e531bede895c0bed73796", "name": "fcefb7bd164e531bede895c0bed73796", "type": "electric_bike", "lon": -77.0511695, "rental_uris": {"android": "https://dc.lft.to/lastmile_qr_scan", "ios": "https://dc.lft.to/lastmile_qr_scan"}, "lat": 38.94559483333333, "is_reserved": 0, "is_disabled": 0, "fusion_lat": 0.0}, {"fusion_lon": 0.0, "bike_id": "1b0469adca4a0acc94ae35787160c7a5", "name": "1b0469adca4a0acc94ae35787160c7a5", "type": "electric_scooter", "lon": -77.04344016666667, "rental_uris": {"android": "https://dc.lft.to/lastmile_qr_scan", "ios": "https://dc.lft.to/lastmile_qr_scan"}, "lat": 38.90258683333333, "is_reserved": 0, "is_disabled": 0, "fusion_lat": 0.0}, {"fusion_lon": 0.0, "bike_id": "c04556457bdc4dfa8243114afff93e8d", "name": "c04556457bdc4dfa8243114afff93e8d", "type": "electric_scooter", "lon": -77.04004166666667, "rental_uris": {"android": "https://dc.lft.to/lastmile_qr_scan", "ios": "https://dc.lft.to/lastmile_qr_scan"}, "lat": 38.90581266666667, "is_reserved": 0, "is_disabled": 0, "fusion_lat": 0.0}, {"fusion_lon": 0.0, "bike_id": "ec4b8731133e934ea6f58f2a511f390b", "name": "ec4b8731133e934ea6f58f2a511f390b", "type": "electric_scooter", "lon": -77.005656, "rental_uris": {"android": "https://dc.lft.to/lastmile_qr_scan", "ios": "https://dc.lft.to/lastmile_qr_scan"}, "lat": 38.905723, "is_reserved": 0, "is_disabled": 0, "fusion_lat": 0.0}, {"fusion_lon": 0.0, "bike_id": "4f96d47259128d1e23830516d5fb53e1", "name": "4f96d47259128d1e23830516d5fb53e1", "type": "electric_scooter", "lon": -76.949033, "rental_uris": {"android": "https://dc.lft.to/lastmile_qr_scan", "ios": "https://dc.lft.to/lastmile_qr_scan"}, "lat": 38.895359666666664, "is_reserved": 0, "is_disabled": 0, "fusion_lat": 0.0}, {"fusion_lon": 0.0, "bike_id": "80f9006958af3b39537b91976dc8c2f6", "name": "80f9006958af3b39537b91976dc8c2f6", "type": "electric_scooter", "lon": -77.06653283333333, "rental_uris": {"android": "https://dc.lft.to/lastmile_qr_scan", "ios": "https://dc.lft.to/lastmile_qr_scan"}, "lat": 38.90335816666666, "is_reserved": 0, "is_disabled": 0, "fusion_lat": 0.0}, {"fusion_lon": 0.0, "bike_id": "856654a0a0b4fe155e6866756b50ef02", "name": "856654a0a0b4fe155e6866756b50ef02", "type": "electric_scooter", "lon": -77.01894583333333, "rental_uris": {"android": "https://dc.lft.to/lastmile_qr_scan", "ios": "https://dc.lft.to/lastmile_qr_scan"}, "lat": 38.87839483333333, "is_reserved": 0, "is_disabled": 0, "fusion_lat": 0.0}, {"fusion_lon": 0.0, "bike_id": "4842cd70bb79ab684b9b7fc94e030e8c", "name": "4842cd70bb79ab684b9b7fc94e030e8c", "type": "electric_scooter", "lon": -77.03421416666667, "rental_uris": {"android": "https://dc.lft.to/lastmile_qr_scan", "ios": "https://dc.lft.to/lastmile_qr_scan"}, "lat": 38.9080305, "is_reserved": 0, "is_disabled": 0, "fusion_lat": 0.0}, {"fusion_lon": 0.0, "bike_id": "818c657c3c45ef13d1399a897a881757", "name": "818c657c3c45ef13d1399a897a881757", "type": "electric_scooter", "lon": -77.03716883333334, "rental_uris": {"android": "https://dc.lft.to/lastmile_qr_scan", "ios": "https://dc.lft.to/lastmile_qr_scan"}, "lat": 38.918083333333335, "is_reserved": 0, "is_disabled": 0, "fusion_lat": 0.0}, {"fusion_lon": 0.0, "bike_id": "66ca3cc40b677533b10f0363306b0e87", "name": "66ca3cc40b677533b10f0363306b0e87", "type": "electric_bike", "lon": -76.9599845, "rental_uris": {"android": "https://dc.lft.to/lastmile_qr_scan", "ios": "https://dc.lft.to/lastmile_qr_scan"}, "lat": 38.870101166666664, "is_reserved": 0, "is_disabled": 0, "fusion_lat": 0.0}, {"fusion_lon": 0.0, "bike_id": "aa72387ed627f5abe440f28f3484d4a2", "name": "aa72387ed627f5abe440f28f3484d4a2", "type": "electric_scooter", "lon": -77.04293866666667, "rental_uris": {"android": "https://dc.lft.to/lastmile_qr_scan", "ios": "https://dc.lft.to/lastmile_qr_scan"}, "lat": 38.91778683333333, "is_reserved": 0, "is_disabled": 0, "fusion_lat": 0.0}, {"fusion_lon": 0.0, "bike_id": "60dd01b18a414ca791321535514f2f26", "name": "60dd01b18a414ca791321535514f2f26", "type": "electric_scooter", "lon": -77.08612816666667, "rental_uris": {"android": "https://dc.lft.to/lastmile_qr_scan", "ios": "https://dc.lft.to/lastmile_qr_scan"}, "lat": 38.958761833333334, "is_reserved": 0, "is_disabled": 0, "fusion_lat": 0.0}, {"fusion_lon": 0.0, "bike_id": "ecdff8de219a269d2551bc9bcef6fd3e", "name": "ecdff8de219a269d2551bc9bcef6fd3e", "type": "electric_scooter", "lon": -77.03971483333333, "rental_uris": {"android": "https://dc.lft.to/lastmile_qr_scan", "ios": "https://dc.lft.to/lastmile_qr_scan"}, "lat": 38.91191766666667, "is_reserved": 0, "is_disabled": 0, "fusion_lat": 0.0}, {"fusion_lon": 0.0, "bike_id": "b00a6bf97cc44d1e9eb0e06c746f83a1", "name": "b00a6bf97cc44d1e9eb0e06c746f83a1", "type": "electric_scooter", "lon": -77.02414466666667, "rental_uris": {"android": "https://dc.lft.to/lastmile_qr_scan", "ios": "https://dc.lft.to/lastmile_qr_scan"}, "lat": 38.909841666666665, "is_reserved": 0, "is_disabled": 0, "fusion_lat": 0.0}, {"fusion_lon": 0.0, "bike_id": "8f7e73ba6f757bcf6f9329ea43ed389f", "name": "8f7e73ba6f757bcf6f9329ea43ed389f", "type": "electric_scooter", "lon": -77.00855483333333, "rental_uris": {"android": "https://dc.lft.to/lastmile_qr_scan", "ios": "https://dc.lft.to/lastmile_qr_scan"}, "lat": 38.87639466666667, "is_reserved": 0, "is_disabled": 0, "fusion_lat": 0.0}, {"fusion_lon": 0.0, "bike_id": "c9955d5e16cedfdf8607daee84ef666a", "name": "c9955d5e16cedfdf8607daee84ef666a", "type": "electric_scooter", "lon": -76.999048, "rental_uris": {"android": "https://dc.lft.to/lastmile_qr_scan", "ios": "https://dc.lft.to/lastmile_qr_scan"}, "lat": 38.9565345, "is_reserved": 0, "is_disabled": 0, "fusion_lat": 0.0}, {"fusion_lon": 0.0, "bike_id": "745f5034e90dca5f128240dd1f2c0f49", "name": "745f5034e90dca5f128240dd1f2c0f49", "type": "electric_scooter", "lon": -77.04680183333333, "rental_uris": {"android": "https://dc.lft.to/lastmile_qr_scan", "ios": "https://dc.lft.to/lastmile_qr_scan"}, "lat": 38.89837516666667, "is_reserved": 0, "is_disabled": 0, "fusion_lat": 0.0}, {"fusion_lon": 0.0, "bike_id": "8947e36581a1c36c2dc1aa0725e1cb5f", "name": "8947e36581a1c36c2dc1aa0725e1cb5f", "type": "electric_scooter", "lon": -76.99812483333334, "rental_uris": {"android": "https://dc.lft.to/lastmile_qr_scan", "ios": "https://dc.lft.to/lastmile_qr_scan"}, "lat": 38.876805833333336, "is_reserved": 0, "is_disabled": 0, "fusion_lat": 0.0}, {"fusion_lon": 0.0, "bike_id": "d0bc17c7272ced5eb3ed274a037a5e32", "name": "d0bc17c7272ced5eb3ed274a037a5e32", "type": "electric_scooter", "lon": -77.02003783333333, "rental_uris": {"android": "https://dc.lft.to/lastmile_qr_scan", "ios": "https://dc.lft.to/lastmile_qr_scan"}, "lat": 38.883675333333336, "is_reserved": 0, "is_disabled": 0, "fusion_lat": 0.0}, {"fusion_lon": 0.0, "bike_id": "05d5fdc3a4e7abf9ab86e43a7676d791", "name": "05d5fdc3a4e7abf9ab86e43a7676d791", "type": "electric_scooter", "lon": -77.02693116666667, "rental_uris": {"android": "https://dc.lft.to/lastmile_qr_scan", "ios": "https://dc.lft.to/lastmile_qr_scan"}, "lat": 38.90392533333333, "is_reserved": 0, "is_disabled": 0, "fusion_lat": 0.0}, {"fusion_lon": 0.0, "bike_id": "1b4afb0da5168fd5538898a0fb62df3a", "name": "1b4afb0da5168fd5538898a0fb62df3a", "type": "electric_scooter", "lon": -76.976183, "rental_uris": {"android": "https://dc.lft.to/lastmile_qr_scan", "ios": "https://dc.lft.to/lastmile_qr_scan"}, "lat": 38.93143416666667, "is_reserved": 0, "is_disabled": 0, "fusion_lat": 0.0}, {"fusion_lon": 0.0, "bike_id": "21371e4a501a2f202498fb3872e88085", "name": "21371e4a501a2f202498fb3872e88085", "type": "electric_scooter", "lon": -76.99054783333334, "rental_uris": {"android": "https://dc.lft.to/lastmile_qr_scan", "ios": "https://dc.lft.to/lastmile_qr_scan"}, "lat": 38.858990666666664, "is_reserved": 0, "is_disabled": 0, "fusion_lat": 0.0}, {"fusion_lon": 0.0, "bike_id": "481fbdffca184c87f81f9e1635b9318e", "name": "481fbdffca184c87f81f9e1635b9318e", "type": "electric_scooter", "lon": -77.04101866666667, "rental_uris": {"android": "https://dc.lft.to/lastmile_qr_scan", "ios": "https://dc.lft.to/lastmile_qr_scan"}, "lat": 38.918547333333336, "is_reserved": 0, "is_disabled": 0, "fusion_lat": 0.0}, {"fusion_lon": 0.0, "bike_id": "19417bcde3336ff47fd16616bb91f642", "name": "19417bcde3336ff47fd16616bb91f642", "type": "electric_scooter", "lon": -77.02334183333333, "rental_uris": {"android": "https://dc.lft.to/lastmile_qr_scan", "ios": "https://dc.lft.to/lastmile_qr_scan"}, "lat": 38.91556816666667, "is_reserved": 0, "is_disabled": 0, "fusion_lat": 0.0}, {"fusion_lon": 0.0, "bike_id": "6c7052df072aab3e286c73ca61b78016", "name": "6c7052df072aab3e286c73ca61b78016", "type": "electric_scooter", "lon": -76.99481066666667, "rental_uris": {"android": "https://dc.lft.to/lastmile_qr_scan", "ios": "https://dc.lft.to/lastmile_qr_scan"}, "lat": 38.862181666666665, "is_reserved": 0, "is_disabled": 0, "fusion_lat": 0.0}, {"fusion_lon": 0.0, "bike_id": "2aa83ba89fd3f4fba9ae23244b440072", "name": "2aa83ba89fd3f4fba9ae23244b440072", "type": "electric_scooter", "lon": -77.00438333333334, "rental_uris": {"android": "https://dc.lft.to/lastmile_qr_scan", "ios": "https://dc.lft.to/lastmile_qr_scan"}, "lat": 38.87658616666667, "is_reserved": 0, "is_disabled": 0, "fusion_lat": 0.0}, {"fusion_lon": 0.0, "bike_id": "1cf5d98ca7ae3f134b520915e7500d09", "name": "1cf5d98ca7ae3f134b520915e7500d09", "type": "electric_scooter", "lon": -77.0030885, "rental_uris": {"android": "https://dc.lft.to/lastmile_qr_scan", "ios": "https://dc.lft.to/lastmile_qr_scan"}, "lat": 38.89480233333333, "is_reserved": 0, "is_disabled": 0, "fusion_lat": 0.0}, {"fusion_lon": 0.0, "bike_id": "3c4473a0eb073f7c5fce1b6c222a7604", "name": "3c4473a0eb073f7c5fce1b6c222a7604", "type": "electric_scooter", "lon": -77.07227916666666, "rental_uris": {"android": "https://dc.lft.to/lastmile_qr_scan", "ios": "https://dc.lft.to/lastmile_qr_scan"}, "lat": 38.93459566666667, "is_reserved": 0, "is_disabled": 0, "fusion_lat": 0.0}, {"fusion_lon": 0.0, "bike_id": "bf4f4249fff9908c30079ffb7128bd9f", "name": "bf4f4249fff9908c30079ffb7128bd9f", "type": "electric_scooter", "lon": -76.98512516666666, "rental_uris": {"android": "https://dc.lft.to/lastmile_qr_scan", "ios": "https://dc.lft.to/lastmile_qr_scan"}, "lat": 38.8808015, "is_reserved": 0, "is_disabled": 0, "fusion_lat": 0.0}, {"fusion_lon": 0.0, "bike_id": "b4a40cb70ba34661e7d9e4bd3c495966", "name": "b4a40cb70ba34661e7d9e4bd3c495966", "type": "electric_bike", "lon": -76.95471666666667, "rental_uris": {"android": "https://dc.lft.to/lastmile_qr_scan", "ios": "https://dc.lft.to/lastmile_qr_scan"}, "lat": 38.935748833333335, "is_reserved": 0, "is_disabled": 0, "fusion_lat": 0.0}, {"fusion_lon": 0.0, "bike_id": "6f5db28297861efb5a34ef3bb4309e28", "name": "6f5db28297861efb5a34ef3bb4309e28", "type": "electric_scooter", "lon": -77.03178166666666, "rental_uris": {"android": "https://dc.lft.to/lastmile_qr_scan", "ios": "https://dc.lft.to/lastmile_qr_scan"}, "lat": 38.899925, "is_reserved": 0, "is_disabled": 0, "fusion_lat": 0.0}, {"fusion_lon": 0.0, "bike_id": "9d03c8fc6c61a6b0552460b7d2629dd9", "name": "9d03c8fc6c61a6b0552460b7d2629dd9", "type": "electric_scooter", "lon": -77.03158266666667, "rental_uris": {"android": "https://dc.lft.to/lastmile_qr_scan", "ios": "https://dc.lft.to/lastmile_qr_scan"}, "lat": 38.902394666666666, "is_reserved": 0, "is_disabled": 0, "fusion_lat": 0.0}, {"fusion_lon": 0.0, "bike_id": "2e24af1f7e36078a9983afbbc834c296", "name": "2e24af1f7e36078a9983afbbc834c296", "type": "electric_scooter", "lon": -77.03851816666666, "rental_uris": {"android": "https://dc.lft.to/lastmile_qr_scan", "ios": "https://dc.lft.to/lastmile_qr_scan"}, "lat": 38.905818333333336, "is_reserved": 0, "is_disabled": 0, "fusion_lat": 0.0}, {"fusion_lon": 0.0, "bike_id": "85d85375aa8436df725b558f77b6d582", "name": "85d85375aa8436df725b558f77b6d582", "type": "electric_scooter", "lon": -76.94197383333334, "rental_uris": {"android": "https://dc.lft.to/lastmile_qr_scan", "ios": "https://dc.lft.to/lastmile_qr_scan"}, "lat": 38.89377366666667, "is_reserved": 0, "is_disabled": 0, "fusion_lat": 0.0}, {"fusion_lon": 0.0, "bike_id": "68f95f0198a342ff15f41f794b8f5e5e", "name": "68f95f0198a342ff15f41f794b8f5e5e", "type": "electric_bike", "lon": -76.93198416666667, "rental_uris": {"android": "https://dc.lft.to/lastmile_qr_scan", "ios": "https://dc.lft.to/lastmile_qr_scan"}, "lat": 38.87236033333333, "is_reserved": 0, "is_disabled": 0, "fusion_lat": 0.0}, {"fusion_lon": 0.0, "bike_id": "a4d0c8d52e05e079c846b3cb12610c2e", "name": "a4d0c8d52e05e079c846b3cb12610c2e", "type": "electric_scooter", "lon": -77.03999316666666, "rental_uris": {"android": "https://dc.lft.to/lastmile_qr_scan", "ios": "https://dc.lft.to/lastmile_qr_scan"}, "lat": 38.92432616666667, "is_reserved": 0, "is_disabled": 0, "fusion_lat": 0.0}, {"fusion_lon": 0.0, "bike_id": "81eb9f96c80c965e481b541f57660597", "name": "81eb9f96c80c965e481b541f57660597", "type": "electric_scooter", "lon": -77.03761083333333, "rental_uris": {"android": "https://dc.lft.to/lastmile_qr_scan", "ios": "https://dc.lft.to/lastmile_qr_scan"}, "lat": 38.91691433333333, "is_reserved": 0, "is_disabled": 0, "fusion_lat": 0.0}, {"fusion_lon": 0.0, "bike_id": "39a2e90330aee25b54ea2f9a3df21286", "name": "39a2e90330aee25b54ea2f9a3df21286", "type": "electric_bike", "lon": -77.09963383333333, "rental_uris": {"android": "https://dc.lft.to/lastmile_qr_scan", "ios": "https://dc.lft.to/lastmile_qr_scan"}, "lat": 38.85790216666667, "is_reserved": 0, "is_disabled": 0, "fusion_lat": 0.0}, {"fusion_lon": 0.0, "bike_id": "82038d107dad20470bcb4da6bae5d3bd", "name": "82038d107dad20470bcb4da6bae5d3bd", "type": "electric_scooter", "lon": -77.04169983333334, "rental_uris": {"android": "https://dc.lft.to/lastmile_qr_scan", "ios": "https://dc.lft.to/lastmile_qr_scan"}, "lat": 38.901414833333334, "is_reserved": 0, "is_disabled": 0, "fusion_lat": 0.0}, {"fusion_lon": 0.0, "bike_id": "b0d09fc90be743fa225f88b633460578", "name": "b0d09fc90be743fa225f88b633460578", "type": "electric_scooter", "lon": -77.0185, "rental_uris": {"android": "https://dc.lft.to/lastmile_qr_scan", "ios": "https://dc.lft.to/lastmile_qr_scan"}, "lat": 38.9542665, "is_reserved": 0, "is_disabled": 0, "fusion_lat": 0.0}, {"fusion_lon": 0.0, "bike_id": "931985ddac0e09924da3a4515da8bf17", "name": "931985ddac0e09924da3a4515da8bf17", "type": "electric_scooter", "lon": -77.02159783333333, "rental_uris": {"android": "https://dc.lft.to/lastmile_qr_scan", "ios": "https://dc.lft.to/lastmile_qr_scan"}, "lat": 38.92615983333334, "is_reserved": 0, "is_disabled": 0, "fusion_lat": 0.0}, {"fusion_lon": 0.0, "bike_id": "0ba6968a31d1886c6debcf0e1b9c7a9a", "name": "0ba6968a31d1886c6debcf0e1b9c7a9a", "type": "electric_scooter", "lon": -77.00592983333334, "rental_uris": {"android": "https://dc.lft.to/lastmile_qr_scan", "ios": "https://dc.lft.to/lastmile_qr_scan"}, "lat": 38.9276275, "is_reserved": 0, "is_disabled": 0, "fusion_lat": 0.0}, {"fusion_lon": 0.0, "bike_id": "1907bee0aa5aac8ff657c85a1aa690f2", "name": "1907bee0aa5aac8ff657c85a1aa690f2", "type": "electric_scooter", "lon": -77.03152266666666, "rental_uris": {"android": "https://dc.lft.to/lastmile_qr_scan", "ios": "https://dc.lft.to/lastmile_qr_scan"}, "lat": 38.883051333333334, "is_reserved": 0, "is_disabled": 0, "fusion_lat": 0.0}, {"fusion_lon": 0.0, "bike_id": "2ad237bf270969422466c8e45b754195", "name": "2ad237bf270969422466c8e45b754195", "type": "electric_scooter", "lon": -77.02649016666666, "rental_uris": {"android": "https://dc.lft.to/lastmile_qr_scan", "ios": "https://dc.lft.to/lastmile_qr_scan"}, "lat": 38.938719, "is_reserved": 0, "is_disabled": 0, "fusion_lat": 0.0}, {"fusion_lon": 0.0, "bike_id": "863ab2b0eb7f89a5f11cef3c31af571f", "name": "863ab2b0eb7f89a5f11cef3c31af571f", "type": "electric_scooter", "lon": -77.02943983333333, "rental_uris": {"android": "https://dc.lft.to/lastmile_qr_scan", "ios": "https://dc.lft.to/lastmile_qr_scan"}, "lat": 38.898412666666665, "is_reserved": 0, "is_disabled": 0, "fusion_lat": 0.0}, {"fusion_lon": 0.0, "bike_id": "6a8c80b1d45726105b1149f29c2c6cd1", "name": "6a8c80b1d45726105b1149f29c2c6cd1", "type": "electric_scooter", "lon": -77.076605, "rental_uris": {"android": "https://dc.lft.to/lastmile_qr_scan", "ios": "https://dc.lft.to/lastmile_qr_scan"}, "lat": 38.9108415, "is_reserved": 0, "is_disabled": 0, "fusion_lat": 0.0}, {"fusion_lon": 0.0, "bike_id": "9026f9adf11e3fcaec66333ca910427d", "name": "9026f9adf11e3fcaec66333ca910427d", "type": "electric_scooter", "lon": -77.0272155, "rental_uris": {"android": "https://dc.lft.to/lastmile_qr_scan", "ios": "https://dc.lft.to/lastmile_qr_scan"}, "lat": 38.92781933333333, "is_reserved": 0, "is_disabled": 0, "fusion_lat": 0.0}, {"fusion_lon": 0.0, "bike_id": "8e374c413756f9ac1d438153f17916af", "name": "8e374c413756f9ac1d438153f17916af", "type": "electric_scooter", "lon": -77.005209, "rental_uris": {"android": "https://dc.lft.to/lastmile_qr_scan", "ios": "https://dc.lft.to/lastmile_qr_scan"}, "lat": 38.87473516666667, "is_reserved": 0, "is_disabled": 0, "fusion_lat": 0.0}, {"fusion_lon": 0.0, "bike_id": "ca825f8ef235ea2f2645064996b62982", "name": "ca825f8ef235ea2f2645064996b62982", "type": "electric_scooter", "lon": -76.937434, "rental_uris": {"android": "https://dc.lft.to/lastmile_qr_scan", "ios": "https://dc.lft.to/lastmile_qr_scan"}, "lat": 38.890143333333334, "is_reserved": 0, "is_disabled": 0, "fusion_lat": 0.0}, {"fusion_lon": 0.0, "bike_id": "f6bc95c3fed0e0d3cb344c22bb63e647", "name": "f6bc95c3fed0e0d3cb344c22bb63e647", "type": "electric_scooter", "lon": -77.04182783333333, "rental_uris": {"android": "https://dc.lft.to/lastmile_qr_scan", "ios": "https://dc.lft.to/lastmile_qr_scan"}, "lat": 38.91412016666666, "is_reserved": 0, "is_disabled": 0, "fusion_lat": 0.0}, {"fusion_lon": 0.0, "bike_id": "2924284f9f70e119f2646465dcadaff4", "name": "2924284f9f70e119f2646465dcadaff4", "type": "electric_scooter", "lon": -76.94886483333333, "rental_uris": {"android": "https://dc.lft.to/lastmile_qr_scan", "ios": "https://dc.lft.to/lastmile_qr_scan"}, "lat": 38.89514766666667, "is_reserved": 0, "is_disabled": 0, "fusion_lat": 0.0}, {"fusion_lon": 0.0, "bike_id": "b3385762426b71f09dc8fafec130f72f", "name": "b3385762426b71f09dc8fafec130f72f", "type": "electric_scooter", "lon": -77.04707033333334, "rental_uris": {"android": "https://dc.lft.to/lastmile_qr_scan", "ios": "https://dc.lft.to/lastmile_qr_scan"}, "lat": 38.912649, "is_reserved": 0, "is_disabled": 0, "fusion_lat": 0.0}, {"fusion_lon": 0.0, "bike_id": "86a68a2284944a522d7493163a11185a", "name": "86a68a2284944a522d7493163a11185a", "type": "electric_scooter", "lon": -77.02244466666667, "rental_uris": {"android": "https://dc.lft.to/lastmile_qr_scan", "ios": "https://dc.lft.to/lastmile_qr_scan"}, "lat": 38.878200166666666, "is_reserved": 0, "is_disabled": 0, "fusion_lat": 0.0}, {"fusion_lon": 0.0, "bike_id": "c13af9429c7eff8fefb3e3c6600b2b85", "name": "c13af9429c7eff8fefb3e3c6600b2b85", "type": "electric_scooter", "lon": -77.002801, "rental_uris": {"android": "https://dc.lft.to/lastmile_qr_scan", "ios": "https://dc.lft.to/lastmile_qr_scan"}, "lat": 38.939236, "is_reserved": 0, "is_disabled": 0, "fusion_lat": 0.0}, {"fusion_lon": 0.0, "bike_id": "934f96c82f00f37e61e3438f22df31d3", "name": "934f96c82f00f37e61e3438f22df31d3", "type": "electric_scooter", "lon": -77.0423095, "rental_uris": {"android": "https://dc.lft.to/lastmile_qr_scan", "ios": "https://dc.lft.to/lastmile_qr_scan"}, "lat": 38.921919833333334, "is_reserved": 0, "is_disabled": 0, "fusion_lat": 0.0}, {"fusion_lon": 0.0, "bike_id": "c5fcbd89a33ea662c0bddef9e461367b", "name": "c5fcbd89a33ea662c0bddef9e461367b", "type": "electric_scooter", "lon": -77.00334466666666, "rental_uris": {"android": "https://dc.lft.to/lastmile_qr_scan", "ios": "https://dc.lft.to/lastmile_qr_scan"}, "lat": 38.89357016666666, "is_reserved": 0, "is_disabled": 0, "fusion_lat": 0.0}, {"fusion_lon": 0.0, "bike_id": "0be6c58d56ab55b77aee0a3e00cd2c40", "name": "0be6c58d56ab55b77aee0a3e00cd2c40", "type": "electric_scooter", "lon": -77.028085, "rental_uris": {"android": "https://dc.lft.to/lastmile_qr_scan", "ios": "https://dc.lft.to/lastmile_qr_scan"}, "lat": 38.90269583333333, "is_reserved": 0, "is_disabled": 0, "fusion_lat": 0.0}, {"fusion_lon": 0.0, "bike_id": "ff10a3164c0f014c615c0766718be6a2", "name": "ff10a3164c0f014c615c0766718be6a2", "type": "electric_scooter", "lon": -77.017319, "rental_uris": {"android": "https://dc.lft.to/lastmile_qr_scan", "ios": "https://dc.lft.to/lastmile_qr_scan"}, "lat": 38.8770105, "is_reserved": 0, "is_disabled": 0, "fusion_lat": 0.0}, {"fusion_lon": 0.0, "bike_id": "756e384ae2b766398328a55da9bb87bd", "name": "756e384ae2b766398328a55da9bb87bd", "type": "electric_scooter", "lon": -77.03191483333333, "rental_uris": {"android": "https://dc.lft.to/lastmile_qr_scan", "ios": "https://dc.lft.to/lastmile_qr_scan"}, "lat": 38.912191166666666, "is_reserved": 0, "is_disabled": 0, "fusion_lat": 0.0}, {"fusion_lon": 0.0, "bike_id": "1217c34d5affe4d0bb2881ab2127a1be", "name": "1217c34d5affe4d0bb2881ab2127a1be", "type": "electric_scooter", "lon": -76.99381783333334, "rental_uris": {"android": "https://dc.lft.to/lastmile_qr_scan", "ios": "https://dc.lft.to/lastmile_qr_scan"}, "lat": 38.9210095, "is_reserved": 0, "is_disabled": 0, "fusion_lat": 0.0}, {"fusion_lon": 0.0, "bike_id": "f6be236026eaf69a68002788e20908d0", "name": "f6be236026eaf69a68002788e20908d0", "type": "electric_scooter", "lon": -77.04238566666666, "rental_uris": {"android": "https://dc.lft.to/lastmile_qr_scan", "ios": "https://dc.lft.to/lastmile_qr_scan"}, "lat": 38.9216995, "is_reserved": 0, "is_disabled": 0, "fusion_lat": 0.0}, {"fusion_lon": 0.0, "bike_id": "32f7daf9b86f2000b7977c24424324e9", "name": "32f7daf9b86f2000b7977c24424324e9", "type": "electric_scooter", "lon": -77.0543105, "rental_uris": {"android": "https://dc.lft.to/lastmile_qr_scan", "ios": "https://dc.lft.to/lastmile_qr_scan"}, "lat": 38.9054215, "is_reserved": 0, "is_disabled": 0, "fusion_lat": 0.0}, {"fusion_lon": 0.0, "bike_id": "46b29a115ca49dd85eb654e5a895449b", "name": "46b29a115ca49dd85eb654e5a895449b", "type": "electric_scooter", "lon": -77.04148683333334, "rental_uris": {"android": "https://dc.lft.to/lastmile_qr_scan", "ios": "https://dc.lft.to/lastmile_qr_scan"}, "lat": 38.91792233333334, "is_reserved": 0, "is_disabled": 0, "fusion_lat": 0.0}, {"fusion_lon": 0.0, "bike_id": "2daa86068506de02ea1cdc7945c91769", "name": "2daa86068506de02ea1cdc7945c91769", "type": "electric_scooter", "lon": -77.03959183333333, "rental_uris": {"android": "https://dc.lft.to/lastmile_qr_scan", "ios": "https://dc.lft.to/lastmile_qr_scan"}, "lat": 38.90135816666667, "is_reserved": 0, "is_disabled": 0, "fusion_lat": 0.0}, {"fusion_lon": 0.0, "bike_id": "c75386ab2862b9e353993267bac1b83f", "name": "c75386ab2862b9e353993267bac1b83f", "type": "electric_bike", "lon": -77.077944, "rental_uris": {"android": "https://dc.lft.to/lastmile_qr_scan", "ios": "https://dc.lft.to/lastmile_qr_scan"}, "lat": 38.84519516666667, "is_reserved": 0, "is_disabled": 0, "fusion_lat": 0.0}, {"fusion_lon": 0.0, "bike_id": "6c6f10b9c0755424af59b25da2d1990e", "name": "6c6f10b9c0755424af59b25da2d1990e", "type": "electric_scooter", "lon": -77.00063833333333, "rental_uris": {"android": "https://dc.lft.to/lastmile_qr_scan", "ios": "https://dc.lft.to/lastmile_qr_scan"}, "lat": 38.892947666666664, "is_reserved": 0, "is_disabled": 0, "fusion_lat": 0.0}, {"fusion_lon": 0.0, "bike_id": "8f645a58d29ec957a1112117ef4101e4", "name": "8f645a58d29ec957a1112117ef4101e4", "type": "electric_scooter", "lon": -77.02095233333333, "rental_uris": {"android": "https://dc.lft.to/lastmile_qr_scan", "ios": "https://dc.lft.to/lastmile_qr_scan"}, "lat": 38.94731133333333, "is_reserved": 0, "is_disabled": 0, "fusion_lat": 0.0}, {"fusion_lon": 0.0, "bike_id": "0fe71e38c7f87c0ca3401f8c1e4b3dbe", "name": "0fe71e38c7f87c0ca3401f8c1e4b3dbe", "type": "electric_scooter", "lon": -77.050236, "rental_uris": {"android": "https://dc.lft.to/lastmile_qr_scan", "ios": "https://dc.lft.to/lastmile_qr_scan"}, "lat": 38.89660133333334, "is_reserved": 0, "is_disabled": 0, "fusion_lat": 0.0}, {"fusion_lon": 0.0, "bike_id": "214b47d7007b0768457fc1447f93993f", "name": "214b47d7007b0768457fc1447f93993f", "type": "electric_scooter", "lon": -77.05802433333334, "rental_uris": {"android": "https://dc.lft.to/lastmile_qr_scan", "ios": "https://dc.lft.to/lastmile_qr_scan"}, "lat": 38.903013333333334, "is_reserved": 0, "is_disabled": 0, "fusion_lat": 0.0}, {"fusion_lon": 0.0, "bike_id": "b51dc3639984f550a32b96d8d7c59768", "name": "b51dc3639984f550a32b96d8d7c59768", "type": "electric_scooter", "lon": -77.04072883333333, "rental_uris": {"android": "https://dc.lft.to/lastmile_qr_scan", "ios": "https://dc.lft.to/lastmile_qr_scan"}, "lat": 38.90495116666666, "is_reserved": 0, "is_disabled": 0, "fusion_lat": 0.0}, {"fusion_lon": 0.0, "bike_id": "5a45d8c5e4d405b98f15d8b3e5d50f42", "name": "5a45d8c5e4d405b98f15d8b3e5d50f42", "type": "electric_scooter", "lon": -77.04491133333333, "rental_uris": {"android": "https://dc.lft.to/lastmile_qr_scan", "ios": "https://dc.lft.to/lastmile_qr_scan"}, "lat": 38.905679666666664, "is_reserved": 0, "is_disabled": 0, "fusion_lat": 0.0}, {"fusion_lon": 0.0, "bike_id": "6b60243526ba5971aeb364e10890fdbe", "name": "6b60243526ba5971aeb364e10890fdbe", "type": "electric_scooter", "lon": -77.021758, "rental_uris": {"android": "https://dc.lft.to/lastmile_qr_scan", "ios": "https://dc.lft.to/lastmile_qr_scan"}, "lat": 38.943118, "is_reserved": 0, "is_disabled": 0, "fusion_lat": 0.0}, {"fusion_lon": 0.0, "bike_id": "283afe263e64adf9a2b93fb643506292", "name": "283afe263e64adf9a2b93fb643506292", "type": "electric_scooter", "lon": -77.07249566666667, "rental_uris": {"android": "https://dc.lft.to/lastmile_qr_scan", "ios": "https://dc.lft.to/lastmile_qr_scan"}, "lat": 38.907882, "is_reserved": 0, "is_disabled": 0, "fusion_lat": 0.0}, {"fusion_lon": 0.0, "bike_id": "5bb5852a306adc10422ee6b5b87bd2ba", "name": "5bb5852a306adc10422ee6b5b87bd2ba", "type": "electric_scooter", "lon": -77.02468816666666, "rental_uris": {"android": "https://dc.lft.to/lastmile_qr_scan", "ios": "https://dc.lft.to/lastmile_qr_scan"}, "lat": 38.93772833333333, "is_reserved": 0, "is_disabled": 0, "fusion_lat": 0.0}, {"fusion_lon": 0.0, "bike_id": "932bbdf557b418ae2af18f1356cf7d9d", "name": "932bbdf557b418ae2af18f1356cf7d9d", "type": "electric_scooter", "lon": -77.04485783333334, "rental_uris": {"android": "https://dc.lft.to/lastmile_qr_scan", "ios": "https://dc.lft.to/lastmile_qr_scan"}, "lat": 38.90911533333333, "is_reserved": 0, "is_disabled": 0, "fusion_lat": 0.0}, {"fusion_lon": 0.0, "bike_id": "c663bad473a15a919b2e9235ae8a24db", "name": "c663bad473a15a919b2e9235ae8a24db", "type": "electric_scooter", "lon": -76.96554966666666, "rental_uris": {"android": "https://dc.lft.to/lastmile_qr_scan", "ios": "https://dc.lft.to/lastmile_qr_scan"}, "lat": 38.91847966666667, "is_reserved": 0, "is_disabled": 0, "fusion_lat": 0.0}, {"fusion_lon": 0.0, "bike_id": "f095a0e78b3d0c155ca3741dfef4099a", "name": "f095a0e78b3d0c155ca3741dfef4099a", "type": "electric_scooter", "lon": -77.029586, "rental_uris": {"android": "https://dc.lft.to/lastmile_qr_scan", "ios": "https://dc.lft.to/lastmile_qr_scan"}, "lat": 38.9214305, "is_reserved": 0, "is_disabled": 0, "fusion_lat": 0.0}, {"fusion_lon": 0.0, "bike_id": "a6de1ee7155d2b330aee00775fe15634", "name": "a6de1ee7155d2b330aee00775fe15634", "type": "electric_scooter", "lon": -76.98019416666666, "rental_uris": {"android": "https://dc.lft.to/lastmile_qr_scan", "ios": "https://dc.lft.to/lastmile_qr_scan"}, "lat": 38.86402616666667, "is_reserved": 0, "is_disabled": 0, "fusion_lat": 0.0}, {"fusion_lon": 0.0, "bike_id": "1213a190597bb22b5cf3ade411f61912", "name": "1213a190597bb22b5cf3ade411f61912", "type": "electric_scooter", "lon": -77.03656583333333, "rental_uris": {"android": "https://dc.lft.to/lastmile_qr_scan", "ios": "https://dc.lft.to/lastmile_qr_scan"}, "lat": 38.922869166666665, "is_reserved": 0, "is_disabled": 0, "fusion_lat": 0.0}, {"fusion_lon": 0.0, "bike_id": "0416c1c4ccf0ddb2c3f121a2284f648f", "name": "0416c1c4ccf0ddb2c3f121a2284f648f", "type": "electric_scooter", "lon": -77.03379083333333, "rental_uris": {"android": "https://dc.lft.to/lastmile_qr_scan", "ios": "https://dc.lft.to/lastmile_qr_scan"}, "lat": 38.90105416666667, "is_reserved": 0, "is_disabled": 0, "fusion_lat": 0.0}, {"fusion_lon": 0.0, "bike_id": "ddb21a199a1761ffb9fc950b5dd857b7", "name": "ddb21a199a1761ffb9fc950b5dd857b7", "type": "electric_scooter", "lon": -77.0408825, "rental_uris": {"android": "https://dc.lft.to/lastmile_qr_scan", "ios": "https://dc.lft.to/lastmile_qr_scan"}, "lat": 38.91710633333334, "is_reserved": 0, "is_disabled": 0, "fusion_lat": 0.0}, {"fusion_lon": 0.0, "bike_id": "5bebab73016ca5b655fb35d792da7f85", "name": "5bebab73016ca5b655fb35d792da7f85", "type": "electric_scooter", "lon": -77.023277, "rental_uris": {"android": "https://dc.lft.to/lastmile_qr_scan", "ios": "https://dc.lft.to/lastmile_qr_scan"}, "lat": 38.92713466666667, "is_reserved": 0, "is_disabled": 0, "fusion_lat": 0.0}, {"fusion_lon": 0.0, "bike_id": "58e90e746cbc977c78709fd12ab1ce6c", "name": "58e90e746cbc977c78709fd12ab1ce6c", "type": "electric_scooter", "lon": -77.03795233333334, "rental_uris": {"android": "https://dc.lft.to/lastmile_qr_scan", "ios": "https://dc.lft.to/lastmile_qr_scan"}, "lat": 38.936031, "is_reserved": 0, "is_disabled": 0, "fusion_lat": 0.0}, {"fusion_lon": 0.0, "bike_id": "d5dfbf1ff521c627a5a76c4788f94424", "name": "d5dfbf1ff521c627a5a76c4788f94424", "type": "electric_scooter", "lon": -77.02208266666666, "rental_uris": {"android": "https://dc.lft.to/lastmile_qr_scan", "ios": "https://dc.lft.to/lastmile_qr_scan"}, "lat": 38.9153145, "is_reserved": 0, "is_disabled": 0, "fusion_lat": 0.0}, {"fusion_lon": 0.0, "bike_id": "496129b5950338f8f5036740983ce5b0", "name": "496129b5950338f8f5036740983ce5b0", "type": "electric_scooter", "lon": -76.96551566666666, "rental_uris": {"android": "https://dc.lft.to/lastmile_qr_scan", "ios": "https://dc.lft.to/lastmile_qr_scan"}, "lat": 38.9187075, "is_reserved": 0, "is_disabled": 0, "fusion_lat": 0.0}, {"fusion_lon": 0.0, "bike_id": "c0afad746d15bda881b18f17a69ee1f6", "name": "c0afad746d15bda881b18f17a69ee1f6", "type": "electric_scooter", "lon": -76.97182216666667, "rental_uris": {"android": "https://dc.lft.to/lastmile_qr_scan", "ios": "https://dc.lft.to/lastmile_qr_scan"}, "lat": 38.912632333333335, "is_reserved": 0, "is_disabled": 0, "fusion_lat": 0.0}, {"fusion_lon": 0.0, "bike_id": "5b7d1603c79e1498e7f0653ae8da99f0", "name": "5b7d1603c79e1498e7f0653ae8da99f0", "type": "electric_scooter", "lon": -77.0416405, "rental_uris": {"android": "https://dc.lft.to/lastmile_qr_scan", "ios": "https://dc.lft.to/lastmile_qr_scan"}, "lat": 38.9133555, "is_reserved": 0, "is_disabled": 0, "fusion_lat": 0.0}, {"fusion_lon": 0.0, "bike_id": "b4d6c02ef3d19f214a484005da4b2583", "name": "b4d6c02ef3d19f214a484005da4b2583", "type": "electric_scooter", "lon": -77.04558133333333, "rental_uris": {"android": "https://dc.lft.to/lastmile_qr_scan", "ios": "https://dc.lft.to/lastmile_qr_scan"}, "lat": 38.907357166666664, "is_reserved": 0, "is_disabled": 0, "fusion_lat": 0.0}, {"fusion_lon": 0.0, "bike_id": "9ae241c71b68e77a08771216263ea53a", "name": "9ae241c71b68e77a08771216263ea53a", "type": "electric_scooter", "lon": -77.0222095, "rental_uris": {"android": "https://dc.lft.to/lastmile_qr_scan", "ios": "https://dc.lft.to/lastmile_qr_scan"}, "lat": 38.90957383333333, "is_reserved": 0, "is_disabled": 0, "fusion_lat": 0.0}, {"fusion_lon": 0.0, "bike_id": "7bb7a4d46eee006807a024c428bba072", "name": "7bb7a4d46eee006807a024c428bba072", "type": "electric_scooter", "lon": -77.02487933333333, "rental_uris": {"android": "https://dc.lft.to/lastmile_qr_scan", "ios": "https://dc.lft.to/lastmile_qr_scan"}, "lat": 38.941852833333336, "is_reserved": 0, "is_disabled": 0, "fusion_lat": 0.0}, {"fusion_lon": 0.0, "bike_id": "75f2a104360fce60daf39eba596b887e", "name": "75f2a104360fce60daf39eba596b887e", "type": "electric_scooter", "lon": -76.994465, "rental_uris": {"android": "https://dc.lft.to/lastmile_qr_scan", "ios": "https://dc.lft.to/lastmile_qr_scan"}, "lat": 38.905080833333336, "is_reserved": 0, "is_disabled": 0, "fusion_lat": 0.0}, {"fusion_lon": 0.0, "bike_id": "a453672a65a6fe63a35cd4238d49003d", "name": "a453672a65a6fe63a35cd4238d49003d", "type": "electric_scooter", "lon": -77.02305933333334, "rental_uris": {"android": "https://dc.lft.to/lastmile_qr_scan", "ios": "https://dc.lft.to/lastmile_qr_scan"}, "lat": 38.9015595, "is_reserved": 0, "is_disabled": 0, "fusion_lat": 0.0}, {"fusion_lon": 0.0, "bike_id": "1058546c8ad6f66f31a3d531af1031cd", "name": "1058546c8ad6f66f31a3d531af1031cd", "type": "electric_scooter", "lon": -76.95516433333333, "rental_uris": {"android": "https://dc.lft.to/lastmile_qr_scan", "ios": "https://dc.lft.to/lastmile_qr_scan"}, "lat": 38.890576333333335, "is_reserved": 0, "is_disabled": 0, "fusion_lat": 0.0}, {"fusion_lon": 0.0, "bike_id": "c83eaae4eea310cfe4c621249945870c", "name": "c83eaae4eea310cfe4c621249945870c", "type": "electric_bike", "lon": -76.92916883333334, "rental_uris": {"android": "https://dc.lft.to/lastmile_qr_scan", "ios": "https://dc.lft.to/lastmile_qr_scan"}, "lat": 38.98029116666667, "is_reserved": 0, "is_disabled": 0, "fusion_lat": 0.0}, {"fusion_lon": 0.0, "bike_id": "e73d12607dddaf160af398218f681e01", "name": "e73d12607dddaf160af398218f681e01", "type": "electric_scooter", "lon": -76.94470516666667, "rental_uris": {"android": "https://dc.lft.to/lastmile_qr_scan", "ios": "https://dc.lft.to/lastmile_qr_scan"}, "lat": 38.902814, "is_reserved": 0, "is_disabled": 0, "fusion_lat": 0.0}, {"fusion_lon": 0.0, "bike_id": "767c4adb4486066effae59e9753688c3", "name": "767c4adb4486066effae59e9753688c3", "type": "electric_scooter", "lon": -77.02606033333333, "rental_uris": {"android": "https://dc.lft.to/lastmile_qr_scan", "ios": "https://dc.lft.to/lastmile_qr_scan"}, "lat": 38.914285666666665, "is_reserved": 0, "is_disabled": 0, "fusion_lat": 0.0}, {"fusion_lon": 0.0, "bike_id": "ff509fcf397aa89c01e530a99352e574", "name": "ff509fcf397aa89c01e530a99352e574", "type": "electric_scooter", "lon": -77.04139233333333, "rental_uris": {"android": "https://dc.lft.to/lastmile_qr_scan", "ios": "https://dc.lft.to/lastmile_qr_scan"}, "lat": 38.91685483333333, "is_reserved": 0, "is_disabled": 0, "fusion_lat": 0.0}, {"fusion_lon": 0.0, "bike_id": "2e4894bd489959d297d364abfbf68979", "name": "2e4894bd489959d297d364abfbf68979", "type": "electric_scooter", "lon": -77.02954833333334, "rental_uris": {"android": "https://dc.lft.to/lastmile_qr_scan", "ios": "https://dc.lft.to/lastmile_qr_scan"}, "lat": 38.916719, "is_reserved": 0, "is_disabled": 0, "fusion_lat": 0.0}, {"fusion_lon": 0.0, "bike_id": "d459f1a12e5ce433566c1d040201d24b", "name": "d459f1a12e5ce433566c1d040201d24b", "type": "electric_scooter", "lon": -77.03182266666667, "rental_uris": {"android": "https://dc.lft.to/lastmile_qr_scan", "ios": "https://dc.lft.to/lastmile_qr_scan"}, "lat": 38.921070666666665, "is_reserved": 0, "is_disabled": 0, "fusion_lat": 0.0}, {"fusion_lon": 0.0, "bike_id": "680ef2e98423824c8e55a02662634ce2", "name": "680ef2e98423824c8e55a02662634ce2", "type": "electric_scooter", "lon": -76.99416083333334, "rental_uris": {"android": "https://dc.lft.to/lastmile_qr_scan", "ios": "https://dc.lft.to/lastmile_qr_scan"}, "lat": 38.93310183333333, "is_reserved": 0, "is_disabled": 0, "fusion_lat": 0.0}, {"fusion_lon": 0.0, "bike_id": "abec2b1e1ae62bb3646465c2f5c0dbb1", "name": "abec2b1e1ae62bb3646465c2f5c0dbb1", "type": "electric_scooter", "lon": -77.034424, "rental_uris": {"android": "https://dc.lft.to/lastmile_qr_scan", "ios": "https://dc.lft.to/lastmile_qr_scan"}, "lat": 38.904417, "is_reserved": 0, "is_disabled": 0, "fusion_lat": 0.0}, {"fusion_lon": 0.0, "bike_id": "c4fcc220628b1707567637aca7ea0723", "name": "c4fcc220628b1707567637aca7ea0723", "type": "electric_scooter", "lon": -77.04765366666666, "rental_uris": {"android": "https://dc.lft.to/lastmile_qr_scan", "ios": "https://dc.lft.to/lastmile_qr_scan"}, "lat": 38.90138433333333, "is_reserved": 0, "is_disabled": 0, "fusion_lat": 0.0}, {"fusion_lon": 0.0, "bike_id": "cee9651360b15f43021201449a8ed85e", "name": "cee9651360b15f43021201449a8ed85e", "type": "electric_scooter", "lon": -77.0195385, "rental_uris": {"android": "https://dc.lft.to/lastmile_qr_scan", "ios": "https://dc.lft.to/lastmile_qr_scan"}, "lat": 38.922619833333336, "is_reserved": 0, "is_disabled": 0, "fusion_lat": 0.0}, {"fusion_lon": 0.0, "bike_id": "4cdde03925e2f5c68aa6b834b5a7508c", "name": "4cdde03925e2f5c68aa6b834b5a7508c", "type": "electric_scooter", "lon": -77.04982933333334, "rental_uris": {"android": "https://dc.lft.to/lastmile_qr_scan", "ios": "https://dc.lft.to/lastmile_qr_scan"}, "lat": 38.90059883333333, "is_reserved": 0, "is_disabled": 0, "fusion_lat": 0.0}, {"fusion_lon": 0.0, "bike_id": "af7ada5158e38256d13a20b6e2d6c59a", "name": "af7ada5158e38256d13a20b6e2d6c59a", "type": "electric_scooter", "lon": -77.027178, "rental_uris": {"android": "https://dc.lft.to/lastmile_qr_scan", "ios": "https://dc.lft.to/lastmile_qr_scan"}, "lat": 38.90671016666667, "is_reserved": 0, "is_disabled": 0, "fusion_lat": 0.0}, {"fusion_lon": 0.0, "bike_id": "3ad9a9624f2b5187ee3c3ebf7f271c3c", "name": "3ad9a9624f2b5187ee3c3ebf7f271c3c", "type": "electric_scooter", "lon": -77.00289766666667, "rental_uris": {"android": "https://dc.lft.to/lastmile_qr_scan", "ios": "https://dc.lft.to/lastmile_qr_scan"}, "lat": 38.908855, "is_reserved": 0, "is_disabled": 0, "fusion_lat": 0.0}, {"fusion_lon": 0.0, "bike_id": "9b975cde6033b4ec99b1535e9ea6bc00", "name": "9b975cde6033b4ec99b1535e9ea6bc00", "type": "electric_scooter", "lon": -76.99805816666667, "rental_uris": {"android": "https://dc.lft.to/lastmile_qr_scan", "ios": "https://dc.lft.to/lastmile_qr_scan"}, "lat": 38.87670583333333, "is_reserved": 0, "is_disabled": 0, "fusion_lat": 0.0}, {"fusion_lon": 0.0, "bike_id": "afb1a523ff2ad41f73fe346ae86f24f9", "name": "afb1a523ff2ad41f73fe346ae86f24f9", "type": "electric_scooter", "lon": -77.05792766666667, "rental_uris": {"android": "https://dc.lft.to/lastmile_qr_scan", "ios": "https://dc.lft.to/lastmile_qr_scan"}, "lat": 38.934846666666665, "is_reserved": 0, "is_disabled": 0, "fusion_lat": 0.0}, {"fusion_lon": 0.0, "bike_id": "8a86d69874c3f94321ec8f014d0f1a94", "name": "8a86d69874c3f94321ec8f014d0f1a94", "type": "electric_scooter", "lon": -77.03838533333334, "rental_uris": {"android": "https://dc.lft.to/lastmile_qr_scan", "ios": "https://dc.lft.to/lastmile_qr_scan"}, "lat": 38.9115375, "is_reserved": 0, "is_disabled": 0, "fusion_lat": 0.0}, {"fusion_lon": 0.0, "bike_id": "87e6b5e1c933f399dd2cd573207b771f", "name": "87e6b5e1c933f399dd2cd573207b771f", "type": "electric_bike", "lon": -76.95207016666667, "rental_uris": {"android": "https://dc.lft.to/lastmile_qr_scan", "ios": "https://dc.lft.to/lastmile_qr_scan"}, "lat": 38.93667466666667, "is_reserved": 0, "is_disabled": 0, "fusion_lat": 0.0}, {"fusion_lon": 0.0, "bike_id": "e68ec1bd04de654fa284a6dfdbdfe008", "name": "e68ec1bd04de654fa284a6dfdbdfe008", "type": "electric_scooter", "lon": -77.024978, "rental_uris": {"android": "https://dc.lft.to/lastmile_qr_scan", "ios": "https://dc.lft.to/lastmile_qr_scan"}, "lat": 38.920653333333334, "is_reserved": 0, "is_disabled": 0, "fusion_lat": 0.0}, {"fusion_lon": 0.0, "bike_id": "1233d08133fbc7e733c7ff74c8c348d3", "name": "1233d08133fbc7e733c7ff74c8c348d3", "type": "electric_scooter", "lon": -77.04337333333334, "rental_uris": {"android": "https://dc.lft.to/lastmile_qr_scan", "ios": "https://dc.lft.to/lastmile_qr_scan"}, "lat": 38.898449166666666, "is_reserved": 0, "is_disabled": 0, "fusion_lat": 0.0}, {"fusion_lon": 0.0, "bike_id": "e7e96674a1cd01a5d440925bd3f51d9a", "name": "e7e96674a1cd01a5d440925bd3f51d9a", "type": "electric_scooter", "lon": -77.01018766666667, "rental_uris": {"android": "https://dc.lft.to/lastmile_qr_scan", "ios": "https://dc.lft.to/lastmile_qr_scan"}, "lat": 38.906225, "is_reserved": 0, "is_disabled": 0, "fusion_lat": 0.0}, {"fusion_lon": 0.0, "bike_id": "e420246ddd64d6a9d8db5f1b3ede2388", "name": "e420246ddd64d6a9d8db5f1b3ede2388", "type": "electric_scooter", "lon": -77.0318795, "rental_uris": {"android": "https://dc.lft.to/lastmile_qr_scan", "ios": "https://dc.lft.to/lastmile_qr_scan"}, "lat": 38.90987633333334, "is_reserved": 0, "is_disabled": 0, "fusion_lat": 0.0}, {"fusion_lon": 0.0, "bike_id": "6f003a8e40c6d83b0c13d05152fe26a6", "name": "6f003a8e40c6d83b0c13d05152fe26a6", "type": "electric_scooter", "lon": -76.98728283333334, "rental_uris": {"android": "https://dc.lft.to/lastmile_qr_scan", "ios": "https://dc.lft.to/lastmile_qr_scan"}, "lat": 38.86716366666667, "is_reserved": 0, "is_disabled": 0, "fusion_lat": 0.0}, {"fusion_lon": 0.0, "bike_id": "a6474a94e18400fa5556e4e1da029172", "name": "a6474a94e18400fa5556e4e1da029172", "type": "electric_scooter", "lon": -77.04662466666667, "rental_uris": {"android": "https://dc.lft.to/lastmile_qr_scan", "ios": "https://dc.lft.to/lastmile_qr_scan"}, "lat": 38.90325766666667, "is_reserved": 0, "is_disabled": 0, "fusion_lat": 0.0}, {"fusion_lon": 0.0, "bike_id": "ccee534a78277d3ec04626d8d3b94629", "name": "ccee534a78277d3ec04626d8d3b94629", "type": "electric_scooter", "lon": -77.0247935, "rental_uris": {"android": "https://dc.lft.to/lastmile_qr_scan", "ios": "https://dc.lft.to/lastmile_qr_scan"}, "lat": 38.938496, "is_reserved": 0, "is_disabled": 0, "fusion_lat": 0.0}, {"fusion_lon": 0.0, "bike_id": "0b7951b9452ca51e8b86ecbd567f0bfe", "name": "0b7951b9452ca51e8b86ecbd567f0bfe", "type": "electric_scooter", "lon": -77.0463035, "rental_uris": {"android": "https://dc.lft.to/lastmile_qr_scan", "ios": "https://dc.lft.to/lastmile_qr_scan"}, "lat": 38.91809583333333, "is_reserved": 0, "is_disabled": 0, "fusion_lat": 0.0}, {"fusion_lon": 0.0, "bike_id": "afa0152f9cd2e9ea393e8fd7a1dd6671", "name": "afa0152f9cd2e9ea393e8fd7a1dd6671", "type": "electric_scooter", "lon": -77.02349483333333, "rental_uris": {"android": "https://dc.lft.to/lastmile_qr_scan", "ios": "https://dc.lft.to/lastmile_qr_scan"}, "lat": 38.9226215, "is_reserved": 0, "is_disabled": 0, "fusion_lat": 0.0}, {"fusion_lon": 0.0, "bike_id": "f53b52dca5af61409d93e9ad7742840f", "name": "f53b52dca5af61409d93e9ad7742840f", "type": "electric_scooter", "lon": -77.03878566666667, "rental_uris": {"android": "https://dc.lft.to/lastmile_qr_scan", "ios": "https://dc.lft.to/lastmile_qr_scan"}, "lat": 38.906342333333335, "is_reserved": 0, "is_disabled": 0, "fusion_lat": 0.0}, {"fusion_lon": 0.0, "bike_id": "94778e957e5038ddb1bd8ae071333ecc", "name": "94778e957e5038ddb1bd8ae071333ecc", "type": "electric_scooter", "lon": -76.99095866666667, "rental_uris": {"android": "https://dc.lft.to/lastmile_qr_scan", "ios": "https://dc.lft.to/lastmile_qr_scan"}, "lat": 38.863564833333335, "is_reserved": 0, "is_disabled": 0, "fusion_lat": 0.0}, {"fusion_lon": 0.0, "bike_id": "ec1e7fc1fa54412b40792a7ce2ca9f37", "name": "ec1e7fc1fa54412b40792a7ce2ca9f37", "type": "electric_scooter", "lon": -77.04358416666666, "rental_uris": {"android": "https://dc.lft.to/lastmile_qr_scan", "ios": "https://dc.lft.to/lastmile_qr_scan"}, "lat": 38.9072425, "is_reserved": 0, "is_disabled": 0, "fusion_lat": 0.0}, {"fusion_lon": 0.0, "bike_id": "e89b9594f55b8756fa4bd5e679846a9c", "name": "e89b9594f55b8756fa4bd5e679846a9c", "type": "electric_scooter", "lon": -77.00307633333334, "rental_uris": {"android": "https://dc.lft.to/lastmile_qr_scan", "ios": "https://dc.lft.to/lastmile_qr_scan"}, "lat": 38.892254666666666, "is_reserved": 0, "is_disabled": 0, "fusion_lat": 0.0}, {"fusion_lon": 0.0, "bike_id": "c2a7ad5f1fd0432d9a0c7b5d5964ea4e", "name": "c2a7ad5f1fd0432d9a0c7b5d5964ea4e", "type": "electric_scooter", "lon": -77.03248483333333, "rental_uris": {"android": "https://dc.lft.to/lastmile_qr_scan", "ios": "https://dc.lft.to/lastmile_qr_scan"}, "lat": 38.905566666666665, "is_reserved": 0, "is_disabled": 0, "fusion_lat": 0.0}, {"fusion_lon": 0.0, "bike_id": "45634b98521eb51569191d5c2dc688be", "name": "45634b98521eb51569191d5c2dc688be", "type": "electric_scooter", "lon": -77.04019916666667, "rental_uris": {"android": "https://dc.lft.to/lastmile_qr_scan", "ios": "https://dc.lft.to/lastmile_qr_scan"}, "lat": 38.91296833333333, "is_reserved": 0, "is_disabled": 0, "fusion_lat": 0.0}, {"fusion_lon": 0.0, "bike_id": "4176424a08d05a17556419103bddc71e", "name": "4176424a08d05a17556419103bddc71e", "type": "electric_scooter", "lon": -77.01900766666667, "rental_uris": {"android": "https://dc.lft.to/lastmile_qr_scan", "ios": "https://dc.lft.to/lastmile_qr_scan"}, "lat": 38.9234625, "is_reserved": 0, "is_disabled": 0, "fusion_lat": 0.0}, {"fusion_lon": 0.0, "bike_id": "276ed5f6f913c702740e1161f6f89d09", "name": "276ed5f6f913c702740e1161f6f89d09", "type": "electric_bike", "lon": -77.10027533333333, "rental_uris": {"android": "https://dc.lft.to/lastmile_qr_scan", "ios": "https://dc.lft.to/lastmile_qr_scan"}, "lat": 38.990653333333334, "is_reserved": 0, "is_disabled": 0, "fusion_lat": 0.0}, {"fusion_lon": 0.0, "bike_id": "25e663f94c4d5228835313111eef7589", "name": "25e663f94c4d5228835313111eef7589", "type": "electric_scooter", "lon": -77.0227845, "rental_uris": {"android": "https://dc.lft.to/lastmile_qr_scan", "ios": "https://dc.lft.to/lastmile_qr_scan"}, "lat": 38.8784035, "is_reserved": 0, "is_disabled": 0, "fusion_lat": 0.0}, {"fusion_lon": 0.0, "bike_id": "ccb62a2ef879fcd157711db7620cacfe", "name": "ccb62a2ef879fcd157711db7620cacfe", "type": "electric_bike", "lon": -76.87494383333333, "rental_uris": {"android": "https://dc.lft.to/lastmile_qr_scan", "ios": "https://dc.lft.to/lastmile_qr_scan"}, "lat": 38.990918, "is_reserved": 0, "is_disabled": 0, "fusion_lat": 0.0}, {"fusion_lon": 0.0, "bike_id": "f9ee2f44e268f3efd47f23d8d40ef460", "name": "f9ee2f44e268f3efd47f23d8d40ef460", "type": "electric_scooter", "lon": -77.00322416666667, "rental_uris": {"android": "https://dc.lft.to/lastmile_qr_scan", "ios": "https://dc.lft.to/lastmile_qr_scan"}, "lat": 38.907063, "is_reserved": 0, "is_disabled": 0, "fusion_lat": 0.0}, {"fusion_lon": 0.0, "bike_id": "f2e6efb9c40843c018e7fad54a6ee456", "name": "f2e6efb9c40843c018e7fad54a6ee456", "type": "electric_scooter", "lon": -77.02799133333333, "rental_uris": {"android": "https://dc.lft.to/lastmile_qr_scan", "ios": "https://dc.lft.to/lastmile_qr_scan"}, "lat": 38.950964166666665, "is_reserved": 0, "is_disabled": 0, "fusion_lat": 0.0}, {"fusion_lon": 0.0, "bike_id": "ec6bb78a9d8bbac92faa722e52d47afd", "name": "ec6bb78a9d8bbac92faa722e52d47afd", "type": "electric_scooter", "lon": -77.017916, "rental_uris": {"android": "https://dc.lft.to/lastmile_qr_scan", "ios": "https://dc.lft.to/lastmile_qr_scan"}, "lat": 38.941258166666664, "is_reserved": 0, "is_disabled": 0, "fusion_lat": 0.0}, {"fusion_lon": 0.0, "bike_id": "4560de1c9f0e057e5a776e862dd3001b", "name": "4560de1c9f0e057e5a776e862dd3001b", "type": "electric_scooter", "lon": -77.02878, "rental_uris": {"android": "https://dc.lft.to/lastmile_qr_scan", "ios": "https://dc.lft.to/lastmile_qr_scan"}, "lat": 38.9223575, "is_reserved": 0, "is_disabled": 0, "fusion_lat": 0.0}, {"fusion_lon": 0.0, "bike_id": "bbfca963f75041c6595cc9f4e0aada9b", "name": "bbfca963f75041c6595cc9f4e0aada9b", "type": "electric_scooter", "lon": -77.0117765, "rental_uris": {"android": "https://dc.lft.to/lastmile_qr_scan", "ios": "https://dc.lft.to/lastmile_qr_scan"}, "lat": 38.8974085, "is_reserved": 0, "is_disabled": 0, "fusion_lat": 0.0}, {"fusion_lon": 0.0, "bike_id": "986ca711af5015163fa0e6d3fe7080a2", "name": "986ca711af5015163fa0e6d3fe7080a2", "type": "electric_scooter", "lon": -77.030977, "rental_uris": {"android": "https://dc.lft.to/lastmile_qr_scan", "ios": "https://dc.lft.to/lastmile_qr_scan"}, "lat": 38.911034666666666, "is_reserved": 0, "is_disabled": 0, "fusion_lat": 0.0}, {"fusion_lon": 0.0, "bike_id": "cf94ed51a44b1da951c10b701e7b7db5", "name": "cf94ed51a44b1da951c10b701e7b7db5", "type": "electric_bike", "lon": -77.04896816666667, "rental_uris": {"android": "https://dc.lft.to/lastmile_qr_scan", "ios": "https://dc.lft.to/lastmile_qr_scan"}, "lat": 38.874995166666665, "is_reserved": 0, "is_disabled": 0, "fusion_lat": 0.0}, {"fusion_lon": 0.0, "bike_id": "804a162d3319e08c0e17856b6f041390", "name": "804a162d3319e08c0e17856b6f041390", "type": "electric_scooter", "lon": -77.00927183333333, "rental_uris": {"android": "https://dc.lft.to/lastmile_qr_scan", "ios": "https://dc.lft.to/lastmile_qr_scan"}, "lat": 38.89891466666667, "is_reserved": 0, "is_disabled": 0, "fusion_lat": 0.0}, {"fusion_lon": 0.0, "bike_id": "0961409b96f52e3b6ceb26b63ba1dfb9", "name": "0961409b96f52e3b6ceb26b63ba1dfb9", "type": "electric_scooter", "lon": -77.0301795, "rental_uris": {"android": "https://dc.lft.to/lastmile_qr_scan", "ios": "https://dc.lft.to/lastmile_qr_scan"}, "lat": 38.88400383333333, "is_reserved": 0, "is_disabled": 0, "fusion_lat": 0.0}, {"fusion_lon": 0.0, "bike_id": "82e5fbc5559b18cfdf694c06cfc2b8ef", "name": "82e5fbc5559b18cfdf694c06cfc2b8ef", "type": "electric_scooter", "lon": -77.02931866666667, "rental_uris": {"android": "https://dc.lft.to/lastmile_qr_scan", "ios": "https://dc.lft.to/lastmile_qr_scan"}, "lat": 38.91413983333333, "is_reserved": 0, "is_disabled": 0, "fusion_lat": 0.0}, {"fusion_lon": 0.0, "bike_id": "78efe2d2a3ac64b4ee097c57948c57d1", "name": "78efe2d2a3ac64b4ee097c57948c57d1", "type": "electric_scooter", "lon": -77.05925466666666, "rental_uris": {"android": "https://dc.lft.to/lastmile_qr_scan", "ios": "https://dc.lft.to/lastmile_qr_scan"}, "lat": 38.9100575, "is_reserved": 0, "is_disabled": 0, "fusion_lat": 0.0}, {"fusion_lon": 0.0, "bike_id": "4ccf459d7ab6f16397714ba5e10e8448", "name": "4ccf459d7ab6f16397714ba5e10e8448", "type": "electric_scooter", "lon": -77.06757233333333, "rental_uris": {"android": "https://dc.lft.to/lastmile_qr_scan", "ios": "https://dc.lft.to/lastmile_qr_scan"}, "lat": 38.94978016666666, "is_reserved": 0, "is_disabled": 0, "fusion_lat": 0.0}, {"fusion_lon": 0.0, "bike_id": "f284057b677ba7420478b85e0def8292", "name": "f284057b677ba7420478b85e0def8292", "type": "electric_scooter", "lon": -77.03036766666666, "rental_uris": {"android": "https://dc.lft.to/lastmile_qr_scan", "ios": "https://dc.lft.to/lastmile_qr_scan"}, "lat": 38.93982183333333, "is_reserved": 0, "is_disabled": 0, "fusion_lat": 0.0}, {"fusion_lon": 0.0, "bike_id": "9283d3e3becf3e3cb36b7fc54da1c0eb", "name": "9283d3e3becf3e3cb36b7fc54da1c0eb", "type": "electric_scooter", "lon": -77.02154166666666, "rental_uris": {"android": "https://dc.lft.to/lastmile_qr_scan", "ios": "https://dc.lft.to/lastmile_qr_scan"}, "lat": 38.9260385, "is_reserved": 0, "is_disabled": 0, "fusion_lat": 0.0}, {"fusion_lon": 0.0, "bike_id": "a65035f12ced6f0cd61283860f490e92", "name": "a65035f12ced6f0cd61283860f490e92", "type": "electric_scooter", "lon": -77.02687816666666, "rental_uris": {"android": "https://dc.lft.to/lastmile_qr_scan", "ios": "https://dc.lft.to/lastmile_qr_scan"}, "lat": 38.901741, "is_reserved": 0, "is_disabled": 0, "fusion_lat": 0.0}, {"fusion_lon": 0.0, "bike_id": "0df4ae903f14c53222ad538e081c80a9", "name": "0df4ae903f14c53222ad538e081c80a9", "type": "electric_scooter", "lon": -77.021567, "rental_uris": {"android": "https://dc.lft.to/lastmile_qr_scan", "ios": "https://dc.lft.to/lastmile_qr_scan"}, "lat": 38.92610333333333, "is_reserved": 0, "is_disabled": 0, "fusion_lat": 0.0}, {"fusion_lon": 0.0, "bike_id": "9278290e9348a64f45b28a5c2a65932a", "name": "9278290e9348a64f45b28a5c2a65932a", "type": "electric_bike", "lon": -76.99015316666667, "rental_uris": {"android": "https://dc.lft.to/lastmile_qr_scan", "ios": "https://dc.lft.to/lastmile_qr_scan"}, "lat": 38.88251616666667, "is_reserved": 0, "is_disabled": 0, "fusion_lat": 0.0}, {"fusion_lon": 0.0, "bike_id": "a404e720ec4bf0eb3da89014742d8b99", "name": "a404e720ec4bf0eb3da89014742d8b99", "type": "electric_scooter", "lon": -77.02620516666667, "rental_uris": {"android": "https://dc.lft.to/lastmile_qr_scan", "ios": "https://dc.lft.to/lastmile_qr_scan"}, "lat": 38.90047066666666, "is_reserved": 0, "is_disabled": 0, "fusion_lat": 0.0}, {"fusion_lon": 0.0, "bike_id": "035f64fed5406c2d8551899d8a10a698", "name": "035f64fed5406c2d8551899d8a10a698", "type": "electric_scooter", "lon": -77.01202266666667, "rental_uris": {"android": "https://dc.lft.to/lastmile_qr_scan", "ios": "https://dc.lft.to/lastmile_qr_scan"}, "lat": 38.969123, "is_reserved": 0, "is_disabled": 0, "fusion_lat": 0.0}, {"fusion_lon": 0.0, "bike_id": "ef75b8931c8a8c7e9688cb40e808f519", "name": "ef75b8931c8a8c7e9688cb40e808f519", "type": "electric_bike", "lon": -76.97220533333333, "rental_uris": {"android": "https://dc.lft.to/lastmile_qr_scan", "ios": "https://dc.lft.to/lastmile_qr_scan"}, "lat": 38.84482633333333, "is_reserved": 0, "is_disabled": 0, "fusion_lat": 0.0}, {"fusion_lon": 0.0, "bike_id": "92342add2c9404438a59c519160880b9", "name": "92342add2c9404438a59c519160880b9", "type": "electric_scooter", "lon": -77.043126, "rental_uris": {"android": "https://dc.lft.to/lastmile_qr_scan", "ios": "https://dc.lft.to/lastmile_qr_scan"}, "lat": 38.9155125, "is_reserved": 0, "is_disabled": 0, "fusion_lat": 0.0}, {"fusion_lon": 0.0, "bike_id": "20b8ce608e2728241b1ce98531deaac8", "name": "20b8ce608e2728241b1ce98531deaac8", "type": "electric_scooter", "lon": -77.04390416666666, "rental_uris": {"android": "https://dc.lft.to/lastmile_qr_scan", "ios": "https://dc.lft.to/lastmile_qr_scan"}, "lat": 38.9111955, "is_reserved": 0, "is_disabled": 0, "fusion_lat": 0.0}, {"fusion_lon": 0.0, "bike_id": "4b6faa64a0a41b6c757ad89fbe9597a8", "name": "4b6faa64a0a41b6c757ad89fbe9597a8", "type": "electric_scooter", "lon": -77.04145916666667, "rental_uris": {"android": "https://dc.lft.to/lastmile_qr_scan", "ios": "https://dc.lft.to/lastmile_qr_scan"}, "lat": 38.9062345, "is_reserved": 0, "is_disabled": 0, "fusion_lat": 0.0}, {"fusion_lon": 0.0, "bike_id": "8952a590d138c6024c1e33114eb3df69", "name": "8952a590d138c6024c1e33114eb3df69", "type": "electric_scooter", "lon": -77.027813, "rental_uris": {"android": "https://dc.lft.to/lastmile_qr_scan", "ios": "https://dc.lft.to/lastmile_qr_scan"}, "lat": 38.89225833333333, "is_reserved": 0, "is_disabled": 0, "fusion_lat": 0.0}, {"fusion_lon": 0.0, "bike_id": "362cf99d28cea2c27c929f098612b2e1", "name": "362cf99d28cea2c27c929f098612b2e1", "type": "electric_scooter", "lon": -77.00341866666666, "rental_uris": {"android": "https://dc.lft.to/lastmile_qr_scan", "ios": "https://dc.lft.to/lastmile_qr_scan"}, "lat": 38.913503666666664, "is_reserved": 0, "is_disabled": 0, "fusion_lat": 0.0}, {"fusion_lon": 0.0, "bike_id": "ddbad994d8c3467c9c6b6143cd1a907e", "name": "ddbad994d8c3467c9c6b6143cd1a907e", "type": "electric_scooter", "lon": -77.06349983333334, "rental_uris": {"android": "https://dc.lft.to/lastmile_qr_scan", "ios": "https://dc.lft.to/lastmile_qr_scan"}, "lat": 38.944526833333335, "is_reserved": 0, "is_disabled": 0, "fusion_lat": 0.0}, {"fusion_lon": 0.0, "bike_id": "e9a8be8bb412a8c79a5cb7b3c6e03b2d", "name": "e9a8be8bb412a8c79a5cb7b3c6e03b2d", "type": "electric_scooter", "lon": -77.03259933333334, "rental_uris": {"android": "https://dc.lft.to/lastmile_qr_scan", "ios": "https://dc.lft.to/lastmile_qr_scan"}, "lat": 38.904223333333334, "is_reserved": 0, "is_disabled": 0, "fusion_lat": 0.0}, {"fusion_lon": 0.0, "bike_id": "d0bb475217b748327a42b1e7ba927d32", "name": "d0bb475217b748327a42b1e7ba927d32", "type": "electric_scooter", "lon": -77.02551466666667, "rental_uris": {"android": "https://dc.lft.to/lastmile_qr_scan", "ios": "https://dc.lft.to/lastmile_qr_scan"}, "lat": 38.897323666666665, "is_reserved": 0, "is_disabled": 0, "fusion_lat": 0.0}, {"fusion_lon": 0.0, "bike_id": "feb8fc64e2442e3ff73843e2461a3eb4", "name": "feb8fc64e2442e3ff73843e2461a3eb4", "type": "electric_scooter", "lon": -77.02011283333333, "rental_uris": {"android": "https://dc.lft.to/lastmile_qr_scan", "ios": "https://dc.lft.to/lastmile_qr_scan"}, "lat": 38.92418333333333, "is_reserved": 0, "is_disabled": 0, "fusion_lat": 0.0}, {"fusion_lon": 0.0, "bike_id": "ab283d79d951210e33696b0569fa8181", "name": "ab283d79d951210e33696b0569fa8181", "type": "electric_scooter", "lon": -77.01812666666666, "rental_uris": {"android": "https://dc.lft.to/lastmile_qr_scan", "ios": "https://dc.lft.to/lastmile_qr_scan"}, "lat": 38.92166066666667, "is_reserved": 0, "is_disabled": 0, "fusion_lat": 0.0}, {"fusion_lon": 0.0, "bike_id": "fdf818c1224837cd0bdb308de6eda96b", "name": "fdf818c1224837cd0bdb308de6eda96b", "type": "electric_bike", "lon": -77.12502783333333, "rental_uris": {"android": "https://dc.lft.to/lastmile_qr_scan", "ios": "https://dc.lft.to/lastmile_qr_scan"}, "lat": 39.02422216666667, "is_reserved": 0, "is_disabled": 0, "fusion_lat": 0.0}, {"fusion_lon": 0.0, "bike_id": "624c0e45278e919a698249b77e1edaa6", "name": "624c0e45278e919a698249b77e1edaa6", "type": "electric_scooter", "lon": -77.03537316666667, "rental_uris": {"android": "https://dc.lft.to/lastmile_qr_scan", "ios": "https://dc.lft.to/lastmile_qr_scan"}, "lat": 38.92473066666667, "is_reserved": 0, "is_disabled": 0, "fusion_lat": 0.0}, {"fusion_lon": 0.0, "bike_id": "2ab0a8ef8137652ed6faa550ac7ab629", "name": "2ab0a8ef8137652ed6faa550ac7ab629", "type": "electric_scooter", "lon": -77.06351966666666, "rental_uris": {"android": "https://dc.lft.to/lastmile_qr_scan", "ios": "https://dc.lft.to/lastmile_qr_scan"}, "lat": 38.94452883333334, "is_reserved": 0, "is_disabled": 0, "fusion_lat": 0.0}, {"fusion_lon": 0.0, "bike_id": "48ec32b742f2645f55edbb7144bd82e0", "name": "48ec32b742f2645f55edbb7144bd82e0", "type": "electric_bike", "lon": -77.09564, "rental_uris": {"android": "https://dc.lft.to/lastmile_qr_scan", "ios": "https://dc.lft.to/lastmile_qr_scan"}, "lat": 38.917055500000004, "is_reserved": 0, "is_disabled": 0, "fusion_lat": 0.0}, {"fusion_lon": 0.0, "bike_id": "e22c8f34e4e2601ae9a9a6a8e7c93e39", "name": "e22c8f34e4e2601ae9a9a6a8e7c93e39", "type": "electric_scooter", "lon": -77.0088375, "rental_uris": {"android": "https://dc.lft.to/lastmile_qr_scan", "ios": "https://dc.lft.to/lastmile_qr_scan"}, "lat": 38.87339016666667, "is_reserved": 0, "is_disabled": 0, "fusion_lat": 0.0}, {"fusion_lon": 0.0, "bike_id": "85840c5e74317c02931c0cccdc370050", "name": "85840c5e74317c02931c0cccdc370050", "type": "electric_scooter", "lon": -77.0467695, "rental_uris": {"android": "https://dc.lft.to/lastmile_qr_scan", "ios": "https://dc.lft.to/lastmile_qr_scan"}, "lat": 38.89507566666666, "is_reserved": 0, "is_disabled": 0, "fusion_lat": 0.0}, {"fusion_lon": 0.0, "bike_id": "1432a74964126c749a0fb1cafefa6f7b", "name": "1432a74964126c749a0fb1cafefa6f7b", "type": "electric_scooter", "lon": -76.9871405, "rental_uris": {"android": "https://dc.lft.to/lastmile_qr_scan", "ios": "https://dc.lft.to/lastmile_qr_scan"}, "lat": 38.866999166666666, "is_reserved": 0, "is_disabled": 0, "fusion_lat": 0.0}, {"fusion_lon": 0.0, "bike_id": "49835f424e2e8e6d93392be20d06dabc", "name": "49835f424e2e8e6d93392be20d06dabc", "type": "electric_scooter", "lon": -77.002964, "rental_uris": {"android": "https://dc.lft.to/lastmile_qr_scan", "ios": "https://dc.lft.to/lastmile_qr_scan"}, "lat": 38.891904833333335, "is_reserved": 0, "is_disabled": 0, "fusion_lat": 0.0}, {"fusion_lon": 0.0, "bike_id": "83ed7ef029d623df72f3a6c282124343", "name": "83ed7ef029d623df72f3a6c282124343", "type": "electric_scooter", "lon": -76.96562833333333, "rental_uris": {"android": "https://dc.lft.to/lastmile_qr_scan", "ios": "https://dc.lft.to/lastmile_qr_scan"}, "lat": 38.918557166666666, "is_reserved": 0, "is_disabled": 0, "fusion_lat": 0.0}, {"fusion_lon": 0.0, "bike_id": "05c348a0ec997f7a3242306d112dcf51", "name": "05c348a0ec997f7a3242306d112dcf51", "type": "electric_scooter", "lon": -77.029469, "rental_uris": {"android": "https://dc.lft.to/lastmile_qr_scan", "ios": "https://dc.lft.to/lastmile_qr_scan"}, "lat": 38.8986515, "is_reserved": 0, "is_disabled": 0, "fusion_lat": 0.0}, {"fusion_lon": 0.0, "bike_id": "b261f24eb59a5e777797a1c780fa27f8", "name": "b261f24eb59a5e777797a1c780fa27f8", "type": "electric_bike", "lon": -76.99565133333333, "rental_uris": {"android": "https://dc.lft.to/lastmile_qr_scan", "ios": "https://dc.lft.to/lastmile_qr_scan"},