{"data": {"bikes": [{"fusion_lon": 0.0, "bike_id": "6c7d4cbcf677356eb2ec6753dfaf2b64", "name": "6c7d4cbcf677356eb2ec6753dfaf2b64", "type": "electric_scooter", "lon": -77.0447145, "rental_uris": {"android": "https://dc.lft.to/lastmile_qr_scan", "ios": "https://dc.lft.to/lastmile_qr_scan"}, "lat": 38.9071645, "is_reserved": 0, "is_disabled": 0, "fusion_lat": 0.0}, {"fusion_lon": 0.0, "bike_id": "51aa2a388a6a35537214c541f8be3fe0", "name": "51aa2a388a6a35537214c541f8be3fe0", "type": "electric_scooter", "lon": -77.02608233333333, "rental_uris": {"android": "https://dc.lft.to/lastmile_qr_scan", "ios": "https://dc.lft.to/lastmile_qr_scan"}, "lat": 38.900043333333336, "is_reserved": 0, "is_disabled": 0, "fusion_lat": 0.0}, {"fusion_lon": 0.0, "bike_id": "b8a3db73d11deb2e3faa522d5d1013d3", "name": "b8a3db73d11deb2e3faa522d5d1013d3", "type": "electric_bike", "lon": -76.99070966666666, "rental_uris": {"android": "https://dc.lft.to/lastmile_qr_scan", "ios": "https://dc.lft.to/lastmile_qr_scan"}, "lat": 38.8980475, "is_reserved": 0, "is_disabled": 0, "fusion_lat": 0.0}, {"fusion_lon": 0.0, "bike_id": "b571b0821adac9354eaa2d48af926420", "name": "b571b0821adac9354eaa2d48af926420", "type": "electric_scooter", "lon": -77.02961633333334, "rental_uris": {"android": "https://dc.lft.to/lastmile_qr_scan", "ios": "https://dc.lft.to/lastmile_qr_scan"}, "lat": 38.921436166666666, "is_reserved": 0, "is_disabled": 0, "fusion_lat": 0.0}, {"fusion_lon": 0.0, "bike_id": "c8d1a6da874514ba750c8faee5e61eed", "name": "c8d1a6da874514ba750c8faee5e61eed", "type": "electric_scooter", "lon": -77.02644666666667, "rental_uris": {"android": "https://dc.lft.to/lastmile_qr_scan", "ios": "https://dc.lft.to/lastmile_qr_scan"}, "lat": 38.902649, "is_reserved": 0, "is_disabled": 0, "fusion_lat": 0.0}, {"fusion_lon": 0.0, "bike_id": "b8170ea50be88b560fda409db6600b70", "name": "b8170ea50be88b560fda409db6600b70", "type": "electric_scooter", "lon": -77.02485266666666, "rental_uris": {"android": "https://dc.lft.to/lastmile_qr_scan", "ios": "https://dc.lft.to/lastmile_qr_scan"}, "lat": 38.9419335, "is_reserved": 0, "is_disabled": 0, "fusion_lat": 0.0}, {"fusion_lon": 0.0, "bike_id": "9c89f41eb523f19d513e26f7049a0f6e", "name": "9c89f41eb523f19d513e26f7049a0f6e", "type": "electric_scooter", "lon": -77.00346533333334, "rental_uris": {"android": "https://dc.lft.to/lastmile_qr_scan", "ios": "https://dc.lft.to/lastmile_qr_scan"}, "lat": 38.896891, "is_reserved": 0, "is_disabled": 0, "fusion_lat": 0.0}, {"fusion_lon": 0.0, "bike_id": "f1bfd528da05ce425e12c9ecf26339e7", "name": "f1bfd528da05ce425e12c9ecf26339e7", "type": "electric_scooter", "lon": -77.03479633333333, "rental_uris": {"android": "https://dc.lft.to/lastmile_qr_scan", "ios": "https://dc.lft.to/lastmile_qr_scan"}, "lat": 38.9112485, "is_reserved": 0, "is_disabled": 0, "fusion_lat": 0.0}, {"fusion_lon": 0.0, "bike_id": "af126b8e80fa1e8977d2f208c682f109", "name": "af126b8e80fa1e8977d2f208c682f109", "type": "electric_scooter", "lon": -76.99491966666666, "rental_uris": {"android": "https://dc.lft.to/lastmile_qr_scan", "ios": "https://dc.lft.to/lastmile_qr_scan"}, "lat": 38.862403666666665, "is_reserved": 0, "is_disabled": 0, "fusion_lat": 0.0}, {"fusion_lon": 0.0, "bike_id": "101113bb057914eb273eb74758e0f6da", "name": "101113bb057914eb273eb74758e0f6da", "type": "electric_scooter", "lon": -77.03517583333333, "rental_uris": {"android": "https://dc.lft.to/lastmile_qr_scan", "ios": "https://dc.lft.to/lastmile_qr_scan"}, "lat": 38.921589166666664, "is_reserved": 0, "is_disabled": 0, "fusion_lat": 0.0}, {"fusion_lon": 0.0, "bike_id": "e03874539596ace2229d313c09108258", "name": "e03874539596ace2229d313c09108258", "type": "electric_scooter", "lon": -77.04337716666667, "rental_uris": {"android": "https://dc.lft.to/lastmile_qr_scan", "ios": "https://dc.lft.to/lastmile_qr_scan"}, "lat": 38.9145265, "is_reserved": 0, "is_disabled": 0, "fusion_lat": 0.0}, {"fusion_lon": 0.0, "bike_id": "7a9351bf7467b98f0fd2756c454b570a", "name": "7a9351bf7467b98f0fd2756c454b570a", "type": "electric_scooter", "lon": -77.048189, "rental_uris": {"android": "https://dc.lft.to/lastmile_qr_scan", "ios": "https://dc.lft.to/lastmile_qr_scan"}, "lat": 38.91494616666667, "is_reserved": 0, "is_disabled": 0, "fusion_lat": 0.0}, {"fusion_lon": 0.0, "bike_id": "313b330ee978bbd7d81fcf1511e8e277", "name": "313b330ee978bbd7d81fcf1511e8e277", "type": "electric_scooter", "lon": -77.03407983333334, "rental_uris": {"android": "https://dc.lft.to/lastmile_qr_scan", "ios": "https://dc.lft.to/lastmile_qr_scan"}, "lat": 38.9216, "is_reserved": 0, "is_disabled": 0, "fusion_lat": 0.0}, {"fusion_lon": 0.0, "bike_id": "0877df99ef59456e9a8751b0b0e5d3db", "name": "0877df99ef59456e9a8751b0b0e5d3db", "type": "electric_scooter", "lon": -77.01337683333334, "rental_uris": {"android": "https://dc.lft.to/lastmile_qr_scan", "ios": "https://dc.lft.to/lastmile_qr_scan"}, "lat": 38.9007365, "is_reserved": 0, "is_disabled": 0, "fusion_lat": 0.0}, {"fusion_lon": 0.0, "bike_id": "c249160efd13db506478a67bb4c94b70", "name": "c249160efd13db506478a67bb4c94b70", "type": "electric_scooter", "lon": -77.03863033333333, "rental_uris": {"android": "https://dc.lft.to/lastmile_qr_scan", "ios": "https://dc.lft.to/lastmile_qr_scan"}, "lat": 38.90474, "is_reserved": 0, "is_disabled": 0, "fusion_lat": 0.0}, {"fusion_lon": 0.0, "bike_id": "1c78f26a31f5cebc535a320695890986", "name": "1c78f26a31f5cebc535a320695890986", "type": "electric_scooter", "lon": -77.059882, "rental_uris": {"android": "https://dc.lft.to/lastmile_qr_scan", "ios": "https://dc.lft.to/lastmile_qr_scan"}, "lat": 38.91197233333333, "is_reserved": 0, "is_disabled": 0, "fusion_lat": 0.0}, {"fusion_lon": 0.0, "bike_id": "a27236a37f36cb877362500686534f95", "name": "a27236a37f36cb877362500686534f95", "type": "electric_scooter", "lon": -77.0021545, "rental_uris": {"android": "https://dc.lft.to/lastmile_qr_scan", "ios": "https://dc.lft.to/lastmile_qr_scan"}, "lat": 38.8949825, "is_reserved": 0, "is_disabled": 0, "fusion_lat": 0.0}, {"fusion_lon": 0.0, "bike_id": "c5695f4ba58512a33795c419b1c1a07e", "name": "c5695f4ba58512a33795c419b1c1a07e", "type": "electric_scooter", "lon": -77.003026, "rental_uris": {"android": "https://dc.lft.to/lastmile_qr_scan", "ios": "https://dc.lft.to/lastmile_qr_scan"}, "lat": 38.892278166666664, "is_reserved": 0, "is_disabled": 0, "fusion_lat": 0.0}, {"fusion_lon": 0.0, "bike_id": "df1883964b800bdbd31f8dd21732d4b3", "name": "df1883964b800bdbd31f8dd21732d4b3", "type": "electric_bike", "lon": -77.01797133333334, "rental_uris": {"android": "https://dc.lft.to/lastmile_qr_scan", "ios": "https://dc.lft.to/lastmile_qr_scan"}, "lat": 38.989919, "is_reserved": 0, "is_disabled": 0, "fusion_lat": 0.0}, {"fusion_lon": 0.0, "bike_id": "92aabe17d542de76834742fa61d49d24", "name": "92aabe17d542de76834742fa61d49d24", "type": "electric_scooter", "lon": -77.0382175, "rental_uris": {"android": "https://dc.lft.to/lastmile_qr_scan", "ios": "https://dc.lft.to/lastmile_qr_scan"}, "lat": 38.920617666666665, "is_reserved": 0, "is_disabled": 0, "fusion_lat": 0.0}, {"fusion_lon": 0.0, "bike_id": "30e0adaf6af13774d62cdfe16109d29d", "name": "30e0adaf6af13774d62cdfe16109d29d", "type": "electric_scooter", "lon": -76.99622583333333, "rental_uris": {"android": "https://dc.lft.to/lastmile_qr_scan", "ios": "https://dc.lft.to/lastmile_qr_scan"}, "lat": 38.884896166666664, "is_reserved": 0, "is_disabled": 0, "fusion_lat": 0.0}, {"fusion_lon": 0.0, "bike_id": "76180856bb5978c0638d6486fbb1e6ba", "name": "76180856bb5978c0638d6486fbb1e6ba", "type": "electric_scooter", "lon": -77.03445366666666, "rental_uris": {"android": "https://dc.lft.to/lastmile_qr_scan", "ios": "https://dc.lft.to/lastmile_qr_scan"}, "lat": 38.904308, "is_reserved": 0, "is_disabled": 0, "fusion_lat": 0.0}, {"fusion_lon": 0.0, "bike_id": "1218b132d694644ee105bd2f504eb74e", "name": "1218b132d694644ee105bd2f504eb74e", "type": "electric_scooter", "lon": -77.07225116666666, "rental_uris": {"android": "https://dc.lft.to/lastmile_qr_scan", "ios": "https://dc.lft.to/lastmile_qr_scan"}, "lat": 38.934576166666666, "is_reserved": 0, "is_disabled": 0, "fusion_lat": 0.0}, {"fusion_lon": 0.0, "bike_id": "cbd48763be364b70d430411739bf96a4", "name": "cbd48763be364b70d430411739bf96a4", "type": "electric_scooter", "lon": -76.9187345, "rental_uris": {"android": "https://dc.lft.to/lastmile_qr_scan", "ios": "https://dc.lft.to/lastmile_qr_scan"}, "lat": 38.8907895, "is_reserved": 0, "is_disabled": 0, "fusion_lat": 0.0}, {"fusion_lon": 0.0, "bike_id": "7179e6b3b9eaae19a616978385b8cebc", "name": "7179e6b3b9eaae19a616978385b8cebc", "type": "electric_scooter", "lon": -77.03843683333334, "rental_uris": {"android": "https://dc.lft.to/lastmile_qr_scan", "ios": "https://dc.lft.to/lastmile_qr_scan"}, "lat": 38.90322833333333, "is_reserved": 0, "is_disabled": 0, "fusion_lat": 0.0}, {"fusion_lon": 0.0, "bike_id": "71c9338928e2f09132d738a7e9565d31", "name": "71c9338928e2f09132d738a7e9565d31", "type": "electric_scooter", "lon": -77.03259133333333, "rental_uris": {"android": "https://dc.lft.to/lastmile_qr_scan", "ios": "https://dc.lft.to/lastmile_qr_scan"}, "lat": 38.915607666666666, "is_reserved": 0, "is_disabled": 0, "fusion_lat": 0.0}, {"fusion_lon": 0.0, "bike_id": "c2c9a112462988b5faf819282df65ad4", "name": "c2c9a112462988b5faf819282df65ad4", "type": "electric_scooter", "lon": -76.995162, "rental_uris": {"android": "https://dc.lft.to/lastmile_qr_scan", "ios": "https://dc.lft.to/lastmile_qr_scan"}, "lat": 38.8625575, "is_reserved": 0, "is_disabled": 0, "fusion_lat": 0.0}, {"fusion_lon": 0.0, "bike_id": "859d52785b527adb2e3c51f812765cad", "name": "859d52785b527adb2e3c51f812765cad", "type": "electric_scooter", "lon": -77.031898, "rental_uris": {"android": "https://dc.lft.to/lastmile_qr_scan", "ios": "https://dc.lft.to/lastmile_qr_scan"}, "lat": 38.90973816666666, "is_reserved": 0, "is_disabled": 0, "fusion_lat": 0.0}, {"fusion_lon": 0.0, "bike_id": "a7d9c0bd2e563406cd1a7efbc5d3699e", "name": "a7d9c0bd2e563406cd1a7efbc5d3699e", "type": "electric_scooter", "lon": -76.99738550000001, "rental_uris": {"android": "https://dc.lft.to/lastmile_qr_scan", "ios": "https://dc.lft.to/lastmile_qr_scan"}, "lat": 38.92037333333333, "is_reserved": 0, "is_disabled": 0, "fusion_lat": 0.0}, {"fusion_lon": 0.0, "bike_id": "c99cb82aec366c943cb3a5309e7eada1", "name": "c99cb82aec366c943cb3a5309e7eada1", "type": "electric_scooter", "lon": -77.04043066666667, "rental_uris": {"android": "https://dc.lft.to/lastmile_qr_scan", "ios": "https://dc.lft.to/lastmile_qr_scan"}, "lat": 38.90145416666667, "is_reserved": 0, "is_disabled": 0, "fusion_lat": 0.0}, {"fusion_lon": 0.0, "bike_id": "68d2b3d08f306046bc8ba99cfc108769", "name": "68d2b3d08f306046bc8ba99cfc108769", "type": "electric_scooter", "lon": -77.04785583333333, "rental_uris": {"android": "https://dc.lft.to/lastmile_qr_scan", "ios": "https://dc.lft.to/lastmile_qr_scan"}, "lat": 38.913402833333336, "is_reserved": 0, "is_disabled": 0, "fusion_lat": 0.0}, {"fusion_lon": 0.0, "bike_id": "ad702bfd80f7edf2252c4df9c64cb5a7", "name": "ad702bfd80f7edf2252c4df9c64cb5a7", "type": "electric_scooter", "lon": -77.02221733333333, "rental_uris": {"android": "https://dc.lft.to/lastmile_qr_scan", "ios": "https://dc.lft.to/lastmile_qr_scan"}, "lat": 38.912682833333335, "is_reserved": 0, "is_disabled": 0, "fusion_lat": 0.0}, {"fusion_lon": 0.0, "bike_id": "87b84d7286590e4a8274fc560db71fce", "name": "87b84d7286590e4a8274fc560db71fce", "type": "electric_scooter", "lon": -77.02955716666666, "rental_uris": {"android": "https://dc.lft.to/lastmile_qr_scan", "ios": "https://dc.lft.to/lastmile_qr_scan"}, "lat": 38.896251, "is_reserved": 0, "is_disabled": 0, "fusion_lat": 0.0}, {"fusion_lon": 0.0, "bike_id": "b0b4bc52b49eaa0bbd28bac4959074b5", "name": "b0b4bc52b49eaa0bbd28bac4959074b5", "type": "electric_scooter", "lon": -77.003335, "rental_uris": {"android": "https://dc.lft.to/lastmile_qr_scan", "ios": "https://dc.lft.to/lastmile_qr_scan"}, "lat": 38.893673, "is_reserved": 0, "is_disabled": 0, "fusion_lat": 0.0}, {"fusion_lon": 0.0, "bike_id": "71294a6b3ac0b7f4ca348b23af2b7bf8", "name": "71294a6b3ac0b7f4ca348b23af2b7bf8", "type": "electric_scooter", "lon": -77.025854, "rental_uris": {"android": "https://dc.lft.to/lastmile_qr_scan", "ios": "https://dc.lft.to/lastmile_qr_scan"}, "lat": 38.92034816666666, "is_reserved": 0, "is_disabled": 0, "fusion_lat": 0.0}, {"fusion_lon": 0.0, "bike_id": "d34313455feca1be132ac278f2b6ea77", "name": "d34313455feca1be132ac278f2b6ea77", "type": "electric_scooter", "lon": -77.0725805, "rental_uris": {"android": "https://dc.lft.to/lastmile_qr_scan", "ios": "https://dc.lft.to/lastmile_qr_scan"}, "lat": 38.907837666666666, "is_reserved": 0, "is_disabled": 0, "fusion_lat": 0.0}, {"fusion_lon": 0.0, "bike_id": "cd9994d9233b9543d020ff8a83c91d00", "name": "cd9994d9233b9543d020ff8a83c91d00", "type": "electric_scooter", "lon": -77.00754666666667, "rental_uris": {"android": "https://dc.lft.to/lastmile_qr_scan", "ios": "https://dc.lft.to/lastmile_qr_scan"}, "lat": 38.907371833333336, "is_reserved": 0, "is_disabled": 0, "fusion_lat": 0.0}, {"fusion_lon": 0.0, "bike_id": "3ad585942b13147ab8405c5f2b8300b6", "name": "3ad585942b13147ab8405c5f2b8300b6", "type": "electric_scooter", "lon": -77.04517033333333, "rental_uris": {"android": "https://dc.lft.to/lastmile_qr_scan", "ios": "https://dc.lft.to/lastmile_qr_scan"}, "lat": 38.90394766666667, "is_reserved": 0, "is_disabled": 0, "fusion_lat": 0.0}, {"fusion_lon": 0.0, "bike_id": "812a2dfa0ab6a54027b4949e72093a6b", "name": "812a2dfa0ab6a54027b4949e72093a6b", "type": "electric_scooter", "lon": -77.0316385, "rental_uris": {"android": "https://dc.lft.to/lastmile_qr_scan", "ios": "https://dc.lft.to/lastmile_qr_scan"}, "lat": 38.8977585, "is_reserved": 0, "is_disabled": 0, "fusion_lat": 0.0}, {"fusion_lon": 0.0, "bike_id": "ca66c579c711f6c62b7d7ca1f277b30c", "name": "ca66c579c711f6c62b7d7ca1f277b30c", "type": "electric_scooter", "lon": -76.97548366666666, "rental_uris": {"android": "https://dc.lft.to/lastmile_qr_scan", "ios": "https://dc.lft.to/lastmile_qr_scan"}, "lat": 38.902564166666664, "is_reserved": 0, "is_disabled": 0, "fusion_lat": 0.0}, {"fusion_lon": 0.0, "bike_id": "aca193ad75f3baef3b7271181dd36fa3", "name": "aca193ad75f3baef3b7271181dd36fa3", "type": "electric_scooter", "lon": -76.983344, "rental_uris": {"android": "https://dc.lft.to/lastmile_qr_scan", "ios": "https://dc.lft.to/lastmile_qr_scan"}, "lat": 38.88986116666667, "is_reserved": 0, "is_disabled": 0, "fusion_lat": 0.0}, {"fusion_lon": 0.0, "bike_id": "324321e5de392739b7744375a33367f3", "name": "324321e5de392739b7744375a33367f3", "type": "electric_scooter", "lon": -77.03355216666667, "rental_uris": {"android": "https://dc.lft.to/lastmile_qr_scan", "ios": "https://dc.lft.to/lastmile_qr_scan"}, "lat": 38.90260166666667, "is_reserved": 0, "is_disabled": 0, "fusion_lat": 0.0}, {"fusion_lon": 0.0, "bike_id": "a3d9dbb1b0a29b57f193c83b727cf515", "name": "a3d9dbb1b0a29b57f193c83b727cf515", "type": "electric_scooter", "lon": -76.990948, "rental_uris": {"android": "https://dc.lft.to/lastmile_qr_scan", "ios": "https://dc.lft.to/lastmile_qr_scan"}, "lat": 38.86356166666667, "is_reserved": 0, "is_disabled": 0, "fusion_lat": 0.0}, {"fusion_lon": 0.0, "bike_id": "8416ee9b8f9ffd86a6f8c5bce8f944e7", "name": "8416ee9b8f9ffd86a6f8c5bce8f944e7", "type": "electric_scooter", "lon": -77.032564, "rental_uris": {"android": "https://dc.lft.to/lastmile_qr_scan", "ios": "https://dc.lft.to/lastmile_qr_scan"}, "lat": 38.929650333333335, "is_reserved": 0, "is_disabled": 0, "fusion_lat": 0.0}, {"fusion_lon": 0.0, "bike_id": "966c9a4664b1d201482a5ffedd4792f4", "name": "966c9a4664b1d201482a5ffedd4792f4", "type": "electric_scooter", "lon": -77.0014095, "rental_uris": {"android": "https://dc.lft.to/lastmile_qr_scan", "ios": "https://dc.lft.to/lastmile_qr_scan"}, "lat": 38.87394166666667, "is_reserved": 0, "is_disabled": 0, "fusion_lat": 0.0}, {"fusion_lon": 0.0, "bike_id": "20055d9551a1ced1d7ae91fa21ea5991", "name": "20055d9551a1ced1d7ae91fa21ea5991", "type": "electric_scooter", "lon": -76.99515866666667, "rental_uris": {"android": "https://dc.lft.to/lastmile_qr_scan", "ios": "https://dc.lft.to/lastmile_qr_scan"}, "lat": 38.862555, "is_reserved": 0, "is_disabled": 0, "fusion_lat": 0.0}, {"fusion_lon": 0.0, "bike_id": "7fbea104a0ee07cd3fdce99d6f47e7bf", "name": "7fbea104a0ee07cd3fdce99d6f47e7bf", "type": "electric_scooter", "lon": -77.06402233333333, "rental_uris": {"android": "https://dc.lft.to/lastmile_qr_scan", "ios": "https://dc.lft.to/lastmile_qr_scan"}, "lat": 38.90927333333333, "is_reserved": 0, "is_disabled": 0, "fusion_lat": 0.0}, {"fusion_lon": 0.0, "bike_id": "21ea46d6c44af21e6d58399433882b65", "name": "21ea46d6c44af21e6d58399433882b65", "type": "electric_bike", "lon": -77.00671783333334, "rental_uris": {"android": "https://dc.lft.to/lastmile_qr_scan", "ios": "https://dc.lft.to/lastmile_qr_scan"}, "lat": 38.9450805, "is_reserved": 0, "is_disabled": 0, "fusion_lat": 0.0}, {"fusion_lon": 0.0, "bike_id": "958c21622b5a675dc01e432d36e4554e", "name": "958c21622b5a675dc01e432d36e4554e", "type": "electric_scooter", "lon": -77.00202316666666, "rental_uris": {"android": "https://dc.lft.to/lastmile_qr_scan", "ios": "https://dc.lft.to/lastmile_qr_scan"}, "lat": 38.900062166666665, "is_reserved": 0, "is_disabled": 0, "fusion_lat": 0.0}, {"fusion_lon": 0.0, "bike_id": "25ba05ce415e62113bfd9e5b35a38543", "name": "25ba05ce415e62113bfd9e5b35a38543", "type": "electric_scooter", "lon": -76.99466533333333, "rental_uris": {"android": "https://dc.lft.to/lastmile_qr_scan", "ios": "https://dc.lft.to/lastmile_qr_scan"}, "lat": 38.84034416666667, "is_reserved": 0, "is_disabled": 0, "fusion_lat": 0.0}, {"fusion_lon": 0.0, "bike_id": "8030c617c3d4e99ff1bac50004561d22", "name": "8030c617c3d4e99ff1bac50004561d22", "type": "electric_bike", "lon": -76.98828533333334, "rental_uris": {"android": "https://dc.lft.to/lastmile_qr_scan", "ios": "https://dc.lft.to/lastmile_qr_scan"}, "lat": 38.985622, "is_reserved": 0, "is_disabled": 0, "fusion_lat": 0.0}, {"fusion_lon": 0.0, "bike_id": "9479c23b3d80825c7ed135735e4ed78f", "name": "9479c23b3d80825c7ed135735e4ed78f", "type": "electric_scooter", "lon": -77.04156383333333, "rental_uris": {"android": "https://dc.lft.to/lastmile_qr_scan", "ios": "https://dc.lft.to/lastmile_qr_scan"}, "lat": 38.916029, "is_reserved": 0, "is_disabled": 0, "fusion_lat": 0.0}, {"fusion_lon": 0.0, "bike_id": "96536e608da361b28c2a2573f03d84f9", "name": "96536e608da361b28c2a2573f03d84f9", "type": "electric_scooter", "lon": -77.02446916666666, "rental_uris": {"android": "https://dc.lft.to/lastmile_qr_scan", "ios": "https://dc.lft.to/lastmile_qr_scan"}, "lat": 38.92792166666667, "is_reserved": 0, "is_disabled": 0, "fusion_lat": 0.0}, {"fusion_lon": 0.0, "bike_id": "69e4e94bc46391c8130c111dc9f9c272", "name": "69e4e94bc46391c8130c111dc9f9c272", "type": "electric_scooter", "lon": -77.02663616666666, "rental_uris": {"android": "https://dc.lft.to/lastmile_qr_scan", "ios": "https://dc.lft.to/lastmile_qr_scan"}, "lat": 38.97936933333333, "is_reserved": 0, "is_disabled": 0, "fusion_lat": 0.0}, {"fusion_lon": 0.0, "bike_id": "61269f834f23f1201efc289fca1e2dd1", "name": "61269f834f23f1201efc289fca1e2dd1", "type": "electric_scooter", "lon": -77.04696516666667, "rental_uris": {"android": "https://dc.lft.to/lastmile_qr_scan", "ios": "https://dc.lft.to/lastmile_qr_scan"}, "lat": 38.89745516666667, "is_reserved": 0, "is_disabled": 0, "fusion_lat": 0.0}, {"fusion_lon": 0.0, "bike_id": "da10bed3c87cb4f14d5a4c3c593ce650", "name": "da10bed3c87cb4f14d5a4c3c593ce650", "type": "electric_scooter", "lon": -77.0325815, "rental_uris": {"android": "https://dc.lft.to/lastmile_qr_scan", "ios": "https://dc.lft.to/lastmile_qr_scan"}, "lat": 38.93211466666666, "is_reserved": 0, "is_disabled": 0, "fusion_lat": 0.0}, {"fusion_lon": 0.0, "bike_id": "180ab2ada018c9a9f90230644221e294", "name": "180ab2ada018c9a9f90230644221e294", "type": "electric_scooter", "lon": -77.02390716666666, "rental_uris": {"android": "https://dc.lft.to/lastmile_qr_scan", "ios": "https://dc.lft.to/lastmile_qr_scan"}, "lat": 38.95739116666667, "is_reserved": 0, "is_disabled": 0, "fusion_lat": 0.0}, {"fusion_lon": 0.0, "bike_id": "052c99bc964bc17c91b0d0b3d70f79a1", "name": "052c99bc964bc17c91b0d0b3d70f79a1", "type": "electric_scooter", "lon": -77.05257933333333, "rental_uris": {"android": "https://dc.lft.to/lastmile_qr_scan", "ios": "https://dc.lft.to/lastmile_qr_scan"}, "lat": 38.923775166666665, "is_reserved": 0, "is_disabled": 0, "fusion_lat": 0.0}, {"fusion_lon": 0.0, "bike_id": "6cb5b5a9df7dd528a38894c1c02844f1", "name": "6cb5b5a9df7dd528a38894c1c02844f1", "type": "electric_scooter", "lon": -77.039716, "rental_uris": {"android": "https://dc.lft.to/lastmile_qr_scan", "ios": "https://dc.lft.to/lastmile_qr_scan"}, "lat": 38.902753, "is_reserved": 0, "is_disabled": 0, "fusion_lat": 0.0}, {"fusion_lon": 0.0, "bike_id": "a99eedcbbad4609608433ad778e09d78", "name": "a99eedcbbad4609608433ad778e09d78", "type": "electric_scooter", "lon": -77.02666516666666, "rental_uris": {"android": "https://dc.lft.to/lastmile_qr_scan", "ios": "https://dc.lft.to/lastmile_qr_scan"}, "lat": 38.90136, "is_reserved": 0, "is_disabled": 0, "fusion_lat": 0.0}, {"fusion_lon": 0.0, "bike_id": "1e20ea0b9f614e224c59d2f3f37f4a1e", "name": "1e20ea0b9f614e224c59d2f3f37f4a1e", "type": "electric_scooter", "lon": -77.04781366666667, "rental_uris": {"android": "https://dc.lft.to/lastmile_qr_scan", "ios": "https://dc.lft.to/lastmile_qr_scan"}, "lat": 38.90793516666667, "is_reserved": 0, "is_disabled": 0, "fusion_lat": 0.0}, {"fusion_lon": 0.0, "bike_id": "c615627bb26af0e6d81b7d701c0d7e09", "name": "c615627bb26af0e6d81b7d701c0d7e09", "type": "electric_scooter", "lon": -77.03440666666667, "rental_uris": {"android": "https://dc.lft.to/lastmile_qr_scan", "ios": "https://dc.lft.to/lastmile_qr_scan"}, "lat": 38.90501616666667, "is_reserved": 0, "is_disabled": 0, "fusion_lat": 0.0}, {"fusion_lon": 0.0, "bike_id": "6342c1916c443e1513a94930171d7c4f", "name": "6342c1916c443e1513a94930171d7c4f", "type": "electric_scooter", "lon": -77.04676216666667, "rental_uris": {"android": "https://dc.lft.to/lastmile_qr_scan", "ios": "https://dc.lft.to/lastmile_qr_scan"}, "lat": 38.8955635, "is_reserved": 0, "is_disabled": 0, "fusion_lat": 0.0}, {"fusion_lon": 0.0, "bike_id": "edec1a41a16c80b3b564df98a0776e48", "name": "edec1a41a16c80b3b564df98a0776e48", "type": "electric_scooter", "lon": -77.02812516666667, "rental_uris": {"android": "https://dc.lft.to/lastmile_qr_scan", "ios": "https://dc.lft.to/lastmile_qr_scan"}, "lat": 38.917193, "is_reserved": 0, "is_disabled": 0, "fusion_lat": 0.0}, {"fusion_lon": 0.0, "bike_id": "c5b107ec1877ad75b50c8e98aabe1f62", "name": "c5b107ec1877ad75b50c8e98aabe1f62", "type": "electric_scooter", "lon": -77.05075666666667, "rental_uris": {"android": "https://dc.lft.to/lastmile_qr_scan", "ios": "https://dc.lft.to/lastmile_qr_scan"}, "lat": 38.905133, "is_reserved": 0, "is_disabled": 0, "fusion_lat": 0.0}, {"fusion_lon": 0.0, "bike_id": "b0e55fdc25022855039af950caf9b509", "name": "b0e55fdc25022855039af950caf9b509", "type": "electric_scooter", "lon": -77.06040816666666, "rental_uris": {"android": "https://dc.lft.to/lastmile_qr_scan", "ios": "https://dc.lft.to/lastmile_qr_scan"}, "lat": 38.93920833333333, "is_reserved": 0, "is_disabled": 0, "fusion_lat": 0.0}, {"fusion_lon": 0.0, "bike_id": "c07ebf668c725d386f9e6d930a811102", "name": "c07ebf668c725d386f9e6d930a811102", "type": "electric_scooter", "lon": -77.005847, "rental_uris": {"android": "https://dc.lft.to/lastmile_qr_scan", "ios": "https://dc.lft.to/lastmile_qr_scan"}, "lat": 38.885312, "is_reserved": 0, "is_disabled": 0, "fusion_lat": 0.0}, {"fusion_lon": 0.0, "bike_id": "201d65ef60a57f09f55a2d835eec02ce", "name": "201d65ef60a57f09f55a2d835eec02ce", "type": "electric_scooter", "lon": -77.022283, "rental_uris": {"android": "https://dc.lft.to/lastmile_qr_scan", "ios": "https://dc.lft.to/lastmile_qr_scan"}, "lat": 38.887687, "is_reserved": 0, "is_disabled": 0, "fusion_lat": 0.0}, {"fusion_lon": 0.0, "bike_id": "812087fc4aecee8a75ad4a3143fadd5d", "name": "812087fc4aecee8a75ad4a3143fadd5d", "type": "electric_scooter", "lon": -77.04695766666667, "rental_uris": {"android": "https://dc.lft.to/lastmile_qr_scan", "ios": "https://dc.lft.to/lastmile_qr_scan"}, "lat": 38.91656733333333, "is_reserved": 0, "is_disabled": 0, "fusion_lat": 0.0}, {"fusion_lon": 0.0, "bike_id": "cce7f5e394ed5a3e0c2629af3d6b522b", "name": "cce7f5e394ed5a3e0c2629af3d6b522b", "type": "electric_bike", "lon": -77.12899766666666, "rental_uris": {"android": "https://dc.lft.to/lastmile_qr_scan", "ios": "https://dc.lft.to/lastmile_qr_scan"}, "lat": 38.86377383333333, "is_reserved": 0, "is_disabled": 0, "fusion_lat": 0.0}, {"fusion_lon": 0.0, "bike_id": "ff17f57f278bd78834e9e7b3c4a3eabc", "name": "ff17f57f278bd78834e9e7b3c4a3eabc", "type": "electric_scooter", "lon": -77.07428683333333, "rental_uris": {"android": "https://dc.lft.to/lastmile_qr_scan", "ios": "https://dc.lft.to/lastmile_qr_scan"}, "lat": 38.91095933333333, "is_reserved": 0, "is_disabled": 0, "fusion_lat": 0.0}, {"fusion_lon": 0.0, "bike_id": "ef9e61526e88ecf3fc42d8812677a22e", "name": "ef9e61526e88ecf3fc42d8812677a22e", "type": "electric_bike", "lon": -77.02104316666667, "rental_uris": {"android": "https://dc.lft.to/lastmile_qr_scan", "ios": "https://dc.lft.to/lastmile_qr_scan"}, "lat": 39.022988833333336, "is_reserved": 0, "is_disabled": 0, "fusion_lat": 0.0}, {"fusion_lon": 0.0, "bike_id": "eedcb8139be1097ca340a753ff9d6ae4", "name": "eedcb8139be1097ca340a753ff9d6ae4", "type": "electric_scooter", "lon": -77.03859433333334, "rental_uris": {"android": "https://dc.lft.to/lastmile_qr_scan", "ios": "https://dc.lft.to/lastmile_qr_scan"}, "lat": 38.9081005, "is_reserved": 0, "is_disabled": 0, "fusion_lat": 0.0}, {"fusion_lon": 0.0, "bike_id": "5e8bb475c5baad70947d6b176597f527", "name": "5e8bb475c5baad70947d6b176597f527", "type": "electric_scooter", "lon": -77.03216433333333, "rental_uris": {"android": "https://dc.lft.to/lastmile_qr_scan", "ios": "https://dc.lft.to/lastmile_qr_scan"}, "lat": 38.938631, "is_reserved": 0, "is_disabled": 0, "fusion_lat": 0.0}, {"fusion_lon": 0.0, "bike_id": "98b58754d06fd4ec4cc004758c02b77c", "name": "98b58754d06fd4ec4cc004758c02b77c", "type": "electric_scooter", "lon": -77.03894166666667, "rental_uris": {"android": "https://dc.lft.to/lastmile_qr_scan", "ios": "https://dc.lft.to/lastmile_qr_scan"}, "lat": 38.90649533333333, "is_reserved": 0, "is_disabled": 0, "fusion_lat": 0.0}, {"fusion_lon": 0.0, "bike_id": "7b7f9b440f98b58038d6f03428eb8d4e", "name": "7b7f9b440f98b58038d6f03428eb8d4e", "type": "electric_scooter", "lon": -77.04235, "rental_uris": {"android": "https://dc.lft.to/lastmile_qr_scan", "ios": "https://dc.lft.to/lastmile_qr_scan"}, "lat": 38.909678666666665, "is_reserved": 0, "is_disabled": 0, "fusion_lat": 0.0}, {"fusion_lon": 0.0, "bike_id": "468dea58d9ccc2a5243094d11812d6bd", "name": "468dea58d9ccc2a5243094d11812d6bd", "type": "electric_scooter", "lon": -76.99387916666667, "rental_uris": {"android": "https://dc.lft.to/lastmile_qr_scan", "ios": "https://dc.lft.to/lastmile_qr_scan"}, "lat": 38.884478333333334, "is_reserved": 0, "is_disabled": 0, "fusion_lat": 0.0}, {"fusion_lon": 0.0, "bike_id": "c6331e7edfc95e3ec13b5c41b4e30db6", "name": "c6331e7edfc95e3ec13b5c41b4e30db6", "type": "electric_scooter", "lon": -77.00916083333334, "rental_uris": {"android": "https://dc.lft.to/lastmile_qr_scan", "ios": "https://dc.lft.to/lastmile_qr_scan"}, "lat": 38.95948533333333, "is_reserved": 0, "is_disabled": 0, "fusion_lat": 0.0}, {"fusion_lon": 0.0, "bike_id": "be7561b827b2a55c21b49add8b215d10", "name": "be7561b827b2a55c21b49add8b215d10", "type": "electric_scooter", "lon": -77.025919, "rental_uris": {"android": "https://dc.lft.to/lastmile_qr_scan", "ios": "https://dc.lft.to/lastmile_qr_scan"}, "lat": 38.942012, "is_reserved": 0, "is_disabled": 0, "fusion_lat": 0.0}, {"fusion_lon": 0.0, "bike_id": "14d93db9bb30278d88b9ef9ec89e7785", "name": "14d93db9bb30278d88b9ef9ec89e7785", "type": "electric_scooter", "lon": -76.99565183333333, "rental_uris": {"android": "https://dc.lft.to/lastmile_qr_scan", "ios": "https://dc.lft.to/lastmile_qr_scan"}, "lat": 38.920089, "is_reserved": 0, "is_disabled": 0, "fusion_lat": 0.0}, {"fusion_lon": 0.0, "bike_id": "ee6be64d44dd7bb91f31dabe19e57614", "name": "ee6be64d44dd7bb91f31dabe19e57614", "type": "electric_scooter", "lon": -77.042648, "rental_uris": {"android": "https://dc.lft.to/lastmile_qr_scan", "ios": "https://dc.lft.to/lastmile_qr_scan"}, "lat": 38.908080166666664, "is_reserved": 0, "is_disabled": 0, "fusion_lat": 0.0}, {"fusion_lon": 0.0, "bike_id": "e74b8459ddfa323807a4869433434b7e", "name": "e74b8459ddfa323807a4869433434b7e", "type": "electric_scooter", "lon": -77.0225125, "rental_uris": {"android": "https://dc.lft.to/lastmile_qr_scan", "ios": "https://dc.lft.to/lastmile_qr_scan"}, "lat": 38.9655865, "is_reserved": 0, "is_disabled": 0, "fusion_lat": 0.0}, {"fusion_lon": 0.0, "bike_id": "cacd6c99e1e49ca83d3ab8f7f55e3e7b", "name": "cacd6c99e1e49ca83d3ab8f7f55e3e7b", "type": "electric_scooter", "lon": -77.0321635, "rental_uris": {"android": "https://dc.lft.to/lastmile_qr_scan", "ios": "https://dc.lft.to/lastmile_qr_scan"}, "lat": 38.892202833333336, "is_reserved": 0, "is_disabled": 0, "fusion_lat": 0.0}, {"fusion_lon": 0.0, "bike_id": "da941f50930ba33e04ba3bed5d1db550", "name": "da941f50930ba33e04ba3bed5d1db550", "type": "electric_scooter", "lon": -77.02607033333334, "rental_uris": {"android": "https://dc.lft.to/lastmile_qr_scan", "ios": "https://dc.lft.to/lastmile_qr_scan"}, "lat": 38.916375333333335, "is_reserved": 0, "is_disabled": 0, "fusion_lat": 0.0}, {"fusion_lon": 0.0, "bike_id": "f76ba66a4fc054e2912eddd3f921eee6", "name": "f76ba66a4fc054e2912eddd3f921eee6", "type": "electric_scooter", "lon": -77.01817116666666, "rental_uris": {"android": "https://dc.lft.to/lastmile_qr_scan", "ios": "https://dc.lft.to/lastmile_qr_scan"}, "lat": 38.92206866666667, "is_reserved": 0, "is_disabled": 0, "fusion_lat": 0.0}, {"fusion_lon": 0.0, "bike_id": "e6fba883b0d5d1522fd43da94753a878", "name": "e6fba883b0d5d1522fd43da94753a878", "type": "electric_scooter", "lon": -77.04724283333333, "rental_uris": {"android": "https://dc.lft.to/lastmile_qr_scan", "ios": "https://dc.lft.to/lastmile_qr_scan"}, "lat": 38.90603633333333, "is_reserved": 0, "is_disabled": 0, "fusion_lat": 0.0}, {"fusion_lon": 0.0, "bike_id": "b0ebd58f9e4c04e89b2ce2af0c3b217c", "name": "b0ebd58f9e4c04e89b2ce2af0c3b217c", "type": "electric_bike", "lon": -76.93227033333334, "rental_uris": {"android": "https://dc.lft.to/lastmile_qr_scan", "ios": "https://dc.lft.to/lastmile_qr_scan"}, "lat": 38.865959333333336, "is_reserved": 0, "is_disabled": 0, "fusion_lat": 0.0}, {"fusion_lon": 0.0, "bike_id": "56e252520e5b6970a716613896fea482", "name": "56e252520e5b6970a716613896fea482", "type": "electric_scooter", "lon": -77.03679133333333, "rental_uris": {"android": "https://dc.lft.to/lastmile_qr_scan", "ios": "https://dc.lft.to/lastmile_qr_scan"}, "lat": 38.908247333333335, "is_reserved": 0, "is_disabled": 0, "fusion_lat": 0.0}, {"fusion_lon": 0.0, "bike_id": "414c82eaa38e6490dae11a825fae0462", "name": "414c82eaa38e6490dae11a825fae0462", "type": "electric_bike", "lon": -77.12579533333333, "rental_uris": {"android": "https://dc.lft.to/lastmile_qr_scan", "ios": "https://dc.lft.to/lastmile_qr_scan"}, "lat": 38.85145266666667, "is_reserved": 0, "is_disabled": 0, "fusion_lat": 0.0}, {"fusion_lon": 0.0, "bike_id": "98ec5c8a847a2ca0156cde15098b1df3", "name": "98ec5c8a847a2ca0156cde15098b1df3", "type": "electric_scooter", "lon": -77.03194166666667, "rental_uris": {"android": "https://dc.lft.to/lastmile_qr_scan", "ios": "https://dc.lft.to/lastmile_qr_scan"}, "lat": 38.917751333333335, "is_reserved": 0, "is_disabled": 0, "fusion_lat": 0.0}, {"fusion_lon": 0.0, "bike_id": "f7643a372f02c993eda3d5c26ef2992b", "name": "f7643a372f02c993eda3d5c26ef2992b", "type": "electric_scooter", "lon": -77.02482783333333, "rental_uris": {"android": "https://dc.lft.to/lastmile_qr_scan", "ios": "https://dc.lft.to/lastmile_qr_scan"}, "lat": 38.9388165, "is_reserved": 0, "is_disabled": 0, "fusion_lat": 0.0}, {"fusion_lon": 0.0, "bike_id": "d7b3fa7635d6c8efecd8d4f7aca9f189", "name": "d7b3fa7635d6c8efecd8d4f7aca9f189", "type": "electric_scooter", "lon": -77.04486133333333, "rental_uris": {"android": "https://dc.lft.to/lastmile_qr_scan", "ios": "https://dc.lft.to/lastmile_qr_scan"}, "lat": 38.909153333333336, "is_reserved": 0, "is_disabled": 0, "fusion_lat": 0.0}, {"fusion_lon": 0.0, "bike_id": "d28f8328e82901015d7fe30fe0f790ef", "name": "d28f8328e82901015d7fe30fe0f790ef", "type": "electric_scooter", "lon": -76.940601, "rental_uris": {"android": "https://dc.lft.to/lastmile_qr_scan", "ios": "https://dc.lft.to/lastmile_qr_scan"}, "lat": 38.89019733333333, "is_reserved": 0, "is_disabled": 0, "fusion_lat": 0.0}, {"fusion_lon": 0.0, "bike_id": "5d65f03dfb170666f35a851b3fa649f5", "name": "5d65f03dfb170666f35a851b3fa649f5", "type": "electric_scooter", "lon": -77.027167, "rental_uris": {"android": "https://dc.lft.to/lastmile_qr_scan", "ios": "https://dc.lft.to/lastmile_qr_scan"}, "lat": 38.907501333333336, "is_reserved": 0, "is_disabled": 0, "fusion_lat": 0.0}, {"fusion_lon": 0.0, "bike_id": "04e6f6e4eb75054c8a6e4f37542a5284", "name": "04e6f6e4eb75054c8a6e4f37542a5284", "type": "electric_scooter", "lon": -77.02479466666666, "rental_uris": {"android": "https://dc.lft.to/lastmile_qr_scan", "ios": "https://dc.lft.to/lastmile_qr_scan"}, "lat": 38.880157833333335, "is_reserved": 0, "is_disabled": 0, "fusion_lat": 0.0}, {"fusion_lon": 0.0, "bike_id": "4e4a79e1240996330b6fbff73f23c2c6", "name": "4e4a79e1240996330b6fbff73f23c2c6", "type": "electric_scooter", "lon": -77.02286966666667, "rental_uris": {"android": "https://dc.lft.to/lastmile_qr_scan", "ios": "https://dc.lft.to/lastmile_qr_scan"}, "lat": 38.9014505, "is_reserved": 0, "is_disabled": 0, "fusion_lat": 0.0}, {"fusion_lon": 0.0, "bike_id": "670d08ba8dc06cbdee5e3e5dea123586", "name": "670d08ba8dc06cbdee5e3e5dea123586", "type": "electric_scooter", "lon": -77.06392966666667, "rental_uris": {"android": "https://dc.lft.to/lastmile_qr_scan", "ios": "https://dc.lft.to/lastmile_qr_scan"}, "lat": 38.9290735, "is_reserved": 0, "is_disabled": 0, "fusion_lat": 0.0}, {"fusion_lon": 0.0, "bike_id": "fd2e749908b9c3a6bde271fad6529fa3", "name": "fd2e749908b9c3a6bde271fad6529fa3", "type": "electric_bike", "lon": -77.03657266666667, "rental_uris": {"android": "https://dc.lft.to/lastmile_qr_scan", "ios": "https://dc.lft.to/lastmile_qr_scan"}, "lat": 38.95022216666667, "is_reserved": 0, "is_disabled": 0, "fusion_lat": 0.0}, {"fusion_lon": 0.0, "bike_id": "32b4cfa8afea002547045b41a06e9063", "name": "32b4cfa8afea002547045b41a06e9063", "type": "electric_scooter", "lon": -76.98707466666667, "rental_uris": {"android": "https://dc.lft.to/lastmile_qr_scan", "ios": "https://dc.lft.to/lastmile_qr_scan"}, "lat": 38.865371, "is_reserved": 0, "is_disabled": 0, "fusion_lat": 0.0}, {"fusion_lon": 0.0, "bike_id": "f36a5dacadbaffd746b68ef230627c4a", "name": "f36a5dacadbaffd746b68ef230627c4a", "type": "electric_scooter", "lon": -76.94650866666667, "rental_uris": {"android": "https://dc.lft.to/lastmile_qr_scan", "ios": "https://dc.lft.to/lastmile_qr_scan"}, "lat": 38.8982715, "is_reserved": 0, "is_disabled": 0, "fusion_lat": 0.0}, {"fusion_lon": 0.0, "bike_id": "2ce1aad587f4f3f42a9d5ed52e28b9cf", "name": "2ce1aad587f4f3f42a9d5ed52e28b9cf", "type": "electric_scooter", "lon": -76.99443049999999, "rental_uris": {"android": "https://dc.lft.to/lastmile_qr_scan", "ios": "https://dc.lft.to/lastmile_qr_scan"}, "lat": 38.905100833333336, "is_reserved": 0, "is_disabled": 0, "fusion_lat": 0.0}, {"fusion_lon": 0.0, "bike_id": "f8e90bf49e664af4d5503cd024cd9c3c", "name": "f8e90bf49e664af4d5503cd024cd9c3c", "type": "electric_bike", "lon": -76.90079883333334, "rental_uris": {"android": "https://dc.lft.to/lastmile_qr_scan", "ios": "https://dc.lft.to/lastmile_qr_scan"}, "lat": 38.887564166666664, "is_reserved": 0, "is_disabled": 0, "fusion_lat": 0.0}, {"fusion_lon": 0.0, "bike_id": "d97d8ab5aadfcd04f0927bc7b52ea19c", "name": "d97d8ab5aadfcd04f0927bc7b52ea19c", "type": "electric_bike", "lon": -77.12814883333333, "rental_uris": {"android": "https://dc.lft.to/lastmile_qr_scan", "ios": "https://dc.lft.to/lastmile_qr_scan"}, "lat": 38.865429666666664, "is_reserved": 0, "is_disabled": 0, "fusion_lat": 0.0}, {"fusion_lon": 0.0, "bike_id": "5e0126ff42effbc28afc6f750c195e55", "name": "5e0126ff42effbc28afc6f750c195e55", "type": "electric_scooter", "lon": -76.9546, "rental_uris": {"android": "https://dc.lft.to/lastmile_qr_scan", "ios": "https://dc.lft.to/lastmile_qr_scan"}, "lat": 38.8881165, "is_reserved": 0, "is_disabled": 0, "fusion_lat": 0.0}, {"fusion_lon": 0.0, "bike_id": "8f2d71bd335442ed3fa3003acf1480e5", "name": "8f2d71bd335442ed3fa3003acf1480e5", "type": "electric_bike", "lon": -77.12984916666667, "rental_uris": {"android": "https://dc.lft.to/lastmile_qr_scan", "ios": "https://dc.lft.to/lastmile_qr_scan"}, "lat": 38.79989283333333, "is_reserved": 0, "is_disabled": 0, "fusion_lat": 0.0}, {"fusion_lon": 0.0, "bike_id": "b168e35d07c3ad36eed3db386512b972", "name": "b168e35d07c3ad36eed3db386512b972", "type": "electric_scooter", "lon": -77.0455225, "rental_uris": {"android": "https://dc.lft.to/lastmile_qr_scan", "ios": "https://dc.lft.to/lastmile_qr_scan"}, "lat": 38.913663666666665, "is_reserved": 0, "is_disabled": 0, "fusion_lat": 0.0}, {"fusion_lon": 0.0, "bike_id": "8732a8126e990475c945e046c0830786", "name": "8732a8126e990475c945e046c0830786", "type": "electric_scooter", "lon": -77.0013245, "rental_uris": {"android": "https://dc.lft.to/lastmile_qr_scan", "ios": "https://dc.lft.to/lastmile_qr_scan"}, "lat": 38.89488, "is_reserved": 0, "is_disabled": 0, "fusion_lat": 0.0}, {"fusion_lon": 0.0, "bike_id": "6d1189f053bd044a0fd4bf29e4f8cfcd", "name": "6d1189f053bd044a0fd4bf29e4f8cfcd", "type": "electric_scooter", "lon": -77.04219916666666, "rental_uris": {"android": "https://dc.lft.to/lastmile_qr_scan", "ios": "https://dc.lft.to/lastmile_qr_scan"}, "lat": 38.921683333333334, "is_reserved": 0, "is_disabled": 0, "fusion_lat": 0.0}, {"fusion_lon": 0.0, "bike_id": "4405c8290c4aaa0dc7e16b43072144a0", "name": "4405c8290c4aaa0dc7e16b43072144a0", "type": "electric_scooter", "lon": -77.032842, "rental_uris": {"android": "https://dc.lft.to/lastmile_qr_scan", "ios": "https://dc.lft.to/lastmile_qr_scan"}, "lat": 38.946604666666666, "is_reserved": 0, "is_disabled": 0, "fusion_lat": 0.0}, {"fusion_lon": 0.0, "bike_id": "c85d09312dbc9e70f62fb953280e17d6", "name": "c85d09312dbc9e70f62fb953280e17d6", "type": "electric_bike", "lon": -77.02931383333333, "rental_uris": {"android": "https://dc.lft.to/lastmile_qr_scan", "ios": "https://dc.lft.to/lastmile_qr_scan"}, "lat": 38.89616616666667, "is_reserved": 0, "is_disabled": 0, "fusion_lat": 0.0}, {"fusion_lon": 0.0, "bike_id": "d764c8d2591dba367045c85b40cef162", "name": "d764c8d2591dba367045c85b40cef162", "type": "electric_bike", "lon": -77.07045733333334, "rental_uris": {"android": "https://dc.lft.to/lastmile_qr_scan", "ios": "https://dc.lft.to/lastmile_qr_scan"}, "lat": 38.824427166666666, "is_reserved": 0, "is_disabled": 0, "fusion_lat": 0.0}, {"fusion_lon": 0.0, "bike_id": "b3a3907792e3cef7447267849174eae8", "name": "b3a3907792e3cef7447267849174eae8", "type": "electric_scooter", "lon": -77.034483, "rental_uris": {"android": "https://dc.lft.to/lastmile_qr_scan", "ios": "https://dc.lft.to/lastmile_qr_scan"}, "lat": 38.904964166666666, "is_reserved": 0, "is_disabled": 0, "fusion_lat": 0.0}, {"fusion_lon": 0.0, "bike_id": "2c8da95151a20d120f766138c1759248", "name": "2c8da95151a20d120f766138c1759248", "type": "electric_scooter", "lon": -77.00374916666667, "rental_uris": {"android": "https://dc.lft.to/lastmile_qr_scan", "ios": "https://dc.lft.to/lastmile_qr_scan"}, "lat": 38.9060715, "is_reserved": 0, "is_disabled": 0, "fusion_lat": 0.0}, {"fusion_lon": 0.0, "bike_id": "b88f17d311357f32aa6aaa675e9de210", "name": "b88f17d311357f32aa6aaa675e9de210", "type": "electric_scooter", "lon": -77.01105933333334, "rental_uris": {"android": "https://dc.lft.to/lastmile_qr_scan", "ios": "https://dc.lft.to/lastmile_qr_scan"}, "lat": 38.89596616666667, "is_reserved": 0, "is_disabled": 0, "fusion_lat": 0.0}, {"fusion_lon": 0.0, "bike_id": "ed3a3454341a13192a613b1c12178111", "name": "ed3a3454341a13192a613b1c12178111", "type": "electric_scooter", "lon": -77.026863, "rental_uris": {"android": "https://dc.lft.to/lastmile_qr_scan", "ios": "https://dc.lft.to/lastmile_qr_scan"}, "lat": 38.912581333333335, "is_reserved": 0, "is_disabled": 0, "fusion_lat": 0.0}, {"fusion_lon": 0.0, "bike_id": "c704685762b7c731da9a086022e34241", "name": "c704685762b7c731da9a086022e34241", "type": "electric_scooter", "lon": -77.00932083333333, "rental_uris": {"android": "https://dc.lft.to/lastmile_qr_scan", "ios": "https://dc.lft.to/lastmile_qr_scan"}, "lat": 38.876815666666666, "is_reserved": 0, "is_disabled": 0, "fusion_lat": 0.0}, {"fusion_lon": 0.0, "bike_id": "efa5a0e5181f0ccc4ba6e8576aa59f48", "name": "efa5a0e5181f0ccc4ba6e8576aa59f48", "type": "electric_scooter", "lon": -77.03263483333333, "rental_uris": {"android": "https://dc.lft.to/lastmile_qr_scan", "ios": "https://dc.lft.to/lastmile_qr_scan"}, "lat": 38.93517833333333, "is_reserved": 0, "is_disabled": 0, "fusion_lat": 0.0}, {"fusion_lon": 0.0, "bike_id": "9720b11db0497b9238d6769b3804eb25", "name": "9720b11db0497b9238d6769b3804eb25", "type": "electric_bike", "lon": -76.92338933333333, "rental_uris": {"android": "https://dc.lft.to/lastmile_qr_scan", "ios": "https://dc.lft.to/lastmile_qr_scan"}, "lat": 38.887914, "is_reserved": 0, "is_disabled": 0, "fusion_lat": 0.0}, {"fusion_lon": 0.0, "bike_id": "241a49697a06be3c070ca07c3e0bc9a6", "name": "241a49697a06be3c070ca07c3e0bc9a6", "type": "electric_scooter", "lon": -77.0309325, "rental_uris": {"android": "https://dc.lft.to/lastmile_qr_scan", "ios": "https://dc.lft.to/lastmile_qr_scan"}, "lat": 38.9238205, "is_reserved": 0, "is_disabled": 0, "fusion_lat": 0.0}, {"fusion_lon": 0.0, "bike_id": "c0c78e61d795835bab8de34a777ef58c", "name": "c0c78e61d795835bab8de34a777ef58c", "type": "electric_scooter", "lon": -76.98542083333334, "rental_uris": {"android": "https://dc.lft.to/lastmile_qr_scan", "ios": "https://dc.lft.to/lastmile_qr_scan"}, "lat": 38.87999033333333, "is_reserved": 0, "is_disabled": 0, "fusion_lat": 0.0}, {"fusion_lon": 0.0, "bike_id": "c260734b69cd2ddf34437cd449ee8a2b", "name": "c260734b69cd2ddf34437cd449ee8a2b", "type": "electric_scooter", "lon": -76.99808266666666, "rental_uris": {"android": "https://dc.lft.to/lastmile_qr_scan", "ios": "https://dc.lft.to/lastmile_qr_scan"}, "lat": 38.876824166666665, "is_reserved": 0, "is_disabled": 0, "fusion_lat": 0.0}, {"fusion_lon": 0.0, "bike_id": "d5d4bffa644858f8c8f823afe90ce33e", "name": "d5d4bffa644858f8c8f823afe90ce33e", "type": "electric_bike", "lon": -76.980685, "rental_uris": {"android": "https://dc.lft.to/lastmile_qr_scan", "ios": "https://dc.lft.to/lastmile_qr_scan"}, "lat": 38.887899, "is_reserved": 0, "is_disabled": 0, "fusion_lat": 0.0}, {"fusion_lon": 0.0, "bike_id": "120bce321a9c0a178cac97061ba15a7c", "name": "120bce321a9c0a178cac97061ba15a7c", "type": "electric_scooter", "lon": -77.037124, "rental_uris": {"android": "https://dc.lft.to/lastmile_qr_scan", "ios": "https://dc.lft.to/lastmile_qr_scan"}, "lat": 38.91811283333333, "is_reserved": 0, "is_disabled": 0, "fusion_lat": 0.0}, {"fusion_lon": 0.0, "bike_id": "cb137d27f72ee5089dac6ffccfec9bcb", "name": "cb137d27f72ee5089dac6ffccfec9bcb", "type": "electric_scooter", "lon": -77.06355966666666, "rental_uris": {"android": "https://dc.lft.to/lastmile_qr_scan", "ios": "https://dc.lft.to/lastmile_qr_scan"}, "lat": 38.9444915, "is_reserved": 0, "is_disabled": 0, "fusion_lat": 0.0}, {"fusion_lon": 0.0, "bike_id": "451e3fc72b98742bce2deaa5227bd8e2", "name": "451e3fc72b98742bce2deaa5227bd8e2", "type": "electric_scooter", "lon": -77.00554033333333, "rental_uris": {"android": "https://dc.lft.to/lastmile_qr_scan", "ios": "https://dc.lft.to/lastmile_qr_scan"}, "lat": 38.905603166666666, "is_reserved": 0, "is_disabled": 0, "fusion_lat": 0.0}, {"fusion_lon": 0.0, "bike_id": "df234d74389f8d43ae829aeb20ea2f3f", "name": "df234d74389f8d43ae829aeb20ea2f3f", "type": "electric_bike", "lon": -76.96004483333333, "rental_uris": {"android": "https://dc.lft.to/lastmile_qr_scan", "ios": "https://dc.lft.to/lastmile_qr_scan"}, "lat": 38.8699535, "is_reserved": 0, "is_disabled": 0, "fusion_lat": 0.0}, {"fusion_lon": 0.0, "bike_id": "453057f830159fe2f6a79f1ebdcd6f25", "name": "453057f830159fe2f6a79f1ebdcd6f25", "type": "electric_scooter", "lon": -77.04295966666666, "rental_uris": {"android": "https://dc.lft.to/lastmile_qr_scan", "ios": "https://dc.lft.to/lastmile_qr_scan"}, "lat": 38.917955666666664, "is_reserved": 0, "is_disabled": 0, "fusion_lat": 0.0}, {"fusion_lon": 0.0, "bike_id": "db162820c0d43e491dae6f3b04dd1c8a", "name": "db162820c0d43e491dae6f3b04dd1c8a", "type": "electric_scooter", "lon": -77.03972666666667, "rental_uris": {"android": "https://dc.lft.to/lastmile_qr_scan", "ios": "https://dc.lft.to/lastmile_qr_scan"}, "lat": 38.911894833333335, "is_reserved": 0, "is_disabled": 0, "fusion_lat": 0.0}, {"fusion_lon": 0.0, "bike_id": "6db8610f615845b3dffd6d9f6be1bfc8", "name": "6db8610f615845b3dffd6d9f6be1bfc8", "type": "electric_scooter", "lon": -77.08618616666666, "rental_uris": {"android": "https://dc.lft.to/lastmile_qr_scan", "ios": "https://dc.lft.to/lastmile_qr_scan"}, "lat": 38.9587035, "is_reserved": 0, "is_disabled": 0, "fusion_lat": 0.0}, {"fusion_lon": 0.0, "bike_id": "7e2d74e6a3f2b25a8d954deaa026b5ae", "name": "7e2d74e6a3f2b25a8d954deaa026b5ae", "type": "electric_scooter", "lon": -77.00862916666667, "rental_uris": {"android": "https://dc.lft.to/lastmile_qr_scan", "ios": "https://dc.lft.to/lastmile_qr_scan"}, "lat": 38.876582166666665, "is_reserved": 0, "is_disabled": 0, "fusion_lat": 0.0}, {"fusion_lon": 0.0, "bike_id": "15e3a666bce87eda3be4b9278a0d24a7", "name": "15e3a666bce87eda3be4b9278a0d24a7", "type": "electric_scooter", "lon": -77.01894216666666, "rental_uris": {"android": "https://dc.lft.to/lastmile_qr_scan", "ios": "https://dc.lft.to/lastmile_qr_scan"}, "lat": 38.87842666666667, "is_reserved": 0, "is_disabled": 0, "fusion_lat": 0.0}, {"fusion_lon": 0.0, "bike_id": "bc4356c7a690de0c2d513666c9e92565", "name": "bc4356c7a690de0c2d513666c9e92565", "type": "electric_scooter", "lon": -76.9990215, "rental_uris": {"android": "https://dc.lft.to/lastmile_qr_scan", "ios": "https://dc.lft.to/lastmile_qr_scan"}, "lat": 38.956533, "is_reserved": 0, "is_disabled": 0, "fusion_lat": 0.0}, {"fusion_lon": 0.0, "bike_id": "70d8fce0914a90048944a6f61f9f881b", "name": "70d8fce0914a90048944a6f61f9f881b", "type": "electric_scooter", "lon": -77.04686866666667, "rental_uris": {"android": "https://dc.lft.to/lastmile_qr_scan", "ios": "https://dc.lft.to/lastmile_qr_scan"}, "lat": 38.898271333333334, "is_reserved": 0, "is_disabled": 0, "fusion_lat": 0.0}, {"fusion_lon": 0.0, "bike_id": "e31a1313303e2c52c16bb6d8c36b8908", "name": "e31a1313303e2c52c16bb6d8c36b8908", "type": "electric_scooter", "lon": -77.0369125, "rental_uris": {"android": "https://dc.lft.to/lastmile_qr_scan", "ios": "https://dc.lft.to/lastmile_qr_scan"}, "lat": 38.916827833333336, "is_reserved": 0, "is_disabled": 0, "fusion_lat": 0.0}, {"fusion_lon": 0.0, "bike_id": "2972a6ebea62c92ad555b9368e1308d8", "name": "2972a6ebea62c92ad555b9368e1308d8", "type": "electric_scooter", "lon": -76.94902083333334, "rental_uris": {"android": "https://dc.lft.to/lastmile_qr_scan", "ios": "https://dc.lft.to/lastmile_qr_scan"}, "lat": 38.89533566666667, "is_reserved": 0, "is_disabled": 0, "fusion_lat": 0.0}, {"fusion_lon": 0.0, "bike_id": "e50959c154f243761b894e1b5f79b386", "name": "e50959c154f243761b894e1b5f79b386", "type": "electric_scooter", "lon": -77.03474466666667, "rental_uris": {"android": "https://dc.lft.to/lastmile_qr_scan", "ios": "https://dc.lft.to/lastmile_qr_scan"}, "lat": 38.903868, "is_reserved": 0, "is_disabled": 0, "fusion_lat": 0.0}, {"fusion_lon": 0.0, "bike_id": "772110e498c857c398b5a18695471d46", "name": "772110e498c857c398b5a18695471d46", "type": "electric_scooter", "lon": -77.06647333333333, "rental_uris": {"android": "https://dc.lft.to/lastmile_qr_scan", "ios": "https://dc.lft.to/lastmile_qr_scan"}, "lat": 38.903232, "is_reserved": 0, "is_disabled": 0, "fusion_lat": 0.0}, {"fusion_lon": 0.0, "bike_id": "b9de77734fc1da21f6b46f6b139baf50", "name": "b9de77734fc1da21f6b46f6b139baf50", "type": "electric_scooter", "lon": -77.04659933333333, "rental_uris": {"android": "https://dc.lft.to/lastmile_qr_scan", "ios": "https://dc.lft.to/lastmile_qr_scan"}, "lat": 38.90135466666667, "is_reserved": 0, "is_disabled": 0, "fusion_lat": 0.0}, {"fusion_lon": 0.0, "bike_id": "3ce753e800c09e972183e7c3467c7020", "name": "3ce753e800c09e972183e7c3467c7020", "type": "electric_scooter", "lon": -77.02289233333333, "rental_uris": {"android": "https://dc.lft.to/lastmile_qr_scan", "ios": "https://dc.lft.to/lastmile_qr_scan"}, "lat": 38.91721783333333, "is_reserved": 0, "is_disabled": 0, "fusion_lat": 0.0}, {"fusion_lon": 0.0, "bike_id": "e28b91933fa7bbca46811ae7c6438c64", "name": "e28b91933fa7bbca46811ae7c6438c64", "type": "electric_bike", "lon": -76.965594, "rental_uris": {"android": "https://dc.lft.to/lastmile_qr_scan", "ios": "https://dc.lft.to/lastmile_qr_scan"}, "lat": 38.95085366666667, "is_reserved": 0, "is_disabled": 0, "fusion_lat": 0.0}, {"fusion_lon": 0.0, "bike_id": "107299fe3bf23fc8fb50ec797305276d", "name": "107299fe3bf23fc8fb50ec797305276d", "type": "electric_scooter", "lon": -77.04899383333333, "rental_uris": {"android": "https://dc.lft.to/lastmile_qr_scan", "ios": "https://dc.lft.to/lastmile_qr_scan"}, "lat": 38.89227733333333, "is_reserved": 0, "is_disabled": 0, "fusion_lat": 0.0}, {"fusion_lon": 0.0, "bike_id": "49bdf74e3d6d6de15ec0a84bf78fdcaa", "name": "49bdf74e3d6d6de15ec0a84bf78fdcaa", "type": "electric_scooter", "lon": -77.0410805, "rental_uris": {"android": "https://dc.lft.to/lastmile_qr_scan", "ios": "https://dc.lft.to/lastmile_qr_scan"}, "lat": 38.908001166666665, "is_reserved": 0, "is_disabled": 0, "fusion_lat": 0.0}, {"fusion_lon": 0.0, "bike_id": "4549ef774e81f3ac949a8fb6a77f1553", "name": "4549ef774e81f3ac949a8fb6a77f1553", "type": "electric_scooter", "lon": -77.03349233333333, "rental_uris": {"android": "https://dc.lft.to/lastmile_qr_scan", "ios": "https://dc.lft.to/lastmile_qr_scan"}, "lat": 38.900217833333336, "is_reserved": 0, "is_disabled": 0, "fusion_lat": 0.0}, {"fusion_lon": 0.0, "bike_id": "ca98320d40f011c920f01ada58df8040", "name": "ca98320d40f011c920f01ada58df8040", "type": "electric_scooter", "lon": -77.05200683333334, "rental_uris": {"android": "https://dc.lft.to/lastmile_qr_scan", "ios": "https://dc.lft.to/lastmile_qr_scan"}, "lat": 38.92454683333333, "is_reserved": 0, "is_disabled": 0, "fusion_lat": 0.0}, {"fusion_lon": 0.0, "bike_id": "ebd05f9fb85bcb306af5ff4a8b18feaf", "name": "ebd05f9fb85bcb306af5ff4a8b18feaf", "type": "electric_scooter", "lon": -77.0054405, "rental_uris": {"android": "https://dc.lft.to/lastmile_qr_scan", "ios": "https://dc.lft.to/lastmile_qr_scan"}, "lat": 38.9055805, "is_reserved": 0, "is_disabled": 0, "fusion_lat": 0.0}, {"fusion_lon": 0.0, "bike_id": "ece741450356cbc9a9bb6e9cb1a5fd86", "name": "ece741450356cbc9a9bb6e9cb1a5fd86", "type": "electric_scooter", "lon": -76.98333366666667, "rental_uris": {"android": "https://dc.lft.to/lastmile_qr_scan", "ios": "https://dc.lft.to/lastmile_qr_scan"}, "lat": 38.90750883333333, "is_reserved": 0, "is_disabled": 0, "fusion_lat": 0.0}, {"fusion_lon": 0.0, "bike_id": "715ad12d993b8ffc00d358a5eaa6efb9", "name": "715ad12d993b8ffc00d358a5eaa6efb9", "type": "electric_scooter", "lon": -77.00913033333333, "rental_uris": {"android": "https://dc.lft.to/lastmile_qr_scan", "ios": "https://dc.lft.to/lastmile_qr_scan"}, "lat": 38.912885333333335, "is_reserved": 0, "is_disabled": 0, "fusion_lat": 0.0}, {"fusion_lon": 0.0, "bike_id": "92db49edc1adee7c2921b6b186c0e7c0", "name": "92db49edc1adee7c2921b6b186c0e7c0", "type": "electric_scooter", "lon": -77.0196865, "rental_uris": {"android": "https://dc.lft.to/lastmile_qr_scan", "ios": "https://dc.lft.to/lastmile_qr_scan"}, "lat": 38.90264583333333, "is_reserved": 0, "is_disabled": 0, "fusion_lat": 0.0}, {"fusion_lon": 0.0, "bike_id": "2910b38dfe2bd810c090b09b69c2bc3e", "name": "2910b38dfe2bd810c090b09b69c2bc3e", "type": "electric_scooter", "lon": -77.03572966666667, "rental_uris": {"android": "https://dc.lft.to/lastmile_qr_scan", "ios": "https://dc.lft.to/lastmile_qr_scan"}, "lat": 38.8817675, "is_reserved": 0, "is_disabled": 0, "fusion_lat": 0.0}, {"fusion_lon": 0.0, "bike_id": "f4f5157c481d5801863cd5ae7b5b74d9", "name": "f4f5157c481d5801863cd5ae7b5b74d9", "type": "electric_scooter", "lon": -77.038406, "rental_uris": {"android": "https://dc.lft.to/lastmile_qr_scan", "ios": "https://dc.lft.to/lastmile_qr_scan"}, "lat": 38.9173175, "is_reserved": 0, "is_disabled": 0, "fusion_lat": 0.0}, {"fusion_lon": 0.0, "bike_id": "ea12d5ebcab9b9994c98e81e589d3f26", "name": "ea12d5ebcab9b9994c98e81e589d3f26", "type": "electric_scooter", "lon": -77.04192783333333, "rental_uris": {"android": "https://dc.lft.to/lastmile_qr_scan", "ios": "https://dc.lft.to/lastmile_qr_scan"}, "lat": 38.8998075, "is_reserved": 0, "is_disabled": 0, "fusion_lat": 0.0}, {"fusion_lon": 0.0, "bike_id": "b673cabfa42cd25be7836b8d7c2ee9a2", "name": "b673cabfa42cd25be7836b8d7c2ee9a2", "type": "electric_scooter", "lon": -77.01052066666666, "rental_uris": {"android": "https://dc.lft.to/lastmile_qr_scan", "ios": "https://dc.lft.to/lastmile_qr_scan"}, "lat": 38.906763833333336, "is_reserved": 0, "is_disabled": 0, "fusion_lat": 0.0}, {"fusion_lon": 0.0, "bike_id": "347789f7bf37b7a700ec1aa347c9880b", "name": "347789f7bf37b7a700ec1aa347c9880b", "type": "electric_scooter", "lon": -77.02593383333334, "rental_uris": {"android": "https://dc.lft.to/lastmile_qr_scan", "ios": "https://dc.lft.to/lastmile_qr_scan"}, "lat": 38.9420485, "is_reserved": 0, "is_disabled": 0, "fusion_lat": 0.0}, {"fusion_lon": 0.0, "bike_id": "ae842eedd27218bd477f81ca19b6f81d", "name": "ae842eedd27218bd477f81ca19b6f81d", "type": "electric_scooter", "lon": -77.041802, "rental_uris": {"android": "https://dc.lft.to/lastmile_qr_scan", "ios": "https://dc.lft.to/lastmile_qr_scan"}, "lat": 38.914099666666665, "is_reserved": 0, "is_disabled": 0, "fusion_lat": 0.0}, {"fusion_lon": 0.0, "bike_id": "35908c177037482e275fbc6a99b9ee73", "name": "35908c177037482e275fbc6a99b9ee73", "type": "electric_scooter", "lon": -77.04862216666666, "rental_uris": {"android": "https://dc.lft.to/lastmile_qr_scan", "ios": "https://dc.lft.to/lastmile_qr_scan"}, "lat": 38.892205833333335, "is_reserved": 0, "is_disabled": 0, "fusion_lat": 0.0}, {"fusion_lon": 0.0, "bike_id": "4919742d8824ad742e5765a320a2cf27", "name": "4919742d8824ad742e5765a320a2cf27", "type": "electric_scooter", "lon": -77.0137385, "rental_uris": {"android": "https://dc.lft.to/lastmile_qr_scan", "ios": "https://dc.lft.to/lastmile_qr_scan"}, "lat": 38.928526, "is_reserved": 0, "is_disabled": 0, "fusion_lat": 0.0}, {"fusion_lon": 0.0, "bike_id": "1f007dfd74002a57ee2379b20b619da8", "name": "1f007dfd74002a57ee2379b20b619da8", "type": "electric_scooter", "lon": -77.02931266666667, "rental_uris": {"android": "https://dc.lft.to/lastmile_qr_scan", "ios": "https://dc.lft.to/lastmile_qr_scan"}, "lat": 38.902328, "is_reserved": 0, "is_disabled": 0, "fusion_lat": 0.0}, {"fusion_lon": 0.0, "bike_id": "c0d7441d5f8bb7c27d65085223f5dd68", "name": "c0d7441d5f8bb7c27d65085223f5dd68", "type": "electric_scooter", "lon": -77.05920216666667, "rental_uris": {"android": "https://dc.lft.to/lastmile_qr_scan", "ios": "https://dc.lft.to/lastmile_qr_scan"}, "lat": 38.90083633333333, "is_reserved": 0, "is_disabled": 0, "fusion_lat": 0.0}, {"fusion_lon": 0.0, "bike_id": "fdf2f138ae07874d249388a66d82cdd0", "name": "fdf2f138ae07874d249388a66d82cdd0", "type": "electric_scooter", "lon": -76.9846995, "rental_uris": {"android": "https://dc.lft.to/lastmile_qr_scan", "ios": "https://dc.lft.to/lastmile_qr_scan"}, "lat": 38.89355466666667, "is_reserved": 0, "is_disabled": 0, "fusion_lat": 0.0}, {"fusion_lon": 0.0, "bike_id": "5465d5372730943ffac20dec2d0f5494", "name": "5465d5372730943ffac20dec2d0f5494", "type": "electric_scooter", "lon": -77.05295566666666, "rental_uris": {"android": "https://dc.lft.to/lastmile_qr_scan", "ios": "https://dc.lft.to/lastmile_qr_scan"}, "lat": 38.90547133333333, "is_reserved": 0, "is_disabled": 0, "fusion_lat": 0.0}, {"fusion_lon": 0.0, "bike_id": "080a1d63e04fc58e483c3f3a96619c6a", "name": "080a1d63e04fc58e483c3f3a96619c6a", "type": "electric_scooter", "lon": -77.05927616666666, "rental_uris": {"android": "https://dc.lft.to/lastmile_qr_scan", "ios": "https://dc.lft.to/lastmile_qr_scan"}, "lat": 38.936613333333334, "is_reserved": 0, "is_disabled": 0, "fusion_lat": 0.0}, {"fusion_lon": 0.0, "bike_id": "346f1d424b0f954929db498bbe3eedfb", "name": "346f1d424b0f954929db498bbe3eedfb", "type": "electric_scooter", "lon": -76.95053133333333, "rental_uris": {"android": "https://dc.lft.to/lastmile_qr_scan", "ios": "https://dc.lft.to/lastmile_qr_scan"}, "lat": 38.90689866666666, "is_reserved": 0, "is_disabled": 0, "fusion_lat": 0.0}, {"fusion_lon": 0.0, "bike_id": "c7950280d99dc3e025d286c7c1dd40ae", "name": "c7950280d99dc3e025d286c7c1dd40ae", "type": "electric_scooter", "lon": -76.99697433333333, "rental_uris": {"android": "https://dc.lft.to/lastmile_qr_scan", "ios": "https://dc.lft.to/lastmile_qr_scan"}, "lat": 38.884249, "is_reserved": 0, "is_disabled": 0, "fusion_lat": 0.0}, {"fusion_lon": 0.0, "bike_id": "6748b9104fd28a4fb29aba1ffe4e2d69", "name": "6748b9104fd28a4fb29aba1ffe4e2d69", "type": "electric_scooter", "lon": -77.03482033333333, "rental_uris": {"android": "https://dc.lft.to/lastmile_qr_scan", "ios": "https://dc.lft.to/lastmile_qr_scan"}, "lat": 38.9036185, "is_reserved": 0, "is_disabled": 0, "fusion_lat": 0.0}, {"fusion_lon": 0.0, "bike_id": "b767a94f9387e2f48b34aef4861f2b12", "name": "b767a94f9387e2f48b34aef4861f2b12", "type": "electric_scooter", "lon": -77.02235116666667, "rental_uris": {"android": "https://dc.lft.to/lastmile_qr_scan", "ios": "https://dc.lft.to/lastmile_qr_scan"}, "lat": 38.91415116666667, "is_reserved": 0, "is_disabled": 0, "fusion_lat": 0.0}, {"fusion_lon": 0.0, "bike_id": "96a2795b42d3171f781b27efbf86fd89", "name": "96a2795b42d3171f781b27efbf86fd89", "type": "electric_scooter", "lon": -77.03978266666667, "rental_uris": {"android": "https://dc.lft.to/lastmile_qr_scan", "ios": "https://dc.lft.to/lastmile_qr_scan"}, "lat": 38.9162825, "is_reserved": 0, "is_disabled": 0, "fusion_lat": 0.0}, {"fusion_lon": 0.0, "bike_id": "81e8612a7e164cbe8948703856676cdb", "name": "81e8612a7e164cbe8948703856676cdb", "type": "electric_scooter", "lon": -77.039717, "rental_uris": {"android": "https://dc.lft.to/lastmile_qr_scan", "ios": "https://dc.lft.to/lastmile_qr_scan"}, "lat": 38.9198025, "is_reserved": 0, "is_disabled": 0, "fusion_lat": 0.0}, {"fusion_lon": 0.0, "bike_id": "819934d668c5d0488441c34634e4c9f7", "name": "819934d668c5d0488441c34634e4c9f7", "type": "electric_scooter", "lon": -77.03988966666667, "rental_uris": {"android": "https://dc.lft.to/lastmile_qr_scan", "ios": "https://dc.lft.to/lastmile_qr_scan"}, "lat": 38.89348283333333, "is_reserved": 0, "is_disabled": 0, "fusion_lat": 0.0}, {"fusion_lon": 0.0, "bike_id": "9dfe4acc0c7b5c1941bd0ca630e1ebfa", "name": "9dfe4acc0c7b5c1941bd0ca630e1ebfa", "type": "electric_scooter", "lon": -76.99633783333333, "rental_uris": {"android": "https://dc.lft.to/lastmile_qr_scan", "ios": "https://dc.lft.to/lastmile_qr_scan"}, "lat": 38.88607483333333, "is_reserved": 0, "is_disabled": 0, "fusion_lat": 0.0}, {"fusion_lon": 0.0, "bike_id": "a8a15b60ca9d9727b49902d845528e6f", "name": "a8a15b60ca9d9727b49902d845528e6f", "type": "electric_scooter", "lon": -77.03763883333333, "rental_uris": {"android": "https://dc.lft.to/lastmile_qr_scan", "ios": "https://dc.lft.to/lastmile_qr_scan"}, "lat": 38.903547833333334, "is_reserved": 0, "is_disabled": 0, "fusion_lat": 0.0}, {"fusion_lon": 0.0, "bike_id": "a8aa69ccb8774d615aba935e5e00fcdf", "name": "a8aa69ccb8774d615aba935e5e00fcdf", "type": "electric_scooter", "lon": -76.9898505, "rental_uris": {"android": "https://dc.lft.to/lastmile_qr_scan", "ios": "https://dc.lft.to/lastmile_qr_scan"}, "lat": 38.90608116666667, "is_reserved": 0, "is_disabled": 0, "fusion_lat": 0.0}, {"fusion_lon": 0.0, "bike_id": "0c15648ea7b4285a38f0e72296b84217", "name": "0c15648ea7b4285a38f0e72296b84217", "type": "electric_scooter", "lon": -76.99016, "rental_uris": {"android": "https://dc.lft.to/lastmile_qr_scan", "ios": "https://dc.lft.to/lastmile_qr_scan"}, "lat": 38.905021833333336, "is_reserved": 0, "is_disabled": 0, "fusion_lat": 0.0}, {"fusion_lon": 0.0, "bike_id": "5b4111caab01c2b06a0040dc6bc9690d", "name": "5b4111caab01c2b06a0040dc6bc9690d", "type": "electric_scooter", "lon": -77.04241916666666, "rental_uris": {"android": "https://dc.lft.to/lastmile_qr_scan", "ios": "https://dc.lft.to/lastmile_qr_scan"}, "lat": 38.922217333333336, "is_reserved": 0, "is_disabled": 0, "fusion_lat": 0.0}, {"fusion_lon": 0.0, "bike_id": "73741e0a053137ed494049695fbcbeaa", "name": "73741e0a053137ed494049695fbcbeaa", "type": "electric_scooter", "lon": -77.03644383333334, "rental_uris": {"android": "https://dc.lft.to/lastmile_qr_scan", "ios": "https://dc.lft.to/lastmile_qr_scan"}, "lat": 38.918407333333334, "is_reserved": 0, "is_disabled": 0, "fusion_lat": 0.0}, {"fusion_lon": 0.0, "bike_id": "799e08cee23d994d07e1a09d05509ed6", "name": "799e08cee23d994d07e1a09d05509ed6", "type": "electric_scooter", "lon": -77.0551795, "rental_uris": {"android": "https://dc.lft.to/lastmile_qr_scan", "ios": "https://dc.lft.to/lastmile_qr_scan"}, "lat": 38.91060783333333, "is_reserved": 0, "is_disabled": 0, "fusion_lat": 0.0}, {"fusion_lon": 0.0, "bike_id": "f56771eb885723a9bc4d98018c0d2dcc", "name": "f56771eb885723a9bc4d98018c0d2dcc", "type": "electric_scooter", "lon": -76.99732683333333, "rental_uris": {"android": "https://dc.lft.to/lastmile_qr_scan", "ios": "https://dc.lft.to/lastmile_qr_scan"}, "lat": 38.90792183333333, "is_reserved": 0, "is_disabled": 0, "fusion_lat": 0.0}, {"fusion_lon": 0.0, "bike_id": "35826ee0867f0985dcee94cc37dda4b2", "name": "35826ee0867f0985dcee94cc37dda4b2", "type": "electric_bike", "lon": -76.997661, "rental_uris": {"android": "https://dc.lft.to/lastmile_qr_scan", "ios": "https://dc.lft.to/lastmile_qr_scan"}, "lat": 39.00595533333333, "is_reserved": 0, "is_disabled": 0, "fusion_lat": 0.0}, {"fusion_lon": 0.0, "bike_id": "b1522ffa923b1bd2f840684afd4799b0", "name": "b1522ffa923b1bd2f840684afd4799b0", "type": "electric_scooter", "lon": -77.02429583333333, "rental_uris": {"android": "https://dc.lft.to/lastmile_qr_scan", "ios": "https://dc.lft.to/lastmile_qr_scan"}, "lat": 38.912482, "is_reserved": 0, "is_disabled": 0, "fusion_lat": 0.0}, {"fusion_lon": 0.0, "bike_id": "2369f4108bbd78305733fdd7d5243216", "name": "2369f4108bbd78305733fdd7d5243216", "type": "electric_scooter", "lon": -76.98256, "rental_uris": {"android": "https://dc.lft.to/lastmile_qr_scan", "ios": "https://dc.lft.to/lastmile_qr_scan"}, "lat": 38.8635685, "is_reserved": 0, "is_disabled": 0, "fusion_lat": 0.0}, {"fusion_lon": 0.0, "bike_id": "6cecdb4e26a94bbb99bd11ac54b07e27", "name": "6cecdb4e26a94bbb99bd11ac54b07e27", "type": "electric_scooter", "lon": -76.99503183333333, "rental_uris": {"android": "https://dc.lft.to/lastmile_qr_scan", "ios": "https://dc.lft.to/lastmile_qr_scan"}, "lat": 38.894891, "is_reserved": 0, "is_disabled": 0, "fusion_lat": 0.0}, {"fusion_lon": 0.0, "bike_id": "a30ca4e34c99d9ad4df2ef2f9f5d9a22", "name": "a30ca4e34c99d9ad4df2ef2f9f5d9a22", "type": "electric_scooter", "lon": -77.06670233333334, "rental_uris": {"android": "https://dc.lft.to/lastmile_qr_scan", "ios": "https://dc.lft.to/lastmile_qr_scan"}, "lat": 38.94960183333333, "is_reserved": 0, "is_disabled": 0, "fusion_lat": 0.0}, {"fusion_lon": 0.0, "bike_id": "e457df010f557312e2b4339d40b96450", "name": "e457df010f557312e2b4339d40b96450", "type": "electric_scooter", "lon": -76.99775700000001, "rental_uris": {"android": "https://dc.lft.to/lastmile_qr_scan", "ios": "https://dc.lft.to/lastmile_qr_scan"}, "lat": 38.92277133333333, "is_reserved": 0, "is_disabled": 0, "fusion_lat": 0.0}, {"fusion_lon": 0.0, "bike_id": "4daa2d789f278c902883ab0a05fa403c", "name": "4daa2d789f278c902883ab0a05fa403c", "type": "electric_scooter", "lon": -77.02168916666666, "rental_uris": {"android": "https://dc.lft.to/lastmile_qr_scan", "ios": "https://dc.lft.to/lastmile_qr_scan"}, "lat": 38.91979533333333, "is_reserved": 0, "is_disabled": 0, "fusion_lat": 0.0}, {"fusion_lon": 0.0, "bike_id": "1aa4ee79e2b3fb4d3cb2b9d2a708ee95", "name": "1aa4ee79e2b3fb4d3cb2b9d2a708ee95", "type": "electric_scooter", "lon": -77.0134735, "rental_uris": {"android": "https://dc.lft.to/lastmile_qr_scan", "ios": "https://dc.lft.to/lastmile_qr_scan"}, "lat": 38.907249666666665, "is_reserved": 0, "is_disabled": 0, "fusion_lat": 0.0}, {"fusion_lon": 0.0, "bike_id": "f7aa0e6d256cf93c2b05b854c717ec7a", "name": "f7aa0e6d256cf93c2b05b854c717ec7a", "type": "electric_scooter", "lon": -76.98269716666667, "rental_uris": {"android": "https://dc.lft.to/lastmile_qr_scan", "ios": "https://dc.lft.to/lastmile_qr_scan"}, "lat": 38.885332166666664, "is_reserved": 0, "is_disabled": 0, "fusion_lat": 0.0}, {"fusion_lon": 0.0, "bike_id": "18032cb3bb31b1f484d7bbabc0c095f4", "name": "18032cb3bb31b1f484d7bbabc0c095f4", "type": "electric_scooter", "lon": -77.04771433333333, "rental_uris": {"android": "https://dc.lft.to/lastmile_qr_scan", "ios": "https://dc.lft.to/lastmile_qr_scan"}, "lat": 38.902254, "is_reserved": 0, "is_disabled": 0, "fusion_lat": 0.0}, {"fusion_lon": 0.0, "bike_id": "c895f68b81c65b309f7de8ce1fd99b02", "name": "c895f68b81c65b309f7de8ce1fd99b02", "type": "electric_bike", "lon": -77.11429483333333, "rental_uris": {"android": "https://dc.lft.to/lastmile_qr_scan", "ios": "https://dc.lft.to/lastmile_qr_scan"}, "lat": 38.85245416666667, "is_reserved": 0, "is_disabled": 0, "fusion_lat": 0.0}, {"fusion_lon": 0.0, "bike_id": "b68ef13362095c435c736d263cc1af45", "name": "b68ef13362095c435c736d263cc1af45", "type": "electric_scooter", "lon": -77.01883266666667, "rental_uris": {"android": "https://dc.lft.to/lastmile_qr_scan", "ios": "https://dc.lft.to/lastmile_qr_scan"}, "lat": 38.94641166666667, "is_reserved": 0, "is_disabled": 0, "fusion_lat": 0.0}, {"fusion_lon": 0.0, "bike_id": "f380a37480c1bc3c0ea9d948b0bb8460", "name": "f380a37480c1bc3c0ea9d948b0bb8460", "type": "electric_scooter", "lon": -77.03209633333333, "rental_uris": {"android": "https://dc.lft.to/lastmile_qr_scan", "ios": "https://dc.lft.to/lastmile_qr_scan"}, "lat": 38.92582266666667, "is_reserved": 0, "is_disabled": 0, "fusion_lat": 0.0}, {"fusion_lon": 0.0, "bike_id": "0e430af5ef8b97f8dc61e83bde74ef7a", "name": "0e430af5ef8b97f8dc61e83bde74ef7a", "type": "electric_bike", "lon": -77.05622933333333, "rental_uris": {"android": "https://dc.lft.to/lastmile_qr_scan", "ios": "https://dc.lft.to/lastmile_qr_scan"}, "lat": 38.85726733333333, "is_reserved": 0, "is_disabled": 0, "fusion_lat": 0.0}, {"fusion_lon": 0.0, "bike_id": "7faf8f9d148932c0686a0f6176ea47e5", "name": "7faf8f9d148932c0686a0f6176ea47e5", "type": "electric_scooter", "lon": -77.04385433333333, "rental_uris": {"android": "https://dc.lft.to/lastmile_qr_scan", "ios": "https://dc.lft.to/lastmile_qr_scan"}, "lat": 38.90225266666667, "is_reserved": 0, "is_disabled": 0, "fusion_lat": 0.0}, {"fusion_lon": 0.0, "bike_id": "ee22347431b3553e52e067bbc07dbc42", "name": "ee22347431b3553e52e067bbc07dbc42", "type": "electric_bike", "lon": -77.107304, "rental_uris": {"android": "https://dc.lft.to/lastmile_qr_scan", "ios": "https://dc.lft.to/lastmile_qr_scan"}, "lat": 38.85542316666667, "is_reserved": 0, "is_disabled": 0, "fusion_lat": 0.0}, {"fusion_lon": 0.0, "bike_id": "c8c5693ccd56941377894c2cfc632365", "name": "c8c5693ccd56941377894c2cfc632365", "type": "electric_scooter", "lon": -77.03873666666667, "rental_uris": {"android": "https://dc.lft.to/lastmile_qr_scan", "ios": "https://dc.lft.to/lastmile_qr_scan"}, "lat": 38.934289166666666, "is_reserved": 0, "is_disabled": 0, "fusion_lat": 0.0}, {"fusion_lon": 0.0, "bike_id": "c8b12312a5f2067cc99ea5a02354996e", "name": "c8b12312a5f2067cc99ea5a02354996e", "type": "electric_scooter", "lon": -77.04450166666666, "rental_uris": {"android": "https://dc.lft.to/lastmile_qr_scan", "ios": "https://dc.lft.to/lastmile_qr_scan"}, "lat": 38.909894666666666, "is_reserved": 0, "is_disabled": 0, "fusion_lat": 0.0}, {"fusion_lon": 0.0, "bike_id": "ae8fc0fd14be4dc1bd08b343c31438a4", "name": "ae8fc0fd14be4dc1bd08b343c31438a4", "type": "electric_scooter", "lon": -77.06363383333333, "rental_uris": {"android": "https://dc.lft.to/lastmile_qr_scan", "ios": "https://dc.lft.to/lastmile_qr_scan"}, "lat": 38.944152833333334, "is_reserved": 0, "is_disabled": 0, "fusion_lat": 0.0}, {"fusion_lon": 0.0, "bike_id": "d8e6e69106c6379ac8f7e0289ef50282", "name": "d8e6e69106c6379ac8f7e0289ef50282", "type": "electric_scooter", "lon": -77.03934, "rental_uris": {"android": "https://dc.lft.to/lastmile_qr_scan", "ios": "https://dc.lft.to/lastmile_qr_scan"}, "lat": 38.92495616666667, "is_reserved": 0, "is_disabled": 0, "fusion_lat": 0.0}, {"fusion_lon": 0.0, "bike_id": "02423013883789e820e37b58ef3ca57e", "name": "02423013883789e820e37b58ef3ca57e", "type": "electric_bike", "lon": -77.05112066666666, "rental_uris": {"android": "https://dc.lft.to/lastmile_qr_scan", "ios": "https://dc.lft.to/lastmile_qr_scan"}, "lat": 38.945577, "is_reserved": 0, "is_disabled": 0, "fusion_lat": 0.0}, {"fusion_lon": 0.0, "bike_id": "10728241ecfc1231333a1854b6288a46", "name": "10728241ecfc1231333a1854b6288a46", "type": "electric_scooter", "lon": -76.96435366666667, "rental_uris": {"android": "https://dc.lft.to/lastmile_qr_scan", "ios": "https://dc.lft.to/lastmile_qr_scan"}, "lat": 38.934646, "is_reserved": 0, "is_disabled": 0, "fusion_lat": 0.0}, {"fusion_lon": 0.0, "bike_id": "7253fe18fc11ad1c021ee2a692f68dee", "name": "7253fe18fc11ad1c021ee2a692f68dee", "type": "electric_scooter", "lon": -77.02637816666666, "rental_uris": {"android": "https://dc.lft.to/lastmile_qr_scan", "ios": "https://dc.lft.to/lastmile_qr_scan"}, "lat": 38.98056833333333, "is_reserved": 0, "is_disabled": 0, "fusion_lat": 0.0}, {"fusion_lon": 0.0, "bike_id": "017f07fff1c61fa075f873304bc8141b", "name": "017f07fff1c61fa075f873304bc8141b", "type": "electric_scooter", "lon": -77.01559, "rental_uris": {"android": "https://dc.lft.to/lastmile_qr_scan", "ios": "https://dc.lft.to/lastmile_qr_scan"}, "lat": 38.891727333333336, "is_reserved": 0, "is_disabled": 0, "fusion_lat": 0.0}, {"fusion_lon": 0.0, "bike_id": "5ac5591d7c6a5ae30bd4477a09f54dc7", "name": "5ac5591d7c6a5ae30bd4477a09f54dc7", "type": "electric_bike", "lon": -76.94569866666667, "rental_uris": {"android": "https://dc.lft.to/lastmile_qr_scan", "ios": "https://dc.lft.to/lastmile_qr_scan"}, "lat": 38.86624233333333, "is_reserved": 0, "is_disabled": 0, "fusion_lat": 0.0}, {"fusion_lon": 0.0, "bike_id": "b698117ddcacd5c52203bec523aa4708", "name": "b698117ddcacd5c52203bec523aa4708", "type": "electric_scooter", "lon": -77.00057683333333, "rental_uris": {"android": "https://dc.lft.to/lastmile_qr_scan", "ios": "https://dc.lft.to/lastmile_qr_scan"}, "lat": 38.8889775, "is_reserved": 0, "is_disabled": 0, "fusion_lat": 0.0}, {"fusion_lon": 0.0, "bike_id": "956355e72badfe57045297e4518720a3", "name": "956355e72badfe57045297e4518720a3", "type": "electric_scooter", "lon": -76.9968055, "rental_uris": {"android": "https://dc.lft.to/lastmile_qr_scan", "ios": "https://dc.lft.to/lastmile_qr_scan"}, "lat": 38.887002, "is_reserved": 0, "is_disabled": 0, "fusion_lat": 0.0}, {"fusion_lon": 0.0, "bike_id": "6ed61744ec1b0f5f10ac79dd6dff4d42", "name": "6ed61744ec1b0f5f10ac79dd6dff4d42", "type": "electric_scooter", "lon": -77.02608566666666, "rental_uris": {"android": "https://dc.lft.to/lastmile_qr_scan", "ios": "https://dc.lft.to/lastmile_qr_scan"}, "lat": 38.92442283333333, "is_reserved": 0, "is_disabled": 0, "fusion_lat": 0.0}, {"fusion_lon": 0.0, "bike_id": "9ecbe27a3bdb5d62ee9009b01fb1b0f1", "name": "9ecbe27a3bdb5d62ee9009b01fb1b0f1", "type": "electric_scooter", "lon": -77.06213, "rental_uris": {"android": "https://dc.lft.to/lastmile_qr_scan", "ios": "https://dc.lft.to/lastmile_qr_scan"}, "lat": 38.90525816666667, "is_reserved": 0, "is_disabled": 0, "fusion_lat": 0.0}, {"fusion_lon": 0.0, "bike_id": "1696283d70eb7382ae08badcccd96d43", "name": "1696283d70eb7382ae08badcccd96d43", "type": "electric_scooter", "lon": -77.0310395, "rental_uris": {"android": "https://dc.lft.to/lastmile_qr_scan", "ios": "https://dc.lft.to/lastmile_qr_scan"}, "lat": 38.929767166666664, "is_reserved": 0, "is_disabled": 0, "fusion_lat": 0.0}, {"fusion_lon": 0.0, "bike_id": "b21c114bfc156b9f40835f237ea86b1d", "name": "b21c114bfc156b9f40835f237ea86b1d", "type": "electric_scooter", "lon": -77.03200116666666, "rental_uris": {"android": "https://dc.lft.to/lastmile_qr_scan", "ios": "https://dc.lft.to/lastmile_qr_scan"}, "lat": 38.91855283333334, "is_reserved": 0, "is_disabled": 0, "fusion_lat": 0.0}, {"fusion_lon": 0.0, "bike_id": "125c6fc2afbcd74ac657e06709ec9838", "name": "125c6fc2afbcd74ac657e06709ec9838", "type": "electric_scooter", "lon": -77.06887533333334, "rental_uris": {"android": "https://dc.lft.to/lastmile_qr_scan", "ios": "https://dc.lft.to/lastmile_qr_scan"}, "lat": 38.905104666666666, "is_reserved": 0, "is_disabled": 0, "fusion_lat": 0.0}, {"fusion_lon": 0.0, "bike_id": "95df9f2fe05f52c195dd163d1442424b", "name": "95df9f2fe05f52c195dd163d1442424b", "type": "electric_scooter", "lon": -76.96524883333333, "rental_uris": {"android": "https://dc.lft.to/lastmile_qr_scan", "ios": "https://dc.lft.to/lastmile_qr_scan"}, "lat": 38.87625966666667, "is_reserved": 0, "is_disabled": 0, "fusion_lat": 0.0}, {"fusion_lon": 0.0, "bike_id": "e547da309e943d02cfeae606897fa959", "name": "e547da309e943d02cfeae606897fa959", "type": "electric_scooter", "lon": -77.0399845, "rental_uris": {"android": "https://dc.lft.to/lastmile_qr_scan", "ios": "https://dc.lft.to/lastmile_qr_scan"}, "lat": 38.9243215, "is_reserved": 0, "is_disabled": 0, "fusion_lat": 0.0}, {"fusion_lon": 0.0, "bike_id": "053b99251447a19b305436b22b26edd5", "name": "053b99251447a19b305436b22b26edd5", "type": "electric_bike", "lon": -76.932022, "rental_uris": {"android": "https://dc.lft.to/lastmile_qr_scan", "ios": "https://dc.lft.to/lastmile_qr_scan"}, "lat": 38.872343, "is_reserved": 0, "is_disabled": 0, "fusion_lat": 0.0}, {"fusion_lon": 0.0, "bike_id": "281d21817ff837436dc4c34e572b31de", "name": "281d21817ff837436dc4c34e572b31de", "type": "electric_bike", "lon": -77.09960233333334, "rental_uris": {"android": "https://dc.lft.to/lastmile_qr_scan", "ios": "https://dc.lft.to/lastmile_qr_scan"}, "lat": 38.85789283333333, "is_reserved": 0, "is_disabled": 0, "fusion_lat": 0.0}, {"fusion_lon": 0.0, "bike_id": "6529bc49946dc7ec3fa10ab00b4d9a86", "name": "6529bc49946dc7ec3fa10ab00b4d9a86", "type": "electric_scooter", "lon": -77.02161433333333, "rental_uris": {"android": "https://dc.lft.to/lastmile_qr_scan", "ios": "https://dc.lft.to/lastmile_qr_scan"}, "lat": 38.92614433333333, "is_reserved": 0, "is_disabled": 0, "fusion_lat": 0.0}, {"fusion_lon": 0.0, "bike_id": "a9698f6e463a581fb9360b4d9dd0019e", "name": "a9698f6e463a581fb9360b4d9dd0019e", "type": "electric_scooter", "lon": -77.03836433333333, "rental_uris": {"android": "https://dc.lft.to/lastmile_qr_scan", "ios": "https://dc.lft.to/lastmile_qr_scan"}, "lat": 38.90321316666667, "is_reserved": 0, "is_disabled": 0, "fusion_lat": 0.0}, {"fusion_lon": 0.0, "bike_id": "a4c94e0637fbf2e2a6add015da298612", "name": "a4c94e0637fbf2e2a6add015da298612", "type": "electric_scooter", "lon": -77.03153266666666, "rental_uris": {"android": "https://dc.lft.to/lastmile_qr_scan", "ios": "https://dc.lft.to/lastmile_qr_scan"}, "lat": 38.8830665, "is_reserved": 0, "is_disabled": 0, "fusion_lat": 0.0}, {"fusion_lon": 0.0, "bike_id": "8a2bbf96897096d785dc1025fb8871c2", "name": "8a2bbf96897096d785dc1025fb8871c2", "type": "electric_scooter", "lon": -77.0292415, "rental_uris": {"android": "https://dc.lft.to/lastmile_qr_scan", "ios": "https://dc.lft.to/lastmile_qr_scan"}, "lat": 38.898112, "is_reserved": 0, "is_disabled": 0, "fusion_lat": 0.0}, {"fusion_lon": 0.0, "bike_id": "79a9b2fe003e6725215cc7dd8488e763", "name": "79a9b2fe003e6725215cc7dd8488e763", "type": "electric_scooter", "lon": -77.07658933333333, "rental_uris": {"android": "https://dc.lft.to/lastmile_qr_scan", "ios": "https://dc.lft.to/lastmile_qr_scan"}, "lat": 38.910821, "is_reserved": 0, "is_disabled": 0, "fusion_lat": 0.0}, {"fusion_lon": 0.0, "bike_id": "26f62a702baffb072a13050ce01c6e4b", "name": "26f62a702baffb072a13050ce01c6e4b", "type": "electric_scooter", "lon": -77.03165, "rental_uris": {"android": "https://dc.lft.to/lastmile_qr_scan", "ios": "https://dc.lft.to/lastmile_qr_scan"}, "lat": 38.90229983333333, "is_reserved": 0, "is_disabled": 0, "fusion_lat": 0.0}, {"fusion_lon": 0.0, "bike_id": "18e0abf03850a44a81c403147eb44d40", "name": "18e0abf03850a44a81c403147eb44d40", "type": "electric_scooter", "lon": -77.037601, "rental_uris": {"android": "https://dc.lft.to/lastmile_qr_scan", "ios": "https://dc.lft.to/lastmile_qr_scan"}, "lat": 38.916920833333336, "is_reserved": 0, "is_disabled": 0, "fusion_lat": 0.0}, {"fusion_lon": 0.0, "bike_id": "3b301cb42bbb1647998dfcf7cf52b4f4", "name": "3b301cb42bbb1647998dfcf7cf52b4f4", "type": "electric_scooter", "lon": -77.03183016666667, "rental_uris": {"android": "https://dc.lft.to/lastmile_qr_scan", "ios": "https://dc.lft.to/lastmile_qr_scan"}, "lat": 38.899896, "is_reserved": 0, "is_disabled": 0, "fusion_lat": 0.0}, {"fusion_lon": 0.0, "bike_id": "35a3fb39ca1647d24aacbf8bb1820b8f", "name": "35a3fb39ca1647d24aacbf8bb1820b8f", "type": "electric_scooter", "lon": -77.03862933333333, "rental_uris": {"android": "https://dc.lft.to/lastmile_qr_scan", "ios": "https://dc.lft.to/lastmile_qr_scan"}, "lat": 38.905811166666666, "is_reserved": 0, "is_disabled": 0, "fusion_lat": 0.0}, {"fusion_lon": 0.0, "bike_id": "2b66d6d0671f0b9466c41d732920865d", "name": "2b66d6d0671f0b9466c41d732920865d", "type": "electric_scooter", "lon": -76.94201066666666, "rental_uris": {"android": "https://dc.lft.to/lastmile_qr_scan", "ios": "https://dc.lft.to/lastmile_qr_scan"}, "lat": 38.893731, "is_reserved": 0, "is_disabled": 0, "fusion_lat": 0.0}, {"fusion_lon": 0.0, "bike_id": "1372154caa738ee792e5b24a24320891", "name": "1372154caa738ee792e5b24a24320891", "type": "electric_scooter", "lon": -77.05129633333334, "rental_uris": {"android": "https://dc.lft.to/lastmile_qr_scan", "ios": "https://dc.lft.to/lastmile_qr_scan"}, "lat": 38.923601, "is_reserved": 0, "is_disabled": 0, "fusion_lat": 0.0}, {"fusion_lon": 0.0, "bike_id": "2d970c1a08b49ee6829805f85a6de234", "name": "2d970c1a08b49ee6829805f85a6de234", "type": "electric_scooter", "lon": -77.0057695, "rental_uris": {"android": "https://dc.lft.to/lastmile_qr_scan", "ios": "https://dc.lft.to/lastmile_qr_scan"}, "lat": 38.87648733333333, "is_reserved": 0, "is_disabled": 0, "fusion_lat": 0.0}, {"fusion_lon": 0.0, "bike_id": "ac75577ddfffd89896cf8fb57cc5eda1", "name": "ac75577ddfffd89896cf8fb57cc5eda1", "type": "electric_scooter", "lon": -77.03192016666667, "rental_uris": {"android": "https://dc.lft.to/lastmile_qr_scan", "ios": "https://dc.lft.to/lastmile_qr_scan"}, "lat": 38.907724333333334, "is_reserved": 0, "is_disabled": 0, "fusion_lat": 0.0}, {"fusion_lon": 0.0, "bike_id": "512fb8d66d6f9e4a714594bb49a38b7e", "name": "512fb8d66d6f9e4a714594bb49a38b7e", "type": "electric_scooter", "lon": -76.9483815, "rental_uris": {"android": "https://dc.lft.to/lastmile_qr_scan", "ios": "https://dc.lft.to/lastmile_qr_scan"}, "lat": 38.89484433333333, "is_reserved": 0, "is_disabled": 0, "fusion_lat": 0.0}, {"fusion_lon": 0.0, "bike_id": "a0ac3bcddfd0ddc1135a0df851d420b6", "name": "a0ac3bcddfd0ddc1135a0df851d420b6", "type": "electric_bike", "lon": -77.02626683333334, "rental_uris": {"android": "https://dc.lft.to/lastmile_qr_scan", "ios": "https://dc.lft.to/lastmile_qr_scan"}, "lat": 38.962209, "is_reserved": 0, "is_disabled": 0, "fusion_lat": 0.0}, {"fusion_lon": 0.0, "bike_id": "7631d461afee740fc447789642c5acc2", "name": "7631d461afee740fc447789642c5acc2", "type": "electric_scooter", "lon": -77.03704383333333, "rental_uris": {"android": "https://dc.lft.to/lastmile_qr_scan", "ios": "https://dc.lft.to/lastmile_qr_scan"}, "lat": 38.926435166666664, "is_reserved": 0, "is_disabled": 0, "fusion_lat": 0.0}, {"fusion_lon": 0.0, "bike_id": "6eb02bb74166ec27e1d4ced319f2dc70", "name": "6eb02bb74166ec27e1d4ced319f2dc70", "type": "electric_scooter", "lon": -77.0338815, "rental_uris": {"android": "https://dc.lft.to/lastmile_qr_scan", "ios": "https://dc.lft.to/lastmile_qr_scan"}, "lat": 38.8865885, "is_reserved": 0, "is_disabled": 0, "fusion_lat": 0.0}, {"fusion_lon": 0.0, "bike_id": "955c107e3406ddeb02188fca377bf62f", "name": "955c107e3406ddeb02188fca377bf62f", "type": "electric_bike", "lon": -77.0852535, "rental_uris": {"android": "https://dc.lft.to/lastmile_qr_scan", "ios": "https://dc.lft.to/lastmile_qr_scan"}, "lat": 38.856488666666664, "is_reserved": 0, "is_disabled": 0, "fusion_lat": 0.0}, {"fusion_lon": 0.0, "bike_id": "ed96b31f9aec5067174ddcef64615b88", "name": "ed96b31f9aec5067174ddcef64615b88", "type": "electric_scooter", "lon": -77.01110116666666, "rental_uris": {"android": "https://dc.lft.to/lastmile_qr_scan", "ios": "https://dc.lft.to/lastmile_qr_scan"}, "lat": 38.903577, "is_reserved": 0, "is_disabled": 0, "fusion_lat": 0.0}, {"fusion_lon": 0.0, "bike_id": "3f7d3b61a5fc16afa6fc0812056bcbab", "name": "3f7d3b61a5fc16afa6fc0812056bcbab", "type": "electric_scooter", "lon": -77.04839333333334, "rental_uris": {"android": "https://dc.lft.to/lastmile_qr_scan", "ios": "https://dc.lft.to/lastmile_qr_scan"}, "lat": 38.91334466666667, "is_reserved": 0, "is_disabled": 0, "fusion_lat": 0.0}, {"fusion_lon": 0.0, "bike_id": "a8022323a12b58718d4bd52c91dc8e22", "name": "a8022323a12b58718d4bd52c91dc8e22", "type": "electric_scooter", "lon": -77.00337383333333, "rental_uris": {"android": "https://dc.lft.to/lastmile_qr_scan", "ios": "https://dc.lft.to/lastmile_qr_scan"}, "lat": 38.893557333333334, "is_reserved": 0, "is_disabled": 0, "fusion_lat": 0.0}, {"fusion_lon": 0.0, "bike_id": "db7088466a77591fb648eacea851cdab", "name": "db7088466a77591fb648eacea851cdab", "type": "electric_scooter", "lon": -77.04484133333334, "rental_uris": {"android": "https://dc.lft.to/lastmile_qr_scan", "ios": "https://dc.lft.to/lastmile_qr_scan"}, "lat": 38.912740166666666, "is_reserved": 0, "is_disabled": 0, "fusion_lat": 0.0}, {"fusion_lon": 0.0, "bike_id": "b928fd98862bd7818f26c81bae021dea", "name": "b928fd98862bd7818f26c81bae021dea", "type": "electric_bike", "lon": -77.04471533333333, "rental_uris": {"android": "https://dc.lft.to/lastmile_qr_scan", "ios": "https://dc.lft.to/lastmile_qr_scan"}, "lat": 38.903403, "is_reserved": 0, "is_disabled": 0, "fusion_lat": 0.0}, {"fusion_lon": 0.0, "bike_id": "8fc533b711b48075e2abb095867c10a9", "name": "8fc533b711b48075e2abb095867c10a9", "type": "electric_scooter", "lon": -77.04874466666666, "rental_uris": {"android": "https://dc.lft.to/lastmile_qr_scan", "ios": "https://dc.lft.to/lastmile_qr_scan"}, "lat": 38.892321, "is_reserved": 0, "is_disabled": 0, "fusion_lat": 0.0}, {"fusion_lon": 0.0, "bike_id": "43c5ad450c2376dd6bf0668007af0172", "name": "43c5ad450c2376dd6bf0668007af0172", "type": "electric_scooter", "lon": -76.99491633333334, "rental_uris": {"android": "https://dc.lft.to/lastmile_qr_scan", "ios": "https://dc.lft.to/lastmile_qr_scan"}, "lat": 38.842171666666665, "is_reserved": 0, "is_disabled": 0, "fusion_lat": 0.0}, {"fusion_lon": 0.0, "bike_id": "9b00f105fc620cd315b5b036ff72fb8d", "name": "9b00f105fc620cd315b5b036ff72fb8d", "type": "electric_scooter", "lon": -77.020451, "rental_uris": {"android": "https://dc.lft.to/lastmile_qr_scan", "ios": "https://dc.lft.to/lastmile_qr_scan"}, "lat": 38.915522833333334, "is_reserved": 0, "is_disabled": 0, "fusion_lat": 0.0}, {"fusion_lon": 0.0, "bike_id": "1957cce8d233cc8a68ae080bc101c1af", "name": "1957cce8d233cc8a68ae080bc101c1af", "type": "electric_scooter", "lon": -77.0434415, "rental_uris": {"android": "https://dc.lft.to/lastmile_qr_scan", "ios": "https://dc.lft.to/lastmile_qr_scan"}, "lat": 38.904599833333336, "is_reserved": 0, "is_disabled": 0, "fusion_lat": 0.0}, {"fusion_lon": 0.0, "bike_id": "6bec54d116308937847950299dde1e3a", "name": "6bec54d116308937847950299dde1e3a", "type": "electric_bike", "lon": -77.02718666666667, "rental_uris": {"android": "https://dc.lft.to/lastmile_qr_scan", "ios": "https://dc.lft.to/lastmile_qr_scan"}, "lat": 38.981903, "is_reserved": 0, "is_disabled": 0, "fusion_lat": 0.0}, {"fusion_lon": 0.0, "bike_id": "a419a806292b0777eeadf743ec0ede1f", "name": "a419a806292b0777eeadf743ec0ede1f", "type": "electric_scooter", "lon": -77.06534466666666, "rental_uris": {"android": "https://dc.lft.to/lastmile_qr_scan", "ios": "https://dc.lft.to/lastmile_qr_scan"}, "lat": 38.950697166666664, "is_reserved": 0, "is_disabled": 0, "fusion_lat": 0.0}, {"fusion_lon": 0.0, "bike_id": "4ccada93fdfcd8ab61b6705c59fe9a72", "name": "4ccada93fdfcd8ab61b6705c59fe9a72", "type": "electric_scooter", "lon": -76.9888735, "rental_uris": {"android": "https://dc.lft.to/lastmile_qr_scan", "ios": "https://dc.lft.to/lastmile_qr_scan"}, "lat": 38.866759333333334, "is_reserved": 0, "is_disabled": 0, "fusion_lat": 0.0}, {"fusion_lon": 0.0, "bike_id": "260941826aefb56f3763492b85df03b4", "name": "260941826aefb56f3763492b85df03b4", "type": "electric_scooter", "lon": -77.00297616666667, "rental_uris": {"android": "https://dc.lft.to/lastmile_qr_scan", "ios": "https://dc.lft.to/lastmile_qr_scan"}, "lat": 38.89200483333333, "is_reserved": 0, "is_disabled": 0, "fusion_lat": 0.0}, {"fusion_lon": 0.0, "bike_id": "6fa86de56037a1d8eb5a83ced904f0ff", "name": "6fa86de56037a1d8eb5a83ced904f0ff", "type": "electric_bike", "lon": -77.178036, "rental_uris": {"android": "https://dc.lft.to/lastmile_qr_scan", "ios": "https://dc.lft.to/lastmile_qr_scan"}, "lat": 39.088427333333335, "is_reserved": 0, "is_disabled": 0, "fusion_lat": 0.0}, {"fusion_lon": 0.0, "bike_id": "8c7f4cacb09466ee4adcc198e6587308", "name": "8c7f4cacb09466ee4adcc198e6587308", "type": "electric_scooter", "lon": -77.07258183333333, "rental_uris": {"android": "https://dc.lft.to/lastmile_qr_scan", "ios": "https://dc.lft.to/lastmile_qr_scan"}, "lat": 38.907864833333335, "is_reserved": 0, "is_disabled": 0, "fusion_lat": 0.0}, {"fusion_lon": 0.0, "bike_id": "6550f27699f9c3125e956909160d5b43", "name": "6550f27699f9c3125e956909160d5b43", "type": "electric_scooter", "lon": -76.99502683333333, "rental_uris": {"android": "https://dc.lft.to/lastmile_qr_scan", "ios": "https://dc.lft.to/lastmile_qr_scan"}, "lat": 38.88587066666667, "is_reserved": 0, "is_disabled": 0, "fusion_lat": 0.0}, {"fusion_lon": 0.0, "bike_id": "dd0af0b1b0ee8494300aa25004f5eeb8", "name": "dd0af0b1b0ee8494300aa25004f5eeb8", "type": "electric_scooter", "lon": -77.02602783333333, "rental_uris": {"android": "https://dc.lft.to/lastmile_qr_scan", "ios": "https://dc.lft.to/lastmile_qr_scan"}, "lat": 38.916919, "is_reserved": 0, "is_disabled": 0, "fusion_lat": 0.0}, {"fusion_lon": 0.0, "bike_id": "71e435f611be74fe3a1939ec2a4b00ea", "name": "71e435f611be74fe3a1939ec2a4b00ea", "type": "electric_scooter", "lon": -77.03183383333334, "rental_uris": {"android": "https://dc.lft.to/lastmile_qr_scan", "ios": "https://dc.lft.to/lastmile_qr_scan"}, "lat": 38.911714, "is_reserved": 0, "is_disabled": 0, "fusion_lat": 0.0}, {"fusion_lon": 0.0, "bike_id": "73e82f1e48114cba2c31c8fb7260299e", "name": "73e82f1e48114cba2c31c8fb7260299e", "type": "electric_scooter", "lon": -77.00815383333334, "rental_uris": {"android": "https://dc.lft.to/lastmile_qr_scan", "ios": "https://dc.lft.to/lastmile_qr_scan"}, "lat": 38.91565533333333, "is_reserved": 0, "is_disabled": 0, "fusion_lat": 0.0}, {"fusion_lon": 0.0, "bike_id": "ac6895acbfafddaf7d50db2ec26287ec", "name": "ac6895acbfafddaf7d50db2ec26287ec", "type": "electric_scooter", "lon": -77.00244733333334, "rental_uris": {"android": "https://dc.lft.to/lastmile_qr_scan", "ios": "https://dc.lft.to/lastmile_qr_scan"}, "lat": 38.880254, "is_reserved": 0, "is_disabled": 0, "fusion_lat": 0.0}, {"fusion_lon": 0.0, "bike_id": "efc4033a74837174342de48c92d7b9c0", "name": "efc4033a74837174342de48c92d7b9c0", "type": "electric_scooter", "lon": -77.06087183333334, "rental_uris": {"android": "https://dc.lft.to/lastmile_qr_scan", "ios": "https://dc.lft.to/lastmile_qr_scan"}, "lat": 38.943749333333336, "is_reserved": 0, "is_disabled": 0, "fusion_lat": 0.0}, {"fusion_lon": 0.0, "bike_id": "5ee20735d99b28e1050331fe92cf85a9", "name": "5ee20735d99b28e1050331fe92cf85a9", "type": "electric_scooter", "lon": -77.041682, "rental_uris": {"android": "https://dc.lft.to/lastmile_qr_scan", "ios": "https://dc.lft.to/lastmile_qr_scan"}, "lat": 38.9136005, "is_reserved": 0, "is_disabled": 0, "fusion_lat": 0.0}, {"fusion_lon": 0.0, "bike_id": "bdd5aa67d50a5d30f95cbe9240e270d7", "name": "bdd5aa67d50a5d30f95cbe9240e270d7", "type": "electric_scooter", "lon": -77.04686333333333, "rental_uris": {"android": "https://dc.lft.to/lastmile_qr_scan", "ios": "https://dc.lft.to/lastmile_qr_scan"}, "lat": 38.89508133333333, "is_reserved": 0, "is_disabled": 0, "fusion_lat": 0.0}, {"fusion_lon": 0.0, "bike_id": "d170f6f7621fe09b4c393e150f08c397", "name": "d170f6f7621fe09b4c393e150f08c397", "type": "electric_scooter", "lon": -77.01110583333333, "rental_uris": {"android": "https://dc.lft.to/lastmile_qr_scan", "ios": "https://dc.lft.to/lastmile_qr_scan"}, "lat": 38.8950885, "is_reserved": 0, "is_disabled": 0, "fusion_lat": 0.0}, {"fusion_lon": 0.0, "bike_id": "3bebe4efbcc6ba76fa1a9f5d524addb4", "name": "3bebe4efbcc6ba76fa1a9f5d524addb4", "type": "electric_scooter", "lon": -77.04022766666667, "rental_uris": {"android": "https://dc.lft.to/lastmile_qr_scan", "ios": "https://dc.lft.to/lastmile_qr_scan"}, "lat": 38.90018166666667, "is_reserved": 0, "is_disabled": 0, "fusion_lat": 0.0}, {"fusion_lon": 0.0, "bike_id": "c2ef02df84588ed3fa2a08a122f869a9", "name": "c2ef02df84588ed3fa2a08a122f869a9", "type": "electric_scooter", "lon": -77.04355683333333, "rental_uris": {"android": "https://dc.lft.to/lastmile_qr_scan", "ios": "https://dc.lft.to/lastmile_qr_scan"}, "lat": 38.907174499999996, "is_reserved": 0, "is_disabled": 0, "fusion_lat": 0.0}, {"fusion_lon": 0.0, "bike_id": "851b28d08812b098947380bf86057355", "name": "851b28d08812b098947380bf86057355", "type": "electric_scooter", "lon": -77.03054816666666, "rental_uris": {"android": "https://dc.lft.to/lastmile_qr_scan", "ios": "https://dc.lft.to/lastmile_qr_scan"}, "lat": 38.88412483333333, "is_reserved": 0, "is_disabled": 0, "fusion_lat": 0.0}, {"fusion_lon": 0.0, "bike_id": "e748a15e512800d3919fe80978f0381c", "name": "e748a15e512800d3919fe80978f0381c", "type": "electric_scooter", "lon": -77.04483766666667, "rental_uris": {"android": "https://dc.lft.to/lastmile_qr_scan", "ios": "https://dc.lft.to/lastmile_qr_scan"}, "lat": 38.90913833333333, "is_reserved": 0, "is_disabled": 0, "fusion_lat": 0.0}, {"fusion_lon": 0.0, "bike_id": "86759d47e28558ee08f0883f3aebab42", "name": "86759d47e28558ee08f0883f3aebab42", "type": "electric_scooter", "lon": -77.02029133333333, "rental_uris": {"android": "https://dc.lft.to/lastmile_qr_scan", "ios": "https://dc.lft.to/lastmile_qr_scan"}, "lat": 38.92452083333333, "is_reserved": 0, "is_disabled": 0, "fusion_lat": 0.0}, {"fusion_lon": 0.0, "bike_id": "f11796f355ac8dc2bd91f799751d1365", "name": "f11796f355ac8dc2bd91f799751d1365", "type": "electric_scooter", "lon": -77.027138, "rental_uris": {"android": "https://dc.lft.to/lastmile_qr_scan", "ios": "https://dc.lft.to/lastmile_qr_scan"}, "lat": 38.903369166666664, "is_reserved": 0, "is_disabled": 0, "fusion_lat": 0.0}, {"fusion_lon": 0.0, "bike_id": "786ed5a79c88379100cbcfc90e9dfb30", "name": "786ed5a79c88379100cbcfc90e9dfb30", "type": "electric_scooter", "lon": -77.01766183333334, "rental_uris": {"android": "https://dc.lft.to/lastmile_qr_scan", "ios": "https://dc.lft.to/lastmile_qr_scan"}, "lat": 38.88390916666667, "is_reserved": 0, "is_disabled": 0, "fusion_lat": 0.0}, {"fusion_lon": 0.0, "bike_id": "d074bfe5a4620fd047ad8438931fe154", "name": "d074bfe5a4620fd047ad8438931fe154", "type": "electric_scooter", "lon": -77.00327216666666, "rental_uris": {"android": "https://dc.lft.to/lastmile_qr_scan", "ios": "https://dc.lft.to/lastmile_qr_scan"}, "lat": 38.892188833333336, "is_reserved": 0, "is_disabled": 0, "fusion_lat": 0.0}, {"fusion_lon": 0.0, "bike_id": "421778b88be6679fe7f90475abec1344", "name": "421778b88be6679fe7f90475abec1344", "type": "electric_scooter", "lon": -77.01684283333333, "rental_uris": {"android": "https://dc.lft.to/lastmile_qr_scan", "ios": "https://dc.lft.to/lastmile_qr_scan"}, "lat": 38.883209666666666, "is_reserved": 0, "is_disabled": 0, "fusion_lat": 0.0}, {"fusion_lon": 0.0, "bike_id": "e369ad8f129b4ff84752452079ec0d1b", "name": "e369ad8f129b4ff84752452079ec0d1b", "type": "electric_scooter", "lon": -77.0418115, "rental_uris": {"android": "https://dc.lft.to/lastmile_qr_scan", "ios": "https://dc.lft.to/lastmile_qr_scan"}, "lat": 38.898529833333335, "is_reserved": 0, "is_disabled": 0, "fusion_lat": 0.0}, {"fusion_lon": 0.0, "bike_id": "cb0d9ec90915ab54fdbc78b3953707da", "name": "cb0d9ec90915ab54fdbc78b3953707da", "type": "electric_scooter", "lon": -77.07079533333334, "rental_uris": {"android": "https://dc.lft.to/lastmile_qr_scan", "ios": "https://dc.lft.to/lastmile_qr_scan"}, "lat": 38.93901483333333, "is_reserved": 0, "is_disabled": 0, "fusion_lat": 0.0}, {"fusion_lon": 0.0, "bike_id": "a3cab2d43cb706e00558e47eda35a250", "name": "a3cab2d43cb706e00558e47eda35a250", "type": "electric_scooter", "lon": -76.9951065, "rental_uris": {"android": "https://dc.lft.to/lastmile_qr_scan", "ios": "https://dc.lft.to/lastmile_qr_scan"}, "lat": 38.885866, "is_reserved": 0, "is_disabled": 0, "fusion_lat": 0.0}, {"fusion_lon": 0.0, "bike_id": "8a1527ddd5e2393b0ec4d8e2e7886c96", "name": "8a1527ddd5e2393b0ec4d8e2e7886c96", "type": "electric_scooter", "lon": -77.0449685, "rental_uris": {"android": "https://dc.lft.to/lastmile_qr_scan", "ios": "https://dc.lft.to/lastmile_qr_scan"}, "lat": 38.903716333333335, "is_reserved": 0, "is_disabled": 0, "fusion_lat": 0.0}, {"fusion_lon": 0.0, "bike_id": "ee62e6ef52004f4d666e5ec957506e01", "name": "ee62e6ef52004f4d666e5ec957506e01", "type": "electric_scooter", "lon": -77.00809433333333, "rental_uris": {"android": "https://dc.lft.to/lastmile_qr_scan", "ios": "https://dc.lft.to/lastmile_qr_scan"}, "lat": 38.876552333333336, "is_reserved": 0, "is_disabled": 0, "fusion_lat": 0.0}, {"fusion_lon": 0.0, "bike_id": "3d4f270705ced20577f4ea6c305235b6", "name": "3d4f270705ced20577f4ea6c305235b6", "type": "electric_scooter", "lon": -77.0384105, "rental_uris": {"android": "https://dc.lft.to/lastmile_qr_scan", "ios": "https://dc.lft.to/lastmile_qr_scan"}, "lat": 38.903277, "is_reserved": 0, "is_disabled": 0, "fusion_lat": 0.0}, {"fusion_lon": 0.0, "bike_id": "e25f43579155bf1d0c8f7bf1daec0763", "name": "e25f43579155bf1d0c8f7bf1daec0763", "type": "electric_scooter", "lon": -76.996065, "rental_uris": {"android": "https://dc.lft.to/lastmile_qr_scan", "ios": "https://dc.lft.to/lastmile_qr_scan"}, "lat": 38.86464183333333, "is_reserved": 0, "is_disabled": 0, "fusion_lat": 0.0}, {"fusion_lon": 0.0, "bike_id": "eb5c64686e4075378428296cfcdb7534", "name": "eb5c64686e4075378428296cfcdb7534", "type": "electric_scooter", "lon": -77.013923, "rental_uris": {"android": "https://dc.lft.to/lastmile_qr_scan", "ios": "https://dc.lft.to/lastmile_qr_scan"}, "lat": 38.880268666666666, "is_reserved": 0, "is_disabled": 0, "fusion_lat": 0.0}, {"fusion_lon": 0.0, "bike_id": "470af7abc2ddcca36688f0c52ceefa22", "name": "470af7abc2ddcca36688f0c52ceefa22", "type": "electric_bike", "lon": -77.06950616666667, "rental_uris": {"android": "https://dc.lft.to/lastmile_qr_scan", "ios": "https://dc.lft.to/lastmile_qr_scan"}, "lat": 38.9904265, "is_reserved": 0, "is_disabled": 0, "fusion_lat": 0.0}, {"fusion_lon": 0.0, "bike_id": "7ff75754967986fb560961ec9a7a0cac", "name": "7ff75754967986fb560961ec9a7a0cac", "type": "electric_scooter", "lon": -77.02731633333333, "rental_uris": {"android": "https://dc.lft.to/lastmile_qr_scan", "ios": "https://dc.lft.to/lastmile_qr_scan"}, "lat": 38.90134, "is_reserved": 0, "is_disabled": 0, "fusion_lat": 0.0}, {"fusion_lon": 0.0, "bike_id": "f6196a349aeab4293b0e4e22b4e5bc43", "name": "f6196a349aeab4293b0e4e22b4e5bc43", "type": "electric_scooter", "lon": -77.03841283333334, "rental_uris": {"android": "https://dc.lft.to/lastmile_qr_scan", "ios": "https://dc.lft.to/lastmile_qr_scan"}, "lat": 38.91728033333333, "is_reserved": 0, "is_disabled": 0, "fusion_lat": 0.0}, {"fusion_lon": 0.0, "bike_id": "4a439f697e244e34d2e58e10f8ff5121", "name": "4a439f697e244e34d2e58e10f8ff5121", "type": "electric_scooter", "lon": -77.04062716666667, "rental_uris": {"android": "https://dc.lft.to/lastmile_qr_scan", "ios": "https://dc.lft.to/lastmile_qr_scan"}, "lat": 38.90876133333333, "is_reserved": 0, "is_disabled": 0, "fusion_lat": 0.0}, {"fusion_lon": 0.0, "bike_id": "0253b9fe829c5a2c06ac0354f78ad042", "name": "0253b9fe829c5a2c06ac0354f78ad042", "type": "electric_bike", "lon": -76.87497283333333, "rental_uris": {"android": "https://dc.lft.to/lastmile_qr_scan", "ios": "https://dc.lft.to/lastmile_qr_scan"}, "lat": 38.990900333333336, "is_reserved": 0, "is_disabled": 0, "fusion_lat": 0.0}, {"fusion_lon": 0.0, "bike_id": "f4ecdf38af50f7e00a3847b067bc9790", "name": "f4ecdf38af50f7e00a3847b067bc9790", "type": "electric_scooter", "lon": -76.93160183333333, "rental_uris": {"android": "https://dc.lft.to/lastmile_qr_scan", "ios": "https://dc.lft.to/lastmile_qr_scan"}, "lat": 38.89878383333333, "is_reserved": 0, "is_disabled": 0, "fusion_lat": 0.0}, {"fusion_lon": 0.0, "bike_id": "e2ea87a78b490934098ed3447fcad9a8", "name": "e2ea87a78b490934098ed3447fcad9a8", "type": "electric_scooter", "lon": -77.0253255, "rental_uris": {"android": "https://dc.lft.to/lastmile_qr_scan", "ios": "https://dc.lft.to/lastmile_qr_scan"}, "lat": 38.905725, "is_reserved": 0, "is_disabled": 0, "fusion_lat": 0.0}, {"fusion_lon": 0.0, "bike_id": "4d9f085f2df545741c044d7707fee646", "name": "4d9f085f2df545741c044d7707fee646", "type": "electric_bike", "lon": -77.11226833333333, "rental_uris": {"android": "https://dc.lft.to/lastmile_qr_scan", "ios": "https://dc.lft.to/lastmile_qr_scan"}, "lat": 38.82869866666667, "is_reserved": 0, "is_disabled": 0, "fusion_lat": 0.0}, {"fusion_lon": 0.0, "bike_id": "a69eadf0a9bed0ac7bba5511d5d6b9c1", "name": "a69eadf0a9bed0ac7bba5511d5d6b9c1", "type": "electric_scooter", "lon": -76.98196166666666, "rental_uris": {"android": "https://dc.lft.to/lastmile_qr_scan", "ios": "https://dc.lft.to/lastmile_qr_scan"}, "lat": 38.902054, "is_reserved": 0, "is_disabled": 0, "fusion_lat": 0.0}, {"fusion_lon": 0.0, "bike_id": "e4c5ae8373e28e921add4bea4c3e5e02", "name": "e4c5ae8373e28e921add4bea4c3e5e02", "type": "electric_scooter", "lon": -77.03847683333333, "rental_uris": {"android": "https://dc.lft.to/lastmile_qr_scan", "ios": "https://dc.lft.to/lastmile_qr_scan"}, "lat": 38.912107666666664, "is_reserved": 0, "is_disabled": 0, "fusion_lat": 0.0}, {"fusion_lon": 0.0, "bike_id": "2c5d9cb62cc7fb13d1eb2a441fac2862", "name": "2c5d9cb62cc7fb13d1eb2a441fac2862", "type": "electric_scooter", "lon": -77.05416283333334, "rental_uris": {"android": "https://dc.lft.to/lastmile_qr_scan", "ios": "https://dc.lft.to/lastmile_qr_scan"}, "lat": 38.928275666666664, "is_reserved": 0, "is_disabled": 0, "fusion_lat": 0.0},