{"data": {"bikes": [{"name": "000d8d1de0ade3a1d97df0561158fc88", "is_reserved": 0, "is_disabled": 0, "lon": -77.008706, "rental_uris": {"android": "https://dc.lft.to/lastmile_qr_scan", "ios": "https://dc.lft.to/lastmile_qr_scan"}, "fusion_lon": 0.0, "lat": 38.876456833333336, "type": "electric_scooter", "fusion_lat": 0.0, "bike_id": "000d8d1de0ade3a1d97df0561158fc88"}, {"name": "6469a45c6bee85680788fb3a96af3800", "is_reserved": 0, "is_disabled": 0, "lon": -77.00612966666667, "rental_uris": {"android": "https://dc.lft.to/lastmile_qr_scan", "ios": "https://dc.lft.to/lastmile_qr_scan"}, "fusion_lon": 0.0, "lat": 38.87179416666667, "type": "electric_scooter", "fusion_lat": 0.0, "bike_id": "6469a45c6bee85680788fb3a96af3800"}, {"name": "6445a60b533b49c16b3370b71037f990", "is_reserved": 0, "is_disabled": 0, "lon": -77.03843583333334, "rental_uris": {"android": "https://dc.lft.to/lastmile_qr_scan", "ios": "https://dc.lft.to/lastmile_qr_scan"}, "fusion_lon": 0.0, "lat": 38.915416, "type": "electric_scooter", "fusion_lat": 0.0, "bike_id": "6445a60b533b49c16b3370b71037f990"}, {"name": "ad00010b53c52c2954802838ba29e239", "is_reserved": 0, "is_disabled": 0, "lon": -77.06357333333334, "rental_uris": {"android": "https://dc.lft.to/lastmile_qr_scan", "ios": "https://dc.lft.to/lastmile_qr_scan"}, "fusion_lon": 0.0, "lat": 38.94449433333333, "type": "electric_scooter", "fusion_lat": 0.0, "bike_id": "ad00010b53c52c2954802838ba29e239"}, {"name": "780b17c703e2c5a5f33e4cecbc9a62a7", "is_reserved": 0, "is_disabled": 0, "lon": -77.03721683333333, "rental_uris": {"android": "https://dc.lft.to/lastmile_qr_scan", "ios": "https://dc.lft.to/lastmile_qr_scan"}, "fusion_lon": 0.0, "lat": 38.906098666666665, "type": "electric_scooter", "fusion_lat": 0.0, "bike_id": "780b17c703e2c5a5f33e4cecbc9a62a7"}, {"name": "8ee20a3255ac0883d8bd3856d33cbffe", "is_reserved": 0, "is_disabled": 0, "lon": -77.03712316666666, "rental_uris": {"android": "https://dc.lft.to/lastmile_qr_scan", "ios": "https://dc.lft.to/lastmile_qr_scan"}, "fusion_lon": 0.0, "lat": 38.9180785, "type": "electric_scooter", "fusion_lat": 0.0, "bike_id": "8ee20a3255ac0883d8bd3856d33cbffe"}, {"name": "db51cecf3f5be80b3ece99107a4cb2ce", "is_reserved": 0, "is_disabled": 0, "lon": -77.08617666666666, "rental_uris": {"android": "https://dc.lft.to/lastmile_qr_scan", "ios": "https://dc.lft.to/lastmile_qr_scan"}, "fusion_lon": 0.0, "lat": 38.95873266666667, "type": "electric_scooter", "fusion_lat": 0.0, "bike_id": "db51cecf3f5be80b3ece99107a4cb2ce"}, {"name": "0488179ddf6dcafb2ecf444c1864a379", "is_reserved": 0, "is_disabled": 0, "lon": -77.03053516666667, "rental_uris": {"android": "https://dc.lft.to/lastmile_qr_scan", "ios": "https://dc.lft.to/lastmile_qr_scan"}, "fusion_lon": 0.0, "lat": 38.909596, "type": "electric_scooter", "fusion_lat": 0.0, "bike_id": "0488179ddf6dcafb2ecf444c1864a379"}, {"name": "e1856ad58019c4a4429887b4b48494e8", "is_reserved": 0, "is_disabled": 0, "lon": -77.01907483333333, "rental_uris": {"android": "https://dc.lft.to/lastmile_qr_scan", "ios": "https://dc.lft.to/lastmile_qr_scan"}, "fusion_lon": 0.0, "lat": 38.87843683333333, "type": "electric_scooter", "fusion_lat": 0.0, "bike_id": "e1856ad58019c4a4429887b4b48494e8"}, {"name": "de4326d74ffa95ca626d915bd9f2f667", "is_reserved": 0, "is_disabled": 0, "lon": -77.03820583333334, "rental_uris": {"android": "https://dc.lft.to/lastmile_qr_scan", "ios": "https://dc.lft.to/lastmile_qr_scan"}, "fusion_lon": 0.0, "lat": 38.91688583333333, "type": "electric_scooter", "fusion_lat": 0.0, "bike_id": "de4326d74ffa95ca626d915bd9f2f667"}, {"name": "f70c3c90dc514974fd761466f5851d67", "is_reserved": 0, "is_disabled": 0, "lon": -76.99945, "rental_uris": {"android": "https://dc.lft.to/lastmile_qr_scan", "ios": "https://dc.lft.to/lastmile_qr_scan"}, "fusion_lon": 0.0, "lat": 38.908628, "type": "electric_scooter", "fusion_lat": 0.0, "bike_id": "f70c3c90dc514974fd761466f5851d67"}, {"name": "89975bc91da66c9358e16f583efdca1a", "is_reserved": 0, "is_disabled": 0, "lon": -77.03342733333334, "rental_uris": {"android": "https://dc.lft.to/lastmile_qr_scan", "ios": "https://dc.lft.to/lastmile_qr_scan"}, "fusion_lon": 0.0, "lat": 38.91708966666667, "type": "electric_scooter", "fusion_lat": 0.0, "bike_id": "89975bc91da66c9358e16f583efdca1a"}, {"name": "0256e8e64d1a224afd7bc6ce519f3589", "is_reserved": 0, "is_disabled": 0, "lon": -76.96487716666667, "rental_uris": {"android": "https://dc.lft.to/lastmile_qr_scan", "ios": "https://dc.lft.to/lastmile_qr_scan"}, "fusion_lon": 0.0, "lat": 38.875524166666665, "type": "electric_bike", "fusion_lat": 0.0, "bike_id": "0256e8e64d1a224afd7bc6ce519f3589"}, {"name": "063510f0156100191ae7302fdba172c0", "is_reserved": 0, "is_disabled": 0, "lon": -77.01942016666666, "rental_uris": {"android": "https://dc.lft.to/lastmile_qr_scan", "ios": "https://dc.lft.to/lastmile_qr_scan"}, "fusion_lon": 0.0, "lat": 38.909714, "type": "electric_scooter", "fusion_lat": 0.0, "bike_id": "063510f0156100191ae7302fdba172c0"}, {"name": "007a8553ee3c5d67898058c2c1680aed", "is_reserved": 0, "is_disabled": 0, "lon": -77.037982, "rental_uris": {"android": "https://dc.lft.to/lastmile_qr_scan", "ios": "https://dc.lft.to/lastmile_qr_scan"}, "fusion_lon": 0.0, "lat": 38.903780166666664, "type": "electric_scooter", "fusion_lat": 0.0, "bike_id": "007a8553ee3c5d67898058c2c1680aed"}, {"name": "c0dcb142668efb2236e059bc6d341d02", "is_reserved": 0, "is_disabled": 0, "lon": -77.03176683333334, "rental_uris": {"android": "https://dc.lft.to/lastmile_qr_scan", "ios": "https://dc.lft.to/lastmile_qr_scan"}, "fusion_lon": 0.0, "lat": 38.897797, "type": "electric_scooter", "fusion_lat": 0.0, "bike_id": "c0dcb142668efb2236e059bc6d341d02"}, {"name": "e24173a416bad66da1dc2e5e17d5a2ae", "is_reserved": 0, "is_disabled": 0, "lon": -77.02206683333333, "rental_uris": {"android": "https://dc.lft.to/lastmile_qr_scan", "ios": "https://dc.lft.to/lastmile_qr_scan"}, "fusion_lon": 0.0, "lat": 38.9154465, "type": "electric_scooter", "fusion_lat": 0.0, "bike_id": "e24173a416bad66da1dc2e5e17d5a2ae"}, {"name": "f06f5727871fc88aec50a691ce9895b5", "is_reserved": 0, "is_disabled": 0, "lon": -77.02286783333334, "rental_uris": {"android": "https://dc.lft.to/lastmile_qr_scan", "ios": "https://dc.lft.to/lastmile_qr_scan"}, "fusion_lon": 0.0, "lat": 38.91611916666667, "type": "electric_scooter", "fusion_lat": 0.0, "bike_id": "f06f5727871fc88aec50a691ce9895b5"}, {"name": "e81dc83d245a05b1ef9b44a23604098e", "is_reserved": 0, "is_disabled": 0, "lon": -76.96781433333334, "rental_uris": {"android": "https://dc.lft.to/lastmile_qr_scan", "ios": "https://dc.lft.to/lastmile_qr_scan"}, "fusion_lon": 0.0, "lat": 38.87337133333333, "type": "electric_scooter", "fusion_lat": 0.0, "bike_id": "e81dc83d245a05b1ef9b44a23604098e"}, {"name": "b776010718aefde2fd9ce2a730066c21", "is_reserved": 0, "is_disabled": 0, "lon": -77.0607335, "rental_uris": {"android": "https://dc.lft.to/lastmile_qr_scan", "ios": "https://dc.lft.to/lastmile_qr_scan"}, "fusion_lon": 0.0, "lat": 38.905303833333335, "type": "electric_scooter", "fusion_lat": 0.0, "bike_id": "b776010718aefde2fd9ce2a730066c21"}, {"name": "1fc095eea9340c9b47a57cb60b0b2426", "is_reserved": 0, "is_disabled": 0, "lon": -77.0460325, "rental_uris": {"android": "https://dc.lft.to/lastmile_qr_scan", "ios": "https://dc.lft.to/lastmile_qr_scan"}, "fusion_lon": 0.0, "lat": 38.8837975, "type": "electric_scooter", "fusion_lat": 0.0, "bike_id": "1fc095eea9340c9b47a57cb60b0b2426"}, {"name": "7dac4ce49ce9f692da4e3e154ee7a741", "is_reserved": 0, "is_disabled": 0, "lon": -77.005424, "rental_uris": {"android": "https://dc.lft.to/lastmile_qr_scan", "ios": "https://dc.lft.to/lastmile_qr_scan"}, "fusion_lon": 0.0, "lat": 38.87461483333333, "type": "electric_scooter", "fusion_lat": 0.0, "bike_id": "7dac4ce49ce9f692da4e3e154ee7a741"}, {"name": "33f780a31c399d9ec8c247f2a7e40f14", "is_reserved": 0, "is_disabled": 0, "lon": -77.02400866666666, "rental_uris": {"android": "https://dc.lft.to/lastmile_qr_scan", "ios": "https://dc.lft.to/lastmile_qr_scan"}, "fusion_lon": 0.0, "lat": 38.919289, "type": "electric_scooter", "fusion_lat": 0.0, "bike_id": "33f780a31c399d9ec8c247f2a7e40f14"}, {"name": "c1d612e10a549399bd36020ff5b14a75", "is_reserved": 0, "is_disabled": 0, "lon": -77.001408, "rental_uris": {"android": "https://dc.lft.to/lastmile_qr_scan", "ios": "https://dc.lft.to/lastmile_qr_scan"}, "fusion_lon": 0.0, "lat": 38.90516316666667, "type": "electric_scooter", "fusion_lat": 0.0, "bike_id": "c1d612e10a549399bd36020ff5b14a75"}, {"name": "bf78eded3c413da4f06c0215bd6324bd", "is_reserved": 0, "is_disabled": 0, "lon": -77.0384195, "rental_uris": {"android": "https://dc.lft.to/lastmile_qr_scan", "ios": "https://dc.lft.to/lastmile_qr_scan"}, "fusion_lon": 0.0, "lat": 38.915994833333336, "type": "electric_scooter", "fusion_lat": 0.0, "bike_id": "bf78eded3c413da4f06c0215bd6324bd"}, {"name": "254d771d4919f67c5e39a57a4be2386e", "is_reserved": 0, "is_disabled": 0, "lon": -76.99608683333334, "rental_uris": {"android": "https://dc.lft.to/lastmile_qr_scan", "ios": "https://dc.lft.to/lastmile_qr_scan"}, "fusion_lon": 0.0, "lat": 38.8849845, "type": "electric_scooter", "fusion_lat": 0.0, "bike_id": "254d771d4919f67c5e39a57a4be2386e"}, {"name": "c17dbfa70efed8d24e6581fbbd727d27", "is_reserved": 0, "is_disabled": 0, "lon": -77.04360716666666, "rental_uris": {"android": "https://dc.lft.to/lastmile_qr_scan", "ios": "https://dc.lft.to/lastmile_qr_scan"}, "fusion_lon": 0.0, "lat": 38.892379166666665, "type": "electric_scooter", "fusion_lat": 0.0, "bike_id": "c17dbfa70efed8d24e6581fbbd727d27"}, {"name": "eb75efeecffe32f059b86e32f4b3aeb6", "is_reserved": 0, "is_disabled": 0, "lon": -77.01712833333333, "rental_uris": {"android": "https://dc.lft.to/lastmile_qr_scan", "ios": "https://dc.lft.to/lastmile_qr_scan"}, "fusion_lon": 0.0, "lat": 38.905223666666664, "type": "electric_scooter", "fusion_lat": 0.0, "bike_id": "eb75efeecffe32f059b86e32f4b3aeb6"}, {"name": "b81ed73a80a77bf8abf8198ccaad31ef", "is_reserved": 0, "is_disabled": 0, "lon": -77.0226545, "rental_uris": {"android": "https://dc.lft.to/lastmile_qr_scan", "ios": "https://dc.lft.to/lastmile_qr_scan"}, "fusion_lon": 0.0, "lat": 38.94717683333333, "type": "electric_scooter", "fusion_lat": 0.0, "bike_id": "b81ed73a80a77bf8abf8198ccaad31ef"}, {"name": "60d1602edea1b1839d06c0e2425808b9", "is_reserved": 0, "is_disabled": 0, "lon": -76.98491433333334, "rental_uris": {"android": "https://dc.lft.to/lastmile_qr_scan", "ios": "https://dc.lft.to/lastmile_qr_scan"}, "fusion_lon": 0.0, "lat": 38.889755, "type": "electric_scooter", "fusion_lat": 0.0, "bike_id": "60d1602edea1b1839d06c0e2425808b9"}, {"name": "8d57a793a2cd9109ac16f76c788582ec", "is_reserved": 0, "is_disabled": 0, "lon": -77.002296, "rental_uris": {"android": "https://dc.lft.to/lastmile_qr_scan", "ios": "https://dc.lft.to/lastmile_qr_scan"}, "fusion_lon": 0.0, "lat": 38.8749965, "type": "electric_scooter", "fusion_lat": 0.0, "bike_id": "8d57a793a2cd9109ac16f76c788582ec"}, {"name": "7744ed41b7b793ebdf93919957d125ed", "is_reserved": 0, "is_disabled": 0, "lon": -77.03291616666667, "rental_uris": {"android": "https://dc.lft.to/lastmile_qr_scan", "ios": "https://dc.lft.to/lastmile_qr_scan"}, "fusion_lon": 0.0, "lat": 38.95652033333333, "type": "electric_scooter", "fusion_lat": 0.0, "bike_id": "7744ed41b7b793ebdf93919957d125ed"}, {"name": "746b3581f26dc31a5ee1146569376197", "is_reserved": 0, "is_disabled": 0, "lon": -77.034532, "rental_uris": {"android": "https://dc.lft.to/lastmile_qr_scan", "ios": "https://dc.lft.to/lastmile_qr_scan"}, "fusion_lon": 0.0, "lat": 38.9032565, "type": "electric_scooter", "fusion_lat": 0.0, "bike_id": "746b3581f26dc31a5ee1146569376197"}, {"name": "286b40ee2955a01da2657ee257951667", "is_reserved": 0, "is_disabled": 0, "lon": -77.03229233333333, "rental_uris": {"android": "https://dc.lft.to/lastmile_qr_scan", "ios": "https://dc.lft.to/lastmile_qr_scan"}, "fusion_lon": 0.0, "lat": 38.918348, "type": "electric_scooter", "fusion_lat": 0.0, "bike_id": "286b40ee2955a01da2657ee257951667"}, {"name": "4d013d4fa6155adb03ad98aa28dd8102", "is_reserved": 0, "is_disabled": 0, "lon": -76.99555, "rental_uris": {"android": "https://dc.lft.to/lastmile_qr_scan", "ios": "https://dc.lft.to/lastmile_qr_scan"}, "fusion_lon": 0.0, "lat": 38.92038483333333, "type": "electric_scooter", "fusion_lat": 0.0, "bike_id": "4d013d4fa6155adb03ad98aa28dd8102"}, {"name": "cf829f47962e3d83669da1b6ae2222b6", "is_reserved": 0, "is_disabled": 0, "lon": -77.03218216666667, "rental_uris": {"android": "https://dc.lft.to/lastmile_qr_scan", "ios": "https://dc.lft.to/lastmile_qr_scan"}, "fusion_lon": 0.0, "lat": 38.89225233333333, "type": "electric_scooter", "fusion_lat": 0.0, "bike_id": "cf829f47962e3d83669da1b6ae2222b6"}, {"name": "88c04a01266e4907e613043386baa224", "is_reserved": 0, "is_disabled": 0, "lon": -77.049819, "rental_uris": {"android": "https://dc.lft.to/lastmile_qr_scan", "ios": "https://dc.lft.to/lastmile_qr_scan"}, "fusion_lon": 0.0, "lat": 38.896682166666665, "type": "electric_scooter", "fusion_lat": 0.0, "bike_id": "88c04a01266e4907e613043386baa224"}, {"name": "549a8a266f8a491f74900f472b13b2d7", "is_reserved": 0, "is_disabled": 0, "lon": -77.04158833333334, "rental_uris": {"android": "https://dc.lft.to/lastmile_qr_scan", "ios": "https://dc.lft.to/lastmile_qr_scan"}, "fusion_lon": 0.0, "lat": 38.91749733333333, "type": "electric_scooter", "fusion_lat": 0.0, "bike_id": "549a8a266f8a491f74900f472b13b2d7"}, {"name": "46d71e153a4ee838b9f26250aac9477a", "is_reserved": 0, "is_disabled": 0, "lon": -77.02517066666667, "rental_uris": {"android": "https://dc.lft.to/lastmile_qr_scan", "ios": "https://dc.lft.to/lastmile_qr_scan"}, "fusion_lon": 0.0, "lat": 38.901557, "type": "electric_scooter", "fusion_lat": 0.0, "bike_id": "46d71e153a4ee838b9f26250aac9477a"}, {"name": "e263e6a4553ca66cbaeae20fc794e3ae", "is_reserved": 0, "is_disabled": 0, "lon": -76.9463525, "rental_uris": {"android": "https://dc.lft.to/lastmile_qr_scan", "ios": "https://dc.lft.to/lastmile_qr_scan"}, "fusion_lon": 0.0, "lat": 38.89844516666667, "type": "electric_scooter", "fusion_lat": 0.0, "bike_id": "e263e6a4553ca66cbaeae20fc794e3ae"}, {"name": "463f921207f03b532d7cb126f8573478", "is_reserved": 0, "is_disabled": 0, "lon": -76.98996566666666, "rental_uris": {"android": "https://dc.lft.to/lastmile_qr_scan", "ios": "https://dc.lft.to/lastmile_qr_scan"}, "fusion_lon": 0.0, "lat": 38.864380833333335, "type": "electric_scooter", "fusion_lat": 0.0, "bike_id": "463f921207f03b532d7cb126f8573478"}, {"name": "032802e60910689a76c119e21d14b47b", "is_reserved": 0, "is_disabled": 0, "lon": -77.01302983333333, "rental_uris": {"android": "https://dc.lft.to/lastmile_qr_scan", "ios": "https://dc.lft.to/lastmile_qr_scan"}, "fusion_lon": 0.0, "lat": 38.90734716666667, "type": "electric_scooter", "fusion_lat": 0.0, "bike_id": "032802e60910689a76c119e21d14b47b"}, {"name": "55bc9869117da038230cee6394923783", "is_reserved": 0, "is_disabled": 0, "lon": -76.99485533333333, "rental_uris": {"android": "https://dc.lft.to/lastmile_qr_scan", "ios": "https://dc.lft.to/lastmile_qr_scan"}, "fusion_lon": 0.0, "lat": 38.8773375, "type": "electric_scooter", "fusion_lat": 0.0, "bike_id": "55bc9869117da038230cee6394923783"}, {"name": "b7769cb7325693b836dd8838a1a0b029", "is_reserved": 0, "is_disabled": 0, "lon": -77.03210783333333, "rental_uris": {"android": "https://dc.lft.to/lastmile_qr_scan", "ios": "https://dc.lft.to/lastmile_qr_scan"}, "fusion_lon": 0.0, "lat": 38.922081166666665, "type": "electric_scooter", "fusion_lat": 0.0, "bike_id": "b7769cb7325693b836dd8838a1a0b029"}, {"name": "d443280a969128da23a125d0f05c134b", "is_reserved": 0, "is_disabled": 0, "lon": -77.02159533333334, "rental_uris": {"android": "https://dc.lft.to/lastmile_qr_scan", "ios": "https://dc.lft.to/lastmile_qr_scan"}, "fusion_lon": 0.0, "lat": 38.88495833333333, "type": "electric_scooter", "fusion_lat": 0.0, "bike_id": "d443280a969128da23a125d0f05c134b"}, {"name": "73542312b3cb2f138e9f40d6984e1bac", "is_reserved": 0, "is_disabled": 0, "lon": -77.04170633333334, "rental_uris": {"android": "https://dc.lft.to/lastmile_qr_scan", "ios": "https://dc.lft.to/lastmile_qr_scan"}, "fusion_lon": 0.0, "lat": 38.913447, "type": "electric_scooter", "fusion_lat": 0.0, "bike_id": "73542312b3cb2f138e9f40d6984e1bac"}, {"name": "cf8e22f2313d2c324abaf778cf2e75f2", "is_reserved": 0, "is_disabled": 0, "lon": -77.02416216666667, "rental_uris": {"android": "https://dc.lft.to/lastmile_qr_scan", "ios": "https://dc.lft.to/lastmile_qr_scan"}, "fusion_lon": 0.0, "lat": 38.8922975, "type": "electric_scooter", "fusion_lat": 0.0, "bike_id": "cf8e22f2313d2c324abaf778cf2e75f2"}, {"name": "5029764b82e6c0f5204c8e92c8546280", "is_reserved": 0, "is_disabled": 0, "lon": -77.04443816666667, "rental_uris": {"android": "https://dc.lft.to/lastmile_qr_scan", "ios": "https://dc.lft.to/lastmile_qr_scan"}, "fusion_lon": 0.0, "lat": 38.911221833333336, "type": "electric_scooter", "fusion_lat": 0.0, "bike_id": "5029764b82e6c0f5204c8e92c8546280"}, {"name": "80901e63e4be85326fbfb29b5768ae6c", "is_reserved": 0, "is_disabled": 0, "lon": -76.98766316666666, "rental_uris": {"android": "https://dc.lft.to/lastmile_qr_scan", "ios": "https://dc.lft.to/lastmile_qr_scan"}, "fusion_lon": 0.0, "lat": 38.912042, "type": "electric_scooter", "fusion_lat": 0.0, "bike_id": "80901e63e4be85326fbfb29b5768ae6c"}, {"name": "5c898b1c25f4c254707a3dbc38afe7ad", "is_reserved": 0, "is_disabled": 0, "lon": -77.00922116666666, "rental_uris": {"android": "https://dc.lft.to/lastmile_qr_scan", "ios": "https://dc.lft.to/lastmile_qr_scan"}, "fusion_lon": 0.0, "lat": 38.8977445, "type": "electric_scooter", "fusion_lat": 0.0, "bike_id": "5c898b1c25f4c254707a3dbc38afe7ad"}, {"name": "acd8e88576d28edd54dbc6257bdfc70f", "is_reserved": 0, "is_disabled": 0, "lon": -76.9411995, "rental_uris": {"android": "https://dc.lft.to/lastmile_qr_scan", "ios": "https://dc.lft.to/lastmile_qr_scan"}, "fusion_lon": 0.0, "lat": 38.9079525, "type": "electric_scooter", "fusion_lat": 0.0, "bike_id": "acd8e88576d28edd54dbc6257bdfc70f"}, {"name": "931f940504af40ea93afdfdade8b8c2f", "is_reserved": 0, "is_disabled": 0, "lon": -76.931604, "rental_uris": {"android": "https://dc.lft.to/lastmile_qr_scan", "ios": "https://dc.lft.to/lastmile_qr_scan"}, "fusion_lon": 0.0, "lat": 38.89882866666667, "type": "electric_scooter", "fusion_lat": 0.0, "bike_id": "931f940504af40ea93afdfdade8b8c2f"}, {"name": "a1092ce003056f5c8e77f3bc536e4e31", "is_reserved": 0, "is_disabled": 0, "lon": -77.0615805, "rental_uris": {"android": "https://dc.lft.to/lastmile_qr_scan", "ios": "https://dc.lft.to/lastmile_qr_scan"}, "fusion_lon": 0.0, "lat": 38.94223916666667, "type": "electric_scooter", "fusion_lat": 0.0, "bike_id": "a1092ce003056f5c8e77f3bc536e4e31"}, {"name": "0cff8c077b9fe0ab64d0f9d9d20e8b4f", "is_reserved": 0, "is_disabled": 0, "lon": -77.0242835, "rental_uris": {"android": "https://dc.lft.to/lastmile_qr_scan", "ios": "https://dc.lft.to/lastmile_qr_scan"}, "fusion_lon": 0.0, "lat": 38.905592, "type": "electric_scooter", "fusion_lat": 0.0, "bike_id": "0cff8c077b9fe0ab64d0f9d9d20e8b4f"}, {"name": "57032123c3d6a498f04c5e0dc1db1f26", "is_reserved": 0, "is_disabled": 0, "lon": -76.98696033333333, "rental_uris": {"android": "https://dc.lft.to/lastmile_qr_scan", "ios": "https://dc.lft.to/lastmile_qr_scan"}, "fusion_lon": 0.0, "lat": 38.855551166666665, "type": "electric_scooter", "fusion_lat": 0.0, "bike_id": "57032123c3d6a498f04c5e0dc1db1f26"}, {"name": "005180eb642f107a259f64721c38cd2b", "is_reserved": 0, "is_disabled": 0, "lon": -77.049224, "rental_uris": {"android": "https://dc.lft.to/lastmile_qr_scan", "ios": "https://dc.lft.to/lastmile_qr_scan"}, "fusion_lon": 0.0, "lat": 38.9125875, "type": "electric_scooter", "fusion_lat": 0.0, "bike_id": "005180eb642f107a259f64721c38cd2b"}, {"name": "26f86e10e6ccc0626880a602f5912be6", "is_reserved": 0, "is_disabled": 0, "lon": -77.02766366666667, "rental_uris": {"android": "https://dc.lft.to/lastmile_qr_scan", "ios": "https://dc.lft.to/lastmile_qr_scan"}, "fusion_lon": 0.0, "lat": 38.92983483333333, "type": "electric_scooter", "fusion_lat": 0.0, "bike_id": "26f86e10e6ccc0626880a602f5912be6"}, {"name": "9886d079de8c69a404bd71b93ee69db5", "is_reserved": 0, "is_disabled": 0, "lon": -77.02815416666667, "rental_uris": {"android": "https://dc.lft.to/lastmile_qr_scan", "ios": "https://dc.lft.to/lastmile_qr_scan"}, "fusion_lon": 0.0, "lat": 38.956120166666665, "type": "electric_scooter", "fusion_lat": 0.0, "bike_id": "9886d079de8c69a404bd71b93ee69db5"}, {"name": "9a8719115ae1b880f5cdb9d803fcf3db", "is_reserved": 0, "is_disabled": 0, "lon": -77.04751533333334, "rental_uris": {"android": "https://dc.lft.to/lastmile_qr_scan", "ios": "https://dc.lft.to/lastmile_qr_scan"}, "fusion_lon": 0.0, "lat": 38.90238516666667, "type": "electric_scooter", "fusion_lat": 0.0, "bike_id": "9a8719115ae1b880f5cdb9d803fcf3db"}, {"name": "ebdb569b2d49b9ac2999791eb0b9fa69", "is_reserved": 0, "is_disabled": 0, "lon": -76.99843283333334, "rental_uris": {"android": "https://dc.lft.to/lastmile_qr_scan", "ios": "https://dc.lft.to/lastmile_qr_scan"}, "fusion_lon": 0.0, "lat": 38.900300333333334, "type": "electric_scooter", "fusion_lat": 0.0, "bike_id": "ebdb569b2d49b9ac2999791eb0b9fa69"}, {"name": "0ce6d4fd19e41b7a08b7e0efa082ee04", "is_reserved": 0, "is_disabled": 0, "lon": -77.047668, "rental_uris": {"android": "https://dc.lft.to/lastmile_qr_scan", "ios": "https://dc.lft.to/lastmile_qr_scan"}, "fusion_lon": 0.0, "lat": 38.9026975, "type": "electric_scooter", "fusion_lat": 0.0, "bike_id": "0ce6d4fd19e41b7a08b7e0efa082ee04"}, {"name": "f51392ab25e02d7018a29d64dd4117c9", "is_reserved": 0, "is_disabled": 0, "lon": -77.11225116666667, "rental_uris": {"android": "https://dc.lft.to/lastmile_qr_scan", "ios": "https://dc.lft.to/lastmile_qr_scan"}, "fusion_lon": 0.0, "lat": 38.828768333333336, "type": "electric_bike", "fusion_lat": 0.0, "bike_id": "f51392ab25e02d7018a29d64dd4117c9"}, {"name": "71ffaf1cf7dabec8e177b62610568c47", "is_reserved": 0, "is_disabled": 0, "lon": -77.03489333333333, "rental_uris": {"android": "https://dc.lft.to/lastmile_qr_scan", "ios": "https://dc.lft.to/lastmile_qr_scan"}, "fusion_lon": 0.0, "lat": 38.900350333333336, "type": "electric_scooter", "fusion_lat": 0.0, "bike_id": "71ffaf1cf7dabec8e177b62610568c47"}, {"name": "3ef6e55dc39eb00034a1a01484f37373", "is_reserved": 0, "is_disabled": 0, "lon": -77.076846, "rental_uris": {"android": "https://dc.lft.to/lastmile_qr_scan", "ios": "https://dc.lft.to/lastmile_qr_scan"}, "fusion_lon": 0.0, "lat": 38.831954833333334, "type": "electric_bike", "fusion_lat": 0.0, "bike_id": "3ef6e55dc39eb00034a1a01484f37373"}, {"name": "d3c95c0d8760bf763f4954e3acb8c382", "is_reserved": 0, "is_disabled": 0, "lon": -77.07864816666667, "rental_uris": {"android": "https://dc.lft.to/lastmile_qr_scan", "ios": "https://dc.lft.to/lastmile_qr_scan"}, "fusion_lon": 0.0, "lat": 38.9246615, "type": "electric_scooter", "fusion_lat": 0.0, "bike_id": "d3c95c0d8760bf763f4954e3acb8c382"}, {"name": "9a01cdc8567120c216baa04c0dd140eb", "is_reserved": 0, "is_disabled": 0, "lon": -77.03475983333334, "rental_uris": {"android": "https://dc.lft.to/lastmile_qr_scan", "ios": "https://dc.lft.to/lastmile_qr_scan"}, "fusion_lon": 0.0, "lat": 38.908365, "type": "electric_scooter", "fusion_lat": 0.0, "bike_id": "9a01cdc8567120c216baa04c0dd140eb"}, {"name": "70dfca80132e45cdf95dff469a470a31", "is_reserved": 0, "is_disabled": 0, "lon": -77.030267, "rental_uris": {"android": "https://dc.lft.to/lastmile_qr_scan", "ios": "https://dc.lft.to/lastmile_qr_scan"}, "fusion_lon": 0.0, "lat": 38.92664633333333, "type": "electric_scooter", "fusion_lat": 0.0, "bike_id": "70dfca80132e45cdf95dff469a470a31"}, {"name": "e38a1b8b1a1106c3bc96fee88fc4a58e", "is_reserved": 0, "is_disabled": 0, "lon": -77.02854783333333, "rental_uris": {"android": "https://dc.lft.to/lastmile_qr_scan", "ios": "https://dc.lft.to/lastmile_qr_scan"}, "fusion_lon": 0.0, "lat": 38.90023333333333, "type": "electric_scooter", "fusion_lat": 0.0, "bike_id": "e38a1b8b1a1106c3bc96fee88fc4a58e"}, {"name": "0948c10ba0012244b0f7ece909d160c5", "is_reserved": 0, "is_disabled": 0, "lon": -77.0154075, "rental_uris": {"android": "https://dc.lft.to/lastmile_qr_scan", "ios": "https://dc.lft.to/lastmile_qr_scan"}, "fusion_lon": 0.0, "lat": 38.91453, "type": "electric_scooter", "fusion_lat": 0.0, "bike_id": "0948c10ba0012244b0f7ece909d160c5"}, {"name": "fd55912fe053dc6970b24ccfa8f76a36", "is_reserved": 0, "is_disabled": 0, "lon": -77.02535016666667, "rental_uris": {"android": "https://dc.lft.to/lastmile_qr_scan", "ios": "https://dc.lft.to/lastmile_qr_scan"}, "fusion_lon": 0.0, "lat": 38.90362616666667, "type": "electric_scooter", "fusion_lat": 0.0, "bike_id": "fd55912fe053dc6970b24ccfa8f76a36"}, {"name": "a9404c654777da8a1d4049a1175572e0", "is_reserved": 0, "is_disabled": 0, "lon": -76.93537383333333, "rental_uris": {"android": "https://dc.lft.to/lastmile_qr_scan", "ios": "https://dc.lft.to/lastmile_qr_scan"}, "fusion_lon": 0.0, "lat": 38.955613166666666, "type": "electric_bike", "fusion_lat": 0.0, "bike_id": "a9404c654777da8a1d4049a1175572e0"}, {"name": "c99161f4d6035b45520e9e0bb07a35a8", "is_reserved": 0, "is_disabled": 0, "lon": -77.0242445, "rental_uris": {"android": "https://dc.lft.to/lastmile_qr_scan", "ios": "https://dc.lft.to/lastmile_qr_scan"}, "fusion_lon": 0.0, "lat": 38.8922705, "type": "electric_scooter", "fusion_lat": 0.0, "bike_id": "c99161f4d6035b45520e9e0bb07a35a8"}, {"name": "889762ee235a5db0c14fa42399d50686", "is_reserved": 0, "is_disabled": 0, "lon": -77.03213333333333, "rental_uris": {"android": "https://dc.lft.to/lastmile_qr_scan", "ios": "https://dc.lft.to/lastmile_qr_scan"}, "fusion_lon": 0.0, "lat": 38.900267166666666, "type": "electric_scooter", "fusion_lat": 0.0, "bike_id": "889762ee235a5db0c14fa42399d50686"}, {"name": "591415fef157386bb8fa400af3d2c477", "is_reserved": 0, "is_disabled": 0, "lon": -77.12259733333333, "rental_uris": {"android": "https://dc.lft.to/lastmile_qr_scan", "ios": "https://dc.lft.to/lastmile_qr_scan"}, "fusion_lon": 0.0, "lat": 38.891862333333336, "type": "electric_bike", "fusion_lat": 0.0, "bike_id": "591415fef157386bb8fa400af3d2c477"}, {"name": "e3d0187fa02092a10fa33114946b36c1", "is_reserved": 0, "is_disabled": 0, "lon": -76.99162733333333, "rental_uris": {"android": "https://dc.lft.to/lastmile_qr_scan", "ios": "https://dc.lft.to/lastmile_qr_scan"}, "fusion_lon": 0.0, "lat": 38.879178333333336, "type": "electric_scooter", "fusion_lat": 0.0, "bike_id": "e3d0187fa02092a10fa33114946b36c1"}, {"name": "e66a8337f91161bd75a3c5f74daf8933", "is_reserved": 0, "is_disabled": 0, "lon": -77.00217216666667, "rental_uris": {"android": "https://dc.lft.to/lastmile_qr_scan", "ios": "https://dc.lft.to/lastmile_qr_scan"}, "fusion_lon": 0.0, "lat": 38.8774505, "type": "electric_scooter", "fusion_lat": 0.0, "bike_id": "e66a8337f91161bd75a3c5f74daf8933"}, {"name": "a0a186598832de097f960300d314451a", "is_reserved": 0, "is_disabled": 0, "lon": -77.01097, "rental_uris": {"android": "https://dc.lft.to/lastmile_qr_scan", "ios": "https://dc.lft.to/lastmile_qr_scan"}, "fusion_lon": 0.0, "lat": 38.905584166666664, "type": "electric_scooter", "fusion_lat": 0.0, "bike_id": "a0a186598832de097f960300d314451a"}, {"name": "3ecc4d06427599f4503148456641c673", "is_reserved": 0, "is_disabled": 0, "lon": -77.03989066666666, "rental_uris": {"android": "https://dc.lft.to/lastmile_qr_scan", "ios": "https://dc.lft.to/lastmile_qr_scan"}, "fusion_lon": 0.0, "lat": 38.89353666666667, "type": "electric_scooter", "fusion_lat": 0.0, "bike_id": "3ecc4d06427599f4503148456641c673"}, {"name": "cd92dad0b75ee7801479919f78739867", "is_reserved": 0, "is_disabled": 0, "lon": -77.04866633333333, "rental_uris": {"android": "https://dc.lft.to/lastmile_qr_scan", "ios": "https://dc.lft.to/lastmile_qr_scan"}, "fusion_lon": 0.0, "lat": 38.91202766666667, "type": "electric_scooter", "fusion_lat": 0.0, "bike_id": "cd92dad0b75ee7801479919f78739867"}, {"name": "801512cbe4480708853f2d55a3daf186", "is_reserved": 0, "is_disabled": 0, "lon": -76.98855333333333, "rental_uris": {"android": "https://dc.lft.to/lastmile_qr_scan", "ios": "https://dc.lft.to/lastmile_qr_scan"}, "fusion_lon": 0.0, "lat": 38.903533, "type": "electric_scooter", "fusion_lat": 0.0, "bike_id": "801512cbe4480708853f2d55a3daf186"}, {"name": "66b082b82783e9f52683f4f2debc5e1d", "is_reserved": 0, "is_disabled": 0, "lon": -77.04250333333333, "rental_uris": {"android": "https://dc.lft.to/lastmile_qr_scan", "ios": "https://dc.lft.to/lastmile_qr_scan"}, "fusion_lon": 0.0, "lat": 38.92221716666667, "type": "electric_scooter", "fusion_lat": 0.0, "bike_id": "66b082b82783e9f52683f4f2debc5e1d"}, {"name": "988ba0888954fcb2f36961d6295ab202", "is_reserved": 0, "is_disabled": 0, "lon": -77.04380383333333, "rental_uris": {"android": "https://dc.lft.to/lastmile_qr_scan", "ios": "https://dc.lft.to/lastmile_qr_scan"}, "fusion_lon": 0.0, "lat": 38.920715, "type": "electric_scooter", "fusion_lat": 0.0, "bike_id": "988ba0888954fcb2f36961d6295ab202"}, {"name": "b11fb0190535a34768cb48bfbbde7057", "is_reserved": 0, "is_disabled": 0, "lon": -77.02691116666666, "rental_uris": {"android": "https://dc.lft.to/lastmile_qr_scan", "ios": "https://dc.lft.to/lastmile_qr_scan"}, "fusion_lon": 0.0, "lat": 38.909702, "type": "electric_scooter", "fusion_lat": 0.0, "bike_id": "b11fb0190535a34768cb48bfbbde7057"}, {"name": "930a99707e392efd3b80282f42b8a2f7", "is_reserved": 0, "is_disabled": 0, "lon": -77.058992, "rental_uris": {"android": "https://dc.lft.to/lastmile_qr_scan", "ios": "https://dc.lft.to/lastmile_qr_scan"}, "fusion_lon": 0.0, "lat": 38.90083166666667, "type": "electric_scooter", "fusion_lat": 0.0, "bike_id": "930a99707e392efd3b80282f42b8a2f7"}, {"name": "7705c52a9b10b4806441a62e6c8c058b", "is_reserved": 0, "is_disabled": 0, "lon": -76.95024266666667, "rental_uris": {"android": "https://dc.lft.to/lastmile_qr_scan", "ios": "https://dc.lft.to/lastmile_qr_scan"}, "fusion_lon": 0.0, "lat": 38.90723283333333, "type": "electric_scooter", "fusion_lat": 0.0, "bike_id": "7705c52a9b10b4806441a62e6c8c058b"}, {"name": "f25e8f4b02c6e4ad546606aa8343ee13", "is_reserved": 0, "is_disabled": 0, "lon": -77.039823, "rental_uris": {"android": "https://dc.lft.to/lastmile_qr_scan", "ios": "https://dc.lft.to/lastmile_qr_scan"}, "fusion_lon": 0.0, "lat": 38.91624733333333, "type": "electric_scooter", "fusion_lat": 0.0, "bike_id": "f25e8f4b02c6e4ad546606aa8343ee13"}, {"name": "67079733d0f5d16a4735bc4310240139", "is_reserved": 0, "is_disabled": 0, "lon": -76.99635633333334, "rental_uris": {"android": "https://dc.lft.to/lastmile_qr_scan", "ios": "https://dc.lft.to/lastmile_qr_scan"}, "fusion_lon": 0.0, "lat": 38.886106166666664, "type": "electric_scooter", "fusion_lat": 0.0, "bike_id": "67079733d0f5d16a4735bc4310240139"}, {"name": "a82418c9ca9b777fe9594351cfea12ae", "is_reserved": 0, "is_disabled": 0, "lon": -76.99367683333334, "rental_uris": {"android": "https://dc.lft.to/lastmile_qr_scan", "ios": "https://dc.lft.to/lastmile_qr_scan"}, "fusion_lon": 0.0, "lat": 38.9005615, "type": "electric_scooter", "fusion_lat": 0.0, "bike_id": "a82418c9ca9b777fe9594351cfea12ae"}, {"name": "895a6472bc9f3bad8582996a948b199e", "is_reserved": 0, "is_disabled": 0, "lon": -77.027054, "rental_uris": {"android": "https://dc.lft.to/lastmile_qr_scan", "ios": "https://dc.lft.to/lastmile_qr_scan"}, "fusion_lon": 0.0, "lat": 38.9045115, "type": "electric_scooter", "fusion_lat": 0.0, "bike_id": "895a6472bc9f3bad8582996a948b199e"}, {"name": "d02da0d86545cbd412479b22f2c4a57b", "is_reserved": 0, "is_disabled": 0, "lon": -76.97835783333333, "rental_uris": {"android": "https://dc.lft.to/lastmile_qr_scan", "ios": "https://dc.lft.to/lastmile_qr_scan"}, "fusion_lon": 0.0, "lat": 38.896091166666665, "type": "electric_scooter", "fusion_lat": 0.0, "bike_id": "d02da0d86545cbd412479b22f2c4a57b"}, {"name": "bd1ce5fbf3d0bbb3eb1bffcc9a713969", "is_reserved": 0, "is_disabled": 0, "lon": -77.04994666666667, "rental_uris": {"android": "https://dc.lft.to/lastmile_qr_scan", "ios": "https://dc.lft.to/lastmile_qr_scan"}, "fusion_lon": 0.0, "lat": 38.904207666666665, "type": "electric_scooter", "fusion_lat": 0.0, "bike_id": "bd1ce5fbf3d0bbb3eb1bffcc9a713969"}, {"name": "c163a5dfce5c5030d82b925293e5b58a", "is_reserved": 0, "is_disabled": 0, "lon": -77.02499966666667, "rental_uris": {"android": "https://dc.lft.to/lastmile_qr_scan", "ios": "https://dc.lft.to/lastmile_qr_scan"}, "fusion_lon": 0.0, "lat": 38.93286916666667, "type": "electric_scooter", "fusion_lat": 0.0, "bike_id": "c163a5dfce5c5030d82b925293e5b58a"}, {"name": "501ce4dc63466f5b88b78564eeb083d2", "is_reserved": 0, "is_disabled": 0, "lon": -76.99699150000001, "rental_uris": {"android": "https://dc.lft.to/lastmile_qr_scan", "ios": "https://dc.lft.to/lastmile_qr_scan"}, "fusion_lon": 0.0, "lat": 38.884221333333336, "type": "electric_scooter", "fusion_lat": 0.0, "bike_id": "501ce4dc63466f5b88b78564eeb083d2"}, {"name": "b3d3bd65146a2f4b43d0b931617a11a7", "is_reserved": 0, "is_disabled": 0, "lon": -77.05112633333333, "rental_uris": {"android": "https://dc.lft.to/lastmile_qr_scan", "ios": "https://dc.lft.to/lastmile_qr_scan"}, "fusion_lon": 0.0, "lat": 38.94561, "type": "electric_bike", "fusion_lat": 0.0, "bike_id": "b3d3bd65146a2f4b43d0b931617a11a7"}, {"name": "677595455c3cd030afb710450899f2ec", "is_reserved": 0, "is_disabled": 0, "lon": -77.0387805, "rental_uris": {"android": "https://dc.lft.to/lastmile_qr_scan", "ios": "https://dc.lft.to/lastmile_qr_scan"}, "fusion_lon": 0.0, "lat": 38.93428383333333, "type": "electric_scooter", "fusion_lat": 0.0, "bike_id": "677595455c3cd030afb710450899f2ec"}, {"name": "ff437688504d67a669f64fffc3262b7e", "is_reserved": 0, "is_disabled": 0, "lon": -77.03438033333333, "rental_uris": {"android": "https://dc.lft.to/lastmile_qr_scan", "ios": "https://dc.lft.to/lastmile_qr_scan"}, "fusion_lon": 0.0, "lat": 38.917993333333335, "type": "electric_scooter", "fusion_lat": 0.0, "bike_id": "ff437688504d67a669f64fffc3262b7e"}, {"name": "eb6912c6603c28eafb8628d0fc6d69b4", "is_reserved": 0, "is_disabled": 0, "lon": -77.06361716666666, "rental_uris": {"android": "https://dc.lft.to/lastmile_qr_scan", "ios": "https://dc.lft.to/lastmile_qr_scan"}, "fusion_lon": 0.0, "lat": 38.944168166666664, "type": "electric_scooter", "fusion_lat": 0.0, "bike_id": "eb6912c6603c28eafb8628d0fc6d69b4"}, {"name": "cd90232426a6f6e54085310e6494d196", "is_reserved": 0, "is_disabled": 0, "lon": -76.964352, "rental_uris": {"android": "https://dc.lft.to/lastmile_qr_scan", "ios": "https://dc.lft.to/lastmile_qr_scan"}, "fusion_lon": 0.0, "lat": 38.93468716666667, "type": "electric_scooter", "fusion_lat": 0.0, "bike_id": "cd90232426a6f6e54085310e6494d196"}, {"name": "0d7bd68dbb04bce12255298cb2d27bc7", "is_reserved": 0, "is_disabled": 0, "lon": -77.10723033333333, "rental_uris": {"android": "https://dc.lft.to/lastmile_qr_scan", "ios": "https://dc.lft.to/lastmile_qr_scan"}, "fusion_lon": 0.0, "lat": 38.8554805, "type": "electric_bike", "fusion_lat": 0.0, "bike_id": "0d7bd68dbb04bce12255298cb2d27bc7"}, {"name": "512a54e844604168c162476bc532df74", "is_reserved": 0, "is_disabled": 0, "lon": -77.03929016666666, "rental_uris": {"android": "https://dc.lft.to/lastmile_qr_scan", "ios": "https://dc.lft.to/lastmile_qr_scan"}, "fusion_lon": 0.0, "lat": 38.924948, "type": "electric_scooter", "fusion_lat": 0.0, "bike_id": "512a54e844604168c162476bc532df74"}, {"name": "3360407079f6dd3aaf29d9f1071f8a18", "is_reserved": 0, "is_disabled": 0, "lon": -77.0332925, "rental_uris": {"android": "https://dc.lft.to/lastmile_qr_scan", "ios": "https://dc.lft.to/lastmile_qr_scan"}, "fusion_lon": 0.0, "lat": 38.89845916666667, "type": "electric_scooter", "fusion_lat": 0.0, "bike_id": "3360407079f6dd3aaf29d9f1071f8a18"}, {"name": "3bafa31cb2c90437ccbbecb671dacbc5", "is_reserved": 0, "is_disabled": 0, "lon": -77.056214, "rental_uris": {"android": "https://dc.lft.to/lastmile_qr_scan", "ios": "https://dc.lft.to/lastmile_qr_scan"}, "fusion_lon": 0.0, "lat": 38.85727816666667, "type": "electric_bike", "fusion_lat": 0.0, "bike_id": "3bafa31cb2c90437ccbbecb671dacbc5"}, {"name": "21201354fadca1d0b8ff35f27e197814", "is_reserved": 0, "is_disabled": 0, "lon": -77.034336, "rental_uris": {"android": "https://dc.lft.to/lastmile_qr_scan", "ios": "https://dc.lft.to/lastmile_qr_scan"}, "fusion_lon": 0.0, "lat": 38.90191733333333, "type": "electric_scooter", "fusion_lat": 0.0, "bike_id": "21201354fadca1d0b8ff35f27e197814"}, {"name": "1818650b2f5c443c0935f09bb1df4509", "is_reserved": 0, "is_disabled": 0, "lon": -76.98121716666667, "rental_uris": {"android": "https://dc.lft.to/lastmile_qr_scan", "ios": "https://dc.lft.to/lastmile_qr_scan"}, "fusion_lon": 0.0, "lat": 38.896721166666666, "type": "electric_bike", "fusion_lat": 0.0, "bike_id": "1818650b2f5c443c0935f09bb1df4509"}, {"name": "28b4eabb8659a49f42beb877712c92a0", "is_reserved": 0, "is_disabled": 0, "lon": -77.02796983333333, "rental_uris": {"android": "https://dc.lft.to/lastmile_qr_scan", "ios": "https://dc.lft.to/lastmile_qr_scan"}, "fusion_lon": 0.0, "lat": 38.93085133333334, "type": "electric_scooter", "fusion_lat": 0.0, "bike_id": "28b4eabb8659a49f42beb877712c92a0"}, {"name": "edd18b0b6dfdbc98b8e46122029998e6", "is_reserved": 0, "is_disabled": 0, "lon": -77.039914, "rental_uris": {"android": "https://dc.lft.to/lastmile_qr_scan", "ios": "https://dc.lft.to/lastmile_qr_scan"}, "fusion_lon": 0.0, "lat": 38.905951, "type": "electric_scooter", "fusion_lat": 0.0, "bike_id": "edd18b0b6dfdbc98b8e46122029998e6"}, {"name": "7a63976065759fdcad486f863194e2ce", "is_reserved": 0, "is_disabled": 0, "lon": -77.02228383333333, "rental_uris": {"android": "https://dc.lft.to/lastmile_qr_scan", "ios": "https://dc.lft.to/lastmile_qr_scan"}, "fusion_lon": 0.0, "lat": 38.912708, "type": "electric_scooter", "fusion_lat": 0.0, "bike_id": "7a63976065759fdcad486f863194e2ce"}, {"name": "99d4cb53ea3e38a8404488eb75b978e8", "is_reserved": 0, "is_disabled": 0, "lon": -76.937188, "rental_uris": {"android": "https://dc.lft.to/lastmile_qr_scan", "ios": "https://dc.lft.to/lastmile_qr_scan"}, "fusion_lon": 0.0, "lat": 38.891040333333336, "type": "electric_scooter", "fusion_lat": 0.0, "bike_id": "99d4cb53ea3e38a8404488eb75b978e8"}, {"name": "b7c2a309b05a1a2b68c6424dab37a53f", "is_reserved": 0, "is_disabled": 0, "lon": -77.0437315, "rental_uris": {"android": "https://dc.lft.to/lastmile_qr_scan", "ios": "https://dc.lft.to/lastmile_qr_scan"}, "fusion_lon": 0.0, "lat": 38.920903, "type": "electric_scooter", "fusion_lat": 0.0, "bike_id": "b7c2a309b05a1a2b68c6424dab37a53f"}, {"name": "2010a9fe3856c150998fb395f4563016", "is_reserved": 0, "is_disabled": 0, "lon": -76.99614716666666, "rental_uris": {"android": "https://dc.lft.to/lastmile_qr_scan", "ios": "https://dc.lft.to/lastmile_qr_scan"}, "fusion_lon": 0.0, "lat": 38.886152833333334, "type": "electric_scooter", "fusion_lat": 0.0, "bike_id": "2010a9fe3856c150998fb395f4563016"}, {"name": "00540170051b2e27162d547a471290a0", "is_reserved": 0, "is_disabled": 0, "lon": -77.05599883333333, "rental_uris": {"android": "https://dc.lft.to/lastmile_qr_scan", "ios": "https://dc.lft.to/lastmile_qr_scan"}, "fusion_lon": 0.0, "lat": 38.93699066666667, "type": "electric_scooter", "fusion_lat": 0.0, "bike_id": "00540170051b2e27162d547a471290a0"}, {"name": "68ead662c79c7c4b9ccc6e8b3b30ba8f", "is_reserved": 0, "is_disabled": 0, "lon": -77.1122935, "rental_uris": {"android": "https://dc.lft.to/lastmile_qr_scan", "ios": "https://dc.lft.to/lastmile_qr_scan"}, "fusion_lon": 0.0, "lat": 38.8122565, "type": "electric_bike", "fusion_lat": 0.0, "bike_id": "68ead662c79c7c4b9ccc6e8b3b30ba8f"}, {"name": "5bba90f0879affa2ea506bcfe5538746", "is_reserved": 0, "is_disabled": 0, "lon": -76.9832975, "rental_uris": {"android": "https://dc.lft.to/lastmile_qr_scan", "ios": "https://dc.lft.to/lastmile_qr_scan"}, "fusion_lon": 0.0, "lat": 38.9660715, "type": "electric_bike", "fusion_lat": 0.0, "bike_id": "5bba90f0879affa2ea506bcfe5538746"}, {"name": "d8a7c893831dc15f1d3cc3eff822da14", "is_reserved": 0, "is_disabled": 0, "lon": -77.00345583333333, "rental_uris": {"android": "https://dc.lft.to/lastmile_qr_scan", "ios": "https://dc.lft.to/lastmile_qr_scan"}, "fusion_lon": 0.0, "lat": 38.8936015, "type": "electric_scooter", "fusion_lat": 0.0, "bike_id": "d8a7c893831dc15f1d3cc3eff822da14"}, {"name": "815428af0267ec3129c9e60902f0dae2", "is_reserved": 0, "is_disabled": 0, "lon": -76.98272383333334, "rental_uris": {"android": "https://dc.lft.to/lastmile_qr_scan", "ios": "https://dc.lft.to/lastmile_qr_scan"}, "fusion_lon": 0.0, "lat": 38.91566433333333, "type": "electric_scooter", "fusion_lat": 0.0, "bike_id": "815428af0267ec3129c9e60902f0dae2"}, {"name": "5e53e7852f0976ee25d335d3f1b85fbe", "is_reserved": 0, "is_disabled": 0, "lon": -77.02158866666667, "rental_uris": {"android": "https://dc.lft.to/lastmile_qr_scan", "ios": "https://dc.lft.to/lastmile_qr_scan"}, "fusion_lon": 0.0, "lat": 38.9260605, "type": "electric_scooter", "fusion_lat": 0.0, "bike_id": "5e53e7852f0976ee25d335d3f1b85fbe"}, {"name": "dc3ff9c7737066f15cd2847271daaf02", "is_reserved": 0, "is_disabled": 0, "lon": -77.03503433333333, "rental_uris": {"android": "https://dc.lft.to/lastmile_qr_scan", "ios": "https://dc.lft.to/lastmile_qr_scan"}, "fusion_lon": 0.0, "lat": 38.9327355, "type": "electric_scooter", "fusion_lat": 0.0, "bike_id": "dc3ff9c7737066f15cd2847271daaf02"}, {"name": "f55acc9939327c3c4fa99674ea3aa3bc", "is_reserved": 0, "is_disabled": 0, "lon": -77.02587466666667, "rental_uris": {"android": "https://dc.lft.to/lastmile_qr_scan", "ios": "https://dc.lft.to/lastmile_qr_scan"}, "fusion_lon": 0.0, "lat": 38.912741, "type": "electric_scooter", "fusion_lat": 0.0, "bike_id": "f55acc9939327c3c4fa99674ea3aa3bc"}, {"name": "435bc0c69a117a767c8a530b4c34c8a2", "is_reserved": 0, "is_disabled": 0, "lon": -77.10184866666667, "rental_uris": {"android": "https://dc.lft.to/lastmile_qr_scan", "ios": "https://dc.lft.to/lastmile_qr_scan"}, "fusion_lon": 0.0, "lat": 38.918119, "type": "electric_bike", "fusion_lat": 0.0, "bike_id": "435bc0c69a117a767c8a530b4c34c8a2"}, {"name": "41f27158c0eeb0739d520153ef453056", "is_reserved": 0, "is_disabled": 0, "lon": -77.0198925, "rental_uris": {"android": "https://dc.lft.to/lastmile_qr_scan", "ios": "https://dc.lft.to/lastmile_qr_scan"}, "fusion_lon": 0.0, "lat": 38.883708666666664, "type": "electric_scooter", "fusion_lat": 0.0, "bike_id": "41f27158c0eeb0739d520153ef453056"}, {"name": "6d4f67d5152c03b7bd0e9ef1e9133750", "is_reserved": 0, "is_disabled": 0, "lon": -77.0461145, "rental_uris": {"android": "https://dc.lft.to/lastmile_qr_scan", "ios": "https://dc.lft.to/lastmile_qr_scan"}, "fusion_lon": 0.0, "lat": 38.91540066666666, "type": "electric_scooter", "fusion_lat": 0.0, "bike_id": "6d4f67d5152c03b7bd0e9ef1e9133750"}, {"name": "72e1d9930c27d97b80ec037eb9f148e1", "is_reserved": 0, "is_disabled": 0, "lon": -76.97728683333334, "rental_uris": {"android": "https://dc.lft.to/lastmile_qr_scan", "ios": "https://dc.lft.to/lastmile_qr_scan"}, "fusion_lon": 0.0, "lat": 38.8729295, "type": "electric_scooter", "fusion_lat": 0.0, "bike_id": "72e1d9930c27d97b80ec037eb9f148e1"}, {"name": "7a708f2c0ac5f47b704c8385afedcbb7", "is_reserved": 0, "is_disabled": 0, "lon": -77.072293, "rental_uris": {"android": "https://dc.lft.to/lastmile_qr_scan", "ios": "https://dc.lft.to/lastmile_qr_scan"}, "fusion_lon": 0.0, "lat": 38.93454116666667, "type": "electric_scooter", "fusion_lat": 0.0, "bike_id": "7a708f2c0ac5f47b704c8385afedcbb7"}, {"name": "18467f32377afa6c309f870eba5dd8b3", "is_reserved": 0, "is_disabled": 0, "lon": -76.99480066666666, "rental_uris": {"android": "https://dc.lft.to/lastmile_qr_scan", "ios": "https://dc.lft.to/lastmile_qr_scan"}, "fusion_lon": 0.0, "lat": 38.86216816666666, "type": "electric_scooter", "fusion_lat": 0.0, "bike_id": "18467f32377afa6c309f870eba5dd8b3"}, {"name": "32c8c7857a8ee68db70e15eeb6b9f9a5", "is_reserved": 0, "is_disabled": 0, "lon": -76.9761685, "rental_uris": {"android": "https://dc.lft.to/lastmile_qr_scan", "ios": "https://dc.lft.to/lastmile_qr_scan"}, "fusion_lon": 0.0, "lat": 38.93141716666667, "type": "electric_scooter", "fusion_lat": 0.0, "bike_id": "32c8c7857a8ee68db70e15eeb6b9f9a5"}, {"name": "ff2ea43db22b3857bf20e22f04aeed14", "is_reserved": 0, "is_disabled": 0, "lon": -77.02688566666667, "rental_uris": {"android": "https://dc.lft.to/lastmile_qr_scan", "ios": "https://dc.lft.to/lastmile_qr_scan"}, "fusion_lon": 0.0, "lat": 38.903584333333335, "type": "electric_scooter", "fusion_lat": 0.0, "bike_id": "ff2ea43db22b3857bf20e22f04aeed14"}, {"name": "bcc49890e675ae5e2f9ef3c813270240", "is_reserved": 0, "is_disabled": 0, "lon": -76.98470833333333, "rental_uris": {"android": "https://dc.lft.to/lastmile_qr_scan", "ios": "https://dc.lft.to/lastmile_qr_scan"}, "fusion_lon": 0.0, "lat": 38.92899766666667, "type": "electric_scooter", "fusion_lat": 0.0, "bike_id": "bcc49890e675ae5e2f9ef3c813270240"}, {"name": "92e15ae818e1b2a3c1b822bf107791ad", "is_reserved": 0, "is_disabled": 0, "lon": -76.99051283333333, "rental_uris": {"android": "https://dc.lft.to/lastmile_qr_scan", "ios": "https://dc.lft.to/lastmile_qr_scan"}, "fusion_lon": 0.0, "lat": 38.8590005, "type": "electric_scooter", "fusion_lat": 0.0, "bike_id": "92e15ae818e1b2a3c1b822bf107791ad"}, {"name": "ddab4b36986942bfb22bbb77dfe56cae", "is_reserved": 0, "is_disabled": 0, "lon": -77.00210333333334, "rental_uris": {"android": "https://dc.lft.to/lastmile_qr_scan", "ios": "https://dc.lft.to/lastmile_qr_scan"}, "fusion_lon": 0.0, "lat": 38.902938166666665, "type": "electric_scooter", "fusion_lat": 0.0, "bike_id": "ddab4b36986942bfb22bbb77dfe56cae"}, {"name": "92790f60244513f0954e623cbccb0341", "is_reserved": 0, "is_disabled": 0, "lon": -77.01730666666667, "rental_uris": {"android": "https://dc.lft.to/lastmile_qr_scan", "ios": "https://dc.lft.to/lastmile_qr_scan"}, "fusion_lon": 0.0, "lat": 38.87794933333333, "type": "electric_scooter", "fusion_lat": 0.0, "bike_id": "92790f60244513f0954e623cbccb0341"}, {"name": "6abddce4eb7139a4847279259e410831", "is_reserved": 0, "is_disabled": 0, "lon": -76.954712, "rental_uris": {"android": "https://dc.lft.to/lastmile_qr_scan", "ios": "https://dc.lft.to/lastmile_qr_scan"}, "fusion_lon": 0.0, "lat": 38.93572983333333, "type": "electric_bike", "fusion_lat": 0.0, "bike_id": "6abddce4eb7139a4847279259e410831"}, {"name": "a68f1e2608646066597ffc7993a6010f", "is_reserved": 0, "is_disabled": 0, "lon": -77.00605733333333, "rental_uris": {"android": "https://dc.lft.to/lastmile_qr_scan", "ios": "https://dc.lft.to/lastmile_qr_scan"}, "fusion_lon": 0.0, "lat": 38.87181983333333, "type": "electric_scooter", "fusion_lat": 0.0, "bike_id": "a68f1e2608646066597ffc7993a6010f"}, {"name": "8cd24a1d8a8b741c318ac11203b77295", "is_reserved": 0, "is_disabled": 0, "lon": -77.0857205, "rental_uris": {"android": "https://dc.lft.to/lastmile_qr_scan", "ios": "https://dc.lft.to/lastmile_qr_scan"}, "fusion_lon": 0.0, "lat": 38.87427383333333, "type": "electric_bike", "fusion_lat": 0.0, "bike_id": "8cd24a1d8a8b741c318ac11203b77295"}, {"name": "1f83813163f7ca2311eff8a948fbd7f0", "is_reserved": 0, "is_disabled": 0, "lon": -77.05437583333334, "rental_uris": {"android": "https://dc.lft.to/lastmile_qr_scan", "ios": "https://dc.lft.to/lastmile_qr_scan"}, "fusion_lon": 0.0, "lat": 38.8960515, "type": "electric_scooter", "fusion_lat": 0.0, "bike_id": "1f83813163f7ca2311eff8a948fbd7f0"}, {"name": "ae73c1888c4b0de25e6cb3fd06a728f8", "is_reserved": 0, "is_disabled": 0, "lon": -77.0249275, "rental_uris": {"android": "https://dc.lft.to/lastmile_qr_scan", "ios": "https://dc.lft.to/lastmile_qr_scan"}, "fusion_lon": 0.0, "lat": 38.97400183333333, "type": "electric_bike", "fusion_lat": 0.0, "bike_id": "ae73c1888c4b0de25e6cb3fd06a728f8"}, {"name": "623657825a26fba450fa6ad5a6dea030", "is_reserved": 0, "is_disabled": 0, "lon": -77.03638616666667, "rental_uris": {"android": "https://dc.lft.to/lastmile_qr_scan", "ios": "https://dc.lft.to/lastmile_qr_scan"}, "fusion_lon": 0.0, "lat": 38.931681833333336, "type": "electric_scooter", "fusion_lat": 0.0, "bike_id": "623657825a26fba450fa6ad5a6dea030"}, {"name": "0f0142f89d2434bf617bcb4b12dcc8c5", "is_reserved": 0, "is_disabled": 0, "lon": -77.0019565, "rental_uris": {"android": "https://dc.lft.to/lastmile_qr_scan", "ios": "https://dc.lft.to/lastmile_qr_scan"}, "fusion_lon": 0.0, "lat": 38.90041133333333, "type": "electric_scooter", "fusion_lat": 0.0, "bike_id": "0f0142f89d2434bf617bcb4b12dcc8c5"}, {"name": "692e9b563b17affb9e7459e61e30cc71", "is_reserved": 0, "is_disabled": 0, "lon": -77.0256815, "rental_uris": {"android": "https://dc.lft.to/lastmile_qr_scan", "ios": "https://dc.lft.to/lastmile_qr_scan"}, "fusion_lon": 0.0, "lat": 38.93091833333333, "type": "electric_scooter", "fusion_lat": 0.0, "bike_id": "692e9b563b17affb9e7459e61e30cc71"}, {"name": "4be4c0de9aaadaeb0ae869ab9f74e20d", "is_reserved": 0, "is_disabled": 0, "lon": -76.98043733333333, "rental_uris": {"android": "https://dc.lft.to/lastmile_qr_scan", "ios": "https://dc.lft.to/lastmile_qr_scan"}, "fusion_lon": 0.0, "lat": 38.91686133333333, "type": "electric_scooter", "fusion_lat": 0.0, "bike_id": "4be4c0de9aaadaeb0ae869ab9f74e20d"}, {"name": "7ee6623e7f54fb8b2fa0cb2bfa6a4b03", "is_reserved": 0, "is_disabled": 0, "lon": -77.00869933333334, "rental_uris": {"android": "https://dc.lft.to/lastmile_qr_scan", "ios": "https://dc.lft.to/lastmile_qr_scan"}, "fusion_lon": 0.0, "lat": 38.9056685, "type": "electric_scooter", "fusion_lat": 0.0, "bike_id": "7ee6623e7f54fb8b2fa0cb2bfa6a4b03"}, {"name": "9f71e0038e8350f26953be76078a6483", "is_reserved": 0, "is_disabled": 0, "lon": -77.03329733333334, "rental_uris": {"android": "https://dc.lft.to/lastmile_qr_scan", "ios": "https://dc.lft.to/lastmile_qr_scan"}, "fusion_lon": 0.0, "lat": 38.898474, "type": "electric_scooter", "fusion_lat": 0.0, "bike_id": "9f71e0038e8350f26953be76078a6483"}, {"name": "3deae0367f6416a2c8a5f64c7cb18e5e", "is_reserved": 0, "is_disabled": 0, "lon": -77.033601, "rental_uris": {"android": "https://dc.lft.to/lastmile_qr_scan", "ios": "https://dc.lft.to/lastmile_qr_scan"}, "fusion_lon": 0.0, "lat": 38.9119385, "type": "electric_scooter", "fusion_lat": 0.0, "bike_id": "3deae0367f6416a2c8a5f64c7cb18e5e"}, {"name": "5be08d02390748d2c6115fe64d311613", "is_reserved": 0, "is_disabled": 0, "lon": -77.02231183333333, "rental_uris": {"android": "https://dc.lft.to/lastmile_qr_scan", "ios": "https://dc.lft.to/lastmile_qr_scan"}, "fusion_lon": 0.0, "lat": 38.88770066666667, "type": "electric_scooter", "fusion_lat": 0.0, "bike_id": "5be08d02390748d2c6115fe64d311613"}, {"name": "0cec4d9f62e6b95669ecca4cc56967fe", "is_reserved": 0, "is_disabled": 0, "lon": -77.02293216666666, "rental_uris": {"android": "https://dc.lft.to/lastmile_qr_scan", "ios": "https://dc.lft.to/lastmile_qr_scan"}, "fusion_lon": 0.0, "lat": 38.90154833333333, "type": "electric_scooter", "fusion_lat": 0.0, "bike_id": "0cec4d9f62e6b95669ecca4cc56967fe"}, {"name": "612e39ddfb3a453b186c3c6b1f8ddd24", "is_reserved": 0, "is_disabled": 0, "lon": -77.06346583333334, "rental_uris": {"android": "https://dc.lft.to/lastmile_qr_scan", "ios": "https://dc.lft.to/lastmile_qr_scan"}, "fusion_lon": 0.0, "lat": 38.94455283333333, "type": "electric_scooter", "fusion_lat": 0.0, "bike_id": "612e39ddfb3a453b186c3c6b1f8ddd24"}, {"name": "03d6c67b32c841cc30bd95bc01c6f3d5", "is_reserved": 0, "is_disabled": 0, "lon": -77.0278005, "rental_uris": {"android": "https://dc.lft.to/lastmile_qr_scan", "ios": "https://dc.lft.to/lastmile_qr_scan"}, "fusion_lon": 0.0, "lat": 38.892213, "type": "electric_scooter", "fusion_lat": 0.0, "bike_id": "03d6c67b32c841cc30bd95bc01c6f3d5"}, {"name": "9ac546c5f98d936da1efa8fcdecfc5ac", "is_reserved": 0, "is_disabled": 0, "lon": -77.025394, "rental_uris": {"android": "https://dc.lft.to/lastmile_qr_scan", "ios": "https://dc.lft.to/lastmile_qr_scan"}, "fusion_lon": 0.0, "lat": 38.897207333333334, "type": "electric_scooter", "fusion_lat": 0.0, "bike_id": "9ac546c5f98d936da1efa8fcdecfc5ac"}, {"name": "937afc5cba26dc94b432d9df96dcc161", "is_reserved": 0, "is_disabled": 0, "lon": -77.032807, "rental_uris": {"android": "https://dc.lft.to/lastmile_qr_scan", "ios": "https://dc.lft.to/lastmile_qr_scan"}, "fusion_lon": 0.0, "lat": 38.91917266666667, "type": "electric_scooter", "fusion_lat": 0.0, "bike_id": "937afc5cba26dc94b432d9df96dcc161"}, {"name": "5934c2e1351292c07cf201472cb3b34e", "is_reserved": 0, "is_disabled": 0, "lon": -77.0096815, "rental_uris": {"android": "https://dc.lft.to/lastmile_qr_scan", "ios": "https://dc.lft.to/lastmile_qr_scan"}, "fusion_lon": 0.0, "lat": 38.881302, "type": "electric_scooter", "fusion_lat": 0.0, "bike_id": "5934c2e1351292c07cf201472cb3b34e"}, {"name": "fa308bbe94892cf1a63343ee1220ca61", "is_reserved": 0, "is_disabled": 0, "lon": -77.02005366666667, "rental_uris": {"android": "https://dc.lft.to/lastmile_qr_scan", "ios": "https://dc.lft.to/lastmile_qr_scan"}, "fusion_lon": 0.0, "lat": 38.92413633333334, "type": "electric_scooter", "fusion_lat": 0.0, "bike_id": "fa308bbe94892cf1a63343ee1220ca61"}, {"name": "d08d74cd4f65c6c71a90cae440a82251", "is_reserved": 0, "is_disabled": 0, "lon": -77.0034375, "rental_uris": {"android": "https://dc.lft.to/lastmile_qr_scan", "ios": "https://dc.lft.to/lastmile_qr_scan"}, "fusion_lon": 0.0, "lat": 38.91349183333333, "type": "electric_scooter", "fusion_lat": 0.0, "bike_id": "d08d74cd4f65c6c71a90cae440a82251"}, {"name": "8d00285ace9e7c8f1b476f1897fbf670", "is_reserved": 0, "is_disabled": 0, "lon": -77.03180733333333, "rental_uris": {"android": "https://dc.lft.to/lastmile_qr_scan", "ios": "https://dc.lft.to/lastmile_qr_scan"}, "fusion_lon": 0.0, "lat": 38.96423766666667, "type": "electric_scooter", "fusion_lat": 0.0, "bike_id": "8d00285ace9e7c8f1b476f1897fbf670"}, {"name": "ddf8bb2faffb4f22c35bd04b417c68d1", "is_reserved": 0, "is_disabled": 0, "lon": -77.0239375, "rental_uris": {"android": "https://dc.lft.to/lastmile_qr_scan", "ios": "https://dc.lft.to/lastmile_qr_scan"}, "fusion_lon": 0.0, "lat": 38.9370585, "type": "electric_scooter", "fusion_lat": 0.0, "bike_id": "ddf8bb2faffb4f22c35bd04b417c68d1"}, {"name": "eb3d8b883c5765ad616785a3d4e6f4dd", "is_reserved": 0, "is_disabled": 0, "lon": -77.02175266666667, "rental_uris": {"android": "https://dc.lft.to/lastmile_qr_scan", "ios": "https://dc.lft.to/lastmile_qr_scan"}, "fusion_lon": 0.0, "lat": 38.943131, "type": "electric_scooter", "fusion_lat": 0.0, "bike_id": "eb3d8b883c5765ad616785a3d4e6f4dd"}, {"name": "b66fe2c9f059d3e460a5f52787008e41", "is_reserved": 0, "is_disabled": 0, "lon": -77.02953916666667, "rental_uris": {"android": "https://dc.lft.to/lastmile_qr_scan", "ios": "https://dc.lft.to/lastmile_qr_scan"}, "fusion_lon": 0.0, "lat": 38.89618766666667, "type": "electric_scooter", "fusion_lat": 0.0, "bike_id": "b66fe2c9f059d3e460a5f52787008e41"}, {"name": "4523953f4a0d5d024804683f5507c772", "is_reserved": 0, "is_disabled": 0, "lon": -77.00067283333334, "rental_uris": {"android": "https://dc.lft.to/lastmile_qr_scan", "ios": "https://dc.lft.to/lastmile_qr_scan"}, "fusion_lon": 0.0, "lat": 38.8929575, "type": "electric_scooter", "fusion_lat": 0.0, "bike_id": "4523953f4a0d5d024804683f5507c772"}, {"name": "aeb0d1414ac7ac2e297d35cc57a2b3e5", "is_reserved": 0, "is_disabled": 0, "lon": -77.04235933333334, "rental_uris": {"android": "https://dc.lft.to/lastmile_qr_scan", "ios": "https://dc.lft.to/lastmile_qr_scan"}, "fusion_lon": 0.0, "lat": 38.89738216666667, "type": "electric_scooter", "fusion_lat": 0.0, "bike_id": "aeb0d1414ac7ac2e297d35cc57a2b3e5"}, {"name": "5709f890430bf69c928a2c930f706396", "is_reserved": 0, "is_disabled": 0, "lon": -77.00545566666666, "rental_uris": {"android": "https://dc.lft.to/lastmile_qr_scan", "ios": "https://dc.lft.to/lastmile_qr_scan"}, "fusion_lon": 0.0, "lat": 38.874544666666665, "type": "electric_scooter", "fusion_lat": 0.0, "bike_id": "5709f890430bf69c928a2c930f706396"}, {"name": "203c0f71cf1c8a5ff90455c0b3265609", "is_reserved": 0, "is_disabled": 0, "lon": -77.05039933333333, "rental_uris": {"android": "https://dc.lft.to/lastmile_qr_scan", "ios": "https://dc.lft.to/lastmile_qr_scan"}, "fusion_lon": 0.0, "lat": 38.8965635, "type": "electric_scooter", "fusion_lat": 0.0, "bike_id": "203c0f71cf1c8a5ff90455c0b3265609"}, {"name": "abbcfd642949ff14f79536e1840944e4", "is_reserved": 0, "is_disabled": 0, "lon": -77.0295865, "rental_uris": {"android": "https://dc.lft.to/lastmile_qr_scan", "ios": "https://dc.lft.to/lastmile_qr_scan"}, "fusion_lon": 0.0, "lat": 38.921484, "type": "electric_scooter", "fusion_lat": 0.0, "bike_id": "abbcfd642949ff14f79536e1840944e4"}, {"name": "cd9818f9814bcae8a02e6595aa410a04", "is_reserved": 0, "is_disabled": 0, "lon": -77.03440566666667, "rental_uris": {"android": "https://dc.lft.to/lastmile_qr_scan", "ios": "https://dc.lft.to/lastmile_qr_scan"}, "fusion_lon": 0.0, "lat": 38.91035933333333, "type": "electric_scooter", "fusion_lat": 0.0, "bike_id": "cd9818f9814bcae8a02e6595aa410a04"}, {"name": "da6fbafc406710a0df80fdb74a4867e3", "is_reserved": 0, "is_disabled": 0, "lon": -77.06278666666667, "rental_uris": {"android": "https://dc.lft.to/lastmile_qr_scan", "ios": "https://dc.lft.to/lastmile_qr_scan"}, "fusion_lon": 0.0, "lat": 38.9057385, "type": "electric_scooter", "fusion_lat": 0.0, "bike_id": "da6fbafc406710a0df80fdb74a4867e3"}, {"name": "c7f0bf9b61ec2fd892220245773c8f29", "is_reserved": 0, "is_disabled": 0, "lon": -76.965429, "rental_uris": {"android": "https://dc.lft.to/lastmile_qr_scan", "ios": "https://dc.lft.to/lastmile_qr_scan"}, "fusion_lon": 0.0, "lat": 38.91842833333333, "type": "electric_scooter", "fusion_lat": 0.0, "bike_id": "c7f0bf9b61ec2fd892220245773c8f29"}, {"name": "23d3cce14746d406765f7d20a7f062f5", "is_reserved": 0, "is_disabled": 0, "lon": -77.0240965, "rental_uris": {"android": "https://dc.lft.to/lastmile_qr_scan", "ios": "https://dc.lft.to/lastmile_qr_scan"}, "fusion_lon": 0.0, "lat": 38.9370515, "type": "electric_scooter", "fusion_lat": 0.0, "bike_id": "23d3cce14746d406765f7d20a7f062f5"}, {"name": "1cd0a601e2f95144f4ce2e44ddc08280", "is_reserved": 0, "is_disabled": 0, "lon": -77.06285766666667, "rental_uris": {"android": "https://dc.lft.to/lastmile_qr_scan", "ios": "https://dc.lft.to/lastmile_qr_scan"}, "fusion_lon": 0.0, "lat": 38.903718166666664, "type": "electric_scooter", "fusion_lat": 0.0, "bike_id": "1cd0a601e2f95144f4ce2e44ddc08280"}, {"name": "8d29b90bb636f70b1bb598e3755a7dbb", "is_reserved": 0, "is_disabled": 0, "lon": -77.06349833333333, "rental_uris": {"android": "https://dc.lft.to/lastmile_qr_scan", "ios": "https://dc.lft.to/lastmile_qr_scan"}, "fusion_lon": 0.0, "lat": 38.908451, "type": "electric_scooter", "fusion_lat": 0.0, "bike_id": "8d29b90bb636f70b1bb598e3755a7dbb"}, {"name": "21d848c4a06cca01e23b6f17f89f0336", "is_reserved": 0, "is_disabled": 0, "lon": -77.04059, "rental_uris": {"android": "https://dc.lft.to/lastmile_qr_scan", "ios": "https://dc.lft.to/lastmile_qr_scan"}, "fusion_lon": 0.0, "lat": 38.905072833333335, "type": "electric_scooter", "fusion_lat": 0.0, "bike_id": "21d848c4a06cca01e23b6f17f89f0336"}, {"name": "02e9ff4fb1509b059433557e9ac7243e", "is_reserved": 0, "is_disabled": 0, "lon": -77.04489816666667, "rental_uris": {"android": "https://dc.lft.to/lastmile_qr_scan", "ios": "https://dc.lft.to/lastmile_qr_scan"}, "fusion_lon": 0.0, "lat": 38.90927283333333, "type": "electric_scooter", "fusion_lat": 0.0, "bike_id": "02e9ff4fb1509b059433557e9ac7243e"}, {"name": "f710c10c92d7566b6410e83fdd114cd0", "is_reserved": 0, "is_disabled": 0, "lon": -77.06265566666667, "rental_uris": {"android": "https://dc.lft.to/lastmile_qr_scan", "ios": "https://dc.lft.to/lastmile_qr_scan"}, "fusion_lon": 0.0, "lat": 38.904981666666664, "type": "electric_scooter", "fusion_lat": 0.0, "bike_id": "f710c10c92d7566b6410e83fdd114cd0"}, {"name": "b2defcde0ff903a9cdf37c8b3f3d91d7", "is_reserved": 0, "is_disabled": 0, "lon": -77.003718, "rental_uris": {"android": "https://dc.lft.to/lastmile_qr_scan", "ios": "https://dc.lft.to/lastmile_qr_scan"}, "fusion_lon": 0.0, "lat": 38.87757216666667, "type": "electric_scooter", "fusion_lat": 0.0, "bike_id": "b2defcde0ff903a9cdf37c8b3f3d91d7"}, {"name": "af78431b871a90b0997813760321d820", "is_reserved": 0, "is_disabled": 0, "lon": -77.05796683333334, "rental_uris": {"android": "https://dc.lft.to/lastmile_qr_scan", "ios": "https://dc.lft.to/lastmile_qr_scan"}, "fusion_lon": 0.0, "lat": 38.90373866666667, "type": "electric_scooter", "fusion_lat": 0.0, "bike_id": "af78431b871a90b0997813760321d820"}, {"name": "007c6703da2bc7e67cc78cd8deea94a4", "is_reserved": 0, "is_disabled": 0, "lon": -77.132304, "rental_uris": {"android": "https://dc.lft.to/lastmile_qr_scan", "ios": "https://dc.lft.to/lastmile_qr_scan"}, "fusion_lon": 0.0, "lat": 38.869754666666665, "type": "electric_bike", "fusion_lat": 0.0, "bike_id": "007c6703da2bc7e67cc78cd8deea94a4"}, {"name": "366dea4800bdaecf18a166e95213f3ce", "is_reserved": 0, "is_disabled": 0, "lon": -76.99169683333334, "rental_uris": {"android": "https://dc.lft.to/lastmile_qr_scan", "ios": "https://dc.lft.to/lastmile_qr_scan"}, "fusion_lon": 0.0, "lat": 38.88974416666667, "type": "electric_bike", "fusion_lat": 0.0, "bike_id": "366dea4800bdaecf18a166e95213f3ce"}, {"name": "cc645026299a63fa6f8602b9dffd9551", "is_reserved": 0, "is_disabled": 0, "lon": -77.01036883333333, "rental_uris": {"android": "https://dc.lft.to/lastmile_qr_scan", "ios": "https://dc.lft.to/lastmile_qr_scan"}, "fusion_lon": 0.0, "lat": 38.90009416666667, "type": "electric_scooter", "fusion_lat": 0.0, "bike_id": "cc645026299a63fa6f8602b9dffd9551"}, {"name": "1f547d81e91ab20aeb7e13015a0fce8c", "is_reserved": 0, "is_disabled": 0, "lon": -77.0056645, "rental_uris": {"android": "https://dc.lft.to/lastmile_qr_scan", "ios": "https://dc.lft.to/lastmile_qr_scan"}, "fusion_lon": 0.0, "lat": 38.8850335, "type": "electric_scooter", "fusion_lat": 0.0, "bike_id": "1f547d81e91ab20aeb7e13015a0fce8c"}, {"name": "72606e96e264c4e4db0fe2a160fdba0a", "is_reserved": 0, "is_disabled": 0, "lon": -77.02524383333333, "rental_uris": {"android": "https://dc.lft.to/lastmile_qr_scan", "ios": "https://dc.lft.to/lastmile_qr_scan"}, "fusion_lon": 0.0, "lat": 38.900914, "type": "electric_scooter", "fusion_lat": 0.0, "bike_id": "72606e96e264c4e4db0fe2a160fdba0a"}, {"name": "a2ad3b9e0fc9f9894d037f9d96b162b9", "is_reserved": 0, "is_disabled": 0, "lon": -77.007476, "rental_uris": {"android": "https://dc.lft.to/lastmile_qr_scan", "ios": "https://dc.lft.to/lastmile_qr_scan"}, "fusion_lon": 0.0, "lat": 38.876613666666664, "type": "electric_scooter", "fusion_lat": 0.0, "bike_id": "a2ad3b9e0fc9f9894d037f9d96b162b9"}, {"name": "b44798f3357105e82ccfb1c5f2dea768", "is_reserved": 0, "is_disabled": 0, "lon": -77.0216605, "rental_uris": {"android": "https://dc.lft.to/lastmile_qr_scan", "ios": "https://dc.lft.to/lastmile_qr_scan"}, "fusion_lon": 0.0, "lat": 38.94296516666667, "type": "electric_scooter", "fusion_lat": 0.0, "bike_id": "b44798f3357105e82ccfb1c5f2dea768"}, {"name": "bb1662ad990707b5aefec6cca7f0cb30", "is_reserved": 0, "is_disabled": 0, "lon": -77.0240945, "rental_uris": {"android": "https://dc.lft.to/lastmile_qr_scan", "ios": "https://dc.lft.to/lastmile_qr_scan"}, "fusion_lon": 0.0, "lat": 38.91831466666667, "type": "electric_scooter", "fusion_lat": 0.0, "bike_id": "bb1662ad990707b5aefec6cca7f0cb30"}, {"name": "83ce3905a1c9338d771e347a9747a524", "is_reserved": 0, "is_disabled": 0, "lon": -77.07167683333333, "rental_uris": {"android": "https://dc.lft.to/lastmile_qr_scan", "ios": "https://dc.lft.to/lastmile_qr_scan"}, "fusion_lon": 0.0, "lat": 38.90775516666667, "type": "electric_scooter", "fusion_lat": 0.0, "bike_id": "83ce3905a1c9338d771e347a9747a524"}, {"name": "b351b748bddeb3aec423f2250634efc4", "is_reserved": 0, "is_disabled": 0, "lon": -77.0471255, "rental_uris": {"android": "https://dc.lft.to/lastmile_qr_scan", "ios": "https://dc.lft.to/lastmile_qr_scan"}, "fusion_lon": 0.0, "lat": 38.91771516666667, "type": "electric_scooter", "fusion_lat": 0.0, "bike_id": "b351b748bddeb3aec423f2250634efc4"}, {"name": "4ecb626e9d40a4deffbb609de505831e", "is_reserved": 0, "is_disabled": 0, "lon": -77.03335666666666, "rental_uris": {"android": "https://dc.lft.to/lastmile_qr_scan", "ios": "https://dc.lft.to/lastmile_qr_scan"}, "fusion_lon": 0.0, "lat": 38.898292833333336, "type": "electric_scooter", "fusion_lat": 0.0, "bike_id": "4ecb626e9d40a4deffbb609de505831e"}, {"name": "176bf7bfafcd1c21fd41bdefcb2b65f1", "is_reserved": 0, "is_disabled": 0, "lon": -77.046488, "rental_uris": {"android": "https://dc.lft.to/lastmile_qr_scan", "ios": "https://dc.lft.to/lastmile_qr_scan"}, "fusion_lon": 0.0, "lat": 38.90509266666667, "type": "electric_scooter", "fusion_lat": 0.0, "bike_id": "176bf7bfafcd1c21fd41bdefcb2b65f1"}, {"name": "a5acb04d4527e0192506fd967dd3472f", "is_reserved": 0, "is_disabled": 0, "lon": -77.01748633333334, "rental_uris": {"android": "https://dc.lft.to/lastmile_qr_scan", "ios": "https://dc.lft.to/lastmile_qr_scan"}, "fusion_lon": 0.0, "lat": 38.8863275, "type": "electric_scooter", "fusion_lat": 0.0, "bike_id": "a5acb04d4527e0192506fd967dd3472f"}, {"name": "e67647393e6e8da8fc32f3780259b665", "is_reserved": 0, "is_disabled": 0, "lon": -77.09956266666667, "rental_uris": {"android": "https://dc.lft.to/lastmile_qr_scan", "ios": "https://dc.lft.to/lastmile_qr_scan"}, "fusion_lon": 0.0, "lat": 38.92247316666667, "type": "electric_scooter", "fusion_lat": 0.0, "bike_id": "e67647393e6e8da8fc32f3780259b665"}, {"name": "63a0e4482a86e19e41408156f248885c", "is_reserved": 0, "is_disabled": 0, "lon": -77.03097383333333, "rental_uris": {"android": "https://dc.lft.to/lastmile_qr_scan", "ios": "https://dc.lft.to/lastmile_qr_scan"}, "fusion_lon": 0.0, "lat": 38.919148, "type": "electric_scooter", "fusion_lat": 0.0, "bike_id": "63a0e4482a86e19e41408156f248885c"}, {"name": "bde4ca02e0641d7b5c62680859f9256d", "is_reserved": 0, "is_disabled": 0, "lon": -77.01747316666666, "rental_uris": {"android": "https://dc.lft.to/lastmile_qr_scan", "ios": "https://dc.lft.to/lastmile_qr_scan"}, "fusion_lon": 0.0, "lat": 38.872773333333335, "type": "electric_scooter", "fusion_lat": 0.0, "bike_id": "bde4ca02e0641d7b5c62680859f9256d"}, {"name": "5c43d5c12466694ae2f4db6be1d83e5d", "is_reserved": 0, "is_disabled": 0, "lon": -76.961738, "rental_uris": {"android": "https://dc.lft.to/lastmile_qr_scan", "ios": "https://dc.lft.to/lastmile_qr_scan"}, "fusion_lon": 0.0, "lat": 38.91860766666667, "type": "electric_bike", "fusion_lat": 0.0, "bike_id": "5c43d5c12466694ae2f4db6be1d83e5d"}, {"name": "d24551d061c4b356dd2ec9a8876a9023", "is_reserved": 0, "is_disabled": 0, "lon": -77.03355683333334, "rental_uris": {"android": "https://dc.lft.to/lastmile_qr_scan", "ios": "https://dc.lft.to/lastmile_qr_scan"}, "fusion_lon": 0.0, "lat": 38.92451833333333, "type": "electric_scooter", "fusion_lat": 0.0, "bike_id": "d24551d061c4b356dd2ec9a8876a9023"}, {"name": "6e0efc440f1be75cfb3c030c134da07d", "is_reserved": 0, "is_disabled": 0, "lon": -77.03899333333334, "rental_uris": {"android": "https://dc.lft.to/lastmile_qr_scan", "ios": "https://dc.lft.to/lastmile_qr_scan"}, "fusion_lon": 0.0, "lat": 38.92236466666667, "type": "electric_scooter", "fusion_lat": 0.0, "bike_id": "6e0efc440f1be75cfb3c030c134da07d"}, {"name": "a393dbb39b8abeef7e63dd35774d000f", "is_reserved": 0, "is_disabled": 0, "lon": -77.04517816666667, "rental_uris": {"android": "https://dc.lft.to/lastmile_qr_scan", "ios": "https://dc.lft.to/lastmile_qr_scan"}, "fusion_lon": 0.0, "lat": 38.9073925, "type": "electric_scooter", "fusion_lat": 0.0, "bike_id": "a393dbb39b8abeef7e63dd35774d000f"}, {"name": "ecf7e21337e6f3ac6b409cc4315a03cc", "is_reserved": 0, "is_disabled": 0, "lon": -77.08152583333333, "rental_uris": {"android": "https://dc.lft.to/lastmile_qr_scan", "ios": "https://dc.lft.to/lastmile_qr_scan"}, "fusion_lon": 0.0, "lat": 38.88883233333333, "type": "electric_bike", "fusion_lat": 0.0, "bike_id": "ecf7e21337e6f3ac6b409cc4315a03cc"}, {"name": "a9922ce8248b7c87c118a98507635335", "is_reserved": 0, "is_disabled": 0, "lon": -77.04603866666666, "rental_uris": {"android": "https://dc.lft.to/lastmile_qr_scan", "ios": "https://dc.lft.to/lastmile_qr_scan"}, "fusion_lon": 0.0, "lat": 38.91066083333333, "type": "electric_scooter", "fusion_lat": 0.0, "bike_id": "a9922ce8248b7c87c118a98507635335"}, {"name": "aa9fd0f96d6ecefdc07829b4bce96950", "is_reserved": 0, "is_disabled": 0, "lon": -77.00338233333333, "rental_uris": {"android": "https://dc.lft.to/lastmile_qr_scan", "ios": "https://dc.lft.to/lastmile_qr_scan"}, "fusion_lon": 0.0, "lat": 38.893561, "type": "electric_scooter", "fusion_lat": 0.0, "bike_id": "aa9fd0f96d6ecefdc07829b4bce96950"}, {"name": "277a79977cc9c48eee4a168b8ea75f9e", "is_reserved": 0, "is_disabled": 0, "lon": -77.01580683333333, "rental_uris": {"android": "https://dc.lft.to/lastmile_qr_scan", "ios": "https://dc.lft.to/lastmile_qr_scan"}, "fusion_lon": 0.0, "lat": 38.87658366666667, "type": "electric_scooter", "fusion_lat": 0.0, "bike_id": "277a79977cc9c48eee4a168b8ea75f9e"}, {"name": "31cc6ccb9b0ff63dcb98fe640b346450", "is_reserved": 0, "is_disabled": 0, "lon": -77.01277566666667, "rental_uris": {"android": "https://dc.lft.to/lastmile_qr_scan", "ios": "https://dc.lft.to/lastmile_qr_scan"}, "fusion_lon": 0.0, "lat": 38.8779135, "type": "electric_bike", "fusion_lat": 0.0, "bike_id": "31cc6ccb9b0ff63dcb98fe640b346450"}, {"name": "17b1b0b22db3d38d89567f1878a475b5", "is_reserved": 0, "is_disabled": 0, "lon": -77.02269266666667, "rental_uris": {"android": "https://dc.lft.to/lastmile_qr_scan", "ios": "https://dc.lft.to/lastmile_qr_scan"}, "fusion_lon": 0.0, "lat": 38.887342, "type": "electric_scooter", "fusion_lat": 0.0, "bike_id": "17b1b0b22db3d38d89567f1878a475b5"}, {"name": "9803122946b43dc5d3d6d8eaf4c565c4", "is_reserved": 0, "is_disabled": 0, "lon": -77.02587533333333, "rental_uris": {"android": "https://dc.lft.to/lastmile_qr_scan", "ios": "https://dc.lft.to/lastmile_qr_scan"}, "fusion_lon": 0.0, "lat": 38.97584616666666, "type": "electric_scooter", "fusion_lat": 0.0, "bike_id": "9803122946b43dc5d3d6d8eaf4c565c4"}, {"name": "dde34de51e038d45a28912239939d3cd", "is_reserved": 0, "is_disabled": 0, "lon": -77.02558583333334, "rental_uris": {"android": "https://dc.lft.to/lastmile_qr_scan", "ios": "https://dc.lft.to/lastmile_qr_scan"}, "fusion_lon": 0.0, "lat": 38.92068166666667, "type": "electric_scooter", "fusion_lat": 0.0, "bike_id": "dde34de51e038d45a28912239939d3cd"}, {"name": "d499021553c9c98d5cc4c0b5ffed5314", "is_reserved": 0, "is_disabled": 0, "lon": -77.0412205, "rental_uris": {"android": "https://dc.lft.to/lastmile_qr_scan", "ios": "https://dc.lft.to/lastmile_qr_scan"}, "fusion_lon": 0.0, "lat": 38.906332666666664, "type": "electric_scooter", "fusion_lat": 0.0, "bike_id": "d499021553c9c98d5cc4c0b5ffed5314"}, {"name": "ed84ac5aea63f5e021259b8effead255", "is_reserved": 0, "is_disabled": 0, "lon": -77.04754566666666, "rental_uris": {"android": "https://dc.lft.to/lastmile_qr_scan", "ios": "https://dc.lft.to/lastmile_qr_scan"}, "fusion_lon": 0.0, "lat": 38.905431166666666, "type": "electric_scooter", "fusion_lat": 0.0, "bike_id": "ed84ac5aea63f5e021259b8effead255"}, {"name": "6719c0cac293608953f1faf5c80d328a", "is_reserved": 0, "is_disabled": 0, "lon": -77.04624616666666, "rental_uris": {"android": "https://dc.lft.to/lastmile_qr_scan", "ios": "https://dc.lft.to/lastmile_qr_scan"}, "fusion_lon": 0.0, "lat": 38.905593, "type": "electric_scooter", "fusion_lat": 0.0, "bike_id": "6719c0cac293608953f1faf5c80d328a"}, {"name": "e073be85ba74131ad350cd8c1ed148a4", "is_reserved": 0, "is_disabled": 0, "lon": -77.03209383333333, "rental_uris": {"android": "https://dc.lft.to/lastmile_qr_scan", "ios": "https://dc.lft.to/lastmile_qr_scan"}, "fusion_lon": 0.0, "lat": 38.914361, "type": "electric_scooter", "fusion_lat": 0.0, "bike_id": "e073be85ba74131ad350cd8c1ed148a4"}, {"name": "df72e3b8888f611a57103bc6b16dbfa6", "is_reserved": 0, "is_disabled": 0, "lon": -76.94196266666667, "rental_uris": {"android": "https://dc.lft.to/lastmile_qr_scan", "ios": "https://dc.lft.to/lastmile_qr_scan"}, "fusion_lon": 0.0, "lat": 38.89373, "type": "electric_scooter", "fusion_lat": 0.0, "bike_id": "df72e3b8888f611a57103bc6b16dbfa6"}, {"name": "9b5fba1e00265549aee13038966693e9", "is_reserved": 0, "is_disabled": 0, "lon": -77.02208916666666, "rental_uris": {"android": "https://dc.lft.to/lastmile_qr_scan", "ios": "https://dc.lft.to/lastmile_qr_scan"}, "fusion_lon": 0.0, "lat": 38.9211085, "type": "electric_scooter", "fusion_lat": 0.0, "bike_id": "9b5fba1e00265549aee13038966693e9"}, {"name": "8151d6923a300c14a15564a7af55b00f", "is_reserved": 0, "is_disabled": 0, "lon": -77.01851983333333, "rental_uris": {"android": "https://dc.lft.to/lastmile_qr_scan", "ios": "https://dc.lft.to/lastmile_qr_scan"}, "fusion_lon": 0.0, "lat": 38.95428533333333, "type": "electric_scooter", "fusion_lat": 0.0, "bike_id": "8151d6923a300c14a15564a7af55b00f"}, {"name": "6ba756f337805a55340d22a267a992d9", "is_reserved": 0, "is_disabled": 0, "lon": -77.0628725, "rental_uris": {"android": "https://dc.lft.to/lastmile_qr_scan", "ios": "https://dc.lft.to/lastmile_qr_scan"}, "fusion_lon": 0.0, "lat": 38.90682133333333, "type": "electric_scooter", "fusion_lat": 0.0, "bike_id": "6ba756f337805a55340d22a267a992d9"}, {"name": "e8d18ea14e91732499ffeebaf06c856b", "is_reserved": 0, "is_disabled": 0, "lon": -77.09961116666666, "rental_uris": {"android": "https://dc.lft.to/lastmile_qr_scan", "ios": "https://dc.lft.to/lastmile_qr_scan"}, "fusion_lon": 0.0, "lat": 38.857943166666665, "type": "electric_bike", "fusion_lat": 0.0, "bike_id": "e8d18ea14e91732499ffeebaf06c856b"}, {"name": "19b275be16c3eb14c2079e8eded53fac", "is_reserved": 0, "is_disabled": 0, "lon": -76.93196133333333, "rental_uris": {"android": "https://dc.lft.to/lastmile_qr_scan", "ios": "https://dc.lft.to/lastmile_qr_scan"}, "fusion_lon": 0.0, "lat": 38.87241233333334, "type": "electric_bike", "fusion_lat": 0.0, "bike_id": "19b275be16c3eb14c2079e8eded53fac"}, {"name": "f41406522df92afbd085f558b8890b55", "is_reserved": 0, "is_disabled": 0, "lon": -77.04265733333334, "rental_uris": {"android": "https://dc.lft.to/lastmile_qr_scan", "ios": "https://dc.lft.to/lastmile_qr_scan"}, "fusion_lon": 0.0, "lat": 38.92069683333333, "type": "electric_scooter", "fusion_lat": 0.0, "bike_id": "f41406522df92afbd085f558b8890b55"}, {"name": "6bb3fb2668731b6d3d1718b7a79053b8", "is_reserved": 0, "is_disabled": 0, "lon": -77.02608883333333, "rental_uris": {"android": "https://dc.lft.to/lastmile_qr_scan", "ios": "https://dc.lft.to/lastmile_qr_scan"}, "fusion_lon": 0.0, "lat": 38.91619133333333, "type": "electric_scooter", "fusion_lat": 0.0, "bike_id": "6bb3fb2668731b6d3d1718b7a79053b8"}, {"name": "f067e6eb8eea221e71dde2cd94ae17a0", "is_reserved": 0, "is_disabled": 0, "lon": -77.076602, "rental_uris": {"android": "https://dc.lft.to/lastmile_qr_scan", "ios": "https://dc.lft.to/lastmile_qr_scan"}, "fusion_lon": 0.0, "lat": 38.91083, "type": "electric_scooter", "fusion_lat": 0.0, "bike_id": "f067e6eb8eea221e71dde2cd94ae17a0"}, {"name": "d17992859a886a61bdda0218bca0174d", "is_reserved": 0, "is_disabled": 0, "lon": -77.03998866666667, "rental_uris": {"android": "https://dc.lft.to/lastmile_qr_scan", "ios": "https://dc.lft.to/lastmile_qr_scan"}, "fusion_lon": 0.0, "lat": 38.8887125, "type": "electric_scooter", "fusion_lat": 0.0, "bike_id": "d17992859a886a61bdda0218bca0174d"}, {"name": "c25e6f6688dafa771722cd5c728427d5", "is_reserved": 0, "is_disabled": 0, "lon": -77.0262485, "rental_uris": {"android": "https://dc.lft.to/lastmile_qr_scan", "ios": "https://dc.lft.to/lastmile_qr_scan"}, "fusion_lon": 0.0, "lat": 38.8873945, "type": "electric_scooter", "fusion_lat": 0.0, "bike_id": "c25e6f6688dafa771722cd5c728427d5"}, {"name": "0ef80796b04d636437f0c8d2b26716cd", "is_reserved": 0, "is_disabled": 0, "lon": -76.992044, "rental_uris": {"android": "https://dc.lft.to/lastmile_qr_scan", "ios": "https://dc.lft.to/lastmile_qr_scan"}, "fusion_lon": 0.0, "lat": 38.89521366666666, "type": "electric_scooter", "fusion_lat": 0.0, "bike_id": "0ef80796b04d636437f0c8d2b26716cd"}, {"name": "50bc44048069d734d14db3d158898b04", "is_reserved": 0, "is_disabled": 0, "lon": -77.04020266666667, "rental_uris": {"android": "https://dc.lft.to/lastmile_qr_scan", "ios": "https://dc.lft.to/lastmile_qr_scan"}, "fusion_lon": 0.0, "lat": 38.905892, "type": "electric_scooter", "fusion_lat": 0.0, "bike_id": "50bc44048069d734d14db3d158898b04"}, {"name": "37fc22ad5ddc4f17b9f04a14d330d392", "is_reserved": 0, "is_disabled": 0, "lon": -77.026662, "rental_uris": {"android": "https://dc.lft.to/lastmile_qr_scan", "ios": "https://dc.lft.to/lastmile_qr_scan"}, "fusion_lon": 0.0, "lat": 38.954849333333335, "type": "electric_bike", "fusion_lat": 0.0, "bike_id": "37fc22ad5ddc4f17b9f04a14d330d392"}, {"name": "652446795af6e08b2fdbdea20977647f", "is_reserved": 0, "is_disabled": 0, "lon": -77.0318565, "rental_uris": {"android": "https://dc.lft.to/lastmile_qr_scan", "ios": "https://dc.lft.to/lastmile_qr_scan"}, "fusion_lon": 0.0, "lat": 38.88665616666667, "type": "electric_scooter", "fusion_lat": 0.0, "bike_id": "652446795af6e08b2fdbdea20977647f"}, {"name": "40ed47c37be76b6cb5e7e4a2a74df838", "is_reserved": 0, "is_disabled": 0, "lon": -77.015527, "rental_uris": {"android": "https://dc.lft.to/lastmile_qr_scan", "ios": "https://dc.lft.to/lastmile_qr_scan"}, "fusion_lon": 0.0, "lat": 38.91375683333333, "type": "electric_scooter", "fusion_lat": 0.0, "bike_id": "40ed47c37be76b6cb5e7e4a2a74df838"}, {"name": "a6d67130a23297bebe2786d95781f01e", "is_reserved": 0, "is_disabled": 0, "lon": -77.0417605, "rental_uris": {"android": "https://dc.lft.to/lastmile_qr_scan", "ios": "https://dc.lft.to/lastmile_qr_scan"}, "fusion_lon": 0.0, "lat": 38.9073225, "type": "electric_scooter", "fusion_lat": 0.0, "bike_id": "a6d67130a23297bebe2786d95781f01e"}, {"name": "aaaeb89032878536aec41780f873c904", "is_reserved": 0, "is_disabled": 0, "lon": -77.00762066666667, "rental_uris": {"android": "https://dc.lft.to/lastmile_qr_scan", "ios": "https://dc.lft.to/lastmile_qr_scan"}, "fusion_lon": 0.0, "lat": 38.900603, "type": "electric_scooter", "fusion_lat": 0.0, "bike_id": "aaaeb89032878536aec41780f873c904"}, {"name": "190388781f70a116faf3b9635149e76c", "is_reserved": 0, "is_disabled": 0, "lon": -77.0215525, "rental_uris": {"android": "https://dc.lft.to/lastmile_qr_scan", "ios": "https://dc.lft.to/lastmile_qr_scan"}, "fusion_lon": 0.0, "lat": 38.926036833333335, "type": "electric_scooter", "fusion_lat": 0.0, "bike_id": "190388781f70a116faf3b9635149e76c"}, {"name": "92a90922985ee21dddf985d05282e648", "is_reserved": 0, "is_disabled": 0, "lon": -76.94655566666667, "rental_uris": {"android": "https://dc.lft.to/lastmile_qr_scan", "ios": "https://dc.lft.to/lastmile_qr_scan"}, "fusion_lon": 0.0, "lat": 38.89824383333333, "type": "electric_scooter", "fusion_lat": 0.0, "bike_id": "92a90922985ee21dddf985d05282e648"}, {"name": "7ad656d59c664297ee9a805b464abd28", "is_reserved": 0, "is_disabled": 0, "lon": -77.06348416666667, "rental_uris": {"android": "https://dc.lft.to/lastmile_qr_scan", "ios": "https://dc.lft.to/lastmile_qr_scan"}, "fusion_lon": 0.0, "lat": 38.913363833333335, "type": "electric_scooter", "fusion_lat": 0.0, "bike_id": "7ad656d59c664297ee9a805b464abd28"}, {"name": "100917a290340cce5a58a5d38bbd59f9", "is_reserved": 0, "is_disabled": 0, "lon": -77.04831683333333, "rental_uris": {"android": "https://dc.lft.to/lastmile_qr_scan", "ios": "https://dc.lft.to/lastmile_qr_scan"}, "fusion_lon": 0.0, "lat": 38.89837333333333, "type": "electric_scooter", "fusion_lat": 0.0, "bike_id": "100917a290340cce5a58a5d38bbd59f9"}, {"name": "b10665e6c0a604940e47e35c0044ad0a", "is_reserved": 0, "is_disabled": 0, "lon": -77.039973, "rental_uris": {"android": "https://dc.lft.to/lastmile_qr_scan", "ios": "https://dc.lft.to/lastmile_qr_scan"}, "fusion_lon": 0.0, "lat": 38.9141945, "type": "electric_scooter", "fusion_lat": 0.0, "bike_id": "b10665e6c0a604940e47e35c0044ad0a"}, {"name": "0acb2df40d88e8ef89781f886a32ef90", "is_reserved": 0, "is_disabled": 0, "lon": -77.03194666666667, "rental_uris": {"android": "https://dc.lft.to/lastmile_qr_scan", "ios": "https://dc.lft.to/lastmile_qr_scan"}, "fusion_lon": 0.0, "lat": 38.91919166666667, "type": "electric_scooter", "fusion_lat": 0.0, "bike_id": "0acb2df40d88e8ef89781f886a32ef90"}, {"name": "1a7d2ca24bd978d042b7dcbe7469cb71", "is_reserved": 0, "is_disabled": 0, "lon": -77.3530815, "rental_uris": {"android": "https://dc.lft.to/lastmile_qr_scan", "ios": "https://dc.lft.to/lastmile_qr_scan"}, "fusion_lon": 0.0, "lat": 38.95003166666667, "type": "electric_bike", "fusion_lat": 0.0, "bike_id": "1a7d2ca24bd978d042b7dcbe7469cb71"}, {"name": "fcb437c9dde44c922200bbfd6b30c101", "is_reserved": 0, "is_disabled": 0, "lon": -76.99720233333333, "rental_uris": {"android": "https://dc.lft.to/lastmile_qr_scan", "ios": "https://dc.lft.to/lastmile_qr_scan"}, "fusion_lon": 0.0, "lat": 38.91114733333333, "type": "electric_scooter", "fusion_lat": 0.0, "bike_id": "fcb437c9dde44c922200bbfd6b30c101"}, {"name": "7580fb97605adf3a8cef4b1023d34560", "is_reserved": 0, "is_disabled": 0, "lon": -77.03343016666666, "rental_uris": {"android": "https://dc.lft.to/lastmile_qr_scan", "ios": "https://dc.lft.to/lastmile_qr_scan"}, "fusion_lon": 0.0, "lat": 38.922383833333335, "type": "electric_scooter", "fusion_lat": 0.0, "bike_id": "7580fb97605adf3a8cef4b1023d34560"}, {"name": "1a69a8123d555f7f10def80bcd29064e", "is_reserved": 0, "is_disabled": 0, "lon": -76.9981855, "rental_uris": {"android": "https://dc.lft.to/lastmile_qr_scan", "ios": "https://dc.lft.to/lastmile_qr_scan"}, "fusion_lon": 0.0, "lat": 38.84436316666667, "type": "electric_scooter", "fusion_lat": 0.0, "bike_id": "1a69a8123d555f7f10def80bcd29064e"}, {"name": "f589e0cdfdfca781583f9685f66536a4", "is_reserved": 0, "is_disabled": 0, "lon": -77.12623766666667, "rental_uris": {"android": "https://dc.lft.to/lastmile_qr_scan", "ios": "https://dc.lft.to/lastmile_qr_scan"}, "fusion_lon": 0.0, "lat": 39.05815533333333, "type": "electric_bike", "fusion_lat": 0.0, "bike_id": "f589e0cdfdfca781583f9685f66536a4"}, {"name": "4d15aab2350a2121e094e8eb57992bf2", "is_reserved": 0, "is_disabled": 0, "lon": -77.05046133333333, "rental_uris": {"android": "https://dc.lft.to/lastmile_qr_scan", "ios": "https://dc.lft.to/lastmile_qr_scan"}, "fusion_lon": 0.0, "lat": 38.923597666666666, "type": "electric_scooter", "fusion_lat": 0.0, "bike_id": "4d15aab2350a2121e094e8eb57992bf2"}, {"name": "d84da68f7b9aa9e15c7c613d3799f564", "is_reserved": 0, "is_disabled": 0, "lon": -77.0326125, "rental_uris": {"android": "https://dc.lft.to/lastmile_qr_scan", "ios": "https://dc.lft.to/lastmile_qr_scan"}, "fusion_lon": 0.0, "lat": 38.929271, "type": "electric_scooter", "fusion_lat": 0.0, "bike_id": "d84da68f7b9aa9e15c7c613d3799f564"}, {"name": "dd56e960461aaeb74ce4a90aa144ad2c", "is_reserved": 0, "is_disabled": 0, "lon": -76.979449, "rental_uris": {"android": "https://dc.lft.to/lastmile_qr_scan", "ios": "https://dc.lft.to/lastmile_qr_scan"}, "fusion_lon": 0.0, "lat": 38.952357, "type": "electric_bike", "fusion_lat": 0.0, "bike_id": "dd56e960461aaeb74ce4a90aa144ad2c"}, {"name": "6ab7433471a3e4e23fe3717c5bf1654c", "is_reserved": 0, "is_disabled": 0, "lon": -77.03959, "rental_uris": {"android": "https://dc.lft.to/lastmile_qr_scan", "ios": "https://dc.lft.to/lastmile_qr_scan"}, "fusion_lon": 0.0, "lat": 38.89241116666667, "type": "electric_scooter", "fusion_lat": 0.0, "bike_id": "6ab7433471a3e4e23fe3717c5bf1654c"}, {"name": "74ccae49ba2bd3f9492b2345bce9987a", "is_reserved": 0, "is_disabled": 0, "lon": -77.044104, "rental_uris": {"android": "https://dc.lft.to/lastmile_qr_scan", "ios": "https://dc.lft.to/lastmile_qr_scan"}, "fusion_lon": 0.0, "lat": 38.910458166666665, "type": "electric_scooter", "fusion_lat": 0.0, "bike_id": "74ccae49ba2bd3f9492b2345bce9987a"}, {"name": "01ad1d0c0e0f87740e951f6a4dacb57c", "is_reserved": 0, "is_disabled": 0, "lon": -76.9882275, "rental_uris": {"android": "https://dc.lft.to/lastmile_qr_scan", "ios": "https://dc.lft.to/lastmile_qr_scan"}, "fusion_lon": 0.0, "lat": 38.842765, "type": "electric_bike", "fusion_lat": 0.0, "bike_id": "01ad1d0c0e0f87740e951f6a4dacb57c"}, {"name": "99181f8bd003249d864f29205dd0b473", "is_reserved": 0, "is_disabled": 0, "lon": -77.05339783333334, "rental_uris": {"android": "https://dc.lft.to/lastmile_qr_scan", "ios": "https://dc.lft.to/lastmile_qr_scan"}, "fusion_lon": 0.0, "lat": 38.902401833333336, "type": "electric_scooter", "fusion_lat": 0.0, "bike_id": "99181f8bd003249d864f29205dd0b473"}, {"name": "196938cfa8a959ebd24f7a9a0115afca", "is_reserved": 0, "is_disabled": 0, "lon": -77.01731783333334, "rental_uris": {"android": "https://dc.lft.to/lastmile_qr_scan", "ios": "https://dc.lft.to/lastmile_qr_scan"}, "fusion_lon": 0.0, "lat": 38.94208116666667, "type": "electric_scooter", "fusion_lat": 0.0, "bike_id": "196938cfa8a959ebd24f7a9a0115afca"}, {"name": "994e8007acb6ad3d89b778d627e4d78d", "is_reserved": 0, "is_disabled": 0, "lon": -77.00583783333333, "rental_uris": {"android": "https://dc.lft.to/lastmile_qr_scan", "ios": "https://dc.lft.to/lastmile_qr_scan"}, "fusion_lon": 0.0, "lat": 38.876472166666666, "type": "electric_scooter", "fusion_lat": 0.0, "bike_id": "994e8007acb6ad3d89b778d627e4d78d"}, {"name": "9292c83086d28d32ad9c7ea76526b8bc", "is_reserved": 0, "is_disabled": 0, "lon": -77.00759716666667, "rental_uris": {"android": "https://dc.lft.to/lastmile_qr_scan", "ios": "https://dc.lft.to/lastmile_qr_scan"}, "fusion_lon": 0.0, "lat": 38.915549, "type": "electric_scooter", "fusion_lat": 0.0, "bike_id": "9292c83086d28d32ad9c7ea76526b8bc"}, {"name": "6a5c343650ec19bba7e9434ba2ff9132", "is_reserved": 0, "is_disabled": 0, "lon": -77.02956, "rental_uris": {"android": "https://dc.lft.to/lastmile_qr_scan", "ios": "https://dc.lft.to/lastmile_qr_scan"}, "fusion_lon": 0.0, "lat": 38.892241166666665, "type": "electric_scooter", "fusion_lat": 0.0, "bike_id": "6a5c343650ec19bba7e9434ba2ff9132"}, {"name": "861adef3c2c143fe09ce624dd05a115c", "is_reserved": 0, "is_disabled": 0, "lon": -77.03470283333333, "rental_uris": {"android": "https://dc.lft.to/lastmile_qr_scan", "ios": "https://dc.lft.to/lastmile_qr_scan"}, "fusion_lon": 0.0, "lat": 38.92869266666666, "type": "electric_scooter", "fusion_lat": 0.0, "bike_id": "861adef3c2c143fe09ce624dd05a115c"}, {"name": "26b0e6780015682995e52e9a6801ccbb", "is_reserved": 0, "is_disabled": 0, "lon": -77.00565816666666, "rental_uris": {"android": "https://dc.lft.to/lastmile_qr_scan", "ios": "https://dc.lft.to/lastmile_qr_scan"}, "fusion_lon": 0.0, "lat": 38.8850505, "type": "electric_scooter", "fusion_lat": 0.0, "bike_id": "26b0e6780015682995e52e9a6801ccbb"}, {"name": "0441636eb124306e80e1dbefc24fd01b", "is_reserved": 0, "is_disabled": 0, "lon": -76.98685166666667, "rental_uris": {"android": "https://dc.lft.to/lastmile_qr_scan", "ios": "https://dc.lft.to/lastmile_qr_scan"}, "fusion_lon": 0.0, "lat": 38.885328666666666, "type": "electric_scooter", "fusion_lat": 0.0, "bike_id": "0441636eb124306e80e1dbefc24fd01b"}, {"name": "15ed86000e8e7dd4a98813b5739ff477", "is_reserved": 0, "is_disabled": 0, "lon": -77.02065916666666, "rental_uris": {"android": "https://dc.lft.to/lastmile_qr_scan", "ios": "https://dc.lft.to/lastmile_qr_scan"}, "fusion_lon": 0.0, "lat": 38.90406566666667, "type": "electric_scooter", "fusion_lat": 0.0, "bike_id": "15ed86000e8e7dd4a98813b5739ff477"}, {"name": "e0ff0bf142068e2f7018da58ce91cfa3", "is_reserved": 0, "is_disabled": 0, "lon": -77.01371433333334, "rental_uris": {"android": "https://dc.lft.to/lastmile_qr_scan", "ios": "https://dc.lft.to/lastmile_qr_scan"}, "fusion_lon": 0.0, "lat": 38.89223416666667, "type": "electric_scooter", "fusion_lat": 0.0, "bike_id": "e0ff0bf142068e2f7018da58ce91cfa3"}, {"name": "8a8763eccdd80d62c305fd0f5d5da502", "is_reserved": 0, "is_disabled": 0, "lon": -77.04346333333334, "rental_uris": {"android": "https://dc.lft.to/lastmile_qr_scan", "ios": "https://dc.lft.to/lastmile_qr_scan"}, "fusion_lon": 0.0, "lat": 38.91064016666667, "type": "electric_scooter", "fusion_lat": 0.0, "bike_id": "8a8763eccdd80d62c305fd0f5d5da502"}, {"name": "a009b2da743206b0f1a2bce082d046bb", "is_reserved": 0, "is_disabled": 0, "lon": -76.9890565, "rental_uris": {"android": "https://dc.lft.to/lastmile_qr_scan", "ios": "https://dc.lft.to/lastmile_qr_scan"}, "fusion_lon": 0.0, "lat": 38.900269, "type": "electric_bike", "fusion_lat": 0.0, "bike_id": "a009b2da743206b0f1a2bce082d046bb"}, {"name": "c0a11e243fada9045488a84613bbc3c9", "is_reserved": 0, "is_disabled": 0, "lon": -77.03792333333334, "rental_uris": {"android": "https://dc.lft.to/lastmile_qr_scan", "ios": "https://dc.lft.to/lastmile_qr_scan"}, "fusion_lon": 0.0, "lat": 38.919830166666664, "type": "electric_scooter", "fusion_lat": 0.0, "bike_id": "c0a11e243fada9045488a84613bbc3c9"}, {"name": "5f3941c18e068836b0c75a5895967e1b", "is_reserved": 0, "is_disabled": 0, "lon": -77.039073, "rental_uris": {"android": "https://dc.lft.to/lastmile_qr_scan", "ios": "https://dc.lft.to/lastmile_qr_scan"}, "fusion_lon": 0.0, "lat": 38.90467133333333, "type": "electric_scooter", "fusion_lat": 0.0, "bike_id": "5f3941c18e068836b0c75a5895967e1b"}, {"name": "53414ea7e682c9a248a0b3c82d925278", "is_reserved": 0, "is_disabled": 0, "lon": -77.04409933333334, "rental_uris": {"android": "https://dc.lft.to/lastmile_qr_scan", "ios": "https://dc.lft.to/lastmile_qr_scan"}, "fusion_lon": 0.0, "lat": 38.893943166666666, "type": "electric_scooter", "fusion_lat": 0.0, "bike_id": "53414ea7e682c9a248a0b3c82d925278"}, {"name": "9e9bc131df32ad59e2fb343dac141594", "is_reserved": 0, "is_disabled": 0, "lon": -77.02387016666667, "rental_uris": {"android": "https://dc.lft.to/lastmile_qr_scan", "ios": "https://dc.lft.to/lastmile_qr_scan"}, "fusion_lon": 0.0, "lat": 38.9204155, "type": "electric_scooter", "fusion_lat": 0.0, "bike_id": "9e9bc131df32ad59e2fb343dac141594"}, {"name": "92d84aed194043125c993d43ceb22e61", "is_reserved": 0, "is_disabled": 0, "lon": -76.9719245, "rental_uris": {"android": "https://dc.lft.to/lastmile_qr_scan", "ios": "https://dc.lft.to/lastmile_qr_scan"}, "fusion_lon": 0.0, "lat": 38.892510333333334, "type": "electric_bike", "fusion_lat": 0.0, "bike_id": "92d84aed194043125c993d43ceb22e61"}, {"name": "2c0344fd6fdbc19051226458985dee01", "is_reserved": 0, "is_disabled": 0, "lon": -77.0318105, "rental_uris": {"android": "https://dc.lft.to/lastmile_qr_scan", "ios": "https://dc.lft.to/lastmile_qr_scan"}, "fusion_lon": 0.0, "lat": 38.909498666666664, "type": "electric_scooter", "fusion_lat": 0.0, "bike_id": "2c0344fd6fdbc19051226458985dee01"}, {"name": "156d0c718dc6be210bb77c63111400b1", "is_reserved": 0, "is_disabled": 0, "lon": -76.90963683333334, "rental_uris": {"android": "https://dc.lft.to/lastmile_qr_scan", "ios": "https://dc.lft.to/lastmile_qr_scan"}, "fusion_lon": 0.0, "lat": 38.854341, "type": "electric_bike", "fusion_lat": 0.0, "bike_id": "156d0c718dc6be210bb77c63111400b1"}, {"name": "cada8df7e8d53347f850bf71e5658a17", "is_reserved": 0, "is_disabled": 0, "lon": -76.93757666666667, "rental_uris": {"android": "https://dc.lft.to/lastmile_qr_scan", "ios": "https://dc.lft.to/lastmile_qr_scan"}, "fusion_lon": 0.0, "lat": 38.89037483333333, "type": "electric_scooter", "fusion_lat": 0.0, "bike_id": "cada8df7e8d53347f850bf71e5658a17"}, {"name": "685b3bd78bbf52fb2e27a1fa0bed5414", "is_reserved": 0, "is_disabled": 0, "lon": -77.04423766666666, "rental_uris": {"android": "https://dc.lft.to/lastmile_qr_scan", "ios": "https://dc.lft.to/lastmile_qr_scan"}, "fusion_lon": 0.0, "lat": 38.923477, "type": "electric_scooter", "fusion_lat": 0.0, "bike_id": "685b3bd78bbf52fb2e27a1fa0bed5414"}, {"name": "3e584286395bd8f310cea990ff6531a3", "is_reserved": 0, "is_disabled": 0, "lon": -77.01611916666667, "rental_uris": {"android": "https://dc.lft.to/lastmile_qr_scan", "ios": "https://dc.lft.to/lastmile_qr_scan"}, "fusion_lon": 0.0, "lat": 38.89965483333334, "type": "electric_scooter", "fusion_lat": 0.0, "bike_id": "3e584286395bd8f310cea990ff6531a3"}, {"name": "9b26178cd06732016e67ab52f5437cf9", "is_reserved": 0, "is_disabled": 0, "lon": -77.06562516666666, "rental_uris": {"android": "https://dc.lft.to/lastmile_qr_scan", "ios": "https://dc.lft.to/lastmile_qr_scan"}, "fusion_lon": 0.0, "lat": 38.905198666666664, "type": "electric_scooter", "fusion_lat": 0.0, "bike_id": "9b26178cd06732016e67ab52f5437cf9"}, {"name": "47ff034ee30ea16e8741612035fa7699", "is_reserved": 0, "is_disabled": 0, "lon": -77.0034525, "rental_uris": {"android": "https://dc.lft.to/lastmile_qr_scan", "ios": "https://dc.lft.to/lastmile_qr_scan"}, "fusion_lon": 0.0, "lat": 38.9226755, "type": "electric_scooter", "fusion_lat": 0.0, "bike_id": "47ff034ee30ea16e8741612035fa7699"}, {"name": "752bc42f0c82eeee6d16f868548317e8", "is_reserved": 0, "is_disabled": 0, "lon": -77.00930583333333, "rental_uris": {"android": "https://dc.lft.to/lastmile_qr_scan", "ios": "https://dc.lft.to/lastmile_qr_scan"}, "fusion_lon": 0.0, "lat": 38.89652566666667, "type": "electric_scooter", "fusion_lat": 0.0, "bike_id": "752bc42f0c82eeee6d16f868548317e8"}, {"name": "a8c70a1c82f32c8ba0cb217b52d4abaa", "is_reserved": 0, "is_disabled": 0, "lon": -77.05839416666667, "rental_uris": {"android": "https://dc.lft.to/lastmile_qr_scan", "ios": "https://dc.lft.to/lastmile_qr_scan"}, "fusion_lon": 0.0, "lat": 38.905294833333336, "type": "electric_scooter", "fusion_lat": 0.0, "bike_id": "a8c70a1c82f32c8ba0cb217b52d4abaa"}, {"name": "383d171bfbbcece036eb197131ef3ecd", "is_reserved": 0, "is_disabled": 0, "lon": -77.04362433333333, "rental_uris": {"android": "https://dc.lft.to/lastmile_qr_scan", "ios": "https://dc.lft.to/lastmile_qr_scan"}, "fusion_lon": 0.0, "lat": 38.907046, "type": "electric_scooter", "fusion_lat": 0.0, "bike_id": "383d171bfbbcece036eb197131ef3ecd"}, {"name": "f505ad5c697860c61e4822c1663fc6ec", "is_reserved": 0, "is_disabled": 0, "lon": -77.03477266666667, "rental_uris": {"android": "https://dc.lft.to/lastmile_qr_scan", "ios": "https://dc.lft.to/lastmile_qr_scan"}, "fusion_lon": 0.0, "lat": 38.930986, "type": "electric_scooter", "fusion_lat": 0.0, "bike_id": "f505ad5c697860c61e4822c1663fc6ec"}, {"name": "41aad0190a96579e7769fa346373f721", "is_reserved": 0, "is_disabled": 0, "lon": -77.03203416666666, "rental_uris": {"android": "https://dc.lft.to/lastmile_qr_scan", "ios": "https://dc.lft.to/lastmile_qr_scan"}, "fusion_lon": 0.0, "lat": 38.976473666666664, "type": "electric_bike", "fusion_lat": 0.0, "bike_id": "41aad0190a96579e7769fa346373f721"}, {"name": "190ff884b1403b6c1fe72b5f033facde", "is_reserved": 0, "is_disabled": 0, "lon": -77.0416925, "rental_uris": {"android": "https://dc.lft.to/lastmile_qr_scan", "ios": "https://dc.lft.to/lastmile_qr_scan"}, "fusion_lon": 0.0, "lat": 38.91338, "type": "electric_scooter", "fusion_lat": 0.0, "bike_id": "190ff884b1403b6c1fe72b5f033facde"}, {"name": "1cc962742969345f29637b54698dc3ca", "is_reserved": 0, "is_disabled": 0, "lon": -77.01466516666666, "rental_uris": {"android": "https://dc.lft.to/lastmile_qr_scan", "ios": "https://dc.lft.to/lastmile_qr_scan"}, "fusion_lon": 0.0, "lat": 38.920251, "type": "electric_bike", "fusion_lat": 0.0, "bike_id": "1cc962742969345f29637b54698dc3ca"}, {"name": "2af51a19d987ffaf9fe45cfb60a90baa", "is_reserved": 0, "is_disabled": 0, "lon": -77.0228915, "rental_uris": {"android": "https://dc.lft.to/lastmile_qr_scan", "ios": "https://dc.lft.to/lastmile_qr_scan"}, "fusion_lon": 0.0, "lat": 38.916540166666664, "type": "electric_scooter", "fusion_lat": 0.0, "bike_id": "2af51a19d987ffaf9fe45cfb60a90baa"}, {"name": "a564b3d5c99cf166699cb40620d2cffd", "is_reserved": 0, "is_disabled": 0, "lon": -77.002902, "rental_uris": {"android": "https://dc.lft.to/lastmile_qr_scan", "ios": "https://dc.lft.to/lastmile_qr_scan"}, "fusion_lon": 0.0, "lat": 38.893560666666666, "type": "electric_scooter", "fusion_lat": 0.0, "bike_id": "a564b3d5c99cf166699cb40620d2cffd"}, {"name": "25691a6e4605ddedd91020ac8f1c2466", "is_reserved": 0, "is_disabled": 0, "lon": -77.03844366666667, "rental_uris": {"android": "https://dc.lft.to/lastmile_qr_scan", "ios": "https://dc.lft.to/lastmile_qr_scan"}, "fusion_lon": 0.0, "lat": 38.90273083333334, "type": "electric_scooter", "fusion_lat": 0.0, "bike_id": "25691a6e4605ddedd91020ac8f1c2466"}, {"name": "ffc357608aba94ee1c881d499ef912d3", "is_reserved": 0, "is_disabled": 0, "lon": -77.01951, "rental_uris": {"android": "https://dc.lft.to/lastmile_qr_scan", "ios": "https://dc.lft.to/lastmile_qr_scan"}, "fusion_lon": 0.0, "lat": 38.922464, "type": "electric_scooter", "fusion_lat": 0.0, "bike_id": "ffc357608aba94ee1c881d499ef912d3"}, {"name": "049cc0ad341a2c0ef0677002e0b25064", "is_reserved": 0, "is_disabled": 0, "lon": -77.02927866666667, "rental_uris": {"android": "https://dc.lft.to/lastmile_qr_scan", "ios": "https://dc.lft.to/lastmile_qr_scan"}, "fusion_lon": 0.0, "lat": 38.898439, "type": "electric_scooter", "fusion_lat": 0.0, "bike_id": "049cc0ad341a2c0ef0677002e0b25064"}, {"name": "1c92efd7bf879954a0267d25406b98f6", "is_reserved": 0, "is_disabled": 0, "lon": -77.062885, "rental_uris": {"android": "https://dc.lft.to/lastmile_qr_scan", "ios": "https://dc.lft.to/lastmile_qr_scan"}, "fusion_lon": 0.0, "lat": 38.906181, "type": "electric_scooter", "fusion_lat": 0.0, "bike_id": "1c92efd7bf879954a0267d25406b98f6"}, {"name": "445b1ecdc58180b8f594e224d9c0ebb6", "is_reserved": 0, "is_disabled": 0, "lon": -77.04321383333334, "rental_uris": {"android": "https://dc.lft.to/lastmile_qr_scan", "ios": "https://dc.lft.to/lastmile_qr_scan"}, "fusion_lon": 0.0, "lat": 38.90379683333333, "type": "electric_scooter", "fusion_lat": 0.0, "bike_id": "445b1ecdc58180b8f594e224d9c0ebb6"}, {"name": "3bedd41e7ede7e13786f492790137c07", "is_reserved": 0, "is_disabled": 0, "lon": -77.054385, "rental_uris": {"android": "https://dc.lft.to/lastmile_qr_scan", "ios": "https://dc.lft.to/lastmile_qr_scan"}, "fusion_lon": 0.0, "lat": 38.89605233333333, "type": "electric_scooter", "fusion_lat": 0.0, "bike_id": "3bedd41e7ede7e13786f492790137c07"}, {"name": "54ea769ee382cd259b6549492c09df40", "is_reserved": 0, "is_disabled": 0, "lon": -77.040818, "rental_uris": {"android": "https://dc.lft.to/lastmile_qr_scan", "ios": "https://dc.lft.to/lastmile_qr_scan"}, "fusion_lon": 0.0, "lat": 38.89852333333333, "type": "electric_scooter", "fusion_lat": 0.0, "bike_id": "54ea769ee382cd259b6549492c09df40"}, {"name": "483e8e6b47f99d9cc85e578b528df092", "is_reserved": 0, "is_disabled": 0, "lon": -76.94825166666666, "rental_uris": {"android": "https://dc.lft.to/lastmile_qr_scan", "ios": "https://dc.lft.to/lastmile_qr_scan"}, "fusion_lon": 0.0, "lat": 38.88515616666667, "type": "electric_scooter", "fusion_lat": 0.0, "bike_id": "483e8e6b47f99d9cc85e578b528df092"}, {"name": "829ebfe71152ee26e6bb45d20519624c", "is_reserved": 0, "is_disabled": 0, "lon": -77.0249835, "rental_uris": {"android": "https://dc.lft.to/lastmile_qr_scan", "ios": "https://dc.lft.to/lastmile_qr_scan"}, "fusion_lon": 0.0, "lat": 38.920674166666664, "type": "electric_scooter", "fusion_lat": 0.0, "bike_id": "829ebfe71152ee26e6bb45d20519624c"}, {"name": "2460853bcaafbc76b1ab9caf27b83ff8", "is_reserved": 0, "is_disabled": 0, "lon": -76.98726683333334, "rental_uris": {"android": "https://dc.lft.to/lastmile_qr_scan", "ios": "https://dc.lft.to/lastmile_qr_scan"}, "fusion_lon": 0.0, "lat": 38.867131666666666, "type": "electric_scooter", "fusion_lat": 0.0, "bike_id": "2460853bcaafbc76b1ab9caf27b83ff8"}, {"name": "dcf656fd85e92257cd968158738f74c7", "is_reserved": 0, "is_disabled": 0, "lon": -76.95204116666666, "rental_uris": {"android": "https://dc.lft.to/lastmile_qr_scan", "ios": "https://dc.lft.to/lastmile_qr_scan"}, "fusion_lon": 0.0, "lat": 38.93667666666666, "type": "electric_bike", "fusion_lat": 0.0, "bike_id": "dcf656fd85e92257cd968158738f74c7"}, {"name": "a34475b8a66d1cf4d07afb2133ac4ef4", "is_reserved": 0, "is_disabled": 0, "lon": -77.04640266666667, "rental_uris": {"android": "https://dc.lft.to/lastmile_qr_scan", "ios": "https://dc.lft.to/lastmile_qr_scan"},