{"data": {"bikes": [{"is_reserved": 0, "bike_id": "cf63d0ad26759f6664f10af39e10936f", "type": "electric_scooter", "name": "cf63d0ad26759f6664f10af39e10936f", "is_disabled": 0, "fusion_lon": 0.0, "rental_uris": {"android": "https://dc.lft.to/lastmile_qr_scan", "ios": "https://dc.lft.to/lastmile_qr_scan"}, "lat": 38.9357955, "lon": -77.02125433333333, "fusion_lat": 0.0}, {"is_reserved": 0, "bike_id": "07570a5d12a69ba4352d185be33b4c18", "type": "electric_scooter", "name": "07570a5d12a69ba4352d185be33b4c18", "is_disabled": 0, "fusion_lon": 0.0, "rental_uris": {"android": "https://dc.lft.to/lastmile_qr_scan", "ios": "https://dc.lft.to/lastmile_qr_scan"}, "lat": 38.918566166666665, "lon": -77.03200883333334, "fusion_lat": 0.0}, {"is_reserved": 0, "bike_id": "af0e831f539b3774afc7b6cce45152a8", "type": "electric_scooter", "name": "af0e831f539b3774afc7b6cce45152a8", "is_disabled": 0, "fusion_lon": 0.0, "rental_uris": {"android": "https://dc.lft.to/lastmile_qr_scan", "ios": "https://dc.lft.to/lastmile_qr_scan"}, "lat": 38.90534566666667, "lon": -77.05005516666667, "fusion_lat": 0.0}, {"is_reserved": 0, "bike_id": "a319c2e11d9cf21e5b22970436ffc7da", "type": "electric_scooter", "name": "a319c2e11d9cf21e5b22970436ffc7da", "is_disabled": 0, "fusion_lon": 0.0, "rental_uris": {"android": "https://dc.lft.to/lastmile_qr_scan", "ios": "https://dc.lft.to/lastmile_qr_scan"}, "lat": 38.899273666666666, "lon": -77.04992116666666, "fusion_lat": 0.0}, {"is_reserved": 0, "bike_id": "8940aa7b64246ddafa560b9a1cb9021c", "type": "electric_scooter", "name": "8940aa7b64246ddafa560b9a1cb9021c", "is_disabled": 0, "fusion_lon": 0.0, "rental_uris": {"android": "https://dc.lft.to/lastmile_qr_scan", "ios": "https://dc.lft.to/lastmile_qr_scan"}, "lat": 38.92686, "lon": -77.04064066666666, "fusion_lat": 0.0}, {"is_reserved": 0, "bike_id": "e165ee5932e3c4c62d17ffbf32029eb2", "type": "electric_scooter", "name": "e165ee5932e3c4c62d17ffbf32029eb2", "is_disabled": 0, "fusion_lon": 0.0, "rental_uris": {"android": "https://dc.lft.to/lastmile_qr_scan", "ios": "https://dc.lft.to/lastmile_qr_scan"}, "lat": 38.888690833333335, "lon": -77.04001133333334, "fusion_lat": 0.0}, {"is_reserved": 0, "bike_id": "b17b3c58c705174562c9f104890059ec", "type": "electric_scooter", "name": "b17b3c58c705174562c9f104890059ec", "is_disabled": 0, "fusion_lon": 0.0, "rental_uris": {"android": "https://dc.lft.to/lastmile_qr_scan", "ios": "https://dc.lft.to/lastmile_qr_scan"}, "lat": 38.921635333333334, "lon": -77.03380883333334, "fusion_lat": 0.0}, {"is_reserved": 0, "bike_id": "3fac9d228e62d1ce84d25dd1b3d0cda4", "type": "electric_scooter", "name": "3fac9d228e62d1ce84d25dd1b3d0cda4", "is_disabled": 0, "fusion_lon": 0.0, "rental_uris": {"android": "https://dc.lft.to/lastmile_qr_scan", "ios": "https://dc.lft.to/lastmile_qr_scan"}, "lat": 38.915864166666665, "lon": -76.98375166666666, "fusion_lat": 0.0}, {"is_reserved": 0, "bike_id": "e60c61918a18bcd38fae79fc043631d3", "type": "electric_scooter", "name": "e60c61918a18bcd38fae79fc043631d3", "is_disabled": 0, "fusion_lon": 0.0, "rental_uris": {"android": "https://dc.lft.to/lastmile_qr_scan", "ios": "https://dc.lft.to/lastmile_qr_scan"}, "lat": 38.892656, "lon": -76.983714, "fusion_lat": 0.0}, {"is_reserved": 0, "bike_id": "1214264b0221379e84d39fd1bd6b3c04", "type": "electric_scooter", "name": "1214264b0221379e84d39fd1bd6b3c04", "is_disabled": 0, "fusion_lon": 0.0, "rental_uris": {"android": "https://dc.lft.to/lastmile_qr_scan", "ios": "https://dc.lft.to/lastmile_qr_scan"}, "lat": 38.89980116666667, "lon": -77.02201733333334, "fusion_lat": 0.0}, {"is_reserved": 0, "bike_id": "7c51f4fda3469f9fb4e956774aab4189", "type": "electric_scooter", "name": "7c51f4fda3469f9fb4e956774aab4189", "is_disabled": 0, "fusion_lon": 0.0, "rental_uris": {"android": "https://dc.lft.to/lastmile_qr_scan", "ios": "https://dc.lft.to/lastmile_qr_scan"}, "lat": 38.93939683333333, "lon": -77.032704, "fusion_lat": 0.0}, {"is_reserved": 0, "bike_id": "e704e2d8f27f445bb9ac5870cf906cdc", "type": "electric_scooter", "name": "e704e2d8f27f445bb9ac5870cf906cdc", "is_disabled": 0, "fusion_lon": 0.0, "rental_uris": {"android": "https://dc.lft.to/lastmile_qr_scan", "ios": "https://dc.lft.to/lastmile_qr_scan"}, "lat": 38.92104783333333, "lon": -77.02524766666667, "fusion_lat": 0.0}, {"is_reserved": 0, "bike_id": "12d6b300f4dc4377fb39b79bf3be45cb", "type": "electric_scooter", "name": "12d6b300f4dc4377fb39b79bf3be45cb", "is_disabled": 0, "fusion_lon": 0.0, "rental_uris": {"android": "https://dc.lft.to/lastmile_qr_scan", "ios": "https://dc.lft.to/lastmile_qr_scan"}, "lat": 38.90209, "lon": -77.0385385, "fusion_lat": 0.0}, {"is_reserved": 0, "bike_id": "86d3643939a4e586792dbc2fa47c1790", "type": "electric_scooter", "name": "86d3643939a4e586792dbc2fa47c1790", "is_disabled": 0, "fusion_lon": 0.0, "rental_uris": {"android": "https://dc.lft.to/lastmile_qr_scan", "ios": "https://dc.lft.to/lastmile_qr_scan"}, "lat": 38.92159733333333, "lon": -77.03468216666667, "fusion_lat": 0.0}, {"is_reserved": 0, "bike_id": "c5cb20def46d979add84f487734b402a", "type": "electric_scooter", "name": "c5cb20def46d979add84f487734b402a", "is_disabled": 0, "fusion_lon": 0.0, "rental_uris": {"android": "https://dc.lft.to/lastmile_qr_scan", "ios": "https://dc.lft.to/lastmile_qr_scan"}, "lat": 38.93066066666667, "lon": -77.03943133333334, "fusion_lat": 0.0}, {"is_reserved": 0, "bike_id": "f6695468ee52b25b0b3cfec5a1c3260e", "type": "electric_scooter", "name": "f6695468ee52b25b0b3cfec5a1c3260e", "is_disabled": 0, "fusion_lon": 0.0, "rental_uris": {"android": "https://dc.lft.to/lastmile_qr_scan", "ios": "https://dc.lft.to/lastmile_qr_scan"}, "lat": 38.916282833333334, "lon": -77.03498183333333, "fusion_lat": 0.0}, {"is_reserved": 0, "bike_id": "fc2ae26fb24283acca37deda4b2863b7", "type": "electric_scooter", "name": "fc2ae26fb24283acca37deda4b2863b7", "is_disabled": 0, "fusion_lon": 0.0, "rental_uris": {"android": "https://dc.lft.to/lastmile_qr_scan", "ios": "https://dc.lft.to/lastmile_qr_scan"}, "lat": 38.93609883333333, "lon": -77.0590095, "fusion_lat": 0.0}, {"is_reserved": 0, "bike_id": "381a48847d42208c920ddaa423fd002f", "type": "electric_scooter", "name": "381a48847d42208c920ddaa423fd002f", "is_disabled": 0, "fusion_lon": 0.0, "rental_uris": {"android": "https://dc.lft.to/lastmile_qr_scan", "ios": "https://dc.lft.to/lastmile_qr_scan"}, "lat": 38.92273616666667, "lon": -77.02125833333334, "fusion_lat": 0.0}, {"is_reserved": 0, "bike_id": "3ddc5c7595ba404d693d9a415c79fc63", "type": "electric_scooter", "name": "3ddc5c7595ba404d693d9a415c79fc63", "is_disabled": 0, "fusion_lon": 0.0, "rental_uris": {"android": "https://dc.lft.to/lastmile_qr_scan", "ios": "https://dc.lft.to/lastmile_qr_scan"}, "lat": 38.93562583333333, "lon": -77.058776, "fusion_lat": 0.0}, {"is_reserved": 0, "bike_id": "395e4dcbb52931ef45608f1c0efdd994", "type": "electric_scooter", "name": "395e4dcbb52931ef45608f1c0efdd994", "is_disabled": 0, "fusion_lon": 0.0, "rental_uris": {"android": "https://dc.lft.to/lastmile_qr_scan", "ios": "https://dc.lft.to/lastmile_qr_scan"}, "lat": 38.899903, "lon": -76.97743033333333, "fusion_lat": 0.0}, {"is_reserved": 0, "bike_id": "12a0423e0868b654298109b3a0710684", "type": "electric_bike", "name": "12a0423e0868b654298109b3a0710684", "is_disabled": 0, "fusion_lon": 0.0, "rental_uris": {"android": "https://dc.lft.to/lastmile_qr_scan", "ios": "https://dc.lft.to/lastmile_qr_scan"}, "lat": 38.922364333333334, "lon": -77.03074233333334, "fusion_lat": 0.0}, {"is_reserved": 0, "bike_id": "549b07263b3e2dc35731b87cb01ca79c", "type": "electric_scooter", "name": "549b07263b3e2dc35731b87cb01ca79c", "is_disabled": 0, "fusion_lon": 0.0, "rental_uris": {"android": "https://dc.lft.to/lastmile_qr_scan", "ios": "https://dc.lft.to/lastmile_qr_scan"}, "lat": 38.92306716666667, "lon": -77.03655633333334, "fusion_lat": 0.0}, {"is_reserved": 0, "bike_id": "b7b206cfd662d376399dc0ffb22ba79d", "type": "electric_scooter", "name": "b7b206cfd662d376399dc0ffb22ba79d", "is_disabled": 0, "fusion_lon": 0.0, "rental_uris": {"android": "https://dc.lft.to/lastmile_qr_scan", "ios": "https://dc.lft.to/lastmile_qr_scan"}, "lat": 38.912745, "lon": -76.98563033333333, "fusion_lat": 0.0}, {"is_reserved": 0, "bike_id": "6961d0fb618e1ba8888c7a824243f99c", "type": "electric_bike", "name": "6961d0fb618e1ba8888c7a824243f99c", "is_disabled": 0, "fusion_lon": 0.0, "rental_uris": {"android": "https://dc.lft.to/lastmile_qr_scan", "ios": "https://dc.lft.to/lastmile_qr_scan"}, "lat": 38.832997, "lon": -77.084127, "fusion_lat": 0.0}, {"is_reserved": 0, "bike_id": "c563570825c393a51d235989b3d45c72", "type": "electric_scooter", "name": "c563570825c393a51d235989b3d45c72", "is_disabled": 0, "fusion_lon": 0.0, "rental_uris": {"android": "https://dc.lft.to/lastmile_qr_scan", "ios": "https://dc.lft.to/lastmile_qr_scan"}, "lat": 38.932134, "lon": -77.02284416666667, "fusion_lat": 0.0}, {"is_reserved": 0, "bike_id": "b4e4a7b5a5317efbb73410211dcd0ceb", "type": "electric_scooter", "name": "b4e4a7b5a5317efbb73410211dcd0ceb", "is_disabled": 0, "fusion_lon": 0.0, "rental_uris": {"android": "https://dc.lft.to/lastmile_qr_scan", "ios": "https://dc.lft.to/lastmile_qr_scan"}, "lat": 38.900038, "lon": -77.03308216666667, "fusion_lat": 0.0}, {"is_reserved": 0, "bike_id": "1c4fd27a8df3c89f4ee3fce749b006a7", "type": "electric_bike", "name": "1c4fd27a8df3c89f4ee3fce749b006a7", "is_disabled": 0, "fusion_lon": 0.0, "rental_uris": {"android": "https://dc.lft.to/lastmile_qr_scan", "ios": "https://dc.lft.to/lastmile_qr_scan"}, "lat": 38.95353983333333, "lon": -76.98090983333333, "fusion_lat": 0.0}, {"is_reserved": 0, "bike_id": "6dc104d85e1d9cc8ff78cc65f5710ce1", "type": "electric_scooter", "name": "6dc104d85e1d9cc8ff78cc65f5710ce1", "is_disabled": 0, "fusion_lon": 0.0, "rental_uris": {"android": "https://dc.lft.to/lastmile_qr_scan", "ios": "https://dc.lft.to/lastmile_qr_scan"}, "lat": 38.9285625, "lon": -77.033187, "fusion_lat": 0.0}, {"is_reserved": 0, "bike_id": "582201684ef1605987c3b9ca081e2ac0", "type": "electric_scooter", "name": "582201684ef1605987c3b9ca081e2ac0", "is_disabled": 0, "fusion_lon": 0.0, "rental_uris": {"android": "https://dc.lft.to/lastmile_qr_scan", "ios": "https://dc.lft.to/lastmile_qr_scan"}, "lat": 38.93891583333333, "lon": -77.03321033333333, "fusion_lat": 0.0}, {"is_reserved": 0, "bike_id": "ff23d5f1caff14cf922720f942639b7f", "type": "electric_bike", "name": "ff23d5f1caff14cf922720f942639b7f", "is_disabled": 0, "fusion_lon": 0.0, "rental_uris": {"android": "https://dc.lft.to/lastmile_qr_scan", "ios": "https://dc.lft.to/lastmile_qr_scan"}, "lat": 38.992272166666666, "lon": -77.03582233333333, "fusion_lat": 0.0}, {"is_reserved": 0, "bike_id": "b829e6a9bcabcdb9123884793a3e27d0", "type": "electric_scooter", "name": "b829e6a9bcabcdb9123884793a3e27d0", "is_disabled": 0, "fusion_lon": 0.0, "rental_uris": {"android": "https://dc.lft.to/lastmile_qr_scan", "ios": "https://dc.lft.to/lastmile_qr_scan"}, "lat": 38.947343333333336, "lon": -77.02364666666666, "fusion_lat": 0.0}, {"is_reserved": 0, "bike_id": "556a1e33f5dad0ccd8d205a6575e7f99", "type": "electric_scooter", "name": "556a1e33f5dad0ccd8d205a6575e7f99", "is_disabled": 0, "fusion_lon": 0.0, "rental_uris": {"android": "https://dc.lft.to/lastmile_qr_scan", "ios": "https://dc.lft.to/lastmile_qr_scan"}, "lat": 38.90471466666666, "lon": -77.01631266666666, "fusion_lat": 0.0}, {"is_reserved": 0, "bike_id": "d5dd59193ef43e092de2700a503208fd", "type": "electric_bike", "name": "d5dd59193ef43e092de2700a503208fd", "is_disabled": 0, "fusion_lon": 0.0, "rental_uris": {"android": "https://dc.lft.to/lastmile_qr_scan", "ios": "https://dc.lft.to/lastmile_qr_scan"}, "lat": 38.83607816666667, "lon": -77.00381, "fusion_lat": 0.0}, {"is_reserved": 0, "bike_id": "32046ad2cb2234afd2102085bb930258", "type": "electric_scooter", "name": "32046ad2cb2234afd2102085bb930258", "is_disabled": 0, "fusion_lon": 0.0, "rental_uris": {"android": "https://dc.lft.to/lastmile_qr_scan", "ios": "https://dc.lft.to/lastmile_qr_scan"}, "lat": 38.8994405, "lon": -77.02824583333333, "fusion_lat": 0.0}, {"is_reserved": 0, "bike_id": "8051094527efc81193f87f47b0c4e586", "type": "electric_scooter", "name": "8051094527efc81193f87f47b0c4e586", "is_disabled": 0, "fusion_lon": 0.0, "rental_uris": {"android": "https://dc.lft.to/lastmile_qr_scan", "ios": "https://dc.lft.to/lastmile_qr_scan"}, "lat": 38.89736833333333, "lon": -77.00782466666666, "fusion_lat": 0.0}, {"is_reserved": 0, "bike_id": "eda6e8d29d66f4b39192eca93dbf08e9", "type": "electric_scooter", "name": "eda6e8d29d66f4b39192eca93dbf08e9", "is_disabled": 0, "fusion_lon": 0.0, "rental_uris": {"android": "https://dc.lft.to/lastmile_qr_scan", "ios": "https://dc.lft.to/lastmile_qr_scan"}, "lat": 38.897323, "lon": -77.02709116666666, "fusion_lat": 0.0}, {"is_reserved": 0, "bike_id": "7e212620015d22665dc71d7a436994a6", "type": "electric_scooter", "name": "7e212620015d22665dc71d7a436994a6", "is_disabled": 0, "fusion_lon": 0.0, "rental_uris": {"android": "https://dc.lft.to/lastmile_qr_scan", "ios": "https://dc.lft.to/lastmile_qr_scan"}, "lat": 38.93185033333334, "lon": -77.03868083333333, "fusion_lat": 0.0}, {"is_reserved": 0, "bike_id": "4bf5d51e5da282dd2b9e800f0c5310d1", "type": "electric_scooter", "name": "4bf5d51e5da282dd2b9e800f0c5310d1", "is_disabled": 0, "fusion_lon": 0.0, "rental_uris": {"android": "https://dc.lft.to/lastmile_qr_scan", "ios": "https://dc.lft.to/lastmile_qr_scan"}, "lat": 38.90900516666667, "lon": -76.99891416666667, "fusion_lat": 0.0}, {"is_reserved": 0, "bike_id": "f6db22adff7e5a8b6fa5889122eb6348", "type": "electric_scooter", "name": "f6db22adff7e5a8b6fa5889122eb6348", "is_disabled": 0, "fusion_lon": 0.0, "rental_uris": {"android": "https://dc.lft.to/lastmile_qr_scan", "ios": "https://dc.lft.to/lastmile_qr_scan"}, "lat": 38.919238666666665, "lon": -77.03433516666666, "fusion_lat": 0.0}, {"is_reserved": 0, "bike_id": "cca19142d52e5b65935f381e14d7474e", "type": "electric_scooter", "name": "cca19142d52e5b65935f381e14d7474e", "is_disabled": 0, "fusion_lon": 0.0, "rental_uris": {"android": "https://dc.lft.to/lastmile_qr_scan", "ios": "https://dc.lft.to/lastmile_qr_scan"}, "lat": 38.91594833333333, "lon": -77.0145645, "fusion_lat": 0.0}, {"is_reserved": 0, "bike_id": "780da6a7ce36f27341dec29a1e8c41be", "type": "electric_scooter", "name": "780da6a7ce36f27341dec29a1e8c41be", "is_disabled": 0, "fusion_lon": 0.0, "rental_uris": {"android": "https://dc.lft.to/lastmile_qr_scan", "ios": "https://dc.lft.to/lastmile_qr_scan"}, "lat": 38.966514833333335, "lon": -77.027486, "fusion_lat": 0.0}, {"is_reserved": 0, "bike_id": "28b79610192c7e41c7f8af9033575c24", "type": "electric_scooter", "name": "28b79610192c7e41c7f8af9033575c24", "is_disabled": 0, "fusion_lon": 0.0, "rental_uris": {"android": "https://dc.lft.to/lastmile_qr_scan", "ios": "https://dc.lft.to/lastmile_qr_scan"}, "lat": 38.92087466666667, "lon": -77.0254635, "fusion_lat": 0.0}, {"is_reserved": 0, "bike_id": "c9781d3c41926acbea91a14782cd21da", "type": "electric_scooter", "name": "c9781d3c41926acbea91a14782cd21da", "is_disabled": 0, "fusion_lon": 0.0, "rental_uris": {"android": "https://dc.lft.to/lastmile_qr_scan", "ios": "https://dc.lft.to/lastmile_qr_scan"}, "lat": 38.917138666666666, "lon": -77.03858066666666, "fusion_lat": 0.0}, {"is_reserved": 0, "bike_id": "2379d0fb7133e1d8911af41c8f40b71f", "type": "electric_bike", "name": "2379d0fb7133e1d8911af41c8f40b71f", "is_disabled": 0, "fusion_lon": 0.0, "rental_uris": {"android": "https://dc.lft.to/lastmile_qr_scan", "ios": "https://dc.lft.to/lastmile_qr_scan"}, "lat": 38.8381165, "lon": -77.00290966666667, "fusion_lat": 0.0}, {"is_reserved": 0, "bike_id": "67d2f16a664864c15b1a7deb0b41ebb4", "type": "electric_scooter", "name": "67d2f16a664864c15b1a7deb0b41ebb4", "is_disabled": 0, "fusion_lon": 0.0, "rental_uris": {"android": "https://dc.lft.to/lastmile_qr_scan", "ios": "https://dc.lft.to/lastmile_qr_scan"}, "lat": 38.9156965, "lon": -77.01988883333334, "fusion_lat": 0.0}, {"is_reserved": 0, "bike_id": "fd724f892d8364873488f01ca9012dfe", "type": "electric_scooter", "name": "fd724f892d8364873488f01ca9012dfe", "is_disabled": 0, "fusion_lon": 0.0, "rental_uris": {"android": "https://dc.lft.to/lastmile_qr_scan", "ios": "https://dc.lft.to/lastmile_qr_scan"}, "lat": 38.914134, "lon": -77.01335283333333, "fusion_lat": 0.0}, {"is_reserved": 0, "bike_id": "b40a6a75aa7949527462d0f62232f861", "type": "electric_scooter", "name": "b40a6a75aa7949527462d0f62232f861", "is_disabled": 0, "fusion_lon": 0.0, "rental_uris": {"android": "https://dc.lft.to/lastmile_qr_scan", "ios": "https://dc.lft.to/lastmile_qr_scan"}, "lat": 38.90016966666666, "lon": -77.04874766666667, "fusion_lat": 0.0}, {"is_reserved": 0, "bike_id": "83632f2b6a3be3632f536eeacd112ef8", "type": "electric_scooter", "name": "83632f2b6a3be3632f536eeacd112ef8", "is_disabled": 0, "fusion_lon": 0.0, "rental_uris": {"android": "https://dc.lft.to/lastmile_qr_scan", "ios": "https://dc.lft.to/lastmile_qr_scan"}, "lat": 38.9155225, "lon": -77.02825133333333, "fusion_lat": 0.0}, {"is_reserved": 0, "bike_id": "ef65e8111eebab338abf0ac660f54413", "type": "electric_scooter", "name": "ef65e8111eebab338abf0ac660f54413", "is_disabled": 0, "fusion_lon": 0.0, "rental_uris": {"android": "https://dc.lft.to/lastmile_qr_scan", "ios": "https://dc.lft.to/lastmile_qr_scan"}, "lat": 38.9083885, "lon": -77.02342916666667, "fusion_lat": 0.0}, {"is_reserved": 0, "bike_id": "51ee708273961f49db404053abe598e2", "type": "electric_scooter", "name": "51ee708273961f49db404053abe598e2", "is_disabled": 0, "fusion_lon": 0.0, "rental_uris": {"android": "https://dc.lft.to/lastmile_qr_scan", "ios": "https://dc.lft.to/lastmile_qr_scan"}, "lat": 38.920829, "lon": -77.02314216666667, "fusion_lat": 0.0}, {"is_reserved": 0, "bike_id": "cf9ee8a4611bda20c73219015a762c5c", "type": "electric_scooter", "name": "cf9ee8a4611bda20c73219015a762c5c", "is_disabled": 0, "fusion_lon": 0.0, "rental_uris": {"android": "https://dc.lft.to/lastmile_qr_scan", "ios": "https://dc.lft.to/lastmile_qr_scan"}, "lat": 38.9181205, "lon": -77.03661016666666, "fusion_lat": 0.0}, {"is_reserved": 0, "bike_id": "44d81e104ba517786631dc3d600d1ebe", "type": "electric_scooter", "name": "44d81e104ba517786631dc3d600d1ebe", "is_disabled": 0, "fusion_lon": 0.0, "rental_uris": {"android": "https://dc.lft.to/lastmile_qr_scan", "ios": "https://dc.lft.to/lastmile_qr_scan"}, "lat": 38.944151, "lon": -77.06337183333333, "fusion_lat": 0.0}, {"is_reserved": 0, "bike_id": "12b29193c1ccd75d938971cb2a10202b", "type": "electric_bike", "name": "12b29193c1ccd75d938971cb2a10202b", "is_disabled": 0, "fusion_lon": 0.0, "rental_uris": {"android": "https://dc.lft.to/lastmile_qr_scan", "ios": "https://dc.lft.to/lastmile_qr_scan"}, "lat": 38.842878666666664, "lon": -76.9881825, "fusion_lat": 0.0}, {"is_reserved": 0, "bike_id": "13c24cfbda294e318cd7fea641cefa16", "type": "electric_scooter", "name": "13c24cfbda294e318cd7fea641cefa16", "is_disabled": 0, "fusion_lon": 0.0, "rental_uris": {"android": "https://dc.lft.to/lastmile_qr_scan", "ios": "https://dc.lft.to/lastmile_qr_scan"}, "lat": 38.921314333333335, "lon": -77.01799183333334, "fusion_lat": 0.0}, {"is_reserved": 0, "bike_id": "4eec8b82117fcbb9ed25fe462c0d5652", "type": "electric_scooter", "name": "4eec8b82117fcbb9ed25fe462c0d5652", "is_disabled": 0, "fusion_lon": 0.0, "rental_uris": {"android": "https://dc.lft.to/lastmile_qr_scan", "ios": "https://dc.lft.to/lastmile_qr_scan"}, "lat": 38.91564833333333, "lon": -77.03650366666666, "fusion_lat": 0.0}, {"is_reserved": 0, "bike_id": "ee4e68ab3c965d4e713f8167bfd0bf9c", "type": "electric_scooter", "name": "ee4e68ab3c965d4e713f8167bfd0bf9c", "is_disabled": 0, "fusion_lon": 0.0, "rental_uris": {"android": "https://dc.lft.to/lastmile_qr_scan", "ios": "https://dc.lft.to/lastmile_qr_scan"}, "lat": 38.914316, "lon": -77.02818183333333, "fusion_lat": 0.0}, {"is_reserved": 0, "bike_id": "58a84b1526a462450f214703201aa80e", "type": "electric_scooter", "name": "58a84b1526a462450f214703201aa80e", "is_disabled": 0, "fusion_lon": 0.0, "rental_uris": {"android": "https://dc.lft.to/lastmile_qr_scan", "ios": "https://dc.lft.to/lastmile_qr_scan"}, "lat": 38.92341716666667, "lon": -77.009167, "fusion_lat": 0.0}, {"is_reserved": 0, "bike_id": "7940c187de00d5042c19f87ecb427e04", "type": "electric_scooter", "name": "7940c187de00d5042c19f87ecb427e04", "is_disabled": 0, "fusion_lon": 0.0, "rental_uris": {"android": "https://dc.lft.to/lastmile_qr_scan", "ios": "https://dc.lft.to/lastmile_qr_scan"}, "lat": 38.919309166666665, "lon": -77.04500333333333, "fusion_lat": 0.0}, {"is_reserved": 0, "bike_id": "d9730f71b682f530930851d50abe3ef1", "type": "electric_bike", "name": "d9730f71b682f530930851d50abe3ef1", "is_disabled": 0, "fusion_lon": 0.0, "rental_uris": {"android": "https://dc.lft.to/lastmile_qr_scan", "ios": "https://dc.lft.to/lastmile_qr_scan"}, "lat": 38.921839166666665, "lon": -77.03818816666667, "fusion_lat": 0.0}, {"is_reserved": 0, "bike_id": "af14b461235f8c9d53cd554f42f48da2", "type": "electric_scooter", "name": "af14b461235f8c9d53cd554f42f48da2", "is_disabled": 0, "fusion_lon": 0.0, "rental_uris": {"android": "https://dc.lft.to/lastmile_qr_scan", "ios": "https://dc.lft.to/lastmile_qr_scan"}, "lat": 38.902555166666666, "lon": -77.01797933333333, "fusion_lat": 0.0}, {"is_reserved": 0, "bike_id": "b9fbda543f67d58f1657dec60fb7aa65", "type": "electric_scooter", "name": "b9fbda543f67d58f1657dec60fb7aa65", "is_disabled": 0, "fusion_lon": 0.0, "rental_uris": {"android": "https://dc.lft.to/lastmile_qr_scan", "ios": "https://dc.lft.to/lastmile_qr_scan"}, "lat": 38.88718383333333, "lon": -77.0217645, "fusion_lat": 0.0}, {"is_reserved": 0, "bike_id": "4a4ead44e6e676b2a02e0e403752f185", "type": "electric_bike", "name": "4a4ead44e6e676b2a02e0e403752f185", "is_disabled": 0, "fusion_lon": 0.0, "rental_uris": {"android": "https://dc.lft.to/lastmile_qr_scan", "ios": "https://dc.lft.to/lastmile_qr_scan"}, "lat": 38.896262, "lon": -76.90749783333334, "fusion_lat": 0.0}, {"is_reserved": 0, "bike_id": "477a7e4c069c2eb1854fab1a9f8a6616", "type": "electric_scooter", "name": "477a7e4c069c2eb1854fab1a9f8a6616", "is_disabled": 0, "fusion_lon": 0.0, "rental_uris": {"android": "https://dc.lft.to/lastmile_qr_scan", "ios": "https://dc.lft.to/lastmile_qr_scan"}, "lat": 38.922327, "lon": -77.02336966666667, "fusion_lat": 0.0}, {"is_reserved": 0, "bike_id": "f7c392fb5d3902f5511f09b061591788", "type": "electric_scooter", "name": "f7c392fb5d3902f5511f09b061591788", "is_disabled": 0, "fusion_lon": 0.0, "rental_uris": {"android": "https://dc.lft.to/lastmile_qr_scan", "ios": "https://dc.lft.to/lastmile_qr_scan"}, "lat": 38.898147333333334, "lon": -77.03145216666667, "fusion_lat": 0.0}, {"is_reserved": 0, "bike_id": "2d87ab66cbdd68c7992d1d2a63ffd485", "type": "electric_scooter", "name": "2d87ab66cbdd68c7992d1d2a63ffd485", "is_disabled": 0, "fusion_lon": 0.0, "rental_uris": {"android": "https://dc.lft.to/lastmile_qr_scan", "ios": "https://dc.lft.to/lastmile_qr_scan"}, "lat": 38.9267645, "lon": -77.0783775, "fusion_lat": 0.0}, {"is_reserved": 0, "bike_id": "5d3285c28ceb9c4600dcf871dfdfa740", "type": "electric_scooter", "name": "5d3285c28ceb9c4600dcf871dfdfa740", "is_disabled": 0, "fusion_lon": 0.0, "rental_uris": {"android": "https://dc.lft.to/lastmile_qr_scan", "ios": "https://dc.lft.to/lastmile_qr_scan"}, "lat": 38.915609833333335, "lon": -77.031934, "fusion_lat": 0.0}, {"is_reserved": 0, "bike_id": "cc43298f90830f3121cf2d536e100580", "type": "electric_scooter", "name": "cc43298f90830f3121cf2d536e100580", "is_disabled": 0, "fusion_lon": 0.0, "rental_uris": {"android": "https://dc.lft.to/lastmile_qr_scan", "ios": "https://dc.lft.to/lastmile_qr_scan"}, "lat": 38.91336783333333, "lon": -77.01207783333334, "fusion_lat": 0.0}, {"is_reserved": 0, "bike_id": "992ce27dba6f34597ae40eb3cfd4909a", "type": "electric_scooter", "name": "992ce27dba6f34597ae40eb3cfd4909a", "is_disabled": 0, "fusion_lon": 0.0, "rental_uris": {"android": "https://dc.lft.to/lastmile_qr_scan", "ios": "https://dc.lft.to/lastmile_qr_scan"}, "lat": 38.8851835, "lon": -76.924452, "fusion_lat": 0.0}, {"is_reserved": 0, "bike_id": "7f54d3e789bf9a2f9b6b2a02528d503b", "type": "electric_scooter", "name": "7f54d3e789bf9a2f9b6b2a02528d503b", "is_disabled": 0, "fusion_lon": 0.0, "rental_uris": {"android": "https://dc.lft.to/lastmile_qr_scan", "ios": "https://dc.lft.to/lastmile_qr_scan"}, "lat": 38.905714, "lon": -77.00592533333334, "fusion_lat": 0.0}, {"is_reserved": 0, "bike_id": "07b9bab6bb44ada6562f87088217e57f", "type": "electric_bike", "name": "07b9bab6bb44ada6562f87088217e57f", "is_disabled": 0, "fusion_lon": 0.0, "rental_uris": {"android": "https://dc.lft.to/lastmile_qr_scan", "ios": "https://dc.lft.to/lastmile_qr_scan"}, "lat": 38.900269, "lon": -76.97218233333334, "fusion_lat": 0.0}, {"is_reserved": 0, "bike_id": "0d258ff989a5fce9caeba85258f5a5cd", "type": "electric_bike", "name": "0d258ff989a5fce9caeba85258f5a5cd", "is_disabled": 0, "fusion_lon": 0.0, "rental_uris": {"android": "https://dc.lft.to/lastmile_qr_scan", "ios": "https://dc.lft.to/lastmile_qr_scan"}, "lat": 38.88874066666666, "lon": -76.97844133333334, "fusion_lat": 0.0}, {"is_reserved": 0, "bike_id": "a7199f6dd3828df62698c29672c9fb38", "type": "electric_scooter", "name": "a7199f6dd3828df62698c29672c9fb38", "is_disabled": 0, "fusion_lon": 0.0, "rental_uris": {"android": "https://dc.lft.to/lastmile_qr_scan", "ios": "https://dc.lft.to/lastmile_qr_scan"}, "lat": 38.93111116666667, "lon": -77.0559695, "fusion_lat": 0.0}, {"is_reserved": 0, "bike_id": "1ecfcb3a84db36dc05274ebafa0f6201", "type": "electric_scooter", "name": "1ecfcb3a84db36dc05274ebafa0f6201", "is_disabled": 0, "fusion_lon": 0.0, "rental_uris": {"android": "https://dc.lft.to/lastmile_qr_scan", "ios": "https://dc.lft.to/lastmile_qr_scan"}, "lat": 38.90494316666667, "lon": -77.0295665, "fusion_lat": 0.0}, {"is_reserved": 0, "bike_id": "cc0f3b906158e474737949afeda77dd4", "type": "electric_scooter", "name": "cc0f3b906158e474737949afeda77dd4", "is_disabled": 0, "fusion_lon": 0.0, "rental_uris": {"android": "https://dc.lft.to/lastmile_qr_scan", "ios": "https://dc.lft.to/lastmile_qr_scan"}, "lat": 38.90550616666667, "lon": -77.034412, "fusion_lat": 0.0}, {"is_reserved": 0, "bike_id": "134cdf171c6ed1073aa3b01ca0014365", "type": "electric_scooter", "name": "134cdf171c6ed1073aa3b01ca0014365", "is_disabled": 0, "fusion_lon": 0.0, "rental_uris": {"android": "https://dc.lft.to/lastmile_qr_scan", "ios": "https://dc.lft.to/lastmile_qr_scan"}, "lat": 38.9002585, "lon": -76.99876583333334, "fusion_lat": 0.0}, {"is_reserved": 0, "bike_id": "6c86211dadf2309cc74d23cc7488cbba", "type": "electric_scooter", "name": "6c86211dadf2309cc74d23cc7488cbba", "is_disabled": 0, "fusion_lon": 0.0, "rental_uris": {"android": "https://dc.lft.to/lastmile_qr_scan", "ios": "https://dc.lft.to/lastmile_qr_scan"}, "lat": 38.90027833333333, "lon": -76.99868883333333, "fusion_lat": 0.0}, {"is_reserved": 0, "bike_id": "508783969b7cffe350d2ce2104459d39", "type": "electric_scooter", "name": "508783969b7cffe350d2ce2104459d39", "is_disabled": 0, "fusion_lon": 0.0, "rental_uris": {"android": "https://dc.lft.to/lastmile_qr_scan", "ios": "https://dc.lft.to/lastmile_qr_scan"}, "lat": 38.911214, "lon": -77.04093733333333, "fusion_lat": 0.0}, {"is_reserved": 0, "bike_id": "1475a0b7c8fd881cbab1ac0598da144c", "type": "electric_scooter", "name": "1475a0b7c8fd881cbab1ac0598da144c", "is_disabled": 0, "fusion_lon": 0.0, "rental_uris": {"android": "https://dc.lft.to/lastmile_qr_scan", "ios": "https://dc.lft.to/lastmile_qr_scan"}, "lat": 38.885903, "lon": -77.02001716666666, "fusion_lat": 0.0}, {"is_reserved": 0, "bike_id": "e77bb9984e72f21a671cbd765926884d", "type": "electric_scooter", "name": "e77bb9984e72f21a671cbd765926884d", "is_disabled": 0, "fusion_lon": 0.0, "rental_uris": {"android": "https://dc.lft.to/lastmile_qr_scan", "ios": "https://dc.lft.to/lastmile_qr_scan"}, "lat": 38.90942416666667, "lon": -77.03447766666666, "fusion_lat": 0.0}, {"is_reserved": 0, "bike_id": "ed0783dab3b2d133ffac8e33183f4d9c", "type": "electric_scooter", "name": "ed0783dab3b2d133ffac8e33183f4d9c", "is_disabled": 0, "fusion_lon": 0.0, "rental_uris": {"android": "https://dc.lft.to/lastmile_qr_scan", "ios": "https://dc.lft.to/lastmile_qr_scan"}, "lat": 38.902007833333336, "lon": -77.0482145, "fusion_lat": 0.0}, {"is_reserved": 0, "bike_id": "7e89b71e5c5a7064874bc053c7a1048a", "type": "electric_scooter", "name": "7e89b71e5c5a7064874bc053c7a1048a", "is_disabled": 0, "fusion_lon": 0.0, "rental_uris": {"android": "https://dc.lft.to/lastmile_qr_scan", "ios": "https://dc.lft.to/lastmile_qr_scan"}, "lat": 38.91441183333333, "lon": -77.022938, "fusion_lat": 0.0}, {"is_reserved": 0, "bike_id": "e10fa4c0fda6ea97f44438105b64cb67", "type": "electric_scooter", "name": "e10fa4c0fda6ea97f44438105b64cb67", "is_disabled": 0, "fusion_lon": 0.0, "rental_uris": {"android": "https://dc.lft.to/lastmile_qr_scan", "ios": "https://dc.lft.to/lastmile_qr_scan"}, "lat": 38.889717, "lon": -76.9803805, "fusion_lat": 0.0}, {"is_reserved": 0, "bike_id": "0500c883584d2fe11e034adc3e9005b6", "type": "electric_scooter", "name": "0500c883584d2fe11e034adc3e9005b6", "is_disabled": 0, "fusion_lon": 0.0, "rental_uris": {"android": "https://dc.lft.to/lastmile_qr_scan", "ios": "https://dc.lft.to/lastmile_qr_scan"}, "lat": 38.9327145, "lon": -77.01918333333333, "fusion_lat": 0.0}, {"is_reserved": 0, "bike_id": "4aab7b4cf6d61db5503cad0049159995", "type": "electric_scooter", "name": "4aab7b4cf6d61db5503cad0049159995", "is_disabled": 0, "fusion_lon": 0.0, "rental_uris": {"android": "https://dc.lft.to/lastmile_qr_scan", "ios": "https://dc.lft.to/lastmile_qr_scan"}, "lat": 38.890325, "lon": -76.94472066666667, "fusion_lat": 0.0}, {"is_reserved": 0, "bike_id": "c7aac78b899090d19c6ef1418588881b", "type": "electric_scooter", "name": "c7aac78b899090d19c6ef1418588881b", "is_disabled": 0, "fusion_lon": 0.0, "rental_uris": {"android": "https://dc.lft.to/lastmile_qr_scan", "ios": "https://dc.lft.to/lastmile_qr_scan"}, "lat": 38.87832216666666, "lon": -77.008094, "fusion_lat": 0.0}, {"is_reserved": 0, "bike_id": "87e51c84a41bbafeef8fcb431610e74b", "type": "electric_scooter", "name": "87e51c84a41bbafeef8fcb431610e74b", "is_disabled": 0, "fusion_lon": 0.0, "rental_uris": {"android": "https://dc.lft.to/lastmile_qr_scan", "ios": "https://dc.lft.to/lastmile_qr_scan"}, "lat": 38.917075833333335, "lon": -77.02393833333333, "fusion_lat": 0.0}, {"is_reserved": 0, "bike_id": "18208f399630ed57ba1a752ed9a7c2c4", "type": "electric_scooter", "name": "18208f399630ed57ba1a752ed9a7c2c4", "is_disabled": 0, "fusion_lon": 0.0, "rental_uris": {"android": "https://dc.lft.to/lastmile_qr_scan", "ios": "https://dc.lft.to/lastmile_qr_scan"}, "lat": 38.908084833333334, "lon": -77.0841285, "fusion_lat": 0.0}, {"is_reserved": 0, "bike_id": "ba62260feed9b143b5421de3a6849834", "type": "electric_scooter", "name": "ba62260feed9b143b5421de3a6849834", "is_disabled": 0, "fusion_lon": 0.0, "rental_uris": {"android": "https://dc.lft.to/lastmile_qr_scan", "ios": "https://dc.lft.to/lastmile_qr_scan"}, "lat": 38.913041, "lon": -77.0174085, "fusion_lat": 0.0}, {"is_reserved": 0, "bike_id": "fd2363517024ab94dec70166532485dc", "type": "electric_scooter", "name": "fd2363517024ab94dec70166532485dc", "is_disabled": 0, "fusion_lon": 0.0, "rental_uris": {"android": "https://dc.lft.to/lastmile_qr_scan", "ios": "https://dc.lft.to/lastmile_qr_scan"}, "lat": 38.95651683333333, "lon": -77.013227, "fusion_lat": 0.0}, {"is_reserved": 0, "bike_id": "10ceba73971f0318c62f39b5185f58a4", "type": "electric_scooter", "name": "10ceba73971f0318c62f39b5185f58a4", "is_disabled": 0, "fusion_lon": 0.0, "rental_uris": {"android": "https://dc.lft.to/lastmile_qr_scan", "ios": "https://dc.lft.to/lastmile_qr_scan"}, "lat": 38.886223666666666, "lon": -77.01788783333333, "fusion_lat": 0.0}, {"is_reserved": 0, "bike_id": "6edf29432c5d8909c36f0d71f1b8d8df", "type": "electric_scooter", "name": "6edf29432c5d8909c36f0d71f1b8d8df", "is_disabled": 0, "fusion_lon": 0.0, "rental_uris": {"android": "https://dc.lft.to/lastmile_qr_scan", "ios": "https://dc.lft.to/lastmile_qr_scan"}, "lat": 38.90243616666667, "lon": -76.98968533333333, "fusion_lat": 0.0}, {"is_reserved": 0, "bike_id": "1ca287d9c268e21d446d7202821275bd", "type": "electric_scooter", "name": "1ca287d9c268e21d446d7202821275bd", "is_disabled": 0, "fusion_lon": 0.0, "rental_uris": {"android": "https://dc.lft.to/lastmile_qr_scan", "ios": "https://dc.lft.to/lastmile_qr_scan"}, "lat": 38.944658, "lon": -77.00659683333333, "fusion_lat": 0.0}, {"is_reserved": 0, "bike_id": "13a540281a1b89af8d4bb8098cf03d73", "type": "electric_scooter", "name": "13a540281a1b89af8d4bb8098cf03d73", "is_disabled": 0, "fusion_lon": 0.0, "rental_uris": {"android": "https://dc.lft.to/lastmile_qr_scan", "ios": "https://dc.lft.to/lastmile_qr_scan"}, "lat": 38.904758333333334, "lon": -77.04861316666667, "fusion_lat": 0.0}, {"is_reserved": 0, "bike_id": "e2d5a31a7b0ef5786bf34b49db385588", "type": "electric_scooter", "name": "e2d5a31a7b0ef5786bf34b49db385588", "is_disabled": 0, "fusion_lon": 0.0, "rental_uris": {"android": "https://dc.lft.to/lastmile_qr_scan", "ios": "https://dc.lft.to/lastmile_qr_scan"}, "lat": 38.92430983333333, "lon": -77.042483, "fusion_lat": 0.0}, {"is_reserved": 0, "bike_id": "2b862ddb624f06a3e95f12bbe4f84157", "type": "electric_bike", "name": "2b862ddb624f06a3e95f12bbe4f84157", "is_disabled": 0, "fusion_lon": 0.0, "rental_uris": {"android": "https://dc.lft.to/lastmile_qr_scan", "ios": "https://dc.lft.to/lastmile_qr_scan"}, "lat": 38.864863, "lon": -76.97742666666667, "fusion_lat": 0.0}, {"is_reserved": 0, "bike_id": "66e51eb89749ca48521cd96724bfa10d", "type": "electric_scooter", "name": "66e51eb89749ca48521cd96724bfa10d", "is_disabled": 0, "fusion_lon": 0.0, "rental_uris": {"android": "https://dc.lft.to/lastmile_qr_scan", "ios": "https://dc.lft.to/lastmile_qr_scan"}, "lat": 38.909688, "lon": -77.08122716666666, "fusion_lat": 0.0}, {"is_reserved": 0, "bike_id": "bdb1534198b602a2733baa8c53900fdf", "type": "electric_scooter", "name": "bdb1534198b602a2733baa8c53900fdf", "is_disabled": 0, "fusion_lon": 0.0, "rental_uris": {"android": "https://dc.lft.to/lastmile_qr_scan", "ios": "https://dc.lft.to/lastmile_qr_scan"}, "lat": 38.90864916666666, "lon": -77.085917, "fusion_lat": 0.0}, {"is_reserved": 0, "bike_id": "b7b4d6b14c57808275e4d0dfd5048c3f", "type": "electric_scooter", "name": "b7b4d6b14c57808275e4d0dfd5048c3f", "is_disabled": 0, "fusion_lon": 0.0, "rental_uris": {"android": "https://dc.lft.to/lastmile_qr_scan", "ios": "https://dc.lft.to/lastmile_qr_scan"}, "lat": 38.929496, "lon": -77.0440465, "fusion_lat": 0.0}, {"is_reserved": 0, "bike_id": "12b623535ad26a2ea1739845fe9975a5", "type": "electric_scooter", "name": "12b623535ad26a2ea1739845fe9975a5", "is_disabled": 0, "fusion_lon": 0.0, "rental_uris": {"android": "https://dc.lft.to/lastmile_qr_scan", "ios": "https://dc.lft.to/lastmile_qr_scan"}, "lat": 38.912581333333335, "lon": -77.03046666666667, "fusion_lat": 0.0}, {"is_reserved": 0, "bike_id": "2c35b20695e26f20cb4074caeac0dc87", "type": "electric_scooter", "name": "2c35b20695e26f20cb4074caeac0dc87", "is_disabled": 0, "fusion_lon": 0.0, "rental_uris": {"android": "https://dc.lft.to/lastmile_qr_scan", "ios": "https://dc.lft.to/lastmile_qr_scan"}, "lat": 38.875450666666666, "lon": -77.005356, "fusion_lat": 0.0}, {"is_reserved": 0, "bike_id": "03191390da34c3f7f2a411ee563b136f", "type": "electric_scooter", "name": "03191390da34c3f7f2a411ee563b136f", "is_disabled": 0, "fusion_lon": 0.0, "rental_uris": {"android": "https://dc.lft.to/lastmile_qr_scan", "ios": "https://dc.lft.to/lastmile_qr_scan"}, "lat": 38.921833666666664, "lon": -77.01916183333333, "fusion_lat": 0.0}, {"is_reserved": 0, "bike_id": "372d86f9a072a8045cc36e63e9267a91", "type": "electric_scooter", "name": "372d86f9a072a8045cc36e63e9267a91", "is_disabled": 0, "fusion_lon": 0.0, "rental_uris": {"android": "https://dc.lft.to/lastmile_qr_scan", "ios": "https://dc.lft.to/lastmile_qr_scan"}, "lat": 38.87916716666667, "lon": -76.98538233333333, "fusion_lat": 0.0}, {"is_reserved": 0, "bike_id": "7e95bdc52a52666616cb7af518915207", "type": "electric_scooter", "name": "7e95bdc52a52666616cb7af518915207", "is_disabled": 0, "fusion_lon": 0.0, "rental_uris": {"android": "https://dc.lft.to/lastmile_qr_scan", "ios": "https://dc.lft.to/lastmile_qr_scan"}, "lat": 38.90612566666667, "lon": -77.0568485, "fusion_lat": 0.0}, {"is_reserved": 0, "bike_id": "901058d702b029a7f4967cbdf66bf4c9", "type": "electric_scooter", "name": "901058d702b029a7f4967cbdf66bf4c9", "is_disabled": 0, "fusion_lon": 0.0, "rental_uris": {"android": "https://dc.lft.to/lastmile_qr_scan", "ios": "https://dc.lft.to/lastmile_qr_scan"}, "lat": 38.9023685, "lon": -77.002036, "fusion_lat": 0.0}, {"is_reserved": 0, "bike_id": "4bb0807ecccc0212b603b93c51fe84eb", "type": "electric_scooter", "name": "4bb0807ecccc0212b603b93c51fe84eb", "is_disabled": 0, "fusion_lon": 0.0, "rental_uris": {"android": "https://dc.lft.to/lastmile_qr_scan", "ios": "https://dc.lft.to/lastmile_qr_scan"}, "lat": 38.873008666666664, "lon": -77.00988033333333, "fusion_lat": 0.0}, {"is_reserved": 0, "bike_id": "94e6fa321d95665bc77b0129a0f6070a", "type": "electric_scooter", "name": "94e6fa321d95665bc77b0129a0f6070a", "is_disabled": 0, "fusion_lon": 0.0, "rental_uris": {"android": "https://dc.lft.to/lastmile_qr_scan", "ios": "https://dc.lft.to/lastmile_qr_scan"}, "lat": 38.92766016666667, "lon": -77.01420166666666, "fusion_lat": 0.0}, {"is_reserved": 0, "bike_id": "8284182159181c4afd93975c1fe3d912", "type": "electric_scooter", "name": "8284182159181c4afd93975c1fe3d912", "is_disabled": 0, "fusion_lon": 0.0, "rental_uris": {"android": "https://dc.lft.to/lastmile_qr_scan", "ios": "https://dc.lft.to/lastmile_qr_scan"}, "lat": 38.89827716666667, "lon": -77.04991, "fusion_lat": 0.0}, {"is_reserved": 0, "bike_id": "89667f78a6c0267780e9deb0a9bb27c6", "type": "electric_scooter", "name": "89667f78a6c0267780e9deb0a9bb27c6", "is_disabled": 0, "fusion_lon": 0.0, "rental_uris": {"android": "https://dc.lft.to/lastmile_qr_scan", "ios": "https://dc.lft.to/lastmile_qr_scan"}, "lat": 38.898924, "lon": -77.0433705, "fusion_lat": 0.0}, {"is_reserved": 0, "bike_id": "5a008daf462c5fb7a34dec41ec478ab5", "type": "electric_scooter", "name": "5a008daf462c5fb7a34dec41ec478ab5", "is_disabled": 0, "fusion_lon": 0.0, "rental_uris": {"android": "https://dc.lft.to/lastmile_qr_scan", "ios": "https://dc.lft.to/lastmile_qr_scan"}, "lat": 38.88135183333333, "lon": -77.0234405, "fusion_lat": 0.0}, {"is_reserved": 0, "bike_id": "e880373ac4ef2862b33c86ec42af5dcb", "type": "electric_scooter", "name": "e880373ac4ef2862b33c86ec42af5dcb", "is_disabled": 0, "fusion_lon": 0.0, "rental_uris": {"android": "https://dc.lft.to/lastmile_qr_scan", "ios": "https://dc.lft.to/lastmile_qr_scan"}, "lat": 38.90268783333333, "lon": -77.01756716666667, "fusion_lat": 0.0}, {"is_reserved": 0, "bike_id": "e563f634d2ec11ae0d6f2bd9e9c46e65", "type": "electric_scooter", "name": "e563f634d2ec11ae0d6f2bd9e9c46e65", "is_disabled": 0, "fusion_lon": 0.0, "rental_uris": {"android": "https://dc.lft.to/lastmile_qr_scan", "ios": "https://dc.lft.to/lastmile_qr_scan"}, "lat": 38.88731966666667, "lon": -76.98360033333333, "fusion_lat": 0.0}, {"is_reserved": 0, "bike_id": "2ee75fd4d77c1c542374e8e1e986c27d", "type": "electric_scooter", "name": "2ee75fd4d77c1c542374e8e1e986c27d", "is_disabled": 0, "fusion_lon": 0.0, "rental_uris": {"android": "https://dc.lft.to/lastmile_qr_scan", "ios": "https://dc.lft.to/lastmile_qr_scan"}, "lat": 38.907587666666664, "lon": -77.01703466666666, "fusion_lat": 0.0}, {"is_reserved": 0, "bike_id": "d3974c3fbbb6197d9a2a24503e40bef1", "type": "electric_scooter", "name": "d3974c3fbbb6197d9a2a24503e40bef1", "is_disabled": 0, "fusion_lon": 0.0, "rental_uris": {"android": "https://dc.lft.to/lastmile_qr_scan", "ios": "https://dc.lft.to/lastmile_qr_scan"}, "lat": 38.94182766666667, "lon": -77.024052, "fusion_lat": 0.0}, {"is_reserved": 0, "bike_id": "0b997708c7f197d5a01f84802a214c31", "type": "electric_scooter", "name": "0b997708c7f197d5a01f84802a214c31", "is_disabled": 0, "fusion_lon": 0.0, "rental_uris": {"android": "https://dc.lft.to/lastmile_qr_scan", "ios": "https://dc.lft.to/lastmile_qr_scan"}, "lat": 38.917716, "lon": -77.04414233333334, "fusion_lat": 0.0}, {"is_reserved": 0, "bike_id": "6c2c62d50da8bc897f6dac29789528eb", "type": "electric_scooter", "name": "6c2c62d50da8bc897f6dac29789528eb", "is_disabled": 0, "fusion_lon": 0.0, "rental_uris": {"android": "https://dc.lft.to/lastmile_qr_scan", "ios": "https://dc.lft.to/lastmile_qr_scan"}, "lat": 38.9024085, "lon": -77.00200966666667, "fusion_lat": 0.0}, {"is_reserved": 0, "bike_id": "6162cb040f292caf0ff2a5eaf5a4a03a", "type": "electric_bike", "name": "6162cb040f292caf0ff2a5eaf5a4a03a", "is_disabled": 0, "fusion_lon": 0.0, "rental_uris": {"android": "https://dc.lft.to/lastmile_qr_scan", "ios": "https://dc.lft.to/lastmile_qr_scan"}, "lat": 38.87741, "lon": -77.14871566666666, "fusion_lat": 0.0}, {"is_reserved": 0, "bike_id": "2ac3bfef4a2e35347879a68c8caf1f76", "type": "electric_scooter", "name": "2ac3bfef4a2e35347879a68c8caf1f76", "is_disabled": 0, "fusion_lon": 0.0, "rental_uris": {"android": "https://dc.lft.to/lastmile_qr_scan", "ios": "https://dc.lft.to/lastmile_qr_scan"}, "lat": 38.95916166666667, "lon": -77.02295066666667, "fusion_lat": 0.0}, {"is_reserved": 0, "bike_id": "0146a5d1124d8dcd7f47d8d413eb68ce", "type": "electric_scooter", "name": "0146a5d1124d8dcd7f47d8d413eb68ce", "is_disabled": 0, "fusion_lon": 0.0, "rental_uris": {"android": "https://dc.lft.to/lastmile_qr_scan", "ios": "https://dc.lft.to/lastmile_qr_scan"}, "lat": 38.89502383333333, "lon": -76.9487495, "fusion_lat": 0.0}, {"is_reserved": 0, "bike_id": "68b5584a8b730b3112001f99407cc74d", "type": "electric_scooter", "name": "68b5584a8b730b3112001f99407cc74d", "is_disabled": 0, "fusion_lon": 0.0, "rental_uris": {"android": "https://dc.lft.to/lastmile_qr_scan", "ios": "https://dc.lft.to/lastmile_qr_scan"}, "lat": 38.91514083333333, "lon": -77.0346525, "fusion_lat": 0.0}, {"is_reserved": 0, "bike_id": "ce60f2aa74f0d31fa7bd51d4bf02af18", "type": "electric_scooter", "name": "ce60f2aa74f0d31fa7bd51d4bf02af18", "is_disabled": 0, "fusion_lon": 0.0, "rental_uris": {"android": "https://dc.lft.to/lastmile_qr_scan", "ios": "https://dc.lft.to/lastmile_qr_scan"}, "lat": 38.92361416666667, "lon": -77.0503855, "fusion_lat": 0.0}, {"is_reserved": 0, "bike_id": "9cb2d9583cf3c042af985c28fa5bd38f", "type": "electric_scooter", "name": "9cb2d9583cf3c042af985c28fa5bd38f", "is_disabled": 0, "fusion_lon": 0.0, "rental_uris": {"android": "https://dc.lft.to/lastmile_qr_scan", "ios": "https://dc.lft.to/lastmile_qr_scan"}, "lat": 38.9157425, "lon": -77.03657133333333, "fusion_lat": 0.0}, {"is_reserved": 0, "bike_id": "135faa236d29d3162514df2fc58aa414", "type": "electric_scooter", "name": "135faa236d29d3162514df2fc58aa414", "is_disabled": 0, "fusion_lon": 0.0, "rental_uris": {"android": "https://dc.lft.to/lastmile_qr_scan", "ios": "https://dc.lft.to/lastmile_qr_scan"}, "lat": 38.944486166666664, "lon": -77.06370416666667, "fusion_lat": 0.0}, {"is_reserved": 0, "bike_id": "975f02c845de6f7f85a21cc18e8000ae", "type": "electric_scooter", "name": "975f02c845de6f7f85a21cc18e8000ae", "is_disabled": 0, "fusion_lon": 0.0, "rental_uris": {"android": "https://dc.lft.to/lastmile_qr_scan", "ios": "https://dc.lft.to/lastmile_qr_scan"}, "lat": 38.91690283333333, "lon": -77.0295, "fusion_lat": 0.0}, {"is_reserved": 0, "bike_id": "f083ba51e7d687268fb0a74ca472ac30", "type": "electric_scooter", "name": "f083ba51e7d687268fb0a74ca472ac30", "is_disabled": 0, "fusion_lon": 0.0, "rental_uris": {"android": "https://dc.lft.to/lastmile_qr_scan", "ios": "https://dc.lft.to/lastmile_qr_scan"}, "lat": 38.91805033333333, "lon": -77.06828133333333, "fusion_lat": 0.0}, {"is_reserved": 0, "bike_id": "f10a48b0a865edb0fe53972deff7629d", "type": "electric_scooter", "name": "f10a48b0a865edb0fe53972deff7629d", "is_disabled": 0, "fusion_lon": 0.0, "rental_uris": {"android": "https://dc.lft.to/lastmile_qr_scan", "ios": "https://dc.lft.to/lastmile_qr_scan"}, "lat": 38.9650015, "lon": -77.0628145, "fusion_lat": 0.0}, {"is_reserved": 0, "bike_id": "0518da18fc2ffff255652378c8781268", "type": "electric_scooter", "name": "0518da18fc2ffff255652378c8781268", "is_disabled": 0, "fusion_lon": 0.0, "rental_uris": {"android": "https://dc.lft.to/lastmile_qr_scan", "ios": "https://dc.lft.to/lastmile_qr_scan"}, "lat": 38.93222983333333, "lon": -77.04124, "fusion_lat": 0.0}, {"is_reserved": 0, "bike_id": "ee829d456ee89175eec4fc22f2b51a04", "type": "electric_scooter", "name": "ee829d456ee89175eec4fc22f2b51a04", "is_disabled": 0, "fusion_lon": 0.0, "rental_uris": {"android": "https://dc.lft.to/lastmile_qr_scan", "ios": "https://dc.lft.to/lastmile_qr_scan"}, "lat": 38.9058545, "lon": -76.98623166666667, "fusion_lat": 0.0}, {"is_reserved": 0, "bike_id": "5c38f60c09b90cf0c329ee25ab3b6d6a", "type": "electric_scooter", "name": "5c38f60c09b90cf0c329ee25ab3b6d6a", "is_disabled": 0, "fusion_lon": 0.0, "rental_uris": {"android": "https://dc.lft.to/lastmile_qr_scan", "ios": "https://dc.lft.to/lastmile_qr_scan"}, "lat": 38.9062955, "lon": -77.02597733333333, "fusion_lat": 0.0}, {"is_reserved": 0, "bike_id": "bd751ccfcc4ef535b09c27fb553d2486", "type": "electric_scooter", "name": "bd751ccfcc4ef535b09c27fb553d2486", "is_disabled": 0, "fusion_lon": 0.0, "rental_uris": {"android": "https://dc.lft.to/lastmile_qr_scan", "ios": "https://dc.lft.to/lastmile_qr_scan"}, "lat": 38.91914233333333, "lon": -77.02521733333333, "fusion_lat": 0.0}, {"is_reserved": 0, "bike_id": "339aefe4a8d9c5f0ee3e18edac24759a", "type": "electric_scooter", "name": "339aefe4a8d9c5f0ee3e18edac24759a", "is_disabled": 0, "fusion_lon": 0.0, "rental_uris": {"android": "https://dc.lft.to/lastmile_qr_scan", "ios": "https://dc.lft.to/lastmile_qr_scan"}, "lat": 38.94298633333333, "lon": -77.05933183333333, "fusion_lat": 0.0}, {"is_reserved": 0, "bike_id": "29ea590bc9b0317aa1b0a88cdc671e11", "type": "electric_scooter", "name": "29ea590bc9b0317aa1b0a88cdc671e11", "is_disabled": 0, "fusion_lon": 0.0, "rental_uris": {"android": "https://dc.lft.to/lastmile_qr_scan", "ios": "https://dc.lft.to/lastmile_qr_scan"}, "lat": 38.900324833333336, "lon": -77.04382633333333, "fusion_lat": 0.0}, {"is_reserved": 0, "bike_id": "e98863b92447a5582c87851fe5520e2a", "type": "electric_scooter", "name": "e98863b92447a5582c87851fe5520e2a", "is_disabled": 0, "fusion_lon": 0.0, "rental_uris": {"android": "https://dc.lft.to/lastmile_qr_scan", "ios": "https://dc.lft.to/lastmile_qr_scan"}, "lat": 38.89857383333333, "lon": -76.93191233333333, "fusion_lat": 0.0}, {"is_reserved": 0, "bike_id": "b5c5e5e857b748a0d5eb63c6dee431fd", "type": "electric_scooter", "name": "b5c5e5e857b748a0d5eb63c6dee431fd", "is_disabled": 0, "fusion_lon": 0.0, "rental_uris": {"android": "https://dc.lft.to/lastmile_qr_scan", "ios": "https://dc.lft.to/lastmile_qr_scan"}, "lat": 38.9210555, "lon": -77.039265, "fusion_lat": 0.0}, {"is_reserved": 0, "bike_id": "f213641d004712abe8064a9244c8d0d8", "type": "electric_scooter", "name": "f213641d004712abe8064a9244c8d0d8", "is_disabled": 0, "fusion_lon": 0.0, "rental_uris": {"android": "https://dc.lft.to/lastmile_qr_scan", "ios": "https://dc.lft.to/lastmile_qr_scan"}, "lat": 38.8996545, "lon": -77.04787433333334, "fusion_lat": 0.0}, {"is_reserved": 0, "bike_id": "1250be64fca16c8890b8e7fc4afe1818", "type": "electric_scooter", "name": "1250be64fca16c8890b8e7fc4afe1818", "is_disabled": 0, "fusion_lon": 0.0, "rental_uris": {"android": "https://dc.lft.to/lastmile_qr_scan", "ios": "https://dc.lft.to/lastmile_qr_scan"}, "lat": 38.920686, "lon": -77.0233265, "fusion_lat": 0.0}, {"is_reserved": 0, "bike_id": "1c8359acf4944ee93cbfb9b1d93220b6", "type": "electric_bike", "name": "1c8359acf4944ee93cbfb9b1d93220b6", "is_disabled": 0, "fusion_lon": 0.0, "rental_uris": {"android": "https://dc.lft.to/lastmile_qr_scan", "ios": "https://dc.lft.to/lastmile_qr_scan"}, "lat": 38.855779, "lon": -76.974324, "fusion_lat": 0.0}, {"is_reserved": 0, "bike_id": "eaab278195875b35e00c10f0d15d66cc", "type": "electric_scooter", "name": "eaab278195875b35e00c10f0d15d66cc", "is_disabled": 0, "fusion_lon": 0.0, "rental_uris": {"android": "https://dc.lft.to/lastmile_qr_scan", "ios": "https://dc.lft.to/lastmile_qr_scan"}, "lat": 38.88676566666667, "lon": -77.01367866666666, "fusion_lat": 0.0}, {"is_reserved": 0, "bike_id": "09407a170605cf97f3a064bc0051fef0", "type": "electric_scooter", "name": "09407a170605cf97f3a064bc0051fef0", "is_disabled": 0, "fusion_lon": 0.0, "rental_uris": {"android": "https://dc.lft.to/lastmile_qr_scan", "ios": "https://dc.lft.to/lastmile_qr_scan"}, "lat": 38.9291245, "lon": -77.0186445, "fusion_lat": 0.0}, {"is_reserved": 0, "bike_id": "02449957d051f731603c82b07d4540a4", "type": "electric_scooter", "name": "02449957d051f731603c82b07d4540a4", "is_disabled": 0, "fusion_lon": 0.0, "rental_uris": {"android": "https://dc.lft.to/lastmile_qr_scan", "ios": "https://dc.lft.to/lastmile_qr_scan"}, "lat": 38.92434, "lon": -77.04246183333333, "fusion_lat": 0.0}, {"is_reserved": 0, "bike_id": "4bf2da23e9a272e1074b31c27f3bc897", "type": "electric_scooter", "name": "4bf2da23e9a272e1074b31c27f3bc897", "is_disabled": 0, "fusion_lon": 0.0, "rental_uris": {"android": "https://dc.lft.to/lastmile_qr_scan", "ios": "https://dc.lft.to/lastmile_qr_scan"}, "lat": 38.9059645, "lon": -77.00736216666667, "fusion_lat": 0.0}, {"is_reserved": 0, "bike_id": "0e985aad3e5028b40838987483569ec4", "type": "electric_scooter", "name": "0e985aad3e5028b40838987483569ec4", "is_disabled": 0, "fusion_lon": 0.0, "rental_uris": {"android": "https://dc.lft.to/lastmile_qr_scan", "ios": "https://dc.lft.to/lastmile_qr_scan"}, "lat": 38.936483, "lon": -77.036952, "fusion_lat": 0.0}, {"is_reserved": 0, "bike_id": "0a2843d804f43e596f761b3078f261f6", "type": "electric_scooter", "name": "0a2843d804f43e596f761b3078f261f6", "is_disabled": 0, "fusion_lon": 0.0, "rental_uris": {"android": "https://dc.lft.to/lastmile_qr_scan", "ios": "https://dc.lft.to/lastmile_qr_scan"}, "lat": 38.923314833333336, "lon": -77.00890383333333, "fusion_lat": 0.0}, {"is_reserved": 0, "bike_id": "f120d196bed365112b1e29ca1f56c399", "type": "electric_scooter", "name": "f120d196bed365112b1e29ca1f56c399", "is_disabled": 0, "fusion_lon": 0.0, "rental_uris": {"android": "https://dc.lft.to/lastmile_qr_scan", "ios": "https://dc.lft.to/lastmile_qr_scan"}, "lat": 38.9003905, "lon": -77.03352266666667, "fusion_lat": 0.0}, {"is_reserved": 0, "bike_id": "462ef1f506bd3045f25e97cc8e42c198", "type": "electric_scooter", "name": "462ef1f506bd3045f25e97cc8e42c198", "is_disabled": 0, "fusion_lon": 0.0, "rental_uris": {"android": "https://dc.lft.to/lastmile_qr_scan", "ios": "https://dc.lft.to/lastmile_qr_scan"}, "lat": 38.9065205, "lon": -77.02528783333334, "fusion_lat": 0.0}, {"is_reserved": 0, "bike_id": "e930664bbcaf883fbc2274e9db427c0a", "type": "electric_bike", "name": "e930664bbcaf883fbc2274e9db427c0a", "is_disabled": 0, "fusion_lon": 0.0, "rental_uris": {"android": "https://dc.lft.to/lastmile_qr_scan", "ios": "https://dc.lft.to/lastmile_qr_scan"}, "lat": 38.98555833333333, "lon": -77.00393616666666, "fusion_lat": 0.0}, {"is_reserved": 0, "bike_id": "810b543c4d7fae961defb13689bacf4d", "type": "electric_scooter", "name": "810b543c4d7fae961defb13689bacf4d", "is_disabled": 0, "fusion_lon": 0.0, "rental_uris": {"android": "https://dc.lft.to/lastmile_qr_scan", "ios": "https://dc.lft.to/lastmile_qr_scan"}, "lat": 38.920749666666666, "lon": -77.02388216666667, "fusion_lat": 0.0}, {"is_reserved": 0, "bike_id": "6a992dc65f9bd8c08c36acf997fae96d", "type": "electric_scooter", "name": "6a992dc65f9bd8c08c36acf997fae96d", "is_disabled": 0, "fusion_lon": 0.0, "rental_uris": {"android": "https://dc.lft.to/lastmile_qr_scan", "ios": "https://dc.lft.to/lastmile_qr_scan"}, "lat": 38.897056166666665, "lon": -77.012742, "fusion_lat": 0.0}, {"is_reserved": 0, "bike_id": "53195751e3fd955af01397171acdcbb7", "type": "electric_scooter", "name": "53195751e3fd955af01397171acdcbb7", "is_disabled": 0, "fusion_lon": 0.0, "rental_uris": {"android": "https://dc.lft.to/lastmile_qr_scan", "ios": "https://dc.lft.to/lastmile_qr_scan"}, "lat": 38.91405816666666, "lon": -77.03704116666667, "fusion_lat": 0.0}, {"is_reserved": 0, "bike_id": "5ba48336bb73728beea50b3436dadddc", "type": "electric_bike", "name": "5ba48336bb73728beea50b3436dadddc", "is_disabled": 0, "fusion_lon": 0.0, "rental_uris": {"android": "https://dc.lft.to/lastmile_qr_scan", "ios": "https://dc.lft.to/lastmile_qr_scan"}, "lat": 38.856490666666666, "lon": -77.08528033333333, "fusion_lat": 0.0}, {"is_reserved": 0, "bike_id": "2d285ce53489af4d0537bf8757b1451f", "type": "electric_scooter", "name": "2d285ce53489af4d0537bf8757b1451f", "is_disabled": 0, "fusion_lon": 0.0, "rental_uris": {"android": "https://dc.lft.to/lastmile_qr_scan", "ios": "https://dc.lft.to/lastmile_qr_scan"}, "lat": 38.901567166666666, "lon": -77.03972283333333, "fusion_lat": 0.0}, {"is_reserved": 0, "bike_id": "24502fa0b6a08ef1d44bac0d9f45e18e", "type": "electric_scooter", "name": "24502fa0b6a08ef1d44bac0d9f45e18e", "is_disabled": 0, "fusion_lon": 0.0, "rental_uris": {"android": "https://dc.lft.to/lastmile_qr_scan", "ios": "https://dc.lft.to/lastmile_qr_scan"}, "lat": 38.88177816666666, "lon": -77.02811383333334, "fusion_lat": 0.0}, {"is_reserved": 0, "bike_id": "bcec6ef7bb84150b4e63b750ce1d4c82", "type": "electric_scooter", "name": "bcec6ef7bb84150b4e63b750ce1d4c82", "is_disabled": 0, "fusion_lon": 0.0, "rental_uris": {"android": "https://dc.lft.to/lastmile_qr_scan", "ios": "https://dc.lft.to/lastmile_qr_scan"}, "lat": 38.91880316666666, "lon": -77.04309316666667, "fusion_lat": 0.0}, {"is_reserved": 0, "bike_id": "9c521dff81f1c1873655c6079edc3abc", "type": "electric_scooter", "name": "9c521dff81f1c1873655c6079edc3abc", "is_disabled": 0, "fusion_lon": 0.0, "rental_uris": {"android": "https://dc.lft.to/lastmile_qr_scan", "ios": "https://dc.lft.to/lastmile_qr_scan"}, "lat": 38.920512, "lon": -77.0242665, "fusion_lat": 0.0}, {"is_reserved": 0, "bike_id": "c92d501afa98026dba5416651bcf69d7", "type": "electric_scooter", "name": "c92d501afa98026dba5416651bcf69d7", "is_disabled": 0, "fusion_lon": 0.0, "rental_uris": {"android": "https://dc.lft.to/lastmile_qr_scan", "ios": "https://dc.lft.to/lastmile_qr_scan"}, "lat": 38.916663166666666, "lon": -77.02710166666667, "fusion_lat": 0.0}, {"is_reserved": 0, "bike_id": "950cfc34557a746923e53ce5edd3c310", "type": "electric_scooter", "name": "950cfc34557a746923e53ce5edd3c310", "is_disabled": 0, "fusion_lon": 0.0, "rental_uris": {"android": "https://dc.lft.to/lastmile_qr_scan", "ios": "https://dc.lft.to/lastmile_qr_scan"}, "lat": 38.90068483333334, "lon": -77.012192, "fusion_lat": 0.0}, {"is_reserved": 0, "bike_id": "b08479f7988da24bdf92ba5b5ea0dc78", "type": "electric_scooter", "name": "b08479f7988da24bdf92ba5b5ea0dc78", "is_disabled": 0, "fusion_lon": 0.0, "rental_uris": {"android": "https://dc.lft.to/lastmile_qr_scan", "ios": "https://dc.lft.to/lastmile_qr_scan"}, "lat": 38.922466, "lon": -77.03503133333334, "fusion_lat": 0.0}, {"is_reserved": 0, "bike_id": "99a492c2b96fee9b59d0d826070be387", "type": "electric_scooter", "name": "99a492c2b96fee9b59d0d826070be387", "is_disabled": 0, "fusion_lon": 0.0, "rental_uris": {"android": "https://dc.lft.to/lastmile_qr_scan", "ios": "https://dc.lft.to/lastmile_qr_scan"}, "lat": 38.90060616666667, "lon": -77.017382, "fusion_lat": 0.0}, {"is_reserved": 0, "bike_id": "9d785641ddb34399869c6f5ae0368896", "type": "electric_scooter", "name": "9d785641ddb34399869c6f5ae0368896", "is_disabled": 0, "fusion_lon": 0.0, "rental_uris": {"android": "https://dc.lft.to/lastmile_qr_scan", "ios": "https://dc.lft.to/lastmile_qr_scan"}, "lat": 38.90146, "lon": -77.0402645, "fusion_lat": 0.0}, {"is_reserved": 0, "bike_id": "9e1fe4a4fbf0677513bcd926005e9079", "type": "electric_scooter", "name": "9e1fe4a4fbf0677513bcd926005e9079", "is_disabled": 0, "fusion_lon": 0.0, "rental_uris": {"android": "https://dc.lft.to/lastmile_qr_scan", "ios": "https://dc.lft.to/lastmile_qr_scan"}, "lat": 38.922194833333336, "lon": -77.0344855, "fusion_lat": 0.0}, {"is_reserved": 0, "bike_id": "9113a2ceabc446104267430ec3a426e5", "type": "electric_bike", "name": "9113a2ceabc446104267430ec3a426e5", "is_disabled": 0, "fusion_lon": 0.0, "rental_uris": {"android": "https://dc.lft.to/lastmile_qr_scan", "ios": "https://dc.lft.to/lastmile_qr_scan"}, "lat": 38.865544, "lon": -76.94152233333334, "fusion_lat": 0.0}, {"is_reserved": 0, "bike_id": "8044ad13d6d2b23edb79bf142c898f9c", "type": "electric_scooter", "name": "8044ad13d6d2b23edb79bf142c898f9c", "is_disabled": 0, "fusion_lon": 0.0, "rental_uris": {"android": "https://dc.lft.to/lastmile_qr_scan", "ios": "https://dc.lft.to/lastmile_qr_scan"}, "lat": 38.919118833333336, "lon": -77.04484033333334, "fusion_lat": 0.0}, {"is_reserved": 0, "bike_id": "e3e60bb9c9f605e3a22a1b9239ed182b", "type": "electric_scooter", "name": "e3e60bb9c9f605e3a22a1b9239ed182b", "is_disabled": 0, "fusion_lon": 0.0, "rental_uris": {"android": "https://dc.lft.to/lastmile_qr_scan", "ios": "https://dc.lft.to/lastmile_qr_scan"}, "lat": 38.922534666666664, "lon": -77.04711983333333, "fusion_lat": 0.0}, {"is_reserved": 0, "bike_id": "dcca9935205782ec8d9b3d7fcaca9245", "type": "electric_bike", "name": "dcca9935205782ec8d9b3d7fcaca9245", "is_disabled": 0, "fusion_lon": 0.0, "rental_uris": {"android": "https://dc.lft.to/lastmile_qr_scan", "ios": "https://dc.lft.to/lastmile_qr_scan"}, "lat": 38.895626, "lon": -77.12734083333334, "fusion_lat": 0.0}, {"is_reserved": 0, "bike_id": "4464d9a24cce1ecf8600765c6537b048", "type": "electric_scooter", "name": "4464d9a24cce1ecf8600765c6537b048", "is_disabled": 0, "fusion_lon": 0.0, "rental_uris": {"android": "https://dc.lft.to/lastmile_qr_scan", "ios": "https://dc.lft.to/lastmile_qr_scan"}, "lat": 38.929110666666666, "lon": -77.01868833333333, "fusion_lat": 0.0}, {"is_reserved": 0, "bike_id": "e5cd46cafefeb9c81ecb9dae3802212e", "type": "electric_scooter", "name": "e5cd46cafefeb9c81ecb9dae3802212e", "is_disabled": 0, "fusion_lon": 0.0, "rental_uris": {"android": "https://dc.lft.to/lastmile_qr_scan", "ios": "https://dc.lft.to/lastmile_qr_scan"}, "lat": 38.9241935, "lon": -77.0194735, "fusion_lat": 0.0}, {"is_reserved": 0, "bike_id": "df77d64a05f59609e0111393492553fb", "type": "electric_scooter", "name": "df77d64a05f59609e0111393492553fb", "is_disabled": 0, "fusion_lon": 0.0, "rental_uris": {"android": "https://dc.lft.to/lastmile_qr_scan", "ios": "https://dc.lft.to/lastmile_qr_scan"}, "lat": 38.924403166666664, "lon": -77.029817, "fusion_lat": 0.0}, {"is_reserved": 0, "bike_id": "58d248d9dff8c4d9ca793d964c6e75b1", "type": "electric_scooter", "name": "58d248d9dff8c4d9ca793d964c6e75b1", "is_disabled": 0, "fusion_lon": 0.0, "rental_uris": {"android": "https://dc.lft.to/lastmile_qr_scan", "ios": "https://dc.lft.to/lastmile_qr_scan"}, "lat": 38.9431085, "lon": -77.02954016666666, "fusion_lat": 0.0}, {"is_reserved": 0, "bike_id": "b3e692e895fd3fa8ae9ba569aea2fb44", "type": "electric_scooter", "name": "b3e692e895fd3fa8ae9ba569aea2fb44", "is_disabled": 0, "fusion_lon": 0.0, "rental_uris": {"android": "https://dc.lft.to/lastmile_qr_scan", "ios": "https://dc.lft.to/lastmile_qr_scan"}, "lat": 38.907788, "lon": -77.06300933333333, "fusion_lat": 0.0}, {"is_reserved": 0, "bike_id": "c9f0e6cddab281e530bf139615a356fb", "type": "electric_scooter", "name": "c9f0e6cddab281e530bf139615a356fb", "is_disabled": 0, "fusion_lon": 0.0, "rental_uris": {"android": "https://dc.lft.to/lastmile_qr_scan", "ios": "https://dc.lft.to/lastmile_qr_scan"}, "lat": 38.90392883333333, "lon": -76.99048216666667, "fusion_lat": 0.0}, {"is_reserved": 0, "bike_id": "a624d637c308503b83d0fe14df4c5720", "type": "electric_scooter", "name": "a624d637c308503b83d0fe14df4c5720", "is_disabled": 0, "fusion_lon": 0.0, "rental_uris": {"android": "https://dc.lft.to/lastmile_qr_scan", "ios": "https://dc.lft.to/lastmile_qr_scan"}, "lat": 38.892216166666664, "lon": -77.02414566666667, "fusion_lat": 0.0}, {"is_reserved": 0, "bike_id": "8f78daf1778f47601e8446fd79ce0648", "type": "electric_scooter", "name": "8f78daf1778f47601e8446fd79ce0648", "is_disabled": 0, "fusion_lon": 0.0, "rental_uris": {"android": "https://dc.lft.to/lastmile_qr_scan", "ios": "https://dc.lft.to/lastmile_qr_scan"}, "lat": 38.9003105, "lon": -77.002096, "fusion_lat": 0.0}, {"is_reserved": 0, "bike_id": "641147cab28f750a90b69575b3ce6106", "type": "electric_scooter", "name": "641147cab28f750a90b69575b3ce6106", "is_disabled": 0, "fusion_lon": 0.0, "rental_uris": {"android": "https://dc.lft.to/lastmile_qr_scan", "ios": "https://dc.lft.to/lastmile_qr_scan"}, "lat": 38.906576333333334, "lon": -77.04622416666666, "fusion_lat": 0.0}, {"is_reserved": 0, "bike_id": "ea4fb77d34684a5b62fa8c4d035373e8", "type": "electric_scooter", "name": "ea4fb77d34684a5b62fa8c4d035373e8", "is_disabled": 0, "fusion_lon": 0.0, "rental_uris": {"android": "https://dc.lft.to/lastmile_qr_scan", "ios": "https://dc.lft.to/lastmile_qr_scan"}, "lat": 38.92419016666667, "lon": -77.01944966666667, "fusion_lat": 0.0}, {"is_reserved": 0, "bike_id": "ac2a7ee23b6b3e582092cce3b9115262", "type": "electric_scooter", "name": "ac2a7ee23b6b3e582092cce3b9115262", "is_disabled": 0, "fusion_lon": 0.0, "rental_uris": {"android": "https://dc.lft.to/lastmile_qr_scan", "ios": "https://dc.lft.to/lastmile_qr_scan"}, "lat": 38.924852333333334, "lon": -77.0223835, "fusion_lat": 0.0}, {"is_reserved": 0, "bike_id": "29286a51a0d0fff73d8823ce7c91e6ee", "type": "electric_scooter", "name": "29286a51a0d0fff73d8823ce7c91e6ee", "is_disabled": 0, "fusion_lon": 0.0, "rental_uris": {"android": "https://dc.lft.to/lastmile_qr_scan", "ios": "https://dc.lft.to/lastmile_qr_scan"}, "lat": 38.9026265, "lon": -76.9984965, "fusion_lat": 0.0}, {"is_reserved": 0, "bike_id": "ddf96cc22d7c2f2a8dd360f9329f47ab", "type": "electric_scooter", "name": "ddf96cc22d7c2f2a8dd360f9329f47ab", "is_disabled": 0, "fusion_lon": 0.0, "rental_uris": {"android": "https://dc.lft.to/lastmile_qr_scan", "ios": "https://dc.lft.to/lastmile_qr_scan"}, "lat": 38.8950745, "lon": -77.02298266666666, "fusion_lat": 0.0}, {"is_reserved": 0, "bike_id": "0eb7ce7f15455ac675068ee35ce5932f", "type": "electric_scooter", "name": "0eb7ce7f15455ac675068ee35ce5932f", "is_disabled": 0, "fusion_lon": 0.0, "rental_uris": {"android": "https://dc.lft.to/lastmile_qr_scan", "ios": "https://dc.lft.to/lastmile_qr_scan"}, "lat": 38.9119585, "lon": -77.0425815, "fusion_lat": 0.0}, {"is_reserved": 0, "bike_id": "90772b840fc8d96bef03420cd7e22e26", "type": "electric_scooter", "name": "90772b840fc8d96bef03420cd7e22e26", "is_disabled": 0, "fusion_lon": 0.0, "rental_uris": {"android": "https://dc.lft.to/lastmile_qr_scan", "ios": "https://dc.lft.to/lastmile_qr_scan"}, "lat": 38.9098595, "lon": -77.00885883333333, "fusion_lat": 0.0}, {"is_reserved": 0, "bike_id": "3a985ef2d01cdc70ea119faf1ce7501e", "type": "electric_scooter", "name": "3a985ef2d01cdc70ea119faf1ce7501e", "is_disabled": 0, "fusion_lon": 0.0, "rental_uris": {"android": "https://dc.lft.to/lastmile_qr_scan", "ios": "https://dc.lft.to/lastmile_qr_scan"}, "lat": 38.91841083333333, "lon": -77.03206833333333, "fusion_lat": 0.0}, {"is_reserved": 0, "bike_id": "d466c2c03492887c4e9aa75b9d923621", "type": "electric_scooter", "name": "d466c2c03492887c4e9aa75b9d923621", "is_disabled": 0, "fusion_lon": 0.0, "rental_uris": {"android": "https://dc.lft.to/lastmile_qr_scan", "ios": "https://dc.lft.to/lastmile_qr_scan"}, "lat": 38.898563, "lon": -77.028556, "fusion_lat": 0.0}, {"is_reserved": 0, "bike_id": "5fa168682a8bc59519799482f348a732", "type": "electric_bike", "name": "5fa168682a8bc59519799482f348a732", "is_disabled": 0, "fusion_lon": 0.0, "rental_uris": {"android": "https://dc.lft.to/lastmile_qr_scan", "ios": "https://dc.lft.to/lastmile_qr_scan"}, "lat": 38.952173, "lon": -77.09663366666666, "fusion_lat": 0.0}, {"is_reserved": 0, "bike_id": "e4c156d6e6cbfdf416f6f63f2348b382", "type": "electric_scooter", "name": "e4c156d6e6cbfdf416f6f63f2348b382", "is_disabled": 0, "fusion_lon": 0.0, "rental_uris": {"android": "https://dc.lft.to/lastmile_qr_scan", "ios": "https://dc.lft.to/lastmile_qr_scan"}, "lat": 38.855146, "lon": -76.9864265, "fusion_lat": 0.0}, {"is_reserved": 0, "bike_id": "0c7eceb282201615be74d491e8d8d814", "type": "electric_scooter", "name": "0c7eceb282201615be74d491e8d8d814", "is_disabled": 0, "fusion_lon": 0.0, "rental_uris": {"android": "https://dc.lft.to/lastmile_qr_scan", "ios": "https://dc.lft.to/lastmile_qr_scan"}, "lat": 38.90318366666666, "lon": -77.01895516666667, "fusion_lat": 0.0}, {"is_reserved": 0, "bike_id": "5599091f0f5b25fc8db7608ca462ab33", "type": "electric_scooter", "name": "5599091f0f5b25fc8db7608ca462ab33", "is_disabled": 0, "fusion_lon": 0.0, "rental_uris": {"android": "https://dc.lft.to/lastmile_qr_scan", "ios": "https://dc.lft.to/lastmile_qr_scan"}, "lat": 38.9282395, "lon": -77.02254266666667, "fusion_lat": 0.0}, {"is_reserved": 0, "bike_id": "641ab394c96358599fccc0f0b64de50b", "type": "electric_scooter", "name": "641ab394c96358599fccc0f0b64de50b", "is_disabled": 0, "fusion_lon": 0.0, "rental_uris": {"android": "https://dc.lft.to/lastmile_qr_scan", "ios": "https://dc.lft.to/lastmile_qr_scan"}, "lat": 38.87879, "lon": -77.00055433333333, "fusion_lat": 0.0}, {"is_reserved": 0, "bike_id": "28cb22463bf125483bc7b6ab51661c66", "type": "electric_scooter", "name": "28cb22463bf125483bc7b6ab51661c66", "is_disabled": 0, "fusion_lon": 0.0, "rental_uris": {"android": "https://dc.lft.to/lastmile_qr_scan", "ios": "https://dc.lft.to/lastmile_qr_scan"}, "lat": 38.921394166666666, "lon": -77.01793733333334, "fusion_lat": 0.0}, {"is_reserved": 0, "bike_id": "c3404d067368a8b4b72f18d74f03738a", "type": "electric_scooter", "name": "c3404d067368a8b4b72f18d74f03738a", "is_disabled": 0, "fusion_lon": 0.0, "rental_uris": {"android": "https://dc.lft.to/lastmile_qr_scan", "ios": "https://dc.lft.to/lastmile_qr_scan"}, "lat": 38.924698166666666, "lon": -77.05238583333333, "fusion_lat": 0.0}, {"is_reserved": 0, "bike_id": "e26188033b087c876c389b6e64957970", "type": "electric_bike", "name": "e26188033b087c876c389b6e64957970", "is_disabled": 0, "fusion_lon": 0.0, "rental_uris": {"android": "https://dc.lft.to/lastmile_qr_scan", "ios": "https://dc.lft.to/lastmile_qr_scan"}, "lat": 38.904738333333334, "lon": -76.92948766666666, "fusion_lat": 0.0}, {"is_reserved": 0, "bike_id": "e404f931df0fadf0a087ab4647a9c537", "type": "electric_scooter", "name": "e404f931df0fadf0a087ab4647a9c537", "is_disabled": 0, "fusion_lon": 0.0, "rental_uris": {"android": "https://dc.lft.to/lastmile_qr_scan", "ios": "https://dc.lft.to/lastmile_qr_scan"}, "lat": 38.8953915, "lon": -76.98239366666667, "fusion_lat": 0.0}, {"is_reserved": 0, "bike_id": "d02371b72743c1897d703493e8100c70", "type": "electric_scooter", "name": "d02371b72743c1897d703493e8100c70", "is_disabled": 0, "fusion_lon": 0.0, "rental_uris": {"android": "https://dc.lft.to/lastmile_qr_scan", "ios": "https://dc.lft.to/lastmile_qr_scan"}, "lat": 38.87795966666667, "lon": -77.00120933333334, "fusion_lat": 0.0}, {"is_reserved": 0, "bike_id": "a9021c2c671a13ba6b9956bfa717fbdd", "type": "electric_scooter", "name": "a9021c2c671a13ba6b9956bfa717fbdd", "is_disabled": 0, "fusion_lon": 0.0, "rental_uris": {"android": "https://dc.lft.to/lastmile_qr_scan", "ios": "https://dc.lft.to/lastmile_qr_scan"}, "lat": 38.91957166666667, "lon": -77.07870583333333, "fusion_lat": 0.0}, {"is_reserved": 0, "bike_id": "0e77fb6c3ace8427446308b6a0cb97a9", "type": "electric_scooter", "name": "0e77fb6c3ace8427446308b6a0cb97a9", "is_disabled": 0, "fusion_lon": 0.0, "rental_uris": {"android": "https://dc.lft.to/lastmile_qr_scan", "ios": "https://dc.lft.to/lastmile_qr_scan"}, "lat": 38.911919833333336, "lon": -77.03218716666667, "fusion_lat": 0.0}, {"is_reserved": 0, "bike_id": "ca9194daf794b703d343b614b2124625", "type": "electric_scooter", "name": "ca9194daf794b703d343b614b2124625", "is_disabled": 0, "fusion_lon": 0.0, "rental_uris": {"android": "https://dc.lft.to/lastmile_qr_scan", "ios": "https://dc.lft.to/lastmile_qr_scan"}, "lat": 38.916230166666665, "lon": -77.04874816666667, "fusion_lat": 0.0}, {"is_reserved": 0, "bike_id": "5675d6bc39dee2206fcc281540543cdb", "type": "electric_scooter", "name": "5675d6bc39dee2206fcc281540543cdb", "is_disabled": 0, "fusion_lon": 0.0, "rental_uris": {"android": "https://dc.lft.to/lastmile_qr_scan", "ios": "https://dc.lft.to/lastmile_qr_scan"}, "lat": 38.9194205, "lon": -77.01805266666666, "fusion_lat": 0.0}, {"is_reserved": 0, "bike_id": "56f18ba54ddb4f20b1d3bdeac150eef6", "type": "electric_scooter", "name": "56f18ba54ddb4f20b1d3bdeac150eef6", "is_disabled": 0, "fusion_lon": 0.0, "rental_uris": {"android": "https://dc.lft.to/lastmile_qr_scan", "ios": "https://dc.lft.to/lastmile_qr_scan"}, "lat": 38.8972455, "lon": -76.92593883333333, "fusion_lat": 0.0}, {"is_reserved": 0, "bike_id": "de00ae0d6f9938f1193ecf73390fe005", "type": "electric_scooter", "name": "de00ae0d6f9938f1193ecf73390fe005", "is_disabled": 0, "fusion_lon": 0.0, "rental_uris": {"android": "https://dc.lft.to/lastmile_qr_scan", "ios": "https://dc.lft.to/lastmile_qr_scan"}, "lat": 38.907245333333336, "lon": -77.032307, "fusion_lat": 0.0}, {"is_reserved": 0, "bike_id": "71060f6b30f05bd8d89e596d93b641d1", "type": "electric_scooter", "name": "71060f6b30f05bd8d89e596d93b641d1", "is_disabled": 0, "fusion_lon": 0.0, "rental_uris": {"android": "https://dc.lft.to/lastmile_qr_scan", "ios": "https://dc.lft.to/lastmile_qr_scan"}, "lat": 38.920638333333336, "lon": -77.02352966666666, "fusion_lat": 0.0}, {"is_reserved": 0, "bike_id": "fde0fa9dd0806fd6d44ac3708cdda6a2", "type": "electric_scooter", "name": "fde0fa9dd0806fd6d44ac3708cdda6a2", "is_disabled": 0, "fusion_lon": 0.0, "rental_uris": {"android": "https://dc.lft.to/lastmile_qr_scan", "ios": "https://dc.lft.to/lastmile_qr_scan"}, "lat": 38.89543483333333, "lon": -77.0089405, "fusion_lat": 0.0}, {"is_reserved": 0, "bike_id": "9489dab94fdfc53203432aae88c5626b", "type": "electric_bike", "name": "9489dab94fdfc53203432aae88c5626b", "is_disabled": 0, "fusion_lon": 0.0, "rental_uris": {"android": "https://dc.lft.to/lastmile_qr_scan", "ios": "https://dc.lft.to/lastmile_qr_scan"}, "lat": 38.9055735, "lon": -77.01852516666666, "fusion_lat": 0.0}, {"is_reserved": 0, "bike_id": "2b44893540c46f42d0fd3ee78d112392", "type": "electric_scooter", "name": "2b44893540c46f42d0fd3ee78d112392", "is_disabled": 0, "fusion_lon": 0.0, "rental_uris": {"android": "https://dc.lft.to/lastmile_qr_scan", "ios": "https://dc.lft.to/lastmile_qr_scan"}, "lat": 38.93138583333333, "lon": -77.0572865, "fusion_lat": 0.0}, {"is_reserved": 0, "bike_id": "d5cb10614baeeda6ac08b5272e37dfa4", "type": "electric_scooter", "name": "d5cb10614baeeda6ac08b5272e37dfa4", "is_disabled": 0, "fusion_lon": 0.0, "rental_uris": {"android": "https://dc.lft.to/lastmile_qr_scan", "ios": "https://dc.lft.to/lastmile_qr_scan"}, "lat": 38.914161, "lon": -77.02177533333334, "fusion_lat": 0.0}, {"is_reserved": 0, "bike_id": "90cc0b59eb739219535d5be530a4ed7e", "type": "electric_scooter", "name": "90cc0b59eb739219535d5be530a4ed7e", "is_disabled": 0, "fusion_lon": 0.0, "rental_uris": {"android": "https://dc.lft.to/lastmile_qr_scan", "ios": "https://dc.lft.to/lastmile_qr_scan"}, "lat": 38.905792166666664, "lon": -77.00595516666667, "fusion_lat": 0.0}, {"is_reserved": 0, "bike_id": "89673d0ab903f4cc68dcfe2c51a14f59", "type": "electric_scooter", "name": "89673d0ab903f4cc68dcfe2c51a14f59", "is_disabled": 0, "fusion_lon": 0.0, "rental_uris": {"android": "https://dc.lft.to/lastmile_qr_scan", "ios": "https://dc.lft.to/lastmile_qr_scan"}, "lat": 38.8919195, "lon": -77.01537566666667, "fusion_lat": 0.0}, {"is_reserved": 0, "bike_id": "8bc83d15ce2134ad2a712faf49f6cc4c", "type": "electric_scooter", "name": "8bc83d15ce2134ad2a712faf49f6cc4c", "is_disabled": 0, "fusion_lon": 0.0, "rental_uris": {"android": "https://dc.lft.to/lastmile_qr_scan", "ios": "https://dc.lft.to/lastmile_qr_scan"}, "lat": 38.8949725, "lon": -77.02021716666667, "fusion_lat": 0.0}, {"is_reserved": 0, "bike_id": "cd61ff208ab5b1dbd8d07d69859ab56a", "type": "electric_scooter", "name": "cd61ff208ab5b1dbd8d07d69859ab56a", "is_disabled": 0, "fusion_lon": 0.0, "rental_uris": {"android": "https://dc.lft.to/lastmile_qr_scan", "ios": "https://dc.lft.to/lastmile_qr_scan"}, "lat": 38.901422, "lon": -77.044718, "fusion_lat": 0.0}, {"is_reserved": 0, "bike_id": "61a382c2043870b12f3ab4a0e5f5d6b8", "type": "electric_scooter", "name": "61a382c2043870b12f3ab4a0e5f5d6b8", "is_disabled": 0, "fusion_lon": 0.0, "rental_uris": {"android": "https://dc.lft.to/lastmile_qr_scan", "ios": "https://dc.lft.to/lastmile_qr_scan"}, "lat": 38.921446833333334, "lon": -77.01805383333334, "fusion_lat": 0.0}, {"is_reserved": 0, "bike_id": "266d8ae986d3efd3646548eb98bc82ff", "type": "electric_scooter", "name": "266d8ae986d3efd3646548eb98bc82ff", "is_disabled": 0, "fusion_lon": 0.0, "rental_uris": {"android": "https://dc.lft.to/lastmile_qr_scan", "ios": "https://dc.lft.to/lastmile_qr_scan"}, "lat": 38.89891133333333, "lon": -77.03962533333333, "fusion_lat": 0.0}, {"is_reserved": 0, "bike_id": "9bf539907d622a2eb91dc366bf43f4cc", "type": "electric_scooter", "name": "9bf539907d622a2eb91dc366bf43f4cc", "is_disabled": 0, "fusion_lon": 0.0, "rental_uris": {"android": "https://dc.lft.to/lastmile_qr_scan", "ios": "https://dc.lft.to/lastmile_qr_scan"}, "lat": 38.867509166666665, "lon": -77.00148916666667, "fusion_lat": 0.0}, {"is_reserved": 0, "bike_id": "fff46d2b6adabecfc1b43f70a6d67df2", "type": "electric_scooter", "name": "fff46d2b6adabecfc1b43f70a6d67df2", "is_disabled": 0, "fusion_lon": 0.0, "rental_uris": {"android": "https://dc.lft.to/lastmile_qr_scan", "ios": "https://dc.lft.to/lastmile_qr_scan"}, "lat": 38.96818866666667, "lon": -77.0328855, "fusion_lat": 0.0}, {"is_reserved": 0, "bike_id": "ccb23428bc9955a5c0b492af5ec2aea1", "type": "electric_scooter", "name": "ccb23428bc9955a5c0b492af5ec2aea1", "is_disabled": 0, "fusion_lon": 0.0, "rental_uris": {"android": "https://dc.lft.to/lastmile_qr_scan", "ios": "https://dc.lft.to/lastmile_qr_scan"}, "lat": 38.942806166666664, "lon": -77.02934333333333, "fusion_lat": 0.0}, {"is_reserved": 0, "bike_id": "f66d031d789f123c2675617975814138", "type": "electric_bike", "name": "f66d031d789f123c2675617975814138", "is_disabled": 0, "fusion_lon": 0.0, "rental_uris": {"android": "https://dc.lft.to/lastmile_qr_scan", "ios": "https://dc.lft.to/lastmile_qr_scan"}, "lat": 38.88774466666667, "lon": -77.0760035, "fusion_lat": 0.0}, {"is_reserved": 0, "bike_id": "7a6b79de8167c1cae4ba5b38b5b0d1ee", "type": "electric_scooter", "name": "7a6b79de8167c1cae4ba5b38b5b0d1ee", "is_disabled": 0, "fusion_lon": 0.0, "rental_uris": {"android": "https://dc.lft.to/lastmile_qr_scan", "ios": "https://dc.lft.to/lastmile_qr_scan"}, "lat": 38.884931333333334, "lon": -77.007312, "fusion_lat": 0.0}, {"is_reserved": 0, "bike_id": "eb789dfe472854c06cd86ca55bc9c323", "type": "electric_scooter", "name": "eb789dfe472854c06cd86ca55bc9c323", "is_disabled": 0, "fusion_lon": 0.0, "rental_uris": {"android": "https://dc.lft.to/lastmile_qr_scan", "ios": "https://dc.lft.to/lastmile_qr_scan"}, "lat": 38.901322, "lon": -77.04476433333333, "fusion_lat": 0.0}, {"is_reserved": 0, "bike_id": "623e10712287fbfa574a290b1a53c798", "type": "electric_scooter", "name": "623e10712287fbfa574a290b1a53c798", "is_disabled": 0, "fusion_lon": 0.0, "rental_uris": {"android": "https://dc.lft.to/lastmile_qr_scan", "ios": "https://dc.lft.to/lastmile_qr_scan"}, "lat": 38.930869333333334, "lon": -77.02477316666666, "fusion_lat": 0.0}, {"is_reserved": 0, "bike_id": "0cb14fabd28d247aa36f3159e950c2c5", "type": "electric_scooter", "name": "0cb14fabd28d247aa36f3159e950c2c5", "is_disabled": 0, "fusion_lon": 0.0, "rental_uris": {"android": "https://dc.lft.to/lastmile_qr_scan", "ios": "https://dc.lft.to/lastmile_qr_scan"}, "lat": 38.9284865, "lon": -77.033228, "fusion_lat": 0.0}, {"is_reserved": 0, "bike_id": "67b4be03e0dd39fea02bea08cea6065e", "type": "electric_scooter", "name": "67b4be03e0dd39fea02bea08cea6065e", "is_disabled": 0, "fusion_lon": 0.0, "rental_uris": {"android": "https://dc.lft.to/lastmile_qr_scan", "ios": "https://dc.lft.to/lastmile_qr_scan"}, "lat": 38.917397666666666, "lon": -77.06844066666666, "fusion_lat": 0.0}, {"is_reserved": 0, "bike_id": "d7bd6d484c59eb33734bef6dddba822a", "type": "electric_scooter", "name": "d7bd6d484c59eb33734bef6dddba822a", "is_disabled": 0, "fusion_lon": 0.0, "rental_uris": {"android": "https://dc.lft.to/lastmile_qr_scan", "ios": "https://dc.lft.to/lastmile_qr_scan"}, "lat": 38.91321516666667, "lon": -77.01444766666667, "fusion_lat": 0.0}, {"is_reserved": 0, "bike_id": "a1d4e41790c2648bd4773b07e000fd9c", "type": "electric_bike", "name": "a1d4e41790c2648bd4773b07e000fd9c", "is_disabled": 0, "fusion_lon": 0.0, "rental_uris": {"android": "https://dc.lft.to/lastmile_qr_scan", "ios": "https://dc.lft.to/lastmile_qr_scan"}, "lat": 39.085081833333334, "lon": -76.950605, "fusion_lat": 0.0}, {"is_reserved": 0, "bike_id": "d035b33e6bfe71c44c4164175d8d09c0", "type": "electric_scooter", "name": "d035b33e6bfe71c44c4164175d8d09c0", "is_disabled": 0, "fusion_lon": 0.0, "rental_uris": {"android": "https://dc.lft.to/lastmile_qr_scan", "ios": "https://dc.lft.to/lastmile_qr_scan"}, "lat": 38.935816, "lon": -77.024441, "fusion_lat": 0.0}, {"is_reserved": 0, "bike_id": "b3aa2a767ce5fbac6c36cc026f14995e", "type": "electric_bike", "name": "b3aa2a767ce5fbac6c36cc026f14995e", "is_disabled": 0, "fusion_lon": 0.0, "rental_uris": {"android": "https://dc.lft.to/lastmile_qr_scan", "ios": "https://dc.lft.to/lastmile_qr_scan"}, "lat": 38.83786166666667, "lon": -77.09347933333333, "fusion_lat": 0.0}, {"is_reserved": 0, "bike_id": "ccb0bd4d2f2b9738b7ade5d0a2d637bd", "type": "electric_scooter", "name": "ccb0bd4d2f2b9738b7ade5d0a2d637bd", "is_disabled": 0, "fusion_lon": 0.0, "rental_uris": {"android": "https://dc.lft.to/lastmile_qr_scan", "ios": "https://dc.lft.to/lastmile_qr_scan"}, "lat": 38.9166625, "lon": -77.03851483333334, "fusion_lat": 0.0}, {"is_reserved": 0, "bike_id": "c9e1a2534072fbb2c08409a403ebe778", "type": "electric_bike", "name": "c9e1a2534072fbb2c08409a403ebe778", "is_disabled": 0, "fusion_lon": 0.0, "rental_uris": {"android": "https://dc.lft.to/lastmile_qr_scan", "ios": "https://dc.lft.to/lastmile_qr_scan"}, "lat": 38.890949, "lon": -77.18298766666666, "fusion_lat": 0.0}, {"is_reserved": 0, "bike_id": "e00ec974ebec7f048f56bde50c505ddc", "type": "electric_scooter", "name": "e00ec974ebec7f048f56bde50c505ddc", "is_disabled": 0, "fusion_lon": 0.0, "rental_uris": {"android": "https://dc.lft.to/lastmile_qr_scan", "ios": "https://dc.lft.to/lastmile_qr_scan"}, "lat": 38.91463733333333, "lon": -77.0021035, "fusion_lat": 0.0}, {"is_reserved": 0, "bike_id": "48afb905c2e0aa0f3129e2bfd138f908", "type": "electric_scooter", "name": "48afb905c2e0aa0f3129e2bfd138f908", "is_disabled": 0, "fusion_lon": 0.0, "rental_uris": {"android": "https://dc.lft.to/lastmile_qr_scan", "ios": "https://dc.lft.to/lastmile_qr_scan"}, "lat": 38.915633666666665, "lon": -77.038742, "fusion_lat": 0.0}, {"is_reserved": 0, "bike_id": "97f59ef8858fcdabad2a257218d724b5", "type": "electric_scooter", "name": "97f59ef8858fcdabad2a257218d724b5", "is_disabled": 0, "fusion_lon": 0.0, "rental_uris": {"android": "https://dc.lft.to/lastmile_qr_scan", "ios": "https://dc.lft.to/lastmile_qr_scan"}, "lat": 38.923251, "lon": -77.0289275, "fusion_lat": 0.0}, {"is_reserved": 0, "bike_id": "2a4c862ce9d75d34b02e56bdbc989f2c", "type": "electric_scooter", "name": "2a4c862ce9d75d34b02e56bdbc989f2c", "is_disabled": 0, "fusion_lon": 0.0, "rental_uris": {"android": "https://dc.lft.to/lastmile_qr_scan", "ios": "https://dc.lft.to/lastmile_qr_scan"}, "lat": 38.88734933333333, "lon": -77.01528933333333, "fusion_lat": 0.0}, {"is_reserved": 0, "bike_id": "7164a4b0118f37c545960355dd8c3381", "type": "electric_scooter", "name": "7164a4b0118f37c545960355dd8c3381", "is_disabled": 0, "fusion_lon": 0.0, "rental_uris": {"android": "https://dc.lft.to/lastmile_qr_scan", "ios": "https://dc.lft.to/lastmile_qr_scan"}, "lat": 38.89231016666667, "lon": -77.02797416666667, "fusion_lat": 0.0}, {"is_reserved": 0, "bike_id": "98313e67251b6d944a5acc5022024b4d", "type": "electric_scooter", "name": "98313e67251b6d944a5acc5022024b4d", "is_disabled": 0, "fusion_lon": 0.0, "rental_uris": {"android": "https://dc.lft.to/lastmile_qr_scan", "ios": "https://dc.lft.to/lastmile_qr_scan"}, "lat": 38.920597, "lon": -77.02446416666666, "fusion_lat": 0.0}, {"is_reserved": 0, "bike_id": "862711e8a3efddb0f7a2af9212f971d2", "type": "electric_bike", "name": "862711e8a3efddb0f7a2af9212f971d2", "is_disabled": 0, "fusion_lon": 0.0, "rental_uris": {"android": "https://dc.lft.to/lastmile_qr_scan", "ios": "https://dc.lft.to/lastmile_qr_scan"}, "lat": 38.872864166666666, "lon": -77.23320983333333, "fusion_lat": 0.0}, {"is_reserved": 0, "bike_id": "909d7731f3570a29c0e7fee456234b35", "type": "electric_bike", "name": "909d7731f3570a29c0e7fee456234b35", "is_disabled": 0, "fusion_lon": 0.0, "rental_uris": {"android": "https://dc.lft.to/lastmile_qr_scan", "ios": "https://dc.lft.to/lastmile_qr_scan"}, "lat": 38.86568166666667, "lon": -76.97354483333334, "fusion_lat": 0.0}, {"is_reserved": 0, "bike_id": "ea4c8a4122341a2a1fcf9396895a0a35", "type": "electric_scooter", "name": "ea4c8a4122341a2a1fcf9396895a0a35", "is_disabled": 0, "fusion_lon": 0.0, "rental_uris": {"android": "https://dc.lft.to/lastmile_qr_scan", "ios": "https://dc.lft.to/lastmile_qr_scan"}, "lat": 38.899483833333335, "lon": -77.0161835, "fusion_lat": 0.0}, {"is_reserved": 0, "bike_id": "7ea7d189ff4136269cd0337d24d94ad1", "type": "electric_scooter", "name": "7ea7d189ff4136269cd0337d24d94ad1", "is_disabled": 0, "fusion_lon": 0.0, "rental_uris": {"android": "https://dc.lft.to/lastmile_qr_scan", "ios": "https://dc.lft.to/lastmile_qr_scan"}, "lat": 38.91634233333333, "lon": -77.0319995, "fusion_lat": 0.0}, {"is_reserved": 0, "bike_id": "e42612c4b0b047a0b8938726663d5f52", "type": "electric_scooter", "name": "e42612c4b0b047a0b8938726663d5f52", "is_disabled": 0, "fusion_lon": 0.0, "rental_uris": {"android": "https://dc.lft.to/lastmile_qr_scan", "ios": "https://dc.lft.to/lastmile_qr_scan"}, "lat": 38.89951083333333, "lon": -77.01202116666667, "fusion_lat": 0.0}, {"is_reserved": 0, "bike_id": "276b4a518399649c1727351b1179024d", "type": "electric_scooter", "name": "276b4a518399649c1727351b1179024d", "is_disabled": 0, "fusion_lon": 0.0, "rental_uris": {"android": "https://dc.lft.to/lastmile_qr_scan", "ios": "https://dc.lft.to/lastmile_qr_scan"}, "lat": 38.9241795, "lon": -77.019448, "fusion_lat": 0.0}, {"is_reserved": 0, "bike_id": "716450556a5d61fb1a71840ceebe796e", "type": "electric_bike", "name": "716450556a5d61fb1a71840ceebe796e", "is_disabled": 0, "fusion_lon": 0.0, "rental_uris": {"android": "https://dc.lft.to/lastmile_qr_scan", "ios": "https://dc.lft.to/lastmile_qr_scan"}, "lat": 38.98524833333333, "lon": -77.00409966666666, "fusion_lat": 0.0}, {"is_reserved": 0, "bike_id": "4d07567b8499b0cb6496b61716c7e39b", "type": "electric_scooter", "name": "4d07567b8499b0cb6496b61716c7e39b", "is_disabled": 0, "fusion_lon": 0.0, "rental_uris": {"android": "https://dc.lft.to/lastmile_qr_scan", "ios": "https://dc.lft.to/lastmile_qr_scan"}, "lat": 38.92053283333333, "lon": -77.0158675, "fusion_lat": 0.0}, {"is_reserved": 0, "bike_id": "4c9fc62bc79991d94bae88d06626899c", "type": "electric_scooter", "name": "4c9fc62bc79991d94bae88d06626899c", "is_disabled": 0, "fusion_lon": 0.0, "rental_uris": {"android": "https://dc.lft.to/lastmile_qr_scan", "ios": "https://dc.lft.to/lastmile_qr_scan"}, "lat": 38.93939483333333, "lon": -77.03269, "fusion_lat": 0.0}, {"is_reserved": 0, "bike_id": "c62d14c3088b137888b47201900ef9fb", "type": "electric_scooter", "name": "c62d14c3088b137888b47201900ef9fb", "is_disabled": 0, "fusion_lon": 0.0, "rental_uris": {"android": "https://dc.lft.to/lastmile_qr_scan", "ios": "https://dc.lft.to/lastmile_qr_scan"}, "lat": 38.90185016666667, "lon": -76.93466683333334, "fusion_lat": 0.0}, {"is_reserved": 0, "bike_id": "17c6f9e440990c5925c831d4d0a5b2f3", "type": "electric_scooter", "name": "17c6f9e440990c5925c831d4d0a5b2f3", "is_disabled": 0, "fusion_lon": 0.0, "rental_uris": {"android": "https://dc.lft.to/lastmile_qr_scan", "ios": "https://dc.lft.to/lastmile_qr_scan"}, "lat": 38.918147, "lon": -77.03882083333333, "fusion_lat": 0.0}, {"is_reserved": 0, "bike_id": "30cf265491b0d1c46005b87554b88f75", "type": "electric_scooter", "name": "30cf265491b0d1c46005b87554b88f75", "is_disabled": 0, "fusion_lon": 0.0, "rental_uris": {"android": "https://dc.lft.to/lastmile_qr_scan", "ios": "https://dc.lft.to/lastmile_qr_scan"}, "lat": 38.899619333333334, "lon": -77.04690466666666, "fusion_lat": 0.0}, {"is_reserved": 0, "bike_id": "fd28a190cdec29d2adce31b77fde7849", "type": "electric_scooter", "name": "fd28a190cdec29d2adce31b77fde7849", "is_disabled": 0, "fusion_lon": 0.0, "rental_uris": {"android": "https://dc.lft.to/lastmile_qr_scan", "ios": "https://dc.lft.to/lastmile_qr_scan"}, "lat": 38.90874433333333, "lon": -77.00920483333333, "fusion_lat": 0.0}, {"is_reserved": 0, "bike_id": "5dcd7acf5972dfac796901cbde1d1c37", "type": "electric_scooter", "name": "5dcd7acf5972dfac796901cbde1d1c37", "is_disabled": 0, "fusion_lon": 0.0, "rental_uris": {"android": "https://dc.lft.to/lastmile_qr_scan", "ios": "https://dc.lft.to/lastmile_qr_scan"}, "lat": 38.926547666666664, "lon": -77.03710666666667, "fusion_lat": 0.0}, {"is_reserved": 0, "bike_id": "79c1db5749efba953dbb7a0abd5c89f5", "type": "electric_scooter", "name": "79c1db5749efba953dbb7a0abd5c89f5", "is_disabled": 0, "fusion_lon": 0.0, "rental_uris": {"android": "https://dc.lft.to/lastmile_qr_scan", "ios": "https://dc.lft.to/lastmile_qr_scan"}, "lat": 38.910531166666665, "lon": -77.05325783333333, "fusion_lat": 0.0}, {"is_reserved": 0, "bike_id": "c8fce4b49cb140cf4c57574eeaba7e82", "type": "electric_scooter", "name": "c8fce4b49cb140cf4c57574eeaba7e82", "is_disabled": 0, "fusion_lon": 0.0, "rental_uris": {"android": "https://dc.lft.to/lastmile_qr_scan", "ios": "https://dc.lft.to/lastmile_qr_scan"}, "lat": 38.87657183333334, "lon": -77.00319133333333, "fusion_lat": 0.0}, {"is_reserved": 0, "bike_id": "c12e890ff53154dbcaf89466ea37e842", "type": "electric_scooter", "name": "c12e890ff53154dbcaf89466ea37e842", "is_disabled": 0, "fusion_lon": 0.0, "rental_uris": {"android": "https://dc.lft.to/lastmile_qr_scan", "ios": "https://dc.lft.to/lastmile_qr_scan"}, "lat": 38.93264833333333, "lon": -77.01924333333334, "fusion_lat": 0.0}, {"is_reserved": 0, "bike_id": "3d1a9fcfaa9595c8a58ea66dd547f750", "type": "electric_scooter", "name": "3d1a9fcfaa9595c8a58ea66dd547f750", "is_disabled": 0, "fusion_lon": 0.0, "rental_uris": {"android": "https://dc.lft.to/lastmile_qr_scan", "ios": "https://dc.lft.to/lastmile_qr_scan"}, "lat": 38.954218166666664, "lon": -77.02764866666666, "fusion_lat": 0.0}, {"is_reserved": 0, "bike_id": "671835e5d4bcdec899be9722f0f3066c", "type": "electric_scooter", "name": "671835e5d4bcdec899be9722f0f3066c", "is_disabled": 0, "fusion_lon": 0.0, "rental_uris": {"android": "https://dc.lft.to/lastmile_qr_scan", "ios": "https://dc.lft.to/lastmile_qr_scan"}, "lat": 38.89775316666667, "lon": -77.0267945, "fusion_lat": 0.0}, {"is_reserved": 0, "bike_id": "3d0d267daf582843e60a926b9452f243", "type": "electric_scooter", "name": "3d0d267daf582843e60a926b9452f243", "is_disabled": 0, "fusion_lon": 0.0, "rental_uris": {"android": "https://dc.lft.to/lastmile_qr_scan", "ios": "https://dc.lft.to/lastmile_qr_scan"}, "lat": 38.9180635, "lon": -77.027226, "fusion_lat": 0.0}, {"is_reserved": 0, "bike_id": "a9304b9dc0e8fd9ea2b14d8b8eec7938", "type": "electric_scooter", "name": "a9304b9dc0e8fd9ea2b14d8b8eec7938", "is_disabled": 0, "fusion_lon": 0.0, "rental_uris": {"android": "https://dc.lft.to/lastmile_qr_scan", "ios": "https://dc.lft.to/lastmile_qr_scan"}, "lat": 38.905649833333335, "lon": -77.057081, "fusion_lat": 0.0}, {"is_reserved": 0, "bike_id": "a560f58afc5f1e4b7e06144801260187", "type": "electric_scooter", "name": "a560f58afc5f1e4b7e06144801260187", "is_disabled": 0, "fusion_lon": 0.0, "rental_uris": {"android": "https://dc.lft.to/lastmile_qr_scan", "ios": "https://dc.lft.to/lastmile_qr_scan"}, "lat": 38.9241855, "lon": -77.0201265, "fusion_lat": 0.0}, {"is_reserved": 0, "bike_id": "61a96efd68487fb3d495435b87464052", "type": "electric_bike", "name": "61a96efd68487fb3d495435b87464052", "is_disabled": 0, "fusion_lon": 0.0, "rental_uris": {"android": "https://dc.lft.to/lastmile_qr_scan", "ios": "https://dc.lft.to/lastmile_qr_scan"}, "lat": 38.89623566666667, "lon": -76.907531, "fusion_lat": 0.0}, {"is_reserved": 0, "bike_id": "7e1171908593bb16cf0c24bf91a5f0b7", "type": "electric_scooter", "name": "7e1171908593bb16cf0c24bf91a5f0b7", "is_disabled": 0, "fusion_lon": 0.0, "rental_uris": {"android": "https://dc.lft.to/lastmile_qr_scan", "ios": "https://dc.lft.to/lastmile_qr_scan"}, "lat": 38.912215833333335, "lon": -77.04396183333333, "fusion_lat": 0.0}, {"is_reserved": 0, "bike_id": "5f2df684a232acc00dd25be6c7002e8b", "type": "electric_scooter", "name": "5f2df684a232acc00dd25be6c7002e8b", "is_disabled": 0, "fusion_lon": 0.0, "rental_uris": {"android": "https://dc.lft.to/lastmile_qr_scan", "ios": "https://dc.lft.to/lastmile_qr_scan"}, "lat": 38.924199333333334, "lon": -77.02139333333334, "fusion_lat": 0.0}, {"is_reserved": 0, "bike_id": "d869e54578576ab22e2d07165f38cca7", "type": "electric_scooter", "name": "d869e54578576ab22e2d07165f38cca7", "is_disabled": 0, "fusion_lon": 0.0, "rental_uris": {"android": "https://dc.lft.to/lastmile_qr_scan", "ios": "https://dc.lft.to/lastmile_qr_scan"}, "lat": 38.918276, "lon": -77.03205866666667, "fusion_lat": 0.0}, {"is_reserved": 0, "bike_id": "8a5a9277931d16acfb679ae38075fe42", "type": "electric_scooter", "name": "8a5a9277931d16acfb679ae38075fe42", "is_disabled": 0, "fusion_lon": 0.0, "rental_uris": {"android": "https://dc.lft.to/lastmile_qr_scan", "ios": "https://dc.lft.to/lastmile_qr_scan"}, "lat": 38.897343166666666, "lon": -77.02444766666666, "fusion_lat": 0.0}, {"is_reserved": 0, "bike_id": "eba8288d4872ed1104f35b78d8ea53af", "type": "electric_scooter", "name": "eba8288d4872ed1104f35b78d8ea53af", "is_disabled": 0, "fusion_lon": 0.0, "rental_uris": {"android": "https://dc.lft.to/lastmile_qr_scan", "ios": "https://dc.lft.to/lastmile_qr_scan"}, "lat": 38.924699333333336, "lon": -77.03056366666667, "fusion_lat": 0.0}, {"is_reserved": 0, "bike_id": "ef913daea2969162cde1c37c876c5b7e", "type": "electric_scooter", "name": "ef913daea2969162cde1c37c876c5b7e", "is_disabled": 0, "fusion_lon": 0.0, "rental_uris": {"android": "https://dc.lft.to/lastmile_qr_scan", "ios": "https://dc.lft.to/lastmile_qr_scan"}, "lat": 38.90970683333333, "lon": -77.04625583333333, "fusion_lat": 0.0}, {"is_reserved": 0, "bike_id": "b29a3c7d8a7f287584c9071fac076bc5", "type": "electric_scooter", "name": "b29a3c7d8a7f287584c9071fac076bc5", "is_disabled": 0, "fusion_lon": 0.0, "rental_uris": {"android": "https://dc.lft.to/lastmile_qr_scan", "ios": "https://dc.lft.to/lastmile_qr_scan"}, "lat": 38.92212716666667, "lon": -77.02032433333333, "fusion_lat": 0.0}, {"is_reserved": 0, "bike_id": "ff18adbc6e05118cf6249e139fcfd2db", "type": "electric_scooter", "name": "ff18adbc6e05118cf6249e139fcfd2db", "is_disabled": 0, "fusion_lon": 0.0, "rental_uris": {"android": "https://dc.lft.to/lastmile_qr_scan", "ios": "https://dc.lft.to/lastmile_qr_scan"}, "lat": 38.953026333333334, "lon": -77.02767466666667, "fusion_lat": 0.0}, {"is_reserved": 0, "bike_id": "aa247837dc75dde3fb7e93af5d400c38", "type": "electric_scooter", "name": "aa247837dc75dde3fb7e93af5d400c38", "is_disabled": 0, "fusion_lon": 0.0, "rental_uris": {"android": "https://dc.lft.to/lastmile_qr_scan", "ios": "https://dc.lft.to/lastmile_qr_scan"}, "lat": 38.91210266666667, "lon": -77.03844566666666, "fusion_lat": 0.0}, {"is_reserved": 0, "bike_id": "c3a80fa20b61dd18e42a7efcd56c68f2", "type": "electric_scooter", "name": "c3a80fa20b61dd18e42a7efcd56c68f2", "is_disabled": 0, "fusion_lon": 0.0, "rental_uris": {"android": "https://dc.lft.to/lastmile_qr_scan", "ios": "https://dc.lft.to/lastmile_qr_scan"}, "lat": 38.9029185, "lon": -77.0365915, "fusion_lat": 0.0}, {"is_reserved": 0, "bike_id": "b16bd81bf4850307338c4033a016053e", "type": "electric_scooter", "name": "b16bd81bf4850307338c4033a016053e", "is_disabled": 0, "fusion_lon": 0.0, "rental_uris": {"android": "https://dc.lft.to/lastmile_qr_scan", "ios": "https://dc.lft.to/lastmile_qr_scan"}, "lat": 38.9400775, "lon": -77.02738333333333, "fusion_lat": 0.0}, {"is_reserved": 0, "bike_id": "c6b108b12bf4e0868f902ee85ee13652", "type": "electric_bike", "name": "c6b108b12bf4e0868f902ee85ee13652", "is_disabled": 0, "fusion_lon": 0.0, "rental_uris": {"android": "https://dc.lft.to/lastmile_qr_scan", "ios": "https://dc.lft.to/lastmile_qr_scan"}, "lat": 38.830687833333336, "lon": -77.04083166666666, "fusion_lat": 0.0}, {"is_reserved": 0, "bike_id": "dd00b096dea44b14312c53cfbb780c25", "type": "electric_scooter", "name": "dd00b096dea44b14312c53cfbb780c25", "is_disabled": 0, "fusion_lon": 0.0, "rental_uris": {"android": "https://dc.lft.to/lastmile_qr_scan", "ios": "https://dc.lft.to/lastmile_qr_scan"}, "lat": 38.90126733333334, "lon": -77.03850866666667, "fusion_lat": 0.0}, {"is_reserved": 0, "bike_id": "0e7f1941e13c059181a7ee4c6fda6aeb", "type": "electric_scooter", "name": "0e7f1941e13c059181a7ee4c6fda6aeb", "is_disabled": 0, "fusion_lon": 0.0, "rental_uris": {"android": "https://dc.lft.to/lastmile_qr_scan", "ios": "https://dc.lft.to/lastmile_qr_scan"}, "lat": 38.9035565, "lon": -77.00735433333334, "fusion_lat": 0.0}, {"is_reserved": 0, "bike_id": "8b4bd19b5d01a2ac657779ef1667dc07", "type": "electric_scooter", "name": "8b4bd19b5d01a2ac657779ef1667dc07", "is_disabled": 0, "fusion_lon": 0.0, "rental_uris": {"android": "https://dc.lft.to/lastmile_qr_scan", "ios": "https://dc.lft.to/lastmile_qr_scan"}, "lat": 38.908335, "lon": -77.04333383333334, "fusion_lat": 0.0}, {"is_reserved": 0, "bike_id": "d0769a110ec64327e47736391e484df8", "type": "electric_bike", "name": "d0769a110ec64327e47736391e484df8", "is_disabled": 0, "fusion_lon": 0.0, "rental_uris": {"android": "https://dc.lft.to/lastmile_qr_scan", "ios": "https://dc.lft.to/lastmile_qr_scan"}, "lat": 38.92116683333333, "lon": -76.98882833333333, "fusion_lat": 0.0}, {"is_reserved": 0, "bike_id": "f9fd6f2d4316431b11ee746467a05f60", "type": "electric_scooter", "name": "f9fd6f2d4316431b11ee746467a05f60", "is_disabled": 0, "fusion_lon": 0.0, "rental_uris": {"android": "https://dc.lft.to/lastmile_qr_scan", "ios": "https://dc.lft.to/lastmile_qr_scan"}, "lat": 38.919343, "lon": -77.0449465, "fusion_lat": 0.0}, {"is_reserved": 0, "bike_id": "0c7254cb2f65a465e1fd4159ce3dcbb7", "type": "electric_scooter", "name": "0c7254cb2f65a465e1fd4159ce3dcbb7", "is_disabled": 0, "fusion_lon": 0.0, "rental_uris": {"android": "https://dc.lft.to/lastmile_qr_scan", "ios": "https://dc.lft.to/lastmile_qr_scan"}, "lat": 38.96764483333333, "lon": -77.030371, "fusion_lat": 0.0}, {"is_reserved": 0, "bike_id": "06548a13e688ca5dd41646e084c2b1bb", "type": "electric_scooter", "name": "06548a13e688ca5dd41646e084c2b1bb", "is_disabled": 0, "fusion_lon": 0.0, "rental_uris": {"android": "https://dc.lft.to/lastmile_qr_scan", "ios": "https://dc.lft.to/lastmile_qr_scan"}, "lat": 38.90094466666667, "lon": -77.0317655, "fusion_lat": 0.0}, {"is_reserved": 0, "bike_id": "8249b8f52df4d9c284ac137192b22750", "type": "electric_scooter", "name": "8249b8f52df4d9c284ac137192b22750", "is_disabled": 0, "fusion_lon": 0.0, "rental_uris": {"android": "https://dc.lft.to/lastmile_qr_scan", "ios": "https://dc.lft.to/lastmile_qr_scan"}, "lat": 38.9233475, "lon": -77.0462905, "fusion_lat": 0.0}, {"is_reserved": 0, "bike_id": "70701a35f802e19f1d592831233b197e", "type": "electric_scooter", "name": "70701a35f802e19f1d592831233b197e", "is_disabled": 0, "fusion_lon": 0.0, "rental_uris": {"android": "https://dc.lft.to/lastmile_qr_scan", "ios": "https://dc.lft.to/lastmile_qr_scan"}, "lat": 38.90375733333333, "lon": -76.987179, "fusion_lat": 0.0}, {"is_reserved": 0, "bike_id": "53f3213c9652812cc698c09d24a3e4f3", "type": "electric_scooter", "name": "53f3213c9652812cc698c09d24a3e4f3", "is_disabled": 0, "fusion_lon": 0.0, "rental_uris": {"android": "https://dc.lft.to/lastmile_qr_scan", "ios": "https://dc.lft.to/lastmile_qr_scan"}, "lat": 38.8873565, "lon": -77.02583283333334, "fusion_lat": 0.0}, {"is_reserved": 0, "bike_id": "ce39d2b5e68610025f9bed63a3cb5689", "type": "electric_scooter", "name": "ce39d2b5e68610025f9bed63a3cb5689", "is_disabled": 0, "fusion_lon": 0.0, "rental_uris": {"android": "https://dc.lft.to/lastmile_qr_scan", "ios": "https://dc.lft.to/lastmile_qr_scan"}, "lat": 38.919162, "lon": -77.0314125, "fusion_lat": 0.0}, {"is_reserved": 0, "bike_id": "1883a470b378d9dc95ce18bfafb1e5e7", "type": "electric_scooter", "name": "1883a470b378d9dc95ce18bfafb1e5e7", "is_disabled": 0, "fusion_lon": 0.0, "rental_uris": {"android": "https://dc.lft.to/lastmile_qr_scan", "ios": "https://dc.lft.to/lastmile_qr_scan"}, "lat": 38.93100183333333, "lon": -77.02667066666666, "fusion_lat": 0.0}, {"is_reserved": 0, "bike_id": "ce873118dc7f1e14b88d048fb181b309", "type": "electric_scooter", "name": "ce873118dc7f1e14b88d048fb181b309", "is_disabled": 0, "fusion_lon": 0.0, "rental_uris": {"android": "https://dc.lft.to/lastmile_qr_scan", "ios": "https://dc.lft.to/lastmile_qr_scan"}, "lat": 38.940932833333335, "lon": -77.023188, "fusion_lat": 0.0}, {"is_reserved": 0, "bike_id": "bb8f626951942f462b6dcd2d90c68f17", "type": "electric_scooter", "name": "bb8f626951942f462b6dcd2d90c68f17", "is_disabled": 0, "fusion_lon": 0.0, "rental_uris": {"android": "https://dc.lft.to/lastmile_qr_scan", "ios": "https://dc.lft.to/lastmile_qr_scan"}, "lat": 38.918407333333334, "lon": -77.03209683333333, "fusion_lat": 0.0}, {"is_reserved": 0, "bike_id": "8e51a740a25633e3f3dc8000ceeec16f", "type": "electric_bike", "name": "8e51a740a25633e3f3dc8000ceeec16f", "is_disabled": 0, "fusion_lon": 0.0, "rental_uris": {"android": "https://dc.lft.to/lastmile_qr_scan", "ios": "https://dc.lft.to/lastmile_qr_scan"}, "lat": 38.88246266666667, "lon": -76.96257083333333, "fusion_lat": 0.0}, {"is_reserved": 0, "bike_id": "b854cb8ddfb899bb91890ab032d7cd0a", "type": "electric_scooter", "name": "b854cb8ddfb899bb91890ab032d7cd0a", "is_disabled": 0, "fusion_lon": 0.0, "rental_uris": {"android": "https://dc.lft.to/lastmile_qr_scan", "ios": "https://dc.lft.to/lastmile_qr_scan"}, "lat": 38.904607, "lon": -77.02955666666666, "fusion_lat": 0.0}, {"is_reserved": 0, "bike_id": "9797fb3b7f4c50605d3a46cbc20888e7", "type": "electric_scooter", "name": "9797fb3b7f4c50605d3a46cbc20888e7", "is_disabled": 0, "fusion_lon": 0.0, "rental_uris": {"android": "https://dc.lft.to/lastmile_qr_scan", "ios": "https://dc.lft.to/lastmile_qr_scan"}, "lat": 38.91422383333333, "lon": -77.01805733333333, "fusion_lat": 0.0}, {"is_reserved": 0, "bike_id": "1e18e2891e9647d3ae30b6fa40abf81a", "type": "electric_scooter", "name": "1e18e2891e9647d3ae30b6fa40abf81a", "is_disabled": 0, "fusion_lon": 0.0, "rental_uris": {"android": "https://dc.lft.to/lastmile_qr_scan", "ios": "https://dc.lft.to/lastmile_qr_scan"}, "lat": 38.87574333333333, "lon": -77.00601233333333, "fusion_lat": 0.0}, {"is_reserved": 0, "bike_id": "7619bac331b7a3c300f76cc3f76f69e1", "type": "electric_scooter", "name": "7619bac331b7a3c300f76cc3f76f69e1", "is_disabled": 0, "fusion_lon": 0.0, "rental_uris": {"android": "https://dc.lft.to/lastmile_qr_scan", "ios": "https://dc.lft.to/lastmile_qr_scan"}, "lat": 38.938544666666665, "lon": -77.02457566666666, "fusion_lat": 0.0},