{"data": {"bikes": [{"bike_id": "77b7148cec0d9ae03fea62258809a5cf", "type": "electric_scooter", "is_disabled": 0, "lat": 38.899229, "rental_uris": {"ios": "https://dc.lft.to/lastmile_qr_scan", "android": "https://dc.lft.to/lastmile_qr_scan"}, "is_reserved": 0, "fusion_lon": 0.0, "fusion_lat": 0.0, "lon": -77.05370433333333, "name": "77b7148cec0d9ae03fea62258809a5cf"}, {"bike_id": "f376ab55f7d70150720a53ce553b053b", "type": "electric_scooter", "is_disabled": 0, "lat": 38.90724483333334, "rental_uris": {"ios": "https://dc.lft.to/lastmile_qr_scan", "android": "https://dc.lft.to/lastmile_qr_scan"}, "is_reserved": 0, "fusion_lon": 0.0, "fusion_lat": 0.0, "lon": -77.00048633333333, "name": "f376ab55f7d70150720a53ce553b053b"}, {"bike_id": "92dad33ca6e94c517c4fa39d40c9069f", "type": "electric_scooter", "is_disabled": 0, "lat": 38.9054055, "rental_uris": {"ios": "https://dc.lft.to/lastmile_qr_scan", "android": "https://dc.lft.to/lastmile_qr_scan"}, "is_reserved": 0, "fusion_lon": 0.0, "fusion_lat": 0.0, "lon": -77.022097, "name": "92dad33ca6e94c517c4fa39d40c9069f"}, {"bike_id": "09a5505a118d728ebeeb8a8102fc83ef", "type": "electric_bike", "is_disabled": 0, "lat": 38.9202055, "rental_uris": {"ios": "https://dc.lft.to/lastmile_qr_scan", "android": "https://dc.lft.to/lastmile_qr_scan"}, "is_reserved": 0, "fusion_lon": 0.0, "fusion_lat": 0.0, "lon": -77.01820083333334, "name": "09a5505a118d728ebeeb8a8102fc83ef"}, {"bike_id": "7178a3fcda0f3d01f96da3d21136c740", "type": "electric_scooter", "is_disabled": 0, "lat": 38.89114516666667, "rental_uris": {"ios": "https://dc.lft.to/lastmile_qr_scan", "android": "https://dc.lft.to/lastmile_qr_scan"}, "is_reserved": 0, "fusion_lon": 0.0, "fusion_lat": 0.0, "lon": -76.99160566666667, "name": "7178a3fcda0f3d01f96da3d21136c740"}, {"bike_id": "59127d1af208d2992c381d6dc9ec6541", "type": "electric_scooter", "is_disabled": 0, "lat": 38.901060333333334, "rental_uris": {"ios": "https://dc.lft.to/lastmile_qr_scan", "android": "https://dc.lft.to/lastmile_qr_scan"}, "is_reserved": 0, "fusion_lon": 0.0, "fusion_lat": 0.0, "lon": -77.03814933333334, "name": "59127d1af208d2992c381d6dc9ec6541"}, {"bike_id": "db4254ea9c0f9d581184387a557859c5", "type": "electric_scooter", "is_disabled": 0, "lat": 38.906834333333336, "rental_uris": {"ios": "https://dc.lft.to/lastmile_qr_scan", "android": "https://dc.lft.to/lastmile_qr_scan"}, "is_reserved": 0, "fusion_lon": 0.0, "fusion_lat": 0.0, "lon": -77.026943, "name": "db4254ea9c0f9d581184387a557859c5"}, {"bike_id": "e3a1e0a712197438d3ff96abb7bc9021", "type": "electric_scooter", "is_disabled": 0, "lat": 38.939483333333335, "rental_uris": {"ios": "https://dc.lft.to/lastmile_qr_scan", "android": "https://dc.lft.to/lastmile_qr_scan"}, "is_reserved": 0, "fusion_lon": 0.0, "fusion_lat": 0.0, "lon": -77.0725785, "name": "e3a1e0a712197438d3ff96abb7bc9021"}, {"bike_id": "9e8cd16b3859a50079b3684ffe94a63b", "type": "electric_scooter", "is_disabled": 0, "lat": 38.91488316666667, "rental_uris": {"ios": "https://dc.lft.to/lastmile_qr_scan", "android": "https://dc.lft.to/lastmile_qr_scan"}, "is_reserved": 0, "fusion_lon": 0.0, "fusion_lat": 0.0, "lon": -77.00286883333334, "name": "9e8cd16b3859a50079b3684ffe94a63b"}, {"bike_id": "98519910f99add4dfb9d389149665d8d", "type": "electric_scooter", "is_disabled": 0, "lat": 38.930211166666666, "rental_uris": {"ios": "https://dc.lft.to/lastmile_qr_scan", "android": "https://dc.lft.to/lastmile_qr_scan"}, "is_reserved": 0, "fusion_lon": 0.0, "fusion_lat": 0.0, "lon": -77.066313, "name": "98519910f99add4dfb9d389149665d8d"}, {"bike_id": "a6fdb521c9b87dde03068f3510013c8a", "type": "electric_scooter", "is_disabled": 0, "lat": 38.918890166666664, "rental_uris": {"ios": "https://dc.lft.to/lastmile_qr_scan", "android": "https://dc.lft.to/lastmile_qr_scan"}, "is_reserved": 0, "fusion_lon": 0.0, "fusion_lat": 0.0, "lon": -77.046152, "name": "a6fdb521c9b87dde03068f3510013c8a"}, {"bike_id": "f0fcd01a9cf003d6982048e67d67886a", "type": "electric_scooter", "is_disabled": 0, "lat": 38.9028645, "rental_uris": {"ios": "https://dc.lft.to/lastmile_qr_scan", "android": "https://dc.lft.to/lastmile_qr_scan"}, "is_reserved": 0, "fusion_lon": 0.0, "fusion_lat": 0.0, "lon": -77.02404033333333, "name": "f0fcd01a9cf003d6982048e67d67886a"}, {"bike_id": "9b98e213cabc1210c23b58d8b6dd78cd", "type": "electric_scooter", "is_disabled": 0, "lat": 38.9082295, "rental_uris": {"ios": "https://dc.lft.to/lastmile_qr_scan", "android": "https://dc.lft.to/lastmile_qr_scan"}, "is_reserved": 0, "fusion_lon": 0.0, "fusion_lat": 0.0, "lon": -77.0386125, "name": "9b98e213cabc1210c23b58d8b6dd78cd"}, {"bike_id": "994b28564c059116301b93418a304f6a", "type": "electric_scooter", "is_disabled": 0, "lat": 38.905742000000004, "rental_uris": {"ios": "https://dc.lft.to/lastmile_qr_scan", "android": "https://dc.lft.to/lastmile_qr_scan"}, "is_reserved": 0, "fusion_lon": 0.0, "fusion_lat": 0.0, "lon": -77.0284445, "name": "994b28564c059116301b93418a304f6a"}, {"bike_id": "8235e55c1e5cdd01ef01e760222c749a", "type": "electric_scooter", "is_disabled": 0, "lat": 38.9207805, "rental_uris": {"ios": "https://dc.lft.to/lastmile_qr_scan", "android": "https://dc.lft.to/lastmile_qr_scan"}, "is_reserved": 0, "fusion_lon": 0.0, "fusion_lat": 0.0, "lon": -77.014548, "name": "8235e55c1e5cdd01ef01e760222c749a"}, {"bike_id": "ffaf0ffaa26db7335b5bc344693f68e5", "type": "electric_scooter", "is_disabled": 0, "lat": 38.932785333333335, "rental_uris": {"ios": "https://dc.lft.to/lastmile_qr_scan", "android": "https://dc.lft.to/lastmile_qr_scan"}, "is_reserved": 0, "fusion_lon": 0.0, "fusion_lat": 0.0, "lon": -77.02865983333334, "name": "ffaf0ffaa26db7335b5bc344693f68e5"}, {"bike_id": "dc78129fd98c01402a22963ac3526b28", "type": "electric_scooter", "is_disabled": 0, "lat": 38.86680916666667, "rental_uris": {"ios": "https://dc.lft.to/lastmile_qr_scan", "android": "https://dc.lft.to/lastmile_qr_scan"}, "is_reserved": 0, "fusion_lon": 0.0, "fusion_lat": 0.0, "lon": -76.98572183333333, "name": "dc78129fd98c01402a22963ac3526b28"}, {"bike_id": "19b18d2f192ea0e44e56332ebe589a71", "type": "electric_scooter", "is_disabled": 0, "lat": 38.90893233333333, "rental_uris": {"ios": "https://dc.lft.to/lastmile_qr_scan", "android": "https://dc.lft.to/lastmile_qr_scan"}, "is_reserved": 0, "fusion_lon": 0.0, "fusion_lat": 0.0, "lon": -76.998567, "name": "19b18d2f192ea0e44e56332ebe589a71"}, {"bike_id": "417b7b74b63d9af8dad64d3821615ecf", "type": "electric_scooter", "is_disabled": 0, "lat": 38.88492083333333, "rental_uris": {"ios": "https://dc.lft.to/lastmile_qr_scan", "android": "https://dc.lft.to/lastmile_qr_scan"}, "is_reserved": 0, "fusion_lon": 0.0, "fusion_lat": 0.0, "lon": -77.0235315, "name": "417b7b74b63d9af8dad64d3821615ecf"}, {"bike_id": "fe559954a8be08606092545c5acd928f", "type": "electric_scooter", "is_disabled": 0, "lat": 38.90268433333333, "rental_uris": {"ios": "https://dc.lft.to/lastmile_qr_scan", "android": "https://dc.lft.to/lastmile_qr_scan"}, "is_reserved": 0, "fusion_lon": 0.0, "fusion_lat": 0.0, "lon": -77.0033315, "name": "fe559954a8be08606092545c5acd928f"}, {"bike_id": "70855ed31f2009ff1ffae14eb87fc7fa", "type": "electric_scooter", "is_disabled": 0, "lat": 38.88103, "rental_uris": {"ios": "https://dc.lft.to/lastmile_qr_scan", "android": "https://dc.lft.to/lastmile_qr_scan"}, "is_reserved": 0, "fusion_lon": 0.0, "fusion_lat": 0.0, "lon": -77.01661416666667, "name": "70855ed31f2009ff1ffae14eb87fc7fa"}, {"bike_id": "06663cd65f8c96f8d8fd99d4b43d94d8", "type": "electric_scooter", "is_disabled": 0, "lat": 38.897376333333334, "rental_uris": {"ios": "https://dc.lft.to/lastmile_qr_scan", "android": "https://dc.lft.to/lastmile_qr_scan"}, "is_reserved": 0, "fusion_lon": 0.0, "fusion_lat": 0.0, "lon": -77.03353516666667, "name": "06663cd65f8c96f8d8fd99d4b43d94d8"}, {"bike_id": "65ff21588474f80994a1d5df1c1eeb87", "type": "electric_scooter", "is_disabled": 0, "lat": 38.870730333333334, "rental_uris": {"ios": "https://dc.lft.to/lastmile_qr_scan", "android": "https://dc.lft.to/lastmile_qr_scan"}, "is_reserved": 0, "fusion_lon": 0.0, "fusion_lat": 0.0, "lon": -76.98917366666667, "name": "65ff21588474f80994a1d5df1c1eeb87"}, {"bike_id": "3bcaa0d5a4b522504c34de67dfe19e81", "type": "electric_scooter", "is_disabled": 0, "lat": 38.92089816666667, "rental_uris": {"ios": "https://dc.lft.to/lastmile_qr_scan", "android": "https://dc.lft.to/lastmile_qr_scan"}, "is_reserved": 0, "fusion_lon": 0.0, "fusion_lat": 0.0, "lon": -77.02526266666666, "name": "3bcaa0d5a4b522504c34de67dfe19e81"}, {"bike_id": "5274eb37ec5d6a45ba16cf7a9795816f", "type": "electric_scooter", "is_disabled": 0, "lat": 38.91647233333333, "rental_uris": {"ios": "https://dc.lft.to/lastmile_qr_scan", "android": "https://dc.lft.to/lastmile_qr_scan"}, "is_reserved": 0, "fusion_lon": 0.0, "fusion_lat": 0.0, "lon": -77.04670166666666, "name": "5274eb37ec5d6a45ba16cf7a9795816f"}, {"bike_id": "e7986a1c3355cf196a0ab12883da820b", "type": "electric_scooter", "is_disabled": 0, "lat": 38.906798, "rental_uris": {"ios": "https://dc.lft.to/lastmile_qr_scan", "android": "https://dc.lft.to/lastmile_qr_scan"}, "is_reserved": 0, "fusion_lon": 0.0, "fusion_lat": 0.0, "lon": -77.07159833333333, "name": "e7986a1c3355cf196a0ab12883da820b"}, {"bike_id": "d4d6e829cc1170298eca7e2315d35375", "type": "electric_scooter", "is_disabled": 0, "lat": 38.9003805, "rental_uris": {"ios": "https://dc.lft.to/lastmile_qr_scan", "android": "https://dc.lft.to/lastmile_qr_scan"}, "is_reserved": 0, "fusion_lon": 0.0, "fusion_lat": 0.0, "lon": -77.00100283333333, "name": "d4d6e829cc1170298eca7e2315d35375"}, {"bike_id": "d9e00f9094e88c3255b3d22fc1acfd12", "type": "electric_scooter", "is_disabled": 0, "lat": 38.907319, "rental_uris": {"ios": "https://dc.lft.to/lastmile_qr_scan", "android": "https://dc.lft.to/lastmile_qr_scan"}, "is_reserved": 0, "fusion_lon": 0.0, "fusion_lat": 0.0, "lon": -77.04517166666666, "name": "d9e00f9094e88c3255b3d22fc1acfd12"}, {"bike_id": "ee7a9b093716a6c2fe2a125ce274f592", "type": "electric_scooter", "is_disabled": 0, "lat": 38.932308, "rental_uris": {"ios": "https://dc.lft.to/lastmile_qr_scan", "android": "https://dc.lft.to/lastmile_qr_scan"}, "is_reserved": 0, "fusion_lon": 0.0, "fusion_lat": 0.0, "lon": -77.03393116666666, "name": "ee7a9b093716a6c2fe2a125ce274f592"}, {"bike_id": "1edee42459d29a636bf3e71eb6f2a949", "type": "electric_scooter", "is_disabled": 0, "lat": 38.90304483333333, "rental_uris": {"ios": "https://dc.lft.to/lastmile_qr_scan", "android": "https://dc.lft.to/lastmile_qr_scan"}, "is_reserved": 0, "fusion_lon": 0.0, "fusion_lat": 0.0, "lon": -76.9835935, "name": "1edee42459d29a636bf3e71eb6f2a949"}, {"bike_id": "18791a2d59cec48cc8a9bf3bf42874f3", "type": "electric_scooter", "is_disabled": 0, "lat": 38.91027233333333, "rental_uris": {"ios": "https://dc.lft.to/lastmile_qr_scan", "android": "https://dc.lft.to/lastmile_qr_scan"}, "is_reserved": 0, "fusion_lon": 0.0, "fusion_lat": 0.0, "lon": -77.038167, "name": "18791a2d59cec48cc8a9bf3bf42874f3"}, {"bike_id": "0128c82b54aeb72e7d55c97632b37642", "type": "electric_scooter", "is_disabled": 0, "lat": 38.93456033333333, "rental_uris": {"ios": "https://dc.lft.to/lastmile_qr_scan", "android": "https://dc.lft.to/lastmile_qr_scan"}, "is_reserved": 0, "fusion_lon": 0.0, "fusion_lat": 0.0, "lon": -77.03056483333333, "name": "0128c82b54aeb72e7d55c97632b37642"}, {"bike_id": "ecc90a10fb13eb2138769c47170d43ce", "type": "electric_scooter", "is_disabled": 0, "lat": 38.93534233333333, "rental_uris": {"ios": "https://dc.lft.to/lastmile_qr_scan", "android": "https://dc.lft.to/lastmile_qr_scan"}, "is_reserved": 0, "fusion_lon": 0.0, "fusion_lat": 0.0, "lon": -77.023569, "name": "ecc90a10fb13eb2138769c47170d43ce"}, {"bike_id": "5a9abb32d7d6ddb07df4e49719d52add", "type": "electric_scooter", "is_disabled": 0, "lat": 38.920573, "rental_uris": {"ios": "https://dc.lft.to/lastmile_qr_scan", "android": "https://dc.lft.to/lastmile_qr_scan"}, "is_reserved": 0, "fusion_lon": 0.0, "fusion_lat": 0.0, "lon": -77.03465716666666, "name": "5a9abb32d7d6ddb07df4e49719d52add"}, {"bike_id": "4f241496a27f3f2b4ec78d5c58e430cd", "type": "electric_scooter", "is_disabled": 0, "lat": 38.896688166666664, "rental_uris": {"ios": "https://dc.lft.to/lastmile_qr_scan", "android": "https://dc.lft.to/lastmile_qr_scan"}, "is_reserved": 0, "fusion_lon": 0.0, "fusion_lat": 0.0, "lon": -76.98813, "name": "4f241496a27f3f2b4ec78d5c58e430cd"}, {"bike_id": "a8b0d98d116337c55ed6dfe91a4accf9", "type": "electric_scooter", "is_disabled": 0, "lat": 38.920594, "rental_uris": {"ios": "https://dc.lft.to/lastmile_qr_scan", "android": "https://dc.lft.to/lastmile_qr_scan"}, "is_reserved": 0, "fusion_lon": 0.0, "fusion_lat": 0.0, "lon": -77.02376616666666, "name": "a8b0d98d116337c55ed6dfe91a4accf9"}, {"bike_id": "344d3694bc3b968f14554dc5ba11e8b2", "type": "electric_scooter", "is_disabled": 0, "lat": 38.9127955, "rental_uris": {"ios": "https://dc.lft.to/lastmile_qr_scan", "android": "https://dc.lft.to/lastmile_qr_scan"}, "is_reserved": 0, "fusion_lon": 0.0, "fusion_lat": 0.0, "lon": -77.02715433333333, "name": "344d3694bc3b968f14554dc5ba11e8b2"}, {"bike_id": "18c68ac67c4ae91f061ebe4a05e23228", "type": "electric_scooter", "is_disabled": 0, "lat": 38.91356483333333, "rental_uris": {"ios": "https://dc.lft.to/lastmile_qr_scan", "android": "https://dc.lft.to/lastmile_qr_scan"}, "is_reserved": 0, "fusion_lon": 0.0, "fusion_lat": 0.0, "lon": -77.04495766666666, "name": "18c68ac67c4ae91f061ebe4a05e23228"}, {"bike_id": "fdf3ddcb3268444c8acc29d3a0b08071", "type": "electric_scooter", "is_disabled": 0, "lat": 38.90333, "rental_uris": {"ios": "https://dc.lft.to/lastmile_qr_scan", "android": "https://dc.lft.to/lastmile_qr_scan"}, "is_reserved": 0, "fusion_lon": 0.0, "fusion_lat": 0.0, "lon": -76.97587133333333, "name": "fdf3ddcb3268444c8acc29d3a0b08071"}, {"bike_id": "d6806257686a49e2bac0cb8aea032ea5", "type": "electric_scooter", "is_disabled": 0, "lat": 38.94214733333333, "rental_uris": {"ios": "https://dc.lft.to/lastmile_qr_scan", "android": "https://dc.lft.to/lastmile_qr_scan"}, "is_reserved": 0, "fusion_lon": 0.0, "fusion_lat": 0.0, "lon": -77.02586366666667, "name": "d6806257686a49e2bac0cb8aea032ea5"}, {"bike_id": "06585cd66579b272ed43db8af4d67d71", "type": "electric_scooter", "is_disabled": 0, "lat": 38.906453166666665, "rental_uris": {"ios": "https://dc.lft.to/lastmile_qr_scan", "android": "https://dc.lft.to/lastmile_qr_scan"}, "is_reserved": 0, "fusion_lon": 0.0, "fusion_lat": 0.0, "lon": -77.01436366666667, "name": "06585cd66579b272ed43db8af4d67d71"}, {"bike_id": "67f59a8f43ec8c09b42b473fb099b5b8", "type": "electric_scooter", "is_disabled": 0, "lat": 38.9022015, "rental_uris": {"ios": "https://dc.lft.to/lastmile_qr_scan", "android": "https://dc.lft.to/lastmile_qr_scan"}, "is_reserved": 0, "fusion_lon": 0.0, "fusion_lat": 0.0, "lon": -77.02215966666667, "name": "67f59a8f43ec8c09b42b473fb099b5b8"}, {"bike_id": "cef92c235bf89e1ce04518c7ab54a713", "type": "electric_scooter", "is_disabled": 0, "lat": 38.91071766666666, "rental_uris": {"ios": "https://dc.lft.to/lastmile_qr_scan", "android": "https://dc.lft.to/lastmile_qr_scan"}, "is_reserved": 0, "fusion_lon": 0.0, "fusion_lat": 0.0, "lon": -77.03718733333334, "name": "cef92c235bf89e1ce04518c7ab54a713"}, {"bike_id": "b2a830175b3c65c4b1b1a361ae758a24", "type": "electric_scooter", "is_disabled": 0, "lat": 38.936347833333336, "rental_uris": {"ios": "https://dc.lft.to/lastmile_qr_scan", "android": "https://dc.lft.to/lastmile_qr_scan"}, "is_reserved": 0, "fusion_lon": 0.0, "fusion_lat": 0.0, "lon": -77.05881766666667, "name": "b2a830175b3c65c4b1b1a361ae758a24"}, {"bike_id": "18bd5cea41d93aaaf84099a23d6d5213", "type": "electric_scooter", "is_disabled": 0, "lat": 38.905713166666665, "rental_uris": {"ios": "https://dc.lft.to/lastmile_qr_scan", "android": "https://dc.lft.to/lastmile_qr_scan"}, "is_reserved": 0, "fusion_lon": 0.0, "fusion_lat": 0.0, "lon": -77.0249725, "name": "18bd5cea41d93aaaf84099a23d6d5213"}, {"bike_id": "7d15e51e86eaaca12c9a91a9d39ff462", "type": "electric_scooter", "is_disabled": 0, "lat": 38.900045166666665, "rental_uris": {"ios": "https://dc.lft.to/lastmile_qr_scan", "android": "https://dc.lft.to/lastmile_qr_scan"}, "is_reserved": 0, "fusion_lon": 0.0, "fusion_lat": 0.0, "lon": -77.05337883333333, "name": "7d15e51e86eaaca12c9a91a9d39ff462"}, {"bike_id": "6f47767a4acdffc78a17560a2cbb85e6", "type": "electric_bike", "is_disabled": 0, "lat": 38.879865333333335, "rental_uris": {"ios": "https://dc.lft.to/lastmile_qr_scan", "android": "https://dc.lft.to/lastmile_qr_scan"}, "is_reserved": 0, "fusion_lon": 0.0, "fusion_lat": 0.0, "lon": -76.98515416666666, "name": "6f47767a4acdffc78a17560a2cbb85e6"}, {"bike_id": "fcf9203541750128eb625cfc4acd1aad", "type": "electric_scooter", "is_disabled": 0, "lat": 38.909463833333334, "rental_uris": {"ios": "https://dc.lft.to/lastmile_qr_scan", "android": "https://dc.lft.to/lastmile_qr_scan"}, "is_reserved": 0, "fusion_lon": 0.0, "fusion_lat": 0.0, "lon": -77.0449225, "name": "fcf9203541750128eb625cfc4acd1aad"}, {"bike_id": "0ac492a144f31109b87bf21d51d0413d", "type": "electric_scooter", "is_disabled": 0, "lat": 38.9106725, "rental_uris": {"ios": "https://dc.lft.to/lastmile_qr_scan", "android": "https://dc.lft.to/lastmile_qr_scan"}, "is_reserved": 0, "fusion_lon": 0.0, "fusion_lat": 0.0, "lon": -77.03714283333333, "name": "0ac492a144f31109b87bf21d51d0413d"}, {"bike_id": "bef2f2bea67e388ca458135e849f70bd", "type": "electric_scooter", "is_disabled": 0, "lat": 38.903432333333335, "rental_uris": {"ios": "https://dc.lft.to/lastmile_qr_scan", "android": "https://dc.lft.to/lastmile_qr_scan"}, "is_reserved": 0, "fusion_lon": 0.0, "fusion_lat": 0.0, "lon": -77.052953, "name": "bef2f2bea67e388ca458135e849f70bd"}, {"bike_id": "fcdbd43bc5820aac9854d85d27caa327", "type": "electric_scooter", "is_disabled": 0, "lat": 38.91715516666667, "rental_uris": {"ios": "https://dc.lft.to/lastmile_qr_scan", "android": "https://dc.lft.to/lastmile_qr_scan"}, "is_reserved": 0, "fusion_lon": 0.0, "fusion_lat": 0.0, "lon": -77.0346395, "name": "fcdbd43bc5820aac9854d85d27caa327"}, {"bike_id": "6a3ed22defe7d213c642ee45ff52642e", "type": "electric_scooter", "is_disabled": 0, "lat": 38.908136, "rental_uris": {"ios": "https://dc.lft.to/lastmile_qr_scan", "android": "https://dc.lft.to/lastmile_qr_scan"}, "is_reserved": 0, "fusion_lon": 0.0, "fusion_lat": 0.0, "lon": -77.03465983333334, "name": "6a3ed22defe7d213c642ee45ff52642e"}, {"bike_id": "0abb20a73c9a3d5a8bd62a711b3ffbe4", "type": "electric_scooter", "is_disabled": 0, "lat": 38.90526416666667, "rental_uris": {"ios": "https://dc.lft.to/lastmile_qr_scan", "android": "https://dc.lft.to/lastmile_qr_scan"}, "is_reserved": 0, "fusion_lon": 0.0, "fusion_lat": 0.0, "lon": -77.0593425, "name": "0abb20a73c9a3d5a8bd62a711b3ffbe4"}, {"bike_id": "cbe75d4ba2ed45fb3f54341b2f4c1612", "type": "electric_scooter", "is_disabled": 0, "lat": 38.89700966666667, "rental_uris": {"ios": "https://dc.lft.to/lastmile_qr_scan", "android": "https://dc.lft.to/lastmile_qr_scan"}, "is_reserved": 0, "fusion_lon": 0.0, "fusion_lat": 0.0, "lon": -76.92999383333333, "name": "cbe75d4ba2ed45fb3f54341b2f4c1612"}, {"bike_id": "a01e36fb0ef138eee25f11c86c528350", "type": "electric_scooter", "is_disabled": 0, "lat": 38.907387666666665, "rental_uris": {"ios": "https://dc.lft.to/lastmile_qr_scan", "android": "https://dc.lft.to/lastmile_qr_scan"}, "is_reserved": 0, "fusion_lon": 0.0, "fusion_lat": 0.0, "lon": -77.0131495, "name": "a01e36fb0ef138eee25f11c86c528350"}, {"bike_id": "d34b75f1f24671ebbd77153e9c77250a", "type": "electric_scooter", "is_disabled": 0, "lat": 38.90157716666667, "rental_uris": {"ios": "https://dc.lft.to/lastmile_qr_scan", "android": "https://dc.lft.to/lastmile_qr_scan"}, "is_reserved": 0, "fusion_lon": 0.0, "fusion_lat": 0.0, "lon": -77.02384166666667, "name": "d34b75f1f24671ebbd77153e9c77250a"}, {"bike_id": "c2a7c885f9ccd6739277752069d97638", "type": "electric_scooter", "is_disabled": 0, "lat": 38.902406666666664, "rental_uris": {"ios": "https://dc.lft.to/lastmile_qr_scan", "android": "https://dc.lft.to/lastmile_qr_scan"}, "is_reserved": 0, "fusion_lon": 0.0, "fusion_lat": 0.0, "lon": -76.99627566666666, "name": "c2a7c885f9ccd6739277752069d97638"}, {"bike_id": "befcc5117afd84b3d75c8b3f43dfb7a4", "type": "electric_scooter", "is_disabled": 0, "lat": 38.903415333333335, "rental_uris": {"ios": "https://dc.lft.to/lastmile_qr_scan", "android": "https://dc.lft.to/lastmile_qr_scan"}, "is_reserved": 0, "fusion_lon": 0.0, "fusion_lat": 0.0, "lon": -77.03650583333334, "name": "befcc5117afd84b3d75c8b3f43dfb7a4"}, {"bike_id": "a6bfcddaeaf27675d83f866b6cdd219c", "type": "electric_scooter", "is_disabled": 0, "lat": 38.924824666666666, "rental_uris": {"ios": "https://dc.lft.to/lastmile_qr_scan", "android": "https://dc.lft.to/lastmile_qr_scan"}, "is_reserved": 0, "fusion_lon": 0.0, "fusion_lat": 0.0, "lon": -77.02839883333333, "name": "a6bfcddaeaf27675d83f866b6cdd219c"}, {"bike_id": "80cd935f1c0aa6c3019a9c9e1523485d", "type": "electric_scooter", "is_disabled": 0, "lat": 38.901494666666665, "rental_uris": {"ios": "https://dc.lft.to/lastmile_qr_scan", "android": "https://dc.lft.to/lastmile_qr_scan"}, "is_reserved": 0, "fusion_lon": 0.0, "fusion_lat": 0.0, "lon": -76.99017766666667, "name": "80cd935f1c0aa6c3019a9c9e1523485d"}, {"bike_id": "2cf6dae147afd53d92bf8da960040b3d", "type": "electric_bike", "is_disabled": 0, "lat": 38.93463066666666, "rental_uris": {"ios": "https://dc.lft.to/lastmile_qr_scan", "android": "https://dc.lft.to/lastmile_qr_scan"}, "is_reserved": 0, "fusion_lon": 0.0, "fusion_lat": 0.0, "lon": -77.0271715, "name": "2cf6dae147afd53d92bf8da960040b3d"}, {"bike_id": "d9efd6ca181b0dcc9496673cc975d3af", "type": "electric_scooter", "is_disabled": 0, "lat": 38.918076166666665, "rental_uris": {"ios": "https://dc.lft.to/lastmile_qr_scan", "android": "https://dc.lft.to/lastmile_qr_scan"}, "is_reserved": 0, "fusion_lon": 0.0, "fusion_lat": 0.0, "lon": -77.0077255, "name": "d9efd6ca181b0dcc9496673cc975d3af"}, {"bike_id": "3888b7ad2159e4e82259195e4f9dd3d6", "type": "electric_scooter", "is_disabled": 0, "lat": 38.92260266666667, "rental_uris": {"ios": "https://dc.lft.to/lastmile_qr_scan", "android": "https://dc.lft.to/lastmile_qr_scan"}, "is_reserved": 0, "fusion_lon": 0.0, "fusion_lat": 0.0, "lon": -77.042902, "name": "3888b7ad2159e4e82259195e4f9dd3d6"}, {"bike_id": "b882364ddb4801b36372cc7fbfabda40", "type": "electric_scooter", "is_disabled": 0, "lat": 38.90752833333333, "rental_uris": {"ios": "https://dc.lft.to/lastmile_qr_scan", "android": "https://dc.lft.to/lastmile_qr_scan"}, "is_reserved": 0, "fusion_lon": 0.0, "fusion_lat": 0.0, "lon": -77.03188316666666, "name": "b882364ddb4801b36372cc7fbfabda40"}, {"bike_id": "8c75de3f4afcec8e3edd2bd6baec8dd9", "type": "electric_bike", "is_disabled": 0, "lat": 38.87668016666667, "rental_uris": {"ios": "https://dc.lft.to/lastmile_qr_scan", "android": "https://dc.lft.to/lastmile_qr_scan"}, "is_reserved": 0, "fusion_lon": 0.0, "fusion_lat": 0.0, "lon": -77.014468, "name": "8c75de3f4afcec8e3edd2bd6baec8dd9"}, {"bike_id": "2dab8f33b1285c0fbe019c11644b32c4", "type": "electric_scooter", "is_disabled": 0, "lat": 38.916784, "rental_uris": {"ios": "https://dc.lft.to/lastmile_qr_scan", "android": "https://dc.lft.to/lastmile_qr_scan"}, "is_reserved": 0, "fusion_lon": 0.0, "fusion_lat": 0.0, "lon": -77.0320215, "name": "2dab8f33b1285c0fbe019c11644b32c4"}, {"bike_id": "04aba374988142af69bf8881a132a67c", "type": "electric_scooter", "is_disabled": 0, "lat": 38.9036975, "rental_uris": {"ios": "https://dc.lft.to/lastmile_qr_scan", "android": "https://dc.lft.to/lastmile_qr_scan"}, "is_reserved": 0, "fusion_lon": 0.0, "fusion_lat": 0.0, "lon": -77.02420783333334, "name": "04aba374988142af69bf8881a132a67c"}, {"bike_id": "087796c9babffd666068428f0823ced2", "type": "electric_scooter", "is_disabled": 0, "lat": 38.92659366666667, "rental_uris": {"ios": "https://dc.lft.to/lastmile_qr_scan", "android": "https://dc.lft.to/lastmile_qr_scan"}, "is_reserved": 0, "fusion_lon": 0.0, "fusion_lat": 0.0, "lon": -77.03727616666667, "name": "087796c9babffd666068428f0823ced2"}, {"bike_id": "908a38b6eaf32afc75aa192c3348fa65", "type": "electric_scooter", "is_disabled": 0, "lat": 38.890116666666664, "rental_uris": {"ios": "https://dc.lft.to/lastmile_qr_scan", "android": "https://dc.lft.to/lastmile_qr_scan"}, "is_reserved": 0, "fusion_lon": 0.0, "fusion_lat": 0.0, "lon": -77.0332485, "name": "908a38b6eaf32afc75aa192c3348fa65"}, {"bike_id": "be431a6104f704e2ea588c40b4f18656", "type": "electric_scooter", "is_disabled": 0, "lat": 38.915738833333336, "rental_uris": {"ios": "https://dc.lft.to/lastmile_qr_scan", "android": "https://dc.lft.to/lastmile_qr_scan"}, "is_reserved": 0, "fusion_lon": 0.0, "fusion_lat": 0.0, "lon": -77.0448975, "name": "be431a6104f704e2ea588c40b4f18656"}, {"bike_id": "225fbefbb839353aa68eacf0e67bc9be", "type": "electric_bike", "is_disabled": 0, "lat": 38.9285795, "rental_uris": {"ios": "https://dc.lft.to/lastmile_qr_scan", "android": "https://dc.lft.to/lastmile_qr_scan"}, "is_reserved": 0, "fusion_lon": 0.0, "fusion_lat": 0.0, "lon": -76.9893595, "name": "225fbefbb839353aa68eacf0e67bc9be"}, {"bike_id": "55ae4d1b5263728be7bd2f2310dc0a83", "type": "electric_scooter", "is_disabled": 0, "lat": 38.933613, "rental_uris": {"ios": "https://dc.lft.to/lastmile_qr_scan", "android": "https://dc.lft.to/lastmile_qr_scan"}, "is_reserved": 0, "fusion_lon": 0.0, "fusion_lat": 0.0, "lon": -77.08856066666667, "name": "55ae4d1b5263728be7bd2f2310dc0a83"}, {"bike_id": "91d118f0f7849bccc3350042ae24882f", "type": "electric_scooter", "is_disabled": 0, "lat": 38.905784, "rental_uris": {"ios": "https://dc.lft.to/lastmile_qr_scan", "android": "https://dc.lft.to/lastmile_qr_scan"}, "is_reserved": 0, "fusion_lon": 0.0, "fusion_lat": 0.0, "lon": -77.05122383333334, "name": "91d118f0f7849bccc3350042ae24882f"}, {"bike_id": "2336eb9839c697fe3c8de1b49f239efb", "type": "electric_scooter", "is_disabled": 0, "lat": 38.923657, "rental_uris": {"ios": "https://dc.lft.to/lastmile_qr_scan", "android": "https://dc.lft.to/lastmile_qr_scan"}, "is_reserved": 0, "fusion_lon": 0.0, "fusion_lat": 0.0, "lon": -77.01945483333333, "name": "2336eb9839c697fe3c8de1b49f239efb"}, {"bike_id": "d3195889aacbee4fad4a2d4db0bcd4e7", "type": "electric_scooter", "is_disabled": 0, "lat": 38.904947166666666, "rental_uris": {"ios": "https://dc.lft.to/lastmile_qr_scan", "android": "https://dc.lft.to/lastmile_qr_scan"}, "is_reserved": 0, "fusion_lon": 0.0, "fusion_lat": 0.0, "lon": -77.0200105, "name": "d3195889aacbee4fad4a2d4db0bcd4e7"}, {"bike_id": "f30ec90e145fafeb55968a1ae6bfcf9e", "type": "electric_scooter", "is_disabled": 0, "lat": 38.905537, "rental_uris": {"ios": "https://dc.lft.to/lastmile_qr_scan", "android": "https://dc.lft.to/lastmile_qr_scan"}, "is_reserved": 0, "fusion_lon": 0.0, "fusion_lat": 0.0, "lon": -76.996217, "name": "f30ec90e145fafeb55968a1ae6bfcf9e"}, {"bike_id": "3aa2007383f66495b596ef0aba124415", "type": "electric_bike", "is_disabled": 0, "lat": 38.90957216666666, "rental_uris": {"ios": "https://dc.lft.to/lastmile_qr_scan", "android": "https://dc.lft.to/lastmile_qr_scan"}, "is_reserved": 0, "fusion_lon": 0.0, "fusion_lat": 0.0, "lon": -77.01839333333334, "name": "3aa2007383f66495b596ef0aba124415"}, {"bike_id": "aeb89a3cad7546feafffe128ea7f727a", "type": "electric_scooter", "is_disabled": 0, "lat": 38.92252766666667, "rental_uris": {"ios": "https://dc.lft.to/lastmile_qr_scan", "android": "https://dc.lft.to/lastmile_qr_scan"}, "is_reserved": 0, "fusion_lon": 0.0, "fusion_lat": 0.0, "lon": -77.03883516666667, "name": "aeb89a3cad7546feafffe128ea7f727a"}, {"bike_id": "13ec7d97df878334c40d5bdc07b6d913", "type": "electric_bike", "is_disabled": 0, "lat": 38.87079383333333, "rental_uris": {"ios": "https://dc.lft.to/lastmile_qr_scan", "android": "https://dc.lft.to/lastmile_qr_scan"}, "is_reserved": 0, "fusion_lon": 0.0, "fusion_lat": 0.0, "lon": -77.01212616666666, "name": "13ec7d97df878334c40d5bdc07b6d913"}, {"bike_id": "7b29b0722fa5ac2e62c44bd3b60a212a", "type": "electric_scooter", "is_disabled": 0, "lat": 38.90957266666667, "rental_uris": {"ios": "https://dc.lft.to/lastmile_qr_scan", "android": "https://dc.lft.to/lastmile_qr_scan"}, "is_reserved": 0, "fusion_lon": 0.0, "fusion_lat": 0.0, "lon": -77.048621, "name": "7b29b0722fa5ac2e62c44bd3b60a212a"}, {"bike_id": "c9d6a2d7c32c9313f696e11eb9f771d8", "type": "electric_scooter", "is_disabled": 0, "lat": 38.90944966666667, "rental_uris": {"ios": "https://dc.lft.to/lastmile_qr_scan", "android": "https://dc.lft.to/lastmile_qr_scan"}, "is_reserved": 0, "fusion_lon": 0.0, "fusion_lat": 0.0, "lon": -77.03445866666667, "name": "c9d6a2d7c32c9313f696e11eb9f771d8"}, {"bike_id": "d2e1bc53b2957ed54e96bf2be8bd25dd", "type": "electric_scooter", "is_disabled": 0, "lat": 38.8953665, "rental_uris": {"ios": "https://dc.lft.to/lastmile_qr_scan", "android": "https://dc.lft.to/lastmile_qr_scan"}, "is_reserved": 0, "fusion_lon": 0.0, "fusion_lat": 0.0, "lon": -77.010857, "name": "d2e1bc53b2957ed54e96bf2be8bd25dd"}, {"bike_id": "4a0204386e04e89d2d7c0c8748b1e21d", "type": "electric_bike", "is_disabled": 0, "lat": 38.80706383333333, "rental_uris": {"ios": "https://dc.lft.to/lastmile_qr_scan", "android": "https://dc.lft.to/lastmile_qr_scan"}, "is_reserved": 0, "fusion_lon": 0.0, "fusion_lat": 0.0, "lon": -77.06173866666667, "name": "4a0204386e04e89d2d7c0c8748b1e21d"}, {"bike_id": "61fa7e57c0be4d530df2634b44a830c2", "type": "electric_scooter", "is_disabled": 0, "lat": 38.928324333333336, "rental_uris": {"ios": "https://dc.lft.to/lastmile_qr_scan", "android": "https://dc.lft.to/lastmile_qr_scan"}, "is_reserved": 0, "fusion_lon": 0.0, "fusion_lat": 0.0, "lon": -77.02739366666667, "name": "61fa7e57c0be4d530df2634b44a830c2"}, {"bike_id": "76e5b8ce93ba9e469a9fc7dc686f956f", "type": "electric_scooter", "is_disabled": 0, "lat": 38.923402333333335, "rental_uris": {"ios": "https://dc.lft.to/lastmile_qr_scan", "android": "https://dc.lft.to/lastmile_qr_scan"}, "is_reserved": 0, "fusion_lon": 0.0, "fusion_lat": 0.0, "lon": -77.00191733333334, "name": "76e5b8ce93ba9e469a9fc7dc686f956f"}, {"bike_id": "334682b3ae1874246b97b724713bb873", "type": "electric_scooter", "is_disabled": 0, "lat": 38.936355166666665, "rental_uris": {"ios": "https://dc.lft.to/lastmile_qr_scan", "android": "https://dc.lft.to/lastmile_qr_scan"}, "is_reserved": 0, "fusion_lon": 0.0, "fusion_lat": 0.0, "lon": -77.05882116666666, "name": "334682b3ae1874246b97b724713bb873"}, {"bike_id": "57f432155e659625ef6adc53f6dc42e9", "type": "electric_scooter", "is_disabled": 0, "lat": 38.889332833333334, "rental_uris": {"ios": "https://dc.lft.to/lastmile_qr_scan", "android": "https://dc.lft.to/lastmile_qr_scan"}, "is_reserved": 0, "fusion_lon": 0.0, "fusion_lat": 0.0, "lon": -77.0150645, "name": "57f432155e659625ef6adc53f6dc42e9"}, {"bike_id": "cecb621d2c6d25b3a4204a916ebc21ab", "type": "electric_bike", "is_disabled": 0, "lat": 38.80414016666667, "rental_uris": {"ios": "https://dc.lft.to/lastmile_qr_scan", "android": "https://dc.lft.to/lastmile_qr_scan"}, "is_reserved": 0, "fusion_lon": 0.0, "fusion_lat": 0.0, "lon": -77.05555833333334, "name": "cecb621d2c6d25b3a4204a916ebc21ab"}, {"bike_id": "873bfa830c52b11ce0db63818be5a882", "type": "electric_bike", "is_disabled": 0, "lat": 38.95235133333333, "rental_uris": {"ios": "https://dc.lft.to/lastmile_qr_scan", "android": "https://dc.lft.to/lastmile_qr_scan"}, "is_reserved": 0, "fusion_lon": 0.0, "fusion_lat": 0.0, "lon": -77.00762083333333, "name": "873bfa830c52b11ce0db63818be5a882"}, {"bike_id": "a22d64892f49c5d6a8e0a91eb9550475", "type": "electric_scooter", "is_disabled": 0, "lat": 38.92285583333334, "rental_uris": {"ios": "https://dc.lft.to/lastmile_qr_scan", "android": "https://dc.lft.to/lastmile_qr_scan"}, "is_reserved": 0, "fusion_lon": 0.0, "fusion_lat": 0.0, "lon": -77.02959433333334, "name": "a22d64892f49c5d6a8e0a91eb9550475"}, {"bike_id": "349702f44272542bbbe6bf266417d0b7", "type": "electric_scooter", "is_disabled": 0, "lat": 38.922719, "rental_uris": {"ios": "https://dc.lft.to/lastmile_qr_scan", "android": "https://dc.lft.to/lastmile_qr_scan"}, "is_reserved": 0, "fusion_lon": 0.0, "fusion_lat": 0.0, "lon": -76.99453766666667, "name": "349702f44272542bbbe6bf266417d0b7"}, {"bike_id": "fc4894fa1c69f8c14f4297d07541fcb2", "type": "electric_bike", "is_disabled": 0, "lat": 38.85485216666667, "rental_uris": {"ios": "https://dc.lft.to/lastmile_qr_scan", "android": "https://dc.lft.to/lastmile_qr_scan"}, "is_reserved": 0, "fusion_lon": 0.0, "fusion_lat": 0.0, "lon": -77.11605666666667, "name": "fc4894fa1c69f8c14f4297d07541fcb2"}, {"bike_id": "a42442ac6975b0e9de72b0927ebde104", "type": "electric_scooter", "is_disabled": 0, "lat": 38.918712, "rental_uris": {"ios": "https://dc.lft.to/lastmile_qr_scan", "android": "https://dc.lft.to/lastmile_qr_scan"}, "is_reserved": 0, "fusion_lon": 0.0, "fusion_lat": 0.0, "lon": -77.07028433333333, "name": "a42442ac6975b0e9de72b0927ebde104"}, {"bike_id": "4f64d32b1a01507a02d1f4e9da73e702", "type": "electric_scooter", "is_disabled": 0, "lat": 38.895346, "rental_uris": {"ios": "https://dc.lft.to/lastmile_qr_scan", "android": "https://dc.lft.to/lastmile_qr_scan"}, "is_reserved": 0, "fusion_lon": 0.0, "fusion_lat": 0.0, "lon": -76.99481066666667, "name": "4f64d32b1a01507a02d1f4e9da73e702"}, {"bike_id": "5f25c72343abb2bc4cf92bd5b408a7ef", "type": "electric_scooter", "is_disabled": 0, "lat": 38.90039633333333, "rental_uris": {"ios": "https://dc.lft.to/lastmile_qr_scan", "android": "https://dc.lft.to/lastmile_qr_scan"}, "is_reserved": 0, "fusion_lon": 0.0, "fusion_lat": 0.0, "lon": -77.03414433333333, "name": "5f25c72343abb2bc4cf92bd5b408a7ef"}, {"bike_id": "bf9fb4b991f2cba62284a1fa867a43d8", "type": "electric_bike", "is_disabled": 0, "lat": 38.85534583333333, "rental_uris": {"ios": "https://dc.lft.to/lastmile_qr_scan", "android": "https://dc.lft.to/lastmile_qr_scan"}, "is_reserved": 0, "fusion_lon": 0.0, "fusion_lat": 0.0, "lon": -77.1201605, "name": "bf9fb4b991f2cba62284a1fa867a43d8"}, {"bike_id": "3e2974e778d141d8e747ecd8ac097026", "type": "electric_scooter", "is_disabled": 0, "lat": 38.91398983333333, "rental_uris": {"ios": "https://dc.lft.to/lastmile_qr_scan", "android": "https://dc.lft.to/lastmile_qr_scan"}, "is_reserved": 0, "fusion_lon": 0.0, "fusion_lat": 0.0, "lon": -76.98196716666666, "name": "3e2974e778d141d8e747ecd8ac097026"}, {"bike_id": "226765cc84811a128984e7e504b494a6", "type": "electric_scooter", "is_disabled": 0, "lat": 38.906844, "rental_uris": {"ios": "https://dc.lft.to/lastmile_qr_scan", "android": "https://dc.lft.to/lastmile_qr_scan"}, "is_reserved": 0, "fusion_lon": 0.0, "fusion_lat": 0.0, "lon": -77.026982, "name": "226765cc84811a128984e7e504b494a6"}, {"bike_id": "e555c5312bd76aeecdbd7050b976f9a6", "type": "electric_bike", "is_disabled": 0, "lat": 38.99324983333333, "rental_uris": {"ios": "https://dc.lft.to/lastmile_qr_scan", "android": "https://dc.lft.to/lastmile_qr_scan"}, "is_reserved": 0, "fusion_lon": 0.0, "fusion_lat": 0.0, "lon": -76.94618566666666, "name": "e555c5312bd76aeecdbd7050b976f9a6"}, {"bike_id": "8549e643a2230b8ca60721225059fdf5", "type": "electric_scooter", "is_disabled": 0, "lat": 38.909528333333334, "rental_uris": {"ios": "https://dc.lft.to/lastmile_qr_scan", "android": "https://dc.lft.to/lastmile_qr_scan"}, "is_reserved": 0, "fusion_lon": 0.0, "fusion_lat": 0.0, "lon": -77.03938666666667, "name": "8549e643a2230b8ca60721225059fdf5"}, {"bike_id": "5c6961a6816ed49869e5d6486b21978b", "type": "electric_scooter", "is_disabled": 0, "lat": 38.92565616666667, "rental_uris": {"ios": "https://dc.lft.to/lastmile_qr_scan", "android": "https://dc.lft.to/lastmile_qr_scan"}, "is_reserved": 0, "fusion_lon": 0.0, "fusion_lat": 0.0, "lon": -77.05268916666667, "name": "5c6961a6816ed49869e5d6486b21978b"}, {"bike_id": "6e258d16fc4f4826aa0322a2ea1edb41", "type": "electric_scooter", "is_disabled": 0, "lat": 38.9095615, "rental_uris": {"ios": "https://dc.lft.to/lastmile_qr_scan", "android": "https://dc.lft.to/lastmile_qr_scan"}, "is_reserved": 0, "fusion_lon": 0.0, "fusion_lat": 0.0, "lon": -77.04870866666667, "name": "6e258d16fc4f4826aa0322a2ea1edb41"}, {"bike_id": "3576f4b8009d44bae95a95a930fcef34", "type": "electric_scooter", "is_disabled": 0, "lat": 38.91995516666667, "rental_uris": {"ios": "https://dc.lft.to/lastmile_qr_scan", "android": "https://dc.lft.to/lastmile_qr_scan"}, "is_reserved": 0, "fusion_lon": 0.0, "fusion_lat": 0.0, "lon": -77.02394733333334, "name": "3576f4b8009d44bae95a95a930fcef34"}, {"bike_id": "d5088b6d4f964cc998ba0af1a071b05e", "type": "electric_scooter", "is_disabled": 0, "lat": 38.921221, "rental_uris": {"ios": "https://dc.lft.to/lastmile_qr_scan", "android": "https://dc.lft.to/lastmile_qr_scan"}, "is_reserved": 0, "fusion_lon": 0.0, "fusion_lat": 0.0, "lon": -77.03659816666666, "name": "d5088b6d4f964cc998ba0af1a071b05e"}, {"bike_id": "9c26b53f220bf023a6040ace15244024", "type": "electric_scooter", "is_disabled": 0, "lat": 38.9196295, "rental_uris": {"ios": "https://dc.lft.to/lastmile_qr_scan", "android": "https://dc.lft.to/lastmile_qr_scan"}, "is_reserved": 0, "fusion_lon": 0.0, "fusion_lat": 0.0, "lon": -77.03853, "name": "9c26b53f220bf023a6040ace15244024"}, {"bike_id": "a327b3fb64463995c3b97cdf9f5b7240", "type": "electric_bike", "is_disabled": 0, "lat": 38.95641033333333, "rental_uris": {"ios": "https://dc.lft.to/lastmile_qr_scan", "android": "https://dc.lft.to/lastmile_qr_scan"}, "is_reserved": 0, "fusion_lon": 0.0, "fusion_lat": 0.0, "lon": -76.99794833333333, "name": "a327b3fb64463995c3b97cdf9f5b7240"}, {"bike_id": "f6e7108ae33376405864f6372eb676a7", "type": "electric_scooter", "is_disabled": 0, "lat": 38.89626533333333, "rental_uris": {"ios": "https://dc.lft.to/lastmile_qr_scan", "android": "https://dc.lft.to/lastmile_qr_scan"}, "is_reserved": 0, "fusion_lon": 0.0, "fusion_lat": 0.0, "lon": -77.03299516666667, "name": "f6e7108ae33376405864f6372eb676a7"}, {"bike_id": "3fb378cb8c08b50f9e6a15af03df5241", "type": "electric_scooter", "is_disabled": 0, "lat": 38.920542166666664, "rental_uris": {"ios": "https://dc.lft.to/lastmile_qr_scan", "android": "https://dc.lft.to/lastmile_qr_scan"}, "is_reserved": 0, "fusion_lon": 0.0, "fusion_lat": 0.0, "lon": -77.02386133333333, "name": "3fb378cb8c08b50f9e6a15af03df5241"}, {"bike_id": "0c6707235c842d6f2e8478f2581b604d", "type": "electric_scooter", "is_disabled": 0, "lat": 38.916298833333336, "rental_uris": {"ios": "https://dc.lft.to/lastmile_qr_scan", "android": "https://dc.lft.to/lastmile_qr_scan"}, "is_reserved": 0, "fusion_lon": 0.0, "fusion_lat": 0.0, "lon": -77.01078333333334, "name": "0c6707235c842d6f2e8478f2581b604d"}, {"bike_id": "166ba7e4b121898bf686cdcea3a520b5", "type": "electric_scooter", "is_disabled": 0, "lat": 38.91906633333333, "rental_uris": {"ios": "https://dc.lft.to/lastmile_qr_scan", "android": "https://dc.lft.to/lastmile_qr_scan"}, "is_reserved": 0, "fusion_lon": 0.0, "fusion_lat": 0.0, "lon": -77.03392033333333, "name": "166ba7e4b121898bf686cdcea3a520b5"}, {"bike_id": "b264de1e143f469eb6dabc5ca5627d7f", "type": "electric_scooter", "is_disabled": 0, "lat": 38.908406666666664, "rental_uris": {"ios": "https://dc.lft.to/lastmile_qr_scan", "android": "https://dc.lft.to/lastmile_qr_scan"}, "is_reserved": 0, "fusion_lon": 0.0, "fusion_lat": 0.0, "lon": -77.0223005, "name": "b264de1e143f469eb6dabc5ca5627d7f"}, {"bike_id": "bc1119fb6c3e1e52cf73dd007d6a0cc2", "type": "electric_scooter", "is_disabled": 0, "lat": 38.9243975, "rental_uris": {"ios": "https://dc.lft.to/lastmile_qr_scan", "android": "https://dc.lft.to/lastmile_qr_scan"}, "is_reserved": 0, "fusion_lon": 0.0, "fusion_lat": 0.0, "lon": -77.0440345, "name": "bc1119fb6c3e1e52cf73dd007d6a0cc2"}, {"bike_id": "934506b7cca117b6a2a0e59bda563982", "type": "electric_scooter", "is_disabled": 0, "lat": 38.920098833333334, "rental_uris": {"ios": "https://dc.lft.to/lastmile_qr_scan", "android": "https://dc.lft.to/lastmile_qr_scan"}, "is_reserved": 0, "fusion_lon": 0.0, "fusion_lat": 0.0, "lon": -77.0181315, "name": "934506b7cca117b6a2a0e59bda563982"}, {"bike_id": "2aabd90dc91781b3c3fd26171d3cdc40", "type": "electric_bike", "is_disabled": 0, "lat": 39.01371233333333, "rental_uris": {"ios": "https://dc.lft.to/lastmile_qr_scan", "android": "https://dc.lft.to/lastmile_qr_scan"}, "is_reserved": 0, "fusion_lon": 0.0, "fusion_lat": 0.0, "lon": -76.92133983333333, "name": "2aabd90dc91781b3c3fd26171d3cdc40"}, {"bike_id": "9fff715b44fe60967196f6f1b03f6dfc", "type": "electric_scooter", "is_disabled": 0, "lat": 38.90074283333333, "rental_uris": {"ios": "https://dc.lft.to/lastmile_qr_scan", "android": "https://dc.lft.to/lastmile_qr_scan"}, "is_reserved": 0, "fusion_lon": 0.0, "fusion_lat": 0.0, "lon": -77.04751116666667, "name": "9fff715b44fe60967196f6f1b03f6dfc"}, {"bike_id": "d5ea039515a0cfd21faaae96534cdfad", "type": "electric_scooter", "is_disabled": 0, "lat": 38.916826, "rental_uris": {"ios": "https://dc.lft.to/lastmile_qr_scan", "android": "https://dc.lft.to/lastmile_qr_scan"}, "is_reserved": 0, "fusion_lon": 0.0, "fusion_lat": 0.0, "lon": -77.029435, "name": "d5ea039515a0cfd21faaae96534cdfad"}, {"bike_id": "f1982528313d76e93d389aa43d9e2f64", "type": "electric_scooter", "is_disabled": 0, "lat": 38.9183285, "rental_uris": {"ios": "https://dc.lft.to/lastmile_qr_scan", "android": "https://dc.lft.to/lastmile_qr_scan"}, "is_reserved": 0, "fusion_lon": 0.0, "fusion_lat": 0.0, "lon": -77.032021, "name": "f1982528313d76e93d389aa43d9e2f64"}, {"bike_id": "bbf4990b9895ad2dbb9130c9a6c8946e", "type": "electric_scooter", "is_disabled": 0, "lat": 38.921269333333335, "rental_uris": {"ios": "https://dc.lft.to/lastmile_qr_scan", "android": "https://dc.lft.to/lastmile_qr_scan"}, "is_reserved": 0, "fusion_lon": 0.0, "fusion_lat": 0.0, "lon": -77.04423383333334, "name": "bbf4990b9895ad2dbb9130c9a6c8946e"}, {"bike_id": "177e4a674d2cb64c1b05d06ba29c2b6b", "type": "electric_scooter", "is_disabled": 0, "lat": 38.871007, "rental_uris": {"ios": "https://dc.lft.to/lastmile_qr_scan", "android": "https://dc.lft.to/lastmile_qr_scan"}, "is_reserved": 0, "fusion_lon": 0.0, "fusion_lat": 0.0, "lon": -77.008041, "name": "177e4a674d2cb64c1b05d06ba29c2b6b"}, {"bike_id": "d22e318230afd8cfbe8dbd6b09a75b04", "type": "electric_scooter", "is_disabled": 0, "lat": 38.9137125, "rental_uris": {"ios": "https://dc.lft.to/lastmile_qr_scan", "android": "https://dc.lft.to/lastmile_qr_scan"}, "is_reserved": 0, "fusion_lon": 0.0, "fusion_lat": 0.0, "lon": -77.0301145, "name": "d22e318230afd8cfbe8dbd6b09a75b04"}, {"bike_id": "12bf3f4256e44078363c2274864ba8bc", "type": "electric_bike", "is_disabled": 0, "lat": 38.956174833333336, "rental_uris": {"ios": "https://dc.lft.to/lastmile_qr_scan", "android": "https://dc.lft.to/lastmile_qr_scan"}, "is_reserved": 0, "fusion_lon": 0.0, "fusion_lat": 0.0, "lon": -77.0259255, "name": "12bf3f4256e44078363c2274864ba8bc"}, {"bike_id": "f5ab7d8cf635e4148fa47224f8692bc3", "type": "electric_scooter", "is_disabled": 0, "lat": 38.8648765, "rental_uris": {"ios": "https://dc.lft.to/lastmile_qr_scan", "android": "https://dc.lft.to/lastmile_qr_scan"}, "is_reserved": 0, "fusion_lon": 0.0, "fusion_lat": 0.0, "lon": -76.97474016666666, "name": "f5ab7d8cf635e4148fa47224f8692bc3"}, {"bike_id": "d5e9838a52ed8aee15dbff4dfea54c35", "type": "electric_scooter", "is_disabled": 0, "lat": 38.91453533333333, "rental_uris": {"ios": "https://dc.lft.to/lastmile_qr_scan", "android": "https://dc.lft.to/lastmile_qr_scan"}, "is_reserved": 0, "fusion_lon": 0.0, "fusion_lat": 0.0, "lon": -77.072706, "name": "d5e9838a52ed8aee15dbff4dfea54c35"}, {"bike_id": "f89ffec7af6e39f6c4c2399434d5b696", "type": "electric_scooter", "is_disabled": 0, "lat": 38.88508383333333, "rental_uris": {"ios": "https://dc.lft.to/lastmile_qr_scan", "android": "https://dc.lft.to/lastmile_qr_scan"}, "is_reserved": 0, "fusion_lon": 0.0, "fusion_lat": 0.0, "lon": -77.028046, "name": "f89ffec7af6e39f6c4c2399434d5b696"}, {"bike_id": "c02a35c171b6edbd7db6e6dd14ce6f98", "type": "electric_scooter", "is_disabled": 0, "lat": 38.923389, "rental_uris": {"ios": "https://dc.lft.to/lastmile_qr_scan", "android": "https://dc.lft.to/lastmile_qr_scan"}, "is_reserved": 0, "fusion_lon": 0.0, "fusion_lat": 0.0, "lon": -77.0504755, "name": "c02a35c171b6edbd7db6e6dd14ce6f98"}, {"bike_id": "1854b9220037e64f6e376c943c980a86", "type": "electric_scooter", "is_disabled": 0, "lat": 38.900024333333334, "rental_uris": {"ios": "https://dc.lft.to/lastmile_qr_scan", "android": "https://dc.lft.to/lastmile_qr_scan"}, "is_reserved": 0, "fusion_lon": 0.0, "fusion_lat": 0.0, "lon": -77.006803, "name": "1854b9220037e64f6e376c943c980a86"}, {"bike_id": "fc54b808165365a9df81a5fdfba30112", "type": "electric_scooter", "is_disabled": 0, "lat": 38.9156565, "rental_uris": {"ios": "https://dc.lft.to/lastmile_qr_scan", "android": "https://dc.lft.to/lastmile_qr_scan"}, "is_reserved": 0, "fusion_lon": 0.0, "fusion_lat": 0.0, "lon": -77.0411325, "name": "fc54b808165365a9df81a5fdfba30112"}, {"bike_id": "7dcd4907343c3d0e96df8c6b4627931b", "type": "electric_scooter", "is_disabled": 0, "lat": 38.904642833333334, "rental_uris": {"ios": "https://dc.lft.to/lastmile_qr_scan", "android": "https://dc.lft.to/lastmile_qr_scan"}, "is_reserved": 0, "fusion_lon": 0.0, "fusion_lat": 0.0, "lon": -77.00705016666667, "name": "7dcd4907343c3d0e96df8c6b4627931b"}, {"bike_id": "e6f1eb60c31c0481af8ccf5699f2f233", "type": "electric_scooter", "is_disabled": 0, "lat": 38.90073066666667, "rental_uris": {"ios": "https://dc.lft.to/lastmile_qr_scan", "android": "https://dc.lft.to/lastmile_qr_scan"}, "is_reserved": 0, "fusion_lon": 0.0, "fusion_lat": 0.0, "lon": -77.04763833333334, "name": "e6f1eb60c31c0481af8ccf5699f2f233"}, {"bike_id": "3a008a32a467a91bdbd033df1c932ec3", "type": "electric_scooter", "is_disabled": 0, "lat": 38.94291066666667, "rental_uris": {"ios": "https://dc.lft.to/lastmile_qr_scan", "android": "https://dc.lft.to/lastmile_qr_scan"}, "is_reserved": 0, "fusion_lon": 0.0, "fusion_lat": 0.0, "lon": -77.02164766666667, "name": "3a008a32a467a91bdbd033df1c932ec3"}, {"bike_id": "55ed538cc958e954e07edfe7eed92057", "type": "electric_scooter", "is_disabled": 0, "lat": 38.927201833333335, "rental_uris": {"ios": "https://dc.lft.to/lastmile_qr_scan", "android": "https://dc.lft.to/lastmile_qr_scan"}, "is_reserved": 0, "fusion_lon": 0.0, "fusion_lat": 0.0, "lon": -77.040003, "name": "55ed538cc958e954e07edfe7eed92057"}, {"bike_id": "e847e5dad09cfe2058096553fc58a8d2", "type": "electric_scooter", "is_disabled": 0, "lat": 38.908229166666665, "rental_uris": {"ios": "https://dc.lft.to/lastmile_qr_scan", "android": "https://dc.lft.to/lastmile_qr_scan"}, "is_reserved": 0, "fusion_lon": 0.0, "fusion_lat": 0.0, "lon": -76.94160183333334, "name": "e847e5dad09cfe2058096553fc58a8d2"}, {"bike_id": "0b90a712e138a02e9335da7eacb70574", "type": "electric_scooter", "is_disabled": 0, "lat": 38.913808833333334, "rental_uris": {"ios": "https://dc.lft.to/lastmile_qr_scan", "android": "https://dc.lft.to/lastmile_qr_scan"}, "is_reserved": 0, "fusion_lon": 0.0, "fusion_lat": 0.0, "lon": -77.04134683333334, "name": "0b90a712e138a02e9335da7eacb70574"}, {"bike_id": "bb441b1656ec5029b7b8f7ad53dcb427", "type": "electric_scooter", "is_disabled": 0, "lat": 38.917448, "rental_uris": {"ios": "https://dc.lft.to/lastmile_qr_scan", "android": "https://dc.lft.to/lastmile_qr_scan"}, "is_reserved": 0, "fusion_lon": 0.0, "fusion_lat": 0.0, "lon": -77.01709616666666, "name": "bb441b1656ec5029b7b8f7ad53dcb427"}, {"bike_id": "98d5c82b8340c1867a27532c891635f4", "type": "electric_bike", "is_disabled": 0, "lat": 38.87278633333333, "rental_uris": {"ios": "https://dc.lft.to/lastmile_qr_scan", "android": "https://dc.lft.to/lastmile_qr_scan"}, "is_reserved": 0, "fusion_lon": 0.0, "fusion_lat": 0.0, "lon": -77.23330566666667, "name": "98d5c82b8340c1867a27532c891635f4"}, {"bike_id": "13711ac7f0612068d8980bec556fb02b", "type": "electric_scooter", "is_disabled": 0, "lat": 38.933074166666664, "rental_uris": {"ios": "https://dc.lft.to/lastmile_qr_scan", "android": "https://dc.lft.to/lastmile_qr_scan"}, "is_reserved": 0, "fusion_lon": 0.0, "fusion_lat": 0.0, "lon": -77.02157833333334, "name": "13711ac7f0612068d8980bec556fb02b"}, {"bike_id": "98dfeb21c4d4813b03931302d428e42c", "type": "electric_bike", "is_disabled": 0, "lat": 38.964692, "rental_uris": {"ios": "https://dc.lft.to/lastmile_qr_scan", "android": "https://dc.lft.to/lastmile_qr_scan"}, "is_reserved": 0, "fusion_lon": 0.0, "fusion_lat": 0.0, "lon": -77.03558883333334, "name": "98dfeb21c4d4813b03931302d428e42c"}, {"bike_id": "304ecb09eef0b540d754bbd4d4fd59bd", "type": "electric_scooter", "is_disabled": 0, "lat": 38.885627666666664, "rental_uris": {"ios": "https://dc.lft.to/lastmile_qr_scan", "android": "https://dc.lft.to/lastmile_qr_scan"}, "is_reserved": 0, "fusion_lon": 0.0, "fusion_lat": 0.0, "lon": -77.00207016666667, "name": "304ecb09eef0b540d754bbd4d4fd59bd"}, {"bike_id": "56b89dcb210d74945ffa9fa596192a2b", "type": "electric_scooter", "is_disabled": 0, "lat": 38.9285285, "rental_uris": {"ios": "https://dc.lft.to/lastmile_qr_scan", "android": "https://dc.lft.to/lastmile_qr_scan"}, "is_reserved": 0, "fusion_lon": 0.0, "fusion_lat": 0.0, "lon": -77.01950716666667, "name": "56b89dcb210d74945ffa9fa596192a2b"}, {"bike_id": "b956564e0bd26611dab11cb03cd76036", "type": "electric_scooter", "is_disabled": 0, "lat": 38.92086666666667, "rental_uris": {"ios": "https://dc.lft.to/lastmile_qr_scan", "android": "https://dc.lft.to/lastmile_qr_scan"}, "is_reserved": 0, "fusion_lon": 0.0, "fusion_lat": 0.0, "lon": -77.02531016666667, "name": "b956564e0bd26611dab11cb03cd76036"}, {"bike_id": "266cbb28b9dafbfba41ebf6e38b605b9", "type": "electric_scooter", "is_disabled": 0, "lat": 38.90681683333333, "rental_uris": {"ios": "https://dc.lft.to/lastmile_qr_scan", "android": "https://dc.lft.to/lastmile_qr_scan"}, "is_reserved": 0, "fusion_lon": 0.0, "fusion_lat": 0.0, "lon": -77.0532495, "name": "266cbb28b9dafbfba41ebf6e38b605b9"}, {"bike_id": "9b81a52f7938c7987820e8c5629fca06", "type": "electric_scooter", "is_disabled": 0, "lat": 38.95660733333333, "rental_uris": {"ios": "https://dc.lft.to/lastmile_qr_scan", "android": "https://dc.lft.to/lastmile_qr_scan"}, "is_reserved": 0, "fusion_lon": 0.0, "fusion_lat": 0.0, "lon": -77.01037833333334, "name": "9b81a52f7938c7987820e8c5629fca06"}, {"bike_id": "b5a2ad68f875f745c30a8d8fc0e022a7", "type": "electric_scooter", "is_disabled": 0, "lat": 38.9112105, "rental_uris": {"ios": "https://dc.lft.to/lastmile_qr_scan", "android": "https://dc.lft.to/lastmile_qr_scan"}, "is_reserved": 0, "fusion_lon": 0.0, "fusion_lat": 0.0, "lon": -77.0224, "name": "b5a2ad68f875f745c30a8d8fc0e022a7"}, {"bike_id": "f07f24a10734a8b771125c99cf396c09", "type": "electric_scooter", "is_disabled": 0, "lat": 38.90144016666667, "rental_uris": {"ios": "https://dc.lft.to/lastmile_qr_scan", "android": "https://dc.lft.to/lastmile_qr_scan"}, "is_reserved": 0, "fusion_lon": 0.0, "fusion_lat": 0.0, "lon": -77.0151105, "name": "f07f24a10734a8b771125c99cf396c09"}, {"bike_id": "624bfed3dbaa6efb8b87dc10b4b0a921", "type": "electric_scooter", "is_disabled": 0, "lat": 38.90552, "rental_uris": {"ios": "https://dc.lft.to/lastmile_qr_scan", "android": "https://dc.lft.to/lastmile_qr_scan"}, "is_reserved": 0, "fusion_lon": 0.0, "fusion_lat": 0.0, "lon": -76.98856833333333, "name": "624bfed3dbaa6efb8b87dc10b4b0a921"}, {"bike_id": "6534c71fbd9c36d6ee31f443fadad834", "type": "electric_scooter", "is_disabled": 0, "lat": 38.9027365, "rental_uris": {"ios": "https://dc.lft.to/lastmile_qr_scan", "android": "https://dc.lft.to/lastmile_qr_scan"}, "is_reserved": 0, "fusion_lon": 0.0, "fusion_lat": 0.0, "lon": -77.0034595, "name": "6534c71fbd9c36d6ee31f443fadad834"}, {"bike_id": "c790789635e23ca0fe05deadd374cfeb", "type": "electric_scooter", "is_disabled": 0, "lat": 38.9234025, "rental_uris": {"ios": "https://dc.lft.to/lastmile_qr_scan", "android": "https://dc.lft.to/lastmile_qr_scan"}, "is_reserved": 0, "fusion_lon": 0.0, "fusion_lat": 0.0, "lon": -77.01984166666666, "name": "c790789635e23ca0fe05deadd374cfeb"}, {"bike_id": "388a9c3573dd82ae0ef0437bba0d07fd", "type": "electric_scooter", "is_disabled": 0, "lat": 38.921493166666664, "rental_uris": {"ios": "https://dc.lft.to/lastmile_qr_scan", "android": "https://dc.lft.to/lastmile_qr_scan"}, "is_reserved": 0, "fusion_lon": 0.0, "fusion_lat": 0.0, "lon": -77.03530216666667, "name": "388a9c3573dd82ae0ef0437bba0d07fd"}, {"bike_id": "cb2577ad91c3bbc383ad18b8296ffcd0", "type": "electric_bike", "is_disabled": 0, "lat": 38.834293, "rental_uris": {"ios": "https://dc.lft.to/lastmile_qr_scan", "android": "https://dc.lft.to/lastmile_qr_scan"}, "is_reserved": 0, "fusion_lon": 0.0, "fusion_lat": 0.0, "lon": -77.10355133333333, "name": "cb2577ad91c3bbc383ad18b8296ffcd0"}, {"bike_id": "9adf3115159156e5198964bc9ff58094", "type": "electric_scooter", "is_disabled": 0, "lat": 38.905626833333336, "rental_uris": {"ios": "https://dc.lft.to/lastmile_qr_scan", "android": "https://dc.lft.to/lastmile_qr_scan"}, "is_reserved": 0, "fusion_lon": 0.0, "fusion_lat": 0.0, "lon": -77.00587783333333, "name": "9adf3115159156e5198964bc9ff58094"}, {"bike_id": "a18f15734d82d9cc5eb7942bcc0d04f9", "type": "electric_scooter", "is_disabled": 0, "lat": 38.907835666666664, "rental_uris": {"ios": "https://dc.lft.to/lastmile_qr_scan", "android": "https://dc.lft.to/lastmile_qr_scan"}, "is_reserved": 0, "fusion_lon": 0.0, "fusion_lat": 0.0, "lon": -77.04890283333333, "name": "a18f15734d82d9cc5eb7942bcc0d04f9"}, {"bike_id": "83c0f708d136ea13aa7b8afd71dded48", "type": "electric_scooter", "is_disabled": 0, "lat": 38.9273845, "rental_uris": {"ios": "https://dc.lft.to/lastmile_qr_scan", "android": "https://dc.lft.to/lastmile_qr_scan"}, "is_reserved": 0, "fusion_lon": 0.0, "fusion_lat": 0.0, "lon": -77.03565133333333, "name": "83c0f708d136ea13aa7b8afd71dded48"}, {"bike_id": "405e64ca04d2613d48e4adf5a7ba775a", "type": "electric_scooter", "is_disabled": 0, "lat": 38.924439166666666, "rental_uris": {"ios": "https://dc.lft.to/lastmile_qr_scan", "android": "https://dc.lft.to/lastmile_qr_scan"}, "is_reserved": 0, "fusion_lon": 0.0, "fusion_lat": 0.0, "lon": -77.04106233333333, "name": "405e64ca04d2613d48e4adf5a7ba775a"}, {"bike_id": "38e1439dda7df2177989c81e13114a3d", "type": "electric_scooter", "is_disabled": 0, "lat": 38.895480666666664, "rental_uris": {"ios": "https://dc.lft.to/lastmile_qr_scan", "android": "https://dc.lft.to/lastmile_qr_scan"}, "is_reserved": 0, "fusion_lon": 0.0, "fusion_lat": 0.0, "lon": -76.94940966666667, "name": "38e1439dda7df2177989c81e13114a3d"}, {"bike_id": "e4ae2d9539c31b9eef13c589aa6211d9", "type": "electric_scooter", "is_disabled": 0, "lat": 38.8979435, "rental_uris": {"ios": "https://dc.lft.to/lastmile_qr_scan", "android": "https://dc.lft.to/lastmile_qr_scan"}, "is_reserved": 0, "fusion_lon": 0.0, "fusion_lat": 0.0, "lon": -77.01184683333334, "name": "e4ae2d9539c31b9eef13c589aa6211d9"}, {"bike_id": "1da4604076326af66b856681673371d8", "type": "electric_scooter", "is_disabled": 0, "lat": 38.92328333333333, "rental_uris": {"ios": "https://dc.lft.to/lastmile_qr_scan", "android": "https://dc.lft.to/lastmile_qr_scan"}, "is_reserved": 0, "fusion_lon": 0.0, "fusion_lat": 0.0, "lon": -77.00049333333334, "name": "1da4604076326af66b856681673371d8"}, {"bike_id": "550514be08ef5a5e6f2d4d12a32665a2", "type": "electric_scooter", "is_disabled": 0, "lat": 38.9001075, "rental_uris": {"ios": "https://dc.lft.to/lastmile_qr_scan", "android": "https://dc.lft.to/lastmile_qr_scan"}, "is_reserved": 0, "fusion_lon": 0.0, "fusion_lat": 0.0, "lon": -77.00689866666667, "name": "550514be08ef5a5e6f2d4d12a32665a2"}, {"bike_id": "bbed86156731d2d28de75b33177a81c5", "type": "electric_scooter", "is_disabled": 0, "lat": 38.91930816666667, "rental_uris": {"ios": "https://dc.lft.to/lastmile_qr_scan", "android": "https://dc.lft.to/lastmile_qr_scan"}, "is_reserved": 0, "fusion_lon": 0.0, "fusion_lat": 0.0, "lon": -77.0448775, "name": "bbed86156731d2d28de75b33177a81c5"}, {"bike_id": "b0877fbdc79e334d5fbf727cf5573ab2", "type": "electric_scooter", "is_disabled": 0, "lat": 38.9068435, "rental_uris": {"ios": "https://dc.lft.to/lastmile_qr_scan", "android": "https://dc.lft.to/lastmile_qr_scan"}, "is_reserved": 0, "fusion_lon": 0.0, "fusion_lat": 0.0, "lon": -77.02695566666667, "name": "b0877fbdc79e334d5fbf727cf5573ab2"}, {"bike_id": "21de57a701cb242b2636918a8e8b5209", "type": "electric_scooter", "is_disabled": 0, "lat": 38.924534666666666, "rental_uris": {"ios": "https://dc.lft.to/lastmile_qr_scan", "android": "https://dc.lft.to/lastmile_qr_scan"}, "is_reserved": 0, "fusion_lon": 0.0, "fusion_lat": 0.0, "lon": -77.033423, "name": "21de57a701cb242b2636918a8e8b5209"}, {"bike_id": "31f83fd985e5385609918d07a66bcfc9", "type": "electric_scooter", "is_disabled": 0, "lat": 38.886766, "rental_uris": {"ios": "https://dc.lft.to/lastmile_qr_scan", "android": "https://dc.lft.to/lastmile_qr_scan"}, "is_reserved": 0, "fusion_lon": 0.0, "fusion_lat": 0.0, "lon": -76.99143216666667, "name": "31f83fd985e5385609918d07a66bcfc9"}, {"bike_id": "866eda8b903987aa129780e363508130", "type": "electric_scooter", "is_disabled": 0, "lat": 38.92751483333333, "rental_uris": {"ios": "https://dc.lft.to/lastmile_qr_scan", "android": "https://dc.lft.to/lastmile_qr_scan"}, "is_reserved": 0, "fusion_lon": 0.0, "fusion_lat": 0.0, "lon": -77.0326775, "name": "866eda8b903987aa129780e363508130"}, {"bike_id": "950d11301f2ac72cc3c631e4ec01ce31", "type": "electric_scooter", "is_disabled": 0, "lat": 38.9210285, "rental_uris": {"ios": "https://dc.lft.to/lastmile_qr_scan", "android": "https://dc.lft.to/lastmile_qr_scan"}, "is_reserved": 0, "fusion_lon": 0.0, "fusion_lat": 0.0, "lon": -77.026969, "name": "950d11301f2ac72cc3c631e4ec01ce31"}, {"bike_id": "f9fdf959f10a57abc66a931c3b353bdc", "type": "electric_scooter", "is_disabled": 0, "lat": 38.885144833333335, "rental_uris": {"ios": "https://dc.lft.to/lastmile_qr_scan", "android": "https://dc.lft.to/lastmile_qr_scan"}, "is_reserved": 0, "fusion_lon": 0.0, "fusion_lat": 0.0, "lon": -77.01725333333333, "name": "f9fdf959f10a57abc66a931c3b353bdc"}, {"bike_id": "9355e5a3ab0a5396c7c53d12101f08c4", "type": "electric_scooter", "is_disabled": 0, "lat": 38.88882266666667, "rental_uris": {"ios": "https://dc.lft.to/lastmile_qr_scan", "android": "https://dc.lft.to/lastmile_qr_scan"}, "is_reserved": 0, "fusion_lon": 0.0, "fusion_lat": 0.0, "lon": -76.94775966666667, "name": "9355e5a3ab0a5396c7c53d12101f08c4"}, {"bike_id": "facde7865f0e754d0f478eb179cbd6c3", "type": "electric_scooter", "is_disabled": 0, "lat": 38.905031666666666, "rental_uris": {"ios": "https://dc.lft.to/lastmile_qr_scan", "android": "https://dc.lft.to/lastmile_qr_scan"}, "is_reserved": 0, "fusion_lon": 0.0, "fusion_lat": 0.0, "lon": -77.02581933333333, "name": "facde7865f0e754d0f478eb179cbd6c3"}, {"bike_id": "4ebb3350029bf3a3b364df24545ea9d4", "type": "electric_scooter", "is_disabled": 0, "lat": 38.905803666666664, "rental_uris": {"ios": "https://dc.lft.to/lastmile_qr_scan", "android": "https://dc.lft.to/lastmile_qr_scan"}, "is_reserved": 0, "fusion_lon": 0.0, "fusion_lat": 0.0, "lon": -77.01641966666666, "name": "4ebb3350029bf3a3b364df24545ea9d4"}, {"bike_id": "45d72ca4fcd4e502b9f26e0d2b6a4b1f", "type": "electric_scooter", "is_disabled": 0, "lat": 38.88391166666667, "rental_uris": {"ios": "https://dc.lft.to/lastmile_qr_scan", "android": "https://dc.lft.to/lastmile_qr_scan"}, "is_reserved": 0, "fusion_lon": 0.0, "fusion_lat": 0.0, "lon": -76.95449816666667, "name": "45d72ca4fcd4e502b9f26e0d2b6a4b1f"}, {"bike_id": "cc5628642e9fdfd104d9a2b072fd31a1", "type": "electric_scooter", "is_disabled": 0, "lat": 38.899877833333335, "rental_uris": {"ios": "https://dc.lft.to/lastmile_qr_scan", "android": "https://dc.lft.to/lastmile_qr_scan"}, "is_reserved": 0, "fusion_lon": 0.0, "fusion_lat": 0.0, "lon": -77.01212133333334, "name": "cc5628642e9fdfd104d9a2b072fd31a1"}, {"bike_id": "2fba0b2658381a50fc9cf244da16548d", "type": "electric_scooter", "is_disabled": 0, "lat": 38.90362666666667, "rental_uris": {"ios": "https://dc.lft.to/lastmile_qr_scan", "android": "https://dc.lft.to/lastmile_qr_scan"}, "is_reserved": 0, "fusion_lon": 0.0, "fusion_lat": 0.0, "lon": -77.0270385, "name": "2fba0b2658381a50fc9cf244da16548d"}, {"bike_id": "32d12648b3a701c24c30941a0a5f3a02", "type": "electric_bike", "is_disabled": 0, "lat": 38.79607416666666, "rental_uris": {"ios": "https://dc.lft.to/lastmile_qr_scan", "android": "https://dc.lft.to/lastmile_qr_scan"}, "is_reserved": 0, "fusion_lon": 0.0, "fusion_lat": 0.0, "lon": -76.99743783333334, "name": "32d12648b3a701c24c30941a0a5f3a02"}, {"bike_id": "d16ee4f2f41980d7bd36573649e87a40", "type": "electric_scooter", "is_disabled": 0, "lat": 38.90841533333333, "rental_uris": {"ios": "https://dc.lft.to/lastmile_qr_scan", "android": "https://dc.lft.to/lastmile_qr_scan"}, "is_reserved": 0, "fusion_lon": 0.0, "fusion_lat": 0.0, "lon": -77.04345566666667, "name": "d16ee4f2f41980d7bd36573649e87a40"}, {"bike_id": "08beec2a18116addc29ac8b467e55da7", "type": "electric_scooter", "is_disabled": 0, "lat": 38.86203883333334, "rental_uris": {"ios": "https://dc.lft.to/lastmile_qr_scan", "android": "https://dc.lft.to/lastmile_qr_scan"}, "is_reserved": 0, "fusion_lon": 0.0, "fusion_lat": 0.0, "lon": -76.99464583333334, "name": "08beec2a18116addc29ac8b467e55da7"}, {"bike_id": "917509404ab873675fe7fb4fb386c948", "type": "electric_scooter", "is_disabled": 0, "lat": 38.9435, "rental_uris": {"ios": "https://dc.lft.to/lastmile_qr_scan", "android": "https://dc.lft.to/lastmile_qr_scan"}, "is_reserved": 0, "fusion_lon": 0.0, "fusion_lat": 0.0, "lon": -77.06135933333333, "name": "917509404ab873675fe7fb4fb386c948"}, {"bike_id": "afb20980042586b7a0b9642b1d5b4fdf", "type": "electric_scooter", "is_disabled": 0, "lat": 38.926454, "rental_uris": {"ios": "https://dc.lft.to/lastmile_qr_scan", "android": "https://dc.lft.to/lastmile_qr_scan"}, "is_reserved": 0, "fusion_lon": 0.0, "fusion_lat": 0.0, "lon": -77.02165383333333, "name": "afb20980042586b7a0b9642b1d5b4fdf"}, {"bike_id": "9d862b4e07a77d6a89662fadbba04fea", "type": "electric_scooter", "is_disabled": 0, "lat": 38.927879833333336, "rental_uris": {"ios": "https://dc.lft.to/lastmile_qr_scan", "android": "https://dc.lft.to/lastmile_qr_scan"}, "is_reserved": 0, "fusion_lon": 0.0, "fusion_lat": 0.0, "lon": -77.05265816666666, "name": "9d862b4e07a77d6a89662fadbba04fea"}, {"bike_id": "545a828db0d506cb593dd7375355e5bd", "type": "electric_bike", "is_disabled": 0, "lat": 38.829404833333335, "rental_uris": {"ios": "https://dc.lft.to/lastmile_qr_scan", "android": "https://dc.lft.to/lastmile_qr_scan"}, "is_reserved": 0, "fusion_lon": 0.0, "fusion_lat": 0.0, "lon": -77.12364916666667, "name": "545a828db0d506cb593dd7375355e5bd"}, {"bike_id": "17f9438be4e43cbb46ad02b2d58cb952", "type": "electric_scooter", "is_disabled": 0, "lat": 38.94712766666667, "rental_uris": {"ios": "https://dc.lft.to/lastmile_qr_scan", "android": "https://dc.lft.to/lastmile_qr_scan"}, "is_reserved": 0, "fusion_lon": 0.0, "fusion_lat": 0.0, "lon": -77.02777916666666, "name": "17f9438be4e43cbb46ad02b2d58cb952"}, {"bike_id": "9c00ab5eb4b531dfab9a0d64161005b0", "type": "electric_scooter", "is_disabled": 0, "lat": 38.90797533333333, "rental_uris": {"ios": "https://dc.lft.to/lastmile_qr_scan", "android": "https://dc.lft.to/lastmile_qr_scan"}, "is_reserved": 0, "fusion_lon": 0.0, "fusion_lat": 0.0, "lon": -77.0347345, "name": "9c00ab5eb4b531dfab9a0d64161005b0"}, {"bike_id": "0977b50d34eb946ef78a23513237128c", "type": "electric_scooter", "is_disabled": 0, "lat": 38.9133055, "rental_uris": {"ios": "https://dc.lft.to/lastmile_qr_scan", "android": "https://dc.lft.to/lastmile_qr_scan"}, "is_reserved": 0, "fusion_lon": 0.0, "fusion_lat": 0.0, "lon": -77.031687, "name": "0977b50d34eb946ef78a23513237128c"}, {"bike_id": "45ec7d00401527b3427b7ba3830b1fef", "type": "electric_scooter", "is_disabled": 0, "lat": 38.86677483333333, "rental_uris": {"ios": "https://dc.lft.to/lastmile_qr_scan", "android": "https://dc.lft.to/lastmile_qr_scan"}, "is_reserved": 0, "fusion_lon": 0.0, "fusion_lat": 0.0, "lon": -76.98538083333334, "name": "45ec7d00401527b3427b7ba3830b1fef"}, {"bike_id": "c1e5f8486e6b758c44dee325a90cd320", "type": "electric_scooter", "is_disabled": 0, "lat": 38.923638833333335, "rental_uris": {"ios": "https://dc.lft.to/lastmile_qr_scan", "android": "https://dc.lft.to/lastmile_qr_scan"}, "is_reserved": 0, "fusion_lon": 0.0, "fusion_lat": 0.0, "lon": -77.05126916666667, "name": "c1e5f8486e6b758c44dee325a90cd320"}, {"bike_id": "b48136ab42cd8ec54d22e96bd5476584", "type": "electric_bike", "is_disabled": 0, "lat": 38.892908, "rental_uris": {"ios": "https://dc.lft.to/lastmile_qr_scan", "android": "https://dc.lft.to/lastmile_qr_scan"}, "is_reserved": 0, "fusion_lon": 0.0, "fusion_lat": 0.0, "lon": -76.9761435, "name": "b48136ab42cd8ec54d22e96bd5476584"}, {"bike_id": "ea42408c0ed276cb502cc22882e09dab", "type": "electric_scooter", "is_disabled": 0, "lat": 38.93929166666667, "rental_uris": {"ios": "https://dc.lft.to/lastmile_qr_scan", "android": "https://dc.lft.to/lastmile_qr_scan"}, "is_reserved": 0, "fusion_lon": 0.0, "fusion_lat": 0.0, "lon": -77.03682866666666, "name": "ea42408c0ed276cb502cc22882e09dab"}, {"bike_id": "dd18524c210f78e21dca44321d74de17", "type": "electric_scooter", "is_disabled": 0, "lat": 38.88263966666667, "rental_uris": {"ios": "https://dc.lft.to/lastmile_qr_scan", "android": "https://dc.lft.to/lastmile_qr_scan"}, "is_reserved": 0, "fusion_lon": 0.0, "fusion_lat": 0.0, "lon": -76.99505766666667, "name": "dd18524c210f78e21dca44321d74de17"}, {"bike_id": "e6c05303fa3946b7529c95552a10d21c", "type": "electric_scooter", "is_disabled": 0, "lat": 38.9182785, "rental_uris": {"ios": "https://dc.lft.to/lastmile_qr_scan", "android": "https://dc.lft.to/lastmile_qr_scan"}, "is_reserved": 0, "fusion_lon": 0.0, "fusion_lat": 0.0, "lon": -77.04556766666667, "name": "e6c05303fa3946b7529c95552a10d21c"}, {"bike_id": "87739d98198b0f234fe969b913dded31", "type": "electric_scooter", "is_disabled": 0, "lat": 38.9203465, "rental_uris": {"ios": "https://dc.lft.to/lastmile_qr_scan", "android": "https://dc.lft.to/lastmile_qr_scan"}, "is_reserved": 0, "fusion_lon": 0.0, "fusion_lat": 0.0, "lon": -77.03129166666666, "name": "87739d98198b0f234fe969b913dded31"}, {"bike_id": "b0b2c5c9e9a472b2639f19c52caab546", "type": "electric_scooter", "is_disabled": 0, "lat": 38.927805, "rental_uris": {"ios": "https://dc.lft.to/lastmile_qr_scan", "android": "https://dc.lft.to/lastmile_qr_scan"}, "is_reserved": 0, "fusion_lon": 0.0, "fusion_lat": 0.0, "lon": -77.0540885, "name": "b0b2c5c9e9a472b2639f19c52caab546"}, {"bike_id": "0465801c8ee7079bc46564ceb90ecf1a", "type": "electric_scooter", "is_disabled": 0, "lat": 38.90713083333333, "rental_uris": {"ios": "https://dc.lft.to/lastmile_qr_scan", "android": "https://dc.lft.to/lastmile_qr_scan"}, "is_reserved": 0, "fusion_lon": 0.0, "fusion_lat": 0.0, "lon": -77.00961783333334, "name": "0465801c8ee7079bc46564ceb90ecf1a"}, {"bike_id": "dc1effcd7c2fc61f07930848e3a32a3b", "type": "electric_scooter", "is_disabled": 0, "lat": 38.911808, "rental_uris": {"ios": "https://dc.lft.to/lastmile_qr_scan", "android": "https://dc.lft.to/lastmile_qr_scan"}, "is_reserved": 0, "fusion_lon": 0.0, "fusion_lat": 0.0, "lon": -77.0456405, "name": "dc1effcd7c2fc61f07930848e3a32a3b"}, {"bike_id": "fdac25b2ebc27b73a96778da64ebbc43", "type": "electric_scooter", "is_disabled": 0, "lat": 38.92351433333333, "rental_uris": {"ios": "https://dc.lft.to/lastmile_qr_scan", "android": "https://dc.lft.to/lastmile_qr_scan"}, "is_reserved": 0, "fusion_lon": 0.0, "fusion_lat": 0.0, "lon": -77.04148116666667, "name": "fdac25b2ebc27b73a96778da64ebbc43"}, {"bike_id": "df3bc4c7475b1a1e68f9fed14e434b5f", "type": "electric_scooter", "is_disabled": 0, "lat": 38.905255833333335, "rental_uris": {"ios": "https://dc.lft.to/lastmile_qr_scan", "android": "https://dc.lft.to/lastmile_qr_scan"}, "is_reserved": 0, "fusion_lon": 0.0, "fusion_lat": 0.0, "lon": -77.04163916666667, "name": "df3bc4c7475b1a1e68f9fed14e434b5f"}, {"bike_id": "a3b95267357488f6a1ed2fd3c42578f5", "type": "electric_scooter", "is_disabled": 0, "lat": 38.90509083333333, "rental_uris": {"ios": "https://dc.lft.to/lastmile_qr_scan", "android": "https://dc.lft.to/lastmile_qr_scan"}, "is_reserved": 0, "fusion_lon": 0.0, "fusion_lat": 0.0, "lon": -77.061967, "name": "a3b95267357488f6a1ed2fd3c42578f5"}, {"bike_id": "5f344c6a91f8402050b7110660d764e2", "type": "electric_scooter", "is_disabled": 0, "lat": 38.90946266666667, "rental_uris": {"ios": "https://dc.lft.to/lastmile_qr_scan", "android": "https://dc.lft.to/lastmile_qr_scan"}, "is_reserved": 0, "fusion_lon": 0.0, "fusion_lat": 0.0, "lon": -77.03447166666666, "name": "5f344c6a91f8402050b7110660d764e2"}, {"bike_id": "78c58bd5fd09056014f07ff1cfe26235", "type": "electric_scooter", "is_disabled": 0, "lat": 38.90406816666667, "rental_uris": {"ios": "https://dc.lft.to/lastmile_qr_scan", "android": "https://dc.lft.to/lastmile_qr_scan"}, "is_reserved": 0, "fusion_lon": 0.0, "fusion_lat": 0.0, "lon": -77.00586116666666, "name": "78c58bd5fd09056014f07ff1cfe26235"}, {"bike_id": "3a880745850dc95903ee70ba8f725751", "type": "electric_scooter", "is_disabled": 0, "lat": 38.920245666666666, "rental_uris": {"ios": "https://dc.lft.to/lastmile_qr_scan", "android": "https://dc.lft.to/lastmile_qr_scan"}, "is_reserved": 0, "fusion_lon": 0.0, "fusion_lat": 0.0, "lon": -77.03180483333334, "name": "3a880745850dc95903ee70ba8f725751"}, {"bike_id": "6c530e62981e96ad80ec0a2a70205894", "type": "electric_bike", "is_disabled": 0, "lat": 38.86191016666667, "rental_uris": {"ios": "https://dc.lft.to/lastmile_qr_scan", "android": "https://dc.lft.to/lastmile_qr_scan"}, "is_reserved": 0, "fusion_lon": 0.0, "fusion_lat": 0.0, "lon": -76.94804016666667, "name": "6c530e62981e96ad80ec0a2a70205894"}, {"bike_id": "816d0154ededfbfc05e8cab49bd0f31d", "type": "electric_scooter", "is_disabled": 0, "lat": 38.931014833333336, "rental_uris": {"ios": "https://dc.lft.to/lastmile_qr_scan", "android": "https://dc.lft.to/lastmile_qr_scan"}, "is_reserved": 0, "fusion_lon": 0.0, "fusion_lat": 0.0, "lon": -77.02668116666666, "name": "816d0154ededfbfc05e8cab49bd0f31d"}, {"bike_id": "e6f2454a31f2384b38d8faba577d7953", "type": "electric_scooter", "is_disabled": 0, "lat": 38.91801533333334, "rental_uris": {"ios": "https://dc.lft.to/lastmile_qr_scan", "android": "https://dc.lft.to/lastmile_qr_scan"}, "is_reserved": 0, "fusion_lon": 0.0, "fusion_lat": 0.0, "lon": -77.0344465, "name": "e6f2454a31f2384b38d8faba577d7953"}, {"bike_id": "5de4483cd6d8bf8ab7a9a788f256d01e", "type": "electric_scooter", "is_disabled": 0, "lat": 38.896195, "rental_uris": {"ios": "https://dc.lft.to/lastmile_qr_scan", "android": "https://dc.lft.to/lastmile_qr_scan"}, "is_reserved": 0, "fusion_lon": 0.0, "fusion_lat": 0.0, "lon": -76.98569716666667, "name": "5de4483cd6d8bf8ab7a9a788f256d01e"}, {"bike_id": "bd37a90a185d9470c494a23c24d02599", "type": "electric_scooter", "is_disabled": 0, "lat": 38.9509295, "rental_uris": {"ios": "https://dc.lft.to/lastmile_qr_scan", "android": "https://dc.lft.to/lastmile_qr_scan"}, "is_reserved": 0, "fusion_lon": 0.0, "fusion_lat": 0.0, "lon": -77.02960566666667, "name": "bd37a90a185d9470c494a23c24d02599"}, {"bike_id": "8cf18030e4a774bc8a00758724054695", "type": "electric_scooter", "is_disabled": 0, "lat": 38.90175283333333, "rental_uris": {"ios": "https://dc.lft.to/lastmile_qr_scan", "android": "https://dc.lft.to/lastmile_qr_scan"}, "is_reserved": 0, "fusion_lon": 0.0, "fusion_lat": 0.0, "lon": -77.00855566666667, "name": "8cf18030e4a774bc8a00758724054695"}, {"bike_id": "1fe59cd88ca66d79bfb6f30cd0c96dee", "type": "electric_scooter", "is_disabled": 0, "lat": 38.905189666666665, "rental_uris": {"ios": "https://dc.lft.to/lastmile_qr_scan", "android": "https://dc.lft.to/lastmile_qr_scan"}, "is_reserved": 0, "fusion_lon": 0.0, "fusion_lat": 0.0, "lon": -77.02972883333334, "name": "1fe59cd88ca66d79bfb6f30cd0c96dee"}, {"bike_id": "42367b0834c048caecfa9d2ea3bf3d3c", "type": "electric_scooter", "is_disabled": 0, "lat": 38.946199166666666, "rental_uris": {"ios": "https://dc.lft.to/lastmile_qr_scan", "android": "https://dc.lft.to/lastmile_qr_scan"}, "is_reserved": 0, "fusion_lon": 0.0, "fusion_lat": 0.0, "lon": -77.0264845, "name": "42367b0834c048caecfa9d2ea3bf3d3c"}, {"bike_id": "d037583940fe98956a8507864d6786ed", "type": "electric_scooter", "is_disabled": 0, "lat": 38.90816316666667, "rental_uris": {"ios": "https://dc.lft.to/lastmile_qr_scan", "android": "https://dc.lft.to/lastmile_qr_scan"}, "is_reserved": 0, "fusion_lon": 0.0, "fusion_lat": 0.0, "lon": -77.03460483333333, "name": "d037583940fe98956a8507864d6786ed"}, {"bike_id": "47c31f045eec4a229cccd89766b015d9", "type": "electric_scooter", "is_disabled": 0, "lat": 38.89254583333334, "rental_uris": {"ios": "https://dc.lft.to/lastmile_qr_scan", "android": "https://dc.lft.to/lastmile_qr_scan"}, "is_reserved": 0, "fusion_lon": 0.0, "fusion_lat": 0.0, "lon": -77.046759, "name": "47c31f045eec4a229cccd89766b015d9"}, {"bike_id": "6f19cc8715acdd3e335e3075af24fc87", "type": "electric_scooter", "is_disabled": 0, "lat": 38.92605016666667, "rental_uris": {"ios": "https://dc.lft.to/lastmile_qr_scan", "android": "https://dc.lft.to/lastmile_qr_scan"}, "is_reserved": 0, "fusion_lon": 0.0, "fusion_lat": 0.0, "lon": -77.10246, "name": "6f19cc8715acdd3e335e3075af24fc87"}, {"bike_id": "fa3bfcc695d19eafaf67d54d75cfa33e", "type": "electric_scooter", "is_disabled": 0, "lat": 38.922421666666665, "rental_uris": {"ios": "https://dc.lft.to/lastmile_qr_scan", "android": "https://dc.lft.to/lastmile_qr_scan"}, "is_reserved": 0, "fusion_lon": 0.0, "fusion_lat": 0.0, "lon": -77.0437295, "name": "fa3bfcc695d19eafaf67d54d75cfa33e"}, {"bike_id": "9b61791954b00083ecec3e9fb0e33082", "type": "electric_scooter", "is_disabled": 0, "lat": 38.936974666666664, "rental_uris": {"ios": "https://dc.lft.to/lastmile_qr_scan", "android": "https://dc.lft.to/lastmile_qr_scan"}, "is_reserved": 0, "fusion_lon": 0.0, "fusion_lat": 0.0, "lon": -77.0327925, "name": "9b61791954b00083ecec3e9fb0e33082"}, {"bike_id": "109fd6e70ddcde540d0f46a41b6b3386", "type": "electric_scooter", "is_disabled": 0, "lat": 38.90123716666667, "rental_uris": {"ios": "https://dc.lft.to/lastmile_qr_scan", "android": "https://dc.lft.to/lastmile_qr_scan"}, "is_reserved": 0, "fusion_lon": 0.0, "fusion_lat": 0.0, "lon": -77.05087416666667, "name": "109fd6e70ddcde540d0f46a41b6b3386"}, {"bike_id": "6243912aaada17af63148d5c4b1fac3d", "type": "electric_scooter", "is_disabled": 0, "lat": 38.96403883333333, "rental_uris": {"ios": "https://dc.lft.to/lastmile_qr_scan", "android": "https://dc.lft.to/lastmile_qr_scan"}, "is_reserved": 0, "fusion_lon": 0.0, "fusion_lat": 0.0, "lon": -77.02769716666667, "name": "6243912aaada17af63148d5c4b1fac3d"}, {"bike_id": "3627f45d9b18d6fb8bc8e3435ac511f5", "type": "electric_bike", "is_disabled": 0, "lat": 38.9662015, "rental_uris": {"ios": "https://dc.lft.to/lastmile_qr_scan", "android": "https://dc.lft.to/lastmile_qr_scan"}, "is_reserved": 0, "fusion_lon": 0.0, "fusion_lat": 0.0, "lon": -77.0342565, "name": "3627f45d9b18d6fb8bc8e3435ac511f5"}, {"bike_id": "8c249a89e7a0e44bda76a081f40acd12", "type": "electric_scooter", "is_disabled": 0, "lat": 38.9002025, "rental_uris": {"ios": "https://dc.lft.to/lastmile_qr_scan", "android": "https://dc.lft.to/lastmile_qr_scan"}, "is_reserved": 0, "fusion_lon": 0.0, "fusion_lat": 0.0, "lon": -77.0239065, "name": "8c249a89e7a0e44bda76a081f40acd12"}, {"bike_id": "bccc8cdaf4b0691afcf82c6bc64c6ba9", "type": "electric_scooter", "is_disabled": 0, "lat": 38.911541166666666, "rental_uris": {"ios": "https://dc.lft.to/lastmile_qr_scan", "android": "https://dc.lft.to/lastmile_qr_scan"}, "is_reserved": 0, "fusion_lon": 0.0, "fusion_lat": 0.0, "lon": -77.02284666666667, "name": "bccc8cdaf4b0691afcf82c6bc64c6ba9"}, {"bike_id": "42102dc90f8c691b61b79663915428f1", "type": "electric_scooter", "is_disabled": 0, "lat": 38.900651333333336, "rental_uris": {"ios": "https://dc.lft.to/lastmile_qr_scan", "android": "https://dc.lft.to/lastmile_qr_scan"}, "is_reserved": 0, "fusion_lon": 0.0, "fusion_lat": 0.0, "lon": -76.927453, "name": "42102dc90f8c691b61b79663915428f1"}, {"bike_id": "ebf6f63666ec0d9abc31c7d105674650", "type": "electric_scooter", "is_disabled": 0, "lat": 38.92156116666666, "rental_uris": {"ios": "https://dc.lft.to/lastmile_qr_scan", "android": "https://dc.lft.to/lastmile_qr_scan"}, "is_reserved": 0, "fusion_lon": 0.0, "fusion_lat": 0.0, "lon": -77.02711483333333, "name": "ebf6f63666ec0d9abc31c7d105674650"}, {"bike_id": "7769de2c3bbe57f87923b55ed3cc80f8", "type": "electric_bike", "is_disabled": 0, "lat": 38.9082815, "rental_uris": {"ios": "https://dc.lft.to/lastmile_qr_scan", "android": "https://dc.lft.to/lastmile_qr_scan"}, "is_reserved": 0, "fusion_lon": 0.0, "fusion_lat": 0.0, "lon": -76.94154366666666, "name": "7769de2c3bbe57f87923b55ed3cc80f8"}, {"bike_id": "cb37105dee0bc610af30535b280e4399", "type": "electric_bike", "is_disabled": 0, "lat": 39.054966666666665, "rental_uris": {"ios": "https://dc.lft.to/lastmile_qr_scan", "android": "https://dc.lft.to/lastmile_qr_scan"}, "is_reserved": 0, "fusion_lon": 0.0, "fusion_lat": 0.0, "lon": -77.11790016666667, "name": "cb37105dee0bc610af30535b280e4399"}, {"bike_id": "d20a807505b928853561b3a8ba38a04d", "type": "electric_scooter", "is_disabled": 0, "lat": 38.94125733333333, "rental_uris": {"ios": "https://dc.lft.to/lastmile_qr_scan", "android": "https://dc.lft.to/lastmile_qr_scan"}, "is_reserved": 0, "fusion_lon": 0.0, "fusion_lat": 0.0, "lon": -77.01544, "name": "d20a807505b928853561b3a8ba38a04d"}, {"bike_id": "45f08f4b289e0745312675b3c239a92a", "type": "electric_scooter", "is_disabled": 0, "lat": 38.906583833333336, "rental_uris": {"ios": "https://dc.lft.to/lastmile_qr_scan", "android": "https://dc.lft.to/lastmile_qr_scan"}, "is_reserved": 0, "fusion_lon": 0.0, "fusion_lat": 0.0, "lon": -77.00912283333334, "name": "45f08f4b289e0745312675b3c239a92a"}, {"bike_id": "80c0d213dfcff20b729ed7e961d688f6", "type": "electric_scooter", "is_disabled": 0, "lat": 38.9040315, "rental_uris": {"ios": "https://dc.lft.to/lastmile_qr_scan", "android": "https://dc.lft.to/lastmile_qr_scan"}, "is_reserved": 0, "fusion_lon": 0.0, "fusion_lat": 0.0, "lon": -77.0058245, "name": "80c0d213dfcff20b729ed7e961d688f6"}, {"bike_id": "7cdf1689307f5f70321f6a8ea5f806b3", "type": "electric_bike", "is_disabled": 0, "lat": 39.037471333333336, "rental_uris": {"ios": "https://dc.lft.to/lastmile_qr_scan", "android": "https://dc.lft.to/lastmile_qr_scan"}, "is_reserved": 0, "fusion_lon": 0.0, "fusion_lat": 0.0, "lon": -77.05484816666667, "name": "7cdf1689307f5f70321f6a8ea5f806b3"}, {"bike_id": "a7527e604de543d2984d8c5ef1ea6b3e", "type": "electric_scooter", "is_disabled": 0, "lat": 38.928715, "rental_uris": {"ios": "https://dc.lft.to/lastmile_qr_scan", "android": "https://dc.lft.to/lastmile_qr_scan"}, "is_reserved": 0, "fusion_lon": 0.0, "fusion_lat": 0.0, "lon": -77.01381233333333, "name": "a7527e604de543d2984d8c5ef1ea6b3e"}, {"bike_id": "ecccf866dea0612f68ae5f66cb2f3d8a", "type": "electric_scooter", "is_disabled": 0, "lat": 38.90538466666667, "rental_uris": {"ios": "https://dc.lft.to/lastmile_qr_scan", "android": "https://dc.lft.to/lastmile_qr_scan"}, "is_reserved": 0, "fusion_lon": 0.0, "fusion_lat": 0.0, "lon": -77.06903066666666, "name": "ecccf866dea0612f68ae5f66cb2f3d8a"}, {"bike_id": "0f9b3153045f19054c4b1f8e777c8113", "type": "electric_scooter", "is_disabled": 0, "lat": 38.90759383333334, "rental_uris": {"ios": "https://dc.lft.to/lastmile_qr_scan", "android": "https://dc.lft.to/lastmile_qr_scan"}, "is_reserved": 0, "fusion_lon": 0.0, "fusion_lat": 0.0, "lon": -77.04338966666667, "name": "0f9b3153045f19054c4b1f8e777c8113"}, {"bike_id": "7df11e554237b6bfd7d49410889e7ec6", "type": "electric_scooter", "is_disabled": 0, "lat": 38.914001666666664, "rental_uris": {"ios": "https://dc.lft.to/lastmile_qr_scan", "android": "https://dc.lft.to/lastmile_qr_scan"}, "is_reserved": 0, "fusion_lon": 0.0, "fusion_lat": 0.0, "lon": -77.02210116666667, "name": "7df11e554237b6bfd7d49410889e7ec6"}, {"bike_id": "f5f2ec6bdfd263d6024b34457b93c55a", "type": "electric_scooter", "is_disabled": 0, "lat": 38.907364, "rental_uris": {"ios": "https://dc.lft.to/lastmile_qr_scan", "android": "https://dc.lft.to/lastmile_qr_scan"}, "is_reserved": 0, "fusion_lon": 0.0, "fusion_lat": 0.0, "lon": -77.01137083333333, "name": "f5f2ec6bdfd263d6024b34457b93c55a"}, {"bike_id": "9226771042e186fd1da81f40f945547b", "type": "electric_scooter", "is_disabled": 0, "lat": 38.92534583333333, "rental_uris": {"ios": "https://dc.lft.to/lastmile_qr_scan", "android": "https://dc.lft.to/lastmile_qr_scan"}, "is_reserved": 0, "fusion_lon": 0.0, "fusion_lat": 0.0, "lon": -77.04272616666667, "name": "9226771042e186fd1da81f40f945547b"}, {"bike_id": "23a9218e6034b5774922dc160e1c7be2", "type": "electric_scooter", "is_disabled": 0, "lat": 38.90590433333333, "rental_uris": {"ios": "https://dc.lft.to/lastmile_qr_scan", "android": "https://dc.lft.to/lastmile_qr_scan"}, "is_reserved": 0, "fusion_lon": 0.0, "fusion_lat": 0.0, "lon": -77.00334283333333, "name": "23a9218e6034b5774922dc160e1c7be2"}, {"bike_id": "b6a00c9c8145bc817922f757e7383da3", "type": "electric_scooter", "is_disabled": 0, "lat": 38.92126066666667, "rental_uris": {"ios": "https://dc.lft.to/lastmile_qr_scan", "android": "https://dc.lft.to/lastmile_qr_scan"}, "is_reserved": 0, "fusion_lon": 0.0, "fusion_lat": 0.0, "lon": -76.99248, "name": "b6a00c9c8145bc817922f757e7383da3"}, {"bike_id": "d7670aa64fc83d795f848bd874d0b17b", "type": "electric_scooter", "is_disabled": 0, "lat": 38.91327066666667, "rental_uris": {"ios": "https://dc.lft.to/lastmile_qr_scan", "android": "https://dc.lft.to/lastmile_qr_scan"}, "is_reserved": 0, "fusion_lon": 0.0, "fusion_lat": 0.0, "lon": -77.03171616666667, "name": "d7670aa64fc83d795f848bd874d0b17b"}, {"bike_id": "dd79484e2ebdcceca262445f87c1b420", "type": "electric_scooter", "is_disabled": 0, "lat": 38.97236983333333, "rental_uris": {"ios": "https://dc.lft.to/lastmile_qr_scan", "android": "https://dc.lft.to/lastmile_qr_scan"}, "is_reserved": 0, "fusion_lon": 0.0, "fusion_lat": 0.0, "lon": -77.0271425, "name": "dd79484e2ebdcceca262445f87c1b420"}, {"bike_id": "12ee875bbe48a85460ba39eda612d2e7", "type": "electric_scooter", "is_disabled": 0, "lat": 38.91768116666667, "rental_uris": {"ios": "https://dc.lft.to/lastmile_qr_scan", "android": "https://dc.lft.to/lastmile_qr_scan"}, "is_reserved": 0, "fusion_lon": 0.0, "fusion_lat": 0.0, "lon": -77.03458616666667, "name": "12ee875bbe48a85460ba39eda612d2e7"}, {"bike_id": "2f52721859c28692d533f35b0b1c953a", "type": "electric_scooter", "is_disabled": 0, "lat": 38.8974605, "rental_uris": {"ios": "https://dc.lft.to/lastmile_qr_scan", "android": "https://dc.lft.to/lastmile_qr_scan"}, "is_reserved": 0, "fusion_lon": 0.0, "fusion_lat": 0.0, "lon": -77.021206, "name": "2f52721859c28692d533f35b0b1c953a"}, {"bike_id": "2e0b7aa92b2a54d4a04412bffaf97716", "type": "electric_scooter", "is_disabled": 0, "lat": 38.92455533333333, "rental_uris": {"ios": "https://dc.lft.to/lastmile_qr_scan", "android": "https://dc.lft.to/lastmile_qr_scan"}, "is_reserved": 0, "fusion_lon": 0.0, "fusion_lat": 0.0, "lon": -77.05220633333333, "name": "2e0b7aa92b2a54d4a04412bffaf97716"}, {"bike_id": "2461e393111b03dd7f1d4763a7384aba", "type": "electric_bike", "is_disabled": 0, "lat": 38.87556583333333, "rental_uris": {"ios": "https://dc.lft.to/lastmile_qr_scan", "android": "https://dc.lft.to/lastmile_qr_scan"}, "is_reserved": 0, "fusion_lon": 0.0, "fusion_lat": 0.0, "lon": -76.96503516666667, "name": "2461e393111b03dd7f1d4763a7384aba"}, {"bike_id": "c74bb008d505d8afcc9d38fd17be11ec", "type": "electric_scooter", "is_disabled": 0, "lat": 38.925284833333336, "rental_uris": {"ios": "https://dc.lft.to/lastmile_qr_scan", "android": "https://dc.lft.to/lastmile_qr_scan"}, "is_reserved": 0, "fusion_lon": 0.0, "fusion_lat": 0.0, "lon": -77.02257333333333, "name": "c74bb008d505d8afcc9d38fd17be11ec"}, {"bike_id": "2079d3d1d4a1dec972a447d9ffe7fb4a", "type": "electric_scooter", "is_disabled": 0, "lat": 38.879357166666665, "rental_uris": {"ios": "https://dc.lft.to/lastmile_qr_scan", "android": "https://dc.lft.to/lastmile_qr_scan"}, "is_reserved": 0, "fusion_lon": 0.0, "fusion_lat": 0.0, "lon": -77.00433733333334, "name": "2079d3d1d4a1dec972a447d9ffe7fb4a"}, {"bike_id": "f0fbf7306de4ff001b41967d8bfd49f6", "type": "electric_scooter", "is_disabled": 0, "lat": 38.91946183333334, "rental_uris": {"ios": "https://dc.lft.to/lastmile_qr_scan", "android": "https://dc.lft.to/lastmile_qr_scan"}, "is_reserved": 0, "fusion_lon": 0.0, "fusion_lat": 0.0, "lon": -77.04578616666667, "name": "f0fbf7306de4ff001b41967d8bfd49f6"}, {"bike_id": "5145741a369b8d24acda5b01254580e3", "type": "electric_scooter", "is_disabled": 0, "lat": 38.90644283333334, "rental_uris": {"ios": "https://dc.lft.to/lastmile_qr_scan", "android": "https://dc.lft.to/lastmile_qr_scan"}, "is_reserved": 0, "fusion_lon": 0.0, "fusion_lat": 0.0, "lon": -77.05323666666666, "name": "5145741a369b8d24acda5b01254580e3"}, {"bike_id": "c54b3118e68959bb65f4dfcb839779de", "type": "electric_scooter", "is_disabled": 0, "lat": 38.911122, "rental_uris": {"ios": "https://dc.lft.to/lastmile_qr_scan", "android": "https://dc.lft.to/lastmile_qr_scan"}, "is_reserved": 0, "fusion_lon": 0.0, "fusion_lat": 0.0, "lon": -77.03844016666666, "name": "c54b3118e68959bb65f4dfcb839779de"}, {"bike_id": "0c37e677e6a9ee4235013749853114a6", "type": "electric_scooter", "is_disabled": 0, "lat": 38.93213883333333, "rental_uris": {"ios": "https://dc.lft.to/lastmile_qr_scan", "android": "https://dc.lft.to/lastmile_qr_scan"}, "is_reserved": 0, "fusion_lon": 0.0, "fusion_lat": 0.0, "lon": -77.03351266666667, "name": "0c37e677e6a9ee4235013749853114a6"}, {"bike_id": "d3729f54c771ef1fb6df31d437207079", "type": "electric_scooter", "is_disabled": 0, "lat": 38.8780785, "rental_uris": {"ios": "https://dc.lft.to/lastmile_qr_scan", "android": "https://dc.lft.to/lastmile_qr_scan"}, "is_reserved": 0, "fusion_lon": 0.0, "fusion_lat": 0.0, "lon": -76.93085566666667, "name": "d3729f54c771ef1fb6df31d437207079"}, {"bike_id": "11c2e618e6dfb264fe0966c91d2de73e", "type": "electric_scooter", "is_disabled": 0, "lat": 38.916312, "rental_uris": {"ios": "https://dc.lft.to/lastmile_qr_scan", "android": "https://dc.lft.to/lastmile_qr_scan"}, "is_reserved": 0, "fusion_lon": 0.0, "fusion_lat": 0.0, "lon": -77.0372915, "name": "11c2e618e6dfb264fe0966c91d2de73e"}, {"bike_id": "7b6234d8bd2b82eb27840792e0da3a22", "type": "electric_scooter", "is_disabled": 0, "lat": 38.904985333333336, "rental_uris": {"ios": "https://dc.lft.to/lastmile_qr_scan", "android": "https://dc.lft.to/lastmile_qr_scan"}, "is_reserved": 0, "fusion_lon": 0.0, "fusion_lat": 0.0, "lon": -77.06122066666667, "name": "7b6234d8bd2b82eb27840792e0da3a22"}, {"bike_id": "8ed131839464dd3093986d5664b7c835", "type": "electric_scooter", "is_disabled": 0, "lat": 38.9155495, "rental_uris": {"ios": "https://dc.lft.to/lastmile_qr_scan", "android": "https://dc.lft.to/lastmile_qr_scan"}, "is_reserved": 0, "fusion_lon": 0.0, "fusion_lat": 0.0, "lon": -77.0386405, "name": "8ed131839464dd3093986d5664b7c835"}, {"bike_id": "69ed2cb7dca1a1dc000e1936de232bb8", "type": "electric_scooter", "is_disabled": 0, "lat": 38.902598833333336, "rental_uris": {"ios": "https://dc.lft.to/lastmile_qr_scan", "android": "https://dc.lft.to/lastmile_qr_scan"}, "is_reserved": 0, "fusion_lon": 0.0, "fusion_lat": 0.0, "lon": -77.00333166666667, "name": "69ed2cb7dca1a1dc000e1936de232bb8"}, {"bike_id": "ea08407f41ae0360dcb46a73fe764db5", "type": "electric_scooter", "is_disabled": 0, "lat": 38.924836166666665, "rental_uris": {"ios": "https://dc.lft.to/lastmile_qr_scan", "android": "https://dc.lft.to/lastmile_qr_scan"}, "is_reserved": 0, "fusion_lon": 0.0, "fusion_lat": 0.0, "lon": -77.021947, "name": "ea08407f41ae0360dcb46a73fe764db5"}, {"bike_id": "e6a2a514aeea7a6ea6237b1d13b8ebff", "type": "electric_scooter", "is_disabled": 0, "lat": 38.9238225, "rental_uris": {"ios": "https://dc.lft.to/lastmile_qr_scan", "android": "https://dc.lft.to/lastmile_qr_scan"}, "is_reserved": 0, "fusion_lon": 0.0, "fusion_lat": 0.0, "lon": -77.02691766666666, "name": "e6a2a514aeea7a6ea6237b1d13b8ebff"}, {"bike_id": "2ded446e007cfed7f410d20046a6da62", "type": "electric_scooter", "is_disabled": 0, "lat": 38.935308166666665, "rental_uris": {"ios": "https://dc.lft.to/lastmile_qr_scan", "android": "https://dc.lft.to/lastmile_qr_scan"}, "is_reserved": 0, "fusion_lon": 0.0, "fusion_lat": 0.0, "lon": -77.02351216666666, "name": "2ded446e007cfed7f410d20046a6da62"}, {"bike_id": "35e3463679a0b7414148c1ea506e9b0f", "type": "electric_bike", "is_disabled": 0, "lat": 38.97880966666666, "rental_uris": {"ios": "https://dc.lft.to/lastmile_qr_scan", "android": "https://dc.lft.to/lastmile_qr_scan"}, "is_reserved": 0, "fusion_lon": 0.0, "fusion_lat": 0.0, "lon": -77.06026066666666, "name": "35e3463679a0b7414148c1ea506e9b0f"}, {"bike_id": "6b213c84ffa11cd99fa22bb62c676288", "type": "electric_scooter", "is_disabled": 0, "lat": 38.91608566666667, "rental_uris": {"ios": "https://dc.lft.to/lastmile_qr_scan", "android": "https://dc.lft.to/lastmile_qr_scan"}, "is_reserved": 0, "fusion_lon": 0.0, "fusion_lat": 0.0, "lon": -77.04506866666667, "name": "6b213c84ffa11cd99fa22bb62c676288"}, {"bike_id": "fda12a62ddd7bf9dc0286f195dbce878", "type": "electric_scooter", "is_disabled": 0, "lat": 38.944936, "rental_uris": {"ios": "https://dc.lft.to/lastmile_qr_scan", "android": "https://dc.lft.to/lastmile_qr_scan"}, "is_reserved": 0, "fusion_lon": 0.0, "fusion_lat": 0.0, "lon": -77.0262015, "name": "fda12a62ddd7bf9dc0286f195dbce878"}, {"bike_id": "7a3ee366187dd10954ad91e1aa131b76", "type": "electric_scooter", "is_disabled": 0, "lat": 38.914747166666665, "rental_uris": {"ios": "https://dc.lft.to/lastmile_qr_scan", "android": "https://dc.lft.to/lastmile_qr_scan"}, "is_reserved": 0, "fusion_lon": 0.0, "fusion_lat": 0.0, "lon": -77.00917183333334, "name": "7a3ee366187dd10954ad91e1aa131b76"}, {"bike_id": "2ff33d2e5ab7760f4a83a6eee3f117ab", "type": "electric_scooter", "is_disabled": 0, "lat": 38.903851, "rental_uris": {"ios": "https://dc.lft.to/lastmile_qr_scan", "android": "https://dc.lft.to/lastmile_qr_scan"}, "is_reserved": 0, "fusion_lon": 0.0, "fusion_lat": 0.0, "lon": -77.04828, "name": "2ff33d2e5ab7760f4a83a6eee3f117ab"}, {"bike_id": "d8ce32dbd4a10b2c16f9a7ee1c780743", "type": "electric_scooter", "is_disabled": 0, "lat": 38.90986683333333, "rental_uris": {"ios": "https://dc.lft.to/lastmile_qr_scan", "android": "https://dc.lft.to/lastmile_qr_scan"}, "is_reserved": 0, "fusion_lon": 0.0, "fusion_lat": 0.0, "lon": -77.0384485, "name": "d8ce32dbd4a10b2c16f9a7ee1c780743"}, {"bike_id": "119ba37ad8452a9f16490d0c59dbf21b", "type": "electric_scooter", "is_disabled": 0, "lat": 38.897323666666665, "rental_uris": {"ios": "https://dc.lft.to/lastmile_qr_scan", "android": "https://dc.lft.to/lastmile_qr_scan"}, "is_reserved": 0, "fusion_lon": 0.0, "fusion_lat": 0.0, "lon": -77.05476316666666, "name": "119ba37ad8452a9f16490d0c59dbf21b"}, {"bike_id": "27cfa916a586d005348dac69cf8e50ab", "type": "electric_scooter", "is_disabled": 0, "lat": 38.906450666666665, "rental_uris": {"ios": "https://dc.lft.to/lastmile_qr_scan", "android": "https://dc.lft.to/lastmile_qr_scan"}, "is_reserved": 0, "fusion_lon": 0.0, "fusion_lat": 0.0, "lon": -76.98586366666666, "name": "27cfa916a586d005348dac69cf8e50ab"}, {"bike_id": "f8c447e164146cd7b153203debc1f387", "type": "electric_scooter", "is_disabled": 0, "lat": 38.92217466666666, "rental_uris": {"ios": "https://dc.lft.to/lastmile_qr_scan", "android": "https://dc.lft.to/lastmile_qr_scan"}, "is_reserved": 0, "fusion_lon": 0.0, "fusion_lat": 0.0, "lon": -77.034602, "name": "f8c447e164146cd7b153203debc1f387"}, {"bike_id": "432744448579aa29424a8f9d1c88c2a1", "type": "electric_scooter", "is_disabled": 0, "lat": 38.90258866666667, "rental_uris": {"ios": "https://dc.lft.to/lastmile_qr_scan", "android": "https://dc.lft.to/lastmile_qr_scan"}, "is_reserved": 0, "fusion_lon": 0.0, "fusion_lat": 0.0, "lon": -76.9755105, "name": "432744448579aa29424a8f9d1c88c2a1"}, {"bike_id": "d9fd9d1b66712e519ecd53876f315ef7", "type": "electric_scooter", "is_disabled": 0, "lat": 38.90775033333333, "rental_uris": {"ios": "https://dc.lft.to/lastmile_qr_scan", "android": "https://dc.lft.to/lastmile_qr_scan"}, "is_reserved": 0, "fusion_lon": 0.0, "fusion_lat": 0.0, "lon": -77.03850933333334, "name": "d9fd9d1b66712e519ecd53876f315ef7"}, {"bike_id": "95c20f9e5c1b6725eea6a58aae3f07d9", "type": "electric_scooter", "is_disabled": 0, "lat": 38.88526533333334, "rental_uris": {"ios": "https://dc.lft.to/lastmile_qr_scan", "android": "https://dc.lft.to/lastmile_qr_scan"}, "is_reserved": 0, "fusion_lon": 0.0, "fusion_lat": 0.0, "lon": -77.0113905, "name": "95c20f9e5c1b6725eea6a58aae3f07d9"}, {"bike_id": "978ecf726d7b300422e8e947347f2647", "type": "electric_scooter", "is_disabled": 0, "lat": 38.961400833333336, "rental_uris": {"ios": "https://dc.lft.to/lastmile_qr_scan", "android": "https://dc.lft.to/lastmile_qr_scan"}, "is_reserved": 0, "fusion_lon": 0.0, "fusion_lat": 0.0, "lon": -77.0298815, "name": "978ecf726d7b300422e8e947347f2647"}, {"bike_id": "1b13cdc08c22630cc36f01dc168c3738", "type": "electric_scooter", "is_disabled": 0, "lat": 38.902304, "rental_uris": {"ios": "https://dc.lft.to/lastmile_qr_scan", "android": "https://dc.lft.to/lastmile_qr_scan"}, "is_reserved": 0, "fusion_lon": 0.0, "fusion_lat": 0.0, "lon": -77.00198483333334, "name": "1b13cdc08c22630cc36f01dc168c3738"}, {"bike_id": "0c7c1557aca3cd728d59c71e355f6a24", "type": "electric_bike", "is_disabled": 0, "lat": 39.0399065, "rental_uris": {"ios": "https://dc.lft.to/lastmile_qr_scan", "android": "https://dc.lft.to/lastmile_qr_scan"}, "is_reserved": 0, "fusion_lon": 0.0, "fusion_lat": 0.0, "lon": -76.9992205, "name": "0c7c1557aca3cd728d59c71e355f6a24"}, {"bike_id": "0bb3523c39bcf398eb2904504718902f", "type": "electric_scooter", "is_disabled": 0, "lat": 38.893282166666665, "rental_uris": {"ios": "https://dc.lft.to/lastmile_qr_scan", "android": "https://dc.lft.to/lastmile_qr_scan"}, "is_reserved": 0, "fusion_lon": 0.0, "fusion_lat": 0.0, "lon": -77.04879333333334, "name": "0bb3523c39bcf398eb2904504718902f"}, {"bike_id": "df6bc7ca9935be64387b3bf4e134452b", "type": "electric_scooter", "is_disabled": 0, "lat": 38.89900733333333, "rental_uris": {"ios": "https://dc.lft.to/lastmile_qr_scan", "android": "https://dc.lft.to/lastmile_qr_scan"}, "is_reserved": 0, "fusion_lon": 0.0, "fusion_lat": 0.0, "lon": -77.01525883333333, "name": "df6bc7ca9935be64387b3bf4e134452b"}, {"bike_id": "8f78ad3320f2498078ad42c5820a433f", "type": "electric_scooter", "is_disabled": 0, "lat": 38.9515215, "rental_uris": {"ios": "https://dc.lft.to/lastmile_qr_scan", "android": "https://dc.lft.to/lastmile_qr_scan"}, "is_reserved": 0, "fusion_lon": 0.0, "fusion_lat": 0.0, "lon": -77.01866733333334, "name": "8f78ad3320f2498078ad42c5820a433f"}, {"bike_id": "439158938f4ef801ea2d558ec2271393", "type": "electric_scooter", "is_disabled": 0, "lat": 38.877326, "rental_uris": {"ios": "https://dc.lft.to/lastmile_qr_scan", "android": "https://dc.lft.to/lastmile_qr_scan"}, "is_reserved": 0, "fusion_lon": 0.0, "fusion_lat": 0.0, "lon": -77.01777666666666, "name": "439158938f4ef801ea2d558ec2271393"}, {"bike_id": "87a50b5178435cf77cc62b6da4eb2620", "type": "electric_scooter", "is_disabled": 0, "lat": 38.916375, "rental_uris": {"ios": "https://dc.lft.to/lastmile_qr_scan", "android": "https://dc.lft.to/lastmile_qr_scan"}, "is_reserved": 0, "fusion_lon": 0.0, "fusion_lat": 0.0, "lon": -77.042543, "name": "87a50b5178435cf77cc62b6da4eb2620"}, {"bike_id": "860836249e363168c5b41e7837010b4a", "type": "electric_bike", "is_disabled": 0, "lat": 38.80896966666667, "rental_uris": {"ios": "https://dc.lft.to/lastmile_qr_scan", "android": "https://dc.lft.to/lastmile_qr_scan"}, "is_reserved": 0, "fusion_lon": 0.0, "fusion_lat": 0.0, "lon": -77.08647783333333, "name": "860836249e363168c5b41e7837010b4a"}, {"bike_id": "5610a7f68023096c7b88a6cb1920e54d", "type": "electric_scooter", "is_disabled": 0, "lat": 38.870697666666665, "rental_uris": {"ios": "https://dc.lft.to/lastmile_qr_scan", "android": "https://dc.lft.to/lastmile_qr_scan"}, "is_reserved": 0, "fusion_lon": 0.0, "fusion_lat": 0.0, "lon": -76.9812835, "name": "5610a7f68023096c7b88a6cb1920e54d"}, {"bike_id": "b0023124528619e05ca062994c737e0c", "type": "electric_scooter", "is_disabled": 0, "lat": 38.9212445, "rental_uris": {"ios": "https://dc.lft.to/lastmile_qr_scan", "android": "https://dc.lft.to/lastmile_qr_scan"}, "is_reserved": 0, "fusion_lon": 0.0, "fusion_lat": 0.0, "lon": -77.00923466666667, "name": "b0023124528619e05ca062994c737e0c"}, {"bike_id": "88f7abef303641e5213c6b54b99c6ad1", "type": "electric_scooter", "is_disabled": 0, "lat": 38.9002445, "rental_uris": {"ios": "https://dc.lft.to/lastmile_qr_scan", "android": "https://dc.lft.to/lastmile_qr_scan"}, "is_reserved": 0, "fusion_lon": 0.0, "fusion_lat": 0.0, "lon": -76.99858533333334, "name": "88f7abef303641e5213c6b54b99c6ad1"}, {"bike_id": "757c2b725e67735c97bf71243914618f", "type": "electric_bike", "is_disabled": 0, "lat": 38.86489133333333, "rental_uris": {"ios": "https://dc.lft.to/lastmile_qr_scan", "android": "https://dc.lft.to/lastmile_qr_scan"}, "is_reserved": 0, "fusion_lon": 0.0, "fusion_lat": 0.0, "lon": -76.97749333333333, "name": "757c2b725e67735c97bf71243914618f"}, {"bike_id": "68387844b6e0a404cc569d32b3700505", "type": "electric_scooter", "is_disabled": 0, "lat": 38.858107833333335, "rental_uris": {"ios": "https://dc.lft.to/lastmile_qr_scan", "android": "https://dc.lft.to/lastmile_qr_scan"}, "is_reserved": 0, "fusion_lon": 0.0, "fusion_lat": 0.0, "lon": -76.98922, "name": "68387844b6e0a404cc569d32b3700505"}, {"bike_id": "bbd4628ffcc04c0237f06d9d66ca1aa4", "type": "electric_scooter", "is_disabled": 0, "lat": 38.926242, "rental_uris": {"ios": "https://dc.lft.to/lastmile_qr_scan", "android": "https://dc.lft.to/lastmile_qr_scan"}, "is_reserved": 0, "fusion_lon": 0.0, "fusion_lat": 0.0, "lon": -77.0419705, "name": "bbd4628ffcc04c0237f06d9d66ca1aa4"}, {"bike_id": "1f48c4503490c25724b56fe52455279d", "type": "electric_scooter", "is_disabled": 0, "lat": 38.93424366666667, "rental_uris": {"ios": "https://dc.lft.to/lastmile_qr_scan", "android": "https://dc.lft.to/lastmile_qr_scan"}, "is_reserved": 0, "fusion_lon": 0.0, "fusion_lat": 0.0, "lon": -77.03999016666667, "name": "1f48c4503490c25724b56fe52455279d"}, {"bike_id": "84e7c8ae98a710e0a0aabea37d95c8f4", "type": "electric_scooter", "is_disabled": 0, "lat": 38.92971816666667, "rental_uris": {"ios": "https://dc.lft.to/lastmile_qr_scan", "android": "https://dc.lft.to/lastmile_qr_scan"}, "is_reserved": 0, "fusion_lon": 0.0, "fusion_lat": 0.0, "lon": -77.02823266666667, "name": "84e7c8ae98a710e0a0aabea37d95c8f4"}, {"bike_id": "34c70bb5a744d6bee103806424f60bf9", "type": "electric_bike", "is_disabled": 0, "lat": 38.80393883333333, "rental_uris": {"ios": "https://dc.lft.to/lastmile_qr_scan", "android": "https://dc.lft.to/lastmile_qr_scan"}, "is_reserved": 0, "fusion_lon": 0.0, "fusion_lat": 0.0, "lon": -77.055622, "name": "34c70bb5a744d6bee103806424f60bf9"}, {"bike_id": "2d0ca1b76847098f4746f732db06f378", "type": "electric_scooter", "is_disabled": 0, "lat": 38.895154166666664, "rental_uris": {"ios": "https://dc.lft.to/lastmile_qr_scan", "android": "https://dc.lft.to/lastmile_qr_scan"}, "is_reserved": 0, "fusion_lon": 0.0, "fusion_lat": 0.0, "lon": -77.0109775, "name": "2d0ca1b76847098f4746f732db06f378"}, {"bike_id": "b762c178d50c4e918ee0e71c7e0f1b00", "type": "electric_scooter", "is_disabled": 0, "lat": 38.922223333333335, "rental_uris": {"ios": "https://dc.lft.to/lastmile_qr_scan", "android": "https://dc.lft.to/lastmile_qr_scan"}, "is_reserved": 0, "fusion_lon": 0.0, "fusion_lat": 0.0, "lon": -77.03458633333334, "name": "b762c178d50c4e918ee0e71c7e0f1b00"},