{"data": {"bikes": [{"bike_id": "d53f3f6bed0da29e9e1c36a9a53025eb", "lat": 38.9211315, "is_disabled": 0, "lon": -77.01755733333333, "fusion_lon": 0.0, "is_reserved": 0, "fusion_lat": 0.0, "rental_uris": {"android": "https://dc.lft.to/lastmile_qr_scan", "ios": "https://dc.lft.to/lastmile_qr_scan"}, "type": "electric_scooter", "name": "d53f3f6bed0da29e9e1c36a9a53025eb"}, {"bike_id": "57897c72052cdc7d489d43e07126d273", "lat": 38.892193166666665, "is_disabled": 0, "lon": -77.0236825, "fusion_lon": 0.0, "is_reserved": 0, "fusion_lat": 0.0, "rental_uris": {"android": "https://dc.lft.to/lastmile_qr_scan", "ios": "https://dc.lft.to/lastmile_qr_scan"}, "type": "electric_scooter", "name": "57897c72052cdc7d489d43e07126d273"}, {"bike_id": "cd8f6d80e6ee8a71d79a671ed277adf7", "lat": 38.92993216666667, "is_disabled": 0, "lon": -77.02531933333333, "fusion_lon": 0.0, "is_reserved": 0, "fusion_lat": 0.0, "rental_uris": {"android": "https://dc.lft.to/lastmile_qr_scan", "ios": "https://dc.lft.to/lastmile_qr_scan"}, "type": "electric_scooter", "name": "cd8f6d80e6ee8a71d79a671ed277adf7"}, {"bike_id": "643a685071d82cfc204a8c19c59bd42b", "lat": 38.91119366666667, "is_disabled": 0, "lon": -77.02220183333333, "fusion_lon": 0.0, "is_reserved": 0, "fusion_lat": 0.0, "rental_uris": {"android": "https://dc.lft.to/lastmile_qr_scan", "ios": "https://dc.lft.to/lastmile_qr_scan"}, "type": "electric_scooter", "name": "643a685071d82cfc204a8c19c59bd42b"}, {"bike_id": "3860a5165194724e8f6ee07c6d62b82b", "lat": 38.89659533333333, "is_disabled": 0, "lon": -77.03377416666666, "fusion_lon": 0.0, "is_reserved": 0, "fusion_lat": 0.0, "rental_uris": {"android": "https://dc.lft.to/lastmile_qr_scan", "ios": "https://dc.lft.to/lastmile_qr_scan"}, "type": "electric_scooter", "name": "3860a5165194724e8f6ee07c6d62b82b"}, {"bike_id": "a196ce0d6a5f33fe9b3b79752d5dd6a7", "lat": 38.9169395, "is_disabled": 0, "lon": -77.025985, "fusion_lon": 0.0, "is_reserved": 0, "fusion_lat": 0.0, "rental_uris": {"android": "https://dc.lft.to/lastmile_qr_scan", "ios": "https://dc.lft.to/lastmile_qr_scan"}, "type": "electric_scooter", "name": "a196ce0d6a5f33fe9b3b79752d5dd6a7"}, {"bike_id": "45c8dba8a391c7fbdf69eda96edda37b", "lat": 38.87924133333333, "is_disabled": 0, "lon": -76.943248, "fusion_lon": 0.0, "is_reserved": 0, "fusion_lat": 0.0, "rental_uris": {"android": "https://dc.lft.to/lastmile_qr_scan", "ios": "https://dc.lft.to/lastmile_qr_scan"}, "type": "electric_scooter", "name": "45c8dba8a391c7fbdf69eda96edda37b"}, {"bike_id": "c0239ceab83c698b55c243980c25606a", "lat": 38.9005105, "is_disabled": 0, "lon": -76.998559, "fusion_lon": 0.0, "is_reserved": 0, "fusion_lat": 0.0, "rental_uris": {"android": "https://dc.lft.to/lastmile_qr_scan", "ios": "https://dc.lft.to/lastmile_qr_scan"}, "type": "electric_scooter", "name": "c0239ceab83c698b55c243980c25606a"}, {"bike_id": "575c0ca0d60a1f28faa045b13d9ea917", "lat": 38.903609, "is_disabled": 0, "lon": -77.03210483333334, "fusion_lon": 0.0, "is_reserved": 0, "fusion_lat": 0.0, "rental_uris": {"android": "https://dc.lft.to/lastmile_qr_scan", "ios": "https://dc.lft.to/lastmile_qr_scan"}, "type": "electric_scooter", "name": "575c0ca0d60a1f28faa045b13d9ea917"}, {"bike_id": "b53989740f9982db5d994413fe661676", "lat": 38.89248283333333, "is_disabled": 0, "lon": -77.039598, "fusion_lon": 0.0, "is_reserved": 0, "fusion_lat": 0.0, "rental_uris": {"android": "https://dc.lft.to/lastmile_qr_scan", "ios": "https://dc.lft.to/lastmile_qr_scan"}, "type": "electric_scooter", "name": "b53989740f9982db5d994413fe661676"}, {"bike_id": "542dcda477820ae1c12e10b530ea42fd", "lat": 38.92462733333333, "is_disabled": 0, "lon": -77.04029766666666, "fusion_lon": 0.0, "is_reserved": 0, "fusion_lat": 0.0, "rental_uris": {"android": "https://dc.lft.to/lastmile_qr_scan", "ios": "https://dc.lft.to/lastmile_qr_scan"}, "type": "electric_scooter", "name": "542dcda477820ae1c12e10b530ea42fd"}, {"bike_id": "1b2b48b47de8cd667d4d95a6c2c1766d", "lat": 38.91729266666667, "is_disabled": 0, "lon": -77.02712166666667, "fusion_lon": 0.0, "is_reserved": 0, "fusion_lat": 0.0, "rental_uris": {"android": "https://dc.lft.to/lastmile_qr_scan", "ios": "https://dc.lft.to/lastmile_qr_scan"}, "type": "electric_scooter", "name": "1b2b48b47de8cd667d4d95a6c2c1766d"}, {"bike_id": "f813a3cf4f2e207c8321712f30074c37", "lat": 38.90027883333333, "is_disabled": 0, "lon": -77.011789, "fusion_lon": 0.0, "is_reserved": 0, "fusion_lat": 0.0, "rental_uris": {"android": "https://dc.lft.to/lastmile_qr_scan", "ios": "https://dc.lft.to/lastmile_qr_scan"}, "type": "electric_scooter", "name": "f813a3cf4f2e207c8321712f30074c37"}, {"bike_id": "24fb362069a03937faa387b96c787d4f", "lat": 38.895025, "is_disabled": 0, "lon": -77.00214916666667, "fusion_lon": 0.0, "is_reserved": 0, "fusion_lat": 0.0, "rental_uris": {"android": "https://dc.lft.to/lastmile_qr_scan", "ios": "https://dc.lft.to/lastmile_qr_scan"}, "type": "electric_scooter", "name": "24fb362069a03937faa387b96c787d4f"}, {"bike_id": "bd9cb4df930b26e770b9dc8142fe7ce1", "lat": 38.9201045, "is_disabled": 0, "lon": -77.024699, "fusion_lon": 0.0, "is_reserved": 0, "fusion_lat": 0.0, "rental_uris": {"android": "https://dc.lft.to/lastmile_qr_scan", "ios": "https://dc.lft.to/lastmile_qr_scan"}, "type": "electric_scooter", "name": "bd9cb4df930b26e770b9dc8142fe7ce1"}, {"bike_id": "189aa35343a8bf3881b59970de0cac26", "lat": 38.919366833333335, "is_disabled": 0, "lon": -77.07059566666666, "fusion_lon": 0.0, "is_reserved": 0, "fusion_lat": 0.0, "rental_uris": {"android": "https://dc.lft.to/lastmile_qr_scan", "ios": "https://dc.lft.to/lastmile_qr_scan"}, "type": "electric_scooter", "name": "189aa35343a8bf3881b59970de0cac26"}, {"bike_id": "608170ec3ebe4498a54902ea5cc15984", "lat": 38.80738266666667, "is_disabled": 0, "lon": -77.097232, "fusion_lon": 0.0, "is_reserved": 0, "fusion_lat": 0.0, "rental_uris": {"android": "https://dc.lft.to/lastmile_qr_scan", "ios": "https://dc.lft.to/lastmile_qr_scan"}, "type": "electric_bike", "name": "608170ec3ebe4498a54902ea5cc15984"}, {"bike_id": "f9f4929889decdc640d537c54fcb93d2", "lat": 38.881862166666664, "is_disabled": 0, "lon": -77.0220045, "fusion_lon": 0.0, "is_reserved": 0, "fusion_lat": 0.0, "rental_uris": {"android": "https://dc.lft.to/lastmile_qr_scan", "ios": "https://dc.lft.to/lastmile_qr_scan"}, "type": "electric_scooter", "name": "f9f4929889decdc640d537c54fcb93d2"}, {"bike_id": "0cfe00cb8122f6570a46217113acf5e1", "lat": 38.91606866666667, "is_disabled": 0, "lon": -77.04875616666666, "fusion_lon": 0.0, "is_reserved": 0, "fusion_lat": 0.0, "rental_uris": {"android": "https://dc.lft.to/lastmile_qr_scan", "ios": "https://dc.lft.to/lastmile_qr_scan"}, "type": "electric_scooter", "name": "0cfe00cb8122f6570a46217113acf5e1"}, {"bike_id": "117bae471253d84fcea12230f88177dd", "lat": 38.862641833333335, "is_disabled": 0, "lon": -76.98357416666667, "fusion_lon": 0.0, "is_reserved": 0, "fusion_lat": 0.0, "rental_uris": {"android": "https://dc.lft.to/lastmile_qr_scan", "ios": "https://dc.lft.to/lastmile_qr_scan"}, "type": "electric_bike", "name": "117bae471253d84fcea12230f88177dd"}, {"bike_id": "f86919e4dcd1cf9e7d096e4412c2fbd4", "lat": 38.837771000000004, "is_disabled": 0, "lon": -76.99840416666666, "fusion_lon": 0.0, "is_reserved": 0, "fusion_lat": 0.0, "rental_uris": {"android": "https://dc.lft.to/lastmile_qr_scan", "ios": "https://dc.lft.to/lastmile_qr_scan"}, "type": "electric_scooter", "name": "f86919e4dcd1cf9e7d096e4412c2fbd4"}, {"bike_id": "b8ef71947fde45878741123381204326", "lat": 38.90705166666667, "is_disabled": 0, "lon": -77.023972, "fusion_lon": 0.0, "is_reserved": 0, "fusion_lat": 0.0, "rental_uris": {"android": "https://dc.lft.to/lastmile_qr_scan", "ios": "https://dc.lft.to/lastmile_qr_scan"}, "type": "electric_scooter", "name": "b8ef71947fde45878741123381204326"}, {"bike_id": "a7b4ee57f6849d3283b404af502a5948", "lat": 38.926231666666666, "is_disabled": 0, "lon": -77.04196366666666, "fusion_lon": 0.0, "is_reserved": 0, "fusion_lat": 0.0, "rental_uris": {"android": "https://dc.lft.to/lastmile_qr_scan", "ios": "https://dc.lft.to/lastmile_qr_scan"}, "type": "electric_scooter", "name": "a7b4ee57f6849d3283b404af502a5948"}, {"bike_id": "d0daded992674d95cdfa62d61090f534", "lat": 38.90498633333333, "is_disabled": 0, "lon": -77.06116166666666, "fusion_lon": 0.0, "is_reserved": 0, "fusion_lat": 0.0, "rental_uris": {"android": "https://dc.lft.to/lastmile_qr_scan", "ios": "https://dc.lft.to/lastmile_qr_scan"}, "type": "electric_scooter", "name": "d0daded992674d95cdfa62d61090f534"}, {"bike_id": "466debd8fc42019fd6bac96d29f59f84", "lat": 38.88504483333333, "is_disabled": 0, "lon": -77.02174133333334, "fusion_lon": 0.0, "is_reserved": 0, "fusion_lat": 0.0, "rental_uris": {"android": "https://dc.lft.to/lastmile_qr_scan", "ios": "https://dc.lft.to/lastmile_qr_scan"}, "type": "electric_scooter", "name": "466debd8fc42019fd6bac96d29f59f84"}, {"bike_id": "409627dc0528165ea420ca015a92fa8d", "lat": 38.901107833333334, "is_disabled": 0, "lon": -77.032586, "fusion_lon": 0.0, "is_reserved": 0, "fusion_lat": 0.0, "rental_uris": {"android": "https://dc.lft.to/lastmile_qr_scan", "ios": "https://dc.lft.to/lastmile_qr_scan"}, "type": "electric_scooter", "name": "409627dc0528165ea420ca015a92fa8d"}, {"bike_id": "f4e4cbcc7ada7db5001d3d723917bcda", "lat": 38.9040855, "is_disabled": 0, "lon": -76.97335333333334, "fusion_lon": 0.0, "is_reserved": 0, "fusion_lat": 0.0, "rental_uris": {"android": "https://dc.lft.to/lastmile_qr_scan", "ios": "https://dc.lft.to/lastmile_qr_scan"}, "type": "electric_scooter", "name": "f4e4cbcc7ada7db5001d3d723917bcda"}, {"bike_id": "9b6c03cbf3f32b4de7f4ea053b4c9e4a", "lat": 38.90222333333333, "is_disabled": 0, "lon": -76.99277983333333, "fusion_lon": 0.0, "is_reserved": 0, "fusion_lat": 0.0, "rental_uris": {"android": "https://dc.lft.to/lastmile_qr_scan", "ios": "https://dc.lft.to/lastmile_qr_scan"}, "type": "electric_scooter", "name": "9b6c03cbf3f32b4de7f4ea053b4c9e4a"}, {"bike_id": "2ab9b36748c4805575d34157bd8e7a14", "lat": 38.90958633333334, "is_disabled": 0, "lon": -77.0074445, "fusion_lon": 0.0, "is_reserved": 0, "fusion_lat": 0.0, "rental_uris": {"android": "https://dc.lft.to/lastmile_qr_scan", "ios": "https://dc.lft.to/lastmile_qr_scan"}, "type": "electric_scooter", "name": "2ab9b36748c4805575d34157bd8e7a14"}, {"bike_id": "91d176e9eed4df30747d9e5bd7e41473", "lat": 38.87664433333333, "is_disabled": 0, "lon": -77.00943166666667, "fusion_lon": 0.0, "is_reserved": 0, "fusion_lat": 0.0, "rental_uris": {"android": "https://dc.lft.to/lastmile_qr_scan", "ios": "https://dc.lft.to/lastmile_qr_scan"}, "type": "electric_scooter", "name": "91d176e9eed4df30747d9e5bd7e41473"}, {"bike_id": "94282acadbcac70fb7f09cc84ff306b4", "lat": 38.90419083333333, "is_disabled": 0, "lon": -77.02957416666666, "fusion_lon": 0.0, "is_reserved": 0, "fusion_lat": 0.0, "rental_uris": {"android": "https://dc.lft.to/lastmile_qr_scan", "ios": "https://dc.lft.to/lastmile_qr_scan"}, "type": "electric_scooter", "name": "94282acadbcac70fb7f09cc84ff306b4"}, {"bike_id": "40e7d7464d451f83339b1c649d052058", "lat": 38.87375816666667, "is_disabled": 0, "lon": -77.00127, "fusion_lon": 0.0, "is_reserved": 0, "fusion_lat": 0.0, "rental_uris": {"android": "https://dc.lft.to/lastmile_qr_scan", "ios": "https://dc.lft.to/lastmile_qr_scan"}, "type": "electric_scooter", "name": "40e7d7464d451f83339b1c649d052058"}, {"bike_id": "11c185bbce80c9637a9d56f0652f865b", "lat": 38.9173755, "is_disabled": 0, "lon": -77.04174583333334, "fusion_lon": 0.0, "is_reserved": 0, "fusion_lat": 0.0, "rental_uris": {"android": "https://dc.lft.to/lastmile_qr_scan", "ios": "https://dc.lft.to/lastmile_qr_scan"}, "type": "electric_scooter", "name": "11c185bbce80c9637a9d56f0652f865b"}, {"bike_id": "c04de76cbf5d68f4001ca75d3e112189", "lat": 38.905002, "is_disabled": 0, "lon": -77.0432325, "fusion_lon": 0.0, "is_reserved": 0, "fusion_lat": 0.0, "rental_uris": {"android": "https://dc.lft.to/lastmile_qr_scan", "ios": "https://dc.lft.to/lastmile_qr_scan"}, "type": "electric_scooter", "name": "c04de76cbf5d68f4001ca75d3e112189"}, {"bike_id": "78f2383373f9ce47cd9d7c479a7e2567", "lat": 38.89218733333333, "is_disabled": 0, "lon": -77.0262325, "fusion_lon": 0.0, "is_reserved": 0, "fusion_lat": 0.0, "rental_uris": {"android": "https://dc.lft.to/lastmile_qr_scan", "ios": "https://dc.lft.to/lastmile_qr_scan"}, "type": "electric_scooter", "name": "78f2383373f9ce47cd9d7c479a7e2567"}, {"bike_id": "bb543a9db5f4b4d16a14478108c90f5e", "lat": 38.90829466666667, "is_disabled": 0, "lon": -77.00229233333333, "fusion_lon": 0.0, "is_reserved": 0, "fusion_lat": 0.0, "rental_uris": {"android": "https://dc.lft.to/lastmile_qr_scan", "ios": "https://dc.lft.to/lastmile_qr_scan"}, "type": "electric_scooter", "name": "bb543a9db5f4b4d16a14478108c90f5e"}, {"bike_id": "d704e650c2e0b21a9a013de0c1988c25", "lat": 38.9061325, "is_disabled": 0, "lon": -77.04139966666666, "fusion_lon": 0.0, "is_reserved": 0, "fusion_lat": 0.0, "rental_uris": {"android": "https://dc.lft.to/lastmile_qr_scan", "ios": "https://dc.lft.to/lastmile_qr_scan"}, "type": "electric_scooter", "name": "d704e650c2e0b21a9a013de0c1988c25"}, {"bike_id": "831baf1e85a4b3821574a0eddf110695", "lat": 38.87380616666667, "is_disabled": 0, "lon": -77.00136566666667, "fusion_lon": 0.0, "is_reserved": 0, "fusion_lat": 0.0, "rental_uris": {"android": "https://dc.lft.to/lastmile_qr_scan", "ios": "https://dc.lft.to/lastmile_qr_scan"}, "type": "electric_scooter", "name": "831baf1e85a4b3821574a0eddf110695"}, {"bike_id": "919ea7f283a8b27aa290be9b83e0e0ef", "lat": 38.9339815, "is_disabled": 0, "lon": -77.05744216666666, "fusion_lon": 0.0, "is_reserved": 0, "fusion_lat": 0.0, "rental_uris": {"android": "https://dc.lft.to/lastmile_qr_scan", "ios": "https://dc.lft.to/lastmile_qr_scan"}, "type": "electric_scooter", "name": "919ea7f283a8b27aa290be9b83e0e0ef"}, {"bike_id": "8205e4255f9de44c33bf8b821473a5e6", "lat": 38.906403, "is_disabled": 0, "lon": -77.05144033333333, "fusion_lon": 0.0, "is_reserved": 0, "fusion_lat": 0.0, "rental_uris": {"android": "https://dc.lft.to/lastmile_qr_scan", "ios": "https://dc.lft.to/lastmile_qr_scan"}, "type": "electric_scooter", "name": "8205e4255f9de44c33bf8b821473a5e6"}, {"bike_id": "7eabed18cd8e1b02eae6fd08eb5670a6", "lat": 38.93699216666667, "is_disabled": 0, "lon": -77.05598033333334, "fusion_lon": 0.0, "is_reserved": 0, "fusion_lat": 0.0, "rental_uris": {"android": "https://dc.lft.to/lastmile_qr_scan", "ios": "https://dc.lft.to/lastmile_qr_scan"}, "type": "electric_scooter", "name": "7eabed18cd8e1b02eae6fd08eb5670a6"}, {"bike_id": "8d58452ea4769d3b76d82c8cbe7eb18d", "lat": 38.93519666666667, "is_disabled": 0, "lon": -77.030819, "fusion_lon": 0.0, "is_reserved": 0, "fusion_lat": 0.0, "rental_uris": {"android": "https://dc.lft.to/lastmile_qr_scan", "ios": "https://dc.lft.to/lastmile_qr_scan"}, "type": "electric_scooter", "name": "8d58452ea4769d3b76d82c8cbe7eb18d"}, {"bike_id": "c08486210f98763e224935bfcdb588bb", "lat": 38.900319333333336, "is_disabled": 0, "lon": -77.03715516666666, "fusion_lon": 0.0, "is_reserved": 0, "fusion_lat": 0.0, "rental_uris": {"android": "https://dc.lft.to/lastmile_qr_scan", "ios": "https://dc.lft.to/lastmile_qr_scan"}, "type": "electric_scooter", "name": "c08486210f98763e224935bfcdb588bb"}, {"bike_id": "5cb27c0859966ba4e9f0816058db772c", "lat": 38.91580166666667, "is_disabled": 0, "lon": -77.03176133333334, "fusion_lon": 0.0, "is_reserved": 0, "fusion_lat": 0.0, "rental_uris": {"android": "https://dc.lft.to/lastmile_qr_scan", "ios": "https://dc.lft.to/lastmile_qr_scan"}, "type": "electric_scooter", "name": "5cb27c0859966ba4e9f0816058db772c"}, {"bike_id": "2e7eb5e984a43b1b388979c1c4ee1236", "lat": 38.924742, "is_disabled": 0, "lon": -77.0393635, "fusion_lon": 0.0, "is_reserved": 0, "fusion_lat": 0.0, "rental_uris": {"android": "https://dc.lft.to/lastmile_qr_scan", "ios": "https://dc.lft.to/lastmile_qr_scan"}, "type": "electric_scooter", "name": "2e7eb5e984a43b1b388979c1c4ee1236"}, {"bike_id": "8fe52da2986442a7cd214eb982b442ae", "lat": 38.984325, "is_disabled": 0, "lon": -77.026735, "fusion_lon": 0.0, "is_reserved": 0, "fusion_lat": 0.0, "rental_uris": {"android": "https://dc.lft.to/lastmile_qr_scan", "ios": "https://dc.lft.to/lastmile_qr_scan"}, "type": "electric_scooter", "name": "8fe52da2986442a7cd214eb982b442ae"}, {"bike_id": "92afbd5e1b37c3ee4955751dbc12572a", "lat": 38.893446833333336, "is_disabled": 0, "lon": -76.9915655, "fusion_lon": 0.0, "is_reserved": 0, "fusion_lat": 0.0, "rental_uris": {"android": "https://dc.lft.to/lastmile_qr_scan", "ios": "https://dc.lft.to/lastmile_qr_scan"}, "type": "electric_scooter", "name": "92afbd5e1b37c3ee4955751dbc12572a"}, {"bike_id": "30fe3b9218617deeff1000a79b0e66e1", "lat": 38.8922345, "is_disabled": 0, "lon": -77.0486875, "fusion_lon": 0.0, "is_reserved": 0, "fusion_lat": 0.0, "rental_uris": {"android": "https://dc.lft.to/lastmile_qr_scan", "ios": "https://dc.lft.to/lastmile_qr_scan"}, "type": "electric_scooter", "name": "30fe3b9218617deeff1000a79b0e66e1"}, {"bike_id": "67b257ec331199a50258369b7c7712ae", "lat": 38.92858066666667, "is_disabled": 0, "lon": -77.0325935, "fusion_lon": 0.0, "is_reserved": 0, "fusion_lat": 0.0, "rental_uris": {"android": "https://dc.lft.to/lastmile_qr_scan", "ios": "https://dc.lft.to/lastmile_qr_scan"}, "type": "electric_scooter", "name": "67b257ec331199a50258369b7c7712ae"}, {"bike_id": "4555d9b3cb9ab4ca912f0bfd41820ddc", "lat": 38.87933916666667, "is_disabled": 0, "lon": -77.00781766666667, "fusion_lon": 0.0, "is_reserved": 0, "fusion_lat": 0.0, "rental_uris": {"android": "https://dc.lft.to/lastmile_qr_scan", "ios": "https://dc.lft.to/lastmile_qr_scan"}, "type": "electric_scooter", "name": "4555d9b3cb9ab4ca912f0bfd41820ddc"}, {"bike_id": "37d1b20364f0eef635205350aac2bfee", "lat": 38.93743583333333, "is_disabled": 0, "lon": -77.06873933333334, "fusion_lon": 0.0, "is_reserved": 0, "fusion_lat": 0.0, "rental_uris": {"android": "https://dc.lft.to/lastmile_qr_scan", "ios": "https://dc.lft.to/lastmile_qr_scan"}, "type": "electric_scooter", "name": "37d1b20364f0eef635205350aac2bfee"}, {"bike_id": "917542a93c557de064a6ffcc3139e61b", "lat": 38.914130166666666, "is_disabled": 0, "lon": -77.03236916666667, "fusion_lon": 0.0, "is_reserved": 0, "fusion_lat": 0.0, "rental_uris": {"android": "https://dc.lft.to/lastmile_qr_scan", "ios": "https://dc.lft.to/lastmile_qr_scan"}, "type": "electric_scooter", "name": "917542a93c557de064a6ffcc3139e61b"}, {"bike_id": "c0b7c7a0736ce10a06af044416e9b263", "lat": 38.8666725, "is_disabled": 0, "lon": -76.98371583333333, "fusion_lon": 0.0, "is_reserved": 0, "fusion_lat": 0.0, "rental_uris": {"android": "https://dc.lft.to/lastmile_qr_scan", "ios": "https://dc.lft.to/lastmile_qr_scan"}, "type": "electric_scooter", "name": "c0b7c7a0736ce10a06af044416e9b263"}, {"bike_id": "3456ed96883a471a3ca48fe46e00a4d2", "lat": 38.923143, "is_disabled": 0, "lon": -77.04218333333333, "fusion_lon": 0.0, "is_reserved": 0, "fusion_lat": 0.0, "rental_uris": {"android": "https://dc.lft.to/lastmile_qr_scan", "ios": "https://dc.lft.to/lastmile_qr_scan"}, "type": "electric_scooter", "name": "3456ed96883a471a3ca48fe46e00a4d2"}, {"bike_id": "9b34272f41e3e63406cbc67b16bd4296", "lat": 38.9207615, "is_disabled": 0, "lon": -77.02513316666666, "fusion_lon": 0.0, "is_reserved": 0, "fusion_lat": 0.0, "rental_uris": {"android": "https://dc.lft.to/lastmile_qr_scan", "ios": "https://dc.lft.to/lastmile_qr_scan"}, "type": "electric_scooter", "name": "9b34272f41e3e63406cbc67b16bd4296"}, {"bike_id": "bc291366c1123c2aca94515158ab4a0a", "lat": 38.92115583333333, "is_disabled": 0, "lon": -77.03125316666667, "fusion_lon": 0.0, "is_reserved": 0, "fusion_lat": 0.0, "rental_uris": {"android": "https://dc.lft.to/lastmile_qr_scan", "ios": "https://dc.lft.to/lastmile_qr_scan"}, "type": "electric_scooter", "name": "bc291366c1123c2aca94515158ab4a0a"}, {"bike_id": "756d7309aff95aa428305573654b8321", "lat": 38.90415216666667, "is_disabled": 0, "lon": -77.06778833333334, "fusion_lon": 0.0, "is_reserved": 0, "fusion_lat": 0.0, "rental_uris": {"android": "https://dc.lft.to/lastmile_qr_scan", "ios": "https://dc.lft.to/lastmile_qr_scan"}, "type": "electric_scooter", "name": "756d7309aff95aa428305573654b8321"}, {"bike_id": "ef755b291ede148fca464a4cb52b0a41", "lat": 38.92443316666667, "is_disabled": 0, "lon": -77.03895566666667, "fusion_lon": 0.0, "is_reserved": 0, "fusion_lat": 0.0, "rental_uris": {"android": "https://dc.lft.to/lastmile_qr_scan", "ios": "https://dc.lft.to/lastmile_qr_scan"}, "type": "electric_scooter", "name": "ef755b291ede148fca464a4cb52b0a41"}, {"bike_id": "ab641fc1939e5a8960d0f8735eadcdc6", "lat": 38.88373216666667, "is_disabled": 0, "lon": -76.99519416666666, "fusion_lon": 0.0, "is_reserved": 0, "fusion_lat": 0.0, "rental_uris": {"android": "https://dc.lft.to/lastmile_qr_scan", "ios": "https://dc.lft.to/lastmile_qr_scan"}, "type": "electric_scooter", "name": "ab641fc1939e5a8960d0f8735eadcdc6"}, {"bike_id": "601cfddef97331d175a4265d93132f23", "lat": 38.92047216666667, "is_disabled": 0, "lon": -77.01675033333333, "fusion_lon": 0.0, "is_reserved": 0, "fusion_lat": 0.0, "rental_uris": {"android": "https://dc.lft.to/lastmile_qr_scan", "ios": "https://dc.lft.to/lastmile_qr_scan"}, "type": "electric_scooter", "name": "601cfddef97331d175a4265d93132f23"}, {"bike_id": "1d343cd86f7a0486ba4c632d4039b5e2", "lat": 38.892221, "is_disabled": 0, "lon": -77.0334115, "fusion_lon": 0.0, "is_reserved": 0, "fusion_lat": 0.0, "rental_uris": {"android": "https://dc.lft.to/lastmile_qr_scan", "ios": "https://dc.lft.to/lastmile_qr_scan"}, "type": "electric_scooter", "name": "1d343cd86f7a0486ba4c632d4039b5e2"}, {"bike_id": "2b00ccb72a0d4d36233d25ac2e5bb405", "lat": 38.95650633333333, "is_disabled": 0, "lon": -77.022489, "fusion_lon": 0.0, "is_reserved": 0, "fusion_lat": 0.0, "rental_uris": {"android": "https://dc.lft.to/lastmile_qr_scan", "ios": "https://dc.lft.to/lastmile_qr_scan"}, "type": "electric_scooter", "name": "2b00ccb72a0d4d36233d25ac2e5bb405"}, {"bike_id": "aac192c08cf5dcd0d0266679acf5deaa", "lat": 38.901761, "is_disabled": 0, "lon": -77.02487383333333, "fusion_lon": 0.0, "is_reserved": 0, "fusion_lat": 0.0, "rental_uris": {"android": "https://dc.lft.to/lastmile_qr_scan", "ios": "https://dc.lft.to/lastmile_qr_scan"}, "type": "electric_scooter", "name": "aac192c08cf5dcd0d0266679acf5deaa"}, {"bike_id": "5822fbda8d373745fbc12b9043758eb8", "lat": 38.92207483333333, "is_disabled": 0, "lon": -77.04192, "fusion_lon": 0.0, "is_reserved": 0, "fusion_lat": 0.0, "rental_uris": {"android": "https://dc.lft.to/lastmile_qr_scan", "ios": "https://dc.lft.to/lastmile_qr_scan"}, "type": "electric_scooter", "name": "5822fbda8d373745fbc12b9043758eb8"}, {"bike_id": "b7b5a412800243e4d8075dd726262fa1", "lat": 38.87766533333333, "is_disabled": 0, "lon": -76.99604116666667, "fusion_lon": 0.0, "is_reserved": 0, "fusion_lat": 0.0, "rental_uris": {"android": "https://dc.lft.to/lastmile_qr_scan", "ios": "https://dc.lft.to/lastmile_qr_scan"}, "type": "electric_scooter", "name": "b7b5a412800243e4d8075dd726262fa1"}, {"bike_id": "813bd3f98e08499ec1346486c3c5e672", "lat": 38.926502, "is_disabled": 0, "lon": -77.02429066666667, "fusion_lon": 0.0, "is_reserved": 0, "fusion_lat": 0.0, "rental_uris": {"android": "https://dc.lft.to/lastmile_qr_scan", "ios": "https://dc.lft.to/lastmile_qr_scan"}, "type": "electric_scooter", "name": "813bd3f98e08499ec1346486c3c5e672"}, {"bike_id": "f043f583473de7cab577acee361d7ff5", "lat": 38.876739666666666, "is_disabled": 0, "lon": -76.93127133333333, "fusion_lon": 0.0, "is_reserved": 0, "fusion_lat": 0.0, "rental_uris": {"android": "https://dc.lft.to/lastmile_qr_scan", "ios": "https://dc.lft.to/lastmile_qr_scan"}, "type": "electric_scooter", "name": "f043f583473de7cab577acee361d7ff5"}, {"bike_id": "e58ce7a10cbb244ef3cef7c7c7935d37", "lat": 38.9424325, "is_disabled": 0, "lon": -77.05873566666666, "fusion_lon": 0.0, "is_reserved": 0, "fusion_lat": 0.0, "rental_uris": {"android": "https://dc.lft.to/lastmile_qr_scan", "ios": "https://dc.lft.to/lastmile_qr_scan"}, "type": "electric_scooter", "name": "e58ce7a10cbb244ef3cef7c7c7935d37"}, {"bike_id": "520048e35f4536b685da47b214bc4031", "lat": 38.91945583333333, "is_disabled": 0, "lon": -77.0259955, "fusion_lon": 0.0, "is_reserved": 0, "fusion_lat": 0.0, "rental_uris": {"android": "https://dc.lft.to/lastmile_qr_scan", "ios": "https://dc.lft.to/lastmile_qr_scan"}, "type": "electric_scooter", "name": "520048e35f4536b685da47b214bc4031"}, {"bike_id": "c6c64ce7393204a64d86d7cca08449ee", "lat": 38.916716666666666, "is_disabled": 0, "lon": -77.02270116666666, "fusion_lon": 0.0, "is_reserved": 0, "fusion_lat": 0.0, "rental_uris": {"android": "https://dc.lft.to/lastmile_qr_scan", "ios": "https://dc.lft.to/lastmile_qr_scan"}, "type": "electric_scooter", "name": "c6c64ce7393204a64d86d7cca08449ee"}, {"bike_id": "3d9ca0c82c4dfb804633984587e7ed68", "lat": 38.89081733333333, "is_disabled": 0, "lon": -76.94719633333334, "fusion_lon": 0.0, "is_reserved": 0, "fusion_lat": 0.0, "rental_uris": {"android": "https://dc.lft.to/lastmile_qr_scan", "ios": "https://dc.lft.to/lastmile_qr_scan"}, "type": "electric_scooter", "name": "3d9ca0c82c4dfb804633984587e7ed68"}, {"bike_id": "63d5cd1dcc6075fde654daf21a8b8575", "lat": 38.909682333333336, "is_disabled": 0, "lon": -77.04548366666667, "fusion_lon": 0.0, "is_reserved": 0, "fusion_lat": 0.0, "rental_uris": {"android": "https://dc.lft.to/lastmile_qr_scan", "ios": "https://dc.lft.to/lastmile_qr_scan"}, "type": "electric_scooter", "name": "63d5cd1dcc6075fde654daf21a8b8575"}, {"bike_id": "c55278a6f4a9ccee0d4ea7c19d838ab9", "lat": 38.888506666666665, "is_disabled": 0, "lon": -76.95744833333333, "fusion_lon": 0.0, "is_reserved": 0, "fusion_lat": 0.0, "rental_uris": {"android": "https://dc.lft.to/lastmile_qr_scan", "ios": "https://dc.lft.to/lastmile_qr_scan"}, "type": "electric_bike", "name": "c55278a6f4a9ccee0d4ea7c19d838ab9"}, {"bike_id": "f996d7a7459bc0ad3d418eac438e9e58", "lat": 38.901441166666665, "is_disabled": 0, "lon": -77.03643666666666, "fusion_lon": 0.0, "is_reserved": 0, "fusion_lat": 0.0, "rental_uris": {"android": "https://dc.lft.to/lastmile_qr_scan", "ios": "https://dc.lft.to/lastmile_qr_scan"}, "type": "electric_scooter", "name": "f996d7a7459bc0ad3d418eac438e9e58"}, {"bike_id": "9c5ccb2a659b94da87921f243b227b82", "lat": 38.908627333333335, "is_disabled": 0, "lon": -76.99789583333333, "fusion_lon": 0.0, "is_reserved": 0, "fusion_lat": 0.0, "rental_uris": {"android": "https://dc.lft.to/lastmile_qr_scan", "ios": "https://dc.lft.to/lastmile_qr_scan"}, "type": "electric_bike", "name": "9c5ccb2a659b94da87921f243b227b82"}, {"bike_id": "1e53b2c4211355d33c67b9f0c8c00eae", "lat": 38.90263366666667, "is_disabled": 0, "lon": -77.0266395, "fusion_lon": 0.0, "is_reserved": 0, "fusion_lat": 0.0, "rental_uris": {"android": "https://dc.lft.to/lastmile_qr_scan", "ios": "https://dc.lft.to/lastmile_qr_scan"}, "type": "electric_scooter", "name": "1e53b2c4211355d33c67b9f0c8c00eae"}, {"bike_id": "2b28159db3baf83ae517151ac00ba089", "lat": 38.9154595, "is_disabled": 0, "lon": -77.02710133333333, "fusion_lon": 0.0, "is_reserved": 0, "fusion_lat": 0.0, "rental_uris": {"android": "https://dc.lft.to/lastmile_qr_scan", "ios": "https://dc.lft.to/lastmile_qr_scan"}, "type": "electric_scooter", "name": "2b28159db3baf83ae517151ac00ba089"}, {"bike_id": "f2ce261697de2cb275b3053fd26e31c3", "lat": 38.90882783333333, "is_disabled": 0, "lon": -77.06783116666666, "fusion_lon": 0.0, "is_reserved": 0, "fusion_lat": 0.0, "rental_uris": {"android": "https://dc.lft.to/lastmile_qr_scan", "ios": "https://dc.lft.to/lastmile_qr_scan"}, "type": "electric_scooter", "name": "f2ce261697de2cb275b3053fd26e31c3"}, {"bike_id": "574ce16dedb7789595516f13791c1c4d", "lat": 38.91845333333333, "is_disabled": 0, "lon": -77.023048, "fusion_lon": 0.0, "is_reserved": 0, "fusion_lat": 0.0, "rental_uris": {"android": "https://dc.lft.to/lastmile_qr_scan", "ios": "https://dc.lft.to/lastmile_qr_scan"}, "type": "electric_scooter", "name": "574ce16dedb7789595516f13791c1c4d"}, {"bike_id": "b25d57c4eaf3d928f60cf76442935c0b", "lat": 38.8987105, "is_disabled": 0, "lon": -77.03344183333333, "fusion_lon": 0.0, "is_reserved": 0, "fusion_lat": 0.0, "rental_uris": {"android": "https://dc.lft.to/lastmile_qr_scan", "ios": "https://dc.lft.to/lastmile_qr_scan"}, "type": "electric_scooter", "name": "b25d57c4eaf3d928f60cf76442935c0b"}, {"bike_id": "0ed9d56d6e07a2afc92de01ab5b553a8", "lat": 38.898797333333334, "is_disabled": 0, "lon": -77.0090435, "fusion_lon": 0.0, "is_reserved": 0, "fusion_lat": 0.0, "rental_uris": {"android": "https://dc.lft.to/lastmile_qr_scan", "ios": "https://dc.lft.to/lastmile_qr_scan"}, "type": "electric_scooter", "name": "0ed9d56d6e07a2afc92de01ab5b553a8"}, {"bike_id": "82d2d199c7de6091daf7c9dd8dc11303", "lat": 38.89067516666667, "is_disabled": 0, "lon": -77.02547416666667, "fusion_lon": 0.0, "is_reserved": 0, "fusion_lat": 0.0, "rental_uris": {"android": "https://dc.lft.to/lastmile_qr_scan", "ios": "https://dc.lft.to/lastmile_qr_scan"}, "type": "electric_scooter", "name": "82d2d199c7de6091daf7c9dd8dc11303"}, {"bike_id": "dad5d7f4a079e07eb01e21d2f4dd64e8", "lat": 38.906618333333334, "is_disabled": 0, "lon": -76.97939533333333, "fusion_lon": 0.0, "is_reserved": 0, "fusion_lat": 0.0, "rental_uris": {"android": "https://dc.lft.to/lastmile_qr_scan", "ios": "https://dc.lft.to/lastmile_qr_scan"}, "type": "electric_scooter", "name": "dad5d7f4a079e07eb01e21d2f4dd64e8"}, {"bike_id": "c841a9b9ef24301602c32b377f7ecdb4", "lat": 38.913316, "is_disabled": 0, "lon": -77.03325516666666, "fusion_lon": 0.0, "is_reserved": 0, "fusion_lat": 0.0, "rental_uris": {"android": "https://dc.lft.to/lastmile_qr_scan", "ios": "https://dc.lft.to/lastmile_qr_scan"}, "type": "electric_scooter", "name": "c841a9b9ef24301602c32b377f7ecdb4"}, {"bike_id": "77da6844ff9b95976c948bcf14ab2001", "lat": 38.839961, "is_disabled": 0, "lon": -76.97695883333333, "fusion_lon": 0.0, "is_reserved": 0, "fusion_lat": 0.0, "rental_uris": {"android": "https://dc.lft.to/lastmile_qr_scan", "ios": "https://dc.lft.to/lastmile_qr_scan"}, "type": "electric_bike", "name": "77da6844ff9b95976c948bcf14ab2001"}, {"bike_id": "7002e36eb2f6b804274ca7618772056f", "lat": 38.90382666666667, "is_disabled": 0, "lon": -77.04802183333334, "fusion_lon": 0.0, "is_reserved": 0, "fusion_lat": 0.0, "rental_uris": {"android": "https://dc.lft.to/lastmile_qr_scan", "ios": "https://dc.lft.to/lastmile_qr_scan"}, "type": "electric_scooter", "name": "7002e36eb2f6b804274ca7618772056f"}, {"bike_id": "089e5e464b40792eac6ac21948f1b99a", "lat": 38.896335, "is_disabled": 0, "lon": -77.03217866666667, "fusion_lon": 0.0, "is_reserved": 0, "fusion_lat": 0.0, "rental_uris": {"android": "https://dc.lft.to/lastmile_qr_scan", "ios": "https://dc.lft.to/lastmile_qr_scan"}, "type": "electric_scooter", "name": "089e5e464b40792eac6ac21948f1b99a"}, {"bike_id": "6409d2786cce11020d10cdf83f346275", "lat": 38.90697266666667, "is_disabled": 0, "lon": -76.9885535, "fusion_lon": 0.0, "is_reserved": 0, "fusion_lat": 0.0, "rental_uris": {"android": "https://dc.lft.to/lastmile_qr_scan", "ios": "https://dc.lft.to/lastmile_qr_scan"}, "type": "electric_scooter", "name": "6409d2786cce11020d10cdf83f346275"}, {"bike_id": "09d6831d1c44eac95ffc8164bf61caa7", "lat": 38.915381833333335, "is_disabled": 0, "lon": -77.03858, "fusion_lon": 0.0, "is_reserved": 0, "fusion_lat": 0.0, "rental_uris": {"android": "https://dc.lft.to/lastmile_qr_scan", "ios": "https://dc.lft.to/lastmile_qr_scan"}, "type": "electric_scooter", "name": "09d6831d1c44eac95ffc8164bf61caa7"}, {"bike_id": "1c1cfc0d9325999993eaedab3a4ddbf1", "lat": 38.9082285, "is_disabled": 0, "lon": -77.043379, "fusion_lon": 0.0, "is_reserved": 0, "fusion_lat": 0.0, "rental_uris": {"android": "https://dc.lft.to/lastmile_qr_scan", "ios": "https://dc.lft.to/lastmile_qr_scan"}, "type": "electric_scooter", "name": "1c1cfc0d9325999993eaedab3a4ddbf1"}, {"bike_id": "5c668eb1841043302c5c3a2a06ca7a55", "lat": 38.9111875, "is_disabled": 0, "lon": -77.007512, "fusion_lon": 0.0, "is_reserved": 0, "fusion_lat": 0.0, "rental_uris": {"android": "https://dc.lft.to/lastmile_qr_scan", "ios": "https://dc.lft.to/lastmile_qr_scan"}, "type": "electric_scooter", "name": "5c668eb1841043302c5c3a2a06ca7a55"}, {"bike_id": "cd1d057e84c65a6764b3cb24a20b122c", "lat": 38.97348233333334, "is_disabled": 0, "lon": -77.027889, "fusion_lon": 0.0, "is_reserved": 0, "fusion_lat": 0.0, "rental_uris": {"android": "https://dc.lft.to/lastmile_qr_scan", "ios": "https://dc.lft.to/lastmile_qr_scan"}, "type": "electric_scooter", "name": "cd1d057e84c65a6764b3cb24a20b122c"}, {"bike_id": "16b5a6b27517325f8bc3c37c50937d88", "lat": 38.976683, "is_disabled": 0, "lon": -77.018957, "fusion_lon": 0.0, "is_reserved": 0, "fusion_lat": 0.0, "rental_uris": {"android": "https://dc.lft.to/lastmile_qr_scan", "ios": "https://dc.lft.to/lastmile_qr_scan"}, "type": "electric_bike", "name": "16b5a6b27517325f8bc3c37c50937d88"}, {"bike_id": "02b692d7aaec325f93c03a16ed7fb52e", "lat": 38.88773783333333, "is_disabled": 0, "lon": -77.0030775, "fusion_lon": 0.0, "is_reserved": 0, "fusion_lat": 0.0, "rental_uris": {"android": "https://dc.lft.to/lastmile_qr_scan", "ios": "https://dc.lft.to/lastmile_qr_scan"}, "type": "electric_scooter", "name": "02b692d7aaec325f93c03a16ed7fb52e"}, {"bike_id": "09265e415709ac98607c9635e84aa539", "lat": 38.945031666666665, "is_disabled": 0, "lon": -77.03832466666667, "fusion_lon": 0.0, "is_reserved": 0, "fusion_lat": 0.0, "rental_uris": {"android": "https://dc.lft.to/lastmile_qr_scan", "ios": "https://dc.lft.to/lastmile_qr_scan"}, "type": "electric_scooter", "name": "09265e415709ac98607c9635e84aa539"}, {"bike_id": "90caae3e0a6c2149a57f45201a4586f7", "lat": 38.93357133333333, "is_disabled": 0, "lon": -77.03655466666666, "fusion_lon": 0.0, "is_reserved": 0, "fusion_lat": 0.0, "rental_uris": {"android": "https://dc.lft.to/lastmile_qr_scan", "ios": "https://dc.lft.to/lastmile_qr_scan"}, "type": "electric_scooter", "name": "90caae3e0a6c2149a57f45201a4586f7"}, {"bike_id": "2b6af15a6932e26029fb8559f87e9c8d", "lat": 38.910628, "is_disabled": 0, "lon": -76.9971525, "fusion_lon": 0.0, "is_reserved": 0, "fusion_lat": 0.0, "rental_uris": {"android": "https://dc.lft.to/lastmile_qr_scan", "ios": "https://dc.lft.to/lastmile_qr_scan"}, "type": "electric_scooter", "name": "2b6af15a6932e26029fb8559f87e9c8d"}, {"bike_id": "ca1ec2ea7492b696a8f6d304d583142b", "lat": 38.90099216666667, "is_disabled": 0, "lon": -77.03816883333333, "fusion_lon": 0.0, "is_reserved": 0, "fusion_lat": 0.0, "rental_uris": {"android": "https://dc.lft.to/lastmile_qr_scan", "ios": "https://dc.lft.to/lastmile_qr_scan"}, "type": "electric_scooter", "name": "ca1ec2ea7492b696a8f6d304d583142b"}, {"bike_id": "801347049850f6bf3545cb9ca7a7fb00", "lat": 38.896041833333335, "is_disabled": 0, "lon": -77.05441433333333, "fusion_lon": 0.0, "is_reserved": 0, "fusion_lat": 0.0, "rental_uris": {"android": "https://dc.lft.to/lastmile_qr_scan", "ios": "https://dc.lft.to/lastmile_qr_scan"}, "type": "electric_scooter", "name": "801347049850f6bf3545cb9ca7a7fb00"}, {"bike_id": "b90b6b8b4df6de41b26f7179985d375d", "lat": 38.908926, "is_disabled": 0, "lon": -77.043284, "fusion_lon": 0.0, "is_reserved": 0, "fusion_lat": 0.0, "rental_uris": {"android": "https://dc.lft.to/lastmile_qr_scan", "ios": "https://dc.lft.to/lastmile_qr_scan"}, "type": "electric_scooter", "name": "b90b6b8b4df6de41b26f7179985d375d"}, {"bike_id": "9a9d5d5302265c42bf1470a6f7e347f4", "lat": 38.91724816666667, "is_disabled": 0, "lon": -77.033292, "fusion_lon": 0.0, "is_reserved": 0, "fusion_lat": 0.0, "rental_uris": {"android": "https://dc.lft.to/lastmile_qr_scan", "ios": "https://dc.lft.to/lastmile_qr_scan"}, "type": "electric_scooter", "name": "9a9d5d5302265c42bf1470a6f7e347f4"}, {"bike_id": "9eda765766c9d7fdbdb2952f59dba5a9", "lat": 38.911145166666664, "is_disabled": 0, "lon": -77.00605, "fusion_lon": 0.0, "is_reserved": 0, "fusion_lat": 0.0, "rental_uris": {"android": "https://dc.lft.to/lastmile_qr_scan", "ios": "https://dc.lft.to/lastmile_qr_scan"}, "type": "electric_scooter", "name": "9eda765766c9d7fdbdb2952f59dba5a9"}, {"bike_id": "f4d18a42418db73a41c4aa95bd5b1281", "lat": 38.8974545, "is_disabled": 0, "lon": -77.04355233333334, "fusion_lon": 0.0, "is_reserved": 0, "fusion_lat": 0.0, "rental_uris": {"android": "https://dc.lft.to/lastmile_qr_scan", "ios": "https://dc.lft.to/lastmile_qr_scan"}, "type": "electric_scooter", "name": "f4d18a42418db73a41c4aa95bd5b1281"}, {"bike_id": "c89455be4371a78cf82ed5a5465603b8", "lat": 38.93263683333333, "is_disabled": 0, "lon": -77.039539, "fusion_lon": 0.0, "is_reserved": 0, "fusion_lat": 0.0, "rental_uris": {"android": "https://dc.lft.to/lastmile_qr_scan", "ios": "https://dc.lft.to/lastmile_qr_scan"}, "type": "electric_scooter", "name": "c89455be4371a78cf82ed5a5465603b8"}, {"bike_id": "b48eaacff00db1b8362d2c1dd1f1c033", "lat": 38.91816516666667, "is_disabled": 0, "lon": -77.02474966666666, "fusion_lon": 0.0, "is_reserved": 0, "fusion_lat": 0.0, "rental_uris": {"android": "https://dc.lft.to/lastmile_qr_scan", "ios": "https://dc.lft.to/lastmile_qr_scan"}, "type": "electric_scooter", "name": "b48eaacff00db1b8362d2c1dd1f1c033"}, {"bike_id": "c71ae837f65cefe5f239a7b5743435fd", "lat": 38.897445166666664, "is_disabled": 0, "lon": -77.00920783333333, "fusion_lon": 0.0, "is_reserved": 0, "fusion_lat": 0.0, "rental_uris": {"android": "https://dc.lft.to/lastmile_qr_scan", "ios": "https://dc.lft.to/lastmile_qr_scan"}, "type": "electric_scooter", "name": "c71ae837f65cefe5f239a7b5743435fd"}, {"bike_id": "dd0ce854dc8a19794df2cbca351619a4", "lat": 38.863672666666666, "is_disabled": 0, "lon": -76.99045866666667, "fusion_lon": 0.0, "is_reserved": 0, "fusion_lat": 0.0, "rental_uris": {"android": "https://dc.lft.to/lastmile_qr_scan", "ios": "https://dc.lft.to/lastmile_qr_scan"}, "type": "electric_scooter", "name": "dd0ce854dc8a19794df2cbca351619a4"}, {"bike_id": "cdec0ac42992b6c2f6cc25f29fb36de8", "lat": 38.89885983333333, "is_disabled": 0, "lon": -76.93175316666667, "fusion_lon": 0.0, "is_reserved": 0, "fusion_lat": 0.0, "rental_uris": {"android": "https://dc.lft.to/lastmile_qr_scan", "ios": "https://dc.lft.to/lastmile_qr_scan"}, "type": "electric_scooter", "name": "cdec0ac42992b6c2f6cc25f29fb36de8"}, {"bike_id": "bae7d9b18f168f13022e860621447275", "lat": 38.904479, "is_disabled": 0, "lon": -77.03568983333334, "fusion_lon": 0.0, "is_reserved": 0, "fusion_lat": 0.0, "rental_uris": {"android": "https://dc.lft.to/lastmile_qr_scan", "ios": "https://dc.lft.to/lastmile_qr_scan"}, "type": "electric_scooter", "name": "bae7d9b18f168f13022e860621447275"}, {"bike_id": "0e9edaaf6dd9940a63d833a459131c49", "lat": 38.919508666666665, "is_disabled": 0, "lon": -77.0177875, "fusion_lon": 0.0, "is_reserved": 0, "fusion_lat": 0.0, "rental_uris": {"android": "https://dc.lft.to/lastmile_qr_scan", "ios": "https://dc.lft.to/lastmile_qr_scan"}, "type": "electric_scooter", "name": "0e9edaaf6dd9940a63d833a459131c49"}, {"bike_id": "6b46e6cc10d1aec4ab4e47e8dc14e9cc", "lat": 38.944553, "is_disabled": 0, "lon": -77.028024, "fusion_lon": 0.0, "is_reserved": 0, "fusion_lat": 0.0, "rental_uris": {"android": "https://dc.lft.to/lastmile_qr_scan", "ios": "https://dc.lft.to/lastmile_qr_scan"}, "type": "electric_scooter", "name": "6b46e6cc10d1aec4ab4e47e8dc14e9cc"}, {"bike_id": "6200b45b0b6f2d92db1b8bfdbdc2ef72", "lat": 38.9271175, "is_disabled": 0, "lon": -77.053704, "fusion_lon": 0.0, "is_reserved": 0, "fusion_lat": 0.0, "rental_uris": {"android": "https://dc.lft.to/lastmile_qr_scan", "ios": "https://dc.lft.to/lastmile_qr_scan"}, "type": "electric_scooter", "name": "6200b45b0b6f2d92db1b8bfdbdc2ef72"}, {"bike_id": "8ca13617fe39dcd342bf3cef68751520", "lat": 38.879964666666666, "is_disabled": 0, "lon": -77.01289233333334, "fusion_lon": 0.0, "is_reserved": 0, "fusion_lat": 0.0, "rental_uris": {"android": "https://dc.lft.to/lastmile_qr_scan", "ios": "https://dc.lft.to/lastmile_qr_scan"}, "type": "electric_scooter", "name": "8ca13617fe39dcd342bf3cef68751520"}, {"bike_id": "98b53872b8cd49eaece27c40362d1c00", "lat": 38.92061116666667, "is_disabled": 0, "lon": -77.0242675, "fusion_lon": 0.0, "is_reserved": 0, "fusion_lat": 0.0, "rental_uris": {"android": "https://dc.lft.to/lastmile_qr_scan", "ios": "https://dc.lft.to/lastmile_qr_scan"}, "type": "electric_scooter", "name": "98b53872b8cd49eaece27c40362d1c00"}, {"bike_id": "86a5d853ce2e2f20410aa8cd1e3878ff", "lat": 38.89195816666667, "is_disabled": 0, "lon": -77.02384283333333, "fusion_lon": 0.0, "is_reserved": 0, "fusion_lat": 0.0, "rental_uris": {"android": "https://dc.lft.to/lastmile_qr_scan", "ios": "https://dc.lft.to/lastmile_qr_scan"}, "type": "electric_scooter", "name": "86a5d853ce2e2f20410aa8cd1e3878ff"}, {"bike_id": "d84b5a15d9d56663b200840d49101f3c", "lat": 38.918005666666666, "is_disabled": 0, "lon": -77.04440116666666, "fusion_lon": 0.0, "is_reserved": 0, "fusion_lat": 0.0, "rental_uris": {"android": "https://dc.lft.to/lastmile_qr_scan", "ios": "https://dc.lft.to/lastmile_qr_scan"}, "type": "electric_scooter", "name": "d84b5a15d9d56663b200840d49101f3c"}, {"bike_id": "86c3f76355489b87b493916e0f4fe25b", "lat": 38.919783, "is_disabled": 0, "lon": -76.9926105, "fusion_lon": 0.0, "is_reserved": 0, "fusion_lat": 0.0, "rental_uris": {"android": "https://dc.lft.to/lastmile_qr_scan", "ios": "https://dc.lft.to/lastmile_qr_scan"}, "type": "electric_scooter", "name": "86c3f76355489b87b493916e0f4fe25b"}, {"bike_id": "e0de3da68ca3b687666768e56c4ca07b", "lat": 38.917522166666664, "is_disabled": 0, "lon": -77.03910783333333, "fusion_lon": 0.0, "is_reserved": 0, "fusion_lat": 0.0, "rental_uris": {"android": "https://dc.lft.to/lastmile_qr_scan", "ios": "https://dc.lft.to/lastmile_qr_scan"}, "type": "electric_scooter", "name": "e0de3da68ca3b687666768e56c4ca07b"}, {"bike_id": "d049e0481dad008c34355ee97501314e", "lat": 38.93394383333333, "is_disabled": 0, "lon": -77.04551383333333, "fusion_lon": 0.0, "is_reserved": 0, "fusion_lat": 0.0, "rental_uris": {"android": "https://dc.lft.to/lastmile_qr_scan", "ios": "https://dc.lft.to/lastmile_qr_scan"}, "type": "electric_scooter", "name": "d049e0481dad008c34355ee97501314e"}, {"bike_id": "648efc92d009e79612d87bbf3f9f68be", "lat": 38.9218975, "is_disabled": 0, "lon": -77.047026, "fusion_lon": 0.0, "is_reserved": 0, "fusion_lat": 0.0, "rental_uris": {"android": "https://dc.lft.to/lastmile_qr_scan", "ios": "https://dc.lft.to/lastmile_qr_scan"}, "type": "electric_scooter", "name": "648efc92d009e79612d87bbf3f9f68be"}, {"bike_id": "1241072506aea8faee70021dd33b6290", "lat": 38.903813666666665, "is_disabled": 0, "lon": -76.99514416666666, "fusion_lon": 0.0, "is_reserved": 0, "fusion_lat": 0.0, "rental_uris": {"android": "https://dc.lft.to/lastmile_qr_scan", "ios": "https://dc.lft.to/lastmile_qr_scan"}, "type": "electric_scooter", "name": "1241072506aea8faee70021dd33b6290"}, {"bike_id": "b8a988a7abf6c90b0e850effe43aab42", "lat": 38.864906166666664, "is_disabled": 0, "lon": -76.977487, "fusion_lon": 0.0, "is_reserved": 0, "fusion_lat": 0.0, "rental_uris": {"android": "https://dc.lft.to/lastmile_qr_scan", "ios": "https://dc.lft.to/lastmile_qr_scan"}, "type": "electric_scooter", "name": "b8a988a7abf6c90b0e850effe43aab42"}, {"bike_id": "16db5116de6f2a485b7fb61ab7bc0364", "lat": 38.905561166666665, "is_disabled": 0, "lon": -77.0465095, "fusion_lon": 0.0, "is_reserved": 0, "fusion_lat": 0.0, "rental_uris": {"android": "https://dc.lft.to/lastmile_qr_scan", "ios": "https://dc.lft.to/lastmile_qr_scan"}, "type": "electric_scooter", "name": "16db5116de6f2a485b7fb61ab7bc0364"}, {"bike_id": "8322ff2fd25a270f29a8ac066f012a64", "lat": 38.924336833333335, "is_disabled": 0, "lon": -77.00323083333333, "fusion_lon": 0.0, "is_reserved": 0, "fusion_lat": 0.0, "rental_uris": {"android": "https://dc.lft.to/lastmile_qr_scan", "ios": "https://dc.lft.to/lastmile_qr_scan"}, "type": "electric_scooter", "name": "8322ff2fd25a270f29a8ac066f012a64"}, {"bike_id": "7cd026cd541e1972b9eab54c937e888b", "lat": 38.924108, "is_disabled": 0, "lon": -77.05198416666667, "fusion_lon": 0.0, "is_reserved": 0, "fusion_lat": 0.0, "rental_uris": {"android": "https://dc.lft.to/lastmile_qr_scan", "ios": "https://dc.lft.to/lastmile_qr_scan"}, "type": "electric_scooter", "name": "7cd026cd541e1972b9eab54c937e888b"}, {"bike_id": "999defcb87ad8272718f9e1f690a09e5", "lat": 38.87812983333333, "is_disabled": 0, "lon": -77.00728516666666, "fusion_lon": 0.0, "is_reserved": 0, "fusion_lat": 0.0, "rental_uris": {"android": "https://dc.lft.to/lastmile_qr_scan", "ios": "https://dc.lft.to/lastmile_qr_scan"}, "type": "electric_scooter", "name": "999defcb87ad8272718f9e1f690a09e5"}, {"bike_id": "7a58cbda2fb2f927a398a014349a2140", "lat": 38.884456, "is_disabled": 0, "lon": -76.94225416666667, "fusion_lon": 0.0, "is_reserved": 0, "fusion_lat": 0.0, "rental_uris": {"android": "https://dc.lft.to/lastmile_qr_scan", "ios": "https://dc.lft.to/lastmile_qr_scan"}, "type": "electric_scooter", "name": "7a58cbda2fb2f927a398a014349a2140"}, {"bike_id": "109f48937ef1886fb1d1c1717eb5f6e9", "lat": 38.934558, "is_disabled": 0, "lon": -77.03245233333334, "fusion_lon": 0.0, "is_reserved": 0, "fusion_lat": 0.0, "rental_uris": {"android": "https://dc.lft.to/lastmile_qr_scan", "ios": "https://dc.lft.to/lastmile_qr_scan"}, "type": "electric_scooter", "name": "109f48937ef1886fb1d1c1717eb5f6e9"}, {"bike_id": "75d1bc656ca452864d46eb99695b7ed0", "lat": 38.85780416666667, "is_disabled": 0, "lon": -76.97326916666667, "fusion_lon": 0.0, "is_reserved": 0, "fusion_lat": 0.0, "rental_uris": {"android": "https://dc.lft.to/lastmile_qr_scan", "ios": "https://dc.lft.to/lastmile_qr_scan"}, "type": "electric_bike", "name": "75d1bc656ca452864d46eb99695b7ed0"}, {"bike_id": "a7985c0edb466f7067c6e1ac60b9ca05", "lat": 38.934299833333334, "is_disabled": 0, "lon": -77.04425133333334, "fusion_lon": 0.0, "is_reserved": 0, "fusion_lat": 0.0, "rental_uris": {"android": "https://dc.lft.to/lastmile_qr_scan", "ios": "https://dc.lft.to/lastmile_qr_scan"}, "type": "electric_scooter", "name": "a7985c0edb466f7067c6e1ac60b9ca05"}, {"bike_id": "b127d85e62be5eb164f7c5698714374b", "lat": 38.9216625, "is_disabled": 0, "lon": -77.022011, "fusion_lon": 0.0, "is_reserved": 0, "fusion_lat": 0.0, "rental_uris": {"android": "https://dc.lft.to/lastmile_qr_scan", "ios": "https://dc.lft.to/lastmile_qr_scan"}, "type": "electric_scooter", "name": "b127d85e62be5eb164f7c5698714374b"}, {"bike_id": "3b44b8fcda02f700c0fd661da56634f2", "lat": 38.887041333333336, "is_disabled": 0, "lon": -77.02833466666667, "fusion_lon": 0.0, "is_reserved": 0, "fusion_lat": 0.0, "rental_uris": {"android": "https://dc.lft.to/lastmile_qr_scan", "ios": "https://dc.lft.to/lastmile_qr_scan"}, "type": "electric_scooter", "name": "3b44b8fcda02f700c0fd661da56634f2"}, {"bike_id": "e2afb866104fd374c515a348658fc42e", "lat": 38.9104235, "is_disabled": 0, "lon": -77.03837066666667, "fusion_lon": 0.0, "is_reserved": 0, "fusion_lat": 0.0, "rental_uris": {"android": "https://dc.lft.to/lastmile_qr_scan", "ios": "https://dc.lft.to/lastmile_qr_scan"}, "type": "electric_scooter", "name": "e2afb866104fd374c515a348658fc42e"}, {"bike_id": "2771be06d5aa62cac24d1262400f2702", "lat": 38.9234, "is_disabled": 0, "lon": -77.01903066666667, "fusion_lon": 0.0, "is_reserved": 0, "fusion_lat": 0.0, "rental_uris": {"android": "https://dc.lft.to/lastmile_qr_scan", "ios": "https://dc.lft.to/lastmile_qr_scan"}, "type": "electric_scooter", "name": "2771be06d5aa62cac24d1262400f2702"}, {"bike_id": "878edbc14a658a8bf6a55df3d58f4b2a", "lat": 38.9092225, "is_disabled": 0, "lon": -77.04875066666666, "fusion_lon": 0.0, "is_reserved": 0, "fusion_lat": 0.0, "rental_uris": {"android": "https://dc.lft.to/lastmile_qr_scan", "ios": "https://dc.lft.to/lastmile_qr_scan"}, "type": "electric_scooter", "name": "878edbc14a658a8bf6a55df3d58f4b2a"}, {"bike_id": "6cd37ee2ed9d2a2ec80804ba6d8be887", "lat": 38.88629533333334, "is_disabled": 0, "lon": -77.022181, "fusion_lon": 0.0, "is_reserved": 0, "fusion_lat": 0.0, "rental_uris": {"android": "https://dc.lft.to/lastmile_qr_scan", "ios": "https://dc.lft.to/lastmile_qr_scan"}, "type": "electric_scooter", "name": "6cd37ee2ed9d2a2ec80804ba6d8be887"}, {"bike_id": "23c018d457012a1807c157c22873558d", "lat": 38.9185685, "is_disabled": 0, "lon": -77.0899675, "fusion_lon": 0.0, "is_reserved": 0, "fusion_lat": 0.0, "rental_uris": {"android": "https://dc.lft.to/lastmile_qr_scan", "ios": "https://dc.lft.to/lastmile_qr_scan"}, "type": "electric_scooter", "name": "23c018d457012a1807c157c22873558d"}, {"bike_id": "2ac64993f14aa109cb39da54de126231", "lat": 38.887135, "is_disabled": 0, "lon": -77.02197016666666, "fusion_lon": 0.0, "is_reserved": 0, "fusion_lat": 0.0, "rental_uris": {"android": "https://dc.lft.to/lastmile_qr_scan", "ios": "https://dc.lft.to/lastmile_qr_scan"}, "type": "electric_scooter", "name": "2ac64993f14aa109cb39da54de126231"}, {"bike_id": "b6e53e6593febf7798262a86b64db36d", "lat": 38.89221033333333, "is_disabled": 0, "lon": -77.04512133333333, "fusion_lon": 0.0, "is_reserved": 0, "fusion_lat": 0.0, "rental_uris": {"android": "https://dc.lft.to/lastmile_qr_scan", "ios": "https://dc.lft.to/lastmile_qr_scan"}, "type": "electric_scooter", "name": "b6e53e6593febf7798262a86b64db36d"}, {"bike_id": "dfb6a517cdb869fa3b8981136fad1443", "lat": 38.892314999999996, "is_disabled": 0, "lon": -77.04876816666666, "fusion_lon": 0.0, "is_reserved": 0, "fusion_lat": 0.0, "rental_uris": {"android": "https://dc.lft.to/lastmile_qr_scan", "ios": "https://dc.lft.to/lastmile_qr_scan"}, "type": "electric_scooter", "name": "dfb6a517cdb869fa3b8981136fad1443"}, {"bike_id": "45f2c76e5c59e1cfbff41707fc6bb23c", "lat": 38.91980783333333, "is_disabled": 0, "lon": -77.04090216666667, "fusion_lon": 0.0, "is_reserved": 0, "fusion_lat": 0.0, "rental_uris": {"android": "https://dc.lft.to/lastmile_qr_scan", "ios": "https://dc.lft.to/lastmile_qr_scan"}, "type": "electric_scooter", "name": "45f2c76e5c59e1cfbff41707fc6bb23c"}, {"bike_id": "1197daaefa6ee6e53c6a3bae00665099", "lat": 38.917738666666665, "is_disabled": 0, "lon": -77.02308316666667, "fusion_lon": 0.0, "is_reserved": 0, "fusion_lat": 0.0, "rental_uris": {"android": "https://dc.lft.to/lastmile_qr_scan", "ios": "https://dc.lft.to/lastmile_qr_scan"}, "type": "electric_scooter", "name": "1197daaefa6ee6e53c6a3bae00665099"}, {"bike_id": "bb6bd40e917d26250bd74b3abd56f60f", "lat": 38.900261666666665, "is_disabled": 0, "lon": -76.99190316666666, "fusion_lon": 0.0, "is_reserved": 0, "fusion_lat": 0.0, "rental_uris": {"android": "https://dc.lft.to/lastmile_qr_scan", "ios": "https://dc.lft.to/lastmile_qr_scan"}, "type": "electric_scooter", "name": "bb6bd40e917d26250bd74b3abd56f60f"}, {"bike_id": "e2193d8a574e32fb46d3290e3530d363", "lat": 38.819945833333335, "is_disabled": 0, "lon": -76.99809633333334, "fusion_lon": 0.0, "is_reserved": 0, "fusion_lat": 0.0, "rental_uris": {"android": "https://dc.lft.to/lastmile_qr_scan", "ios": "https://dc.lft.to/lastmile_qr_scan"}, "type": "electric_bike", "name": "e2193d8a574e32fb46d3290e3530d363"}, {"bike_id": "0bf170087f83ea3d8bf5156892434ca0", "lat": 38.895913666666665, "is_disabled": 0, "lon": -77.04759333333334, "fusion_lon": 0.0, "is_reserved": 0, "fusion_lat": 0.0, "rental_uris": {"android": "https://dc.lft.to/lastmile_qr_scan", "ios": "https://dc.lft.to/lastmile_qr_scan"}, "type": "electric_scooter", "name": "0bf170087f83ea3d8bf5156892434ca0"}, {"bike_id": "d7dbc1d9378f7dad989dc96c55be778c", "lat": 38.912023166666664, "is_disabled": 0, "lon": -76.98764933333334, "fusion_lon": 0.0, "is_reserved": 0, "fusion_lat": 0.0, "rental_uris": {"android": "https://dc.lft.to/lastmile_qr_scan", "ios": "https://dc.lft.to/lastmile_qr_scan"}, "type": "electric_scooter", "name": "d7dbc1d9378f7dad989dc96c55be778c"}, {"bike_id": "23bf77176fc175c97fce31824f94530f", "lat": 38.8949755, "is_disabled": 0, "lon": -77.01103733333333, "fusion_lon": 0.0, "is_reserved": 0, "fusion_lat": 0.0, "rental_uris": {"android": "https://dc.lft.to/lastmile_qr_scan", "ios": "https://dc.lft.to/lastmile_qr_scan"}, "type": "electric_scooter", "name": "23bf77176fc175c97fce31824f94530f"}, {"bike_id": "5b2ba923a40d600881f87fcf29e13482", "lat": 38.89632833333334, "is_disabled": 0, "lon": -77.0319265, "fusion_lon": 0.0, "is_reserved": 0, "fusion_lat": 0.0, "rental_uris": {"android": "https://dc.lft.to/lastmile_qr_scan", "ios": "https://dc.lft.to/lastmile_qr_scan"}, "type": "electric_scooter", "name": "5b2ba923a40d600881f87fcf29e13482"}, {"bike_id": "1a1a637ee29acd3f4b4f1b8aa56948cc", "lat": 38.91600583333334, "is_disabled": 0, "lon": -77.02302733333333, "fusion_lon": 0.0, "is_reserved": 0, "fusion_lat": 0.0, "rental_uris": {"android": "https://dc.lft.to/lastmile_qr_scan", "ios": "https://dc.lft.to/lastmile_qr_scan"}, "type": "electric_scooter", "name": "1a1a637ee29acd3f4b4f1b8aa56948cc"}, {"bike_id": "0243254e536f98a0c5e1fd3525af757a", "lat": 38.90727066666667, "is_disabled": 0, "lon": -77.04387516666667, "fusion_lon": 0.0, "is_reserved": 0, "fusion_lat": 0.0, "rental_uris": {"android": "https://dc.lft.to/lastmile_qr_scan", "ios": "https://dc.lft.to/lastmile_qr_scan"}, "type": "electric_scooter", "name": "0243254e536f98a0c5e1fd3525af757a"}, {"bike_id": "1d68c8ab922f7300734e6ffa9e5eec71", "lat": 38.90638833333333, "is_disabled": 0, "lon": -77.04169983333334, "fusion_lon": 0.0, "is_reserved": 0, "fusion_lat": 0.0, "rental_uris": {"android": "https://dc.lft.to/lastmile_qr_scan", "ios": "https://dc.lft.to/lastmile_qr_scan"}, "type": "electric_scooter", "name": "1d68c8ab922f7300734e6ffa9e5eec71"}, {"bike_id": "a1d4ffd95510e436a05cc969d3c16863", "lat": 38.894395333333335, "is_disabled": 0, "lon": -76.9808085, "fusion_lon": 0.0, "is_reserved": 0, "fusion_lat": 0.0, "rental_uris": {"android": "https://dc.lft.to/lastmile_qr_scan", "ios": "https://dc.lft.to/lastmile_qr_scan"}, "type": "electric_scooter", "name": "a1d4ffd95510e436a05cc969d3c16863"}, {"bike_id": "dec438e3e7889a08c3383be5d1513295", "lat": 38.86659133333333, "is_disabled": 0, "lon": -76.988868, "fusion_lon": 0.0, "is_reserved": 0, "fusion_lat": 0.0, "rental_uris": {"android": "https://dc.lft.to/lastmile_qr_scan", "ios": "https://dc.lft.to/lastmile_qr_scan"}, "type": "electric_scooter", "name": "dec438e3e7889a08c3383be5d1513295"}, {"bike_id": "2eab2228e29dca98aa46c28db437cde9", "lat": 38.9249875, "is_disabled": 0, "lon": -77.024494, "fusion_lon": 0.0, "is_reserved": 0, "fusion_lat": 0.0, "rental_uris": {"android": "https://dc.lft.to/lastmile_qr_scan", "ios": "https://dc.lft.to/lastmile_qr_scan"}, "type": "electric_scooter", "name": "2eab2228e29dca98aa46c28db437cde9"}, {"bike_id": "8647694ea48b6713b21ae6ac980beb23", "lat": 38.91810916666667, "is_disabled": 0, "lon": -77.034404, "fusion_lon": 0.0, "is_reserved": 0, "fusion_lat": 0.0, "rental_uris": {"android": "https://dc.lft.to/lastmile_qr_scan", "ios": "https://dc.lft.to/lastmile_qr_scan"}, "type": "electric_scooter", "name": "8647694ea48b6713b21ae6ac980beb23"}, {"bike_id": "6bccc702219c2374668daa79a28ab5af", "lat": 38.918023, "is_disabled": 0, "lon": -77.02707533333333, "fusion_lon": 0.0, "is_reserved": 0, "fusion_lat": 0.0, "rental_uris": {"android": "https://dc.lft.to/lastmile_qr_scan", "ios": "https://dc.lft.to/lastmile_qr_scan"}, "type": "electric_scooter", "name": "6bccc702219c2374668daa79a28ab5af"}, {"bike_id": "5b1c1249114c2cb007a50bc1a33b400b", "lat": 38.916338, "is_disabled": 0, "lon": -77.03637066666667, "fusion_lon": 0.0, "is_reserved": 0, "fusion_lat": 0.0, "rental_uris": {"android": "https://dc.lft.to/lastmile_qr_scan", "ios": "https://dc.lft.to/lastmile_qr_scan"}, "type": "electric_scooter", "name": "5b1c1249114c2cb007a50bc1a33b400b"}, {"bike_id": "94ca1c5982e3f3901a8aea7af345d91b", "lat": 38.909602, "is_disabled": 0, "lon": -77.04634416666667, "fusion_lon": 0.0, "is_reserved": 0, "fusion_lat": 0.0, "rental_uris": {"android": "https://dc.lft.to/lastmile_qr_scan", "ios": "https://dc.lft.to/lastmile_qr_scan"}, "type": "electric_scooter", "name": "94ca1c5982e3f3901a8aea7af345d91b"}, {"bike_id": "00f6482fc37f4f710b872d94eaac3e97", "lat": 38.894890833333335, "is_disabled": 0, "lon": -77.01909066666667, "fusion_lon": 0.0, "is_reserved": 0, "fusion_lat": 0.0, "rental_uris": {"android": "https://dc.lft.to/lastmile_qr_scan", "ios": "https://dc.lft.to/lastmile_qr_scan"}, "type": "electric_scooter", "name": "00f6482fc37f4f710b872d94eaac3e97"}, {"bike_id": "277e385a5f9768caeb7e309d632df927", "lat": 38.8869485, "is_disabled": 0, "lon": -76.940339, "fusion_lon": 0.0, "is_reserved": 0, "fusion_lat": 0.0, "rental_uris": {"android": "https://dc.lft.to/lastmile_qr_scan", "ios": "https://dc.lft.to/lastmile_qr_scan"}, "type": "electric_scooter", "name": "277e385a5f9768caeb7e309d632df927"}, {"bike_id": "95ecd901ea196fe5f3ce8aef49faf20f", "lat": 38.924807, "is_disabled": 0, "lon": -77.0393945, "fusion_lon": 0.0, "is_reserved": 0, "fusion_lat": 0.0, "rental_uris": {"android": "https://dc.lft.to/lastmile_qr_scan", "ios": "https://dc.lft.to/lastmile_qr_scan"}, "type": "electric_scooter", "name": "95ecd901ea196fe5f3ce8aef49faf20f"}, {"bike_id": "edb5d44d64f1cc81bdfa201e9c9389bb", "lat": 38.92141616666667, "is_disabled": 0, "lon": -77.01858383333334, "fusion_lon": 0.0, "is_reserved": 0, "fusion_lat": 0.0, "rental_uris": {"android": "https://dc.lft.to/lastmile_qr_scan", "ios": "https://dc.lft.to/lastmile_qr_scan"}, "type": "electric_scooter", "name": "edb5d44d64f1cc81bdfa201e9c9389bb"}, {"bike_id": "06f15ec8958000933be78791a72fcb1b", "lat": 38.919992, "is_disabled": 0, "lon": -76.95818533333333, "fusion_lon": 0.0, "is_reserved": 0, "fusion_lat": 0.0, "rental_uris": {"android": "https://dc.lft.to/lastmile_qr_scan", "ios": "https://dc.lft.to/lastmile_qr_scan"}, "type": "electric_bike", "name": "06f15ec8958000933be78791a72fcb1b"}, {"bike_id": "3edacfb384358e2bc61b4237930abb21", "lat": 38.892778166666666, "is_disabled": 0, "lon": -77.003753, "fusion_lon": 0.0, "is_reserved": 0, "fusion_lat": 0.0, "rental_uris": {"android": "https://dc.lft.to/lastmile_qr_scan", "ios": "https://dc.lft.to/lastmile_qr_scan"}, "type": "electric_scooter", "name": "3edacfb384358e2bc61b4237930abb21"}, {"bike_id": "42d5aa540907af48cbb4e9d7bf228d87", "lat": 38.907320666666664, "is_disabled": 0, "lon": -76.97980616666666, "fusion_lon": 0.0, "is_reserved": 0, "fusion_lat": 0.0, "rental_uris": {"android": "https://dc.lft.to/lastmile_qr_scan", "ios": "https://dc.lft.to/lastmile_qr_scan"}, "type": "electric_scooter", "name": "42d5aa540907af48cbb4e9d7bf228d87"}, {"bike_id": "2b16f5211622dad444b15d3c3856989e", "lat": 38.9269555, "is_disabled": 0, "lon": -77.02097166666667, "fusion_lon": 0.0, "is_reserved": 0, "fusion_lat": 0.0, "rental_uris": {"android": "https://dc.lft.to/lastmile_qr_scan", "ios": "https://dc.lft.to/lastmile_qr_scan"}, "type": "electric_scooter", "name": "2b16f5211622dad444b15d3c3856989e"}, {"bike_id": "5201ed8658b96747671effd3a47ba887", "lat": 38.91405916666667, "is_disabled": 0, "lon": -77.039077, "fusion_lon": 0.0, "is_reserved": 0, "fusion_lat": 0.0, "rental_uris": {"android": "https://dc.lft.to/lastmile_qr_scan", "ios": "https://dc.lft.to/lastmile_qr_scan"}, "type": "electric_scooter", "name": "5201ed8658b96747671effd3a47ba887"}, {"bike_id": "beccc2292ac618417f3065ac15f170ac", "lat": 38.923396, "is_disabled": 0, "lon": -77.03507433333333, "fusion_lon": 0.0, "is_reserved": 0, "fusion_lat": 0.0, "rental_uris": {"android": "https://dc.lft.to/lastmile_qr_scan", "ios": "https://dc.lft.to/lastmile_qr_scan"}, "type": "electric_scooter", "name": "beccc2292ac618417f3065ac15f170ac"}, {"bike_id": "a3e834dbaafff65b688ad6e0cf80ed40", "lat": 38.92364933333333, "is_disabled": 0, "lon": -77.02104816666667, "fusion_lon": 0.0, "is_reserved": 0, "fusion_lat": 0.0, "rental_uris": {"android": "https://dc.lft.to/lastmile_qr_scan", "ios": "https://dc.lft.to/lastmile_qr_scan"}, "type": "electric_scooter", "name": "a3e834dbaafff65b688ad6e0cf80ed40"}, {"bike_id": "70ed1eceb45784b245b9ee06f2c322fe", "lat": 38.911061333333336, "is_disabled": 0, "lon": -77.04456383333333, "fusion_lon": 0.0, "is_reserved": 0, "fusion_lat": 0.0, "rental_uris": {"android": "https://dc.lft.to/lastmile_qr_scan", "ios": "https://dc.lft.to/lastmile_qr_scan"}, "type": "electric_scooter", "name": "70ed1eceb45784b245b9ee06f2c322fe"}, {"bike_id": "d71452036c1c872cfab5a915dc9de2b0", "lat": 38.93844166666667, "is_disabled": 0, "lon": -77.02837933333333, "fusion_lon": 0.0, "is_reserved": 0, "fusion_lat": 0.0, "rental_uris": {"android": "https://dc.lft.to/lastmile_qr_scan", "ios": "https://dc.lft.to/lastmile_qr_scan"}, "type": "electric_scooter", "name": "d71452036c1c872cfab5a915dc9de2b0"}, {"bike_id": "74ad07b3a5799a0343a1f5948b9b2f32", "lat": 38.89223033333333, "is_disabled": 0, "lon": -77.045138, "fusion_lon": 0.0, "is_reserved": 0, "fusion_lat": 0.0, "rental_uris": {"android": "https://dc.lft.to/lastmile_qr_scan", "ios": "https://dc.lft.to/lastmile_qr_scan"}, "type": "electric_scooter", "name": "74ad07b3a5799a0343a1f5948b9b2f32"}, {"bike_id": "694470920d8a1accca2ca3be8fe60bc0", "lat": 38.9081415, "is_disabled": 0, "lon": -76.9971305, "fusion_lon": 0.0, "is_reserved": 0, "fusion_lat": 0.0, "rental_uris": {"android": "https://dc.lft.to/lastmile_qr_scan", "ios": "https://dc.lft.to/lastmile_qr_scan"}, "type": "electric_scooter", "name": "694470920d8a1accca2ca3be8fe60bc0"}, {"bike_id": "7355193c1df5bec6e799968439380588", "lat": 38.90714633333333, "is_disabled": 0, "lon": -77.04150383333334, "fusion_lon": 0.0, "is_reserved": 0, "fusion_lat": 0.0, "rental_uris": {"android": "https://dc.lft.to/lastmile_qr_scan", "ios": "https://dc.lft.to/lastmile_qr_scan"}, "type": "electric_scooter", "name": "7355193c1df5bec6e799968439380588"}, {"bike_id": "8733cb02124e20b88bcf14b68f78adaa", "lat": 38.929742166666664, "is_disabled": 0, "lon": -77.03770183333333, "fusion_lon": 0.0, "is_reserved": 0, "fusion_lat": 0.0, "rental_uris": {"android": "https://dc.lft.to/lastmile_qr_scan", "ios": "https://dc.lft.to/lastmile_qr_scan"}, "type": "electric_scooter", "name": "8733cb02124e20b88bcf14b68f78adaa"}, {"bike_id": "722e26b7e5acf146231cfe0d53b331d0", "lat": 38.90073816666666, "is_disabled": 0, "lon": -77.02621966666666, "fusion_lon": 0.0, "is_reserved": 0, "fusion_lat": 0.0, "rental_uris": {"android": "https://dc.lft.to/lastmile_qr_scan", "ios": "https://dc.lft.to/lastmile_qr_scan"}, "type": "electric_scooter", "name": "722e26b7e5acf146231cfe0d53b331d0"}, {"bike_id": "9bb574a761fe44906b786fd1b7f974ad", "lat": 38.89221933333334, "is_disabled": 0, "lon": -77.04195833333333, "fusion_lon": 0.0, "is_reserved": 0, "fusion_lat": 0.0, "rental_uris": {"android": "https://dc.lft.to/lastmile_qr_scan", "ios": "https://dc.lft.to/lastmile_qr_scan"}, "type": "electric_scooter", "name": "9bb574a761fe44906b786fd1b7f974ad"}, {"bike_id": "417b0e4894274ac8ab743db030f97db2", "lat": 38.89219383333333, "is_disabled": 0, "lon": -77.028293, "fusion_lon": 0.0, "is_reserved": 0, "fusion_lat": 0.0, "rental_uris": {"android": "https://dc.lft.to/lastmile_qr_scan", "ios": "https://dc.lft.to/lastmile_qr_scan"}, "type": "electric_scooter", "name": "417b0e4894274ac8ab743db030f97db2"}, {"bike_id": "be61c97998af8413793f2c2e1a9ad39e", "lat": 38.92357916666667, "is_disabled": 0, "lon": -77.01894666666666, "fusion_lon": 0.0, "is_reserved": 0, "fusion_lat": 0.0, "rental_uris": {"android": "https://dc.lft.to/lastmile_qr_scan", "ios": "https://dc.lft.to/lastmile_qr_scan"}, "type": "electric_scooter", "name": "be61c97998af8413793f2c2e1a9ad39e"}, {"bike_id": "c72bd1b0fcee82937f5d4337518810cb", "lat": 38.896213, "is_disabled": 0, "lon": -76.90739983333333, "fusion_lon": 0.0, "is_reserved": 0, "fusion_lat": 0.0, "rental_uris": {"android": "https://dc.lft.to/lastmile_qr_scan", "ios": "https://dc.lft.to/lastmile_qr_scan"}, "type": "electric_bike", "name": "c72bd1b0fcee82937f5d4337518810cb"}, {"bike_id": "6b608f467ba65356478046ef671fae21", "lat": 38.91953783333334, "is_disabled": 0, "lon": -77.02511833333334, "fusion_lon": 0.0, "is_reserved": 0, "fusion_lat": 0.0, "rental_uris": {"android": "https://dc.lft.to/lastmile_qr_scan", "ios": "https://dc.lft.to/lastmile_qr_scan"}, "type": "electric_scooter", "name": "6b608f467ba65356478046ef671fae21"}, {"bike_id": "517a5a095830a96b15b9398766f2a3b9", "lat": 38.9164035, "is_disabled": 0, "lon": -77.02275, "fusion_lon": 0.0, "is_reserved": 0, "fusion_lat": 0.0, "rental_uris": {"android": "https://dc.lft.to/lastmile_qr_scan", "ios": "https://dc.lft.to/lastmile_qr_scan"}, "type": "electric_scooter", "name": "517a5a095830a96b15b9398766f2a3b9"}, {"bike_id": "0c7ba74e47b705549e42945b44bbbba4", "lat": 38.920929, "is_disabled": 0, "lon": -77.02392916666666, "fusion_lon": 0.0, "is_reserved": 0, "fusion_lat": 0.0, "rental_uris": {"android": "https://dc.lft.to/lastmile_qr_scan", "ios": "https://dc.lft.to/lastmile_qr_scan"}, "type": "electric_scooter", "name": "0c7ba74e47b705549e42945b44bbbba4"}, {"bike_id": "3490a5cebbe169829e0715ff539fe688", "lat": 38.91416733333333, "is_disabled": 0, "lon": -77.03992983333333, "fusion_lon": 0.0, "is_reserved": 0, "fusion_lat": 0.0, "rental_uris": {"android": "https://dc.lft.to/lastmile_qr_scan", "ios": "https://dc.lft.to/lastmile_qr_scan"}, "type": "electric_scooter", "name": "3490a5cebbe169829e0715ff539fe688"}, {"bike_id": "252b41837f2a9fc365ef7fc593506ce9", "lat": 38.922984666666665, "is_disabled": 0, "lon": -77.04144516666666, "fusion_lon": 0.0, "is_reserved": 0, "fusion_lat": 0.0, "rental_uris": {"android": "https://dc.lft.to/lastmile_qr_scan", "ios": "https://dc.lft.to/lastmile_qr_scan"}, "type": "electric_scooter", "name": "252b41837f2a9fc365ef7fc593506ce9"}, {"bike_id": "eaf75ed5c46acade083c5a357b83ae57", "lat": 38.900603, "is_disabled": 0, "lon": -76.985214, "fusion_lon": 0.0, "is_reserved": 0, "fusion_lat": 0.0, "rental_uris": {"android": "https://dc.lft.to/lastmile_qr_scan", "ios": "https://dc.lft.to/lastmile_qr_scan"}, "type": "electric_scooter", "name": "eaf75ed5c46acade083c5a357b83ae57"}, {"bike_id": "955b3892169c8bb52aeb436fbe082b02", "lat": 38.91566566666667, "is_disabled": 0, "lon": -77.02007083333334, "fusion_lon": 0.0, "is_reserved": 0, "fusion_lat": 0.0, "rental_uris": {"android": "https://dc.lft.to/lastmile_qr_scan", "ios": "https://dc.lft.to/lastmile_qr_scan"}, "type": "electric_scooter", "name": "955b3892169c8bb52aeb436fbe082b02"}, {"bike_id": "a0f7f97fb6ba3bd971915d05fd9b2497", "lat": 38.92519266666667, "is_disabled": 0, "lon": -77.03888683333334, "fusion_lon": 0.0, "is_reserved": 0, "fusion_lat": 0.0, "rental_uris": {"android": "https://dc.lft.to/lastmile_qr_scan", "ios": "https://dc.lft.to/lastmile_qr_scan"}, "type": "electric_scooter", "name": "a0f7f97fb6ba3bd971915d05fd9b2497"}, {"bike_id": "07f1d52bc1641cce5108f415adba8bcf", "lat": 38.89223466666667, "is_disabled": 0, "lon": -77.04336733333334, "fusion_lon": 0.0, "is_reserved": 0, "fusion_lat": 0.0, "rental_uris": {"android": "https://dc.lft.to/lastmile_qr_scan", "ios": "https://dc.lft.to/lastmile_qr_scan"}, "type": "electric_scooter", "name": "07f1d52bc1641cce5108f415adba8bcf"}, {"bike_id": "1838ce353e73beccfdab194e2c80dbe9", "lat": 38.8917735, "is_disabled": 0, "lon": -77.015623, "fusion_lon": 0.0, "is_reserved": 0, "fusion_lat": 0.0, "rental_uris": {"android": "https://dc.lft.to/lastmile_qr_scan", "ios": "https://dc.lft.to/lastmile_qr_scan"}, "type": "electric_scooter", "name": "1838ce353e73beccfdab194e2c80dbe9"}, {"bike_id": "1f9f04d5d4ec777911d5ca4530ba6ade", "lat": 38.9206355, "is_disabled": 0, "lon": -77.03261516666667, "fusion_lon": 0.0, "is_reserved": 0, "fusion_lat": 0.0, "rental_uris": {"android": "https://dc.lft.to/lastmile_qr_scan", "ios": "https://dc.lft.to/lastmile_qr_scan"}, "type": "electric_scooter", "name": "1f9f04d5d4ec777911d5ca4530ba6ade"}, {"bike_id": "c2890217eefad6f6177f9e4b9348adef", "lat": 38.91317983333333, "is_disabled": 0, "lon": -77.03651366666666, "fusion_lon": 0.0, "is_reserved": 0, "fusion_lat": 0.0, "rental_uris": {"android": "https://dc.lft.to/lastmile_qr_scan", "ios": "https://dc.lft.to/lastmile_qr_scan"}, "type": "electric_scooter", "name": "c2890217eefad6f6177f9e4b9348adef"}, {"bike_id": "d4fab3606157d9294ef226dc41a5e53a", "lat": 38.91109816666667, "is_disabled": 0, "lon": -77.00693416666667, "fusion_lon": 0.0, "is_reserved": 0, "fusion_lat": 0.0, "rental_uris": {"android": "https://dc.lft.to/lastmile_qr_scan", "ios": "https://dc.lft.to/lastmile_qr_scan"}, "type": "electric_scooter", "name": "d4fab3606157d9294ef226dc41a5e53a"}, {"bike_id": "3dc4ec1d59ec90906253a54cb4766916", "lat": 38.89731716666667, "is_disabled": 0, "lon": -77.02692566666667, "fusion_lon": 0.0, "is_reserved": 0, "fusion_lat": 0.0, "rental_uris": {"android": "https://dc.lft.to/lastmile_qr_scan", "ios": "https://dc.lft.to/lastmile_qr_scan"}, "type": "electric_scooter", "name": "3dc4ec1d59ec90906253a54cb4766916"}, {"bike_id": "81f623f21e3beb72cfe1ea0ccae5123f", "lat": 38.91808183333333, "is_disabled": 0, "lon": -77.0392735, "fusion_lon": 0.0, "is_reserved": 0, "fusion_lat": 0.0, "rental_uris": {"android": "https://dc.lft.to/lastmile_qr_scan", "ios": "https://dc.lft.to/lastmile_qr_scan"}, "type": "electric_scooter", "name": "81f623f21e3beb72cfe1ea0ccae5123f"}, {"bike_id": "587d406c455866e6511c4dd20ff4cb38", "lat": 38.886818833333336, "is_disabled": 0, "lon": -77.01371916666666, "fusion_lon": 0.0, "is_reserved": 0, "fusion_lat": 0.0, "rental_uris": {"android": "https://dc.lft.to/lastmile_qr_scan", "ios": "https://dc.lft.to/lastmile_qr_scan"}, "type": "electric_scooter", "name": "587d406c455866e6511c4dd20ff4cb38"}, {"bike_id": "431e8a200e6ded68b8a5983eaa0ad4da", "lat": 38.918186666666664, "is_disabled": 0, "lon": -77.02705, "fusion_lon": 0.0, "is_reserved": 0, "fusion_lat": 0.0, "rental_uris": {"android": "https://dc.lft.to/lastmile_qr_scan", "ios": "https://dc.lft.to/lastmile_qr_scan"}, "type": "electric_scooter", "name": "431e8a200e6ded68b8a5983eaa0ad4da"}, {"bike_id": "7a21a302298d1bb3f6ab86d3519b7797", "lat": 38.91190816666666, "is_disabled": 0, "lon": -77.04223066666667, "fusion_lon": 0.0, "is_reserved": 0, "fusion_lat": 0.0, "rental_uris": {"android": "https://dc.lft.to/lastmile_qr_scan", "ios": "https://dc.lft.to/lastmile_qr_scan"}, "type": "electric_scooter", "name": "7a21a302298d1bb3f6ab86d3519b7797"}, {"bike_id": "d911db9c4ee4b4c71624c9278ff2b027", "lat": 38.85723483333334, "is_disabled": 0, "lon": -76.97775216666666, "fusion_lon": 0.0, "is_reserved": 0, "fusion_lat": 0.0, "rental_uris": {"android": "https://dc.lft.to/lastmile_qr_scan", "ios": "https://dc.lft.to/lastmile_qr_scan"}, "type": "electric_bike", "name": "d911db9c4ee4b4c71624c9278ff2b027"}, {"bike_id": "ade620d725ef1787a3d4d2b28e4fe39f", "lat": 38.92267866666667, "is_disabled": 0, "lon": -77.02968216666666, "fusion_lon": 0.0, "is_reserved": 0, "fusion_lat": 0.0, "rental_uris": {"android": "https://dc.lft.to/lastmile_qr_scan", "ios": "https://dc.lft.to/lastmile_qr_scan"}, "type": "electric_scooter", "name": "ade620d725ef1787a3d4d2b28e4fe39f"}, {"bike_id": "04745ebc527e0e783a4fd5e663600577", "lat": 38.93305983333333, "is_disabled": 0, "lon": -77.03085533333334, "fusion_lon": 0.0, "is_reserved": 0, "fusion_lat": 0.0, "rental_uris": {"android": "https://dc.lft.to/lastmile_qr_scan", "ios": "https://dc.lft.to/lastmile_qr_scan"}, "type": "electric_scooter", "name": "04745ebc527e0e783a4fd5e663600577"}, {"bike_id": "df5858aa8a6df7704d47675f015fbd12", "lat": 38.884357666666666, "is_disabled": 0, "lon": -77.01519133333333, "fusion_lon": 0.0, "is_reserved": 0, "fusion_lat": 0.0, "rental_uris": {"android": "https://dc.lft.to/lastmile_qr_scan", "ios": "https://dc.lft.to/lastmile_qr_scan"}, "type": "electric_scooter", "name": "df5858aa8a6df7704d47675f015fbd12"}, {"bike_id": "86e7b2df37b73cedf3f7a2409ada741c", "lat": 38.89223616666666, "is_disabled": 0, "lon": -77.0433655, "fusion_lon": 0.0, "is_reserved": 0, "fusion_lat": 0.0, "rental_uris": {"android": "https://dc.lft.to/lastmile_qr_scan", "ios": "https://dc.lft.to/lastmile_qr_scan"}, "type": "electric_scooter", "name": "86e7b2df37b73cedf3f7a2409ada741c"}, {"bike_id": "7cae498643e2c9f1127417f801168ec7", "lat": 38.95652783333333, "is_disabled": 0, "lon": -77.013149, "fusion_lon": 0.0, "is_reserved": 0, "fusion_lat": 0.0, "rental_uris": {"android": "https://dc.lft.to/lastmile_qr_scan", "ios": "https://dc.lft.to/lastmile_qr_scan"}, "type": "electric_scooter", "name": "7cae498643e2c9f1127417f801168ec7"}, {"bike_id": "0945484217ce12f90cf0c5e4f3d1ca6a", "lat": 38.904625, "is_disabled": 0, "lon": -77.0355205, "fusion_lon": 0.0, "is_reserved": 0, "fusion_lat": 0.0, "rental_uris": {"android": "https://dc.lft.to/lastmile_qr_scan", "ios": "https://dc.lft.to/lastmile_qr_scan"}, "type": "electric_scooter", "name": "0945484217ce12f90cf0c5e4f3d1ca6a"}, {"bike_id": "f9e872aad8e20239042b2b1a88880a4e", "lat": 38.905417, "is_disabled": 0, "lon": -77.005724, "fusion_lon": 0.0, "is_reserved": 0, "fusion_lat": 0.0, "rental_uris": {"android": "https://dc.lft.to/lastmile_qr_scan", "ios": "https://dc.lft.to/lastmile_qr_scan"}, "type": "electric_scooter", "name": "f9e872aad8e20239042b2b1a88880a4e"}, {"bike_id": "e5d558cd790bd787585a35f34d480260", "lat": 38.92443566666667, "is_disabled": 0, "lon": -77.03327133333333, "fusion_lon": 0.0, "is_reserved": 0, "fusion_lat": 0.0, "rental_uris": {"android": "https://dc.lft.to/lastmile_qr_scan", "ios": "https://dc.lft.to/lastmile_qr_scan"}, "type": "electric_scooter", "name": "e5d558cd790bd787585a35f34d480260"}, {"bike_id": "b10e44b8c577ada445a5f8e2ea7e10ea", "lat": 38.866597166666665, "is_disabled": 0, "lon": -76.98886116666667, "fusion_lon": 0.0, "is_reserved": 0, "fusion_lat": 0.0, "rental_uris": {"android": "https://dc.lft.to/lastmile_qr_scan", "ios": "https://dc.lft.to/lastmile_qr_scan"}, "type": "electric_scooter", "name": "b10e44b8c577ada445a5f8e2ea7e10ea"}, {"bike_id": "1c01b58feed7d3e6457755570db18897", "lat": 39.08435033333333, "is_disabled": 0, "lon": -76.951575, "fusion_lon": 0.0, "is_reserved": 0, "fusion_lat": 0.0, "rental_uris": {"android": "https://dc.lft.to/lastmile_qr_scan", "ios": "https://dc.lft.to/lastmile_qr_scan"}, "type": "electric_bike", "name": "1c01b58feed7d3e6457755570db18897"}, {"bike_id": "1df4d726f0780b0a8306b856b9f255f2", "lat": 38.923995833333336, "is_disabled": 0, "lon": -77.04274316666667, "fusion_lon": 0.0, "is_reserved": 0, "fusion_lat": 0.0, "rental_uris": {"android": "https://dc.lft.to/lastmile_qr_scan", "ios": "https://dc.lft.to/lastmile_qr_scan"}, "type": "electric_scooter", "name": "1df4d726f0780b0a8306b856b9f255f2"}, {"bike_id": "5d21f74da43d9c6847c55c1cb3bd99d1", "lat": 38.905841333333335, "is_disabled": 0, "lon": -77.04691566666666, "fusion_lon": 0.0, "is_reserved": 0, "fusion_lat": 0.0, "rental_uris": {"android": "https://dc.lft.to/lastmile_qr_scan", "ios": "https://dc.lft.to/lastmile_qr_scan"}, "type": "electric_scooter", "name": "5d21f74da43d9c6847c55c1cb3bd99d1"}, {"bike_id": "3df7f036abecbd961ebffec4febfc8e7", "lat": 38.8838815, "is_disabled": 0, "lon": -76.930484, "fusion_lon": 0.0, "is_reserved": 0, "fusion_lat": 0.0, "rental_uris": {"android": "https://dc.lft.to/lastmile_qr_scan", "ios": "https://dc.lft.to/lastmile_qr_scan"}, "type": "electric_scooter", "name": "3df7f036abecbd961ebffec4febfc8e7"}, {"bike_id": "c09124c8977d9031fd53003171792a5d", "lat": 38.952447166666666, "is_disabled": 0, "lon": -77.0077025, "fusion_lon": 0.0, "is_reserved": 0, "fusion_lat": 0.0, "rental_uris": {"android": "https://dc.lft.to/lastmile_qr_scan", "ios": "https://dc.lft.to/lastmile_qr_scan"}, "type": "electric_scooter", "name": "c09124c8977d9031fd53003171792a5d"}, {"bike_id": "dfd78c4d208199cf35dd994da328b02e", "lat": 38.88269783333333, "is_disabled": 0, "lon": -77.228247, "fusion_lon": 0.0, "is_reserved": 0, "fusion_lat": 0.0, "rental_uris": {"android": "https://dc.lft.to/lastmile_qr_scan", "ios": "https://dc.lft.to/lastmile_qr_scan"}, "type": "electric_bike", "name": "dfd78c4d208199cf35dd994da328b02e"}, {"bike_id": "53c6e81286086bd342feb227f8c6b03d", "lat": 38.91406833333333, "is_disabled": 0, "lon": -77.02832433333333, "fusion_lon": 0.0, "is_reserved": 0, "fusion_lat": 0.0, "rental_uris": {"android": "https://dc.lft.to/lastmile_qr_scan", "ios": "https://dc.lft.to/lastmile_qr_scan"}, "type": "electric_scooter", "name": "53c6e81286086bd342feb227f8c6b03d"}, {"bike_id": "05749b8001f1d72099c3a0e14b0abade", "lat": 38.89469833333333, "is_disabled": 0, "lon": -76.949622, "fusion_lon": 0.0, "is_reserved": 0, "fusion_lat": 0.0, "rental_uris": {"android": "https://dc.lft.to/lastmile_qr_scan", "ios": "https://dc.lft.to/lastmile_qr_scan"}, "type": "electric_scooter", "name": "05749b8001f1d72099c3a0e14b0abade"}, {"bike_id": "f375eae8b96aa0dbe611cf814f5e501b", "lat": 38.91129933333333, "is_disabled": 0, "lon": -77.02199383333334, "fusion_lon": 0.0, "is_reserved": 0, "fusion_lat": 0.0, "rental_uris": {"android": "https://dc.lft.to/lastmile_qr_scan", "ios": "https://dc.lft.to/lastmile_qr_scan"}, "type": "electric_scooter", "name": "f375eae8b96aa0dbe611cf814f5e501b"}, {"bike_id": "a7668cf64e1a5077cc07a9e77c8d3654", "lat": 38.9285695, "is_disabled": 0, "lon": -77.03100316666666, "fusion_lon": 0.0, "is_reserved": 0, "fusion_lat": 0.0, "rental_uris": {"android": "https://dc.lft.to/lastmile_qr_scan", "ios": "https://dc.lft.to/lastmile_qr_scan"}, "type": "electric_scooter", "name": "a7668cf64e1a5077cc07a9e77c8d3654"}, {"bike_id": "cba7bc25e2739e7da91d4ae34615d617", "lat": 38.942314833333334, "is_disabled": 0, "lon": -77.038646, "fusion_lon": 0.0, "is_reserved": 0, "fusion_lat": 0.0, "rental_uris": {"android": "https://dc.lft.to/lastmile_qr_scan", "ios": "https://dc.lft.to/lastmile_qr_scan"}, "type": "electric_scooter", "name": "cba7bc25e2739e7da91d4ae34615d617"}, {"bike_id": "bc424741d236bbfa43de4448f6a37b2c", "lat": 38.88489583333333, "is_disabled": 0, "lon": -76.95759233333334, "fusion_lon": 0.0, "is_reserved": 0, "fusion_lat": 0.0, "rental_uris": {"android": "https://dc.lft.to/lastmile_qr_scan", "ios": "https://dc.lft.to/lastmile_qr_scan"}, "type": "electric_bike", "name": "bc424741d236bbfa43de4448f6a37b2c"}, {"bike_id": "11d72a5c9bf0bed0348ca4df29ff635e", "lat": 38.921642, "is_disabled": 0, "lon": -77.046956, "fusion_lon": 0.0, "is_reserved": 0, "fusion_lat": 0.0, "rental_uris": {"android": "https://dc.lft.to/lastmile_qr_scan", "ios": "https://dc.lft.to/lastmile_qr_scan"}, "type": "electric_scooter", "name": "11d72a5c9bf0bed0348ca4df29ff635e"}, {"bike_id": "40a6f860cbde5694a46d761d67acde38", "lat": 38.92391116666667, "is_disabled": 0, "lon": -77.03408966666667, "fusion_lon": 0.0, "is_reserved": 0, "fusion_lat": 0.0, "rental_uris": {"android": "https://dc.lft.to/lastmile_qr_scan", "ios": "https://dc.lft.to/lastmile_qr_scan"}, "type": "electric_scooter", "name": "40a6f860cbde5694a46d761d67acde38"}, {"bike_id": "7b32f2a1ae8339df74322bb536698a0a", "lat": 38.909745, "is_disabled": 0, "lon": -76.9846535, "fusion_lon": 0.0, "is_reserved": 0, "fusion_lat": 0.0, "rental_uris": {"android": "https://dc.lft.to/lastmile_qr_scan", "ios": "https://dc.lft.to/lastmile_qr_scan"}, "type": "electric_bike", "name": "7b32f2a1ae8339df74322bb536698a0a"}, {"bike_id": "1d25c21618288101c54db5ef2c9338f3", "lat": 38.887189, "is_disabled": 0, "lon": -77.02201683333334, "fusion_lon": 0.0, "is_reserved": 0, "fusion_lat": 0.0, "rental_uris": {"android": "https://dc.lft.to/lastmile_qr_scan", "ios": "https://dc.lft.to/lastmile_qr_scan"}, "type": "electric_scooter", "name": "1d25c21618288101c54db5ef2c9338f3"}, {"bike_id": "7cd36ebf14ad0b0274f1e7b065e2ce07", "lat": 38.928737166666664, "is_disabled": 0, "lon": -77.0336145, "fusion_lon": 0.0, "is_reserved": 0, "fusion_lat": 0.0, "rental_uris": {"android": "https://dc.lft.to/lastmile_qr_scan", "ios": "https://dc.lft.to/lastmile_qr_scan"}, "type": "electric_scooter", "name": "7cd36ebf14ad0b0274f1e7b065e2ce07"}, {"bike_id": "b2ee75ab6b092771cd5a3b0bf7d811ce", "lat": 38.906339833333334, "is_disabled": 0, "lon": -77.04332, "fusion_lon": 0.0, "is_reserved": 0, "fusion_lat": 0.0, "rental_uris": {"android": "https://dc.lft.to/lastmile_qr_scan", "ios": "https://dc.lft.to/lastmile_qr_scan"}, "type": "electric_scooter", "name": "b2ee75ab6b092771cd5a3b0bf7d811ce"}, {"bike_id": "f761e933acbe857f8420e4e7ec943e4c", "lat": 38.91709516666667, "is_disabled": 0, "lon": -77.02568966666666, "fusion_lon": 0.0, "is_reserved": 0, "fusion_lat": 0.0, "rental_uris": {"android": "https://dc.lft.to/lastmile_qr_scan", "ios": "https://dc.lft.to/lastmile_qr_scan"}, "type": "electric_scooter", "name": "f761e933acbe857f8420e4e7ec943e4c"}, {"bike_id": "5c62de1c8ef42efc9c1286235ca9d80e", "lat": 38.901098833333336, "is_disabled": 0, "lon": -77.04431383333333, "fusion_lon": 0.0, "is_reserved": 0, "fusion_lat": 0.0, "rental_uris": {"android": "https://dc.lft.to/lastmile_qr_scan", "ios": "https://dc.lft.to/lastmile_qr_scan"}, "type": "electric_scooter", "name": "5c62de1c8ef42efc9c1286235ca9d80e"}, {"bike_id": "2281f051129e6a212312f06ee54c16a9", "lat": 38.922975, "is_disabled": 0, "lon": -77.02324016666667, "fusion_lon": 0.0, "is_reserved": 0, "fusion_lat": 0.0, "rental_uris": {"android": "https://dc.lft.to/lastmile_qr_scan", "ios": "https://dc.lft.to/lastmile_qr_scan"}, "type": "electric_scooter", "name": "2281f051129e6a212312f06ee54c16a9"}, {"bike_id": "39a46fa055236858041417bb17f8f3e4", "lat": 38.91424666666666, "is_disabled": 0, "lon": -77.04592033333333, "fusion_lon": 0.0, "is_reserved": 0, "fusion_lat": 0.0, "rental_uris": {"android": "https://dc.lft.to/lastmile_qr_scan", "ios": "https://dc.lft.to/lastmile_qr_scan"}, "type": "electric_scooter", "name": "39a46fa055236858041417bb17f8f3e4"}, {"bike_id": "07c09a6e3ca2604d478d9d054ce815ee", "lat": 38.93313083333334, "is_disabled": 0, "lon": -77.0292545, "fusion_lon": 0.0, "is_reserved": 0, "fusion_lat": 0.0, "rental_uris": {"android": "https://dc.lft.to/lastmile_qr_scan", "ios": "https://dc.lft.to/lastmile_qr_scan"}, "type": "electric_scooter", "name": "07c09a6e3ca2604d478d9d054ce815ee"}, {"bike_id": "052d5b4c7d869332852384c3e39c54e1", "lat": 38.918705833333334, "is_disabled": 0, "lon": -77.04483116666667, "fusion_lon": 0.0, "is_reserved": 0, "fusion_lat": 0.0, "rental_uris": {"android": "https://dc.lft.to/lastmile_qr_scan", "ios": "https://dc.lft.to/lastmile_qr_scan"}, "type": "electric_scooter", "name": "052d5b4c7d869332852384c3e39c54e1"}, {"bike_id": "4ae54d3b7839f172195aca4477633a81", "lat": 38.91320416666667, "is_disabled": 0, "lon": -77.04714583333333, "fusion_lon": 0.0, "is_reserved": 0, "fusion_lat": 0.0, "rental_uris": {"android": "https://dc.lft.to/lastmile_qr_scan", "ios": "https://dc.lft.to/lastmile_qr_scan"}, "type": "electric_scooter", "name": "4ae54d3b7839f172195aca4477633a81"}, {"bike_id": "b5d885ad8d409593ff91c5a4b243a09e", "lat": 38.857297833333334, "is_disabled": 0, "lon": -76.99101783333333, "fusion_lon": 0.0, "is_reserved": 0, "fusion_lat": 0.0, "rental_uris": {"android": "https://dc.lft.to/lastmile_qr_scan", "ios": "https://dc.lft.to/lastmile_qr_scan"}, "type": "electric_scooter", "name": "b5d885ad8d409593ff91c5a4b243a09e"}, {"bike_id": "018b2a39998399a641f5d444d65e630e", "lat": 38.9071355, "is_disabled": 0, "lon": -77.045117, "fusion_lon": 0.0, "is_reserved": 0, "fusion_lat": 0.0, "rental_uris": {"android": "https://dc.lft.to/lastmile_qr_scan", "ios": "https://dc.lft.to/lastmile_qr_scan"}, "type": "electric_scooter", "name": "018b2a39998399a641f5d444d65e630e"}, {"bike_id": "20102a25bf1b1edce3d9937b65188d96", "lat": 38.90471866666667, "is_disabled": 0, "lon": -76.99500283333333, "fusion_lon": 0.0, "is_reserved": 0, "fusion_lat": 0.0, "rental_uris": {"android": "https://dc.lft.to/lastmile_qr_scan", "ios": "https://dc.lft.to/lastmile_qr_scan"}, "type": "electric_scooter", "name": "20102a25bf1b1edce3d9937b65188d96"}, {"bike_id": "c8595b12858191d343be6b517fd635d9", "lat": 38.90558266666667, "is_disabled": 0, "lon": -77.03251683333333, "fusion_lon": 0.0, "is_reserved": 0, "fusion_lat": 0.0, "rental_uris": {"android": "https://dc.lft.to/lastmile_qr_scan", "ios": "https://dc.lft.to/lastmile_qr_scan"}, "type": "electric_scooter", "name": "c8595b12858191d343be6b517fd635d9"}, {"bike_id": "915d7a0ff811d489696c52e9923f1a4c", "lat": 38.922518833333335, "is_disabled": 0, "lon": -77.02008533333333, "fusion_lon": 0.0, "is_reserved": 0, "fusion_lat": 0.0, "rental_uris": {"android": "https://dc.lft.to/lastmile_qr_scan", "ios": "https://dc.lft.to/lastmile_qr_scan"}, "type": "electric_scooter", "name": "915d7a0ff811d489696c52e9923f1a4c"}, {"bike_id": "b74740201bad0940db100aebbe94e812", "lat": 38.923542166666664, "is_disabled": 0, "lon": -77.01900466666666, "fusion_lon": 0.0, "is_reserved": 0, "fusion_lat": 0.0, "rental_uris": {"android": "https://dc.lft.to/lastmile_qr_scan", "ios": "https://dc.lft.to/lastmile_qr_scan"}, "type": "electric_scooter", "name": "b74740201bad0940db100aebbe94e812"}, {"bike_id": "cab5088e6ef74cd84ab6a0a1934ae9a6", "lat": 38.9192145, "is_disabled": 0, "lon": -77.0793605, "fusion_lon": 0.0, "is_reserved": 0, "fusion_lat": 0.0, "rental_uris": {"android": "https://dc.lft.to/lastmile_qr_scan", "ios": "https://dc.lft.to/lastmile_qr_scan"}, "type": "electric_scooter", "name": "cab5088e6ef74cd84ab6a0a1934ae9a6"}, {"bike_id": "ba8766427023965099a347d0432d11f0", "lat": 38.875632333333336, "is_disabled": 0, "lon": -77.020647, "fusion_lon": 0.0, "is_reserved": 0, "fusion_lat": 0.0, "rental_uris": {"android": "https://dc.lft.to/lastmile_qr_scan", "ios": "https://dc.lft.to/lastmile_qr_scan"}, "type": "electric_scooter", "name": "ba8766427023965099a347d0432d11f0"}, {"bike_id": "c9e779a31b79d5be854ac5896420d942", "lat": 38.919901, "is_disabled": 0, "lon": -76.97306166666667, "fusion_lon": 0.0, "is_reserved": 0, "fusion_lat": 0.0, "rental_uris": {"android": "https://dc.lft.to/lastmile_qr_scan", "ios": "https://dc.lft.to/lastmile_qr_scan"}, "type": "electric_scooter", "name": "c9e779a31b79d5be854ac5896420d942"}, {"bike_id": "2b21f2856bdb00c207828e2e0c9ad949", "lat": 38.903972833333334, "is_disabled": 0, "lon": -77.06819416666667, "fusion_lon": 0.0, "is_reserved": 0, "fusion_lat": 0.0, "rental_uris": {"android": "https://dc.lft.to/lastmile_qr_scan", "ios": "https://dc.lft.to/lastmile_qr_scan"}, "type": "electric_scooter", "name": "2b21f2856bdb00c207828e2e0c9ad949"}, {"bike_id": "34688e1cc9f27df60782cb44720c24c3", "lat": 38.90212, "is_disabled": 0, "lon": -77.04705233333334, "fusion_lon": 0.0, "is_reserved": 0, "fusion_lat": 0.0, "rental_uris": {"android": "https://dc.lft.to/lastmile_qr_scan", "ios": "https://dc.lft.to/lastmile_qr_scan"}, "type": "electric_scooter", "name": "34688e1cc9f27df60782cb44720c24c3"}, {"bike_id": "ad3d8951bfddcc35e9c30d1c94be9d70", "lat": 38.9208415, "is_disabled": 0, "lon": -77.04226266666667, "fusion_lon": 0.0, "is_reserved": 0, "fusion_lat": 0.0, "rental_uris": {"android": "https://dc.lft.to/lastmile_qr_scan", "ios": "https://dc.lft.to/lastmile_qr_scan"}, "type": "electric_scooter", "name": "ad3d8951bfddcc35e9c30d1c94be9d70"}, {"bike_id": "e455eeccb0fa59968d79d2055a5f8922", "lat": 38.909513833333335, "is_disabled": 0, "lon": -77.04660816666667, "fusion_lon": 0.0, "is_reserved": 0, "fusion_lat": 0.0, "rental_uris": {"android": "https://dc.lft.to/lastmile_qr_scan", "ios": "https://dc.lft.to/lastmile_qr_scan"}, "type": "electric_scooter", "name": "e455eeccb0fa59968d79d2055a5f8922"}, {"bike_id": "a2b48dcc9ee9fc2611fb5010ea3093ab", "lat": 38.90029233333333, "is_disabled": 0, "lon": -77.01179816666667, "fusion_lon": 0.0, "is_reserved": 0, "fusion_lat": 0.0, "rental_uris": {"android": "https://dc.lft.to/lastmile_qr_scan", "ios": "https://dc.lft.to/lastmile_qr_scan"}, "type": "electric_scooter", "name": "a2b48dcc9ee9fc2611fb5010ea3093ab"}, {"bike_id": "3575e53600c22eaa3d504b09bb0444b0", "lat": 38.900129, "is_disabled": 0, "lon": -77.00574616666667, "fusion_lon": 0.0, "is_reserved": 0, "fusion_lat": 0.0, "rental_uris": {"android": "https://dc.lft.to/lastmile_qr_scan", "ios": "https://dc.lft.to/lastmile_qr_scan"}, "type": "electric_scooter", "name": "3575e53600c22eaa3d504b09bb0444b0"}, {"bike_id": "63fcd4656080c604547d292199c3c996", "lat": 38.916206, "is_disabled": 0, "lon": -76.9714825, "fusion_lon": 0.0, "is_reserved": 0, "fusion_lat": 0.0, "rental_uris": {"android": "https://dc.lft.to/lastmile_qr_scan", "ios": "https://dc.lft.to/lastmile_qr_scan"}, "type": "electric_scooter", "name": "63fcd4656080c604547d292199c3c996"}, {"bike_id": "fb3cdd2e10addfaff8b43d7528bd715d", "lat": 38.892328166666665, "is_disabled": 0, "lon": -77.03035416666667, "fusion_lon": 0.0, "is_reserved": 0, "fusion_lat": 0.0, "rental_uris": {"android": "https://dc.lft.to/lastmile_qr_scan", "ios": "https://dc.lft.to/lastmile_qr_scan"}, "type": "electric_scooter", "name": "fb3cdd2e10addfaff8b43d7528bd715d"}, {"bike_id": "c4aeb2871969fe9ad8cbbe91e04cb773", "lat": 38.911786166666666, "is_disabled": 0, "lon": -77.002246, "fusion_lon": 0.0, "is_reserved": 0, "fusion_lat": 0.0, "rental_uris": {"android": "https://dc.lft.to/lastmile_qr_scan", "ios": "https://dc.lft.to/lastmile_qr_scan"}, "type": "electric_scooter", "name": "c4aeb2871969fe9ad8cbbe91e04cb773"}, {"bike_id": "a3f2cda1f52bbcd6360f14b4488f62ef", "lat": 38.937195, "is_disabled": 0, "lon": -77.0191155, "fusion_lon": 0.0, "is_reserved": 0, "fusion_lat": 0.0, "rental_uris": {"android": "https://dc.lft.to/lastmile_qr_scan", "ios": "https://dc.lft.to/lastmile_qr_scan"}, "type": "electric_scooter", "name": "a3f2cda1f52bbcd6360f14b4488f62ef"}, {"bike_id": "ca4800c1be686c2bdf3c394c8d59c8ca", "lat": 38.87998416666667, "is_disabled": 0, "lon": -76.9854525, "fusion_lon": 0.0, "is_reserved": 0, "fusion_lat": 0.0, "rental_uris": {"android": "https://dc.lft.to/lastmile_qr_scan", "ios": "https://dc.lft.to/lastmile_qr_scan"}, "type": "electric_scooter", "name": "ca4800c1be686c2bdf3c394c8d59c8ca"}, {"bike_id": "eab04b5435839d738c97ba044925ae8a", "lat": 38.876915, "is_disabled": 0, "lon": -76.993477, "fusion_lon": 0.0, "is_reserved": 0, "fusion_lat": 0.0, "rental_uris": {"android": "https://dc.lft.to/lastmile_qr_scan", "ios": "https://dc.lft.to/lastmile_qr_scan"}, "type": "electric_scooter", "name": "eab04b5435839d738c97ba044925ae8a"}, {"bike_id": "8791c49957ee0225d776973547205c89", "lat": 39.038968833333335, "is_disabled": 0, "lon": -77.05031333333334, "fusion_lon": 0.0, "is_reserved": 0, "fusion_lat": 0.0, "rental_uris": {"android": "https://dc.lft.to/lastmile_qr_scan", "ios": "https://dc.lft.to/lastmile_qr_scan"}, "type": "electric_bike", "name": "8791c49957ee0225d776973547205c89"}, {"bike_id": "98a23ab6ead2faeb940e89dcf0afa6eb", "lat": 38.92325133333333, "is_disabled": 0, "lon": -77.01954816666667, "fusion_lon": 0.0, "is_reserved": 0, "fusion_lat": 0.0, "rental_uris": {"android": "https://dc.lft.to/lastmile_qr_scan", "ios": "https://dc.lft.to/lastmile_qr_scan"}, "type": "electric_scooter", "name": "98a23ab6ead2faeb940e89dcf0afa6eb"}, {"bike_id": "defdd843d41f69b1cd57cc2254bf6805", "lat": 38.932789166666666, "is_disabled": 0, "lon": -77.04128766666666, "fusion_lon": 0.0, "is_reserved": 0, "fusion_lat": 0.0, "rental_uris": {"android": "https://dc.lft.to/lastmile_qr_scan", "ios": "https://dc.lft.to/lastmile_qr_scan"}, "type": "electric_scooter", "name": "defdd843d41f69b1cd57cc2254bf6805"}, {"bike_id": "cecd2981e122b052b85ef4728ec62315", "lat": 38.85267533333333, "is_disabled": 0, "lon": -76.969955, "fusion_lon": 0.0, "is_reserved": 0, "fusion_lat": 0.0, "rental_uris": {"android": "https://dc.lft.to/lastmile_qr_scan", "ios": "https://dc.lft.to/lastmile_qr_scan"}, "type": "electric_scooter", "name": "cecd2981e122b052b85ef4728ec62315"}, {"bike_id": "ba9bda82077281ff6e6d21125e510372", "lat": 38.91616466666667, "is_disabled": 0, "lon": -77.04890416666667, "fusion_lon": 0.0, "is_reserved": 0, "fusion_lat": 0.0, "rental_uris": {"android": "https://dc.lft.to/lastmile_qr_scan", "ios": "https://dc.lft.to/lastmile_qr_scan"}, "type": "electric_scooter", "name": "ba9bda82077281ff6e6d21125e510372"}, {"bike_id": "ce43a8b9369be7cb66a3d8de54edd6d6", "lat": 38.920251, "is_disabled": 0, "lon": -77.04080783333333, "fusion_lon": 0.0, "is_reserved": 0, "fusion_lat": 0.0, "rental_uris": {"android": "https://dc.lft.to/lastmile_qr_scan", "ios": "https://dc.lft.to/lastmile_qr_scan"}, "type": "electric_scooter", "name": "ce43a8b9369be7cb66a3d8de54edd6d6"}, {"bike_id": "e3c2d6f1684ff2a10be4bc6393f7c4e2", "lat": 38.911117, "is_disabled": 0, "lon": -77.04505016666667, "fusion_lon": 0.0, "is_reserved": 0, "fusion_lat": 0.0, "rental_uris": {"android": "https://dc.lft.to/lastmile_qr_scan", "ios": "https://dc.lft.to/lastmile_qr_scan"}, "type": "electric_scooter", "name": "e3c2d6f1684ff2a10be4bc6393f7c4e2"}, {"bike_id": "d67ac19497aa6aa20f0161540654ec88", "lat": 38.9054785, "is_disabled": 0, "lon": -77.00591316666667, "fusion_lon": 0.0, "is_reserved": 0, "fusion_lat": 0.0, "rental_uris": {"android": "https://dc.lft.to/lastmile_qr_scan", "ios": "https://dc.lft.to/lastmile_qr_scan"}, "type": "electric_scooter", "name": "d67ac19497aa6aa20f0161540654ec88"}, {"bike_id": "9c693552e3fa3c52c276f96636e06bda", "lat": 38.914875, "is_disabled": 0, "lon": -77.041579, "fusion_lon": 0.0, "is_reserved": 0, "fusion_lat": 0.0, "rental_uris": {"android": "https://dc.lft.to/lastmile_qr_scan", "ios": "https://dc.lft.to/lastmile_qr_scan"}, "type": "electric_scooter", "name": "9c693552e3fa3c52c276f96636e06bda"}, {"bike_id": "841484c09c9ae224dab1fb3666a8a4e1", "lat": 38.91853583333334, "is_disabled": 0, "lon": -77.04451916666666, "fusion_lon": 0.0, "is_reserved": 0, "fusion_lat": 0.0, "rental_uris": {"android": "https://dc.lft.to/lastmile_qr_scan", "ios": "https://dc.lft.to/lastmile_qr_scan"}, "type": "electric_scooter", "name": "841484c09c9ae224dab1fb3666a8a4e1"}, {"bike_id": "2c4a4a1eb7a0972a468aa3c86b1ade82", "lat": 38.9163515, "is_disabled": 0, "lon": -77.032099, "fusion_lon": 0.0, "is_reserved": 0, "fusion_lat": 0.0, "rental_uris": {"android": "https://dc.lft.to/lastmile_qr_scan", "ios": "https://dc.lft.to/lastmile_qr_scan"}, "type": "electric_scooter", "name": "2c4a4a1eb7a0972a468aa3c86b1ade82"}, {"bike_id": "37c51fe1fdc7c8e6b674ff0147adb6cb", "lat": 38.841928, "is_disabled": 0, "lon": -77.11357316666667, "fusion_lon": 0.0, "is_reserved": 0, "fusion_lat": 0.0, "rental_uris": {"android": "https://dc.lft.to/lastmile_qr_scan", "ios": "https://dc.lft.to/lastmile_qr_scan"}, "type": "electric_bike", "name": "37c51fe1fdc7c8e6b674ff0147adb6cb"}, {"bike_id": "52d67b55117af0664c5e80d4f7e34843", "lat": 38.892292, "is_disabled": 0, "lon": -77.039933, "fusion_lon": 0.0, "is_reserved": 0, "fusion_lat": 0.0, "rental_uris": {"android": "https://dc.lft.to/lastmile_qr_scan", "ios": "https://dc.lft.to/lastmile_qr_scan"}, "type": "electric_scooter", "name": "52d67b55117af0664c5e80d4f7e34843"}, {"bike_id": "dc4ac92908a542da57e858f3cc168696", "lat": 38.90060066666667, "is_disabled": 0, "lon": -77.017669, "fusion_lon": 0.0, "is_reserved": 0, "fusion_lat": 0.0, "rental_uris": {"android": "https://dc.lft.to/lastmile_qr_scan", "ios": "https://dc.lft.to/lastmile_qr_scan"}, "type": "electric_scooter", "name": "dc4ac92908a542da57e858f3cc168696"}, {"bike_id": "46eeaf7318ac80a00861c995e714dfba", "lat": 38.9008555, "is_disabled": 0, "lon": -77.0248045, "fusion_lon": 0.0, "is_reserved": 0, "fusion_lat": 0.0, "rental_uris": {"android": "https://dc.lft.to/lastmile_qr_scan", "ios": "https://dc.lft.to/lastmile_qr_scan"}, "type": "electric_scooter", "name": "46eeaf7318ac80a00861c995e714dfba"}, {"bike_id": "d148b03addad3f8ba8ab15f11f7b44c3", "lat": 38.91913866666667, "is_disabled": 0, "lon": -77.036277, "fusion_lon": 0.0, "is_reserved": 0, "fusion_lat": 0.0, "rental_uris": {"android": "https://dc.lft.to/lastmile_qr_scan", "ios": "https://dc.lft.to/lastmile_qr_scan"}, "type": "electric_scooter", "name": "d148b03addad3f8ba8ab15f11f7b44c3"}, {"bike_id": "93a9546476e7672b30a5b4123f9fa86c", "lat": 38.793777166666665, "is_disabled": 0, "lon": -77.07522683333333, "fusion_lon": 0.0, "is_reserved": 0, "fusion_lat": 0.0, "rental_uris": {"android": "https://dc.lft.to/lastmile_qr_scan", "ios": "https://dc.lft.to/lastmile_qr_scan"}, "type": "electric_scooter", "name": "93a9546476e7672b30a5b4123f9fa86c"}, {"bike_id": "d17fe32fa1996818a70686432a4a1856", "lat": 38.87647533333333, "is_disabled": 0, "lon": -76.96507216666667, "fusion_lon": 0.0, "is_reserved": 0, "fusion_lat": 0.0, "rental_uris": {"android": "https://dc.lft.to/lastmile_qr_scan", "ios": "https://dc.lft.to/lastmile_qr_scan"}, "type": "electric_scooter", "name": "d17fe32fa1996818a70686432a4a1856"}, {"bike_id": "527df8c7e069e9b0058d7600eeb56127", "lat": 38.907211833333335, "is_disabled": 0, "lon": -76.986059, "fusion_lon": 0.0, "is_reserved": 0, "fusion_lat": 0.0, "rental_uris": {"android": "https://dc.lft.to/lastmile_qr_scan", "ios": "https://dc.lft.to/lastmile_qr_scan"}, "type": "electric_scooter", "name": "527df8c7e069e9b0058d7600eeb56127"}, {"bike_id": "9cdb494c57d80d6eab35cc94dd90aa4d", "lat": 38.9046285, "is_disabled": 0, "lon": -77.00592266666666, "fusion_lon": 0.0, "is_reserved": 0, "fusion_lat": 0.0, "rental_uris": {"android": "https://dc.lft.to/lastmile_qr_scan", "ios": "https://dc.lft.to/lastmile_qr_scan"}, "type": "electric_scooter", "name": "9cdb494c57d80d6eab35cc94dd90aa4d"}, {"bike_id": "43f04a85fa11c1e7effa1ede6635a73b", "lat": 38.8991865, "is_disabled": 0, "lon": -76.9338665, "fusion_lon": 0.0, "is_reserved": 0, "fusion_lat": 0.0, "rental_uris": {"android": "https://dc.lft.to/lastmile_qr_scan", "ios": "https://dc.lft.to/lastmile_qr_scan"}, "type": "electric_scooter", "name": "43f04a85fa11c1e7effa1ede6635a73b"}, {"bike_id": "650fa9765926e9377f3a5e45576f172d", "lat": 38.93282383333333, "is_disabled": 0, "lon": -77.04090483333333, "fusion_lon": 0.0, "is_reserved": 0, "fusion_lat": 0.0, "rental_uris": {"android": "https://dc.lft.to/lastmile_qr_scan", "ios": "https://dc.lft.to/lastmile_qr_scan"}, "type": "electric_scooter", "name": "650fa9765926e9377f3a5e45576f172d"}, {"bike_id": "920b217fa84545dca34957a8db3f9fce", "lat": 38.89767116666667, "is_disabled": 0, "lon": -77.03172033333334, "fusion_lon": 0.0, "is_reserved": 0, "fusion_lat": 0.0, "rental_uris": {"android": "https://dc.lft.to/lastmile_qr_scan", "ios": "https://dc.lft.to/lastmile_qr_scan"}, "type": "electric_scooter", "name": "920b217fa84545dca34957a8db3f9fce"}, {"bike_id": "9a0969d4a1a1458d631a4a69a4e57b9d", "lat": 38.889973499999996, "is_disabled": 0, "lon": -77.00055883333333, "fusion_lon": 0.0, "is_reserved": 0, "fusion_lat": 0.0, "rental_uris": {"android": "https://dc.lft.to/lastmile_qr_scan", "ios": "https://dc.lft.to/lastmile_qr_scan"}, "type": "electric_scooter", "name": "9a0969d4a1a1458d631a4a69a4e57b9d"}, {"bike_id": "3f3bb4d5faee27968d61fa6c5da0f752", "lat": 38.90647116666667, "is_disabled": 0, "lon": -77.0424485, "fusion_lon": 0.0, "is_reserved": 0, "fusion_lat": 0.0, "rental_uris": {"android": "https://dc.lft.to/lastmile_qr_scan", "ios": "https://dc.lft.to/lastmile_qr_scan"}, "type": "electric_scooter", "name": "3f3bb4d5faee27968d61fa6c5da0f752"}, {"bike_id": "ce2e29fd12a1d4b5296ed17924b6abde", "lat": 38.898727, "is_disabled": 0, "lon": -77.03175183333333, "fusion_lon": 0.0, "is_reserved": 0, "fusion_lat": 0.0, "rental_uris": {"android": "https://dc.lft.to/lastmile_qr_scan", "ios": "https://dc.lft.to/lastmile_qr_scan"}, "type": "electric_scooter", "name": "ce2e29fd12a1d4b5296ed17924b6abde"}, {"bike_id": "557552a89d065e4d803b216a72eb6e3a", "lat": 38.900998333333334, "is_disabled": 0, "lon": -77.05786983333333, "fusion_lon": 0.0, "is_reserved": 0, "fusion_lat": 0.0, "rental_uris": {"android": "https://dc.lft.to/lastmile_qr_scan", "ios": "https://dc.lft.to/lastmile_qr_scan"}, "type": "electric_scooter", "name": "557552a89d065e4d803b216a72eb6e3a"}, {"bike_id": "52d7815a9298b6cb8e1ed661d1cd1819", "lat": 38.919807166666665, "is_disabled": 0, "lon": -77.04166216666667, "fusion_lon": 0.0, "is_reserved": 0, "fusion_lat": 0.0, "rental_uris": {"android": "https://dc.lft.to/lastmile_qr_scan", "ios": "https://dc.lft.to/lastmile_qr_scan"}, "type": "electric_scooter", "name": "52d7815a9298b6cb8e1ed661d1cd1819"},