{"data": {"bikes": [{"is_disabled": 0, "fusion_lon": 0.0, "fusion_lat": 0.0, "lat": 38.89704033333334, "type": "electric_scooter", "lon": -77.02427783333333, "bike_id": "4fcec5d09091d47c2d0058b837b0cf03", "rental_uris": {"android": "https://dc.lft.to/lastmile_qr_scan", "ios": "https://dc.lft.to/lastmile_qr_scan"}, "name": "4fcec5d09091d47c2d0058b837b0cf03", "is_reserved": 0}, {"is_disabled": 0, "fusion_lon": 0.0, "fusion_lat": 0.0, "lat": 38.898966333333334, "type": "electric_scooter", "lon": -76.9339265, "bike_id": "4be8682804ae95fc82565f607776b31b", "rental_uris": {"android": "https://dc.lft.to/lastmile_qr_scan", "ios": "https://dc.lft.to/lastmile_qr_scan"}, "name": "4be8682804ae95fc82565f607776b31b", "is_reserved": 0}, {"is_disabled": 0, "fusion_lon": 0.0, "fusion_lat": 0.0, "lat": 38.918140333333334, "type": "electric_scooter", "lon": -77.02476216666666, "bike_id": "281ac1c6742398009a7928b64707073a", "rental_uris": {"android": "https://dc.lft.to/lastmile_qr_scan", "ios": "https://dc.lft.to/lastmile_qr_scan"}, "name": "281ac1c6742398009a7928b64707073a", "is_reserved": 0}, {"is_disabled": 0, "fusion_lon": 0.0, "fusion_lat": 0.0, "lat": 38.905583666666665, "type": "electric_scooter", "lon": -77.040785, "bike_id": "40a07fc1057583b2d90f410cc7c950fa", "rental_uris": {"android": "https://dc.lft.to/lastmile_qr_scan", "ios": "https://dc.lft.to/lastmile_qr_scan"}, "name": "40a07fc1057583b2d90f410cc7c950fa", "is_reserved": 0}, {"is_disabled": 0, "fusion_lon": 0.0, "fusion_lat": 0.0, "lat": 38.934951166666664, "type": "electric_scooter", "lon": -77.0241675, "bike_id": "35fba9551b8f77eabebd91874d83a26d", "rental_uris": {"android": "https://dc.lft.to/lastmile_qr_scan", "ios": "https://dc.lft.to/lastmile_qr_scan"}, "name": "35fba9551b8f77eabebd91874d83a26d", "is_reserved": 0}, {"is_disabled": 0, "fusion_lon": 0.0, "fusion_lat": 0.0, "lat": 38.842714666666666, "type": "electric_bike", "lon": -76.98840316666667, "bike_id": "ddf18ca1490d98d691b6181e14311a1b", "rental_uris": {"android": "https://dc.lft.to/lastmile_qr_scan", "ios": "https://dc.lft.to/lastmile_qr_scan"}, "name": "ddf18ca1490d98d691b6181e14311a1b", "is_reserved": 0}, {"is_disabled": 0, "fusion_lon": 0.0, "fusion_lat": 0.0, "lat": 38.9110675, "type": "electric_bike", "lon": -77.0080535, "bike_id": "136c08f8286d5fc05bf3e88bef5e4fc4", "rental_uris": {"android": "https://dc.lft.to/lastmile_qr_scan", "ios": "https://dc.lft.to/lastmile_qr_scan"}, "name": "136c08f8286d5fc05bf3e88bef5e4fc4", "is_reserved": 0}, {"is_disabled": 0, "fusion_lon": 0.0, "fusion_lat": 0.0, "lat": 38.968871166666666, "type": "electric_bike", "lon": -77.02592433333334, "bike_id": "d01f12dd0c8f6bff033cefb8250cfdd4", "rental_uris": {"android": "https://dc.lft.to/lastmile_qr_scan", "ios": "https://dc.lft.to/lastmile_qr_scan"}, "name": "d01f12dd0c8f6bff033cefb8250cfdd4", "is_reserved": 0}, {"is_disabled": 0, "fusion_lon": 0.0, "fusion_lat": 0.0, "lat": 38.90267433333333, "type": "electric_scooter", "lon": -77.03444566666667, "bike_id": "0fcac1cf253833214ae7651d84ccdcc3", "rental_uris": {"android": "https://dc.lft.to/lastmile_qr_scan", "ios": "https://dc.lft.to/lastmile_qr_scan"}, "name": "0fcac1cf253833214ae7651d84ccdcc3", "is_reserved": 0}, {"is_disabled": 0, "fusion_lon": 0.0, "fusion_lat": 0.0, "lat": 38.91685733333333, "type": "electric_scooter", "lon": -77.03636816666666, "bike_id": "3dc05e08ffe8cbba709cad5a8e0c5379", "rental_uris": {"android": "https://dc.lft.to/lastmile_qr_scan", "ios": "https://dc.lft.to/lastmile_qr_scan"}, "name": "3dc05e08ffe8cbba709cad5a8e0c5379", "is_reserved": 0}, {"is_disabled": 0, "fusion_lon": 0.0, "fusion_lat": 0.0, "lat": 38.90259533333333, "type": "electric_scooter", "lon": -77.0343585, "bike_id": "336810231d6cb8a5b6f0ed7173b22404", "rental_uris": {"android": "https://dc.lft.to/lastmile_qr_scan", "ios": "https://dc.lft.to/lastmile_qr_scan"}, "name": "336810231d6cb8a5b6f0ed7173b22404", "is_reserved": 0}, {"is_disabled": 0, "fusion_lon": 0.0, "fusion_lat": 0.0, "lat": 38.905335, "type": "electric_scooter", "lon": -77.0220365, "bike_id": "0249d82e0ae09f72e406610066734607", "rental_uris": {"android": "https://dc.lft.to/lastmile_qr_scan", "ios": "https://dc.lft.to/lastmile_qr_scan"}, "name": "0249d82e0ae09f72e406610066734607", "is_reserved": 0}, {"is_disabled": 0, "fusion_lon": 0.0, "fusion_lat": 0.0, "lat": 38.8923855, "type": "electric_scooter", "lon": -77.0334845, "bike_id": "471d3169c44e4e50f16da87f8401c6cd", "rental_uris": {"android": "https://dc.lft.to/lastmile_qr_scan", "ios": "https://dc.lft.to/lastmile_qr_scan"}, "name": "471d3169c44e4e50f16da87f8401c6cd", "is_reserved": 0}, {"is_disabled": 0, "fusion_lon": 0.0, "fusion_lat": 0.0, "lat": 38.90085283333333, "type": "electric_scooter", "lon": -77.0442485, "bike_id": "c85073d65dad493dedf830b77adfbe85", "rental_uris": {"android": "https://dc.lft.to/lastmile_qr_scan", "ios": "https://dc.lft.to/lastmile_qr_scan"}, "name": "c85073d65dad493dedf830b77adfbe85", "is_reserved": 0}, {"is_disabled": 0, "fusion_lon": 0.0, "fusion_lat": 0.0, "lat": 38.957835, "type": "electric_scooter", "lon": -77.02466983333333, "bike_id": "13a482beb26192ff6091245bfb6105f3", "rental_uris": {"android": "https://dc.lft.to/lastmile_qr_scan", "ios": "https://dc.lft.to/lastmile_qr_scan"}, "name": "13a482beb26192ff6091245bfb6105f3", "is_reserved": 0}, {"is_disabled": 0, "fusion_lon": 0.0, "fusion_lat": 0.0, "lat": 38.89952566666667, "type": "electric_scooter", "lon": -77.031792, "bike_id": "1afd44f10d97bc8fecfa3e5a34358ef8", "rental_uris": {"android": "https://dc.lft.to/lastmile_qr_scan", "ios": "https://dc.lft.to/lastmile_qr_scan"}, "name": "1afd44f10d97bc8fecfa3e5a34358ef8", "is_reserved": 0}, {"is_disabled": 0, "fusion_lon": 0.0, "fusion_lat": 0.0, "lat": 38.9128465, "type": "electric_scooter", "lon": -76.98691266666667, "bike_id": "af1e06f4019a1a7c0bb105260b265934", "rental_uris": {"android": "https://dc.lft.to/lastmile_qr_scan", "ios": "https://dc.lft.to/lastmile_qr_scan"}, "name": "af1e06f4019a1a7c0bb105260b265934", "is_reserved": 0}, {"is_disabled": 0, "fusion_lon": 0.0, "fusion_lat": 0.0, "lat": 38.863479166666664, "type": "electric_scooter", "lon": -76.98263833333333, "bike_id": "6cd23adc02ebfad6a4a6ba5ecb7982bc", "rental_uris": {"android": "https://dc.lft.to/lastmile_qr_scan", "ios": "https://dc.lft.to/lastmile_qr_scan"}, "name": "6cd23adc02ebfad6a4a6ba5ecb7982bc", "is_reserved": 0}, {"is_disabled": 0, "fusion_lon": 0.0, "fusion_lat": 0.0, "lat": 38.90566183333333, "type": "electric_scooter", "lon": -77.005872, "bike_id": "fc57f26cb49beae2471ae58901f33454", "rental_uris": {"android": "https://dc.lft.to/lastmile_qr_scan", "ios": "https://dc.lft.to/lastmile_qr_scan"}, "name": "fc57f26cb49beae2471ae58901f33454", "is_reserved": 0}, {"is_disabled": 0, "fusion_lon": 0.0, "fusion_lat": 0.0, "lat": 38.936615833333335, "type": "electric_scooter", "lon": -77.032643, "bike_id": "9ba702d391c87f1cfddb11d61992045f", "rental_uris": {"android": "https://dc.lft.to/lastmile_qr_scan", "ios": "https://dc.lft.to/lastmile_qr_scan"}, "name": "9ba702d391c87f1cfddb11d61992045f", "is_reserved": 0}, {"is_disabled": 0, "fusion_lon": 0.0, "fusion_lat": 0.0, "lat": 38.858660666666665, "type": "electric_scooter", "lon": -76.9902725, "bike_id": "180a1c772bf7ecaf4d232b1973389062", "rental_uris": {"android": "https://dc.lft.to/lastmile_qr_scan", "ios": "https://dc.lft.to/lastmile_qr_scan"}, "name": "180a1c772bf7ecaf4d232b1973389062", "is_reserved": 0}, {"is_disabled": 0, "fusion_lon": 0.0, "fusion_lat": 0.0, "lat": 38.9161525, "type": "electric_scooter", "lon": -77.02355766666666, "bike_id": "600db6a99bba46a6cd499ef7e08edf04", "rental_uris": {"android": "https://dc.lft.to/lastmile_qr_scan", "ios": "https://dc.lft.to/lastmile_qr_scan"}, "name": "600db6a99bba46a6cd499ef7e08edf04", "is_reserved": 0}, {"is_disabled": 0, "fusion_lon": 0.0, "fusion_lat": 0.0, "lat": 38.8847355, "type": "electric_scooter", "lon": -77.01980816666666, "bike_id": "78354a83c6f8bf6327c312edbb699084", "rental_uris": {"android": "https://dc.lft.to/lastmile_qr_scan", "ios": "https://dc.lft.to/lastmile_qr_scan"}, "name": "78354a83c6f8bf6327c312edbb699084", "is_reserved": 0}, {"is_disabled": 0, "fusion_lon": 0.0, "fusion_lat": 0.0, "lat": 38.905774, "type": "electric_bike", "lon": -77.00559716666666, "bike_id": "87136f735f86a47282749b13bfab2807", "rental_uris": {"android": "https://dc.lft.to/lastmile_qr_scan", "ios": "https://dc.lft.to/lastmile_qr_scan"}, "name": "87136f735f86a47282749b13bfab2807", "is_reserved": 0}, {"is_disabled": 0, "fusion_lon": 0.0, "fusion_lat": 0.0, "lat": 38.91928816666667, "type": "electric_scooter", "lon": -77.0258575, "bike_id": "f259fa01e4c356a138bdd778991b3719", "rental_uris": {"android": "https://dc.lft.to/lastmile_qr_scan", "ios": "https://dc.lft.to/lastmile_qr_scan"}, "name": "f259fa01e4c356a138bdd778991b3719", "is_reserved": 0}, {"is_disabled": 0, "fusion_lon": 0.0, "fusion_lat": 0.0, "lat": 38.920244333333336, "type": "electric_scooter", "lon": -77.02429233333334, "bike_id": "81afc57110c6e75a8a1ad4a47150b57b", "rental_uris": {"android": "https://dc.lft.to/lastmile_qr_scan", "ios": "https://dc.lft.to/lastmile_qr_scan"}, "name": "81afc57110c6e75a8a1ad4a47150b57b", "is_reserved": 0}, {"is_disabled": 0, "fusion_lon": 0.0, "fusion_lat": 0.0, "lat": 38.936571, "type": "electric_scooter", "lon": -77.03263583333333, "bike_id": "7f549cf9ec62500b9e8fc1acd462ef47", "rental_uris": {"android": "https://dc.lft.to/lastmile_qr_scan", "ios": "https://dc.lft.to/lastmile_qr_scan"}, "name": "7f549cf9ec62500b9e8fc1acd462ef47", "is_reserved": 0}, {"is_disabled": 0, "fusion_lon": 0.0, "fusion_lat": 0.0, "lat": 38.90585333333333, "type": "electric_scooter", "lon": -77.03247216666666, "bike_id": "ba6f4c4b480b7ca5458adf321314b8c3", "rental_uris": {"android": "https://dc.lft.to/lastmile_qr_scan", "ios": "https://dc.lft.to/lastmile_qr_scan"}, "name": "ba6f4c4b480b7ca5458adf321314b8c3", "is_reserved": 0}, {"is_disabled": 0, "fusion_lon": 0.0, "fusion_lat": 0.0, "lat": 38.8984105, "type": "electric_scooter", "lon": -76.94632883333334, "bike_id": "b0ac96f52e442594d05436e6203c3316", "rental_uris": {"android": "https://dc.lft.to/lastmile_qr_scan", "ios": "https://dc.lft.to/lastmile_qr_scan"}, "name": "b0ac96f52e442594d05436e6203c3316", "is_reserved": 0}, {"is_disabled": 0, "fusion_lon": 0.0, "fusion_lat": 0.0, "lat": 38.931751166666665, "type": "electric_scooter", "lon": -77.07255466666666, "bike_id": "d7d97e8410361979b5c049076d93ef81", "rental_uris": {"android": "https://dc.lft.to/lastmile_qr_scan", "ios": "https://dc.lft.to/lastmile_qr_scan"}, "name": "d7d97e8410361979b5c049076d93ef81", "is_reserved": 0}, {"is_disabled": 0, "fusion_lon": 0.0, "fusion_lat": 0.0, "lat": 38.908134, "type": "electric_scooter", "lon": -77.03207583333334, "bike_id": "867eb3f9243a514619e99ebbebfe39e9", "rental_uris": {"android": "https://dc.lft.to/lastmile_qr_scan", "ios": "https://dc.lft.to/lastmile_qr_scan"}, "name": "867eb3f9243a514619e99ebbebfe39e9", "is_reserved": 0}, {"is_disabled": 0, "fusion_lon": 0.0, "fusion_lat": 0.0, "lat": 38.89891766666667, "type": "electric_scooter", "lon": -77.05293933333333, "bike_id": "5ad1f8310c0904a3a3f14dab8bd7dd97", "rental_uris": {"android": "https://dc.lft.to/lastmile_qr_scan", "ios": "https://dc.lft.to/lastmile_qr_scan"}, "name": "5ad1f8310c0904a3a3f14dab8bd7dd97", "is_reserved": 0}, {"is_disabled": 0, "fusion_lon": 0.0, "fusion_lat": 0.0, "lat": 38.953519, "type": "electric_bike", "lon": -76.98091283333333, "bike_id": "1e9c596462991e2449e4c13d67801592", "rental_uris": {"android": "https://dc.lft.to/lastmile_qr_scan", "ios": "https://dc.lft.to/lastmile_qr_scan"}, "name": "1e9c596462991e2449e4c13d67801592", "is_reserved": 0}, {"is_disabled": 0, "fusion_lon": 0.0, "fusion_lat": 0.0, "lat": 38.9150225, "type": "electric_scooter", "lon": -77.01831433333334, "bike_id": "1a9598af819d235186c96fc037d23491", "rental_uris": {"android": "https://dc.lft.to/lastmile_qr_scan", "ios": "https://dc.lft.to/lastmile_qr_scan"}, "name": "1a9598af819d235186c96fc037d23491", "is_reserved": 0}, {"is_disabled": 0, "fusion_lon": 0.0, "fusion_lat": 0.0, "lat": 38.91267066666666, "type": "electric_scooter", "lon": -77.02239466666667, "bike_id": "07ec19154d0b9de5402c80ac9a0822cb", "rental_uris": {"android": "https://dc.lft.to/lastmile_qr_scan", "ios": "https://dc.lft.to/lastmile_qr_scan"}, "name": "07ec19154d0b9de5402c80ac9a0822cb", "is_reserved": 0}, {"is_disabled": 0, "fusion_lon": 0.0, "fusion_lat": 0.0, "lat": 38.93624116666667, "type": "electric_scooter", "lon": -77.03653083333333, "bike_id": "6f2498e6da259e9f7ad27b78dae20cae", "rental_uris": {"android": "https://dc.lft.to/lastmile_qr_scan", "ios": "https://dc.lft.to/lastmile_qr_scan"}, "name": "6f2498e6da259e9f7ad27b78dae20cae", "is_reserved": 0}, {"is_disabled": 0, "fusion_lon": 0.0, "fusion_lat": 0.0, "lat": 38.9495355, "type": "electric_scooter", "lon": -77.0669465, "bike_id": "9ce7807c049b3738e85e71647be496b2", "rental_uris": {"android": "https://dc.lft.to/lastmile_qr_scan", "ios": "https://dc.lft.to/lastmile_qr_scan"}, "name": "9ce7807c049b3738e85e71647be496b2", "is_reserved": 0}, {"is_disabled": 0, "fusion_lon": 0.0, "fusion_lat": 0.0, "lat": 38.93966866666667, "type": "electric_scooter", "lon": -77.032553, "bike_id": "01eebd238b86a7bf94f44b49c0e36ac8", "rental_uris": {"android": "https://dc.lft.to/lastmile_qr_scan", "ios": "https://dc.lft.to/lastmile_qr_scan"}, "name": "01eebd238b86a7bf94f44b49c0e36ac8", "is_reserved": 0}, {"is_disabled": 0, "fusion_lon": 0.0, "fusion_lat": 0.0, "lat": 38.96110316666667, "type": "electric_scooter", "lon": -77.085178, "bike_id": "34d6e0d587a58770eaf84b649fffc47e", "rental_uris": {"android": "https://dc.lft.to/lastmile_qr_scan", "ios": "https://dc.lft.to/lastmile_qr_scan"}, "name": "34d6e0d587a58770eaf84b649fffc47e", "is_reserved": 0}, {"is_disabled": 0, "fusion_lon": 0.0, "fusion_lat": 0.0, "lat": 38.92258783333333, "type": "electric_scooter", "lon": -77.04135383333333, "bike_id": "97d476f802864c3edc44bc99bcb5b232", "rental_uris": {"android": "https://dc.lft.to/lastmile_qr_scan", "ios": "https://dc.lft.to/lastmile_qr_scan"}, "name": "97d476f802864c3edc44bc99bcb5b232", "is_reserved": 0}, {"is_disabled": 0, "fusion_lon": 0.0, "fusion_lat": 0.0, "lat": 38.96307483333333, "type": "electric_bike", "lon": -77.01104516666666, "bike_id": "92c755392f917217c0638738f720b482", "rental_uris": {"android": "https://dc.lft.to/lastmile_qr_scan", "ios": "https://dc.lft.to/lastmile_qr_scan"}, "name": "92c755392f917217c0638738f720b482", "is_reserved": 0}, {"is_disabled": 0, "fusion_lon": 0.0, "fusion_lat": 0.0, "lat": 38.91668133333334, "type": "electric_scooter", "lon": -77.02701416666666, "bike_id": "7e94d14cab73da0911d630d886b30c24", "rental_uris": {"android": "https://dc.lft.to/lastmile_qr_scan", "ios": "https://dc.lft.to/lastmile_qr_scan"}, "name": "7e94d14cab73da0911d630d886b30c24", "is_reserved": 0}, {"is_disabled": 0, "fusion_lon": 0.0, "fusion_lat": 0.0, "lat": 38.9260895, "type": "electric_scooter", "lon": -77.02312183333333, "bike_id": "94d851493110fd6218e4dce0548bca13", "rental_uris": {"android": "https://dc.lft.to/lastmile_qr_scan", "ios": "https://dc.lft.to/lastmile_qr_scan"}, "name": "94d851493110fd6218e4dce0548bca13", "is_reserved": 0}, {"is_disabled": 0, "fusion_lon": 0.0, "fusion_lat": 0.0, "lat": 38.9068805, "type": "electric_scooter", "lon": -77.00195116666667, "bike_id": "ef958e044407a89759a3e0820192149e", "rental_uris": {"android": "https://dc.lft.to/lastmile_qr_scan", "ios": "https://dc.lft.to/lastmile_qr_scan"}, "name": "ef958e044407a89759a3e0820192149e", "is_reserved": 0}, {"is_disabled": 0, "fusion_lon": 0.0, "fusion_lat": 0.0, "lat": 38.93777933333333, "type": "electric_scooter", "lon": -77.01882566666667, "bike_id": "b1bf7b9d3d9cba85a0a2e99465141c5a", "rental_uris": {"android": "https://dc.lft.to/lastmile_qr_scan", "ios": "https://dc.lft.to/lastmile_qr_scan"}, "name": "b1bf7b9d3d9cba85a0a2e99465141c5a", "is_reserved": 0}, {"is_disabled": 0, "fusion_lon": 0.0, "fusion_lat": 0.0, "lat": 38.895309833333336, "type": "electric_scooter", "lon": -77.04314933333333, "bike_id": "00955cdb524df829f38ccdf05f37f568", "rental_uris": {"android": "https://dc.lft.to/lastmile_qr_scan", "ios": "https://dc.lft.to/lastmile_qr_scan"}, "name": "00955cdb524df829f38ccdf05f37f568", "is_reserved": 0}, {"is_disabled": 0, "fusion_lon": 0.0, "fusion_lat": 0.0, "lat": 38.923644833333334, "type": "electric_scooter", "lon": -77.02808183333333, "bike_id": "102d3b49b5310d002c02f53b573c3be5", "rental_uris": {"android": "https://dc.lft.to/lastmile_qr_scan", "ios": "https://dc.lft.to/lastmile_qr_scan"}, "name": "102d3b49b5310d002c02f53b573c3be5", "is_reserved": 0}, {"is_disabled": 0, "fusion_lon": 0.0, "fusion_lat": 0.0, "lat": 38.896046166666665, "type": "electric_scooter", "lon": -77.02674116666667, "bike_id": "5d9d77cc2587a2aa7bf707a6e30ee2d6", "rental_uris": {"android": "https://dc.lft.to/lastmile_qr_scan", "ios": "https://dc.lft.to/lastmile_qr_scan"}, "name": "5d9d77cc2587a2aa7bf707a6e30ee2d6", "is_reserved": 0}, {"is_disabled": 0, "fusion_lon": 0.0, "fusion_lat": 0.0, "lat": 39.05444, "type": "electric_bike", "lon": -77.14315816666667, "bike_id": "f44bcffe5aa5402ef166219f87cde325", "rental_uris": {"android": "https://dc.lft.to/lastmile_qr_scan", "ios": "https://dc.lft.to/lastmile_qr_scan"}, "name": "f44bcffe5aa5402ef166219f87cde325", "is_reserved": 0}, {"is_disabled": 0, "fusion_lon": 0.0, "fusion_lat": 0.0, "lat": 38.894872, "type": "electric_scooter", "lon": -77.009541, "bike_id": "a4a1f87ade3e408661848108364831a8", "rental_uris": {"android": "https://dc.lft.to/lastmile_qr_scan", "ios": "https://dc.lft.to/lastmile_qr_scan"}, "name": "a4a1f87ade3e408661848108364831a8", "is_reserved": 0}, {"is_disabled": 0, "fusion_lon": 0.0, "fusion_lat": 0.0, "lat": 38.90549, "type": "electric_scooter", "lon": -76.981426, "bike_id": "ac70324695d66af00273404beffb2ee0", "rental_uris": {"android": "https://dc.lft.to/lastmile_qr_scan", "ios": "https://dc.lft.to/lastmile_qr_scan"}, "name": "ac70324695d66af00273404beffb2ee0", "is_reserved": 0}, {"is_disabled": 0, "fusion_lon": 0.0, "fusion_lat": 0.0, "lat": 38.94582783333333, "type": "electric_bike", "lon": -77.344046, "bike_id": "19345c63e34fc863ca7ad24c9e13a31b", "rental_uris": {"android": "https://dc.lft.to/lastmile_qr_scan", "ios": "https://dc.lft.to/lastmile_qr_scan"}, "name": "19345c63e34fc863ca7ad24c9e13a31b", "is_reserved": 0}, {"is_disabled": 0, "fusion_lon": 0.0, "fusion_lat": 0.0, "lat": 38.881842666666664, "type": "electric_scooter", "lon": -76.99499633333333, "bike_id": "443d938d7b9e37490a0ae77dd2fec3c7", "rental_uris": {"android": "https://dc.lft.to/lastmile_qr_scan", "ios": "https://dc.lft.to/lastmile_qr_scan"}, "name": "443d938d7b9e37490a0ae77dd2fec3c7", "is_reserved": 0}, {"is_disabled": 0, "fusion_lon": 0.0, "fusion_lat": 0.0, "lat": 38.903293166666664, "type": "electric_scooter", "lon": -76.99222216666666, "bike_id": "01b8624b2da31c563b515687abb45a1b", "rental_uris": {"android": "https://dc.lft.to/lastmile_qr_scan", "ios": "https://dc.lft.to/lastmile_qr_scan"}, "name": "01b8624b2da31c563b515687abb45a1b", "is_reserved": 0}, {"is_disabled": 0, "fusion_lon": 0.0, "fusion_lat": 0.0, "lat": 38.91708116666667, "type": "electric_scooter", "lon": -77.03230866666667, "bike_id": "19527ad16f667f02f9e4dacdb88b2905", "rental_uris": {"android": "https://dc.lft.to/lastmile_qr_scan", "ios": "https://dc.lft.to/lastmile_qr_scan"}, "name": "19527ad16f667f02f9e4dacdb88b2905", "is_reserved": 0}, {"is_disabled": 0, "fusion_lon": 0.0, "fusion_lat": 0.0, "lat": 38.893866833333334, "type": "electric_scooter", "lon": -76.94999316666667, "bike_id": "147e8937846448c3ada81b41aab571b0", "rental_uris": {"android": "https://dc.lft.to/lastmile_qr_scan", "ios": "https://dc.lft.to/lastmile_qr_scan"}, "name": "147e8937846448c3ada81b41aab571b0", "is_reserved": 0}, {"is_disabled": 0, "fusion_lon": 0.0, "fusion_lat": 0.0, "lat": 38.93459033333333, "type": "electric_scooter", "lon": -77.0305895, "bike_id": "8e217188eac5887550a660e3aa0e47fe", "rental_uris": {"android": "https://dc.lft.to/lastmile_qr_scan", "ios": "https://dc.lft.to/lastmile_qr_scan"}, "name": "8e217188eac5887550a660e3aa0e47fe", "is_reserved": 0}, {"is_disabled": 0, "fusion_lon": 0.0, "fusion_lat": 0.0, "lat": 38.776190666666665, "type": "electric_bike", "lon": -77.083553, "bike_id": "ae9bebb869cc50c9c074e33a66873f53", "rental_uris": {"android": "https://dc.lft.to/lastmile_qr_scan", "ios": "https://dc.lft.to/lastmile_qr_scan"}, "name": "ae9bebb869cc50c9c074e33a66873f53", "is_reserved": 0}, {"is_disabled": 0, "fusion_lon": 0.0, "fusion_lat": 0.0, "lat": 38.9051855, "type": "electric_scooter", "lon": -77.01723, "bike_id": "926a612afda12d170e19c4c4fd5b23ca", "rental_uris": {"android": "https://dc.lft.to/lastmile_qr_scan", "ios": "https://dc.lft.to/lastmile_qr_scan"}, "name": "926a612afda12d170e19c4c4fd5b23ca", "is_reserved": 0}, {"is_disabled": 0, "fusion_lon": 0.0, "fusion_lat": 0.0, "lat": 38.88431333333333, "type": "electric_scooter", "lon": -77.02961933333333, "bike_id": "0461d7bcb8788780f68d68f017f91d44", "rental_uris": {"android": "https://dc.lft.to/lastmile_qr_scan", "ios": "https://dc.lft.to/lastmile_qr_scan"}, "name": "0461d7bcb8788780f68d68f017f91d44", "is_reserved": 0}, {"is_disabled": 0, "fusion_lon": 0.0, "fusion_lat": 0.0, "lat": 38.91230183333333, "type": "electric_scooter", "lon": -77.048708, "bike_id": "55f8e453f0ecf8fb7aaec33ff2658647", "rental_uris": {"android": "https://dc.lft.to/lastmile_qr_scan", "ios": "https://dc.lft.to/lastmile_qr_scan"}, "name": "55f8e453f0ecf8fb7aaec33ff2658647", "is_reserved": 0}, {"is_disabled": 0, "fusion_lon": 0.0, "fusion_lat": 0.0, "lat": 39.06061283333333, "type": "electric_bike", "lon": -77.06468066666666, "bike_id": "5a840eed5802749105aaab9494a05b2b", "rental_uris": {"android": "https://dc.lft.to/lastmile_qr_scan", "ios": "https://dc.lft.to/lastmile_qr_scan"}, "name": "5a840eed5802749105aaab9494a05b2b", "is_reserved": 0}, {"is_disabled": 0, "fusion_lon": 0.0, "fusion_lat": 0.0, "lat": 38.908801833333335, "type": "electric_scooter", "lon": -77.02987233333333, "bike_id": "38f7c1c1b88ee9e7f799c1f3f856c769", "rental_uris": {"android": "https://dc.lft.to/lastmile_qr_scan", "ios": "https://dc.lft.to/lastmile_qr_scan"}, "name": "38f7c1c1b88ee9e7f799c1f3f856c769", "is_reserved": 0}, {"is_disabled": 0, "fusion_lon": 0.0, "fusion_lat": 0.0, "lat": 38.918728333333334, "type": "electric_bike", "lon": -76.9607285, "bike_id": "0decf97924e93da589f51c46d0239be1", "rental_uris": {"android": "https://dc.lft.to/lastmile_qr_scan", "ios": "https://dc.lft.to/lastmile_qr_scan"}, "name": "0decf97924e93da589f51c46d0239be1", "is_reserved": 0}, {"is_disabled": 0, "fusion_lon": 0.0, "fusion_lat": 0.0, "lat": 38.90412666666667, "type": "electric_scooter", "lon": -76.985493, "bike_id": "13e65d7174eddab8b1080a1af49c74ec", "rental_uris": {"android": "https://dc.lft.to/lastmile_qr_scan", "ios": "https://dc.lft.to/lastmile_qr_scan"}, "name": "13e65d7174eddab8b1080a1af49c74ec", "is_reserved": 0}, {"is_disabled": 0, "fusion_lon": 0.0, "fusion_lat": 0.0, "lat": 38.838069833333336, "type": "electric_scooter", "lon": -77.0042745, "bike_id": "85549df5898e8ebbed583616a458c091", "rental_uris": {"android": "https://dc.lft.to/lastmile_qr_scan", "ios": "https://dc.lft.to/lastmile_qr_scan"}, "name": "85549df5898e8ebbed583616a458c091", "is_reserved": 0}, {"is_disabled": 0, "fusion_lon": 0.0, "fusion_lat": 0.0, "lat": 38.88743216666667, "type": "electric_scooter", "lon": -77.0173725, "bike_id": "1981915a8c2be8ffff1dacec3880bb46", "rental_uris": {"android": "https://dc.lft.to/lastmile_qr_scan", "ios": "https://dc.lft.to/lastmile_qr_scan"}, "name": "1981915a8c2be8ffff1dacec3880bb46", "is_reserved": 0}, {"is_disabled": 0, "fusion_lon": 0.0, "fusion_lat": 0.0, "lat": 38.892177333333336, "type": "electric_scooter", "lon": -77.0214835, "bike_id": "17ed526f114ac7064ad40cb0e7a2a895", "rental_uris": {"android": "https://dc.lft.to/lastmile_qr_scan", "ios": "https://dc.lft.to/lastmile_qr_scan"}, "name": "17ed526f114ac7064ad40cb0e7a2a895", "is_reserved": 0}, {"is_disabled": 0, "fusion_lon": 0.0, "fusion_lat": 0.0, "lat": 38.92196533333333, "type": "electric_scooter", "lon": -76.99761816666667, "bike_id": "be88fb603aed206b9fcb9fbb2a796aea", "rental_uris": {"android": "https://dc.lft.to/lastmile_qr_scan", "ios": "https://dc.lft.to/lastmile_qr_scan"}, "name": "be88fb603aed206b9fcb9fbb2a796aea", "is_reserved": 0}, {"is_disabled": 0, "fusion_lon": 0.0, "fusion_lat": 0.0, "lat": 38.897369833333336, "type": "electric_scooter", "lon": -77.05138816666667, "bike_id": "9d1f41bdf05cbf02d5e2225d3932577e", "rental_uris": {"android": "https://dc.lft.to/lastmile_qr_scan", "ios": "https://dc.lft.to/lastmile_qr_scan"}, "name": "9d1f41bdf05cbf02d5e2225d3932577e", "is_reserved": 0}, {"is_disabled": 0, "fusion_lon": 0.0, "fusion_lat": 0.0, "lat": 38.9388815, "type": "electric_scooter", "lon": -77.03328216666667, "bike_id": "d697732fec21cb6e6753bfac3e9614bb", "rental_uris": {"android": "https://dc.lft.to/lastmile_qr_scan", "ios": "https://dc.lft.to/lastmile_qr_scan"}, "name": "d697732fec21cb6e6753bfac3e9614bb", "is_reserved": 0}, {"is_disabled": 0, "fusion_lon": 0.0, "fusion_lat": 0.0, "lat": 38.921698166666665, "type": "electric_scooter", "lon": -77.042246, "bike_id": "afe4831f2d7d67d5784833f22263cec3", "rental_uris": {"android": "https://dc.lft.to/lastmile_qr_scan", "ios": "https://dc.lft.to/lastmile_qr_scan"}, "name": "afe4831f2d7d67d5784833f22263cec3", "is_reserved": 0}, {"is_disabled": 0, "fusion_lon": 0.0, "fusion_lat": 0.0, "lat": 38.8852935, "type": "electric_bike", "lon": -76.99830366666667, "bike_id": "be08402d1b637851af596b5412025f39", "rental_uris": {"android": "https://dc.lft.to/lastmile_qr_scan", "ios": "https://dc.lft.to/lastmile_qr_scan"}, "name": "be08402d1b637851af596b5412025f39", "is_reserved": 0}, {"is_disabled": 0, "fusion_lon": 0.0, "fusion_lat": 0.0, "lat": 38.883073, "type": "electric_scooter", "lon": -77.04528166666667, "bike_id": "27c8caef93376b41936b3a5a438f582f", "rental_uris": {"android": "https://dc.lft.to/lastmile_qr_scan", "ios": "https://dc.lft.to/lastmile_qr_scan"}, "name": "27c8caef93376b41936b3a5a438f582f", "is_reserved": 0}, {"is_disabled": 0, "fusion_lon": 0.0, "fusion_lat": 0.0, "lat": 38.914135333333334, "type": "electric_scooter", "lon": -77.02109766666666, "bike_id": "0699455a278c76045b5c937d2e819413", "rental_uris": {"android": "https://dc.lft.to/lastmile_qr_scan", "ios": "https://dc.lft.to/lastmile_qr_scan"}, "name": "0699455a278c76045b5c937d2e819413", "is_reserved": 0}, {"is_disabled": 0, "fusion_lon": 0.0, "fusion_lat": 0.0, "lat": 38.884873, "type": "electric_scooter", "lon": -77.00729866666667, "bike_id": "46c2c64a5f31f4264737a152ebb4c9e4", "rental_uris": {"android": "https://dc.lft.to/lastmile_qr_scan", "ios": "https://dc.lft.to/lastmile_qr_scan"}, "name": "46c2c64a5f31f4264737a152ebb4c9e4", "is_reserved": 0}, {"is_disabled": 0, "fusion_lon": 0.0, "fusion_lat": 0.0, "lat": 38.955835666666665, "type": "electric_scooter", "lon": -77.03649283333333, "bike_id": "936ca962172bb6ac4e3430cbf5087bd2", "rental_uris": {"android": "https://dc.lft.to/lastmile_qr_scan", "ios": "https://dc.lft.to/lastmile_qr_scan"}, "name": "936ca962172bb6ac4e3430cbf5087bd2", "is_reserved": 0}, {"is_disabled": 0, "fusion_lon": 0.0, "fusion_lat": 0.0, "lat": 38.88740766666667, "type": "electric_scooter", "lon": -77.01376466666666, "bike_id": "416e50e05fb1651d40ad4221e44e1b6a", "rental_uris": {"android": "https://dc.lft.to/lastmile_qr_scan", "ios": "https://dc.lft.to/lastmile_qr_scan"}, "name": "416e50e05fb1651d40ad4221e44e1b6a", "is_reserved": 0}, {"is_disabled": 0, "fusion_lon": 0.0, "fusion_lat": 0.0, "lat": 38.912144, "type": "electric_scooter", "lon": -77.03842433333334, "bike_id": "c54abadeacadc66a6caeb0321de02959", "rental_uris": {"android": "https://dc.lft.to/lastmile_qr_scan", "ios": "https://dc.lft.to/lastmile_qr_scan"}, "name": "c54abadeacadc66a6caeb0321de02959", "is_reserved": 0}, {"is_disabled": 0, "fusion_lon": 0.0, "fusion_lat": 0.0, "lat": 38.85199816666667, "type": "electric_bike", "lon": -77.1275955, "bike_id": "a1c8118577c4176361e27da8339f1e78", "rental_uris": {"android": "https://dc.lft.to/lastmile_qr_scan", "ios": "https://dc.lft.to/lastmile_qr_scan"}, "name": "a1c8118577c4176361e27da8339f1e78", "is_reserved": 0}, {"is_disabled": 0, "fusion_lon": 0.0, "fusion_lat": 0.0, "lat": 38.88433416666667, "type": "electric_scooter", "lon": -77.029596, "bike_id": "9072e57ba8102a9a01ea134117ceaa16", "rental_uris": {"android": "https://dc.lft.to/lastmile_qr_scan", "ios": "https://dc.lft.to/lastmile_qr_scan"}, "name": "9072e57ba8102a9a01ea134117ceaa16", "is_reserved": 0}, {"is_disabled": 0, "fusion_lon": 0.0, "fusion_lat": 0.0, "lat": 38.89847416666667, "type": "electric_scooter", "lon": -76.99029533333334, "bike_id": "fff80c4521825a9e102b9a3f7ad86c4a", "rental_uris": {"android": "https://dc.lft.to/lastmile_qr_scan", "ios": "https://dc.lft.to/lastmile_qr_scan"}, "name": "fff80c4521825a9e102b9a3f7ad86c4a", "is_reserved": 0}, {"is_disabled": 0, "fusion_lon": 0.0, "fusion_lat": 0.0, "lat": 38.93274983333333, "type": "electric_scooter", "lon": -77.039781, "bike_id": "ea906cb58dc9b1fb94cbaeb3f84832d0", "rental_uris": {"android": "https://dc.lft.to/lastmile_qr_scan", "ios": "https://dc.lft.to/lastmile_qr_scan"}, "name": "ea906cb58dc9b1fb94cbaeb3f84832d0", "is_reserved": 0}, {"is_disabled": 0, "fusion_lon": 0.0, "fusion_lat": 0.0, "lat": 38.908375666666664, "type": "electric_scooter", "lon": -77.029505, "bike_id": "a775703393d43b1b8976151d6222b390", "rental_uris": {"android": "https://dc.lft.to/lastmile_qr_scan", "ios": "https://dc.lft.to/lastmile_qr_scan"}, "name": "a775703393d43b1b8976151d6222b390", "is_reserved": 0}, {"is_disabled": 0, "fusion_lon": 0.0, "fusion_lat": 0.0, "lat": 38.9068405, "type": "electric_scooter", "lon": -77.05790183333333, "bike_id": "d840afa8d45e6bb839743a793a82af20", "rental_uris": {"android": "https://dc.lft.to/lastmile_qr_scan", "ios": "https://dc.lft.to/lastmile_qr_scan"}, "name": "d840afa8d45e6bb839743a793a82af20", "is_reserved": 0}, {"is_disabled": 0, "fusion_lon": 0.0, "fusion_lat": 0.0, "lat": 38.965577, "type": "electric_scooter", "lon": -77.00272633333333, "bike_id": "a139f68f4ae0ed89c42a9bfca05037d7", "rental_uris": {"android": "https://dc.lft.to/lastmile_qr_scan", "ios": "https://dc.lft.to/lastmile_qr_scan"}, "name": "a139f68f4ae0ed89c42a9bfca05037d7", "is_reserved": 0}, {"is_disabled": 0, "fusion_lon": 0.0, "fusion_lat": 0.0, "lat": 38.90782383333333, "type": "electric_scooter", "lon": -77.03482833333334, "bike_id": "fca80eff38dd929498f94666e07158a5", "rental_uris": {"android": "https://dc.lft.to/lastmile_qr_scan", "ios": "https://dc.lft.to/lastmile_qr_scan"}, "name": "fca80eff38dd929498f94666e07158a5", "is_reserved": 0}, {"is_disabled": 0, "fusion_lon": 0.0, "fusion_lat": 0.0, "lat": 38.9071, "type": "electric_scooter", "lon": -77.04584683333333, "bike_id": "3d243729aa3d4c06301c7ef431b3c81e", "rental_uris": {"android": "https://dc.lft.to/lastmile_qr_scan", "ios": "https://dc.lft.to/lastmile_qr_scan"}, "name": "3d243729aa3d4c06301c7ef431b3c81e", "is_reserved": 0}, {"is_disabled": 0, "fusion_lon": 0.0, "fusion_lat": 0.0, "lat": 38.912734666666665, "type": "electric_scooter", "lon": -77.02238633333333, "bike_id": "072313b6178417fec11e1a78ab2dfae3", "rental_uris": {"android": "https://dc.lft.to/lastmile_qr_scan", "ios": "https://dc.lft.to/lastmile_qr_scan"}, "name": "072313b6178417fec11e1a78ab2dfae3", "is_reserved": 0}, {"is_disabled": 0, "fusion_lon": 0.0, "fusion_lat": 0.0, "lat": 38.904914, "type": "electric_scooter", "lon": -77.02997366666666, "bike_id": "6b735a0aabc7d19c277bf8f7bfdb95d8", "rental_uris": {"android": "https://dc.lft.to/lastmile_qr_scan", "ios": "https://dc.lft.to/lastmile_qr_scan"}, "name": "6b735a0aabc7d19c277bf8f7bfdb95d8", "is_reserved": 0}, {"is_disabled": 0, "fusion_lon": 0.0, "fusion_lat": 0.0, "lat": 38.8866375, "type": "electric_scooter", "lon": -77.00174216666667, "bike_id": "7f3b94c84bdd970dfdf59a0a432e610d", "rental_uris": {"android": "https://dc.lft.to/lastmile_qr_scan", "ios": "https://dc.lft.to/lastmile_qr_scan"}, "name": "7f3b94c84bdd970dfdf59a0a432e610d", "is_reserved": 0}, {"is_disabled": 0, "fusion_lon": 0.0, "fusion_lat": 0.0, "lat": 38.9093655, "type": "electric_scooter", "lon": -77.053652, "bike_id": "b960baf5ce9471c74ea4534cc17d7399", "rental_uris": {"android": "https://dc.lft.to/lastmile_qr_scan", "ios": "https://dc.lft.to/lastmile_qr_scan"}, "name": "b960baf5ce9471c74ea4534cc17d7399", "is_reserved": 0}, {"is_disabled": 0, "fusion_lon": 0.0, "fusion_lat": 0.0, "lat": 38.9554675, "type": "electric_bike", "lon": -76.9352595, "bike_id": "70a62cd5d9ed89fac4aef21cc7eb0922", "rental_uris": {"android": "https://dc.lft.to/lastmile_qr_scan", "ios": "https://dc.lft.to/lastmile_qr_scan"}, "name": "70a62cd5d9ed89fac4aef21cc7eb0922", "is_reserved": 0}, {"is_disabled": 0, "fusion_lon": 0.0, "fusion_lat": 0.0, "lat": 38.828714, "type": "electric_bike", "lon": -77.112176, "bike_id": "23e7bcf1f63377a85c59ef25fc8e5bfb", "rental_uris": {"android": "https://dc.lft.to/lastmile_qr_scan", "ios": "https://dc.lft.to/lastmile_qr_scan"}, "name": "23e7bcf1f63377a85c59ef25fc8e5bfb", "is_reserved": 0}, {"is_disabled": 0, "fusion_lon": 0.0, "fusion_lat": 0.0, "lat": 38.94178, "type": "electric_scooter", "lon": -77.03319, "bike_id": "f4cef104e11bb19807a3496f4b51b5ad", "rental_uris": {"android": "https://dc.lft.to/lastmile_qr_scan", "ios": "https://dc.lft.to/lastmile_qr_scan"}, "name": "f4cef104e11bb19807a3496f4b51b5ad", "is_reserved": 0}, {"is_disabled": 0, "fusion_lon": 0.0, "fusion_lat": 0.0, "lat": 38.91647, "type": "electric_scooter", "lon": -77.03198733333333, "bike_id": "7c0ad130fa809c5a121d83a72481d832", "rental_uris": {"android": "https://dc.lft.to/lastmile_qr_scan", "ios": "https://dc.lft.to/lastmile_qr_scan"}, "name": "7c0ad130fa809c5a121d83a72481d832", "is_reserved": 0}, {"is_disabled": 0, "fusion_lon": 0.0, "fusion_lat": 0.0, "lat": 38.927064666666666, "type": "electric_scooter", "lon": -77.0404445, "bike_id": "5edec1c283e75cf5cff4ba759568bf85", "rental_uris": {"android": "https://dc.lft.to/lastmile_qr_scan", "ios": "https://dc.lft.to/lastmile_qr_scan"}, "name": "5edec1c283e75cf5cff4ba759568bf85", "is_reserved": 0}, {"is_disabled": 0, "fusion_lon": 0.0, "fusion_lat": 0.0, "lat": 38.907803333333334, "type": "electric_scooter", "lon": -77.00969966666666, "bike_id": "9519ce75ae6f2a196a7e6e6624b784f6", "rental_uris": {"android": "https://dc.lft.to/lastmile_qr_scan", "ios": "https://dc.lft.to/lastmile_qr_scan"}, "name": "9519ce75ae6f2a196a7e6e6624b784f6", "is_reserved": 0}, {"is_disabled": 0, "fusion_lon": 0.0, "fusion_lat": 0.0, "lat": 38.903935, "type": "electric_scooter", "lon": -77.01778866666666, "bike_id": "c37d0e10595e8c94c2c7c1aed3fa4f5c", "rental_uris": {"android": "https://dc.lft.to/lastmile_qr_scan", "ios": "https://dc.lft.to/lastmile_qr_scan"}, "name": "c37d0e10595e8c94c2c7c1aed3fa4f5c", "is_reserved": 0}, {"is_disabled": 0, "fusion_lon": 0.0, "fusion_lat": 0.0, "lat": 38.9127005, "type": "electric_scooter", "lon": -77.03867633333333, "bike_id": "d745ed078b4eb792a06d6bbc8826f6de", "rental_uris": {"android": "https://dc.lft.to/lastmile_qr_scan", "ios": "https://dc.lft.to/lastmile_qr_scan"}, "name": "d745ed078b4eb792a06d6bbc8826f6de", "is_reserved": 0}, {"is_disabled": 0, "fusion_lon": 0.0, "fusion_lat": 0.0, "lat": 38.8410215, "type": "electric_bike", "lon": -77.0893385, "bike_id": "5505aadafab65528e02757bc4b9c2c74", "rental_uris": {"android": "https://dc.lft.to/lastmile_qr_scan", "ios": "https://dc.lft.to/lastmile_qr_scan"}, "name": "5505aadafab65528e02757bc4b9c2c74", "is_reserved": 0}, {"is_disabled": 0, "fusion_lon": 0.0, "fusion_lat": 0.0, "lat": 38.92990433333333, "type": "electric_scooter", "lon": -77.01979533333333, "bike_id": "28830d96a5bf7e46c5073b208efde582", "rental_uris": {"android": "https://dc.lft.to/lastmile_qr_scan", "ios": "https://dc.lft.to/lastmile_qr_scan"}, "name": "28830d96a5bf7e46c5073b208efde582", "is_reserved": 0}, {"is_disabled": 0, "fusion_lon": 0.0, "fusion_lat": 0.0, "lat": 38.91003166666667, "type": "electric_scooter", "lon": -77.043895, "bike_id": "bed389e7f8959f7ae5dfe3b61924646a", "rental_uris": {"android": "https://dc.lft.to/lastmile_qr_scan", "ios": "https://dc.lft.to/lastmile_qr_scan"}, "name": "bed389e7f8959f7ae5dfe3b61924646a", "is_reserved": 0}, {"is_disabled": 0, "fusion_lon": 0.0, "fusion_lat": 0.0, "lat": 38.896754, "type": "electric_bike", "lon": -76.94059033333333, "bike_id": "651722ae63e91b0b25802dd65775cac6", "rental_uris": {"android": "https://dc.lft.to/lastmile_qr_scan", "ios": "https://dc.lft.to/lastmile_qr_scan"}, "name": "651722ae63e91b0b25802dd65775cac6", "is_reserved": 0}, {"is_disabled": 0, "fusion_lon": 0.0, "fusion_lat": 0.0, "lat": 38.93961983333333, "type": "electric_scooter", "lon": -77.03281733333333, "bike_id": "77c53a51be30b19a3e2688bdb5713d9f", "rental_uris": {"android": "https://dc.lft.to/lastmile_qr_scan", "ios": "https://dc.lft.to/lastmile_qr_scan"}, "name": "77c53a51be30b19a3e2688bdb5713d9f", "is_reserved": 0}, {"is_disabled": 0, "fusion_lon": 0.0, "fusion_lat": 0.0, "lat": 38.907318833333335, "type": "electric_scooter", "lon": -77.042167, "bike_id": "26eff1efed3640803a8b9b66a48c1b4b", "rental_uris": {"android": "https://dc.lft.to/lastmile_qr_scan", "ios": "https://dc.lft.to/lastmile_qr_scan"}, "name": "26eff1efed3640803a8b9b66a48c1b4b", "is_reserved": 0}, {"is_disabled": 0, "fusion_lon": 0.0, "fusion_lat": 0.0, "lat": 38.915781833333334, "type": "electric_scooter", "lon": -77.04677033333333, "bike_id": "b1b8091066b48f8048c3736c5d8ff6f0", "rental_uris": {"android": "https://dc.lft.to/lastmile_qr_scan", "ios": "https://dc.lft.to/lastmile_qr_scan"}, "name": "b1b8091066b48f8048c3736c5d8ff6f0", "is_reserved": 0}, {"is_disabled": 0, "fusion_lon": 0.0, "fusion_lat": 0.0, "lat": 38.82442866666667, "type": "electric_bike", "lon": -77.07045566666666, "bike_id": "cdf6159797f277e0361112f40791910f", "rental_uris": {"android": "https://dc.lft.to/lastmile_qr_scan", "ios": "https://dc.lft.to/lastmile_qr_scan"}, "name": "cdf6159797f277e0361112f40791910f", "is_reserved": 0}, {"is_disabled": 0, "fusion_lon": 0.0, "fusion_lat": 0.0, "lat": 38.961856, "type": "electric_scooter", "lon": -77.02793933333334, "bike_id": "226ef4d7c20bb376a438dd87c28763b4", "rental_uris": {"android": "https://dc.lft.to/lastmile_qr_scan", "ios": "https://dc.lft.to/lastmile_qr_scan"}, "name": "226ef4d7c20bb376a438dd87c28763b4", "is_reserved": 0}, {"is_disabled": 0, "fusion_lon": 0.0, "fusion_lat": 0.0, "lat": 38.827752833333335, "type": "electric_bike", "lon": -77.11079533333333, "bike_id": "8ef131f42c7ec94c070c435ae9f99b3c", "rental_uris": {"android": "https://dc.lft.to/lastmile_qr_scan", "ios": "https://dc.lft.to/lastmile_qr_scan"}, "name": "8ef131f42c7ec94c070c435ae9f99b3c", "is_reserved": 0}, {"is_disabled": 0, "fusion_lon": 0.0, "fusion_lat": 0.0, "lat": 38.89832583333333, "type": "electric_scooter", "lon": -76.946356, "bike_id": "77a3cd7a3ae2687e16a373c2c4a34023", "rental_uris": {"android": "https://dc.lft.to/lastmile_qr_scan", "ios": "https://dc.lft.to/lastmile_qr_scan"}, "name": "77a3cd7a3ae2687e16a373c2c4a34023", "is_reserved": 0}, {"is_disabled": 0, "fusion_lon": 0.0, "fusion_lat": 0.0, "lat": 38.89738216666667, "type": "electric_scooter", "lon": -77.000479, "bike_id": "53f858e65cb88dd4e5d6f5179b0ab079", "rental_uris": {"android": "https://dc.lft.to/lastmile_qr_scan", "ios": "https://dc.lft.to/lastmile_qr_scan"}, "name": "53f858e65cb88dd4e5d6f5179b0ab079", "is_reserved": 0}, {"is_disabled": 0, "fusion_lon": 0.0, "fusion_lat": 0.0, "lat": 38.93023016666667, "type": "electric_scooter", "lon": -77.03447016666667, "bike_id": "f841fd2bad80406557ffcb58df9c744f", "rental_uris": {"android": "https://dc.lft.to/lastmile_qr_scan", "ios": "https://dc.lft.to/lastmile_qr_scan"}, "name": "f841fd2bad80406557ffcb58df9c744f", "is_reserved": 0}, {"is_disabled": 0, "fusion_lon": 0.0, "fusion_lat": 0.0, "lat": 38.91688666666667, "type": "electric_scooter", "lon": -77.03764733333334, "bike_id": "b3b83c879736368cb8b8cc9300bbc33e", "rental_uris": {"android": "https://dc.lft.to/lastmile_qr_scan", "ios": "https://dc.lft.to/lastmile_qr_scan"}, "name": "b3b83c879736368cb8b8cc9300bbc33e", "is_reserved": 0}, {"is_disabled": 0, "fusion_lon": 0.0, "fusion_lat": 0.0, "lat": 38.92094916666667, "type": "electric_scooter", "lon": -77.02597483333334, "bike_id": "353ffed1de06921ce1591a7c7f9ead1d", "rental_uris": {"android": "https://dc.lft.to/lastmile_qr_scan", "ios": "https://dc.lft.to/lastmile_qr_scan"}, "name": "353ffed1de06921ce1591a7c7f9ead1d", "is_reserved": 0}, {"is_disabled": 0, "fusion_lon": 0.0, "fusion_lat": 0.0, "lat": 38.88736266666667, "type": "electric_scooter", "lon": -76.97887783333333, "bike_id": "23a8c3fba838b2fa94eaaa3516334fd2", "rental_uris": {"android": "https://dc.lft.to/lastmile_qr_scan", "ios": "https://dc.lft.to/lastmile_qr_scan"}, "name": "23a8c3fba838b2fa94eaaa3516334fd2", "is_reserved": 0}, {"is_disabled": 0, "fusion_lon": 0.0, "fusion_lat": 0.0, "lat": 38.912693, "type": "electric_scooter", "lon": -77.0223105, "bike_id": "ed45faabffcb504584c68035b4970bd1", "rental_uris": {"android": "https://dc.lft.to/lastmile_qr_scan", "ios": "https://dc.lft.to/lastmile_qr_scan"}, "name": "ed45faabffcb504584c68035b4970bd1", "is_reserved": 0}, {"is_disabled": 0, "fusion_lon": 0.0, "fusion_lat": 0.0, "lat": 38.9263285, "type": "electric_scooter", "lon": -77.0433645, "bike_id": "95fc51ca98b9608f5711fc83b0d24b01", "rental_uris": {"android": "https://dc.lft.to/lastmile_qr_scan", "ios": "https://dc.lft.to/lastmile_qr_scan"}, "name": "95fc51ca98b9608f5711fc83b0d24b01", "is_reserved": 0}, {"is_disabled": 0, "fusion_lon": 0.0, "fusion_lat": 0.0, "lat": 38.9154775, "type": "electric_scooter", "lon": -77.03074583333333, "bike_id": "8b85a4187ddbd9d9b35ff569004ef01a", "rental_uris": {"android": "https://dc.lft.to/lastmile_qr_scan", "ios": "https://dc.lft.to/lastmile_qr_scan"}, "name": "8b85a4187ddbd9d9b35ff569004ef01a", "is_reserved": 0}, {"is_disabled": 0, "fusion_lon": 0.0, "fusion_lat": 0.0, "lat": 38.9055815, "type": "electric_scooter", "lon": -77.0188845, "bike_id": "e6a3363a70e126d78be750aa4edb422b", "rental_uris": {"android": "https://dc.lft.to/lastmile_qr_scan", "ios": "https://dc.lft.to/lastmile_qr_scan"}, "name": "e6a3363a70e126d78be750aa4edb422b", "is_reserved": 0}, {"is_disabled": 0, "fusion_lon": 0.0, "fusion_lat": 0.0, "lat": 38.89011516666667, "type": "electric_scooter", "lon": -76.93731966666667, "bike_id": "764026e6f658741cf9a20c3f1e634f12", "rental_uris": {"android": "https://dc.lft.to/lastmile_qr_scan", "ios": "https://dc.lft.to/lastmile_qr_scan"}, "name": "764026e6f658741cf9a20c3f1e634f12", "is_reserved": 0}, {"is_disabled": 0, "fusion_lon": 0.0, "fusion_lat": 0.0, "lat": 38.84430183333333, "type": "electric_scooter", "lon": -76.99784516666666, "bike_id": "fb5df29871d76f1f6e249886b687ba1a", "rental_uris": {"android": "https://dc.lft.to/lastmile_qr_scan", "ios": "https://dc.lft.to/lastmile_qr_scan"}, "name": "fb5df29871d76f1f6e249886b687ba1a", "is_reserved": 0}, {"is_disabled": 0, "fusion_lon": 0.0, "fusion_lat": 0.0, "lat": 38.92130683333333, "type": "electric_scooter", "lon": -77.04418366666667, "bike_id": "e0a84919af5c5f72dfcc9a4cdf6eb07b", "rental_uris": {"android": "https://dc.lft.to/lastmile_qr_scan", "ios": "https://dc.lft.to/lastmile_qr_scan"}, "name": "e0a84919af5c5f72dfcc9a4cdf6eb07b", "is_reserved": 0}, {"is_disabled": 0, "fusion_lon": 0.0, "fusion_lat": 0.0, "lat": 38.90957866666667, "type": "electric_scooter", "lon": -77.02495933333333, "bike_id": "5f6af8bf7e89f1d4109a620412f3a73a", "rental_uris": {"android": "https://dc.lft.to/lastmile_qr_scan", "ios": "https://dc.lft.to/lastmile_qr_scan"}, "name": "5f6af8bf7e89f1d4109a620412f3a73a", "is_reserved": 0}, {"is_disabled": 0, "fusion_lon": 0.0, "fusion_lat": 0.0, "lat": 38.92855866666667, "type": "electric_scooter", "lon": -77.03163, "bike_id": "acb05fdd98a1483619054ea8b40d4737", "rental_uris": {"android": "https://dc.lft.to/lastmile_qr_scan", "ios": "https://dc.lft.to/lastmile_qr_scan"}, "name": "acb05fdd98a1483619054ea8b40d4737", "is_reserved": 0}, {"is_disabled": 0, "fusion_lon": 0.0, "fusion_lat": 0.0, "lat": 39.08897966666667, "type": "electric_bike", "lon": -77.17842283333333, "bike_id": "96427dd527f036d4a3868e16f911c7f7", "rental_uris": {"android": "https://dc.lft.to/lastmile_qr_scan", "ios": "https://dc.lft.to/lastmile_qr_scan"}, "name": "96427dd527f036d4a3868e16f911c7f7", "is_reserved": 0}, {"is_disabled": 0, "fusion_lon": 0.0, "fusion_lat": 0.0, "lat": 38.911826166666664, "type": "electric_scooter", "lon": -77.041693, "bike_id": "9e3913841e0c93d198f0faba15b36729", "rental_uris": {"android": "https://dc.lft.to/lastmile_qr_scan", "ios": "https://dc.lft.to/lastmile_qr_scan"}, "name": "9e3913841e0c93d198f0faba15b36729", "is_reserved": 0}, {"is_disabled": 0, "fusion_lon": 0.0, "fusion_lat": 0.0, "lat": 38.878407, "type": "electric_scooter", "lon": -77.02283333333334, "bike_id": "41df7b3451ce40b89c2ea7e2391e98fe", "rental_uris": {"android": "https://dc.lft.to/lastmile_qr_scan", "ios": "https://dc.lft.to/lastmile_qr_scan"}, "name": "41df7b3451ce40b89c2ea7e2391e98fe", "is_reserved": 0}, {"is_disabled": 0, "fusion_lon": 0.0, "fusion_lat": 0.0, "lat": 38.90036283333333, "type": "electric_scooter", "lon": -77.011864, "bike_id": "b396b433ab5c361eb9556d88da1c260f", "rental_uris": {"android": "https://dc.lft.to/lastmile_qr_scan", "ios": "https://dc.lft.to/lastmile_qr_scan"}, "name": "b396b433ab5c361eb9556d88da1c260f", "is_reserved": 0}, {"is_disabled": 0, "fusion_lon": 0.0, "fusion_lat": 0.0, "lat": 38.94884233333333, "type": "electric_bike", "lon": -76.96372116666667, "bike_id": "63a9afc3d1a01caeebb1510b8046864e", "rental_uris": {"android": "https://dc.lft.to/lastmile_qr_scan", "ios": "https://dc.lft.to/lastmile_qr_scan"}, "name": "63a9afc3d1a01caeebb1510b8046864e", "is_reserved": 0}, {"is_disabled": 0, "fusion_lon": 0.0, "fusion_lat": 0.0, "lat": 38.9215395, "type": "electric_scooter", "lon": -77.033877, "bike_id": "b3098730bbbbdf54bb7c9ab054c154d4", "rental_uris": {"android": "https://dc.lft.to/lastmile_qr_scan", "ios": "https://dc.lft.to/lastmile_qr_scan"}, "name": "b3098730bbbbdf54bb7c9ab054c154d4", "is_reserved": 0}, {"is_disabled": 0, "fusion_lon": 0.0, "fusion_lat": 0.0, "lat": 39.0526055, "type": "electric_bike", "lon": -77.04385116666667, "bike_id": "54da5f2666e4756580e5945678ace63d", "rental_uris": {"android": "https://dc.lft.to/lastmile_qr_scan", "ios": "https://dc.lft.to/lastmile_qr_scan"}, "name": "54da5f2666e4756580e5945678ace63d", "is_reserved": 0}, {"is_disabled": 0, "fusion_lon": 0.0, "fusion_lat": 0.0, "lat": 38.917810333333335, "type": "electric_scooter", "lon": -77.01778266666666, "bike_id": "a2abb1e08d0f9f34f5ba469f4f501213", "rental_uris": {"android": "https://dc.lft.to/lastmile_qr_scan", "ios": "https://dc.lft.to/lastmile_qr_scan"}, "name": "a2abb1e08d0f9f34f5ba469f4f501213", "is_reserved": 0}, {"is_disabled": 0, "fusion_lon": 0.0, "fusion_lat": 0.0, "lat": 38.91411133333333, "type": "electric_scooter", "lon": -77.04528516666667, "bike_id": "40269dcb6b559ba4a1a58a3bae9312c5", "rental_uris": {"android": "https://dc.lft.to/lastmile_qr_scan", "ios": "https://dc.lft.to/lastmile_qr_scan"}, "name": "40269dcb6b559ba4a1a58a3bae9312c5", "is_reserved": 0}, {"is_disabled": 0, "fusion_lon": 0.0, "fusion_lat": 0.0, "lat": 38.8844805, "type": "electric_bike", "lon": -76.91637166666666, "bike_id": "9b9792ba511e30b10315d0fde56dd56e", "rental_uris": {"android": "https://dc.lft.to/lastmile_qr_scan", "ios": "https://dc.lft.to/lastmile_qr_scan"}, "name": "9b9792ba511e30b10315d0fde56dd56e", "is_reserved": 0}, {"is_disabled": 0, "fusion_lon": 0.0, "fusion_lat": 0.0, "lat": 38.9164715, "type": "electric_scooter", "lon": -77.02295183333334, "bike_id": "46a70a9f5af3e588be3532a95fd9d139", "rental_uris": {"android": "https://dc.lft.to/lastmile_qr_scan", "ios": "https://dc.lft.to/lastmile_qr_scan"}, "name": "46a70a9f5af3e588be3532a95fd9d139", "is_reserved": 0}, {"is_disabled": 0, "fusion_lon": 0.0, "fusion_lat": 0.0, "lat": 38.91673333333333, "type": "electric_scooter", "lon": -77.029716, "bike_id": "2bf26c707b4f2577b34168b0a3abef38", "rental_uris": {"android": "https://dc.lft.to/lastmile_qr_scan", "ios": "https://dc.lft.to/lastmile_qr_scan"}, "name": "2bf26c707b4f2577b34168b0a3abef38", "is_reserved": 0}, {"is_disabled": 0, "fusion_lon": 0.0, "fusion_lat": 0.0, "lat": 38.88538166666667, "type": "electric_scooter", "lon": -77.00585316666667, "bike_id": "73a1cea7e7e8c8928f703ddd60f05624", "rental_uris": {"android": "https://dc.lft.to/lastmile_qr_scan", "ios": "https://dc.lft.to/lastmile_qr_scan"}, "name": "73a1cea7e7e8c8928f703ddd60f05624", "is_reserved": 0}, {"is_disabled": 0, "fusion_lon": 0.0, "fusion_lat": 0.0, "lat": 38.915494833333334, "type": "electric_scooter", "lon": -77.02049, "bike_id": "b83969947997422a52a3f13075d0a364", "rental_uris": {"android": "https://dc.lft.to/lastmile_qr_scan", "ios": "https://dc.lft.to/lastmile_qr_scan"}, "name": "b83969947997422a52a3f13075d0a364", "is_reserved": 0}, {"is_disabled": 0, "fusion_lon": 0.0, "fusion_lat": 0.0, "lat": 38.905282, "type": "electric_scooter", "lon": -77.06156366666667, "bike_id": "82186a12c576039019838e42d0ba6e04", "rental_uris": {"android": "https://dc.lft.to/lastmile_qr_scan", "ios": "https://dc.lft.to/lastmile_qr_scan"}, "name": "82186a12c576039019838e42d0ba6e04", "is_reserved": 0}, {"is_disabled": 0, "fusion_lon": 0.0, "fusion_lat": 0.0, "lat": 38.892159166666666, "type": "electric_scooter", "lon": -77.02833466666667, "bike_id": "4e4a6ca33129cbc206afb2534a5666b9", "rental_uris": {"android": "https://dc.lft.to/lastmile_qr_scan", "ios": "https://dc.lft.to/lastmile_qr_scan"}, "name": "4e4a6ca33129cbc206afb2534a5666b9", "is_reserved": 0}, {"is_disabled": 0, "fusion_lon": 0.0, "fusion_lat": 0.0, "lat": 38.905620166666665, "type": "electric_scooter", "lon": -77.0403925, "bike_id": "8a92fe8093ba404e0c30942e7d1fb1bc", "rental_uris": {"android": "https://dc.lft.to/lastmile_qr_scan", "ios": "https://dc.lft.to/lastmile_qr_scan"}, "name": "8a92fe8093ba404e0c30942e7d1fb1bc", "is_reserved": 0}, {"is_disabled": 0, "fusion_lon": 0.0, "fusion_lat": 0.0, "lat": 38.84292583333333, "type": "electric_bike", "lon": -77.07641566666666, "bike_id": "e6bb2b28b2b74ec8a35479e93f503669", "rental_uris": {"android": "https://dc.lft.to/lastmile_qr_scan", "ios": "https://dc.lft.to/lastmile_qr_scan"}, "name": "e6bb2b28b2b74ec8a35479e93f503669", "is_reserved": 0}, {"is_disabled": 0, "fusion_lon": 0.0, "fusion_lat": 0.0, "lat": 38.92410533333333, "type": "electric_scooter", "lon": -77.05068866666667, "bike_id": "a1e11473ee41b62177fcfef1bca0b9be", "rental_uris": {"android": "https://dc.lft.to/lastmile_qr_scan", "ios": "https://dc.lft.to/lastmile_qr_scan"}, "name": "a1e11473ee41b62177fcfef1bca0b9be", "is_reserved": 0}, {"is_disabled": 0, "fusion_lon": 0.0, "fusion_lat": 0.0, "lat": 38.90032633333333, "type": "electric_scooter", "lon": -77.01186283333334, "bike_id": "423835061931ea268e023fa7dd83e90d", "rental_uris": {"android": "https://dc.lft.to/lastmile_qr_scan", "ios": "https://dc.lft.to/lastmile_qr_scan"}, "name": "423835061931ea268e023fa7dd83e90d", "is_reserved": 0}, {"is_disabled": 0, "fusion_lon": 0.0, "fusion_lat": 0.0, "lat": 38.899340333333335, "type": "electric_scooter", "lon": -77.0402655, "bike_id": "2d2a36a3ade0571ceeaf417a1612dcdf", "rental_uris": {"android": "https://dc.lft.to/lastmile_qr_scan", "ios": "https://dc.lft.to/lastmile_qr_scan"}, "name": "2d2a36a3ade0571ceeaf417a1612dcdf", "is_reserved": 0}, {"is_disabled": 0, "fusion_lon": 0.0, "fusion_lat": 0.0, "lat": 38.8973105, "type": "electric_scooter", "lon": -77.046798, "bike_id": "96939a2cdcc8eb5c16b3df0fc4b88973", "rental_uris": {"android": "https://dc.lft.to/lastmile_qr_scan", "ios": "https://dc.lft.to/lastmile_qr_scan"}, "name": "96939a2cdcc8eb5c16b3df0fc4b88973", "is_reserved": 0}, {"is_disabled": 0, "fusion_lon": 0.0, "fusion_lat": 0.0, "lat": 38.8661705, "type": "electric_scooter", "lon": -76.98713783333334, "bike_id": "a9d8fa581684779d821ca366f42561ac", "rental_uris": {"android": "https://dc.lft.to/lastmile_qr_scan", "ios": "https://dc.lft.to/lastmile_qr_scan"}, "name": "a9d8fa581684779d821ca366f42561ac", "is_reserved": 0}, {"is_disabled": 0, "fusion_lon": 0.0, "fusion_lat": 0.0, "lat": 38.9056615, "type": "electric_scooter", "lon": -77.04352733333333, "bike_id": "2c796fda3f5f01e4b4163769f524790a", "rental_uris": {"android": "https://dc.lft.to/lastmile_qr_scan", "ios": "https://dc.lft.to/lastmile_qr_scan"}, "name": "2c796fda3f5f01e4b4163769f524790a", "is_reserved": 0}, {"is_disabled": 0, "fusion_lon": 0.0, "fusion_lat": 0.0, "lat": 38.876778, "type": "electric_scooter", "lon": -77.0160055, "bike_id": "72b897d48bdb19f1517cd6992fb7fcca", "rental_uris": {"android": "https://dc.lft.to/lastmile_qr_scan", "ios": "https://dc.lft.to/lastmile_qr_scan"}, "name": "72b897d48bdb19f1517cd6992fb7fcca", "is_reserved": 0}, {"is_disabled": 0, "fusion_lon": 0.0, "fusion_lat": 0.0, "lat": 38.919233166666665, "type": "electric_scooter", "lon": -77.034231, "bike_id": "a7a21d9f71a779e836b7baddae3fbc31", "rental_uris": {"android": "https://dc.lft.to/lastmile_qr_scan", "ios": "https://dc.lft.to/lastmile_qr_scan"}, "name": "a7a21d9f71a779e836b7baddae3fbc31", "is_reserved": 0}, {"is_disabled": 0, "fusion_lon": 0.0, "fusion_lat": 0.0, "lat": 38.900238333333334, "type": "electric_scooter", "lon": -76.99118383333334, "bike_id": "d4ab1f44d82cb861f54ad7b751ac41f7", "rental_uris": {"android": "https://dc.lft.to/lastmile_qr_scan", "ios": "https://dc.lft.to/lastmile_qr_scan"}, "name": "d4ab1f44d82cb861f54ad7b751ac41f7", "is_reserved": 0}, {"is_disabled": 0, "fusion_lon": 0.0, "fusion_lat": 0.0, "lat": 38.88039366666667, "type": "electric_bike", "lon": -76.990171, "bike_id": "02c32ae487ee83bc035a2fb503f7b645", "rental_uris": {"android": "https://dc.lft.to/lastmile_qr_scan", "ios": "https://dc.lft.to/lastmile_qr_scan"}, "name": "02c32ae487ee83bc035a2fb503f7b645", "is_reserved": 0}, {"is_disabled": 0, "fusion_lon": 0.0, "fusion_lat": 0.0, "lat": 38.91109316666667, "type": "electric_scooter", "lon": -77.03611916666667, "bike_id": "d53f45199c1a7fff354a89148e216abc", "rental_uris": {"android": "https://dc.lft.to/lastmile_qr_scan", "ios": "https://dc.lft.to/lastmile_qr_scan"}, "name": "d53f45199c1a7fff354a89148e216abc", "is_reserved": 0}, {"is_disabled": 0, "fusion_lon": 0.0, "fusion_lat": 0.0, "lat": 38.89903433333333, "type": "electric_scooter", "lon": -76.933897, "bike_id": "12db6fe50cff414dd23c96fb29eb5216", "rental_uris": {"android": "https://dc.lft.to/lastmile_qr_scan", "ios": "https://dc.lft.to/lastmile_qr_scan"}, "name": "12db6fe50cff414dd23c96fb29eb5216", "is_reserved": 0}, {"is_disabled": 0, "fusion_lon": 0.0, "fusion_lat": 0.0, "lat": 38.959637, "type": "electric_scooter", "lon": -77.02111133333334, "bike_id": "4c756138f030b917a209bf936f757ddf", "rental_uris": {"android": "https://dc.lft.to/lastmile_qr_scan", "ios": "https://dc.lft.to/lastmile_qr_scan"}, "name": "4c756138f030b917a209bf936f757ddf", "is_reserved": 0}, {"is_disabled": 0, "fusion_lon": 0.0, "fusion_lat": 0.0, "lat": 38.880658333333336, "type": "electric_scooter", "lon": -76.9950925, "bike_id": "8c22ab35411b5d74309c005a9ae7b5bb", "rental_uris": {"android": "https://dc.lft.to/lastmile_qr_scan", "ios": "https://dc.lft.to/lastmile_qr_scan"}, "name": "8c22ab35411b5d74309c005a9ae7b5bb", "is_reserved": 0}, {"is_disabled": 0, "fusion_lon": 0.0, "fusion_lat": 0.0, "lat": 38.9539965, "type": "electric_scooter", "lon": -77.02753866666667, "bike_id": "a45edf8b0753f8e3fac9420da5c68898", "rental_uris": {"android": "https://dc.lft.to/lastmile_qr_scan", "ios": "https://dc.lft.to/lastmile_qr_scan"}, "name": "a45edf8b0753f8e3fac9420da5c68898", "is_reserved": 0}, {"is_disabled": 0, "fusion_lon": 0.0, "fusion_lat": 0.0, "lat": 38.902407833333335, "type": "electric_scooter", "lon": -77.01935, "bike_id": "cad347e831a18ff81a8a1c3f3cf4b025", "rental_uris": {"android": "https://dc.lft.to/lastmile_qr_scan", "ios": "https://dc.lft.to/lastmile_qr_scan"}, "name": "cad347e831a18ff81a8a1c3f3cf4b025", "is_reserved": 0}, {"is_disabled": 0, "fusion_lon": 0.0, "fusion_lat": 0.0, "lat": 38.89587816666667, "type": "electric_scooter", "lon": -77.02608016666667, "bike_id": "9ca0ca183f0e4f63d29459c132ac35f9", "rental_uris": {"android": "https://dc.lft.to/lastmile_qr_scan", "ios": "https://dc.lft.to/lastmile_qr_scan"}, "name": "9ca0ca183f0e4f63d29459c132ac35f9", "is_reserved": 0}, {"is_disabled": 0, "fusion_lon": 0.0, "fusion_lat": 0.0, "lat": 38.9168705, "type": "electric_scooter", "lon": -77.02591616666666, "bike_id": "fd5df4b1851577e6e75e8735842ebd9f", "rental_uris": {"android": "https://dc.lft.to/lastmile_qr_scan", "ios": "https://dc.lft.to/lastmile_qr_scan"}, "name": "fd5df4b1851577e6e75e8735842ebd9f", "is_reserved": 0}, {"is_disabled": 0, "fusion_lon": 0.0, "fusion_lat": 0.0, "lat": 38.883529, "type": "electric_bike", "lon": -77.03049316666667, "bike_id": "2f5b7f2889612d12b52edc5b0eca0047", "rental_uris": {"android": "https://dc.lft.to/lastmile_qr_scan", "ios": "https://dc.lft.to/lastmile_qr_scan"}, "name": "2f5b7f2889612d12b52edc5b0eca0047", "is_reserved": 0}, {"is_disabled": 0, "fusion_lon": 0.0, "fusion_lat": 0.0, "lat": 38.897625166666664, "type": "electric_scooter", "lon": -77.0089265, "bike_id": "cd5898f26d7fa5191db3c8ad61fb941c", "rental_uris": {"android": "https://dc.lft.to/lastmile_qr_scan", "ios": "https://dc.lft.to/lastmile_qr_scan"}, "name": "cd5898f26d7fa5191db3c8ad61fb941c", "is_reserved": 0}, {"is_disabled": 0, "fusion_lon": 0.0, "fusion_lat": 0.0, "lat": 38.916893, "type": "electric_scooter", "lon": -77.03213366666667, "bike_id": "9f3ec098978c75be5be287c73a37b8c3", "rental_uris": {"android": "https://dc.lft.to/lastmile_qr_scan", "ios": "https://dc.lft.to/lastmile_qr_scan"}, "name": "9f3ec098978c75be5be287c73a37b8c3", "is_reserved": 0}, {"is_disabled": 0, "fusion_lon": 0.0, "fusion_lat": 0.0, "lat": 38.845947333333335, "type": "electric_bike", "lon": -76.96878733333334, "bike_id": "df7783af2f7f17cfc696eb1bad583715", "rental_uris": {"android": "https://dc.lft.to/lastmile_qr_scan", "ios": "https://dc.lft.to/lastmile_qr_scan"}, "name": "df7783af2f7f17cfc696eb1bad583715", "is_reserved": 0}, {"is_disabled": 0, "fusion_lon": 0.0, "fusion_lat": 0.0, "lat": 38.99931616666667, "type": "electric_bike", "lon": -77.00123816666667, "bike_id": "ddd86032488ff2db5ee532a3cb680ba6", "rental_uris": {"android": "https://dc.lft.to/lastmile_qr_scan", "ios": "https://dc.lft.to/lastmile_qr_scan"}, "name": "ddd86032488ff2db5ee532a3cb680ba6", "is_reserved": 0}, {"is_disabled": 0, "fusion_lon": 0.0, "fusion_lat": 0.0, "lat": 38.894989333333335, "type": "electric_scooter", "lon": -76.94883216666666, "bike_id": "5e749b020bc56928419bf06a528b5c2e", "rental_uris": {"android": "https://dc.lft.to/lastmile_qr_scan", "ios": "https://dc.lft.to/lastmile_qr_scan"}, "name": "5e749b020bc56928419bf06a528b5c2e", "is_reserved": 0}, {"is_disabled": 0, "fusion_lon": 0.0, "fusion_lat": 0.0, "lat": 38.919308666666666, "type": "electric_scooter", "lon": -77.08127783333333, "bike_id": "8db7956628b59a53bbab1763f07adf0c", "rental_uris": {"android": "https://dc.lft.to/lastmile_qr_scan", "ios": "https://dc.lft.to/lastmile_qr_scan"}, "name": "8db7956628b59a53bbab1763f07adf0c", "is_reserved": 0}, {"is_disabled": 0, "fusion_lon": 0.0, "fusion_lat": 0.0, "lat": 38.88005666666667, "type": "electric_scooter", "lon": -76.931168, "bike_id": "2527a436b933b606b1dfc0090c5aacf4", "rental_uris": {"android": "https://dc.lft.to/lastmile_qr_scan", "ios": "https://dc.lft.to/lastmile_qr_scan"}, "name": "2527a436b933b606b1dfc0090c5aacf4", "is_reserved": 0}, {"is_disabled": 0, "fusion_lon": 0.0, "fusion_lat": 0.0, "lat": 38.907034333333335, "type": "electric_scooter", "lon": -77.02395233333333, "bike_id": "a8d8adcdb278ef4dd9340f573fb58673", "rental_uris": {"android": "https://dc.lft.to/lastmile_qr_scan", "ios": "https://dc.lft.to/lastmile_qr_scan"}, "name": "a8d8adcdb278ef4dd9340f573fb58673", "is_reserved": 0}, {"is_disabled": 0, "fusion_lon": 0.0, "fusion_lat": 0.0, "lat": 39.09589366666667, "type": "electric_bike", "lon": -77.14787033333333, "bike_id": "bc52d45bbc32e7e4814e081e63b8bdcd", "rental_uris": {"android": "https://dc.lft.to/lastmile_qr_scan", "ios": "https://dc.lft.to/lastmile_qr_scan"}, "name": "bc52d45bbc32e7e4814e081e63b8bdcd", "is_reserved": 0}, {"is_disabled": 0, "fusion_lon": 0.0, "fusion_lat": 0.0, "lat": 38.91551616666667, "type": "electric_scooter", "lon": -77.02047233333333, "bike_id": "92aa93d8ead34677fc6dff498673495d", "rental_uris": {"android": "https://dc.lft.to/lastmile_qr_scan", "ios": "https://dc.lft.to/lastmile_qr_scan"}, "name": "92aa93d8ead34677fc6dff498673495d", "is_reserved": 0}, {"is_disabled": 0, "fusion_lon": 0.0, "fusion_lat": 0.0, "lat": 38.855253166666664, "type": "electric_bike", "lon": -77.1071825, "bike_id": "abc4a2e1a99a8df39fe14d33a7ef70ac", "rental_uris": {"android": "https://dc.lft.to/lastmile_qr_scan", "ios": "https://dc.lft.to/lastmile_qr_scan"}, "name": "abc4a2e1a99a8df39fe14d33a7ef70ac", "is_reserved": 0}, {"is_disabled": 0, "fusion_lon": 0.0, "fusion_lat": 0.0, "lat": 38.912429833333334, "type": "electric_scooter", "lon": -77.04158183333334, "bike_id": "0159a06c04ccf7f424c0beb357178bf0", "rental_uris": {"android": "https://dc.lft.to/lastmile_qr_scan", "ios": "https://dc.lft.to/lastmile_qr_scan"}, "name": "0159a06c04ccf7f424c0beb357178bf0", "is_reserved": 0}, {"is_disabled": 0, "fusion_lon": 0.0, "fusion_lat": 0.0, "lat": 38.91407566666667, "type": "electric_scooter", "lon": -77.026725, "bike_id": "d16f99ec41c7cfed821c62ac33e3abec", "rental_uris": {"android": "https://dc.lft.to/lastmile_qr_scan", "ios": "https://dc.lft.to/lastmile_qr_scan"}, "name": "d16f99ec41c7cfed821c62ac33e3abec", "is_reserved": 0}, {"is_disabled": 0, "fusion_lon": 0.0, "fusion_lat": 0.0, "lat": 38.9311015, "type": "electric_scooter", "lon": -77.035, "bike_id": "8fdf5a8ecd35c6caf164a9039e8dee09", "rental_uris": {"android": "https://dc.lft.to/lastmile_qr_scan", "ios": "https://dc.lft.to/lastmile_qr_scan"}, "name": "8fdf5a8ecd35c6caf164a9039e8dee09", "is_reserved": 0}, {"is_disabled": 0, "fusion_lon": 0.0, "fusion_lat": 0.0, "lat": 38.91376666666667, "type": "electric_scooter", "lon": -77.02963233333334, "bike_id": "a05ac055583a42997df70233807d8552", "rental_uris": {"android": "https://dc.lft.to/lastmile_qr_scan", "ios": "https://dc.lft.to/lastmile_qr_scan"}, "name": "a05ac055583a42997df70233807d8552", "is_reserved": 0}, {"is_disabled": 0, "fusion_lon": 0.0, "fusion_lat": 0.0, "lat": 38.920376166666664, "type": "electric_scooter", "lon": -77.01814866666666, "bike_id": "afa33cc0a832be61168840ef1e1968e9", "rental_uris": {"android": "https://dc.lft.to/lastmile_qr_scan", "ios": "https://dc.lft.to/lastmile_qr_scan"}, "name": "afa33cc0a832be61168840ef1e1968e9", "is_reserved": 0}, {"is_disabled": 0, "fusion_lon": 0.0, "fusion_lat": 0.0, "lat": 38.89830333333333, "type": "electric_scooter", "lon": -76.94638733333333, "bike_id": "d7f756c50817f027e62aa12062e09b1e", "rental_uris": {"android": "https://dc.lft.to/lastmile_qr_scan", "ios": "https://dc.lft.to/lastmile_qr_scan"}, "name": "d7f756c50817f027e62aa12062e09b1e", "is_reserved": 0}, {"is_disabled": 0, "fusion_lon": 0.0, "fusion_lat": 0.0, "lat": 38.91814733333333, "type": "electric_scooter", "lon": -77.01088233333333, "bike_id": "e5c4ba00f147181f2fc98a1250ecd768", "rental_uris": {"android": "https://dc.lft.to/lastmile_qr_scan", "ios": "https://dc.lft.to/lastmile_qr_scan"}, "name": "e5c4ba00f147181f2fc98a1250ecd768", "is_reserved": 0}, {"is_disabled": 0, "fusion_lon": 0.0, "fusion_lat": 0.0, "lat": 38.949226833333334, "type": "electric_scooter", "lon": -77.0194595, "bike_id": "4c51d41a59043de6b199a48e0d51c738", "rental_uris": {"android": "https://dc.lft.to/lastmile_qr_scan", "ios": "https://dc.lft.to/lastmile_qr_scan"}, "name": "4c51d41a59043de6b199a48e0d51c738", "is_reserved": 0}, {"is_disabled": 0, "fusion_lon": 0.0, "fusion_lat": 0.0, "lat": 38.8492895, "type": "electric_bike", "lon": -77.10012916666666, "bike_id": "056d7d0653c513a18d688bf8dfe40a43", "rental_uris": {"android": "https://dc.lft.to/lastmile_qr_scan", "ios": "https://dc.lft.to/lastmile_qr_scan"}, "name": "056d7d0653c513a18d688bf8dfe40a43", "is_reserved": 0}, {"is_disabled": 0, "fusion_lon": 0.0, "fusion_lat": 0.0, "lat": 38.88439133333333, "type": "electric_scooter", "lon": -77.0296125, "bike_id": "57744739a07bbd79c9ba8fee21e53bf1", "rental_uris": {"android": "https://dc.lft.to/lastmile_qr_scan", "ios": "https://dc.lft.to/lastmile_qr_scan"}, "name": "57744739a07bbd79c9ba8fee21e53bf1", "is_reserved": 0}, {"is_disabled": 0, "fusion_lon": 0.0, "fusion_lat": 0.0, "lat": 38.886097666666664, "type": "electric_scooter", "lon": -77.0057335, "bike_id": "33bbe3a285eb797c97fda05c6ecab31f", "rental_uris": {"android": "https://dc.lft.to/lastmile_qr_scan", "ios": "https://dc.lft.to/lastmile_qr_scan"}, "name": "33bbe3a285eb797c97fda05c6ecab31f", "is_reserved": 0}, {"is_disabled": 0, "fusion_lon": 0.0, "fusion_lat": 0.0, "lat": 38.93579, "type": "electric_scooter", "lon": -77.02449983333334, "bike_id": "6987f6897d594532e677dfbfa21687fe", "rental_uris": {"android": "https://dc.lft.to/lastmile_qr_scan", "ios": "https://dc.lft.to/lastmile_qr_scan"}, "name": "6987f6897d594532e677dfbfa21687fe", "is_reserved": 0}, {"is_disabled": 0, "fusion_lon": 0.0, "fusion_lat": 0.0, "lat": 38.90671583333334, "type": "electric_scooter", "lon": -77.062338, "bike_id": "0035c65b5b2e6c79839f94912bc504f9", "rental_uris": {"android": "https://dc.lft.to/lastmile_qr_scan", "ios": "https://dc.lft.to/lastmile_qr_scan"}, "name": "0035c65b5b2e6c79839f94912bc504f9", "is_reserved": 0}, {"is_disabled": 0, "fusion_lon": 0.0, "fusion_lat": 0.0, "lat": 38.89946783333333, "type": "electric_scooter", "lon": -77.05150483333334, "bike_id": "3bb8e2dd3dcad7ba82140ff0689a0fc1", "rental_uris": {"android": "https://dc.lft.to/lastmile_qr_scan", "ios": "https://dc.lft.to/lastmile_qr_scan"}, "name": "3bb8e2dd3dcad7ba82140ff0689a0fc1", "is_reserved": 0}, {"is_disabled": 0, "fusion_lon": 0.0, "fusion_lat": 0.0, "lat": 38.93622383333334, "type": "electric_scooter", "lon": -77.03654416666667, "bike_id": "f8364bd5c2494db2dd88ca4bad41c394", "rental_uris": {"android": "https://dc.lft.to/lastmile_qr_scan", "ios": "https://dc.lft.to/lastmile_qr_scan"}, "name": "f8364bd5c2494db2dd88ca4bad41c394", "is_reserved": 0}, {"is_disabled": 0, "fusion_lon": 0.0, "fusion_lat": 0.0, "lat": 38.870501, "type": "electric_scooter", "lon": -76.980821, "bike_id": "f646a5274a050397116cdaf1ff68b300", "rental_uris": {"android": "https://dc.lft.to/lastmile_qr_scan", "ios": "https://dc.lft.to/lastmile_qr_scan"}, "name": "f646a5274a050397116cdaf1ff68b300", "is_reserved": 0}, {"is_disabled": 0, "fusion_lon": 0.0, "fusion_lat": 0.0, "lat": 38.856452, "type": "electric_bike", "lon": -77.085273, "bike_id": "e37b469a7817df3808c7fcf537e156f0", "rental_uris": {"android": "https://dc.lft.to/lastmile_qr_scan", "ios": "https://dc.lft.to/lastmile_qr_scan"}, "name": "e37b469a7817df3808c7fcf537e156f0", "is_reserved": 0}, {"is_disabled": 0, "fusion_lon": 0.0, "fusion_lat": 0.0, "lat": 38.901348, "type": "electric_scooter", "lon": -77.04893033333333, "bike_id": "d26303d93c4a50e1b66f4b87ed70f31d", "rental_uris": {"android": "https://dc.lft.to/lastmile_qr_scan", "ios": "https://dc.lft.to/lastmile_qr_scan"}, "name": "d26303d93c4a50e1b66f4b87ed70f31d", "is_reserved": 0}, {"is_disabled": 0, "fusion_lon": 0.0, "fusion_lat": 0.0, "lat": 38.906382666666666, "type": "electric_scooter", "lon": -77.02387516666667, "bike_id": "dacceb118871cc89adec42cba8b46c47", "rental_uris": {"android": "https://dc.lft.to/lastmile_qr_scan", "ios": "https://dc.lft.to/lastmile_qr_scan"}, "name": "dacceb118871cc89adec42cba8b46c47", "is_reserved": 0}, {"is_disabled": 0, "fusion_lon": 0.0, "fusion_lat": 0.0, "lat": 38.90030866666667, "type": "electric_scooter", "lon": -76.998251, "bike_id": "b725b8f271b4805541e54cabd887fd66", "rental_uris": {"android": "https://dc.lft.to/lastmile_qr_scan", "ios": "https://dc.lft.to/lastmile_qr_scan"}, "name": "b725b8f271b4805541e54cabd887fd66", "is_reserved": 0}, {"is_disabled": 0, "fusion_lon": 0.0, "fusion_lat": 0.0, "lat": 38.9050135, "type": "electric_scooter", "lon": -77.06014766666667, "bike_id": "5cd06e6814f48142ef8fb822ba1a1daf", "rental_uris": {"android": "https://dc.lft.to/lastmile_qr_scan", "ios": "https://dc.lft.to/lastmile_qr_scan"}, "name": "5cd06e6814f48142ef8fb822ba1a1daf", "is_reserved": 0}, {"is_disabled": 0, "fusion_lon": 0.0, "fusion_lat": 0.0, "lat": 38.956387, "type": "electric_scooter", "lon": -77.09100566666666, "bike_id": "1abd2f49128c0a5b642a4dbd2bcd7bf8", "rental_uris": {"android": "https://dc.lft.to/lastmile_qr_scan", "ios": "https://dc.lft.to/lastmile_qr_scan"}, "name": "1abd2f49128c0a5b642a4dbd2bcd7bf8", "is_reserved": 0}, {"is_disabled": 0, "fusion_lon": 0.0, "fusion_lat": 0.0, "lat": 38.917965833333334, "type": "electric_scooter", "lon": -77.03558616666666, "bike_id": "4b8ead594f0cf97434b6327ccb350f81", "rental_uris": {"android": "https://dc.lft.to/lastmile_qr_scan", "ios": "https://dc.lft.to/lastmile_qr_scan"}, "name": "4b8ead594f0cf97434b6327ccb350f81", "is_reserved": 0}, {"is_disabled": 0, "fusion_lon": 0.0, "fusion_lat": 0.0, "lat": 38.8450325, "type": "electric_bike", "lon": -76.97216733333333, "bike_id": "b0dfde8b80f6270a2838926d4369aad3", "rental_uris": {"android": "https://dc.lft.to/lastmile_qr_scan", "ios": "https://dc.lft.to/lastmile_qr_scan"}, "name": "b0dfde8b80f6270a2838926d4369aad3", "is_reserved": 0}, {"is_disabled": 0, "fusion_lon": 0.0, "fusion_lat": 0.0, "lat": 38.88494033333333, "type": "electric_scooter", "lon": -77.017258, "bike_id": "964e680b7991bf07a18743842ef2bfb5", "rental_uris": {"android": "https://dc.lft.to/lastmile_qr_scan", "ios": "https://dc.lft.to/lastmile_qr_scan"}, "name": "964e680b7991bf07a18743842ef2bfb5", "is_reserved": 0}, {"is_disabled": 0, "fusion_lon": 0.0, "fusion_lat": 0.0, "lat": 38.904168, "type": "electric_scooter", "lon": -77.0483195, "bike_id": "3fd3fe98bd6cfc00598f45b598436ba3", "rental_uris": {"android": "https://dc.lft.to/lastmile_qr_scan", "ios": "https://dc.lft.to/lastmile_qr_scan"}, "name": "3fd3fe98bd6cfc00598f45b598436ba3", "is_reserved": 0}, {"is_disabled": 0, "fusion_lon": 0.0, "fusion_lat": 0.0, "lat": 38.909957166666665, "type": "electric_bike", "lon": -77.046191, "bike_id": "f473c6f79207fe9f1774a5dfd11f6688", "rental_uris": {"android": "https://dc.lft.to/lastmile_qr_scan", "ios": "https://dc.lft.to/lastmile_qr_scan"}, "name": "f473c6f79207fe9f1774a5dfd11f6688", "is_reserved": 0}, {"is_disabled": 0, "fusion_lon": 0.0, "fusion_lat": 0.0, "lat": 38.922917, "type": "electric_scooter", "lon": -77.04302466666667, "bike_id": "4b44eb2050a81b422d50d6d40e178103", "rental_uris": {"android": "https://dc.lft.to/lastmile_qr_scan", "ios": "https://dc.lft.to/lastmile_qr_scan"}, "name": "4b44eb2050a81b422d50d6d40e178103", "is_reserved": 0}, {"is_disabled": 0, "fusion_lon": 0.0, "fusion_lat": 0.0, "lat": 38.914662166666666, "type": "electric_scooter", "lon": -77.03886333333334, "bike_id": "7767f3697e616106ee14971de80155d4", "rental_uris": {"android": "https://dc.lft.to/lastmile_qr_scan", "ios": "https://dc.lft.to/lastmile_qr_scan"}, "name": "7767f3697e616106ee14971de80155d4", "is_reserved": 0}, {"is_disabled": 0, "fusion_lon": 0.0, "fusion_lat": 0.0, "lat": 38.93498, "type": "electric_scooter", "lon": -77.02415866666666, "bike_id": "828fad7c6f0f3b8c9a1ded1924e6571a", "rental_uris": {"android": "https://dc.lft.to/lastmile_qr_scan", "ios": "https://dc.lft.to/lastmile_qr_scan"}, "name": "828fad7c6f0f3b8c9a1ded1924e6571a", "is_reserved": 0}, {"is_disabled": 0, "fusion_lon": 0.0, "fusion_lat": 0.0, "lat": 38.92855333333333, "type": "electric_bike", "lon": -76.98939283333333, "bike_id": "9aa06b11920bf91fc24869eb7b1e20d0", "rental_uris": {"android": "https://dc.lft.to/lastmile_qr_scan", "ios": "https://dc.lft.to/lastmile_qr_scan"}, "name": "9aa06b11920bf91fc24869eb7b1e20d0", "is_reserved": 0}, {"is_disabled": 0, "fusion_lon": 0.0, "fusion_lat": 0.0, "lat": 38.88269783333333, "type": "electric_scooter", "lon": -76.98777233333334, "bike_id": "744b44d08c2b2232ded0c44073fbf8ce", "rental_uris": {"android": "https://dc.lft.to/lastmile_qr_scan", "ios": "https://dc.lft.to/lastmile_qr_scan"}, "name": "744b44d08c2b2232ded0c44073fbf8ce", "is_reserved": 0}, {"is_disabled": 0, "fusion_lon": 0.0, "fusion_lat": 0.0, "lat": 38.915639166666665, "type": "electric_scooter", "lon": -77.04156316666666, "bike_id": "450f8ca61765512cb19c1f28d4ca9d5f", "rental_uris": {"android": "https://dc.lft.to/lastmile_qr_scan", "ios": "https://dc.lft.to/lastmile_qr_scan"}, "name": "450f8ca61765512cb19c1f28d4ca9d5f", "is_reserved": 0}, {"is_disabled": 0, "fusion_lon": 0.0, "fusion_lat": 0.0, "lat": 38.92743016666667, "type": "electric_scooter", "lon": -77.0335055, "bike_id": "55e9aeb37518e30b255734190986567d", "rental_uris": {"android": "https://dc.lft.to/lastmile_qr_scan", "ios": "https://dc.lft.to/lastmile_qr_scan"}, "name": "55e9aeb37518e30b255734190986567d", "is_reserved": 0}, {"is_disabled": 0, "fusion_lon": 0.0, "fusion_lat": 0.0, "lat": 38.916915333333336, "type": "electric_scooter", "lon": -77.03768516666666, "bike_id": "f783963a2853222738358cc74f0065d0", "rental_uris": {"android": "https://dc.lft.to/lastmile_qr_scan", "ios": "https://dc.lft.to/lastmile_qr_scan"}, "name": "f783963a2853222738358cc74f0065d0", "is_reserved": 0}, {"is_disabled": 0, "fusion_lon": 0.0, "fusion_lat": 0.0, "lat": 38.90135433333333, "type": "electric_scooter", "lon": -77.03664733333333, "bike_id": "89b9542dd4bd5f12de9628635279a59d", "rental_uris": {"android": "https://dc.lft.to/lastmile_qr_scan", "ios": "https://dc.lft.to/lastmile_qr_scan"}, "name": "89b9542dd4bd5f12de9628635279a59d", "is_reserved": 0}, {"is_disabled": 0, "fusion_lon": 0.0, "fusion_lat": 0.0, "lat": 38.9089505, "type": "electric_scooter", "lon": -76.99857966666667, "bike_id": "6c25d2e03ecb92b37be66e0f17035f5a", "rental_uris": {"android": "https://dc.lft.to/lastmile_qr_scan", "ios": "https://dc.lft.to/lastmile_qr_scan"}, "name": "6c25d2e03ecb92b37be66e0f17035f5a", "is_reserved": 0}, {"is_disabled": 0, "fusion_lon": 0.0, "fusion_lat": 0.0, "lat": 38.901555, "type": "electric_scooter", "lon": -77.053225, "bike_id": "74e7f742e9c37daece255c23e8b46644", "rental_uris": {"android": "https://dc.lft.to/lastmile_qr_scan", "ios": "https://dc.lft.to/lastmile_qr_scan"}, "name": "74e7f742e9c37daece255c23e8b46644", "is_reserved": 0}, {"is_disabled": 0, "fusion_lon": 0.0, "fusion_lat": 0.0, "lat": 38.98823866666667, "type": "electric_bike", "lon": -76.98761466666667, "bike_id": "f9a500e843dc806bb078e08fbde4a412", "rental_uris": {"android": "https://dc.lft.to/lastmile_qr_scan", "ios": "https://dc.lft.to/lastmile_qr_scan"}, "name": "f9a500e843dc806bb078e08fbde4a412", "is_reserved": 0}, {"is_disabled": 0, "fusion_lon": 0.0, "fusion_lat": 0.0, "lat": 38.92570216666667, "type": "electric_scooter", "lon": -76.994865, "bike_id": "fc17017bc14256a29d4c445ab8549a00", "rental_uris": {"android": "https://dc.lft.to/lastmile_qr_scan", "ios": "https://dc.lft.to/lastmile_qr_scan"}, "name": "fc17017bc14256a29d4c445ab8549a00", "is_reserved": 0}, {"is_disabled": 0, "fusion_lon": 0.0, "fusion_lat": 0.0, "lat": 38.9419535, "type": "electric_scooter", "lon": -77.0257775, "bike_id": "fa64fa4e1163ce18367e27b4aa806ef7", "rental_uris": {"android": "https://dc.lft.to/lastmile_qr_scan", "ios": "https://dc.lft.to/lastmile_qr_scan"}, "name": "fa64fa4e1163ce18367e27b4aa806ef7", "is_reserved": 0}, {"is_disabled": 0, "fusion_lon": 0.0, "fusion_lat": 0.0, "lat": 38.89370683333333, "type": "electric_scooter", "lon": -76.94997333333333, "bike_id": "af71844374a7fbd2114d8b656ad992cb", "rental_uris": {"android": "https://dc.lft.to/lastmile_qr_scan", "ios": "https://dc.lft.to/lastmile_qr_scan"}, "name": "af71844374a7fbd2114d8b656ad992cb", "is_reserved": 0}, {"is_disabled": 0, "fusion_lon": 0.0, "fusion_lat": 0.0, "lat": 38.92986116666667, "type": "electric_scooter", "lon": -77.03471116666667, "bike_id": "43695a40b1fe0d4632fe662db14adb34", "rental_uris": {"android": "https://dc.lft.to/lastmile_qr_scan", "ios": "https://dc.lft.to/lastmile_qr_scan"}, "name": "43695a40b1fe0d4632fe662db14adb34", "is_reserved": 0}, {"is_disabled": 0, "fusion_lon": 0.0, "fusion_lat": 0.0, "lat": 38.92474883333333, "type": "electric_scooter", "lon": -77.02710033333334, "bike_id": "5b0376a18468883278708ae3afc1f4fe", "rental_uris": {"android": "https://dc.lft.to/lastmile_qr_scan", "ios": "https://dc.lft.to/lastmile_qr_scan"}, "name": "5b0376a18468883278708ae3afc1f4fe", "is_reserved": 0}, {"is_disabled": 0, "fusion_lon": 0.0, "fusion_lat": 0.0, "lat": 38.940441166666666, "type": "electric_scooter", "lon": -77.02903533333334, "bike_id": "7d5fde16524fe2343d9ad1be43de2955", "rental_uris": {"android": "https://dc.lft.to/lastmile_qr_scan", "ios": "https://dc.lft.to/lastmile_qr_scan"}, "name": "7d5fde16524fe2343d9ad1be43de2955", "is_reserved": 0}, {"is_disabled": 0, "fusion_lon": 0.0, "fusion_lat": 0.0, "lat": 38.898263666666665, "type": "electric_scooter", "lon": -76.98050566666667, "bike_id": "95ad4aef2a7d02e1caf6a1d96df2cb08", "rental_uris": {"android": "https://dc.lft.to/lastmile_qr_scan", "ios": "https://dc.lft.to/lastmile_qr_scan"}, "name": "95ad4aef2a7d02e1caf6a1d96df2cb08", "is_reserved": 0}, {"is_disabled": 0, "fusion_lon": 0.0, "fusion_lat": 0.0, "lat": 38.827380833333336, "type": "electric_bike", "lon": -77.00849616666666, "bike_id": "a6b2771c26690dd6959f00d83177fa08", "rental_uris": {"android": "https://dc.lft.to/lastmile_qr_scan", "ios": "https://dc.lft.to/lastmile_qr_scan"}, "name": "a6b2771c26690dd6959f00d83177fa08", "is_reserved": 0}, {"is_disabled": 0, "fusion_lon": 0.0, "fusion_lat": 0.0, "lat": 38.88792333333333, "type": "electric_bike", "lon": -76.92997266666667, "bike_id": "fcef69ad376b9077061a7423a0f504df", "rental_uris": {"android": "https://dc.lft.to/lastmile_qr_scan", "ios": "https://dc.lft.to/lastmile_qr_scan"}, "name": "fcef69ad376b9077061a7423a0f504df", "is_reserved": 0}, {"is_disabled": 0, "fusion_lon": 0.0, "fusion_lat": 0.0, "lat": 38.902745, "type": "electric_scooter", "lon": -77.0218075, "bike_id": "bd8492d77f0d3ae3622653b407329a57", "rental_uris": {"android": "https://dc.lft.to/lastmile_qr_scan", "ios": "https://dc.lft.to/lastmile_qr_scan"}, "name": "bd8492d77f0d3ae3622653b407329a57", "is_reserved": 0}, {"is_disabled": 0, "fusion_lon": 0.0, "fusion_lat": 0.0, "lat": 38.944742, "type": "electric_scooter", "lon": -77.06360633333334, "bike_id": "2df08e381cf30c9580cddd03fc1599da", "rental_uris": {"android": "https://dc.lft.to/lastmile_qr_scan", "ios": "https://dc.lft.to/lastmile_qr_scan"}, "name": "2df08e381cf30c9580cddd03fc1599da", "is_reserved": 0}, {"is_disabled": 0, "fusion_lon": 0.0, "fusion_lat": 0.0, "lat": 38.910259833333335, "type": "electric_scooter", "lon": -77.04823366666666, "bike_id": "f04a7367aa0e6adfffa8e6cc6e4854c2", "rental_uris": {"android": "https://dc.lft.to/lastmile_qr_scan", "ios": "https://dc.lft.to/lastmile_qr_scan"}, "name": "f04a7367aa0e6adfffa8e6cc6e4854c2", "is_reserved": 0}, {"is_disabled": 0, "fusion_lon": 0.0, "fusion_lat": 0.0, "lat": 38.94066216666667, "type": "electric_bike", "lon": -77.0529425, "bike_id": "02b0d35a966431dad847cc4f1f6280fb", "rental_uris": {"android": "https://dc.lft.to/lastmile_qr_scan", "ios": "https://dc.lft.to/lastmile_qr_scan"}, "name": "02b0d35a966431dad847cc4f1f6280fb", "is_reserved": 0}, {"is_disabled": 0, "fusion_lon": 0.0, "fusion_lat": 0.0, "lat": 39.008683833333336, "type": "electric_bike", "lon": -77.07901883333334, "bike_id": "cf9e718cbfcfb7b2626893c62b49db41", "rental_uris": {"android": "https://dc.lft.to/lastmile_qr_scan", "ios": "https://dc.lft.to/lastmile_qr_scan"}, "name": "cf9e718cbfcfb7b2626893c62b49db41", "is_reserved": 0}, {"is_disabled": 0, "fusion_lon": 0.0, "fusion_lat": 0.0, "lat": 38.91398866666667, "type": "electric_scooter", "lon": -77.02682966666667, "bike_id": "ee707b79e5173e0eb8c7691009861556", "rental_uris": {"android": "https://dc.lft.to/lastmile_qr_scan", "ios": "https://dc.lft.to/lastmile_qr_scan"}, "name": "ee707b79e5173e0eb8c7691009861556", "is_reserved": 0}, {"is_disabled": 0, "fusion_lon": 0.0, "fusion_lat": 0.0, "lat": 38.90022183333333, "type": "electric_scooter", "lon": -77.055939, "bike_id": "953cdcec071459a344a2f33bad14656f", "rental_uris": {"android": "https://dc.lft.to/lastmile_qr_scan", "ios": "https://dc.lft.to/lastmile_qr_scan"}, "name": "953cdcec071459a344a2f33bad14656f", "is_reserved": 0}, {"is_disabled": 0, "fusion_lon": 0.0, "fusion_lat": 0.0, "lat": 38.911804333333336, "type": "electric_scooter", "lon": -77.03803383333333, "bike_id": "8fed84c7fb6a85ffce6bb33599bc0113", "rental_uris": {"android": "https://dc.lft.to/lastmile_qr_scan", "ios": "https://dc.lft.to/lastmile_qr_scan"}, "name": "8fed84c7fb6a85ffce6bb33599bc0113", "is_reserved": 0}, {"is_disabled": 0, "fusion_lon": 0.0, "fusion_lat": 0.0, "lat": 38.9024205, "type": "electric_bike", "lon": -76.9701625, "bike_id": "4c07cd8538a430b527b2795f51f64019", "rental_uris": {"android": "https://dc.lft.to/lastmile_qr_scan", "ios": "https://dc.lft.to/lastmile_qr_scan"}, "name": "4c07cd8538a430b527b2795f51f64019", "is_reserved": 0}, {"is_disabled": 0, "fusion_lon": 0.0, "fusion_lat": 0.0, "lat": 38.91811116666667, "type": "electric_scooter", "lon": -77.02718466666667, "bike_id": "30fabf4da38ce36833b75a015042a1df", "rental_uris": {"android": "https://dc.lft.to/lastmile_qr_scan", "ios": "https://dc.lft.to/lastmile_qr_scan"}, "name": "30fabf4da38ce36833b75a015042a1df", "is_reserved": 0}, {"is_disabled": 0, "fusion_lon": 0.0, "fusion_lat": 0.0, "lat": 38.928603333333335, "type": "electric_scooter", "lon": -77.03423183333334, "bike_id": "caa9f138f21303f547c15385793bd812", "rental_uris": {"android": "https://dc.lft.to/lastmile_qr_scan", "ios": "https://dc.lft.to/lastmile_qr_scan"}, "name": "caa9f138f21303f547c15385793bd812", "is_reserved": 0}, {"is_disabled": 0, "fusion_lon": 0.0, "fusion_lat": 0.0, "lat": 38.91246666666667, "type": "electric_scooter", "lon": -77.03838166666667, "bike_id": "169f8f35b5b7a92c7c27cea7b9092465", "rental_uris": {"android": "https://dc.lft.to/lastmile_qr_scan", "ios": "https://dc.lft.to/lastmile_qr_scan"}, "name": "169f8f35b5b7a92c7c27cea7b9092465", "is_reserved": 0}, {"is_disabled": 0, "fusion_lon": 0.0, "fusion_lat": 0.0, "lat": 38.91836416666666, "type": "electric_scooter", "lon": -77.03447733333333, "bike_id": "87a6a681701208a2ee01cb07b43aee61", "rental_uris": {"android": "https://dc.lft.to/lastmile_qr_scan", "ios": "https://dc.lft.to/lastmile_qr_scan"}, "name": "87a6a681701208a2ee01cb07b43aee61", "is_reserved": 0}, {"is_disabled": 0, "fusion_lon": 0.0, "fusion_lat": 0.0, "lat": 38.8762305, "type": "electric_scooter", "lon": -76.96538216666667, "bike_id": "02301cf56eb0c4e119e0fc014e76af94", "rental_uris": {"android": "https://dc.lft.to/lastmile_qr_scan", "ios": "https://dc.lft.to/lastmile_qr_scan"}, "name": "02301cf56eb0c4e119e0fc014e76af94", "is_reserved": 0}, {"is_disabled": 0, "fusion_lon": 0.0, "fusion_lat": 0.0, "lat": 38.916612666666666, "type": "electric_scooter", "lon": -77.02710966666666, "bike_id": "e703068553d7c64080deb8fa1a886b3f", "rental_uris": {"android": "https://dc.lft.to/lastmile_qr_scan", "ios": "https://dc.lft.to/lastmile_qr_scan"}, "name": "e703068553d7c64080deb8fa1a886b3f", "is_reserved": 0}, {"is_disabled": 0, "fusion_lon": 0.0, "fusion_lat": 0.0, "lat": 38.9126175, "type": "electric_scooter", "lon": -77.01127383333333, "bike_id": "b5b352c58bd553ad8aace0bec3e336f3", "rental_uris": {"android": "https://dc.lft.to/lastmile_qr_scan", "ios": "https://dc.lft.to/lastmile_qr_scan"}, "name": "b5b352c58bd553ad8aace0bec3e336f3", "is_reserved": 0}, {"is_disabled": 0, "fusion_lon": 0.0, "fusion_lat": 0.0, "lat": 38.9241155, "type": "electric_scooter", "lon": -77.057497, "bike_id": "f9670d612276e6a02b2d4f6eddb72424", "rental_uris": {"android": "https://dc.lft.to/lastmile_qr_scan", "ios": "https://dc.lft.to/lastmile_qr_scan"}, "name": "f9670d612276e6a02b2d4f6eddb72424", "is_reserved": 0}, {"is_disabled": 0, "fusion_lon": 0.0, "fusion_lat": 0.0, "lat": 38.91461433333333, "type": "electric_scooter", "lon": -77.021822, "bike_id": "4b389da6e79f085dda232bf92edf4bfc", "rental_uris": {"android": "https://dc.lft.to/lastmile_qr_scan", "ios": "https://dc.lft.to/lastmile_qr_scan"}, "name": "4b389da6e79f085dda232bf92edf4bfc", "is_reserved": 0}, {"is_disabled": 0, "fusion_lon": 0.0, "fusion_lat": 0.0, "lat": 38.913024666666665, "type": "electric_scooter", "lon": -77.03181633333334, "bike_id": "d081c71ee4efcabb4419a239136a6acc", "rental_uris": {"android": "https://dc.lft.to/lastmile_qr_scan", "ios": "https://dc.lft.to/lastmile_qr_scan"}, "name": "d081c71ee4efcabb4419a239136a6acc", "is_reserved": 0}, {"is_disabled": 0, "fusion_lon": 0.0, "fusion_lat": 0.0, "lat": 38.97049033333333, "type": "electric_bike", "lon": -77.030799, "bike_id": "9f66db06e6ad28391376837420c35289", "rental_uris": {"android": "https://dc.lft.to/lastmile_qr_scan", "ios": "https://dc.lft.to/lastmile_qr_scan"}, "name": "9f66db06e6ad28391376837420c35289", "is_reserved": 0}, {"is_disabled": 0, "fusion_lon": 0.0, "fusion_lat": 0.0, "lat": 38.914264833333334, "type": "electric_scooter", "lon": -77.02951566666667, "bike_id": "59536a8c0731cbc75903bd9d18878864", "rental_uris": {"android": "https://dc.lft.to/lastmile_qr_scan", "ios": "https://dc.lft.to/lastmile_qr_scan"}, "name": "59536a8c0731cbc75903bd9d18878864", "is_reserved": 0}, {"is_disabled": 0, "fusion_lon": 0.0, "fusion_lat": 0.0, "lat": 38.96016616666667, "type": "electric_bike", "lon": -77.04249933333334, "bike_id": "d40ad1d74610e7c112ae7ca8edf3cdd6", "rental_uris": {"android": "https://dc.lft.to/lastmile_qr_scan", "ios": "https://dc.lft.to/lastmile_qr_scan"}, "name": "d40ad1d74610e7c112ae7ca8edf3cdd6", "is_reserved": 0}, {"is_disabled": 0, "fusion_lon": 0.0, "fusion_lat": 0.0, "lat": 38.86139933333333, "type": "electric_scooter", "lon": -76.96825033333333, "bike_id": "eaf4bd50f38df01d4ef5b11a164a0fe6", "rental_uris": {"android": "https://dc.lft.to/lastmile_qr_scan", "ios": "https://dc.lft.to/lastmile_qr_scan"}, "name": "eaf4bd50f38df01d4ef5b11a164a0fe6", "is_reserved": 0}, {"is_disabled": 0, "fusion_lon": 0.0, "fusion_lat": 0.0, "lat": 38.896719833333336, "type": "electric_scooter", "lon": -76.97616016666667, "bike_id": "29ae9386a115c8fadc325349359d0d2b", "rental_uris": {"android": "https://dc.lft.to/lastmile_qr_scan", "ios": "https://dc.lft.to/lastmile_qr_scan"}, "name": "29ae9386a115c8fadc325349359d0d2b", "is_reserved": 0}, {"is_disabled": 0, "fusion_lon": 0.0, "fusion_lat": 0.0, "lat": 38.928189333333336, "type": "electric_scooter", "lon": -77.021567, "bike_id": "4df3e0c05a180f61cdbe1d25a10acba8", "rental_uris": {"android": "https://dc.lft.to/lastmile_qr_scan", "ios": "https://dc.lft.to/lastmile_qr_scan"}, "name": "4df3e0c05a180f61cdbe1d25a10acba8", "is_reserved": 0}, {"is_disabled": 0, "fusion_lon": 0.0, "fusion_lat": 0.0, "lat": 38.89728983333333, "type": "electric_scooter", "lon": -77.04672166666667, "bike_id": "d64d8826bd33d4524dc434a35988d6a2", "rental_uris": {"android": "https://dc.lft.to/lastmile_qr_scan", "ios": "https://dc.lft.to/lastmile_qr_scan"}, "name": "d64d8826bd33d4524dc434a35988d6a2", "is_reserved": 0}, {"is_disabled": 0, "fusion_lon": 0.0, "fusion_lat": 0.0, "lat": 38.92435833333333, "type": "electric_bike", "lon": -76.90755983333334, "bike_id": "fd9551273accf1468b6d4d1526128c6e", "rental_uris": {"android": "https://dc.lft.to/lastmile_qr_scan", "ios": "https://dc.lft.to/lastmile_qr_scan"}, "name": "fd9551273accf1468b6d4d1526128c6e", "is_reserved": 0}, {"is_disabled": 0, "fusion_lon": 0.0, "fusion_lat": 0.0, "lat": 38.87191133333334, "type": "electric_scooter", "lon": -76.97825166666667, "bike_id": "2a47158d31e4263ee5e0201d3504b02e", "rental_uris": {"android": "https://dc.lft.to/lastmile_qr_scan", "ios": "https://dc.lft.to/lastmile_qr_scan"}, "name": "2a47158d31e4263ee5e0201d3504b02e", "is_reserved": 0}, {"is_disabled": 0, "fusion_lon": 0.0, "fusion_lat": 0.0, "lat": 38.91820116666667, "type": "electric_scooter", "lon": -77.04522166666666, "bike_id": "ed5ed383e5fe96187244e634407f9960", "rental_uris": {"android": "https://dc.lft.to/lastmile_qr_scan", "ios": "https://dc.lft.to/lastmile_qr_scan"}, "name": "ed5ed383e5fe96187244e634407f9960", "is_reserved": 0}, {"is_disabled": 0, "fusion_lon": 0.0, "fusion_lat": 0.0, "lat": 38.8996695, "type": "electric_scooter", "lon": -77.05114383333333, "bike_id": "fd04b0c6be00e9fef46c372cbb8fe669", "rental_uris": {"android": "https://dc.lft.to/lastmile_qr_scan", "ios": "https://dc.lft.to/lastmile_qr_scan"}, "name": "fd04b0c6be00e9fef46c372cbb8fe669", "is_reserved": 0}, {"is_disabled": 0, "fusion_lon": 0.0, "fusion_lat": 0.0, "lat": 38.909260833333335, "type": "electric_scooter", "lon": -77.0281305, "bike_id": "a8effccd7a1bc103403a95fcfd9f0608", "rental_uris": {"android": "https://dc.lft.to/lastmile_qr_scan", "ios": "https://dc.lft.to/lastmile_qr_scan"}, "name": "a8effccd7a1bc103403a95fcfd9f0608", "is_reserved": 0}, {"is_disabled": 0, "fusion_lon": 0.0, "fusion_lat": 0.0, "lat": 38.9075565, "type": "electric_scooter", "lon": -77.0386605, "bike_id": "145eb468bd462f49ae272e1c8400d7e6", "rental_uris": {"android": "https://dc.lft.to/lastmile_qr_scan", "ios": "https://dc.lft.to/lastmile_qr_scan"}, "name": "145eb468bd462f49ae272e1c8400d7e6", "is_reserved": 0}, {"is_disabled": 0, "fusion_lon": 0.0, "fusion_lat": 0.0, "lat": 38.93257, "type": "electric_scooter", "lon": -77.03462266666666, "bike_id": "32b713dc5ee0d3608797ea7a1dcb4236", "rental_uris": {"android": "https://dc.lft.to/lastmile_qr_scan", "ios": "https://dc.lft.to/lastmile_qr_scan"}, "name": "32b713dc5ee0d3608797ea7a1dcb4236", "is_reserved": 0}, {"is_disabled": 0, "fusion_lon": 0.0, "fusion_lat": 0.0, "lat": 38.87541183333333, "type": "electric_scooter", "lon": -77.005369, "bike_id": "15b07acc9a012088ceb84f3e6350ff69", "rental_uris": {"android": "https://dc.lft.to/lastmile_qr_scan", "ios": "https://dc.lft.to/lastmile_qr_scan"}, "name": "15b07acc9a012088ceb84f3e6350ff69", "is_reserved": 0}, {"is_disabled": 0, "fusion_lon": 0.0, "fusion_lat": 0.0, "lat": 38.961891666666666, "type": "electric_scooter", "lon": -77.027906, "bike_id": "390172796f0e9f0dbc78a3d9ef085343", "rental_uris": {"android": "https://dc.lft.to/lastmile_qr_scan", "ios": "https://dc.lft.to/lastmile_qr_scan"}, "name": "390172796f0e9f0dbc78a3d9ef085343", "is_reserved": 0}, {"is_disabled": 0, "fusion_lon": 0.0, "fusion_lat": 0.0, "lat": 38.88915033333333, "type": "electric_scooter", "lon": -76.98005933333333, "bike_id": "bf90bccbb8d6beac2c3ffbdee57f5125", "rental_uris": {"android": "https://dc.lft.to/lastmile_qr_scan", "ios": "https://dc.lft.to/lastmile_qr_scan"}, "name": "bf90bccbb8d6beac2c3ffbdee57f5125", "is_reserved": 0}, {"is_disabled": 0, "fusion_lon": 0.0, "fusion_lat": 0.0, "lat": 38.90585683333333, "type": "electric_scooter", "lon": -77.0690985, "bike_id": "adfccc7300ca4297438604d3633e8767", "rental_uris": {"android": "https://dc.lft.to/lastmile_qr_scan", "ios": "https://dc.lft.to/lastmile_qr_scan"}, "name": "adfccc7300ca4297438604d3633e8767", "is_reserved": 0}, {"is_disabled": 0, "fusion_lon": 0.0, "fusion_lat": 0.0, "lat": 38.890555, "type": "electric_scooter", "lon": -77.03204666666667, "bike_id": "ce720704cf4957f099720bec435c2dfa", "rental_uris": {"android": "https://dc.lft.to/lastmile_qr_scan", "ios": "https://dc.lft.to/lastmile_qr_scan"}, "name": "ce720704cf4957f099720bec435c2dfa", "is_reserved": 0}, {"is_disabled": 0, "fusion_lon": 0.0, "fusion_lat": 0.0, "lat": 38.9081445, "type": "electric_scooter", "lon": -77.00139433333334, "bike_id": "79f16440dcfd226fdc41d91f4867dbab", "rental_uris": {"android": "https://dc.lft.to/lastmile_qr_scan", "ios": "https://dc.lft.to/lastmile_qr_scan"}, "name": "79f16440dcfd226fdc41d91f4867dbab", "is_reserved": 0}, {"is_disabled": 0, "fusion_lon": 0.0, "fusion_lat": 0.0, "lat": 38.90716066666667, "type": "electric_scooter", "lon": -77.02977066666666, "bike_id": "78b3d6f26c3dedb9ae3f9eabe078a84a", "rental_uris": {"android": "https://dc.lft.to/lastmile_qr_scan", "ios": "https://dc.lft.to/lastmile_qr_scan"}, "name": "78b3d6f26c3dedb9ae3f9eabe078a84a", "is_reserved": 0}, {"is_disabled": 0, "fusion_lon": 0.0, "fusion_lat": 0.0, "lat": 38.9181645, "type": "electric_scooter", "lon": -77.03298866666667, "bike_id": "af026f8b65b9101236979e278ac528c4", "rental_uris": {"android": "https://dc.lft.to/lastmile_qr_scan", "ios": "https://dc.lft.to/lastmile_qr_scan"}, "name": "af026f8b65b9101236979e278ac528c4", "is_reserved": 0}, {"is_disabled": 0, "fusion_lon": 0.0, "fusion_lat": 0.0, "lat": 38.911925833333335, "type": "electric_scooter", "lon": -77.011946, "bike_id": "77a3c155b1e05ec8988210090d5d37ad", "rental_uris": {"android": "https://dc.lft.to/lastmile_qr_scan", "ios": "https://dc.lft.to/lastmile_qr_scan"}, "name": "77a3c155b1e05ec8988210090d5d37ad", "is_reserved": 0}, {"is_disabled": 0, "fusion_lon": 0.0, "fusion_lat": 0.0, "lat": 38.89957283333333, "type": "electric_scooter", "lon": -77.05084916666667, "bike_id": "e8c5475fd331d429375940a7add7c3e0", "rental_uris": {"android": "https://dc.lft.to/lastmile_qr_scan", "ios": "https://dc.lft.to/lastmile_qr_scan"}, "name": "e8c5475fd331d429375940a7add7c3e0", "is_reserved": 0}, {"is_disabled": 0, "fusion_lon": 0.0, "fusion_lat": 0.0, "lat": 38.89411033333333, "type": "electric_scooter", "lon": -77.02321583333334, "bike_id": "faef219f844aed1f20007540eca35735", "rental_uris": {"android": "https://dc.lft.to/lastmile_qr_scan", "ios": "https://dc.lft.to/lastmile_qr_scan"}, "name": "faef219f844aed1f20007540eca35735", "is_reserved": 0}, {"is_disabled": 0, "fusion_lon": 0.0, "fusion_lat": 0.0, "lat": 38.89387116666666, "type": "electric_scooter", "lon": -76.94994883333334, "bike_id": "ea1e41de41b31c07b0d32b1e808cb53d", "rental_uris": {"android": "https://dc.lft.to/lastmile_qr_scan", "ios": "https://dc.lft.to/lastmile_qr_scan"}, "name": "ea1e41de41b31c07b0d32b1e808cb53d", "is_reserved": 0}, {"is_disabled": 0, "fusion_lon": 0.0, "fusion_lat": 0.0, "lat": 38.916768166666664, "type": "electric_scooter", "lon": -77.02977183333333, "bike_id": "b89626d716fc1fc628f140a684a8f047", "rental_uris": {"android": "https://dc.lft.to/lastmile_qr_scan", "ios": "https://dc.lft.to/lastmile_qr_scan"}, "name": "b89626d716fc1fc628f140a684a8f047", "is_reserved": 0}, {"is_disabled": 0, "fusion_lon": 0.0, "fusion_lat": 0.0, "lat": 38.909875166666666, "type": "electric_scooter", "lon": -77.042724, "bike_id": "19ab82398c3f5746d2bee8ebc2a6d767", "rental_uris": {"android": "https://dc.lft.to/lastmile_qr_scan", "ios": "https://dc.lft.to/lastmile_qr_scan"}, "name": "19ab82398c3f5746d2bee8ebc2a6d767", "is_reserved": 0}, {"is_disabled": 0, "fusion_lon": 0.0, "fusion_lat": 0.0, "lat": 38.9135695, "type": "electric_scooter", "lon": -77.02587066666666, "bike_id": "06d5768e72aae157c629fcdd6785199c", "rental_uris": {"android": "https://dc.lft.to/lastmile_qr_scan", "ios": "https://dc.lft.to/lastmile_qr_scan"}, "name": "06d5768e72aae157c629fcdd6785199c", "is_reserved": 0}, {"is_disabled": 0, "fusion_lon": 0.0, "fusion_lat": 0.0, "lat": 38.9274145, "type": "electric_bike", "lon": -77.09946616666667, "bike_id": "a896d7d329c6558b75b55d066aae28c1", "rental_uris": {"android": "https://dc.lft.to/lastmile_qr_scan", "ios": "https://dc.lft.to/lastmile_qr_scan"}, "name": "a896d7d329c6558b75b55d066aae28c1", "is_reserved": 0}, {"is_disabled": 0, "fusion_lon": 0.0, "fusion_lat": 0.0, "lat": 38.878253, "type": "electric_bike", "lon": -77.007936, "bike_id": "6f910962046deee15668a2c439174304", "rental_uris": {"android": "https://dc.lft.to/lastmile_qr_scan", "ios": "https://dc.lft.to/lastmile_qr_scan"}, "name": "6f910962046deee15668a2c439174304", "is_reserved": 0}, {"is_disabled": 0, "fusion_lon": 0.0, "fusion_lat": 0.0, "lat": 38.92001783333333, "type": "electric_scooter", "lon": -77.03231416666667, "bike_id": "a4131cfc303b9055f4e744d77e8903cc", "rental_uris": {"android": "https://dc.lft.to/lastmile_qr_scan", "ios": "https://dc.lft.to/lastmile_qr_scan"}, "name": "a4131cfc303b9055f4e744d77e8903cc", "is_reserved": 0}, {"is_disabled": 0, "fusion_lon": 0.0, "fusion_lat": 0.0, "lat": 38.90732533333333, "type": "electric_scooter", "lon": -77.002874, "bike_id": "a38e2c8f3726d7f4a0b95176644672cd", "rental_uris": {"android": "https://dc.lft.to/lastmile_qr_scan", "ios": "https://dc.lft.to/lastmile_qr_scan"}, "name": "a38e2c8f3726d7f4a0b95176644672cd", "is_reserved": 0}, {"is_disabled": 0, "fusion_lon": 0.0, "fusion_lat": 0.0, "lat": 38.90983466666667, "type": "electric_scooter", "lon": -77.03842266666666, "bike_id": "6ed7a1dd8da27e738f77b62b8a4905a3", "rental_uris": {"android": "https://dc.lft.to/lastmile_qr_scan", "ios": "https://dc.lft.to/lastmile_qr_scan"}, "name": "6ed7a1dd8da27e738f77b62b8a4905a3", "is_reserved": 0}, {"is_disabled": 0, "fusion_lon": 0.0, "fusion_lat": 0.0, "lat": 38.9043765, "type": "electric_scooter", "lon": -77.06114066666666, "bike_id": "c648caf7205b269be9e806044822d893", "rental_uris": {"android": "https://dc.lft.to/lastmile_qr_scan", "ios": "https://dc.lft.to/lastmile_qr_scan"}, "name": "c648caf7205b269be9e806044822d893", "is_reserved": 0}, {"is_disabled": 0, "fusion_lon": 0.0, "fusion_lat": 0.0, "lat": 38.93244283333333, "type": "electric_scooter", "lon": -77.03995283333333, "bike_id": "c27c80204c1d937bc082fa56c468d284", "rental_uris": {"android": "https://dc.lft.to/lastmile_qr_scan", "ios": "https://dc.lft.to/lastmile_qr_scan"}, "name": "c27c80204c1d937bc082fa56c468d284", "is_reserved": 0}, {"is_disabled": 0, "fusion_lon": 0.0, "fusion_lat": 0.0, "lat": 38.9230535, "type": "electric_scooter", "lon": -77.0310285, "bike_id": "e12ea43201500fdb22cf4e0df6078f58", "rental_uris": {"android": "https://dc.lft.to/lastmile_qr_scan", "ios": "https://dc.lft.to/lastmile_qr_scan"}, "name": "e12ea43201500fdb22cf4e0df6078f58", "is_reserved": 0}, {"is_disabled": 0, "fusion_lon": 0.0, "fusion_lat": 0.0, "lat": 38.919234, "type": "electric_scooter", "lon": -77.034221, "bike_id": "88e2207e6abaa5043f398174f3cc5c41", "rental_uris": {"android": "https://dc.lft.to/lastmile_qr_scan", "ios": "https://dc.lft.to/lastmile_qr_scan"}, "name": "88e2207e6abaa5043f398174f3cc5c41", "is_reserved": 0}, {"is_disabled": 0, "fusion_lon": 0.0, "fusion_lat": 0.0, "lat": 38.90366383333333, "type": "electric_scooter", "lon": -77.025233, "bike_id": "bfc9af1e20074ae61494ff81e0200070", "rental_uris": {"android": "https://dc.lft.to/lastmile_qr_scan", "ios": "https://dc.lft.to/lastmile_qr_scan"}, "name": "bfc9af1e20074ae61494ff81e0200070", "is_reserved": 0}, {"is_disabled": 0, "fusion_lon": 0.0, "fusion_lat": 0.0, "lat": 38.96555683333333, "type": "electric_bike", "lon": -77.022966, "bike_id": "fef701ccf2834d3253e2e2d5d24d0695", "rental_uris": {"android": "https://dc.lft.to/lastmile_qr_scan", "ios": "https://dc.lft.to/lastmile_qr_scan"}, "name": "fef701ccf2834d3253e2e2d5d24d0695", "is_reserved": 0}, {"is_disabled": 0, "fusion_lon": 0.0, "fusion_lat": 0.0, "lat": 38.90745483333333, "type": "electric_scooter", "lon": -77.0415165, "bike_id": "c4390b0ce6aabae842c0df5d0cc94c47", "rental_uris": {"android": "https://dc.lft.to/lastmile_qr_scan", "ios": "https://dc.lft.to/lastmile_qr_scan"}, "name": "c4390b0ce6aabae842c0df5d0cc94c47", "is_reserved": 0}, {"is_disabled": 0, "fusion_lon": 0.0, "fusion_lat": 0.0, "lat": 38.91888316666667, "type": "electric_scooter", "lon": -77.04468566666667, "bike_id": "5169b012c18ccca787b21c980e9523c4", "rental_uris": {"android": "https://dc.lft.to/lastmile_qr_scan", "ios": "https://dc.lft.to/lastmile_qr_scan"}, "name": "5169b012c18ccca787b21c980e9523c4", "is_reserved": 0},