{"data": {"bikes": [{"rental_uris": {"ios": "https://dc.lft.to/lastmile_qr_scan", "android": "https://dc.lft.to/lastmile_qr_scan"}, "lon": -77.01145816666667, "type": "electric_scooter", "fusion_lat": 0.0, "lat": 38.90022283333333, "name": "0118be752aa570f2fcfe9b8734aa40ac", "fusion_lon": 0.0, "bike_id": "0118be752aa570f2fcfe9b8734aa40ac", "is_disabled": 0, "is_reserved": 0}, {"rental_uris": {"ios": "https://dc.lft.to/lastmile_qr_scan", "android": "https://dc.lft.to/lastmile_qr_scan"}, "lon": -77.058063, "type": "electric_scooter", "fusion_lat": 0.0, "lat": 38.900972, "name": "61b180f327d2eac273ca92a09a3ea0eb", "fusion_lon": 0.0, "bike_id": "61b180f327d2eac273ca92a09a3ea0eb", "is_disabled": 0, "is_reserved": 0}, {"rental_uris": {"ios": "https://dc.lft.to/lastmile_qr_scan", "android": "https://dc.lft.to/lastmile_qr_scan"}, "lon": -77.02693666666667, "type": "electric_scooter", "fusion_lat": 0.0, "lat": 38.908396333333336, "name": "2e238891d11ecd1dbc8466362c71894f", "fusion_lon": 0.0, "bike_id": "2e238891d11ecd1dbc8466362c71894f", "is_disabled": 0, "is_reserved": 0}, {"rental_uris": {"ios": "https://dc.lft.to/lastmile_qr_scan", "android": "https://dc.lft.to/lastmile_qr_scan"}, "lon": -77.02658616666666, "type": "electric_scooter", "fusion_lat": 0.0, "lat": 38.9169325, "name": "f6f4a3f02d8376b8a4b5f0dc9e2b31a4", "fusion_lon": 0.0, "bike_id": "f6f4a3f02d8376b8a4b5f0dc9e2b31a4", "is_disabled": 0, "is_reserved": 0}, {"rental_uris": {"ios": "https://dc.lft.to/lastmile_qr_scan", "android": "https://dc.lft.to/lastmile_qr_scan"}, "lon": -77.08543533333334, "type": "electric_bike", "fusion_lat": 0.0, "lat": 38.856193, "name": "8b5672f32946b25088cf57fe6a89017c", "fusion_lon": 0.0, "bike_id": "8b5672f32946b25088cf57fe6a89017c", "is_disabled": 0, "is_reserved": 0}, {"rental_uris": {"ios": "https://dc.lft.to/lastmile_qr_scan", "android": "https://dc.lft.to/lastmile_qr_scan"}, "lon": -77.03179516666667, "type": "electric_scooter", "fusion_lat": 0.0, "lat": 38.89230966666667, "name": "7a028501c180ba7df1a296704bb0007a", "fusion_lon": 0.0, "bike_id": "7a028501c180ba7df1a296704bb0007a", "is_disabled": 0, "is_reserved": 0}, {"rental_uris": {"ios": "https://dc.lft.to/lastmile_qr_scan", "android": "https://dc.lft.to/lastmile_qr_scan"}, "lon": -77.062855, "type": "electric_scooter", "fusion_lat": 0.0, "lat": 38.90536983333333, "name": "cf0730ba3fc87614aefc292e5656cd52", "fusion_lon": 0.0, "bike_id": "cf0730ba3fc87614aefc292e5656cd52", "is_disabled": 0, "is_reserved": 0}, {"rental_uris": {"ios": "https://dc.lft.to/lastmile_qr_scan", "android": "https://dc.lft.to/lastmile_qr_scan"}, "lon": -76.98885216666666, "type": "electric_scooter", "fusion_lat": 0.0, "lat": 38.866608666666664, "name": "774160fcef6833e16afa161bcefc504d", "fusion_lon": 0.0, "bike_id": "774160fcef6833e16afa161bcefc504d", "is_disabled": 0, "is_reserved": 0}, {"rental_uris": {"ios": "https://dc.lft.to/lastmile_qr_scan", "android": "https://dc.lft.to/lastmile_qr_scan"}, "lon": -77.06113833333333, "type": "electric_scooter", "fusion_lat": 0.0, "lat": 38.91290933333333, "name": "db969b8222e4e9277bfcf97a9a15d5c8", "fusion_lon": 0.0, "bike_id": "db969b8222e4e9277bfcf97a9a15d5c8", "is_disabled": 0, "is_reserved": 0}, {"rental_uris": {"ios": "https://dc.lft.to/lastmile_qr_scan", "android": "https://dc.lft.to/lastmile_qr_scan"}, "lon": -77.03275666666667, "type": "electric_scooter", "fusion_lat": 0.0, "lat": 38.937272166666666, "name": "bd49c1370bf28b0d389dde796669aba1", "fusion_lon": 0.0, "bike_id": "bd49c1370bf28b0d389dde796669aba1", "is_disabled": 0, "is_reserved": 0}, {"rental_uris": {"ios": "https://dc.lft.to/lastmile_qr_scan", "android": "https://dc.lft.to/lastmile_qr_scan"}, "lon": -76.97710933333333, "type": "electric_scooter", "fusion_lat": 0.0, "lat": 38.885207, "name": "51a56351964b8eede144b67a0d650993", "fusion_lon": 0.0, "bike_id": "51a56351964b8eede144b67a0d650993", "is_disabled": 0, "is_reserved": 0}, {"rental_uris": {"ios": "https://dc.lft.to/lastmile_qr_scan", "android": "https://dc.lft.to/lastmile_qr_scan"}, "lon": -77.01453066666667, "type": "electric_scooter", "fusion_lat": 0.0, "lat": 38.91804116666667, "name": "9c28a9d06c99a5906caa6295d9177810", "fusion_lon": 0.0, "bike_id": "9c28a9d06c99a5906caa6295d9177810", "is_disabled": 0, "is_reserved": 0}, {"rental_uris": {"ios": "https://dc.lft.to/lastmile_qr_scan", "android": "https://dc.lft.to/lastmile_qr_scan"}, "lon": -77.01075783333333, "type": "electric_scooter", "fusion_lat": 0.0, "lat": 38.907236, "name": "84c32cdcbdcc1f52250f9acb59b76da8", "fusion_lon": 0.0, "bike_id": "84c32cdcbdcc1f52250f9acb59b76da8", "is_disabled": 0, "is_reserved": 0}, {"rental_uris": {"ios": "https://dc.lft.to/lastmile_qr_scan", "android": "https://dc.lft.to/lastmile_qr_scan"}, "lon": -77.03477383333333, "type": "electric_scooter", "fusion_lat": 0.0, "lat": 38.90830283333333, "name": "403cc239c709cc1d4d74c78273101d89", "fusion_lon": 0.0, "bike_id": "403cc239c709cc1d4d74c78273101d89", "is_disabled": 0, "is_reserved": 0}, {"rental_uris": {"ios": "https://dc.lft.to/lastmile_qr_scan", "android": "https://dc.lft.to/lastmile_qr_scan"}, "lon": -77.01273033333334, "type": "electric_scooter", "fusion_lat": 0.0, "lat": 38.91817666666667, "name": "06225b42c0426a905c71aa6560fadea5", "fusion_lon": 0.0, "bike_id": "06225b42c0426a905c71aa6560fadea5", "is_disabled": 0, "is_reserved": 0}, {"rental_uris": {"ios": "https://dc.lft.to/lastmile_qr_scan", "android": "https://dc.lft.to/lastmile_qr_scan"}, "lon": -76.9900195, "type": "electric_scooter", "fusion_lat": 0.0, "lat": 38.865035, "name": "5b79de1f998328ac354b7ab65bd28361", "fusion_lon": 0.0, "bike_id": "5b79de1f998328ac354b7ab65bd28361", "is_disabled": 0, "is_reserved": 0}, {"rental_uris": {"ios": "https://dc.lft.to/lastmile_qr_scan", "android": "https://dc.lft.to/lastmile_qr_scan"}, "lon": -77.12903433333334, "type": "electric_bike", "fusion_lat": 0.0, "lat": 38.8637645, "name": "7d8574207c36356fbe3832bcec042ddd", "fusion_lon": 0.0, "bike_id": "7d8574207c36356fbe3832bcec042ddd", "is_disabled": 0, "is_reserved": 0}, {"rental_uris": {"ios": "https://dc.lft.to/lastmile_qr_scan", "android": "https://dc.lft.to/lastmile_qr_scan"}, "lon": -77.04196233333333, "type": "electric_scooter", "fusion_lat": 0.0, "lat": 38.91135633333333, "name": "278aa3afed8f7292c8f81a76f3adda46", "fusion_lon": 0.0, "bike_id": "278aa3afed8f7292c8f81a76f3adda46", "is_disabled": 0, "is_reserved": 0}, {"rental_uris": {"ios": "https://dc.lft.to/lastmile_qr_scan", "android": "https://dc.lft.to/lastmile_qr_scan"}, "lon": -77.02272516666666, "type": "electric_scooter", "fusion_lat": 0.0, "lat": 38.87842716666667, "name": "8c3251b70215c79c6948a3c23b2c9a08", "fusion_lon": 0.0, "bike_id": "8c3251b70215c79c6948a3c23b2c9a08", "is_disabled": 0, "is_reserved": 0}, {"rental_uris": {"ios": "https://dc.lft.to/lastmile_qr_scan", "android": "https://dc.lft.to/lastmile_qr_scan"}, "lon": -77.03110216666667, "type": "electric_scooter", "fusion_lat": 0.0, "lat": 38.92021316666667, "name": "c681ab3e2e5734f22d546bcee8006417", "fusion_lon": 0.0, "bike_id": "c681ab3e2e5734f22d546bcee8006417", "is_disabled": 0, "is_reserved": 0}, {"rental_uris": {"ios": "https://dc.lft.to/lastmile_qr_scan", "android": "https://dc.lft.to/lastmile_qr_scan"}, "lon": -76.98959383333333, "type": "electric_scooter", "fusion_lat": 0.0, "lat": 38.900275, "name": "120e3ec761d95999d11d02189c63c083", "fusion_lon": 0.0, "bike_id": "120e3ec761d95999d11d02189c63c083", "is_disabled": 0, "is_reserved": 0}, {"rental_uris": {"ios": "https://dc.lft.to/lastmile_qr_scan", "android": "https://dc.lft.to/lastmile_qr_scan"}, "lon": -77.022948, "type": "electric_bike", "fusion_lat": 0.0, "lat": 38.927011666666665, "name": "273e054fec497d04b2588a20f6c9089b", "fusion_lon": 0.0, "bike_id": "273e054fec497d04b2588a20f6c9089b", "is_disabled": 0, "is_reserved": 0}, {"rental_uris": {"ios": "https://dc.lft.to/lastmile_qr_scan", "android": "https://dc.lft.to/lastmile_qr_scan"}, "lon": -77.06774416666667, "type": "electric_bike", "fusion_lat": 0.0, "lat": 38.915435333333335, "name": "4d8be07398b22a85634e337530c1cc18", "fusion_lon": 0.0, "bike_id": "4d8be07398b22a85634e337530c1cc18", "is_disabled": 0, "is_reserved": 0}, {"rental_uris": {"ios": "https://dc.lft.to/lastmile_qr_scan", "android": "https://dc.lft.to/lastmile_qr_scan"}, "lon": -76.9493455, "type": "electric_scooter", "fusion_lat": 0.0, "lat": 38.89533933333333, "name": "e2a242a0caccdc87ce0fb43306b8c2ab", "fusion_lon": 0.0, "bike_id": "e2a242a0caccdc87ce0fb43306b8c2ab", "is_disabled": 0, "is_reserved": 0}, {"rental_uris": {"ios": "https://dc.lft.to/lastmile_qr_scan", "android": "https://dc.lft.to/lastmile_qr_scan"}, "lon": -77.04805583333334, "type": "electric_scooter", "fusion_lat": 0.0, "lat": 38.892237333333334, "name": "54a26e60f39e608682fe0d88c51290b4", "fusion_lon": 0.0, "bike_id": "54a26e60f39e608682fe0d88c51290b4", "is_disabled": 0, "is_reserved": 0}, {"rental_uris": {"ios": "https://dc.lft.to/lastmile_qr_scan", "android": "https://dc.lft.to/lastmile_qr_scan"}, "lon": -77.0205045, "type": "electric_scooter", "fusion_lat": 0.0, "lat": 38.91555316666667, "name": "31622e0a073ce24c31f70b18ad9fbd67", "fusion_lon": 0.0, "bike_id": "31622e0a073ce24c31f70b18ad9fbd67", "is_disabled": 0, "is_reserved": 0}, {"rental_uris": {"ios": "https://dc.lft.to/lastmile_qr_scan", "android": "https://dc.lft.to/lastmile_qr_scan"}, "lon": -77.15268483333334, "type": "electric_bike", "fusion_lat": 0.0, "lat": 39.10564316666667, "name": "9c190115d6bea71f39386f4b3d471391", "fusion_lon": 0.0, "bike_id": "9c190115d6bea71f39386f4b3d471391", "is_disabled": 0, "is_reserved": 0}, {"rental_uris": {"ios": "https://dc.lft.to/lastmile_qr_scan", "android": "https://dc.lft.to/lastmile_qr_scan"}, "lon": -77.02376366666667, "type": "electric_scooter", "fusion_lat": 0.0, "lat": 38.896202, "name": "adbc6da51820c7d4e19779618c6d3cef", "fusion_lon": 0.0, "bike_id": "adbc6da51820c7d4e19779618c6d3cef", "is_disabled": 0, "is_reserved": 0}, {"rental_uris": {"ios": "https://dc.lft.to/lastmile_qr_scan", "android": "https://dc.lft.to/lastmile_qr_scan"}, "lon": -76.95759116666666, "type": "electric_scooter", "fusion_lat": 0.0, "lat": 38.88429566666667, "name": "830a4595a2635e2483379fd3b58f0ea9", "fusion_lon": 0.0, "bike_id": "830a4595a2635e2483379fd3b58f0ea9", "is_disabled": 0, "is_reserved": 0}, {"rental_uris": {"ios": "https://dc.lft.to/lastmile_qr_scan", "android": "https://dc.lft.to/lastmile_qr_scan"}, "lon": -76.96507983333333, "type": "electric_scooter", "fusion_lat": 0.0, "lat": 38.876482833333334, "name": "c41298c0f0b30b9045084878b763a46d", "fusion_lon": 0.0, "bike_id": "c41298c0f0b30b9045084878b763a46d", "is_disabled": 0, "is_reserved": 0}, {"rental_uris": {"ios": "https://dc.lft.to/lastmile_qr_scan", "android": "https://dc.lft.to/lastmile_qr_scan"}, "lon": -77.1624025, "type": "electric_bike", "fusion_lat": 0.0, "lat": 38.886564666666665, "name": "c7ea96c8ae944c425f08bc0db68cd45f", "fusion_lon": 0.0, "bike_id": "c7ea96c8ae944c425f08bc0db68cd45f", "is_disabled": 0, "is_reserved": 0}, {"rental_uris": {"ios": "https://dc.lft.to/lastmile_qr_scan", "android": "https://dc.lft.to/lastmile_qr_scan"}, "lon": -76.99378583333333, "type": "electric_bike", "fusion_lat": 0.0, "lat": 38.922975666666666, "name": "c769cb72b3890babe316e0a646a828fa", "fusion_lon": 0.0, "bike_id": "c769cb72b3890babe316e0a646a828fa", "is_disabled": 0, "is_reserved": 0}, {"rental_uris": {"ios": "https://dc.lft.to/lastmile_qr_scan", "android": "https://dc.lft.to/lastmile_qr_scan"}, "lon": -76.99002416666667, "type": "electric_scooter", "fusion_lat": 0.0, "lat": 38.86504683333333, "name": "1583e6685a7efad2c1d733aabad31fff", "fusion_lon": 0.0, "bike_id": "1583e6685a7efad2c1d733aabad31fff", "is_disabled": 0, "is_reserved": 0}, {"rental_uris": {"ios": "https://dc.lft.to/lastmile_qr_scan", "android": "https://dc.lft.to/lastmile_qr_scan"}, "lon": -77.02394183333334, "type": "electric_scooter", "fusion_lat": 0.0, "lat": 38.89490933333333, "name": "75c7847eb1c79c922ac7cbed606dcbc4", "fusion_lon": 0.0, "bike_id": "75c7847eb1c79c922ac7cbed606dcbc4", "is_disabled": 0, "is_reserved": 0}, {"rental_uris": {"ios": "https://dc.lft.to/lastmile_qr_scan", "android": "https://dc.lft.to/lastmile_qr_scan"}, "lon": -76.94891116666666, "type": "electric_scooter", "fusion_lat": 0.0, "lat": 38.89524883333333, "name": "6dd798bb406d4c87e272780525950a1e", "fusion_lon": 0.0, "bike_id": "6dd798bb406d4c87e272780525950a1e", "is_disabled": 0, "is_reserved": 0}, {"rental_uris": {"ios": "https://dc.lft.to/lastmile_qr_scan", "android": "https://dc.lft.to/lastmile_qr_scan"}, "lon": -77.024343, "type": "electric_scooter", "fusion_lat": 0.0, "lat": 38.879707333333336, "name": "9838509fc9f2bb0567e60dee788cb1c0", "fusion_lon": 0.0, "bike_id": "9838509fc9f2bb0567e60dee788cb1c0", "is_disabled": 0, "is_reserved": 0}, {"rental_uris": {"ios": "https://dc.lft.to/lastmile_qr_scan", "android": "https://dc.lft.to/lastmile_qr_scan"}, "lon": -77.05437083333334, "type": "electric_scooter", "fusion_lat": 0.0, "lat": 38.92320983333333, "name": "8d98ee91e1a0ce09f4c0168176e1ac9c", "fusion_lon": 0.0, "bike_id": "8d98ee91e1a0ce09f4c0168176e1ac9c", "is_disabled": 0, "is_reserved": 0}, {"rental_uris": {"ios": "https://dc.lft.to/lastmile_qr_scan", "android": "https://dc.lft.to/lastmile_qr_scan"}, "lon": -77.045749, "type": "electric_scooter", "fusion_lat": 0.0, "lat": 38.910549333333336, "name": "788f07cfc7a7e633ff244ec77e7258df", "fusion_lon": 0.0, "bike_id": "788f07cfc7a7e633ff244ec77e7258df", "is_disabled": 0, "is_reserved": 0}, {"rental_uris": {"ios": "https://dc.lft.to/lastmile_qr_scan", "android": "https://dc.lft.to/lastmile_qr_scan"}, "lon": -77.07069216666666, "type": "electric_scooter", "fusion_lat": 0.0, "lat": 38.9521745, "name": "7eb51e71424360182a61988e7ed63828", "fusion_lon": 0.0, "bike_id": "7eb51e71424360182a61988e7ed63828", "is_disabled": 0, "is_reserved": 0}, {"rental_uris": {"ios": "https://dc.lft.to/lastmile_qr_scan", "android": "https://dc.lft.to/lastmile_qr_scan"}, "lon": -77.03409266666667, "type": "electric_scooter", "fusion_lat": 0.0, "lat": 38.9226455, "name": "8965bf9cef18f86c776c33941ddd7076", "fusion_lon": 0.0, "bike_id": "8965bf9cef18f86c776c33941ddd7076", "is_disabled": 0, "is_reserved": 0}, {"rental_uris": {"ios": "https://dc.lft.to/lastmile_qr_scan", "android": "https://dc.lft.to/lastmile_qr_scan"}, "lon": -77.0529025, "type": "electric_scooter", "fusion_lat": 0.0, "lat": 38.918932, "name": "5bc59db6d06c6fab67b37e48284798cb", "fusion_lon": 0.0, "bike_id": "5bc59db6d06c6fab67b37e48284798cb", "is_disabled": 0, "is_reserved": 0}, {"rental_uris": {"ios": "https://dc.lft.to/lastmile_qr_scan", "android": "https://dc.lft.to/lastmile_qr_scan"}, "lon": -77.04712083333334, "type": "electric_scooter", "fusion_lat": 0.0, "lat": 38.922329500000004, "name": "bd835c2d77970d2526204033ab10a47d", "fusion_lon": 0.0, "bike_id": "bd835c2d77970d2526204033ab10a47d", "is_disabled": 0, "is_reserved": 0}, {"rental_uris": {"ios": "https://dc.lft.to/lastmile_qr_scan", "android": "https://dc.lft.to/lastmile_qr_scan"}, "lon": -76.94873433333333, "type": "electric_scooter", "fusion_lat": 0.0, "lat": 38.894824, "name": "fb4cf1e71648eb4f17070f45dbba2403", "fusion_lon": 0.0, "bike_id": "fb4cf1e71648eb4f17070f45dbba2403", "is_disabled": 0, "is_reserved": 0}, {"rental_uris": {"ios": "https://dc.lft.to/lastmile_qr_scan", "android": "https://dc.lft.to/lastmile_qr_scan"}, "lon": -77.00866483333333, "type": "electric_bike", "fusion_lat": 0.0, "lat": 38.82729666666667, "name": "986a1aa9c0952c11441c6d1cb55aa54a", "fusion_lon": 0.0, "bike_id": "986a1aa9c0952c11441c6d1cb55aa54a", "is_disabled": 0, "is_reserved": 0}, {"rental_uris": {"ios": "https://dc.lft.to/lastmile_qr_scan", "android": "https://dc.lft.to/lastmile_qr_scan"}, "lon": -77.04931516666667, "type": "electric_scooter", "fusion_lat": 0.0, "lat": 38.9088975, "name": "9f27ec1342b2663118ffa2d2c50cd03f", "fusion_lon": 0.0, "bike_id": "9f27ec1342b2663118ffa2d2c50cd03f", "is_disabled": 0, "is_reserved": 0}, {"rental_uris": {"ios": "https://dc.lft.to/lastmile_qr_scan", "android": "https://dc.lft.to/lastmile_qr_scan"}, "lon": -77.01310216666667, "type": "electric_scooter", "fusion_lat": 0.0, "lat": 38.9018185, "name": "8eb53c47f80283cff061f62022eeacb1", "fusion_lon": 0.0, "bike_id": "8eb53c47f80283cff061f62022eeacb1", "is_disabled": 0, "is_reserved": 0}, {"rental_uris": {"ios": "https://dc.lft.to/lastmile_qr_scan", "android": "https://dc.lft.to/lastmile_qr_scan"}, "lon": -77.06884816666667, "type": "electric_scooter", "fusion_lat": 0.0, "lat": 38.90510233333333, "name": "47e11d21d1fbad34b6c1d4dd41bf58f6", "fusion_lon": 0.0, "bike_id": "47e11d21d1fbad34b6c1d4dd41bf58f6", "is_disabled": 0, "is_reserved": 0}, {"rental_uris": {"ios": "https://dc.lft.to/lastmile_qr_scan", "android": "https://dc.lft.to/lastmile_qr_scan"}, "lon": -76.98830416666667, "type": "electric_scooter", "fusion_lat": 0.0, "lat": 38.88019883333333, "name": "3f205afc038597a2a0a534cab19e56ef", "fusion_lon": 0.0, "bike_id": "3f205afc038597a2a0a534cab19e56ef", "is_disabled": 0, "is_reserved": 0}, {"rental_uris": {"ios": "https://dc.lft.to/lastmile_qr_scan", "android": "https://dc.lft.to/lastmile_qr_scan"}, "lon": -77.0218035, "type": "electric_scooter", "fusion_lat": 0.0, "lat": 38.899014666666666, "name": "530e6acfc455645c3c3850aa296fe0ac", "fusion_lon": 0.0, "bike_id": "530e6acfc455645c3c3850aa296fe0ac", "is_disabled": 0, "is_reserved": 0}, {"rental_uris": {"ios": "https://dc.lft.to/lastmile_qr_scan", "android": "https://dc.lft.to/lastmile_qr_scan"}, "lon": -76.98010916666667, "type": "electric_bike", "fusion_lat": 0.0, "lat": 38.853184, "name": "3ec381664a9d72759f7bd26f44ae07de", "fusion_lon": 0.0, "bike_id": "3ec381664a9d72759f7bd26f44ae07de", "is_disabled": 0, "is_reserved": 0}, {"rental_uris": {"ios": "https://dc.lft.to/lastmile_qr_scan", "android": "https://dc.lft.to/lastmile_qr_scan"}, "lon": -77.03584866666667, "type": "electric_scooter", "fusion_lat": 0.0, "lat": 38.942411666666665, "name": "e02ec53f82413213d5cfb2a5b783abf7", "fusion_lon": 0.0, "bike_id": "e02ec53f82413213d5cfb2a5b783abf7", "is_disabled": 0, "is_reserved": 0}, {"rental_uris": {"ios": "https://dc.lft.to/lastmile_qr_scan", "android": "https://dc.lft.to/lastmile_qr_scan"}, "lon": -77.03515916666667, "type": "electric_scooter", "fusion_lat": 0.0, "lat": 38.93099466666666, "name": "0ff13cdb728c38bddeef4adfb25780b7", "fusion_lon": 0.0, "bike_id": "0ff13cdb728c38bddeef4adfb25780b7", "is_disabled": 0, "is_reserved": 0}, {"rental_uris": {"ios": "https://dc.lft.to/lastmile_qr_scan", "android": "https://dc.lft.to/lastmile_qr_scan"}, "lon": -77.031466, "type": "electric_scooter", "fusion_lat": 0.0, "lat": 38.91414283333334, "name": "82a90ef1102da9cbac394c19da00214a", "fusion_lon": 0.0, "bike_id": "82a90ef1102da9cbac394c19da00214a", "is_disabled": 0, "is_reserved": 0}, {"rental_uris": {"ios": "https://dc.lft.to/lastmile_qr_scan", "android": "https://dc.lft.to/lastmile_qr_scan"}, "lon": -77.03806683333333, "type": "electric_scooter", "fusion_lat": 0.0, "lat": 38.91257783333333, "name": "aa3e0e8ecc3c58fcc5ea152743bd8145", "fusion_lon": 0.0, "bike_id": "aa3e0e8ecc3c58fcc5ea152743bd8145", "is_disabled": 0, "is_reserved": 0}, {"rental_uris": {"ios": "https://dc.lft.to/lastmile_qr_scan", "android": "https://dc.lft.to/lastmile_qr_scan"}, "lon": -77.041231, "type": "electric_scooter", "fusion_lat": 0.0, "lat": 38.92148816666667, "name": "2442ed69227b05b689e392a2815d5238", "fusion_lon": 0.0, "bike_id": "2442ed69227b05b689e392a2815d5238", "is_disabled": 0, "is_reserved": 0}, {"rental_uris": {"ios": "https://dc.lft.to/lastmile_qr_scan", "android": "https://dc.lft.to/lastmile_qr_scan"}, "lon": -77.045038, "type": "electric_scooter", "fusion_lat": 0.0, "lat": 38.91277383333333, "name": "64518f8a6e2d04ec83a46a9d8f65d960", "fusion_lon": 0.0, "bike_id": "64518f8a6e2d04ec83a46a9d8f65d960", "is_disabled": 0, "is_reserved": 0}, {"rental_uris": {"ios": "https://dc.lft.to/lastmile_qr_scan", "android": "https://dc.lft.to/lastmile_qr_scan"}, "lon": -77.02965166666667, "type": "electric_scooter", "fusion_lat": 0.0, "lat": 38.940638666666665, "name": "4dacfcec25d01aa1c38dd69dd80d1c88", "fusion_lon": 0.0, "bike_id": "4dacfcec25d01aa1c38dd69dd80d1c88", "is_disabled": 0, "is_reserved": 0}, {"rental_uris": {"ios": "https://dc.lft.to/lastmile_qr_scan", "android": "https://dc.lft.to/lastmile_qr_scan"}, "lon": -77.04331466666666, "type": "electric_scooter", "fusion_lat": 0.0, "lat": 38.89221516666667, "name": "352bd7eeded9f654d82c1fc034f66068", "fusion_lon": 0.0, "bike_id": "352bd7eeded9f654d82c1fc034f66068", "is_disabled": 0, "is_reserved": 0}, {"rental_uris": {"ios": "https://dc.lft.to/lastmile_qr_scan", "android": "https://dc.lft.to/lastmile_qr_scan"}, "lon": -76.95743566666667, "type": "electric_scooter", "fusion_lat": 0.0, "lat": 38.891728666666666, "name": "581765a208a9a71562181c6c2e12862c", "fusion_lon": 0.0, "bike_id": "581765a208a9a71562181c6c2e12862c", "is_disabled": 0, "is_reserved": 0}, {"rental_uris": {"ios": "https://dc.lft.to/lastmile_qr_scan", "android": "https://dc.lft.to/lastmile_qr_scan"}, "lon": -77.02966733333334, "type": "electric_scooter", "fusion_lat": 0.0, "lat": 38.9302715, "name": "4ac656e03730709df288f44408ffa092", "fusion_lon": 0.0, "bike_id": "4ac656e03730709df288f44408ffa092", "is_disabled": 0, "is_reserved": 0}, {"rental_uris": {"ios": "https://dc.lft.to/lastmile_qr_scan", "android": "https://dc.lft.to/lastmile_qr_scan"}, "lon": -77.04283516666666, "type": "electric_scooter", "fusion_lat": 0.0, "lat": 38.91565266666667, "name": "afbbd0b6b63b5dd0ffee3adff358c422", "fusion_lon": 0.0, "bike_id": "afbbd0b6b63b5dd0ffee3adff358c422", "is_disabled": 0, "is_reserved": 0}, {"rental_uris": {"ios": "https://dc.lft.to/lastmile_qr_scan", "android": "https://dc.lft.to/lastmile_qr_scan"}, "lon": -77.032647, "type": "electric_scooter", "fusion_lat": 0.0, "lat": 38.93902966666667, "name": "414a2c7015606a9e31b7b6f982bb15e1", "fusion_lon": 0.0, "bike_id": "414a2c7015606a9e31b7b6f982bb15e1", "is_disabled": 0, "is_reserved": 0}, {"rental_uris": {"ios": "https://dc.lft.to/lastmile_qr_scan", "android": "https://dc.lft.to/lastmile_qr_scan"}, "lon": -77.0531905, "type": "electric_scooter", "fusion_lat": 0.0, "lat": 38.903153333333336, "name": "3cc53df63c68744bea91c944eec15fde", "fusion_lon": 0.0, "bike_id": "3cc53df63c68744bea91c944eec15fde", "is_disabled": 0, "is_reserved": 0}, {"rental_uris": {"ios": "https://dc.lft.to/lastmile_qr_scan", "android": "https://dc.lft.to/lastmile_qr_scan"}, "lon": -76.97881583333333, "type": "electric_scooter", "fusion_lat": 0.0, "lat": 38.8850515, "name": "f37384cbda0efc2552281582f7edbc87", "fusion_lon": 0.0, "bike_id": "f37384cbda0efc2552281582f7edbc87", "is_disabled": 0, "is_reserved": 0}, {"rental_uris": {"ios": "https://dc.lft.to/lastmile_qr_scan", "android": "https://dc.lft.to/lastmile_qr_scan"}, "lon": -77.035192, "type": "electric_bike", "fusion_lat": 0.0, "lat": 38.96525583333333, "name": "cc2e0a3c63474463eebb982793587e42", "fusion_lon": 0.0, "bike_id": "cc2e0a3c63474463eebb982793587e42", "is_disabled": 0, "is_reserved": 0}, {"rental_uris": {"ios": "https://dc.lft.to/lastmile_qr_scan", "android": "https://dc.lft.to/lastmile_qr_scan"}, "lon": -76.98700416666667, "type": "electric_scooter", "fusion_lat": 0.0, "lat": 38.90700966666667, "name": "69ae0b9820f8ee3c4b06162f2451735e", "fusion_lon": 0.0, "bike_id": "69ae0b9820f8ee3c4b06162f2451735e", "is_disabled": 0, "is_reserved": 0}, {"rental_uris": {"ios": "https://dc.lft.to/lastmile_qr_scan", "android": "https://dc.lft.to/lastmile_qr_scan"}, "lon": -77.00212466666666, "type": "electric_bike", "fusion_lat": 0.0, "lat": 38.819352333333335, "name": "5e361b5306742fd4603ded439e0587dd", "fusion_lon": 0.0, "bike_id": "5e361b5306742fd4603ded439e0587dd", "is_disabled": 0, "is_reserved": 0}, {"rental_uris": {"ios": "https://dc.lft.to/lastmile_qr_scan", "android": "https://dc.lft.to/lastmile_qr_scan"}, "lon": -77.01086016666666, "type": "electric_scooter", "fusion_lat": 0.0, "lat": 38.89441883333333, "name": "2a62f24aff47ef8165d36301e668bb34", "fusion_lon": 0.0, "bike_id": "2a62f24aff47ef8165d36301e668bb34", "is_disabled": 0, "is_reserved": 0}, {"rental_uris": {"ios": "https://dc.lft.to/lastmile_qr_scan", "android": "https://dc.lft.to/lastmile_qr_scan"}, "lon": -77.028167, "type": "electric_scooter", "fusion_lat": 0.0, "lat": 38.910369833333334, "name": "6c3d2d66c383ab7c56c76ccad00f1859", "fusion_lon": 0.0, "bike_id": "6c3d2d66c383ab7c56c76ccad00f1859", "is_disabled": 0, "is_reserved": 0}, {"rental_uris": {"ios": "https://dc.lft.to/lastmile_qr_scan", "android": "https://dc.lft.to/lastmile_qr_scan"}, "lon": -77.04343933333334, "type": "electric_scooter", "fusion_lat": 0.0, "lat": 38.91448966666667, "name": "6c4fae484acc4f35c187828c141d1e0f", "fusion_lon": 0.0, "bike_id": "6c4fae484acc4f35c187828c141d1e0f", "is_disabled": 0, "is_reserved": 0}, {"rental_uris": {"ios": "https://dc.lft.to/lastmile_qr_scan", "android": "https://dc.lft.to/lastmile_qr_scan"}, "lon": -77.04471433333333, "type": "electric_scooter", "fusion_lat": 0.0, "lat": 38.892233, "name": "fb0d80f42aecf98955697430156d95f9", "fusion_lon": 0.0, "bike_id": "fb0d80f42aecf98955697430156d95f9", "is_disabled": 0, "is_reserved": 0}, {"rental_uris": {"ios": "https://dc.lft.to/lastmile_qr_scan", "android": "https://dc.lft.to/lastmile_qr_scan"}, "lon": -77.01009466666666, "type": "electric_scooter", "fusion_lat": 0.0, "lat": 38.89481133333334, "name": "6eaa9687414dd5e880372f6a585eae47", "fusion_lon": 0.0, "bike_id": "6eaa9687414dd5e880372f6a585eae47", "is_disabled": 0, "is_reserved": 0}, {"rental_uris": {"ios": "https://dc.lft.to/lastmile_qr_scan", "android": "https://dc.lft.to/lastmile_qr_scan"}, "lon": -77.040516, "type": "electric_scooter", "fusion_lat": 0.0, "lat": 38.90270816666666, "name": "3ba84ca7384a8dd0b0fcfd3a5aa4fce7", "fusion_lon": 0.0, "bike_id": "3ba84ca7384a8dd0b0fcfd3a5aa4fce7", "is_disabled": 0, "is_reserved": 0}, {"rental_uris": {"ios": "https://dc.lft.to/lastmile_qr_scan", "android": "https://dc.lft.to/lastmile_qr_scan"}, "lon": -77.03181, "type": "electric_scooter", "fusion_lat": 0.0, "lat": 38.899579833333334, "name": "0a52cf7e0e2cfcab6dc49c84ee7c8605", "fusion_lon": 0.0, "bike_id": "0a52cf7e0e2cfcab6dc49c84ee7c8605", "is_disabled": 0, "is_reserved": 0}, {"rental_uris": {"ios": "https://dc.lft.to/lastmile_qr_scan", "android": "https://dc.lft.to/lastmile_qr_scan"}, "lon": -77.04267116666666, "type": "electric_scooter", "fusion_lat": 0.0, "lat": 38.895876333333334, "name": "8df621fb778addcaa221f9402933afb7", "fusion_lon": 0.0, "bike_id": "8df621fb778addcaa221f9402933afb7", "is_disabled": 0, "is_reserved": 0}, {"rental_uris": {"ios": "https://dc.lft.to/lastmile_qr_scan", "android": "https://dc.lft.to/lastmile_qr_scan"}, "lon": -77.01684666666667, "type": "electric_bike", "fusion_lat": 0.0, "lat": 38.975214666666666, "name": "e4bb7835754e0f85541303e305feef00", "fusion_lon": 0.0, "bike_id": "e4bb7835754e0f85541303e305feef00", "is_disabled": 0, "is_reserved": 0}, {"rental_uris": {"ios": "https://dc.lft.to/lastmile_qr_scan", "android": "https://dc.lft.to/lastmile_qr_scan"}, "lon": -77.02419833333333, "type": "electric_scooter", "fusion_lat": 0.0, "lat": 38.927461666666666, "name": "af2dd977ea6111bac1e14109ce13c9eb", "fusion_lon": 0.0, "bike_id": "af2dd977ea6111bac1e14109ce13c9eb", "is_disabled": 0, "is_reserved": 0}, {"rental_uris": {"ios": "https://dc.lft.to/lastmile_qr_scan", "android": "https://dc.lft.to/lastmile_qr_scan"}, "lon": -76.98871033333333, "type": "electric_scooter", "fusion_lat": 0.0, "lat": 38.832221833333335, "name": "c7a3c7c81beb014191e0605d940eff5f", "fusion_lon": 0.0, "bike_id": "c7a3c7c81beb014191e0605d940eff5f", "is_disabled": 0, "is_reserved": 0}, {"rental_uris": {"ios": "https://dc.lft.to/lastmile_qr_scan", "android": "https://dc.lft.to/lastmile_qr_scan"}, "lon": -77.0640445, "type": "electric_bike", "fusion_lat": 0.0, "lat": 38.843461, "name": "d7cd9b11e2e566c8aca4c6f98907f2c1", "fusion_lon": 0.0, "bike_id": "d7cd9b11e2e566c8aca4c6f98907f2c1", "is_disabled": 0, "is_reserved": 0}, {"rental_uris": {"ios": "https://dc.lft.to/lastmile_qr_scan", "android": "https://dc.lft.to/lastmile_qr_scan"}, "lon": -77.053769, "type": "electric_scooter", "fusion_lat": 0.0, "lat": 38.90266283333333, "name": "d7fecf92467e15327bb48b333e7ed163", "fusion_lon": 0.0, "bike_id": "d7fecf92467e15327bb48b333e7ed163", "is_disabled": 0, "is_reserved": 0}, {"rental_uris": {"ios": "https://dc.lft.to/lastmile_qr_scan", "android": "https://dc.lft.to/lastmile_qr_scan"}, "lon": -76.97062066666666, "type": "electric_scooter", "fusion_lat": 0.0, "lat": 38.8788235, "name": "e84368d258e69f906d97aace5e56bbde", "fusion_lon": 0.0, "bike_id": "e84368d258e69f906d97aace5e56bbde", "is_disabled": 0, "is_reserved": 0}, {"rental_uris": {"ios": "https://dc.lft.to/lastmile_qr_scan", "android": "https://dc.lft.to/lastmile_qr_scan"}, "lon": -77.02592516666667, "type": "electric_scooter", "fusion_lat": 0.0, "lat": 38.88073033333333, "name": "c59dc54eff053118c239ab1c25101aad", "fusion_lon": 0.0, "bike_id": "c59dc54eff053118c239ab1c25101aad", "is_disabled": 0, "is_reserved": 0}, {"rental_uris": {"ios": "https://dc.lft.to/lastmile_qr_scan", "android": "https://dc.lft.to/lastmile_qr_scan"}, "lon": -77.02373783333333, "type": "electric_scooter", "fusion_lat": 0.0, "lat": 38.93694166666667, "name": "8a3adf7f65f952b12ce8680eac21269b", "fusion_lon": 0.0, "bike_id": "8a3adf7f65f952b12ce8680eac21269b", "is_disabled": 0, "is_reserved": 0}, {"rental_uris": {"ios": "https://dc.lft.to/lastmile_qr_scan", "android": "https://dc.lft.to/lastmile_qr_scan"}, "lon": -77.03642833333333, "type": "electric_scooter", "fusion_lat": 0.0, "lat": 38.91669316666667, "name": "c37229e9e1707c9b99a15f500416a453", "fusion_lon": 0.0, "bike_id": "c37229e9e1707c9b99a15f500416a453", "is_disabled": 0, "is_reserved": 0}, {"rental_uris": {"ios": "https://dc.lft.to/lastmile_qr_scan", "android": "https://dc.lft.to/lastmile_qr_scan"}, "lon": -77.02495016666667, "type": "electric_scooter", "fusion_lat": 0.0, "lat": 38.91803816666667, "name": "c3dc69a81186ed440732d32589b4c922", "fusion_lon": 0.0, "bike_id": "c3dc69a81186ed440732d32589b4c922", "is_disabled": 0, "is_reserved": 0}, {"rental_uris": {"ios": "https://dc.lft.to/lastmile_qr_scan", "android": "https://dc.lft.to/lastmile_qr_scan"}, "lon": -77.0471975, "type": "electric_scooter", "fusion_lat": 0.0, "lat": 38.89735566666667, "name": "412a21f5a9d2c4ae3a025a5db938c6cf", "fusion_lon": 0.0, "bike_id": "412a21f5a9d2c4ae3a025a5db938c6cf", "is_disabled": 0, "is_reserved": 0}, {"rental_uris": {"ios": "https://dc.lft.to/lastmile_qr_scan", "android": "https://dc.lft.to/lastmile_qr_scan"}, "lon": -77.11055833333333, "type": "electric_bike", "fusion_lat": 0.0, "lat": 38.870738, "name": "b9fe258012cfd84721845ad864f521a4", "fusion_lon": 0.0, "bike_id": "b9fe258012cfd84721845ad864f521a4", "is_disabled": 0, "is_reserved": 0}, {"rental_uris": {"ios": "https://dc.lft.to/lastmile_qr_scan", "android": "https://dc.lft.to/lastmile_qr_scan"}, "lon": -77.033128, "type": "electric_scooter", "fusion_lat": 0.0, "lat": 38.92650116666667, "name": "ef1ca07a4f63db5a6bec59becbbe5cd6", "fusion_lon": 0.0, "bike_id": "ef1ca07a4f63db5a6bec59becbbe5cd6", "is_disabled": 0, "is_reserved": 0}, {"rental_uris": {"ios": "https://dc.lft.to/lastmile_qr_scan", "android": "https://dc.lft.to/lastmile_qr_scan"}, "lon": -77.07034733333333, "type": "electric_bike", "fusion_lat": 0.0, "lat": 38.918730833333335, "name": "2c6328d1dfa1426915ae3b5be635aaff", "fusion_lon": 0.0, "bike_id": "2c6328d1dfa1426915ae3b5be635aaff", "is_disabled": 0, "is_reserved": 0}, {"rental_uris": {"ios": "https://dc.lft.to/lastmile_qr_scan", "android": "https://dc.lft.to/lastmile_qr_scan"}, "lon": -76.98024016666666, "type": "electric_scooter", "fusion_lat": 0.0, "lat": 38.887638833333334, "name": "d27f780d39a36a1da0e7c6981efbb9e1", "fusion_lon": 0.0, "bike_id": "d27f780d39a36a1da0e7c6981efbb9e1", "is_disabled": 0, "is_reserved": 0}, {"rental_uris": {"ios": "https://dc.lft.to/lastmile_qr_scan", "android": "https://dc.lft.to/lastmile_qr_scan"}, "lon": -77.00517266666667, "type": "electric_scooter", "fusion_lat": 0.0, "lat": 38.8967435, "name": "648b62446a703b883424a16969b77793", "fusion_lon": 0.0, "bike_id": "648b62446a703b883424a16969b77793", "is_disabled": 0, "is_reserved": 0}, {"rental_uris": {"ios": "https://dc.lft.to/lastmile_qr_scan", "android": "https://dc.lft.to/lastmile_qr_scan"}, "lon": -77.04009533333333, "type": "electric_scooter", "fusion_lat": 0.0, "lat": 38.909721166666664, "name": "0e03b6a66de3d0ad65d5baaf043624ab", "fusion_lon": 0.0, "bike_id": "0e03b6a66de3d0ad65d5baaf043624ab", "is_disabled": 0, "is_reserved": 0}, {"rental_uris": {"ios": "https://dc.lft.to/lastmile_qr_scan", "android": "https://dc.lft.to/lastmile_qr_scan"}, "lon": -76.97276983333333, "type": "electric_bike", "fusion_lat": 0.0, "lat": 38.91969666666667, "name": "fc885d7c7db01be0e2a6398d05b54c23", "fusion_lon": 0.0, "bike_id": "fc885d7c7db01be0e2a6398d05b54c23", "is_disabled": 0, "is_reserved": 0}, {"rental_uris": {"ios": "https://dc.lft.to/lastmile_qr_scan", "android": "https://dc.lft.to/lastmile_qr_scan"}, "lon": -77.029835, "type": "electric_scooter", "fusion_lat": 0.0, "lat": 38.90698283333333, "name": "4da616daf55186ecc01995436eeaa9cb", "fusion_lon": 0.0, "bike_id": "4da616daf55186ecc01995436eeaa9cb", "is_disabled": 0, "is_reserved": 0}, {"rental_uris": {"ios": "https://dc.lft.to/lastmile_qr_scan", "android": "https://dc.lft.to/lastmile_qr_scan"}, "lon": -76.98907133333333, "type": "electric_scooter", "fusion_lat": 0.0, "lat": 38.866921166666664, "name": "aa4fa9aba68c8befde8ef93c1165a722", "fusion_lon": 0.0, "bike_id": "aa4fa9aba68c8befde8ef93c1165a722", "is_disabled": 0, "is_reserved": 0}, {"rental_uris": {"ios": "https://dc.lft.to/lastmile_qr_scan", "android": "https://dc.lft.to/lastmile_qr_scan"}, "lon": -77.04771566666666, "type": "electric_bike", "fusion_lat": 0.0, "lat": 39.0531605, "name": "b3a5ca6ef2240918d0138e13f00edcf6", "fusion_lon": 0.0, "bike_id": "b3a5ca6ef2240918d0138e13f00edcf6", "is_disabled": 0, "is_reserved": 0}, {"rental_uris": {"ios": "https://dc.lft.to/lastmile_qr_scan", "android": "https://dc.lft.to/lastmile_qr_scan"}, "lon": -77.04891866666667, "type": "electric_bike", "fusion_lat": 0.0, "lat": 38.90091366666667, "name": "f8a3bc360830beea94ab420a20a0bb51", "fusion_lon": 0.0, "bike_id": "f8a3bc360830beea94ab420a20a0bb51", "is_disabled": 0, "is_reserved": 0}, {"rental_uris": {"ios": "https://dc.lft.to/lastmile_qr_scan", "android": "https://dc.lft.to/lastmile_qr_scan"}, "lon": -76.95064533333333, "type": "electric_bike", "fusion_lat": 0.0, "lat": 38.935199, "name": "c0d7e2d1c1b2bca7cbf7bfedceb84594", "fusion_lon": 0.0, "bike_id": "c0d7e2d1c1b2bca7cbf7bfedceb84594", "is_disabled": 0, "is_reserved": 0}, {"rental_uris": {"ios": "https://dc.lft.to/lastmile_qr_scan", "android": "https://dc.lft.to/lastmile_qr_scan"}, "lon": -77.0433455, "type": "electric_scooter", "fusion_lat": 0.0, "lat": 38.89226383333333, "name": "3f0aedb03254bcda4c19b3dd449315b5", "fusion_lon": 0.0, "bike_id": "3f0aedb03254bcda4c19b3dd449315b5", "is_disabled": 0, "is_reserved": 0}, {"rental_uris": {"ios": "https://dc.lft.to/lastmile_qr_scan", "android": "https://dc.lft.to/lastmile_qr_scan"}, "lon": -76.98705033333333, "type": "electric_scooter", "fusion_lat": 0.0, "lat": 38.865372, "name": "b4847c5ed30b547dce1397608e4e98fb", "fusion_lon": 0.0, "bike_id": "b4847c5ed30b547dce1397608e4e98fb", "is_disabled": 0, "is_reserved": 0}, {"rental_uris": {"ios": "https://dc.lft.to/lastmile_qr_scan", "android": "https://dc.lft.to/lastmile_qr_scan"}, "lon": -77.05705083333334, "type": "electric_scooter", "fusion_lat": 0.0, "lat": 38.90539, "name": "a021f6565cbc71ad85a087f148bb989d", "fusion_lon": 0.0, "bike_id": "a021f6565cbc71ad85a087f148bb989d", "is_disabled": 0, "is_reserved": 0}, {"rental_uris": {"ios": "https://dc.lft.to/lastmile_qr_scan", "android": "https://dc.lft.to/lastmile_qr_scan"}, "lon": -76.98709033333333, "type": "electric_scooter", "fusion_lat": 0.0, "lat": 38.902711333333336, "name": "47fceb32b5562f25327616399ddcc7c6", "fusion_lon": 0.0, "bike_id": "47fceb32b5562f25327616399ddcc7c6", "is_disabled": 0, "is_reserved": 0}, {"rental_uris": {"ios": "https://dc.lft.to/lastmile_qr_scan", "android": "https://dc.lft.to/lastmile_qr_scan"}, "lon": -77.17845316666667, "type": "electric_bike", "fusion_lat": 0.0, "lat": 39.0885665, "name": "bed6de2dd86ce31cf67aa10cc97bbad5", "fusion_lon": 0.0, "bike_id": "bed6de2dd86ce31cf67aa10cc97bbad5", "is_disabled": 0, "is_reserved": 0}, {"rental_uris": {"ios": "https://dc.lft.to/lastmile_qr_scan", "android": "https://dc.lft.to/lastmile_qr_scan"}, "lon": -77.077077, "type": "electric_scooter", "fusion_lat": 0.0, "lat": 38.956145, "name": "cf10270944e0048af9958691d0804420", "fusion_lon": 0.0, "bike_id": "cf10270944e0048af9958691d0804420", "is_disabled": 0, "is_reserved": 0}, {"rental_uris": {"ios": "https://dc.lft.to/lastmile_qr_scan", "android": "https://dc.lft.to/lastmile_qr_scan"}, "lon": -77.036361, "type": "electric_scooter", "fusion_lat": 0.0, "lat": 38.9181665, "name": "82feafead672a1a371269f5dcd0fbec0", "fusion_lon": 0.0, "bike_id": "82feafead672a1a371269f5dcd0fbec0", "is_disabled": 0, "is_reserved": 0}, {"rental_uris": {"ios": "https://dc.lft.to/lastmile_qr_scan", "android": "https://dc.lft.to/lastmile_qr_scan"}, "lon": -77.01186583333333, "type": "electric_scooter", "fusion_lat": 0.0, "lat": 38.90029716666667, "name": "29a4f6064a5c9ac53a85a6d13241d190", "fusion_lon": 0.0, "bike_id": "29a4f6064a5c9ac53a85a6d13241d190", "is_disabled": 0, "is_reserved": 0}, {"rental_uris": {"ios": "https://dc.lft.to/lastmile_qr_scan", "android": "https://dc.lft.to/lastmile_qr_scan"}, "lon": -76.987096, "type": "electric_scooter", "fusion_lat": 0.0, "lat": 38.865369666666666, "name": "46f332711c2dec3d1ef7c122c639463c", "fusion_lon": 0.0, "bike_id": "46f332711c2dec3d1ef7c122c639463c", "is_disabled": 0, "is_reserved": 0}, {"rental_uris": {"ios": "https://dc.lft.to/lastmile_qr_scan", "android": "https://dc.lft.to/lastmile_qr_scan"}, "lon": -77.03208716666667, "type": "electric_scooter", "fusion_lat": 0.0, "lat": 38.9117615, "name": "e0b688de80734398009c7ff0d8d922e2", "fusion_lon": 0.0, "bike_id": "e0b688de80734398009c7ff0d8d922e2", "is_disabled": 0, "is_reserved": 0}, {"rental_uris": {"ios": "https://dc.lft.to/lastmile_qr_scan", "android": "https://dc.lft.to/lastmile_qr_scan"}, "lon": -77.0381625, "type": "electric_scooter", "fusion_lat": 0.0, "lat": 38.909707166666664, "name": "bcf7ab0a055982cf57cb2d8575d1655e", "fusion_lon": 0.0, "bike_id": "bcf7ab0a055982cf57cb2d8575d1655e", "is_disabled": 0, "is_reserved": 0}, {"rental_uris": {"ios": "https://dc.lft.to/lastmile_qr_scan", "android": "https://dc.lft.to/lastmile_qr_scan"}, "lon": -77.00528283333334, "type": "electric_scooter", "fusion_lat": 0.0, "lat": 38.928989666666666, "name": "bc8afa3501d0e63f609085f115564190", "fusion_lon": 0.0, "bike_id": "bc8afa3501d0e63f609085f115564190", "is_disabled": 0, "is_reserved": 0}, {"rental_uris": {"ios": "https://dc.lft.to/lastmile_qr_scan", "android": "https://dc.lft.to/lastmile_qr_scan"}, "lon": -77.03177516666666, "type": "electric_scooter", "fusion_lat": 0.0, "lat": 38.899612, "name": "e1b5ffc441e2b589d9679ba08e5c5d1e", "fusion_lon": 0.0, "bike_id": "e1b5ffc441e2b589d9679ba08e5c5d1e", "is_disabled": 0, "is_reserved": 0}, {"rental_uris": {"ios": "https://dc.lft.to/lastmile_qr_scan", "android": "https://dc.lft.to/lastmile_qr_scan"}, "lon": -77.03320866666667, "type": "electric_scooter", "fusion_lat": 0.0, "lat": 38.90027166666667, "name": "4cccb4c051ca710fbdb4f0f520c91aa3", "fusion_lon": 0.0, "bike_id": "4cccb4c051ca710fbdb4f0f520c91aa3", "is_disabled": 0, "is_reserved": 0}, {"rental_uris": {"ios": "https://dc.lft.to/lastmile_qr_scan", "android": "https://dc.lft.to/lastmile_qr_scan"}, "lon": -77.03443683333333, "type": "electric_scooter", "fusion_lat": 0.0, "lat": 38.907361333333334, "name": "cd22d08d1924ddff3aff9652238fd9a8", "fusion_lon": 0.0, "bike_id": "cd22d08d1924ddff3aff9652238fd9a8", "is_disabled": 0, "is_reserved": 0}, {"rental_uris": {"ios": "https://dc.lft.to/lastmile_qr_scan", "android": "https://dc.lft.to/lastmile_qr_scan"}, "lon": -77.02396466666667, "type": "electric_scooter", "fusion_lat": 0.0, "lat": 38.93688816666667, "name": "4ded2645494ac9ceda141fd636343ec3", "fusion_lon": 0.0, "bike_id": "4ded2645494ac9ceda141fd636343ec3", "is_disabled": 0, "is_reserved": 0}, {"rental_uris": {"ios": "https://dc.lft.to/lastmile_qr_scan", "android": "https://dc.lft.to/lastmile_qr_scan"}, "lon": -77.02111716666667, "type": "electric_scooter", "fusion_lat": 0.0, "lat": 38.93016683333333, "name": "dbfccbbe30b55c4dd6a2ef9eb31a9d93", "fusion_lon": 0.0, "bike_id": "dbfccbbe30b55c4dd6a2ef9eb31a9d93", "is_disabled": 0, "is_reserved": 0}, {"rental_uris": {"ios": "https://dc.lft.to/lastmile_qr_scan", "android": "https://dc.lft.to/lastmile_qr_scan"}, "lon": -76.94419816666667, "type": "electric_scooter", "fusion_lat": 0.0, "lat": 38.89791066666667, "name": "8e219c9f010bdcc07d0b11de7db5e5d3", "fusion_lon": 0.0, "bike_id": "8e219c9f010bdcc07d0b11de7db5e5d3", "is_disabled": 0, "is_reserved": 0}, {"rental_uris": {"ios": "https://dc.lft.to/lastmile_qr_scan", "android": "https://dc.lft.to/lastmile_qr_scan"}, "lon": -77.06497683333333, "type": "electric_bike", "fusion_lat": 0.0, "lat": 38.964957, "name": "11c58875f29f32f106b9fea3eb28e9f5", "fusion_lon": 0.0, "bike_id": "11c58875f29f32f106b9fea3eb28e9f5", "is_disabled": 0, "is_reserved": 0}, {"rental_uris": {"ios": "https://dc.lft.to/lastmile_qr_scan", "android": "https://dc.lft.to/lastmile_qr_scan"}, "lon": -77.0321545, "type": "electric_scooter", "fusion_lat": 0.0, "lat": 38.91595916666667, "name": "9f76b224583c4e7f2e5edd4dd6068fc9", "fusion_lon": 0.0, "bike_id": "9f76b224583c4e7f2e5edd4dd6068fc9", "is_disabled": 0, "is_reserved": 0}, {"rental_uris": {"ios": "https://dc.lft.to/lastmile_qr_scan", "android": "https://dc.lft.to/lastmile_qr_scan"}, "lon": -77.00920133333334, "type": "electric_scooter", "fusion_lat": 0.0, "lat": 38.91236633333333, "name": "da8dbeddf7097fa731eff63fb3f64da6", "fusion_lon": 0.0, "bike_id": "da8dbeddf7097fa731eff63fb3f64da6", "is_disabled": 0, "is_reserved": 0}, {"rental_uris": {"ios": "https://dc.lft.to/lastmile_qr_scan", "android": "https://dc.lft.to/lastmile_qr_scan"}, "lon": -77.05023783333333, "type": "electric_scooter", "fusion_lat": 0.0, "lat": 38.917952166666666, "name": "83b92902215d5ccdc386ccccdee20e13", "fusion_lon": 0.0, "bike_id": "83b92902215d5ccdc386ccccdee20e13", "is_disabled": 0, "is_reserved": 0}, {"rental_uris": {"ios": "https://dc.lft.to/lastmile_qr_scan", "android": "https://dc.lft.to/lastmile_qr_scan"}, "lon": -77.0411095, "type": "electric_scooter", "fusion_lat": 0.0, "lat": 38.921238333333335, "name": "ac48d695323142a0de19c594aa8f46be", "fusion_lon": 0.0, "bike_id": "ac48d695323142a0de19c594aa8f46be", "is_disabled": 0, "is_reserved": 0}, {"rental_uris": {"ios": "https://dc.lft.to/lastmile_qr_scan", "android": "https://dc.lft.to/lastmile_qr_scan"}, "lon": -77.05220933333334, "type": "electric_scooter", "fusion_lat": 0.0, "lat": 38.9248565, "name": "21287ba1a6f58823536653614fc68a0b", "fusion_lon": 0.0, "bike_id": "21287ba1a6f58823536653614fc68a0b", "is_disabled": 0, "is_reserved": 0}, {"rental_uris": {"ios": "https://dc.lft.to/lastmile_qr_scan", "android": "https://dc.lft.to/lastmile_qr_scan"}, "lon": -77.02102983333333, "type": "electric_scooter", "fusion_lat": 0.0, "lat": 38.87925233333333, "name": "c52b4592237c3362d43e2946bca1d164", "fusion_lon": 0.0, "bike_id": "c52b4592237c3362d43e2946bca1d164", "is_disabled": 0, "is_reserved": 0}, {"rental_uris": {"ios": "https://dc.lft.to/lastmile_qr_scan", "android": "https://dc.lft.to/lastmile_qr_scan"}, "lon": -76.93175733333334, "type": "electric_scooter", "fusion_lat": 0.0, "lat": 38.89885266666667, "name": "fabb9b9a79bc11e19e9268a67b9b261b", "fusion_lon": 0.0, "bike_id": "fabb9b9a79bc11e19e9268a67b9b261b", "is_disabled": 0, "is_reserved": 0}, {"rental_uris": {"ios": "https://dc.lft.to/lastmile_qr_scan", "android": "https://dc.lft.to/lastmile_qr_scan"}, "lon": -76.97500416666666, "type": "electric_scooter", "fusion_lat": 0.0, "lat": 38.869174666666666, "name": "2e48aa9fade8d1763885af4b247b2cd9", "fusion_lon": 0.0, "bike_id": "2e48aa9fade8d1763885af4b247b2cd9", "is_disabled": 0, "is_reserved": 0}, {"rental_uris": {"ios": "https://dc.lft.to/lastmile_qr_scan", "android": "https://dc.lft.to/lastmile_qr_scan"}, "lon": -77.07253316666667, "type": "electric_scooter", "fusion_lat": 0.0, "lat": 38.933214666666665, "name": "aca42efc1b8b49c4189b126ecec5f544", "fusion_lon": 0.0, "bike_id": "aca42efc1b8b49c4189b126ecec5f544", "is_disabled": 0, "is_reserved": 0}, {"rental_uris": {"ios": "https://dc.lft.to/lastmile_qr_scan", "android": "https://dc.lft.to/lastmile_qr_scan"}, "lon": -77.0591865, "type": "electric_scooter", "fusion_lat": 0.0, "lat": 38.902157833333334, "name": "2b529db578159158688bee88b5abb845", "fusion_lon": 0.0, "bike_id": "2b529db578159158688bee88b5abb845", "is_disabled": 0, "is_reserved": 0}, {"rental_uris": {"ios": "https://dc.lft.to/lastmile_qr_scan", "android": "https://dc.lft.to/lastmile_qr_scan"}, "lon": -77.34410116666666, "type": "electric_bike", "fusion_lat": 0.0, "lat": 38.94599933333333, "name": "e46a52f973709647272c2b36006a2bc2", "fusion_lon": 0.0, "bike_id": "e46a52f973709647272c2b36006a2bc2", "is_disabled": 0, "is_reserved": 0}, {"rental_uris": {"ios": "https://dc.lft.to/lastmile_qr_scan", "android": "https://dc.lft.to/lastmile_qr_scan"}, "lon": -77.05707133333334, "type": "electric_scooter", "fusion_lat": 0.0, "lat": 38.905693, "name": "018ea80a7c136d6cac0d4c7c6332c1d0", "fusion_lon": 0.0, "bike_id": "018ea80a7c136d6cac0d4c7c6332c1d0", "is_disabled": 0, "is_reserved": 0}, {"rental_uris": {"ios": "https://dc.lft.to/lastmile_qr_scan", "android": "https://dc.lft.to/lastmile_qr_scan"}, "lon": -77.02075316666667, "type": "electric_scooter", "fusion_lat": 0.0, "lat": 38.915577166666665, "name": "8e61a15b6a5714529b857068959475d0", "fusion_lon": 0.0, "bike_id": "8e61a15b6a5714529b857068959475d0", "is_disabled": 0, "is_reserved": 0}, {"rental_uris": {"ios": "https://dc.lft.to/lastmile_qr_scan", "android": "https://dc.lft.to/lastmile_qr_scan"}, "lon": -76.99489933333334, "type": "electric_scooter", "fusion_lat": 0.0, "lat": 38.899576833333334, "name": "8ddffb39efc000178ed11b145029f3e4", "fusion_lon": 0.0, "bike_id": "8ddffb39efc000178ed11b145029f3e4", "is_disabled": 0, "is_reserved": 0}, {"rental_uris": {"ios": "https://dc.lft.to/lastmile_qr_scan", "android": "https://dc.lft.to/lastmile_qr_scan"}, "lon": -77.02402933333333, "type": "electric_scooter", "fusion_lat": 0.0, "lat": 38.907366, "name": "5de48d314cf789ceca6ddb9d0bb8be43", "fusion_lon": 0.0, "bike_id": "5de48d314cf789ceca6ddb9d0bb8be43", "is_disabled": 0, "is_reserved": 0}, {"rental_uris": {"ios": "https://dc.lft.to/lastmile_qr_scan", "android": "https://dc.lft.to/lastmile_qr_scan"}, "lon": -77.02001983333334, "type": "electric_scooter", "fusion_lat": 0.0, "lat": 38.87747383333333, "name": "1f1d2698cbde6238596aa05aa6349770", "fusion_lon": 0.0, "bike_id": "1f1d2698cbde6238596aa05aa6349770", "is_disabled": 0, "is_reserved": 0}, {"rental_uris": {"ios": "https://dc.lft.to/lastmile_qr_scan", "android": "https://dc.lft.to/lastmile_qr_scan"}, "lon": -77.07777433333334, "type": "electric_scooter", "fusion_lat": 0.0, "lat": 38.94557283333333, "name": "6c42581e76a13b6c90d26bdaff07fa0f", "fusion_lon": 0.0, "bike_id": "6c42581e76a13b6c90d26bdaff07fa0f", "is_disabled": 0, "is_reserved": 0}, {"rental_uris": {"ios": "https://dc.lft.to/lastmile_qr_scan", "android": "https://dc.lft.to/lastmile_qr_scan"}, "lon": -77.01232583333334, "type": "electric_scooter", "fusion_lat": 0.0, "lat": 38.900358833333335, "name": "de79457d7df4d5fa27ed8c170c9435ea", "fusion_lon": 0.0, "bike_id": "de79457d7df4d5fa27ed8c170c9435ea", "is_disabled": 0, "is_reserved": 0}, {"rental_uris": {"ios": "https://dc.lft.to/lastmile_qr_scan", "android": "https://dc.lft.to/lastmile_qr_scan"}, "lon": -77.03446266666667, "type": "electric_scooter", "fusion_lat": 0.0, "lat": 38.91022233333333, "name": "e00dcbc5c8283be1a3bce6b326d186a3", "fusion_lon": 0.0, "bike_id": "e00dcbc5c8283be1a3bce6b326d186a3", "is_disabled": 0, "is_reserved": 0}, {"rental_uris": {"ios": "https://dc.lft.to/lastmile_qr_scan", "android": "https://dc.lft.to/lastmile_qr_scan"}, "lon": -77.04903116666667, "type": "electric_scooter", "fusion_lat": 0.0, "lat": 38.903766833333336, "name": "271d4da916f58e14842983b5884ef0b1", "fusion_lon": 0.0, "bike_id": "271d4da916f58e14842983b5884ef0b1", "is_disabled": 0, "is_reserved": 0}, {"rental_uris": {"ios": "https://dc.lft.to/lastmile_qr_scan", "android": "https://dc.lft.to/lastmile_qr_scan"}, "lon": -77.0626265, "type": "electric_scooter", "fusion_lat": 0.0, "lat": 38.902749166666666, "name": "eccee1a9dbfdca19d8d50c417d2f1714", "fusion_lon": 0.0, "bike_id": "eccee1a9dbfdca19d8d50c417d2f1714", "is_disabled": 0, "is_reserved": 0}, {"rental_uris": {"ios": "https://dc.lft.to/lastmile_qr_scan", "android": "https://dc.lft.to/lastmile_qr_scan"}, "lon": -76.98844466666667, "type": "electric_bike", "fusion_lat": 0.0, "lat": 38.84271316666667, "name": "fb9d4668e0757efddfd1badbf559c274", "fusion_lon": 0.0, "bike_id": "fb9d4668e0757efddfd1badbf559c274", "is_disabled": 0, "is_reserved": 0}, {"rental_uris": {"ios": "https://dc.lft.to/lastmile_qr_scan", "android": "https://dc.lft.to/lastmile_qr_scan"}, "lon": -77.05953116666667, "type": "electric_scooter", "fusion_lat": 0.0, "lat": 38.90525683333333, "name": "b929203745aa44de9df5e9e5c2c7ba4b", "fusion_lon": 0.0, "bike_id": "b929203745aa44de9df5e9e5c2c7ba4b", "is_disabled": 0, "is_reserved": 0}, {"rental_uris": {"ios": "https://dc.lft.to/lastmile_qr_scan", "android": "https://dc.lft.to/lastmile_qr_scan"}, "lon": -76.989492, "type": "electric_scooter", "fusion_lat": 0.0, "lat": 38.90139966666667, "name": "ccda9619dbcd7837284ca996e84306ee", "fusion_lon": 0.0, "bike_id": "ccda9619dbcd7837284ca996e84306ee", "is_disabled": 0, "is_reserved": 0}, {"rental_uris": {"ios": "https://dc.lft.to/lastmile_qr_scan", "android": "https://dc.lft.to/lastmile_qr_scan"}, "lon": -77.04362233333333, "type": "electric_scooter", "fusion_lat": 0.0, "lat": 38.89231933333333, "name": "a8c51e7d758095af30cbf06cb5ab6727", "fusion_lon": 0.0, "bike_id": "a8c51e7d758095af30cbf06cb5ab6727", "is_disabled": 0, "is_reserved": 0}, {"rental_uris": {"ios": "https://dc.lft.to/lastmile_qr_scan", "android": "https://dc.lft.to/lastmile_qr_scan"}, "lon": -76.98415483333333, "type": "electric_scooter", "fusion_lat": 0.0, "lat": 38.91386383333333, "name": "2c3f1f6a2927c50128aeced3915919fa", "fusion_lon": 0.0, "bike_id": "2c3f1f6a2927c50128aeced3915919fa", "is_disabled": 0, "is_reserved": 0}, {"rental_uris": {"ios": "https://dc.lft.to/lastmile_qr_scan", "android": "https://dc.lft.to/lastmile_qr_scan"}, "lon": -77.11429983333333, "type": "electric_bike", "fusion_lat": 0.0, "lat": 38.852459833333334, "name": "8008adf399ab9934d61de6fcef3d577b", "fusion_lon": 0.0, "bike_id": "8008adf399ab9934d61de6fcef3d577b", "is_disabled": 0, "is_reserved": 0}, {"rental_uris": {"ios": "https://dc.lft.to/lastmile_qr_scan", "android": "https://dc.lft.to/lastmile_qr_scan"}, "lon": -77.0321865, "type": "electric_scooter", "fusion_lat": 0.0, "lat": 38.917066, "name": "cad84115601b72fd6d95547b6e69c930", "fusion_lon": 0.0, "bike_id": "cad84115601b72fd6d95547b6e69c930", "is_disabled": 0, "is_reserved": 0}, {"rental_uris": {"ios": "https://dc.lft.to/lastmile_qr_scan", "android": "https://dc.lft.to/lastmile_qr_scan"}, "lon": -77.03219966666667, "type": "electric_scooter", "fusion_lat": 0.0, "lat": 38.91191883333333, "name": "46c4107ba9058440c4f2e599d3809105", "fusion_lon": 0.0, "bike_id": "46c4107ba9058440c4f2e599d3809105", "is_disabled": 0, "is_reserved": 0}, {"rental_uris": {"ios": "https://dc.lft.to/lastmile_qr_scan", "android": "https://dc.lft.to/lastmile_qr_scan"}, "lon": -77.0098225, "type": "electric_scooter", "fusion_lat": 0.0, "lat": 38.90646266666667, "name": "4bd4432a0fb4bbf22cfd09ac90c1de18", "fusion_lon": 0.0, "bike_id": "4bd4432a0fb4bbf22cfd09ac90c1de18", "is_disabled": 0, "is_reserved": 0}, {"rental_uris": {"ios": "https://dc.lft.to/lastmile_qr_scan", "android": "https://dc.lft.to/lastmile_qr_scan"}, "lon": -76.967879, "type": "electric_scooter", "fusion_lat": 0.0, "lat": 38.861389, "name": "62d7f4665849bf1e60834c0320347bcb", "fusion_lon": 0.0, "bike_id": "62d7f4665849bf1e60834c0320347bcb", "is_disabled": 0, "is_reserved": 0}, {"rental_uris": {"ios": "https://dc.lft.to/lastmile_qr_scan", "android": "https://dc.lft.to/lastmile_qr_scan"}, "lon": -77.00291433333334, "type": "electric_scooter", "fusion_lat": 0.0, "lat": 38.908802333333334, "name": "19d982954b0c610ad0395dafc524e0b2", "fusion_lon": 0.0, "bike_id": "19d982954b0c610ad0395dafc524e0b2", "is_disabled": 0, "is_reserved": 0}, {"rental_uris": {"ios": "https://dc.lft.to/lastmile_qr_scan", "android": "https://dc.lft.to/lastmile_qr_scan"}, "lon": -77.02106483333333, "type": "electric_scooter", "fusion_lat": 0.0, "lat": 38.922212333333334, "name": "e5d2a6193febdce9f6c0318b9e4f8cc5", "fusion_lon": 0.0, "bike_id": "e5d2a6193febdce9f6c0318b9e4f8cc5", "is_disabled": 0, "is_reserved": 0}, {"rental_uris": {"ios": "https://dc.lft.to/lastmile_qr_scan", "android": "https://dc.lft.to/lastmile_qr_scan"}, "lon": -77.04503983333333, "type": "electric_scooter", "fusion_lat": 0.0, "lat": 38.921333, "name": "cd0c1c16a19659351d433d6925b3e804", "fusion_lon": 0.0, "bike_id": "cd0c1c16a19659351d433d6925b3e804", "is_disabled": 0, "is_reserved": 0}, {"rental_uris": {"ios": "https://dc.lft.to/lastmile_qr_scan", "android": "https://dc.lft.to/lastmile_qr_scan"}, "lon": -77.0281615, "type": "electric_scooter", "fusion_lat": 0.0, "lat": 38.922418, "name": "3fb85e8da3ad11d0a3b7b9f9da154d97", "fusion_lon": 0.0, "bike_id": "3fb85e8da3ad11d0a3b7b9f9da154d97", "is_disabled": 0, "is_reserved": 0}, {"rental_uris": {"ios": "https://dc.lft.to/lastmile_qr_scan", "android": "https://dc.lft.to/lastmile_qr_scan"}, "lon": -77.05178433333333, "type": "electric_scooter", "fusion_lat": 0.0, "lat": 38.92425016666667, "name": "754b62f2e8136fccbb7ed0fad96414d0", "fusion_lon": 0.0, "bike_id": "754b62f2e8136fccbb7ed0fad96414d0", "is_disabled": 0, "is_reserved": 0}, {"rental_uris": {"ios": "https://dc.lft.to/lastmile_qr_scan", "android": "https://dc.lft.to/lastmile_qr_scan"}, "lon": -77.02468133333333, "type": "electric_scooter", "fusion_lat": 0.0, "lat": 38.934042833333336, "name": "08d8d83a71e276af66eb28ab5a501294", "fusion_lon": 0.0, "bike_id": "08d8d83a71e276af66eb28ab5a501294", "is_disabled": 0, "is_reserved": 0}, {"rental_uris": {"ios": "https://dc.lft.to/lastmile_qr_scan", "android": "https://dc.lft.to/lastmile_qr_scan"}, "lon": -77.02208866666666, "type": "electric_scooter", "fusion_lat": 0.0, "lat": 38.885965666666664, "name": "fea3e0a43ccf4c3308175cb377d28c06", "fusion_lon": 0.0, "bike_id": "fea3e0a43ccf4c3308175cb377d28c06", "is_disabled": 0, "is_reserved": 0}, {"rental_uris": {"ios": "https://dc.lft.to/lastmile_qr_scan", "android": "https://dc.lft.to/lastmile_qr_scan"}, "lon": -76.99776216666666, "type": "electric_scooter", "fusion_lat": 0.0, "lat": 38.844256666666666, "name": "57cb2c2ffa2141f9ac635a75099d0a66", "fusion_lon": 0.0, "bike_id": "57cb2c2ffa2141f9ac635a75099d0a66", "is_disabled": 0, "is_reserved": 0}, {"rental_uris": {"ios": "https://dc.lft.to/lastmile_qr_scan", "android": "https://dc.lft.to/lastmile_qr_scan"}, "lon": -77.059148, "type": "electric_scooter", "fusion_lat": 0.0, "lat": 38.9023945, "name": "365c41c1279e63f644307cebe2a2a8ec", "fusion_lon": 0.0, "bike_id": "365c41c1279e63f644307cebe2a2a8ec", "is_disabled": 0, "is_reserved": 0}, {"rental_uris": {"ios": "https://dc.lft.to/lastmile_qr_scan", "android": "https://dc.lft.to/lastmile_qr_scan"}, "lon": -77.02021233333333, "type": "electric_scooter", "fusion_lat": 0.0, "lat": 38.9324615, "name": "6a9f9c512ca8ce3f1e1d8cd10c104a92", "fusion_lon": 0.0, "bike_id": "6a9f9c512ca8ce3f1e1d8cd10c104a92", "is_disabled": 0, "is_reserved": 0}, {"rental_uris": {"ios": "https://dc.lft.to/lastmile_qr_scan", "android": "https://dc.lft.to/lastmile_qr_scan"}, "lon": -77.043147, "type": "electric_scooter", "fusion_lat": 0.0, "lat": 38.922071833333334, "name": "67469fce74d475f8be01371a037db74e", "fusion_lon": 0.0, "bike_id": "67469fce74d475f8be01371a037db74e", "is_disabled": 0, "is_reserved": 0}, {"rental_uris": {"ios": "https://dc.lft.to/lastmile_qr_scan", "android": "https://dc.lft.to/lastmile_qr_scan"}, "lon": -77.013838, "type": "electric_scooter", "fusion_lat": 0.0, "lat": 38.89910016666666, "name": "2ee153442d32dab0d6633f91f09b83ea", "fusion_lon": 0.0, "bike_id": "2ee153442d32dab0d6633f91f09b83ea", "is_disabled": 0, "is_reserved": 0}, {"rental_uris": {"ios": "https://dc.lft.to/lastmile_qr_scan", "android": "https://dc.lft.to/lastmile_qr_scan"}, "lon": -77.04834933333333, "type": "electric_scooter", "fusion_lat": 0.0, "lat": 38.903721, "name": "ff9ae4d65f78e84f42005a056114a685", "fusion_lon": 0.0, "bike_id": "ff9ae4d65f78e84f42005a056114a685", "is_disabled": 0, "is_reserved": 0}, {"rental_uris": {"ios": "https://dc.lft.to/lastmile_qr_scan", "android": "https://dc.lft.to/lastmile_qr_scan"}, "lon": -77.04500883333333, "type": "electric_scooter", "fusion_lat": 0.0, "lat": 38.90864933333334, "name": "aac272c94609a6079ee39860ecebc424", "fusion_lon": 0.0, "bike_id": "aac272c94609a6079ee39860ecebc424", "is_disabled": 0, "is_reserved": 0}, {"rental_uris": {"ios": "https://dc.lft.to/lastmile_qr_scan", "android": "https://dc.lft.to/lastmile_qr_scan"}, "lon": -77.01119933333334, "type": "electric_scooter", "fusion_lat": 0.0, "lat": 38.912712166666665, "name": "57faf0961f607e2fec6eb47dc3b7c5f8", "fusion_lon": 0.0, "bike_id": "57faf0961f607e2fec6eb47dc3b7c5f8", "is_disabled": 0, "is_reserved": 0}, {"rental_uris": {"ios": "https://dc.lft.to/lastmile_qr_scan", "android": "https://dc.lft.to/lastmile_qr_scan"}, "lon": -77.02295933333333, "type": "electric_bike", "fusion_lat": 0.0, "lat": 38.92330166666667, "name": "00fe18a17e5bdddae2545c4d617d46a2", "fusion_lon": 0.0, "bike_id": "00fe18a17e5bdddae2545c4d617d46a2", "is_disabled": 0, "is_reserved": 0}, {"rental_uris": {"ios": "https://dc.lft.to/lastmile_qr_scan", "android": "https://dc.lft.to/lastmile_qr_scan"}, "lon": -77.04665516666667, "type": "electric_scooter", "fusion_lat": 0.0, "lat": 38.90900633333333, "name": "7ac3ca5d584d417fe26254f7e2deaf78", "fusion_lon": 0.0, "bike_id": "7ac3ca5d584d417fe26254f7e2deaf78", "is_disabled": 0, "is_reserved": 0}, {"rental_uris": {"ios": "https://dc.lft.to/lastmile_qr_scan", "android": "https://dc.lft.to/lastmile_qr_scan"}, "lon": -77.0250915, "type": "electric_scooter", "fusion_lat": 0.0, "lat": 38.91761783333333, "name": "6ab6b22ffeb9cf0a27bd56d9262845fa", "fusion_lon": 0.0, "bike_id": "6ab6b22ffeb9cf0a27bd56d9262845fa", "is_disabled": 0, "is_reserved": 0}, {"rental_uris": {"ios": "https://dc.lft.to/lastmile_qr_scan", "android": "https://dc.lft.to/lastmile_qr_scan"}, "lon": -77.03417433333334, "type": "electric_scooter", "fusion_lat": 0.0, "lat": 38.91918033333334, "name": "6e5ccbcb030c2dc58978d430a4787e6e", "fusion_lon": 0.0, "bike_id": "6e5ccbcb030c2dc58978d430a4787e6e", "is_disabled": 0, "is_reserved": 0}, {"rental_uris": {"ios": "https://dc.lft.to/lastmile_qr_scan", "android": "https://dc.lft.to/lastmile_qr_scan"}, "lon": -77.02381816666667, "type": "electric_scooter", "fusion_lat": 0.0, "lat": 38.932239333333335, "name": "afe20f5b570e5420690ccbc098befbe1", "fusion_lon": 0.0, "bike_id": "afe20f5b570e5420690ccbc098befbe1", "is_disabled": 0, "is_reserved": 0}, {"rental_uris": {"ios": "https://dc.lft.to/lastmile_qr_scan", "android": "https://dc.lft.to/lastmile_qr_scan"}, "lon": -76.9723015, "type": "electric_bike", "fusion_lat": 0.0, "lat": 38.84475416666667, "name": "04278a98e151cb1db6516227b98f0de0", "fusion_lon": 0.0, "bike_id": "04278a98e151cb1db6516227b98f0de0", "is_disabled": 0, "is_reserved": 0}, {"rental_uris": {"ios": "https://dc.lft.to/lastmile_qr_scan", "android": "https://dc.lft.to/lastmile_qr_scan"}, "lon": -77.04655716666667, "type": "electric_scooter", "fusion_lat": 0.0, "lat": 38.89723583333333, "name": "8125ae3cf5e14af458f43a3247cbc71b", "fusion_lon": 0.0, "bike_id": "8125ae3cf5e14af458f43a3247cbc71b", "is_disabled": 0, "is_reserved": 0}, {"rental_uris": {"ios": "https://dc.lft.to/lastmile_qr_scan", "android": "https://dc.lft.to/lastmile_qr_scan"}, "lon": -77.00102983333333, "type": "electric_scooter", "fusion_lat": 0.0, "lat": 38.916354, "name": "a2bbcd024ba25e8ce67f1a61d95c048a", "fusion_lon": 0.0, "bike_id": "a2bbcd024ba25e8ce67f1a61d95c048a", "is_disabled": 0, "is_reserved": 0}, {"rental_uris": {"ios": "https://dc.lft.to/lastmile_qr_scan", "android": "https://dc.lft.to/lastmile_qr_scan"}, "lon": -77.02505066666667, "type": "electric_scooter", "fusion_lat": 0.0, "lat": 38.880255, "name": "3a09535a18ee07ca281761de93d3b787", "fusion_lon": 0.0, "bike_id": "3a09535a18ee07ca281761de93d3b787", "is_disabled": 0, "is_reserved": 0}, {"rental_uris": {"ios": "https://dc.lft.to/lastmile_qr_scan", "android": "https://dc.lft.to/lastmile_qr_scan"}, "lon": -77.0393725, "type": "electric_scooter", "fusion_lat": 0.0, "lat": 38.921235833333334, "name": "dc6894a0c391d819e531ccd6fbada5e7", "fusion_lon": 0.0, "bike_id": "dc6894a0c391d819e531ccd6fbada5e7", "is_disabled": 0, "is_reserved": 0}, {"rental_uris": {"ios": "https://dc.lft.to/lastmile_qr_scan", "android": "https://dc.lft.to/lastmile_qr_scan"}, "lon": -77.037246, "type": "electric_scooter", "fusion_lat": 0.0, "lat": 38.91116933333333, "name": "81c928f4e87e24c79a90729a3068b19a", "fusion_lon": 0.0, "bike_id": "81c928f4e87e24c79a90729a3068b19a", "is_disabled": 0, "is_reserved": 0}, {"rental_uris": {"ios": "https://dc.lft.to/lastmile_qr_scan", "android": "https://dc.lft.to/lastmile_qr_scan"}, "lon": -77.01415733333333, "type": "electric_scooter", "fusion_lat": 0.0, "lat": 38.91316666666667, "name": "b2ee814ceae06d4496a11f8d977955bc", "fusion_lon": 0.0, "bike_id": "b2ee814ceae06d4496a11f8d977955bc", "is_disabled": 0, "is_reserved": 0}, {"rental_uris": {"ios": "https://dc.lft.to/lastmile_qr_scan", "android": "https://dc.lft.to/lastmile_qr_scan"}, "lon": -77.01507316666667, "type": "electric_scooter", "fusion_lat": 0.0, "lat": 38.892325666666665, "name": "b1cbcb0163f66519f78097a0187f5d7b", "fusion_lon": 0.0, "bike_id": "b1cbcb0163f66519f78097a0187f5d7b", "is_disabled": 0, "is_reserved": 0}, {"rental_uris": {"ios": "https://dc.lft.to/lastmile_qr_scan", "android": "https://dc.lft.to/lastmile_qr_scan"}, "lon": -77.01744883333333, "type": "electric_bike", "fusion_lat": 0.0, "lat": 39.000157333333334, "name": "982db02e5f6cb87bed2217edad797efd", "fusion_lon": 0.0, "bike_id": "982db02e5f6cb87bed2217edad797efd", "is_disabled": 0, "is_reserved": 0}, {"rental_uris": {"ios": "https://dc.lft.to/lastmile_qr_scan", "android": "https://dc.lft.to/lastmile_qr_scan"}, "lon": -77.027517, "type": "electric_scooter", "fusion_lat": 0.0, "lat": 38.93962166666667, "name": "013b1e042602d74e5398944189580833", "fusion_lon": 0.0, "bike_id": "013b1e042602d74e5398944189580833", "is_disabled": 0, "is_reserved": 0}, {"rental_uris": {"ios": "https://dc.lft.to/lastmile_qr_scan", "android": "https://dc.lft.to/lastmile_qr_scan"}, "lon": -77.06987133333334, "type": "electric_scooter", "fusion_lat": 0.0, "lat": 38.9548385, "name": "8be39dfe07cac091ea0763658c9f00e2", "fusion_lon": 0.0, "bike_id": "8be39dfe07cac091ea0763658c9f00e2", "is_disabled": 0, "is_reserved": 0}, {"rental_uris": {"ios": "https://dc.lft.to/lastmile_qr_scan", "android": "https://dc.lft.to/lastmile_qr_scan"}, "lon": -77.03984433333333, "type": "electric_scooter", "fusion_lat": 0.0, "lat": 38.89535516666667, "name": "6845c820bb9ee8bebfd2ba6672f14be9", "fusion_lon": 0.0, "bike_id": "6845c820bb9ee8bebfd2ba6672f14be9", "is_disabled": 0, "is_reserved": 0}, {"rental_uris": {"ios": "https://dc.lft.to/lastmile_qr_scan", "android": "https://dc.lft.to/lastmile_qr_scan"}, "lon": -77.04878583333333, "type": "electric_scooter", "fusion_lat": 0.0, "lat": 38.900679333333336, "name": "9beeaa3547dc14d291326d0940ce0f94", "fusion_lon": 0.0, "bike_id": "9beeaa3547dc14d291326d0940ce0f94", "is_disabled": 0, "is_reserved": 0}, {"rental_uris": {"ios": "https://dc.lft.to/lastmile_qr_scan", "android": "https://dc.lft.to/lastmile_qr_scan"}, "lon": -77.00937216666667, "type": "electric_scooter", "fusion_lat": 0.0, "lat": 38.89759083333333, "name": "b9049254b5ed4fbf3da0a9a821994693", "fusion_lon": 0.0, "bike_id": "b9049254b5ed4fbf3da0a9a821994693", "is_disabled": 0, "is_reserved": 0}, {"rental_uris": {"ios": "https://dc.lft.to/lastmile_qr_scan", "android": "https://dc.lft.to/lastmile_qr_scan"}, "lon": -76.9652715, "type": "electric_scooter", "fusion_lat": 0.0, "lat": 38.878645166666665, "name": "35493ee6c6cc23a58f85873a4f23eb7d", "fusion_lon": 0.0, "bike_id": "35493ee6c6cc23a58f85873a4f23eb7d", "is_disabled": 0, "is_reserved": 0}, {"rental_uris": {"ios": "https://dc.lft.to/lastmile_qr_scan", "android": "https://dc.lft.to/lastmile_qr_scan"}, "lon": -76.9964525, "type": "electric_scooter", "fusion_lat": 0.0, "lat": 38.90033433333333, "name": "a0a04e438b5215b1f449e8d6aa1f4fd3", "fusion_lon": 0.0, "bike_id": "a0a04e438b5215b1f449e8d6aa1f4fd3", "is_disabled": 0, "is_reserved": 0}, {"rental_uris": {"ios": "https://dc.lft.to/lastmile_qr_scan", "android": "https://dc.lft.to/lastmile_qr_scan"}, "lon": -77.06029266666667, "type": "electric_scooter", "fusion_lat": 0.0, "lat": 38.904837666666666, "name": "ad34526b439c68570d9f77e9a177aa14", "fusion_lon": 0.0, "bike_id": "ad34526b439c68570d9f77e9a177aa14", "is_disabled": 0, "is_reserved": 0}, {"rental_uris": {"ios": "https://dc.lft.to/lastmile_qr_scan", "android": "https://dc.lft.to/lastmile_qr_scan"}, "lon": -76.99500583333334, "type": "electric_bike", "fusion_lat": 0.0, "lat": 39.00000633333333, "name": "f2523f3043ad89c1a782211dc33e57de", "fusion_lon": 0.0, "bike_id": "f2523f3043ad89c1a782211dc33e57de", "is_disabled": 0, "is_reserved": 0}, {"rental_uris": {"ios": "https://dc.lft.to/lastmile_qr_scan", "android": "https://dc.lft.to/lastmile_qr_scan"}, "lon": -77.07241, "type": "electric_scooter", "fusion_lat": 0.0, "lat": 38.92252666666667, "name": "c88f9db40dd24e9d756631668fa951b5", "fusion_lon": 0.0, "bike_id": "c88f9db40dd24e9d756631668fa951b5", "is_disabled": 0, "is_reserved": 0}, {"rental_uris": {"ios": "https://dc.lft.to/lastmile_qr_scan", "android": "https://dc.lft.to/lastmile_qr_scan"}, "lon": -77.05118833333333, "type": "electric_scooter", "fusion_lat": 0.0, "lat": 38.9011615, "name": "e7d475d4256f36d79095c675132ce656", "fusion_lon": 0.0, "bike_id": "e7d475d4256f36d79095c675132ce656", "is_disabled": 0, "is_reserved": 0}, {"rental_uris": {"ios": "https://dc.lft.to/lastmile_qr_scan", "android": "https://dc.lft.to/lastmile_qr_scan"}, "lon": -76.9997655, "type": "electric_scooter", "fusion_lat": 0.0, "lat": 38.838369166666666, "name": "7b3dce9cd9b71a7aeb7073fe140e1f1d", "fusion_lon": 0.0, "bike_id": "7b3dce9cd9b71a7aeb7073fe140e1f1d", "is_disabled": 0, "is_reserved": 0}, {"rental_uris": {"ios": "https://dc.lft.to/lastmile_qr_scan", "android": "https://dc.lft.to/lastmile_qr_scan"}, "lon": -77.0356195, "type": "electric_scooter", "fusion_lat": 0.0, "lat": 38.91801183333333, "name": "f3d0c3b886fcc8d44da6db922bd61f10", "fusion_lon": 0.0, "bike_id": "f3d0c3b886fcc8d44da6db922bd61f10", "is_disabled": 0, "is_reserved": 0}, {"rental_uris": {"ios": "https://dc.lft.to/lastmile_qr_scan", "android": "https://dc.lft.to/lastmile_qr_scan"}, "lon": -77.01362883333333, "type": "electric_scooter", "fusion_lat": 0.0, "lat": 38.86370483333334, "name": "fc4a247b3c409dc7ff768769b87907b6", "fusion_lon": 0.0, "bike_id": "fc4a247b3c409dc7ff768769b87907b6", "is_disabled": 0, "is_reserved": 0}, {"rental_uris": {"ios": "https://dc.lft.to/lastmile_qr_scan", "android": "https://dc.lft.to/lastmile_qr_scan"}, "lon": -77.01434816666666, "type": "electric_scooter", "fusion_lat": 0.0, "lat": 38.906441, "name": "9357bbb3b70cb42b1f95a9a346f2537c", "fusion_lon": 0.0, "bike_id": "9357bbb3b70cb42b1f95a9a346f2537c", "is_disabled": 0, "is_reserved": 0}, {"rental_uris": {"ios": "https://dc.lft.to/lastmile_qr_scan", "android": "https://dc.lft.to/lastmile_qr_scan"}, "lon": -77.02067766666667, "type": "electric_scooter", "fusion_lat": 0.0, "lat": 38.89483583333333, "name": "bf1fd9c67525a437a2d8a2fd9ad7288c", "fusion_lon": 0.0, "bike_id": "bf1fd9c67525a437a2d8a2fd9ad7288c", "is_disabled": 0, "is_reserved": 0}, {"rental_uris": {"ios": "https://dc.lft.to/lastmile_qr_scan", "android": "https://dc.lft.to/lastmile_qr_scan"}, "lon": -77.0558555, "type": "electric_scooter", "fusion_lat": 0.0, "lat": 38.93603783333333, "name": "5b19a416017431e5318d697bb5b6d9b9", "fusion_lon": 0.0, "bike_id": "5b19a416017431e5318d697bb5b6d9b9", "is_disabled": 0, "is_reserved": 0}, {"rental_uris": {"ios": "https://dc.lft.to/lastmile_qr_scan", "android": "https://dc.lft.to/lastmile_qr_scan"}, "lon": -77.02475516666667, "type": "electric_scooter", "fusion_lat": 0.0, "lat": 38.93815033333333, "name": "92ba88a6ba63721cc0971fa1e693a235", "fusion_lon": 0.0, "bike_id": "92ba88a6ba63721cc0971fa1e693a235", "is_disabled": 0, "is_reserved": 0}, {"rental_uris": {"ios": "https://dc.lft.to/lastmile_qr_scan", "android": "https://dc.lft.to/lastmile_qr_scan"}, "lon": -77.036354, "type": "electric_scooter", "fusion_lat": 0.0, "lat": 38.90371, "name": "4177f1139b40925f73b321e375a820a0", "fusion_lon": 0.0, "bike_id": "4177f1139b40925f73b321e375a820a0", "is_disabled": 0, "is_reserved": 0}, {"rental_uris": {"ios": "https://dc.lft.to/lastmile_qr_scan", "android": "https://dc.lft.to/lastmile_qr_scan"}, "lon": -77.03213216666667, "type": "electric_scooter", "fusion_lat": 0.0, "lat": 38.91452483333333, "name": "b13049373c4681674999a6586ca9b2d2", "fusion_lon": 0.0, "bike_id": "b13049373c4681674999a6586ca9b2d2", "is_disabled": 0, "is_reserved": 0}, {"rental_uris": {"ios": "https://dc.lft.to/lastmile_qr_scan", "android": "https://dc.lft.to/lastmile_qr_scan"}, "lon": -77.0325005, "type": "electric_scooter", "fusion_lat": 0.0, "lat": 38.9275785, "name": "9518a4e836b11e8c79d3db9eafe740a8", "fusion_lon": 0.0, "bike_id": "9518a4e836b11e8c79d3db9eafe740a8", "is_disabled": 0, "is_reserved": 0}, {"rental_uris": {"ios": "https://dc.lft.to/lastmile_qr_scan", "android": "https://dc.lft.to/lastmile_qr_scan"}, "lon": -77.06951816666667, "type": "electric_scooter", "fusion_lat": 0.0, "lat": 38.905169, "name": "3342a5e11b4042e965eb7153de5df13e", "fusion_lon": 0.0, "bike_id": "3342a5e11b4042e965eb7153de5df13e", "is_disabled": 0, "is_reserved": 0}, {"rental_uris": {"ios": "https://dc.lft.to/lastmile_qr_scan", "android": "https://dc.lft.to/lastmile_qr_scan"}, "lon": -77.00218183333334, "type": "electric_scooter", "fusion_lat": 0.0, "lat": 38.91187, "name": "a2b85ac2578cc572f62c4b8e44ffee88", "fusion_lon": 0.0, "bike_id": "a2b85ac2578cc572f62c4b8e44ffee88", "is_disabled": 0, "is_reserved": 0}, {"rental_uris": {"ios": "https://dc.lft.to/lastmile_qr_scan", "android": "https://dc.lft.to/lastmile_qr_scan"}, "lon": -77.00773566666666, "type": "electric_scooter", "fusion_lat": 0.0, "lat": 38.90663683333333, "name": "4d71c2b362e1e82015e1351ccbaaf8be", "fusion_lon": 0.0, "bike_id": "4d71c2b362e1e82015e1351ccbaaf8be", "is_disabled": 0, "is_reserved": 0}, {"rental_uris": {"ios": "https://dc.lft.to/lastmile_qr_scan", "android": "https://dc.lft.to/lastmile_qr_scan"}, "lon": -76.99957016666667, "type": "electric_scooter", "fusion_lat": 0.0, "lat": 38.90861566666667, "name": "c57b9ebc4cd958c8ee9926c28c1c9b4a", "fusion_lon": 0.0, "bike_id": "c57b9ebc4cd958c8ee9926c28c1c9b4a", "is_disabled": 0, "is_reserved": 0}, {"rental_uris": {"ios": "https://dc.lft.to/lastmile_qr_scan", "android": "https://dc.lft.to/lastmile_qr_scan"}, "lon": -77.02762133333333, "type": "electric_scooter", "fusion_lat": 0.0, "lat": 38.9050865, "name": "3624882cf567e7f1a7bbb60b4191f9af", "fusion_lon": 0.0, "bike_id": "3624882cf567e7f1a7bbb60b4191f9af", "is_disabled": 0, "is_reserved": 0}, {"rental_uris": {"ios": "https://dc.lft.to/lastmile_qr_scan", "android": "https://dc.lft.to/lastmile_qr_scan"}, "lon": -77.0226415, "type": "electric_scooter", "fusion_lat": 0.0, "lat": 38.924141166666665, "name": "2f2cc1e60b690b7227e6a2fe85de52f3", "fusion_lon": 0.0, "bike_id": "2f2cc1e60b690b7227e6a2fe85de52f3", "is_disabled": 0, "is_reserved": 0}, {"rental_uris": {"ios": "https://dc.lft.to/lastmile_qr_scan", "android": "https://dc.lft.to/lastmile_qr_scan"}, "lon": -77.05153183333333, "type": "electric_scooter", "fusion_lat": 0.0, "lat": 38.9050215, "name": "31a39165a129e6593ececa7eb01840c2", "fusion_lon": 0.0, "bike_id": "31a39165a129e6593ececa7eb01840c2", "is_disabled": 0, "is_reserved": 0}, {"rental_uris": {"ios": "https://dc.lft.to/lastmile_qr_scan", "android": "https://dc.lft.to/lastmile_qr_scan"}, "lon": -77.03816466666666, "type": "electric_scooter", "fusion_lat": 0.0, "lat": 38.924980166666664, "name": "aa4d57db644a7f71924a979a85ca3767", "fusion_lon": 0.0, "bike_id": "aa4d57db644a7f71924a979a85ca3767", "is_disabled": 0, "is_reserved": 0}, {"rental_uris": {"ios": "https://dc.lft.to/lastmile_qr_scan", "android": "https://dc.lft.to/lastmile_qr_scan"}, "lon": -77.04815866666667, "type": "electric_scooter", "fusion_lat": 0.0, "lat": 38.913336666666666, "name": "d9787cc8ab8660f013958730e352086c", "fusion_lon": 0.0, "bike_id": "d9787cc8ab8660f013958730e352086c", "is_disabled": 0, "is_reserved": 0}, {"rental_uris": {"ios": "https://dc.lft.to/lastmile_qr_scan", "android": "https://dc.lft.to/lastmile_qr_scan"}, "lon": -76.90815, "type": "electric_bike", "fusion_lat": 0.0, "lat": 38.99454583333333, "name": "d80119fd55842e021953a6c7fbd589e1", "fusion_lon": 0.0, "bike_id": "d80119fd55842e021953a6c7fbd589e1", "is_disabled": 0, "is_reserved": 0}, {"rental_uris": {"ios": "https://dc.lft.to/lastmile_qr_scan", "android": "https://dc.lft.to/lastmile_qr_scan"}, "lon": -77.01413966666667, "type": "electric_scooter", "fusion_lat": 0.0, "lat": 38.9202105, "name": "0adea901b9d6e3033199dfc13447be52", "fusion_lon": 0.0, "bike_id": "0adea901b9d6e3033199dfc13447be52", "is_disabled": 0, "is_reserved": 0}, {"rental_uris": {"ios": "https://dc.lft.to/lastmile_qr_scan", "android": "https://dc.lft.to/lastmile_qr_scan"}, "lon": -77.029782, "type": "electric_scooter", "fusion_lat": 0.0, "lat": 38.900304, "name": "2b1b13156264e3727771397fd4c0ce44", "fusion_lon": 0.0, "bike_id": "2b1b13156264e3727771397fd4c0ce44", "is_disabled": 0, "is_reserved": 0}, {"rental_uris": {"ios": "https://dc.lft.to/lastmile_qr_scan", "android": "https://dc.lft.to/lastmile_qr_scan"}, "lon": -77.03261416666666, "type": "electric_scooter", "fusion_lat": 0.0, "lat": 38.900379, "name": "14a3a11ea6cd215fa239654d349777cc", "fusion_lon": 0.0, "bike_id": "14a3a11ea6cd215fa239654d349777cc", "is_disabled": 0, "is_reserved": 0}, {"rental_uris": {"ios": "https://dc.lft.to/lastmile_qr_scan", "android": "https://dc.lft.to/lastmile_qr_scan"}, "lon": -77.0325985, "type": "electric_scooter", "fusion_lat": 0.0, "lat": 38.9284525, "name": "83e28f350785e00095d12b5d5e773e38", "fusion_lon": 0.0, "bike_id": "83e28f350785e00095d12b5d5e773e38", "is_disabled": 0, "is_reserved": 0}, {"rental_uris": {"ios": "https://dc.lft.to/lastmile_qr_scan", "android": "https://dc.lft.to/lastmile_qr_scan"}, "lon": -76.9387185, "type": "electric_scooter", "fusion_lat": 0.0, "lat": 38.900833, "name": "5fa4fd389b95a7de22d567488fb891b2", "fusion_lon": 0.0, "bike_id": "5fa4fd389b95a7de22d567488fb891b2", "is_disabled": 0, "is_reserved": 0}, {"rental_uris": {"ios": "https://dc.lft.to/lastmile_qr_scan", "android": "https://dc.lft.to/lastmile_qr_scan"}, "lon": -76.97669616666667, "type": "electric_bike", "fusion_lat": 0.0, "lat": 38.966246166666664, "name": "4c9e6fc39b1e5fb1e70bd2fec345b19e", "fusion_lon": 0.0, "bike_id": "4c9e6fc39b1e5fb1e70bd2fec345b19e", "is_disabled": 0, "is_reserved": 0}, {"rental_uris": {"ios": "https://dc.lft.to/lastmile_qr_scan", "android": "https://dc.lft.to/lastmile_qr_scan"}, "lon": -77.039682, "type": "electric_scooter", "fusion_lat": 0.0, "lat": 38.91974533333333, "name": "72b8661234001a211f1190d75c082d6c", "fusion_lon": 0.0, "bike_id": "72b8661234001a211f1190d75c082d6c", "is_disabled": 0, "is_reserved": 0}, {"rental_uris": {"ios": "https://dc.lft.to/lastmile_qr_scan", "android": "https://dc.lft.to/lastmile_qr_scan"}, "lon": -77.02137033333334, "type": "electric_scooter", "fusion_lat": 0.0, "lat": 38.896020166666666, "name": "a2c38bafb88c3c796b28697918c9ebb8", "fusion_lon": 0.0, "bike_id": "a2c38bafb88c3c796b28697918c9ebb8", "is_disabled": 0, "is_reserved": 0}, {"rental_uris": {"ios": "https://dc.lft.to/lastmile_qr_scan", "android": "https://dc.lft.to/lastmile_qr_scan"}, "lon": -77.0381315, "type": "electric_scooter", "fusion_lat": 0.0, "lat": 38.909717666666666, "name": "5b7e9c61c5438396e58bf2ca67b2c114", "fusion_lon": 0.0, "bike_id": "5b7e9c61c5438396e58bf2ca67b2c114", "is_disabled": 0, "is_reserved": 0}, {"rental_uris": {"ios": "https://dc.lft.to/lastmile_qr_scan", "android": "https://dc.lft.to/lastmile_qr_scan"}, "lon": -77.03170916666667, "type": "electric_scooter", "fusion_lat": 0.0, "lat": 38.8836035, "name": "99d0852f5b27dc801604fc05bfca0024", "fusion_lon": 0.0, "bike_id": "99d0852f5b27dc801604fc05bfca0024", "is_disabled": 0, "is_reserved": 0}, {"rental_uris": {"ios": "https://dc.lft.to/lastmile_qr_scan", "android": "https://dc.lft.to/lastmile_qr_scan"}, "lon": -77.032633, "type": "electric_scooter", "fusion_lat": 0.0, "lat": 38.93522033333333, "name": "3c931fe31b9fdd43c415d2f2ca2ef468", "fusion_lon": 0.0, "bike_id": "3c931fe31b9fdd43c415d2f2ca2ef468", "is_disabled": 0, "is_reserved": 0}, {"rental_uris": {"ios": "https://dc.lft.to/lastmile_qr_scan", "android": "https://dc.lft.to/lastmile_qr_scan"}, "lon": -77.02968683333333, "type": "electric_bike", "fusion_lat": 0.0, "lat": 38.906653166666665, "name": "9834d43c0440fe5ac1d7296a9435d060", "fusion_lon": 0.0, "bike_id": "9834d43c0440fe5ac1d7296a9435d060", "is_disabled": 0, "is_reserved": 0}, {"rental_uris": {"ios": "https://dc.lft.to/lastmile_qr_scan", "android": "https://dc.lft.to/lastmile_qr_scan"}, "lon": -77.013236, "type": "electric_scooter", "fusion_lat": 0.0, "lat": 38.880525666666664, "name": "a514da0037941b8d94bb0b1ac042f0c6", "fusion_lon": 0.0, "bike_id": "a514da0037941b8d94bb0b1ac042f0c6", "is_disabled": 0, "is_reserved": 0}, {"rental_uris": {"ios": "https://dc.lft.to/lastmile_qr_scan", "android": "https://dc.lft.to/lastmile_qr_scan"}, "lon": -77.03207433333333, "type": "electric_scooter", "fusion_lat": 0.0, "lat": 38.91176466666667, "name": "a691bd8e1e8c3c24f4f148edf254e509", "fusion_lon": 0.0, "bike_id": "a691bd8e1e8c3c24f4f148edf254e509", "is_disabled": 0, "is_reserved": 0}, {"rental_uris": {"ios": "https://dc.lft.to/lastmile_qr_scan", "android": "https://dc.lft.to/lastmile_qr_scan"}, "lon": -76.99872633333334, "type": "electric_scooter", "fusion_lat": 0.0, "lat": 38.907494666666665, "name": "0071dfbf8d07140ec70c3c4e133bb5a6", "fusion_lon": 0.0, "bike_id": "0071dfbf8d07140ec70c3c4e133bb5a6", "is_disabled": 0, "is_reserved": 0}, {"rental_uris": {"ios": "https://dc.lft.to/lastmile_qr_scan", "android": "https://dc.lft.to/lastmile_qr_scan"}, "lon": -77.04335183333333, "type": "electric_scooter", "fusion_lat": 0.0, "lat": 38.9080025, "name": "457ba0cdbca5543136b16da456cddb67", "fusion_lon": 0.0, "bike_id": "457ba0cdbca5543136b16da456cddb67", "is_disabled": 0, "is_reserved": 0}, {"rental_uris": {"ios": "https://dc.lft.to/lastmile_qr_scan", "android": "https://dc.lft.to/lastmile_qr_scan"}, "lon": -77.04498783333334, "type": "electric_scooter", "fusion_lat": 0.0, "lat": 38.911984, "name": "d538df13983899d5762b3681839d469b", "fusion_lon": 0.0, "bike_id": "d538df13983899d5762b3681839d469b", "is_disabled": 0, "is_reserved": 0}, {"rental_uris": {"ios": "https://dc.lft.to/lastmile_qr_scan", "android": "https://dc.lft.to/lastmile_qr_scan"}, "lon": -77.05315083333333, "type": "electric_scooter", "fusion_lat": 0.0, "lat": 38.906549, "name": "d412807dc4e077f04acf607155765962", "fusion_lon": 0.0, "bike_id": "d412807dc4e077f04acf607155765962", "is_disabled": 0, "is_reserved": 0}, {"rental_uris": {"ios": "https://dc.lft.to/lastmile_qr_scan", "android": "https://dc.lft.to/lastmile_qr_scan"}, "lon": -77.03663516666667, "type": "electric_scooter", "fusion_lat": 0.0, "lat": 38.911762, "name": "f10049530c53f1253774c4634147704d", "fusion_lon": 0.0, "bike_id": "f10049530c53f1253774c4634147704d", "is_disabled": 0, "is_reserved": 0}, {"rental_uris": {"ios": "https://dc.lft.to/lastmile_qr_scan", "android": "https://dc.lft.to/lastmile_qr_scan"}, "lon": -77.02928333333334, "type": "electric_scooter", "fusion_lat": 0.0, "lat": 38.895447833333336, "name": "0abe57354f53b230c25248feeb7b2c8a", "fusion_lon": 0.0, "bike_id": "0abe57354f53b230c25248feeb7b2c8a", "is_disabled": 0, "is_reserved": 0}, {"rental_uris": {"ios": "https://dc.lft.to/lastmile_qr_scan", "android": "https://dc.lft.to/lastmile_qr_scan"}, "lon": -77.03977733333333, "type": "electric_scooter", "fusion_lat": 0.0, "lat": 38.90030616666667, "name": "46310dec8a813093b06a1059acfcbed2", "fusion_lon": 0.0, "bike_id": "46310dec8a813093b06a1059acfcbed2", "is_disabled": 0, "is_reserved": 0}, {"rental_uris": {"ios": "https://dc.lft.to/lastmile_qr_scan", "android": "https://dc.lft.to/lastmile_qr_scan"}, "lon": -76.94631366666667, "type": "electric_bike", "fusion_lat": 0.0, "lat": 38.946233666666664, "name": "37f6e88c6d013fc98176253c061365bf", "fusion_lon": 0.0, "bike_id": "37f6e88c6d013fc98176253c061365bf", "is_disabled": 0, "is_reserved": 0}, {"rental_uris": {"ios": "https://dc.lft.to/lastmile_qr_scan", "android": "https://dc.lft.to/lastmile_qr_scan"}, "lon": -77.0394335, "type": "electric_scooter", "fusion_lat": 0.0, "lat": 38.89892716666667, "name": "b170d9683c9c6994d95ca9c448b6d911", "fusion_lon": 0.0, "bike_id": "b170d9683c9c6994d95ca9c448b6d911", "is_disabled": 0, "is_reserved": 0}, {"rental_uris": {"ios": "https://dc.lft.to/lastmile_qr_scan", "android": "https://dc.lft.to/lastmile_qr_scan"}, "lon": -76.9720795, "type": "electric_scooter", "fusion_lat": 0.0, "lat": 38.8549475, "name": "ba1c2a9d07ec558774ac5395b419f52d", "fusion_lon": 0.0, "bike_id": "ba1c2a9d07ec558774ac5395b419f52d", "is_disabled": 0, "is_reserved": 0}, {"rental_uris": {"ios": "https://dc.lft.to/lastmile_qr_scan", "android": "https://dc.lft.to/lastmile_qr_scan"}, "lon": -77.01769483333334, "type": "electric_scooter", "fusion_lat": 0.0, "lat": 38.88731583333333, "name": "f79305c34143d53a8714b7378f925541", "fusion_lon": 0.0, "bike_id": "f79305c34143d53a8714b7378f925541", "is_disabled": 0, "is_reserved": 0}, {"rental_uris": {"ios": "https://dc.lft.to/lastmile_qr_scan", "android": "https://dc.lft.to/lastmile_qr_scan"}, "lon": -77.03377383333333, "type": "electric_scooter", "fusion_lat": 0.0, "lat": 38.921437166666664, "name": "74e7ac3f88485ecb06c96896a737df3f", "fusion_lon": 0.0, "bike_id": "74e7ac3f88485ecb06c96896a737df3f", "is_disabled": 0, "is_reserved": 0}, {"rental_uris": {"ios": "https://dc.lft.to/lastmile_qr_scan", "android": "https://dc.lft.to/lastmile_qr_scan"}, "lon": -77.0271705, "type": "electric_scooter", "fusion_lat": 0.0, "lat": 38.918123, "name": "fa9c253800e53d5e35116a99e55f880d", "fusion_lon": 0.0, "bike_id": "fa9c253800e53d5e35116a99e55f880d", "is_disabled": 0, "is_reserved": 0}, {"rental_uris": {"ios": "https://dc.lft.to/lastmile_qr_scan", "android": "https://dc.lft.to/lastmile_qr_scan"}, "lon": -77.02135916666667, "type": "electric_bike", "fusion_lat": 0.0, "lat": 38.916416, "name": "449f251a888e7502d507ceee4d95e12d", "fusion_lon": 0.0, "bike_id": "449f251a888e7502d507ceee4d95e12d", "is_disabled": 0, "is_reserved": 0}, {"rental_uris": {"ios": "https://dc.lft.to/lastmile_qr_scan", "android": "https://dc.lft.to/lastmile_qr_scan"}, "lon": -77.01109883333334, "type": "electric_scooter", "fusion_lat": 0.0, "lat": 38.90357183333333, "name": "fcc18c38c9e12eaced65e86babd1aa45", "fusion_lon": 0.0, "bike_id": "fcc18c38c9e12eaced65e86babd1aa45", "is_disabled": 0, "is_reserved": 0}, {"rental_uris": {"ios": "https://dc.lft.to/lastmile_qr_scan", "android": "https://dc.lft.to/lastmile_qr_scan"}, "lon": -77.03258533333333, "type": "electric_scooter", "fusion_lat": 0.0, "lat": 38.914957, "name": "8274e299c7e8e161e77069e286cc68cc", "fusion_lon": 0.0, "bike_id": "8274e299c7e8e161e77069e286cc68cc", "is_disabled": 0, "is_reserved": 0}, {"rental_uris": {"ios": "https://dc.lft.to/lastmile_qr_scan", "android": "https://dc.lft.to/lastmile_qr_scan"}, "lon": -76.947518, "type": "electric_scooter", "fusion_lat": 0.0, "lat": 38.9005375, "name": "436b8aaf7620c791d895f0b96a1f0f69", "fusion_lon": 0.0, "bike_id": "436b8aaf7620c791d895f0b96a1f0f69", "is_disabled": 0, "is_reserved": 0}, {"rental_uris": {"ios": "https://dc.lft.to/lastmile_qr_scan", "android": "https://dc.lft.to/lastmile_qr_scan"}, "lon": -76.96528533333333, "type": "electric_scooter", "fusion_lat": 0.0, "lat": 38.87623766666667, "name": "03294142d5b5d075517ce1a639195d8c", "fusion_lon": 0.0, "bike_id": "03294142d5b5d075517ce1a639195d8c", "is_disabled": 0, "is_reserved": 0}, {"rental_uris": {"ios": "https://dc.lft.to/lastmile_qr_scan", "android": "https://dc.lft.to/lastmile_qr_scan"}, "lon": -77.03340216666666, "type": "electric_scooter", "fusion_lat": 0.0, "lat": 38.9198615, "name": "56a2261e1aa5f953311b30aca637953b", "fusion_lon": 0.0, "bike_id": "56a2261e1aa5f953311b30aca637953b", "is_disabled": 0, "is_reserved": 0}, {"rental_uris": {"ios": "https://dc.lft.to/lastmile_qr_scan", "android": "https://dc.lft.to/lastmile_qr_scan"}, "lon": -76.963707, "type": "electric_bike", "fusion_lat": 0.0, "lat": 38.9490075, "name": "7a077d0cc3c464a8d9fd163e67172304", "fusion_lon": 0.0, "bike_id": "7a077d0cc3c464a8d9fd163e67172304", "is_disabled": 0, "is_reserved": 0}, {"rental_uris": {"ios": "https://dc.lft.to/lastmile_qr_scan", "android": "https://dc.lft.to/lastmile_qr_scan"}, "lon": -77.01940733333333, "type": "electric_scooter", "fusion_lat": 0.0, "lat": 38.883888666666664, "name": "e0563ca57064ad89b62ab28357eb1a30", "fusion_lon": 0.0, "bike_id": "e0563ca57064ad89b62ab28357eb1a30", "is_disabled": 0, "is_reserved": 0}, {"rental_uris": {"ios": "https://dc.lft.to/lastmile_qr_scan", "android": "https://dc.lft.to/lastmile_qr_scan"}, "lon": -77.03448233333333, "type": "electric_scooter", "fusion_lat": 0.0, "lat": 38.91812933333333, "name": "7f1be83402cfda904391599966209e68", "fusion_lon": 0.0, "bike_id": "7f1be83402cfda904391599966209e68", "is_disabled": 0, "is_reserved": 0}, {"rental_uris": {"ios": "https://dc.lft.to/lastmile_qr_scan", "android": "https://dc.lft.to/lastmile_qr_scan"}, "lon": -77.05342683333333, "type": "electric_scooter", "fusion_lat": 0.0, "lat": 38.90355683333333, "name": "dd135b65554e505b5bc3046593e554f8", "fusion_lon": 0.0, "bike_id": "dd135b65554e505b5bc3046593e554f8", "is_disabled": 0, "is_reserved": 0}, {"rental_uris": {"ios": "https://dc.lft.to/lastmile_qr_scan", "android": "https://dc.lft.to/lastmile_qr_scan"}, "lon": -76.99033083333333, "type": "electric_bike", "fusion_lat": 0.0, "lat": 39.0386355, "name": "54fb822cdda6c3e4c997abc002a99ba5", "fusion_lon": 0.0, "bike_id": "54fb822cdda6c3e4c997abc002a99ba5", "is_disabled": 0, "is_reserved": 0}, {"rental_uris": {"ios": "https://dc.lft.to/lastmile_qr_scan", "android": "https://dc.lft.to/lastmile_qr_scan"}, "lon": -77.03510766666666, "type": "electric_scooter", "fusion_lat": 0.0, "lat": 38.92144033333334, "name": "2e0c8bdfc1fb9f49b06e9a80ec862e1c", "fusion_lon": 0.0, "bike_id": "2e0c8bdfc1fb9f49b06e9a80ec862e1c", "is_disabled": 0, "is_reserved": 0}, {"rental_uris": {"ios": "https://dc.lft.to/lastmile_qr_scan", "android": "https://dc.lft.to/lastmile_qr_scan"}, "lon": -77.0220545, "type": "electric_scooter", "fusion_lat": 0.0, "lat": 38.907094666666666, "name": "c83f50cd825792c1a639823e59c7440f", "fusion_lon": 0.0, "bike_id": "c83f50cd825792c1a639823e59c7440f", "is_disabled": 0, "is_reserved": 0}, {"rental_uris": {"ios": "https://dc.lft.to/lastmile_qr_scan", "android": "https://dc.lft.to/lastmile_qr_scan"}, "lon": -77.01435933333333, "type": "electric_scooter", "fusion_lat": 0.0, "lat": 38.929881, "name": "4f993bee04175c0858b6f1807ae5aa34", "fusion_lon": 0.0, "bike_id": "4f993bee04175c0858b6f1807ae5aa34", "is_disabled": 0, "is_reserved": 0}, {"rental_uris": {"ios": "https://dc.lft.to/lastmile_qr_scan", "android": "https://dc.lft.to/lastmile_qr_scan"}, "lon": -77.0465465, "type": "electric_scooter", "fusion_lat": 0.0, "lat": 38.90105533333333, "name": "6f6ae98975534eafb2264b963ae4f0d7", "fusion_lon": 0.0, "bike_id": "6f6ae98975534eafb2264b963ae4f0d7", "is_disabled": 0, "is_reserved": 0}, {"rental_uris": {"ios": "https://dc.lft.to/lastmile_qr_scan", "android": "https://dc.lft.to/lastmile_qr_scan"}, "lon": -77.01260833333333, "type": "electric_bike", "fusion_lat": 0.0, "lat": 38.9038155, "name": "4285baa80ee6decfa87140cb1388fb54", "fusion_lon": 0.0, "bike_id": "4285baa80ee6decfa87140cb1388fb54", "is_disabled": 0, "is_reserved": 0}, {"rental_uris": {"ios": "https://dc.lft.to/lastmile_qr_scan", "android": "https://dc.lft.to/lastmile_qr_scan"}, "lon": -77.01991683333334, "type": "electric_scooter", "fusion_lat": 0.0, "lat": 38.8974555, "name": "48aaa0e46471fadcfff868c77ae4a595", "fusion_lon": 0.0, "bike_id": "48aaa0e46471fadcfff868c77ae4a595", "is_disabled": 0, "is_reserved": 0}, {"rental_uris": {"ios": "https://dc.lft.to/lastmile_qr_scan", "android": "https://dc.lft.to/lastmile_qr_scan"}, "lon": -77.015362, "type": "electric_scooter", "fusion_lat": 0.0, "lat": 38.88518116666667, "name": "de5c89aac7abbd1f519f98bdf68e94a1", "fusion_lon": 0.0, "bike_id": "de5c89aac7abbd1f519f98bdf68e94a1", "is_disabled": 0, "is_reserved": 0}, {"rental_uris": {"ios": "https://dc.lft.to/lastmile_qr_scan", "android": "https://dc.lft.to/lastmile_qr_scan"}, "lon": -77.0305305, "type": "electric_scooter", "fusion_lat": 0.0, "lat": 38.89477433333333, "name": "a7352b65346cd3bc43ad7b2e43d0f505", "fusion_lon": 0.0, "bike_id": "a7352b65346cd3bc43ad7b2e43d0f505", "is_disabled": 0, "is_reserved": 0}, {"rental_uris": {"ios": "https://dc.lft.to/lastmile_qr_scan", "android": "https://dc.lft.to/lastmile_qr_scan"}, "lon": -77.01378683333333, "type": "electric_scooter", "fusion_lat": 0.0, "lat": 38.86960283333333, "name": "706b9836a7cd3332c9438fd2a5403ad7", "fusion_lon": 0.0, "bike_id": "706b9836a7cd3332c9438fd2a5403ad7", "is_disabled": 0, "is_reserved": 0}, {"rental_uris": {"ios": "https://dc.lft.to/lastmile_qr_scan", "android": "https://dc.lft.to/lastmile_qr_scan"}, "lon": -77.01818566666667, "type": "electric_scooter", "fusion_lat": 0.0, "lat": 38.92965066666667, "name": "1d83cfc05d2aeaa43e3098937e14f2fb", "fusion_lon": 0.0, "bike_id": "1d83cfc05d2aeaa43e3098937e14f2fb", "is_disabled": 0, "is_reserved": 0}, {"rental_uris": {"ios": "https://dc.lft.to/lastmile_qr_scan", "android": "https://dc.lft.to/lastmile_qr_scan"}, "lon": -76.98999716666667, "type": "electric_scooter", "fusion_lat": 0.0, "lat": 38.865040666666665, "name": "47951de71fd190b80d130256b03dcfe0", "fusion_lon": 0.0, "bike_id": "47951de71fd190b80d130256b03dcfe0", "is_disabled": 0, "is_reserved": 0}, {"rental_uris": {"ios": "https://dc.lft.to/lastmile_qr_scan", "android": "https://dc.lft.to/lastmile_qr_scan"}, "lon": -77.04722, "type": "electric_scooter", "fusion_lat": 0.0, "lat": 38.897377666666664, "name": "27e4f35c18bed07c19a2ece95e6d4ecc", "fusion_lon": 0.0, "bike_id": "27e4f35c18bed07c19a2ece95e6d4ecc", "is_disabled": 0, "is_reserved": 0}, {"rental_uris": {"ios": "https://dc.lft.to/lastmile_qr_scan", "android": "https://dc.lft.to/lastmile_qr_scan"}, "lon": -77.0153425, "type": "electric_scooter", "fusion_lat": 0.0, "lat": 38.887367, "name": "84ceac477ee925ac19e5e63c76d5f3af", "fusion_lon": 0.0, "bike_id": "84ceac477ee925ac19e5e63c76d5f3af", "is_disabled": 0, "is_reserved": 0}, {"rental_uris": {"ios": "https://dc.lft.to/lastmile_qr_scan", "android": "https://dc.lft.to/lastmile_qr_scan"}, "lon": -77.02983483333334, "type": "electric_scooter", "fusion_lat": 0.0, "lat": 38.90026066666667, "name": "772d7d2e1e80dc759000522a7e4449af", "fusion_lon": 0.0, "bike_id": "772d7d2e1e80dc759000522a7e4449af", "is_disabled": 0, "is_reserved": 0}, {"rental_uris": {"ios": "https://dc.lft.to/lastmile_qr_scan", "android": "https://dc.lft.to/lastmile_qr_scan"}, "lon": -77.04504516666667, "type": "electric_scooter", "fusion_lat": 0.0, "lat": 38.9084575, "name": "d607562ba6ab169cf3d5da74ff843db1", "fusion_lon": 0.0, "bike_id": "d607562ba6ab169cf3d5da74ff843db1", "is_disabled": 0, "is_reserved": 0}, {"rental_uris": {"ios": "https://dc.lft.to/lastmile_qr_scan", "android": "https://dc.lft.to/lastmile_qr_scan"}, "lon": -77.0328055, "type": "electric_scooter", "fusion_lat": 0.0, "lat": 38.908487, "name": "eeca78c0c4491513100784c553064b7e", "fusion_lon": 0.0, "bike_id": "eeca78c0c4491513100784c553064b7e", "is_disabled": 0, "is_reserved": 0}, {"rental_uris": {"ios": "https://dc.lft.to/lastmile_qr_scan", "android": "https://dc.lft.to/lastmile_qr_scan"}, "lon": -77.020019, "type": "electric_scooter", "fusion_lat": 0.0, "lat": 38.931159, "name": "0a9584e0af028e7ae87f7828ffb94efd", "fusion_lon": 0.0, "bike_id": "0a9584e0af028e7ae87f7828ffb94efd", "is_disabled": 0, "is_reserved": 0}, {"rental_uris": {"ios": "https://dc.lft.to/lastmile_qr_scan", "android": "https://dc.lft.to/lastmile_qr_scan"}, "lon": -77.04124866666666, "type": "electric_scooter", "fusion_lat": 0.0, "lat": 38.9243415, "name": "402b4e314e326a744d7c5efd497ddcb8", "fusion_lon": 0.0, "bike_id": "402b4e314e326a744d7c5efd497ddcb8", "is_disabled": 0, "is_reserved": 0}, {"rental_uris": {"ios": "https://dc.lft.to/lastmile_qr_scan", "android": "https://dc.lft.to/lastmile_qr_scan"}, "lon": -77.1050865, "type": "electric_bike", "fusion_lat": 0.0, "lat": 38.92846616666667, "name": "58d196f8cd8c022b60d4a5f8e6052096", "fusion_lon": 0.0, "bike_id": "58d196f8cd8c022b60d4a5f8e6052096", "is_disabled": 0, "is_reserved": 0}, {"rental_uris": {"ios": "https://dc.lft.to/lastmile_qr_scan", "android": "https://dc.lft.to/lastmile_qr_scan"}, "lon": -77.03326433333334, "type": "electric_scooter", "fusion_lat": 0.0, "lat": 38.919812, "name": "5321ebc15dee923922fe1507f8fa3231", "fusion_lon": 0.0, "bike_id": "5321ebc15dee923922fe1507f8fa3231", "is_disabled": 0, "is_reserved": 0}, {"rental_uris": {"ios": "https://dc.lft.to/lastmile_qr_scan", "android": "https://dc.lft.to/lastmile_qr_scan"}, "lon": -77.07364116666666, "type": "electric_bike", "fusion_lat": 0.0, "lat": 38.96176666666667, "name": "fe75d75b6080221221c18f90e43c8e84", "fusion_lon": 0.0, "bike_id": "fe75d75b6080221221c18f90e43c8e84", "is_disabled": 0, "is_reserved": 0}, {"rental_uris": {"ios": "https://dc.lft.to/lastmile_qr_scan", "android": "https://dc.lft.to/lastmile_qr_scan"}, "lon": -76.97361683333334, "type": "electric_scooter", "fusion_lat": 0.0, "lat": 38.862055166666664, "name": "6f180f8e8f03c1b7bf10e8066b75238c", "fusion_lon": 0.0, "bike_id": "6f180f8e8f03c1b7bf10e8066b75238c", "is_disabled": 0, "is_reserved": 0}, {"rental_uris": {"ios": "https://dc.lft.to/lastmile_qr_scan", "android": "https://dc.lft.to/lastmile_qr_scan"}, "lon": -77.032791, "type": "electric_scooter", "fusion_lat": 0.0, "lat": 38.928788833333336, "name": "d892f5c845874b99649263b7618240eb", "fusion_lon": 0.0, "bike_id": "d892f5c845874b99649263b7618240eb", "is_disabled": 0, "is_reserved": 0}, {"rental_uris": {"ios": "https://dc.lft.to/lastmile_qr_scan", "android": "https://dc.lft.to/lastmile_qr_scan"}, "lon": -76.9008775, "type": "electric_bike", "fusion_lat": 0.0, "lat": 38.887502166666664, "name": "62df259a50109f3dcc73ec739cf0ea74", "fusion_lon": 0.0, "bike_id": "62df259a50109f3dcc73ec739cf0ea74", "is_disabled": 0, "is_reserved": 0}, {"rental_uris": {"ios": "https://dc.lft.to/lastmile_qr_scan", "android": "https://dc.lft.to/lastmile_qr_scan"}, "lon": -77.052942, "type": "electric_scooter", "fusion_lat": 0.0, "lat": 38.8992775, "name": "360c9ef62c6e594b5622e16079f218b9", "fusion_lon": 0.0, "bike_id": "360c9ef62c6e594b5622e16079f218b9", "is_disabled": 0, "is_reserved": 0}, {"rental_uris": {"ios": "https://dc.lft.to/lastmile_qr_scan", "android": "https://dc.lft.to/lastmile_qr_scan"}, "lon": -77.02815266666667, "type": "electric_scooter", "fusion_lat": 0.0, "lat": 38.90252566666667, "name": "6725c1452fba8206e55bb50e6554e3cc", "fusion_lon": 0.0, "bike_id": "6725c1452fba8206e55bb50e6554e3cc", "is_disabled": 0, "is_reserved": 0}, {"rental_uris": {"ios": "https://dc.lft.to/lastmile_qr_scan", "android": "https://dc.lft.to/lastmile_qr_scan"}, "lon": -77.04928716666667, "type": "electric_scooter", "fusion_lat": 0.0, "lat": 38.91927316666667, "name": "9045809053d9fb762498a6850c4db59a", "fusion_lon": 0.0, "bike_id": "9045809053d9fb762498a6850c4db59a", "is_disabled": 0, "is_reserved": 0}, {"rental_uris": {"ios": "https://dc.lft.to/lastmile_qr_scan", "android": "https://dc.lft.to/lastmile_qr_scan"}, "lon": -77.00562366666666, "type": "electric_bike", "fusion_lat": 0.0, "lat": 38.839768166666666, "name": "46d7aa7d4026785b35bc43687cca961e", "fusion_lon": 0.0, "bike_id": "46d7aa7d4026785b35bc43687cca961e", "is_disabled": 0, "is_reserved": 0}, {"rental_uris": {"ios": "https://dc.lft.to/lastmile_qr_scan", "android": "https://dc.lft.to/lastmile_qr_scan"}, "lon": -76.99499366666667, "type": "electric_scooter", "fusion_lat": 0.0, "lat": 38.86243833333333, "name": "811d35b26e87aa76f98ce876cbbf1cc6", "fusion_lon": 0.0, "bike_id": "811d35b26e87aa76f98ce876cbbf1cc6", "is_disabled": 0, "is_reserved": 0}, {"rental_uris": {"ios": "https://dc.lft.to/lastmile_qr_scan", "android": "https://dc.lft.to/lastmile_qr_scan"}, "lon": -77.00570483333334, "type": "electric_scooter", "fusion_lat": 0.0, "lat": 38.8850305, "name": "fce6f675c117632b9922a57a911c5842", "fusion_lon": 0.0, "bike_id": "fce6f675c117632b9922a57a911c5842", "is_disabled": 0, "is_reserved": 0}, {"rental_uris": {"ios": "https://dc.lft.to/lastmile_qr_scan", "android": "https://dc.lft.to/lastmile_qr_scan"}, "lon": -77.04011133333333, "type": "electric_scooter", "fusion_lat": 0.0, "lat": 38.93252, "name": "2fb9902790dccde19cce9623df3834e8", "fusion_lon": 0.0, "bike_id": "2fb9902790dccde19cce9623df3834e8", "is_disabled": 0, "is_reserved": 0}, {"rental_uris": {"ios": "https://dc.lft.to/lastmile_qr_scan", "android": "https://dc.lft.to/lastmile_qr_scan"}, "lon": -77.0576005, "type": "electric_scooter", "fusion_lat": 0.0, "lat": 38.9245875, "name": "72bdf30f4aca0e233e25f9e96f61c09f", "fusion_lon": 0.0, "bike_id": "72bdf30f4aca0e233e25f9e96f61c09f", "is_disabled": 0, "is_reserved": 0}, {"rental_uris": {"ios": "https://dc.lft.to/lastmile_qr_scan", "android": "https://dc.lft.to/lastmile_qr_scan"}, "lon": -77.014477, "type": "electric_scooter", "fusion_lat": 0.0, "lat": 38.92978166666666, "name": "681e23bba6cdf723409b08537e0b16b0", "fusion_lon": 0.0, "bike_id": "681e23bba6cdf723409b08537e0b16b0", "is_disabled": 0, "is_reserved": 0}, {"rental_uris": {"ios": "https://dc.lft.to/lastmile_qr_scan", "android": "https://dc.lft.to/lastmile_qr_scan"}, "lon": -77.02398483333333, "type": "electric_scooter", "fusion_lat": 0.0, "lat": 38.937075166666666, "name": "593e9c46b3689ef48691fb22464012e0", "fusion_lon": 0.0, "bike_id": "593e9c46b3689ef48691fb22464012e0", "is_disabled": 0, "is_reserved": 0}, {"rental_uris": {"ios": "https://dc.lft.to/lastmile_qr_scan", "android": "https://dc.lft.to/lastmile_qr_scan"}, "lon": -76.97458, "type": "electric_scooter", "fusion_lat": 0.0, "lat": 38.865395166666666, "name": "050366c7aaec1538225a11410818efe5", "fusion_lon": 0.0, "bike_id": "050366c7aaec1538225a11410818efe5", "is_disabled": 0, "is_reserved": 0}, {"rental_uris": {"ios": "https://dc.lft.to/lastmile_qr_scan", "android": "https://dc.lft.to/lastmile_qr_scan"}, "lon": -77.02269616666666, "type": "electric_scooter", "fusion_lat": 0.0, "lat": 38.91269033333333, "name": "db78b097982cfd8b8654fbe7f518114d", "fusion_lon": 0.0, "bike_id": "db78b097982cfd8b8654fbe7f518114d", "is_disabled": 0, "is_reserved": 0},