{"data": {"bikes": [{"fusion_lat": 0.0, "type": "electric_scooter", "name": "106b72187815c11c0acdf7b61955d8e9", "is_disabled": 0, "lon": -77.0437665, "fusion_lon": 0.0, "rental_uris": {"ios": "https://dc.lft.to/lastmile_qr_scan", "android": "https://dc.lft.to/lastmile_qr_scan"}, "lat": 38.920465166666666, "bike_id": "106b72187815c11c0acdf7b61955d8e9", "is_reserved": 0}, {"fusion_lat": 0.0, "type": "electric_scooter", "name": "e0030e49073194cbba9f91f1ed0115b8", "is_disabled": 0, "lon": -77.033687, "fusion_lon": 0.0, "rental_uris": {"ios": "https://dc.lft.to/lastmile_qr_scan", "android": "https://dc.lft.to/lastmile_qr_scan"}, "lat": 38.924521666666664, "bike_id": "e0030e49073194cbba9f91f1ed0115b8", "is_reserved": 0}, {"fusion_lat": 0.0, "type": "electric_bike", "name": "a81b285ac135ad4dd87e638bcfeb7b19", "is_disabled": 0, "lon": -77.00956816666667, "fusion_lon": 0.0, "rental_uris": {"ios": "https://dc.lft.to/lastmile_qr_scan", "android": "https://dc.lft.to/lastmile_qr_scan"}, "lat": 38.92134633333333, "bike_id": "a81b285ac135ad4dd87e638bcfeb7b19", "is_reserved": 0}, {"fusion_lat": 0.0, "type": "electric_scooter", "name": "51e19add7c2f8e23911fcfbee6db99bc", "is_disabled": 0, "lon": -77.03479116666666, "fusion_lon": 0.0, "rental_uris": {"ios": "https://dc.lft.to/lastmile_qr_scan", "android": "https://dc.lft.to/lastmile_qr_scan"}, "lat": 38.92894616666667, "bike_id": "51e19add7c2f8e23911fcfbee6db99bc", "is_reserved": 0}, {"fusion_lat": 0.0, "type": "electric_bike", "name": "bc5e3decb5adebca1ef970f6253deeef", "is_disabled": 0, "lon": -76.93806683333334, "fusion_lon": 0.0, "rental_uris": {"ios": "https://dc.lft.to/lastmile_qr_scan", "android": "https://dc.lft.to/lastmile_qr_scan"}, "lat": 38.979722, "bike_id": "bc5e3decb5adebca1ef970f6253deeef", "is_reserved": 0}, {"fusion_lat": 0.0, "type": "electric_scooter", "name": "1a260e503365dcb24e242f22f7d05e57", "is_disabled": 0, "lon": -77.03262083333334, "fusion_lon": 0.0, "rental_uris": {"ios": "https://dc.lft.to/lastmile_qr_scan", "android": "https://dc.lft.to/lastmile_qr_scan"}, "lat": 38.9352205, "bike_id": "1a260e503365dcb24e242f22f7d05e57", "is_reserved": 0}, {"fusion_lat": 0.0, "type": "electric_bike", "name": "1d4988c239b8047ca2dcbb58d960beeb", "is_disabled": 0, "lon": -77.0265155, "fusion_lon": 0.0, "rental_uris": {"ios": "https://dc.lft.to/lastmile_qr_scan", "android": "https://dc.lft.to/lastmile_qr_scan"}, "lat": 38.988176833333334, "bike_id": "1d4988c239b8047ca2dcbb58d960beeb", "is_reserved": 0}, {"fusion_lat": 0.0, "type": "electric_scooter", "name": "09afbaf8505e7c05f42463d57d6ca4dc", "is_disabled": 0, "lon": -77.00294616666666, "fusion_lon": 0.0, "rental_uris": {"ios": "https://dc.lft.to/lastmile_qr_scan", "android": "https://dc.lft.to/lastmile_qr_scan"}, "lat": 38.892028833333335, "bike_id": "09afbaf8505e7c05f42463d57d6ca4dc", "is_reserved": 0}, {"fusion_lat": 0.0, "type": "electric_scooter", "name": "55e823ec24ad90f2b9240c9d8a361df1", "is_disabled": 0, "lon": -77.07013666666667, "fusion_lon": 0.0, "rental_uris": {"ios": "https://dc.lft.to/lastmile_qr_scan", "android": "https://dc.lft.to/lastmile_qr_scan"}, "lat": 38.905870166666666, "bike_id": "55e823ec24ad90f2b9240c9d8a361df1", "is_reserved": 0}, {"fusion_lat": 0.0, "type": "electric_scooter", "name": "a1092281113517a1170dc48f3c20fe8e", "is_disabled": 0, "lon": -77.03938116666667, "fusion_lon": 0.0, "rental_uris": {"ios": "https://dc.lft.to/lastmile_qr_scan", "android": "https://dc.lft.to/lastmile_qr_scan"}, "lat": 38.915589, "bike_id": "a1092281113517a1170dc48f3c20fe8e", "is_reserved": 0}, {"fusion_lat": 0.0, "type": "electric_scooter", "name": "80c5f3596e02361c2a50245082a89022", "is_disabled": 0, "lon": -77.00480166666667, "fusion_lon": 0.0, "rental_uris": {"ios": "https://dc.lft.to/lastmile_qr_scan", "android": "https://dc.lft.to/lastmile_qr_scan"}, "lat": 38.874541, "bike_id": "80c5f3596e02361c2a50245082a89022", "is_reserved": 0}, {"fusion_lat": 0.0, "type": "electric_scooter", "name": "318971b014ac0c9a3ad4370cb36b74cb", "is_disabled": 0, "lon": -77.03557666666667, "fusion_lon": 0.0, "rental_uris": {"ios": "https://dc.lft.to/lastmile_qr_scan", "android": "https://dc.lft.to/lastmile_qr_scan"}, "lat": 38.92479766666666, "bike_id": "318971b014ac0c9a3ad4370cb36b74cb", "is_reserved": 0}, {"fusion_lat": 0.0, "type": "electric_bike", "name": "8ac81302526d7518a54aae7949ee75e7", "is_disabled": 0, "lon": -77.020707, "fusion_lon": 0.0, "rental_uris": {"ios": "https://dc.lft.to/lastmile_qr_scan", "android": "https://dc.lft.to/lastmile_qr_scan"}, "lat": 38.964382666666666, "bike_id": "8ac81302526d7518a54aae7949ee75e7", "is_reserved": 0}, {"fusion_lat": 0.0, "type": "electric_scooter", "name": "24fa929e5fab2b60a5563a02547c1b35", "is_disabled": 0, "lon": -76.97712966666667, "fusion_lon": 0.0, "rental_uris": {"ios": "https://dc.lft.to/lastmile_qr_scan", "android": "https://dc.lft.to/lastmile_qr_scan"}, "lat": 38.900541833333335, "bike_id": "24fa929e5fab2b60a5563a02547c1b35", "is_reserved": 0}, {"fusion_lat": 0.0, "type": "electric_scooter", "name": "2168daa694a29b7beeb3b345c98393b6", "is_disabled": 0, "lon": -77.033964, "fusion_lon": 0.0, "rental_uris": {"ios": "https://dc.lft.to/lastmile_qr_scan", "android": "https://dc.lft.to/lastmile_qr_scan"}, "lat": 38.919112, "bike_id": "2168daa694a29b7beeb3b345c98393b6", "is_reserved": 0}, {"fusion_lat": 0.0, "type": "electric_scooter", "name": "0067214ac74cb366d94fac9c7fb32070", "is_disabled": 0, "lon": -76.94194833333333, "fusion_lon": 0.0, "rental_uris": {"ios": "https://dc.lft.to/lastmile_qr_scan", "android": "https://dc.lft.to/lastmile_qr_scan"}, "lat": 38.89756966666667, "bike_id": "0067214ac74cb366d94fac9c7fb32070", "is_reserved": 0}, {"fusion_lat": 0.0, "type": "electric_scooter", "name": "02be3383aacf3308c9379a24d02edca0", "is_disabled": 0, "lon": -77.03709166666667, "fusion_lon": 0.0, "rental_uris": {"ios": "https://dc.lft.to/lastmile_qr_scan", "android": "https://dc.lft.to/lastmile_qr_scan"}, "lat": 38.926365833333335, "bike_id": "02be3383aacf3308c9379a24d02edca0", "is_reserved": 0}, {"fusion_lat": 0.0, "type": "electric_scooter", "name": "2fcc819f1a3853f2511a29fe70408e10", "is_disabled": 0, "lon": -77.0337785, "fusion_lon": 0.0, "rental_uris": {"ios": "https://dc.lft.to/lastmile_qr_scan", "android": "https://dc.lft.to/lastmile_qr_scan"}, "lat": 38.901481, "bike_id": "2fcc819f1a3853f2511a29fe70408e10", "is_reserved": 0}, {"fusion_lat": 0.0, "type": "electric_bike", "name": "2200e76238a79ef887c7e2f68cb28cb1", "is_disabled": 0, "lon": -77.02184416666667, "fusion_lon": 0.0, "rental_uris": {"ios": "https://dc.lft.to/lastmile_qr_scan", "android": "https://dc.lft.to/lastmile_qr_scan"}, "lat": 38.906982166666666, "bike_id": "2200e76238a79ef887c7e2f68cb28cb1", "is_reserved": 0}, {"fusion_lat": 0.0, "type": "electric_bike", "name": "647a6d6067a700b1e55c1c5e6cb0f14b", "is_disabled": 0, "lon": -77.07660666666666, "fusion_lon": 0.0, "rental_uris": {"ios": "https://dc.lft.to/lastmile_qr_scan", "android": "https://dc.lft.to/lastmile_qr_scan"}, "lat": 38.809777, "bike_id": "647a6d6067a700b1e55c1c5e6cb0f14b", "is_reserved": 0}, {"fusion_lat": 0.0, "type": "electric_scooter", "name": "8b96347373a4ab8740b60ba3f335b6dd", "is_disabled": 0, "lon": -76.99630083333334, "fusion_lon": 0.0, "rental_uris": {"ios": "https://dc.lft.to/lastmile_qr_scan", "android": "https://dc.lft.to/lastmile_qr_scan"}, "lat": 38.885436, "bike_id": "8b96347373a4ab8740b60ba3f335b6dd", "is_reserved": 0}, {"fusion_lat": 0.0, "type": "electric_scooter", "name": "e2828875aba27005b565fa93954ce87d", "is_disabled": 0, "lon": -77.00114033333334, "fusion_lon": 0.0, "rental_uris": {"ios": "https://dc.lft.to/lastmile_qr_scan", "android": "https://dc.lft.to/lastmile_qr_scan"}, "lat": 38.87483616666667, "bike_id": "e2828875aba27005b565fa93954ce87d", "is_reserved": 0}, {"fusion_lat": 0.0, "type": "electric_scooter", "name": "3c4de2d306fe378a4fdc27be4fc9fe04", "is_disabled": 0, "lon": -77.02698683333334, "fusion_lon": 0.0, "rental_uris": {"ios": "https://dc.lft.to/lastmile_qr_scan", "android": "https://dc.lft.to/lastmile_qr_scan"}, "lat": 38.91271616666667, "bike_id": "3c4de2d306fe378a4fdc27be4fc9fe04", "is_reserved": 0}, {"fusion_lat": 0.0, "type": "electric_scooter", "name": "aefc50cc5d4e4df9423f03428662bb04", "is_disabled": 0, "lon": -77.02179566666666, "fusion_lon": 0.0, "rental_uris": {"ios": "https://dc.lft.to/lastmile_qr_scan", "android": "https://dc.lft.to/lastmile_qr_scan"}, "lat": 38.9249675, "bike_id": "aefc50cc5d4e4df9423f03428662bb04", "is_reserved": 0}, {"fusion_lat": 0.0, "type": "electric_scooter", "name": "665f0b534a7e71ca2c74d445ff0c6214", "is_disabled": 0, "lon": -77.02255666666667, "fusion_lon": 0.0, "rental_uris": {"ios": "https://dc.lft.to/lastmile_qr_scan", "android": "https://dc.lft.to/lastmile_qr_scan"}, "lat": 38.87917816666667, "bike_id": "665f0b534a7e71ca2c74d445ff0c6214", "is_reserved": 0}, {"fusion_lat": 0.0, "type": "electric_scooter", "name": "6286b622b9717464013946650751aa97", "is_disabled": 0, "lon": -77.0410345, "fusion_lon": 0.0, "rental_uris": {"ios": "https://dc.lft.to/lastmile_qr_scan", "android": "https://dc.lft.to/lastmile_qr_scan"}, "lat": 38.898633333333336, "bike_id": "6286b622b9717464013946650751aa97", "is_reserved": 0}, {"fusion_lat": 0.0, "type": "electric_scooter", "name": "5f9cb271cfaabc42abd101f851b86a1a", "is_disabled": 0, "lon": -77.02907466666667, "fusion_lon": 0.0, "rental_uris": {"ios": "https://dc.lft.to/lastmile_qr_scan", "android": "https://dc.lft.to/lastmile_qr_scan"}, "lat": 38.9169055, "bike_id": "5f9cb271cfaabc42abd101f851b86a1a", "is_reserved": 0}, {"fusion_lat": 0.0, "type": "electric_scooter", "name": "aeb030778e6a773f0e532b957880d670", "is_disabled": 0, "lon": -77.06285516666667, "fusion_lon": 0.0, "rental_uris": {"ios": "https://dc.lft.to/lastmile_qr_scan", "android": "https://dc.lft.to/lastmile_qr_scan"}, "lat": 38.90317233333333, "bike_id": "aeb030778e6a773f0e532b957880d670", "is_reserved": 0}, {"fusion_lat": 0.0, "type": "electric_scooter", "name": "72e05b7bb492c9c1e2e76084683f33fc", "is_disabled": 0, "lon": -77.02978833333333, "fusion_lon": 0.0, "rental_uris": {"ios": "https://dc.lft.to/lastmile_qr_scan", "android": "https://dc.lft.to/lastmile_qr_scan"}, "lat": 38.89749533333333, "bike_id": "72e05b7bb492c9c1e2e76084683f33fc", "is_reserved": 0}, {"fusion_lat": 0.0, "type": "electric_scooter", "name": "84098762cfbde301570b8eb5547e11ef", "is_disabled": 0, "lon": -77.05328833333333, "fusion_lon": 0.0, "rental_uris": {"ios": "https://dc.lft.to/lastmile_qr_scan", "android": "https://dc.lft.to/lastmile_qr_scan"}, "lat": 38.90513583333333, "bike_id": "84098762cfbde301570b8eb5547e11ef", "is_reserved": 0}, {"fusion_lat": 0.0, "type": "electric_scooter", "name": "9ffda0ce43b62da69d05f3b8df345bbb", "is_disabled": 0, "lon": -77.03796983333334, "fusion_lon": 0.0, "rental_uris": {"ios": "https://dc.lft.to/lastmile_qr_scan", "android": "https://dc.lft.to/lastmile_qr_scan"}, "lat": 38.93065816666667, "bike_id": "9ffda0ce43b62da69d05f3b8df345bbb", "is_reserved": 0}, {"fusion_lat": 0.0, "type": "electric_scooter", "name": "c12f8fb13ec6c987fde620ea016fa302", "is_disabled": 0, "lon": -77.02384683333334, "fusion_lon": 0.0, "rental_uris": {"ios": "https://dc.lft.to/lastmile_qr_scan", "android": "https://dc.lft.to/lastmile_qr_scan"}, "lat": 38.95275083333333, "bike_id": "c12f8fb13ec6c987fde620ea016fa302", "is_reserved": 0}, {"fusion_lat": 0.0, "type": "electric_scooter", "name": "d7715570e74e76aaa81f5367cec6bc9b", "is_disabled": 0, "lon": -77.04163966666667, "fusion_lon": 0.0, "rental_uris": {"ios": "https://dc.lft.to/lastmile_qr_scan", "android": "https://dc.lft.to/lastmile_qr_scan"}, "lat": 38.90942616666667, "bike_id": "d7715570e74e76aaa81f5367cec6bc9b", "is_reserved": 0}, {"fusion_lat": 0.0, "type": "electric_scooter", "name": "7c982645b8d4e0efcff8d4fe01a7a680", "is_disabled": 0, "lon": -77.04061166666666, "fusion_lon": 0.0, "rental_uris": {"ios": "https://dc.lft.to/lastmile_qr_scan", "android": "https://dc.lft.to/lastmile_qr_scan"}, "lat": 38.90393016666667, "bike_id": "7c982645b8d4e0efcff8d4fe01a7a680", "is_reserved": 0}, {"fusion_lat": 0.0, "type": "electric_scooter", "name": "7dd85456184c0f28a3fc24abbc510007", "is_disabled": 0, "lon": -77.021845, "fusion_lon": 0.0, "rental_uris": {"ios": "https://dc.lft.to/lastmile_qr_scan", "android": "https://dc.lft.to/lastmile_qr_scan"}, "lat": 38.90949333333333, "bike_id": "7dd85456184c0f28a3fc24abbc510007", "is_reserved": 0}, {"fusion_lat": 0.0, "type": "electric_scooter", "name": "2a420b8e28b090a0954519bdc8e0ef94", "is_disabled": 0, "lon": -77.03469116666666, "fusion_lon": 0.0, "rental_uris": {"ios": "https://dc.lft.to/lastmile_qr_scan", "android": "https://dc.lft.to/lastmile_qr_scan"}, "lat": 38.902701, "bike_id": "2a420b8e28b090a0954519bdc8e0ef94", "is_reserved": 0}, {"fusion_lat": 0.0, "type": "electric_scooter", "name": "ea951281002a6cc78f77ba124959f7a9", "is_disabled": 0, "lon": -77.03263033333333, "fusion_lon": 0.0, "rental_uris": {"ios": "https://dc.lft.to/lastmile_qr_scan", "android": "https://dc.lft.to/lastmile_qr_scan"}, "lat": 38.937422, "bike_id": "ea951281002a6cc78f77ba124959f7a9", "is_reserved": 0}, {"fusion_lat": 0.0, "type": "electric_scooter", "name": "3d1e36db0a5d37ce9c4ae0a9ee763a53", "is_disabled": 0, "lon": -77.00329416666666, "fusion_lon": 0.0, "rental_uris": {"ios": "https://dc.lft.to/lastmile_qr_scan", "android": "https://dc.lft.to/lastmile_qr_scan"}, "lat": 38.902708, "bike_id": "3d1e36db0a5d37ce9c4ae0a9ee763a53", "is_reserved": 0}, {"fusion_lat": 0.0, "type": "electric_scooter", "name": "d7194ddd78079dd8ab3610eb55847502", "is_disabled": 0, "lon": -77.03177233333334, "fusion_lon": 0.0, "rental_uris": {"ios": "https://dc.lft.to/lastmile_qr_scan", "android": "https://dc.lft.to/lastmile_qr_scan"}, "lat": 38.91926733333333, "bike_id": "d7194ddd78079dd8ab3610eb55847502", "is_reserved": 0}, {"fusion_lat": 0.0, "type": "electric_scooter", "name": "4ccab27b6f2014d81941c18b71e12743", "is_disabled": 0, "lon": -77.02691183333333, "fusion_lon": 0.0, "rental_uris": {"ios": "https://dc.lft.to/lastmile_qr_scan", "android": "https://dc.lft.to/lastmile_qr_scan"}, "lat": 38.9022655, "bike_id": "4ccab27b6f2014d81941c18b71e12743", "is_reserved": 0}, {"fusion_lat": 0.0, "type": "electric_scooter", "name": "b1b84b6ab0a7750ba8243f11b4baabfd", "is_disabled": 0, "lon": -76.9408955, "fusion_lon": 0.0, "rental_uris": {"ios": "https://dc.lft.to/lastmile_qr_scan", "android": "https://dc.lft.to/lastmile_qr_scan"}, "lat": 38.891268, "bike_id": "b1b84b6ab0a7750ba8243f11b4baabfd", "is_reserved": 0}, {"fusion_lat": 0.0, "type": "electric_scooter", "name": "a578db11a98664de15de0ddea78ee546", "is_disabled": 0, "lon": -77.02966466666666, "fusion_lon": 0.0, "rental_uris": {"ios": "https://dc.lft.to/lastmile_qr_scan", "android": "https://dc.lft.to/lastmile_qr_scan"}, "lat": 38.90716183333333, "bike_id": "a578db11a98664de15de0ddea78ee546", "is_reserved": 0}, {"fusion_lat": 0.0, "type": "electric_scooter", "name": "1300e942ca5bb7d0a3284f4a431caa1e", "is_disabled": 0, "lon": -77.0296765, "fusion_lon": 0.0, "rental_uris": {"ios": "https://dc.lft.to/lastmile_qr_scan", "android": "https://dc.lft.to/lastmile_qr_scan"}, "lat": 38.89226333333333, "bike_id": "1300e942ca5bb7d0a3284f4a431caa1e", "is_reserved": 0}, {"fusion_lat": 0.0, "type": "electric_scooter", "name": "56fea5ce038197ea9158bf3475361903", "is_disabled": 0, "lon": -77.058008, "fusion_lon": 0.0, "rental_uris": {"ios": "https://dc.lft.to/lastmile_qr_scan", "android": "https://dc.lft.to/lastmile_qr_scan"}, "lat": 38.934790666666665, "bike_id": "56fea5ce038197ea9158bf3475361903", "is_reserved": 0}, {"fusion_lat": 0.0, "type": "electric_bike", "name": "c93c72decfced8151cb9cead8c0ab40b", "is_disabled": 0, "lon": -77.02875816666666, "fusion_lon": 0.0, "rental_uris": {"ios": "https://dc.lft.to/lastmile_qr_scan", "android": "https://dc.lft.to/lastmile_qr_scan"}, "lat": 38.99533, "bike_id": "c93c72decfced8151cb9cead8c0ab40b", "is_reserved": 0}, {"fusion_lat": 0.0, "type": "electric_scooter", "name": "07e703f4d2c5064a0f5991c8482babbf", "is_disabled": 0, "lon": -77.012885, "fusion_lon": 0.0, "rental_uris": {"ios": "https://dc.lft.to/lastmile_qr_scan", "android": "https://dc.lft.to/lastmile_qr_scan"}, "lat": 38.898309166666664, "bike_id": "07e703f4d2c5064a0f5991c8482babbf", "is_reserved": 0}, {"fusion_lat": 0.0, "type": "electric_scooter", "name": "be071f7d815a2b0ce86f5cba4e7bd740", "is_disabled": 0, "lon": -76.99840983333333, "fusion_lon": 0.0, "rental_uris": {"ios": "https://dc.lft.to/lastmile_qr_scan", "android": "https://dc.lft.to/lastmile_qr_scan"}, "lat": 38.90645416666667, "bike_id": "be071f7d815a2b0ce86f5cba4e7bd740", "is_reserved": 0}, {"fusion_lat": 0.0, "type": "electric_scooter", "name": "3ce841bb3f6411a9ac9d68bde01bec79", "is_disabled": 0, "lon": -77.01232866666666, "fusion_lon": 0.0, "rental_uris": {"ios": "https://dc.lft.to/lastmile_qr_scan", "android": "https://dc.lft.to/lastmile_qr_scan"}, "lat": 38.89786766666667, "bike_id": "3ce841bb3f6411a9ac9d68bde01bec79", "is_reserved": 0}, {"fusion_lat": 0.0, "type": "electric_scooter", "name": "bda271bf26e796fc12fe35e52d400e25", "is_disabled": 0, "lon": -77.01145983333333, "fusion_lon": 0.0, "rental_uris": {"ios": "https://dc.lft.to/lastmile_qr_scan", "android": "https://dc.lft.to/lastmile_qr_scan"}, "lat": 38.92963016666667, "bike_id": "bda271bf26e796fc12fe35e52d400e25", "is_reserved": 0}, {"fusion_lat": 0.0, "type": "electric_bike", "name": "e389702d2c9f4f193c2604468fb47905", "is_disabled": 0, "lon": -76.9031015, "fusion_lon": 0.0, "rental_uris": {"ios": "https://dc.lft.to/lastmile_qr_scan", "android": "https://dc.lft.to/lastmile_qr_scan"}, "lat": 39.002903333333336, "bike_id": "e389702d2c9f4f193c2604468fb47905", "is_reserved": 0}, {"fusion_lat": 0.0, "type": "electric_scooter", "name": "fe74c97faa149f0ef91583b09b1399e2", "is_disabled": 0, "lon": -77.018137, "fusion_lon": 0.0, "rental_uris": {"ios": "https://dc.lft.to/lastmile_qr_scan", "android": "https://dc.lft.to/lastmile_qr_scan"}, "lat": 38.9522735, "bike_id": "fe74c97faa149f0ef91583b09b1399e2", "is_reserved": 0}, {"fusion_lat": 0.0, "type": "electric_scooter", "name": "3e1e992f2bfd7cbeac91e6fc6965ed48", "is_disabled": 0, "lon": -77.02477833333333, "fusion_lon": 0.0, "rental_uris": {"ios": "https://dc.lft.to/lastmile_qr_scan", "android": "https://dc.lft.to/lastmile_qr_scan"}, "lat": 38.93100366666667, "bike_id": "3e1e992f2bfd7cbeac91e6fc6965ed48", "is_reserved": 0}, {"fusion_lat": 0.0, "type": "electric_scooter", "name": "c8b60a4ed8ad30221b09eb4fd14edacf", "is_disabled": 0, "lon": -77.05989883333334, "fusion_lon": 0.0, "rental_uris": {"ios": "https://dc.lft.to/lastmile_qr_scan", "android": "https://dc.lft.to/lastmile_qr_scan"}, "lat": 38.9381985, "bike_id": "c8b60a4ed8ad30221b09eb4fd14edacf", "is_reserved": 0}, {"fusion_lat": 0.0, "type": "electric_scooter", "name": "0c8c325df42c8f6f6eb47639757250d9", "is_disabled": 0, "lon": -76.9985365, "fusion_lon": 0.0, "rental_uris": {"ios": "https://dc.lft.to/lastmile_qr_scan", "android": "https://dc.lft.to/lastmile_qr_scan"}, "lat": 38.891889166666665, "bike_id": "0c8c325df42c8f6f6eb47639757250d9", "is_reserved": 0}, {"fusion_lat": 0.0, "type": "electric_scooter", "name": "0cfacc28cfb315eab264a6cabe1f9bea", "is_disabled": 0, "lon": -77.038643, "fusion_lon": 0.0, "rental_uris": {"ios": "https://dc.lft.to/lastmile_qr_scan", "android": "https://dc.lft.to/lastmile_qr_scan"}, "lat": 38.91712616666667, "bike_id": "0cfacc28cfb315eab264a6cabe1f9bea", "is_reserved": 0}, {"fusion_lat": 0.0, "type": "electric_scooter", "name": "56748c5f421ee643b153af1e6b17a828", "is_disabled": 0, "lon": -77.02835616666667, "fusion_lon": 0.0, "rental_uris": {"ios": "https://dc.lft.to/lastmile_qr_scan", "android": "https://dc.lft.to/lastmile_qr_scan"}, "lat": 38.887421, "bike_id": "56748c5f421ee643b153af1e6b17a828", "is_reserved": 0}, {"fusion_lat": 0.0, "type": "electric_scooter", "name": "de45926ab2675af35bbcdc74fa0210da", "is_disabled": 0, "lon": -77.03989583333333, "fusion_lon": 0.0, "rental_uris": {"ios": "https://dc.lft.to/lastmile_qr_scan", "android": "https://dc.lft.to/lastmile_qr_scan"}, "lat": 38.898928833333336, "bike_id": "de45926ab2675af35bbcdc74fa0210da", "is_reserved": 0}, {"fusion_lat": 0.0, "type": "electric_bike", "name": "8486f6f04e86f8389219a6e281d63661", "is_disabled": 0, "lon": -77.05284633333333, "fusion_lon": 0.0, "rental_uris": {"ios": "https://dc.lft.to/lastmile_qr_scan", "android": "https://dc.lft.to/lastmile_qr_scan"}, "lat": 38.940897, "bike_id": "8486f6f04e86f8389219a6e281d63661", "is_reserved": 0}, {"fusion_lat": 0.0, "type": "electric_scooter", "name": "016a46d2e26403893472780881470d15", "is_disabled": 0, "lon": -77.03262583333333, "fusion_lon": 0.0, "rental_uris": {"ios": "https://dc.lft.to/lastmile_qr_scan", "android": "https://dc.lft.to/lastmile_qr_scan"}, "lat": 38.935222833333334, "bike_id": "016a46d2e26403893472780881470d15", "is_reserved": 0}, {"fusion_lat": 0.0, "type": "electric_scooter", "name": "601693f150245f46aa8c938ef91cac3d", "is_disabled": 0, "lon": -77.02803083333333, "fusion_lon": 0.0, "rental_uris": {"ios": "https://dc.lft.to/lastmile_qr_scan", "android": "https://dc.lft.to/lastmile_qr_scan"}, "lat": 38.916777833333335, "bike_id": "601693f150245f46aa8c938ef91cac3d", "is_reserved": 0}, {"fusion_lat": 0.0, "type": "electric_bike", "name": "436f884fbc1a54599862247d940a27aa", "is_disabled": 0, "lon": -77.00717766666666, "fusion_lon": 0.0, "rental_uris": {"ios": "https://dc.lft.to/lastmile_qr_scan", "android": "https://dc.lft.to/lastmile_qr_scan"}, "lat": 38.99506183333333, "bike_id": "436f884fbc1a54599862247d940a27aa", "is_reserved": 0}, {"fusion_lat": 0.0, "type": "electric_scooter", "name": "b67d27b481a359433d22f13ff2ad3b7e", "is_disabled": 0, "lon": -76.9963215, "fusion_lon": 0.0, "rental_uris": {"ios": "https://dc.lft.to/lastmile_qr_scan", "android": "https://dc.lft.to/lastmile_qr_scan"}, "lat": 38.87738066666667, "bike_id": "b67d27b481a359433d22f13ff2ad3b7e", "is_reserved": 0}, {"fusion_lat": 0.0, "type": "electric_scooter", "name": "93ae0e6cde6d39a96e11236cce3656a9", "is_disabled": 0, "lon": -77.0435345, "fusion_lon": 0.0, "rental_uris": {"ios": "https://dc.lft.to/lastmile_qr_scan", "android": "https://dc.lft.to/lastmile_qr_scan"}, "lat": 38.921553, "bike_id": "93ae0e6cde6d39a96e11236cce3656a9", "is_reserved": 0}, {"fusion_lat": 0.0, "type": "electric_scooter", "name": "2756d8b19a8cb9fba503223b9ffad16b", "is_disabled": 0, "lon": -77.00822683333334, "fusion_lon": 0.0, "rental_uris": {"ios": "https://dc.lft.to/lastmile_qr_scan", "android": "https://dc.lft.to/lastmile_qr_scan"}, "lat": 38.876552333333336, "bike_id": "2756d8b19a8cb9fba503223b9ffad16b", "is_reserved": 0}, {"fusion_lat": 0.0, "type": "electric_scooter", "name": "77eea83b75c726fe5f77d8d803382ba7", "is_disabled": 0, "lon": -77.04008183333333, "fusion_lon": 0.0, "rental_uris": {"ios": "https://dc.lft.to/lastmile_qr_scan", "android": "https://dc.lft.to/lastmile_qr_scan"}, "lat": 38.918011, "bike_id": "77eea83b75c726fe5f77d8d803382ba7", "is_reserved": 0}, {"fusion_lat": 0.0, "type": "electric_scooter", "name": "1a52f73303ae134b32fae5d47bf84f95", "is_disabled": 0, "lon": -76.93221416666667, "fusion_lon": 0.0, "rental_uris": {"ios": "https://dc.lft.to/lastmile_qr_scan", "android": "https://dc.lft.to/lastmile_qr_scan"}, "lat": 38.880510666666666, "bike_id": "1a52f73303ae134b32fae5d47bf84f95", "is_reserved": 0}, {"fusion_lat": 0.0, "type": "electric_scooter", "name": "b60a0ac0600b2dc3e51aa563dd123275", "is_disabled": 0, "lon": -77.012281, "fusion_lon": 0.0, "rental_uris": {"ios": "https://dc.lft.to/lastmile_qr_scan", "android": "https://dc.lft.to/lastmile_qr_scan"}, "lat": 38.90081166666667, "bike_id": "b60a0ac0600b2dc3e51aa563dd123275", "is_reserved": 0}, {"fusion_lat": 0.0, "type": "electric_scooter", "name": "eafc5cf8ef1c29e0ae89550b8677243a", "is_disabled": 0, "lon": -77.03443633333333, "fusion_lon": 0.0, "rental_uris": {"ios": "https://dc.lft.to/lastmile_qr_scan", "android": "https://dc.lft.to/lastmile_qr_scan"}, "lat": 38.907401666666665, "bike_id": "eafc5cf8ef1c29e0ae89550b8677243a", "is_reserved": 0}, {"fusion_lat": 0.0, "type": "electric_scooter", "name": "4c8ae944984d362de46bcaed45eb05c7", "is_disabled": 0, "lon": -76.98235233333334, "fusion_lon": 0.0, "rental_uris": {"ios": "https://dc.lft.to/lastmile_qr_scan", "android": "https://dc.lft.to/lastmile_qr_scan"}, "lat": 38.908940666666666, "bike_id": "4c8ae944984d362de46bcaed45eb05c7", "is_reserved": 0}, {"fusion_lat": 0.0, "type": "electric_scooter", "name": "46a39f0a00ef456050dadeba561ea673", "is_disabled": 0, "lon": -77.041364, "fusion_lon": 0.0, "rental_uris": {"ios": "https://dc.lft.to/lastmile_qr_scan", "android": "https://dc.lft.to/lastmile_qr_scan"}, "lat": 38.893502, "bike_id": "46a39f0a00ef456050dadeba561ea673", "is_reserved": 0}, {"fusion_lat": 0.0, "type": "electric_scooter", "name": "7b3c5ca61a5e7b4e362e189c48051a65", "is_disabled": 0, "lon": -77.04480016666666, "fusion_lon": 0.0, "rental_uris": {"ios": "https://dc.lft.to/lastmile_qr_scan", "android": "https://dc.lft.to/lastmile_qr_scan"}, "lat": 38.9011275, "bike_id": "7b3c5ca61a5e7b4e362e189c48051a65", "is_reserved": 0}, {"fusion_lat": 0.0, "type": "electric_scooter", "name": "89447cb229c2fc84dee38d89729c340e", "is_disabled": 0, "lon": -77.05017883333333, "fusion_lon": 0.0, "rental_uris": {"ios": "https://dc.lft.to/lastmile_qr_scan", "android": "https://dc.lft.to/lastmile_qr_scan"}, "lat": 38.90320883333333, "bike_id": "89447cb229c2fc84dee38d89729c340e", "is_reserved": 0}, {"fusion_lat": 0.0, "type": "electric_scooter", "name": "85a1dccdc7487cb6ba58353d2b7fc6d6", "is_disabled": 0, "lon": -77.03194116666667, "fusion_lon": 0.0, "rental_uris": {"ios": "https://dc.lft.to/lastmile_qr_scan", "android": "https://dc.lft.to/lastmile_qr_scan"}, "lat": 38.91463733333333, "bike_id": "85a1dccdc7487cb6ba58353d2b7fc6d6", "is_reserved": 0}, {"fusion_lat": 0.0, "type": "electric_scooter", "name": "1cdec7636956ec4e713d70f134e64328", "is_disabled": 0, "lon": -77.01995066666667, "fusion_lon": 0.0, "rental_uris": {"ios": "https://dc.lft.to/lastmile_qr_scan", "android": "https://dc.lft.to/lastmile_qr_scan"}, "lat": 38.9149855, "bike_id": "1cdec7636956ec4e713d70f134e64328", "is_reserved": 0}, {"fusion_lat": 0.0, "type": "electric_scooter", "name": "35975b961511a05bc47e0653f9a0f08f", "is_disabled": 0, "lon": -77.00727416666666, "fusion_lon": 0.0, "rental_uris": {"ios": "https://dc.lft.to/lastmile_qr_scan", "android": "https://dc.lft.to/lastmile_qr_scan"}, "lat": 38.911918166666666, "bike_id": "35975b961511a05bc47e0653f9a0f08f", "is_reserved": 0}, {"fusion_lat": 0.0, "type": "electric_scooter", "name": "f8f4028044c86e707a8c02ea3834a6fe", "is_disabled": 0, "lon": -77.02253233333333, "fusion_lon": 0.0, "rental_uris": {"ios": "https://dc.lft.to/lastmile_qr_scan", "android": "https://dc.lft.to/lastmile_qr_scan"}, "lat": 38.928201, "bike_id": "f8f4028044c86e707a8c02ea3834a6fe", "is_reserved": 0}, {"fusion_lat": 0.0, "type": "electric_scooter", "name": "f13fea2aabced5d3b947272284d1363b", "is_disabled": 0, "lon": -77.0384165, "fusion_lon": 0.0, "rental_uris": {"ios": "https://dc.lft.to/lastmile_qr_scan", "android": "https://dc.lft.to/lastmile_qr_scan"}, "lat": 38.911376833333335, "bike_id": "f13fea2aabced5d3b947272284d1363b", "is_reserved": 0}, {"fusion_lat": 0.0, "type": "electric_scooter", "name": "51eaed37833f2293ba976bf814ba97bf", "is_disabled": 0, "lon": -77.00356566666666, "fusion_lon": 0.0, "rental_uris": {"ios": "https://dc.lft.to/lastmile_qr_scan", "android": "https://dc.lft.to/lastmile_qr_scan"}, "lat": 38.89266666666666, "bike_id": "51eaed37833f2293ba976bf814ba97bf", "is_reserved": 0}, {"fusion_lat": 0.0, "type": "electric_scooter", "name": "d4cba009500676e5a1f0f8184d8c4655", "is_disabled": 0, "lon": -77.0438625, "fusion_lon": 0.0, "rental_uris": {"ios": "https://dc.lft.to/lastmile_qr_scan", "android": "https://dc.lft.to/lastmile_qr_scan"}, "lat": 38.910643, "bike_id": "d4cba009500676e5a1f0f8184d8c4655", "is_reserved": 0}, {"fusion_lat": 0.0, "type": "electric_bike", "name": "4651f45f35bd2f31f3f5fba8fa5d0ec3", "is_disabled": 0, "lon": -77.02436233333333, "fusion_lon": 0.0, "rental_uris": {"ios": "https://dc.lft.to/lastmile_qr_scan", "android": "https://dc.lft.to/lastmile_qr_scan"}, "lat": 38.922994833333334, "bike_id": "4651f45f35bd2f31f3f5fba8fa5d0ec3", "is_reserved": 0}, {"fusion_lat": 0.0, "type": "electric_scooter", "name": "78ac48bd3bf8f90ec17f9134f4692845", "is_disabled": 0, "lon": -77.03265016666667, "fusion_lon": 0.0, "rental_uris": {"ios": "https://dc.lft.to/lastmile_qr_scan", "android": "https://dc.lft.to/lastmile_qr_scan"}, "lat": 38.935234, "bike_id": "78ac48bd3bf8f90ec17f9134f4692845", "is_reserved": 0}, {"fusion_lat": 0.0, "type": "electric_scooter", "name": "65b28ade2a775c389b32a7cc8bc92f7a", "is_disabled": 0, "lon": -77.00045983333334, "fusion_lon": 0.0, "rental_uris": {"ios": "https://dc.lft.to/lastmile_qr_scan", "android": "https://dc.lft.to/lastmile_qr_scan"}, "lat": 38.874857, "bike_id": "65b28ade2a775c389b32a7cc8bc92f7a", "is_reserved": 0}, {"fusion_lat": 0.0, "type": "electric_scooter", "name": "8d589e8f8a35e90c3640c9e1f58be130", "is_disabled": 0, "lon": -76.93085483333333, "fusion_lon": 0.0, "rental_uris": {"ios": "https://dc.lft.to/lastmile_qr_scan", "android": "https://dc.lft.to/lastmile_qr_scan"}, "lat": 38.89558483333333, "bike_id": "8d589e8f8a35e90c3640c9e1f58be130", "is_reserved": 0}, {"fusion_lat": 0.0, "type": "electric_scooter", "name": "15eae402b81b63e418eebd68bc7f322e", "is_disabled": 0, "lon": -77.01660316666667, "fusion_lon": 0.0, "rental_uris": {"ios": "https://dc.lft.to/lastmile_qr_scan", "android": "https://dc.lft.to/lastmile_qr_scan"}, "lat": 38.94205933333333, "bike_id": "15eae402b81b63e418eebd68bc7f322e", "is_reserved": 0}, {"fusion_lat": 0.0, "type": "electric_scooter", "name": "0a28a7ae2e8bec07d77ebe2b6c3897fc", "is_disabled": 0, "lon": -77.03867866666667, "fusion_lon": 0.0, "rental_uris": {"ios": "https://dc.lft.to/lastmile_qr_scan", "android": "https://dc.lft.to/lastmile_qr_scan"}, "lat": 38.909828166666664, "bike_id": "0a28a7ae2e8bec07d77ebe2b6c3897fc", "is_reserved": 0}, {"fusion_lat": 0.0, "type": "electric_scooter", "name": "81c137f159c9ea1696270bfa0eb0a525", "is_disabled": 0, "lon": -77.0185025, "fusion_lon": 0.0, "rental_uris": {"ios": "https://dc.lft.to/lastmile_qr_scan", "android": "https://dc.lft.to/lastmile_qr_scan"}, "lat": 38.922641166666665, "bike_id": "81c137f159c9ea1696270bfa0eb0a525", "is_reserved": 0}, {"fusion_lat": 0.0, "type": "electric_scooter", "name": "18885d3b5b90dd22dabc948716103590", "is_disabled": 0, "lon": -77.00799733333334, "fusion_lon": 0.0, "rental_uris": {"ios": "https://dc.lft.to/lastmile_qr_scan", "android": "https://dc.lft.to/lastmile_qr_scan"}, "lat": 38.897176333333334, "bike_id": "18885d3b5b90dd22dabc948716103590", "is_reserved": 0}, {"fusion_lat": 0.0, "type": "electric_scooter", "name": "6cf34b72ce47ca746eff0798cebebb50", "is_disabled": 0, "lon": -77.03989933333334, "fusion_lon": 0.0, "rental_uris": {"ios": "https://dc.lft.to/lastmile_qr_scan", "android": "https://dc.lft.to/lastmile_qr_scan"}, "lat": 38.93402, "bike_id": "6cf34b72ce47ca746eff0798cebebb50", "is_reserved": 0}, {"fusion_lat": 0.0, "type": "electric_scooter", "name": "9a2dd3b0791f87b80775b21b642c943b", "is_disabled": 0, "lon": -77.027703, "fusion_lon": 0.0, "rental_uris": {"ios": "https://dc.lft.to/lastmile_qr_scan", "android": "https://dc.lft.to/lastmile_qr_scan"}, "lat": 38.927685833333335, "bike_id": "9a2dd3b0791f87b80775b21b642c943b", "is_reserved": 0}, {"fusion_lat": 0.0, "type": "electric_scooter", "name": "2d7c1f14435e669539455909d9c0b825", "is_disabled": 0, "lon": -77.04830716666666, "fusion_lon": 0.0, "rental_uris": {"ios": "https://dc.lft.to/lastmile_qr_scan", "android": "https://dc.lft.to/lastmile_qr_scan"}, "lat": 38.900435333333334, "bike_id": "2d7c1f14435e669539455909d9c0b825", "is_reserved": 0}, {"fusion_lat": 0.0, "type": "electric_scooter", "name": "d646fb86b33ec02e514455cd8dc6ae42", "is_disabled": 0, "lon": -77.02885516666667, "fusion_lon": 0.0, "rental_uris": {"ios": "https://dc.lft.to/lastmile_qr_scan", "android": "https://dc.lft.to/lastmile_qr_scan"}, "lat": 38.93156483333333, "bike_id": "d646fb86b33ec02e514455cd8dc6ae42", "is_reserved": 0}, {"fusion_lat": 0.0, "type": "electric_scooter", "name": "c25c099c83c3511192a666922eaed239", "is_disabled": 0, "lon": -77.026, "fusion_lon": 0.0, "rental_uris": {"ios": "https://dc.lft.to/lastmile_qr_scan", "android": "https://dc.lft.to/lastmile_qr_scan"}, "lat": 38.91694716666667, "bike_id": "c25c099c83c3511192a666922eaed239", "is_reserved": 0}, {"fusion_lat": 0.0, "type": "electric_bike", "name": "16adc54dd8ccdfb7279de9ed0eaa676a", "is_disabled": 0, "lon": -76.97969016666667, "fusion_lon": 0.0, "rental_uris": {"ios": "https://dc.lft.to/lastmile_qr_scan", "android": "https://dc.lft.to/lastmile_qr_scan"}, "lat": 38.9204895, "bike_id": "16adc54dd8ccdfb7279de9ed0eaa676a", "is_reserved": 0}, {"fusion_lat": 0.0, "type": "electric_bike", "name": "d9127b0a682ebd7a3b86f794832c332b", "is_disabled": 0, "lon": -77.02841383333333, "fusion_lon": 0.0, "rental_uris": {"ios": "https://dc.lft.to/lastmile_qr_scan", "android": "https://dc.lft.to/lastmile_qr_scan"}, "lat": 38.926413, "bike_id": "d9127b0a682ebd7a3b86f794832c332b", "is_reserved": 0}, {"fusion_lat": 0.0, "type": "electric_scooter", "name": "e7b13541d3e6abe2e43b89d988a727f6", "is_disabled": 0, "lon": -77.00057766666667, "fusion_lon": 0.0, "rental_uris": {"ios": "https://dc.lft.to/lastmile_qr_scan", "android": "https://dc.lft.to/lastmile_qr_scan"}, "lat": 38.9071875, "bike_id": "e7b13541d3e6abe2e43b89d988a727f6", "is_reserved": 0}, {"fusion_lat": 0.0, "type": "electric_bike", "name": "ced7698cec8754e8781086c3750ca73e", "is_disabled": 0, "lon": -76.98059683333334, "fusion_lon": 0.0, "rental_uris": {"ios": "https://dc.lft.to/lastmile_qr_scan", "android": "https://dc.lft.to/lastmile_qr_scan"}, "lat": 38.97253033333333, "bike_id": "ced7698cec8754e8781086c3750ca73e", "is_reserved": 0}, {"fusion_lat": 0.0, "type": "electric_scooter", "name": "f4b83bed3f890ca3caa4bbef8e78d4f0", "is_disabled": 0, "lon": -77.02701683333333, "fusion_lon": 0.0, "rental_uris": {"ios": "https://dc.lft.to/lastmile_qr_scan", "android": "https://dc.lft.to/lastmile_qr_scan"}, "lat": 38.94979516666667, "bike_id": "f4b83bed3f890ca3caa4bbef8e78d4f0", "is_reserved": 0}, {"fusion_lat": 0.0, "type": "electric_scooter", "name": "07139ac6f7cffa42df98c5f95e86844b", "is_disabled": 0, "lon": -77.02080183333334, "fusion_lon": 0.0, "rental_uris": {"ios": "https://dc.lft.to/lastmile_qr_scan", "android": "https://dc.lft.to/lastmile_qr_scan"}, "lat": 38.8850345, "bike_id": "07139ac6f7cffa42df98c5f95e86844b", "is_reserved": 0}, {"fusion_lat": 0.0, "type": "electric_scooter", "name": "f3770a9031c1873695b49b051b3b478d", "is_disabled": 0, "lon": -77.04554383333333, "fusion_lon": 0.0, "rental_uris": {"ios": "https://dc.lft.to/lastmile_qr_scan", "android": "https://dc.lft.to/lastmile_qr_scan"}, "lat": 38.91365166666667, "bike_id": "f3770a9031c1873695b49b051b3b478d", "is_reserved": 0}, {"fusion_lat": 0.0, "type": "electric_scooter", "name": "4949299bbc9449c6b63251e6cdb8cc8a", "is_disabled": 0, "lon": -77.01955383333333, "fusion_lon": 0.0, "rental_uris": {"ios": "https://dc.lft.to/lastmile_qr_scan", "android": "https://dc.lft.to/lastmile_qr_scan"}, "lat": 38.9232625, "bike_id": "4949299bbc9449c6b63251e6cdb8cc8a", "is_reserved": 0}, {"fusion_lat": 0.0, "type": "electric_scooter", "name": "d84b84e0e9cf7b0db3a17c96ac681f91", "is_disabled": 0, "lon": -76.99547633333333, "fusion_lon": 0.0, "rental_uris": {"ios": "https://dc.lft.to/lastmile_qr_scan", "android": "https://dc.lft.to/lastmile_qr_scan"}, "lat": 38.90017366666667, "bike_id": "d84b84e0e9cf7b0db3a17c96ac681f91", "is_reserved": 0}, {"fusion_lat": 0.0, "type": "electric_scooter", "name": "f4d4785e3ed6b36c34647d873c10b385", "is_disabled": 0, "lon": -77.01772483333333, "fusion_lon": 0.0, "rental_uris": {"ios": "https://dc.lft.to/lastmile_qr_scan", "android": "https://dc.lft.to/lastmile_qr_scan"}, "lat": 38.919897666666664, "bike_id": "f4d4785e3ed6b36c34647d873c10b385", "is_reserved": 0}, {"fusion_lat": 0.0, "type": "electric_scooter", "name": "ff74ead7afa7e52b7c356cb1db9ea9d3", "is_disabled": 0, "lon": -77.046449, "fusion_lon": 0.0, "rental_uris": {"ios": "https://dc.lft.to/lastmile_qr_scan", "android": "https://dc.lft.to/lastmile_qr_scan"}, "lat": 38.89739133333333, "bike_id": "ff74ead7afa7e52b7c356cb1db9ea9d3", "is_reserved": 0}, {"fusion_lat": 0.0, "type": "electric_scooter", "name": "8e96ecaab6f481224e6e183f40e690a4", "is_disabled": 0, "lon": -76.93448983333333, "fusion_lon": 0.0, "rental_uris": {"ios": "https://dc.lft.to/lastmile_qr_scan", "android": "https://dc.lft.to/lastmile_qr_scan"}, "lat": 38.90844283333333, "bike_id": "8e96ecaab6f481224e6e183f40e690a4", "is_reserved": 0}, {"fusion_lat": 0.0, "type": "electric_scooter", "name": "5ddd36f014d670f5ef5be5df022b614d", "is_disabled": 0, "lon": -77.02029033333334, "fusion_lon": 0.0, "rental_uris": {"ios": "https://dc.lft.to/lastmile_qr_scan", "android": "https://dc.lft.to/lastmile_qr_scan"}, "lat": 38.93407216666667, "bike_id": "5ddd36f014d670f5ef5be5df022b614d", "is_reserved": 0}, {"fusion_lat": 0.0, "type": "electric_scooter", "name": "0a511b90c95651b5aff1e3c822d47ae8", "is_disabled": 0, "lon": -77.0259195, "fusion_lon": 0.0, "rental_uris": {"ios": "https://dc.lft.to/lastmile_qr_scan", "android": "https://dc.lft.to/lastmile_qr_scan"}, "lat": 38.90414483333333, "bike_id": "0a511b90c95651b5aff1e3c822d47ae8", "is_reserved": 0}, {"fusion_lat": 0.0, "type": "electric_scooter", "name": "32156bb3c77246e09a544ba0ce07b10f", "is_disabled": 0, "lon": -77.04684633333333, "fusion_lon": 0.0, "rental_uris": {"ios": "https://dc.lft.to/lastmile_qr_scan", "android": "https://dc.lft.to/lastmile_qr_scan"}, "lat": 38.89956683333333, "bike_id": "32156bb3c77246e09a544ba0ce07b10f", "is_reserved": 0}, {"fusion_lat": 0.0, "type": "electric_bike", "name": "ab831e25720517f375ec218cb2944577", "is_disabled": 0, "lon": -77.00409866666666, "fusion_lon": 0.0, "rental_uris": {"ios": "https://dc.lft.to/lastmile_qr_scan", "android": "https://dc.lft.to/lastmile_qr_scan"}, "lat": 38.9852495, "bike_id": "ab831e25720517f375ec218cb2944577", "is_reserved": 0}, {"fusion_lat": 0.0, "type": "electric_scooter", "name": "9709257201b4f68b9722095c70a47e10", "is_disabled": 0, "lon": -77.00016183333334, "fusion_lon": 0.0, "rental_uris": {"ios": "https://dc.lft.to/lastmile_qr_scan", "android": "https://dc.lft.to/lastmile_qr_scan"}, "lat": 38.900144, "bike_id": "9709257201b4f68b9722095c70a47e10", "is_reserved": 0}, {"fusion_lat": 0.0, "type": "electric_scooter", "name": "dbff46aeefafe683e857a9263161d1d3", "is_disabled": 0, "lon": -77.01639833333333, "fusion_lon": 0.0, "rental_uris": {"ios": "https://dc.lft.to/lastmile_qr_scan", "android": "https://dc.lft.to/lastmile_qr_scan"}, "lat": 38.90051883333334, "bike_id": "dbff46aeefafe683e857a9263161d1d3", "is_reserved": 0}, {"fusion_lat": 0.0, "type": "electric_scooter", "name": "646b7b9e5beea766187febd6317d7abe", "is_disabled": 0, "lon": -77.05318033333333, "fusion_lon": 0.0, "rental_uris": {"ios": "https://dc.lft.to/lastmile_qr_scan", "android": "https://dc.lft.to/lastmile_qr_scan"}, "lat": 38.9255365, "bike_id": "646b7b9e5beea766187febd6317d7abe", "is_reserved": 0}, {"fusion_lat": 0.0, "type": "electric_scooter", "name": "978356775492dfa7380b882c3c9e3370", "is_disabled": 0, "lon": -77.027258, "fusion_lon": 0.0, "rental_uris": {"ios": "https://dc.lft.to/lastmile_qr_scan", "android": "https://dc.lft.to/lastmile_qr_scan"}, "lat": 38.93374383333333, "bike_id": "978356775492dfa7380b882c3c9e3370", "is_reserved": 0}, {"fusion_lat": 0.0, "type": "electric_scooter", "name": "617acb3208a7bb2aafeadf8e3fb97e0c", "is_disabled": 0, "lon": -77.04182116666667, "fusion_lon": 0.0, "rental_uris": {"ios": "https://dc.lft.to/lastmile_qr_scan", "android": "https://dc.lft.to/lastmile_qr_scan"}, "lat": 38.9057965, "bike_id": "617acb3208a7bb2aafeadf8e3fb97e0c", "is_reserved": 0}, {"fusion_lat": 0.0, "type": "electric_scooter", "name": "29062410bb20b4a8138a43fed5015ae8", "is_disabled": 0, "lon": -76.97964183333333, "fusion_lon": 0.0, "rental_uris": {"ios": "https://dc.lft.to/lastmile_qr_scan", "android": "https://dc.lft.to/lastmile_qr_scan"}, "lat": 38.897902, "bike_id": "29062410bb20b4a8138a43fed5015ae8", "is_reserved": 0}, {"fusion_lat": 0.0, "type": "electric_scooter", "name": "8b035be86e8ea53e89995182c49e07d4", "is_disabled": 0, "lon": -77.00015866666666, "fusion_lon": 0.0, "rental_uris": {"ios": "https://dc.lft.to/lastmile_qr_scan", "android": "https://dc.lft.to/lastmile_qr_scan"}, "lat": 38.873888666666666, "bike_id": "8b035be86e8ea53e89995182c49e07d4", "is_reserved": 0}, {"fusion_lat": 0.0, "type": "electric_bike", "name": "a041c4597d25fbf8ca1e069655f66155", "is_disabled": 0, "lon": -76.95251, "fusion_lon": 0.0, "rental_uris": {"ios": "https://dc.lft.to/lastmile_qr_scan", "android": "https://dc.lft.to/lastmile_qr_scan"}, "lat": 38.906986833333335, "bike_id": "a041c4597d25fbf8ca1e069655f66155", "is_reserved": 0}, {"fusion_lat": 0.0, "type": "electric_scooter", "name": "107cc1d64f8a16cb4829d97ec0ee36b7", "is_disabled": 0, "lon": -77.0446095, "fusion_lon": 0.0, "rental_uris": {"ios": "https://dc.lft.to/lastmile_qr_scan", "android": "https://dc.lft.to/lastmile_qr_scan"}, "lat": 38.902835333333336, "bike_id": "107cc1d64f8a16cb4829d97ec0ee36b7", "is_reserved": 0}, {"fusion_lat": 0.0, "type": "electric_scooter", "name": "4e65cef335789b3e05946f0596aff05a", "is_disabled": 0, "lon": -77.02321766666667, "fusion_lon": 0.0, "rental_uris": {"ios": "https://dc.lft.to/lastmile_qr_scan", "android": "https://dc.lft.to/lastmile_qr_scan"}, "lat": 38.907274, "bike_id": "4e65cef335789b3e05946f0596aff05a", "is_reserved": 0}, {"fusion_lat": 0.0, "type": "electric_scooter", "name": "c7fb4d9532c386812ce0e78a74c51c6a", "is_disabled": 0, "lon": -77.02722683333333, "fusion_lon": 0.0, "rental_uris": {"ios": "https://dc.lft.to/lastmile_qr_scan", "android": "https://dc.lft.to/lastmile_qr_scan"}, "lat": 38.91806416666667, "bike_id": "c7fb4d9532c386812ce0e78a74c51c6a", "is_reserved": 0}, {"fusion_lat": 0.0, "type": "electric_scooter", "name": "f328eb4d744f9d11c98c407bb547d9c2", "is_disabled": 0, "lon": -76.9880365, "fusion_lon": 0.0, "rental_uris": {"ios": "https://dc.lft.to/lastmile_qr_scan", "android": "https://dc.lft.to/lastmile_qr_scan"}, "lat": 38.89363516666667, "bike_id": "f328eb4d744f9d11c98c407bb547d9c2", "is_reserved": 0}, {"fusion_lat": 0.0, "type": "electric_scooter", "name": "acf6367602082ee9e0f8d17fce9fb584", "is_disabled": 0, "lon": -77.04046933333333, "fusion_lon": 0.0, "rental_uris": {"ios": "https://dc.lft.to/lastmile_qr_scan", "android": "https://dc.lft.to/lastmile_qr_scan"}, "lat": 38.90600716666667, "bike_id": "acf6367602082ee9e0f8d17fce9fb584", "is_reserved": 0}, {"fusion_lat": 0.0, "type": "electric_scooter", "name": "0147b73a1fcdc1cc47f17acc6d2db541", "is_disabled": 0, "lon": -77.04450116666666, "fusion_lon": 0.0, "rental_uris": {"ios": "https://dc.lft.to/lastmile_qr_scan", "android": "https://dc.lft.to/lastmile_qr_scan"}, "lat": 38.918785, "bike_id": "0147b73a1fcdc1cc47f17acc6d2db541", "is_reserved": 0}, {"fusion_lat": 0.0, "type": "electric_bike", "name": "40842fcb972516aa0bb62d79933eec36", "is_disabled": 0, "lon": -77.04643383333334, "fusion_lon": 0.0, "rental_uris": {"ios": "https://dc.lft.to/lastmile_qr_scan", "android": "https://dc.lft.to/lastmile_qr_scan"}, "lat": 38.81543083333333, "bike_id": "40842fcb972516aa0bb62d79933eec36", "is_reserved": 0}, {"fusion_lat": 0.0, "type": "electric_scooter", "name": "5f2e21ad9df61c5e29b45d6bfb7192b7", "is_disabled": 0, "lon": -76.983371, "fusion_lon": 0.0, "rental_uris": {"ios": "https://dc.lft.to/lastmile_qr_scan", "android": "https://dc.lft.to/lastmile_qr_scan"}, "lat": 38.895504, "bike_id": "5f2e21ad9df61c5e29b45d6bfb7192b7", "is_reserved": 0}, {"fusion_lat": 0.0, "type": "electric_bike", "name": "b2835c08d3548c38e37077438a855a83", "is_disabled": 0, "lon": -77.12978566666666, "fusion_lon": 0.0, "rental_uris": {"ios": "https://dc.lft.to/lastmile_qr_scan", "android": "https://dc.lft.to/lastmile_qr_scan"}, "lat": 38.799832333333335, "bike_id": "b2835c08d3548c38e37077438a855a83", "is_reserved": 0}, {"fusion_lat": 0.0, "type": "electric_scooter", "name": "c804cc4784d486a542bae8b0e76a372e", "is_disabled": 0, "lon": -77.02635116666667, "fusion_lon": 0.0, "rental_uris": {"ios": "https://dc.lft.to/lastmile_qr_scan", "android": "https://dc.lft.to/lastmile_qr_scan"}, "lat": 38.902429166666664, "bike_id": "c804cc4784d486a542bae8b0e76a372e", "is_reserved": 0}, {"fusion_lat": 0.0, "type": "electric_scooter", "name": "c9c64113cf19acd99c242e654bc533ee", "is_disabled": 0, "lon": -76.98127833333334, "fusion_lon": 0.0, "rental_uris": {"ios": "https://dc.lft.to/lastmile_qr_scan", "android": "https://dc.lft.to/lastmile_qr_scan"}, "lat": 38.91477716666667, "bike_id": "c9c64113cf19acd99c242e654bc533ee", "is_reserved": 0}, {"fusion_lat": 0.0, "type": "electric_scooter", "name": "0102713c097833023586eb71b502a3d0", "is_disabled": 0, "lon": -77.04657183333333, "fusion_lon": 0.0, "rental_uris": {"ios": "https://dc.lft.to/lastmile_qr_scan", "android": "https://dc.lft.to/lastmile_qr_scan"}, "lat": 38.9094785, "bike_id": "0102713c097833023586eb71b502a3d0", "is_reserved": 0}, {"fusion_lat": 0.0, "type": "electric_scooter", "name": "576d7e1d606e05fd4b3976f04783d12a", "is_disabled": 0, "lon": -77.026591, "fusion_lon": 0.0, "rental_uris": {"ios": "https://dc.lft.to/lastmile_qr_scan", "android": "https://dc.lft.to/lastmile_qr_scan"}, "lat": 38.92378766666667, "bike_id": "576d7e1d606e05fd4b3976f04783d12a", "is_reserved": 0}, {"fusion_lat": 0.0, "type": "electric_bike", "name": "36d71cb0c4712f16d5829fa066cf2c14", "is_disabled": 0, "lon": -76.98974933333334, "fusion_lon": 0.0, "rental_uris": {"ios": "https://dc.lft.to/lastmile_qr_scan", "android": "https://dc.lft.to/lastmile_qr_scan"}, "lat": 38.93721933333333, "bike_id": "36d71cb0c4712f16d5829fa066cf2c14", "is_reserved": 0}, {"fusion_lat": 0.0, "type": "electric_scooter", "name": "445853e5b565a780446bb20a6dc13157", "is_disabled": 0, "lon": -77.04509066666667, "fusion_lon": 0.0, "rental_uris": {"ios": "https://dc.lft.to/lastmile_qr_scan", "android": "https://dc.lft.to/lastmile_qr_scan"}, "lat": 38.892174, "bike_id": "445853e5b565a780446bb20a6dc13157", "is_reserved": 0}, {"fusion_lat": 0.0, "type": "electric_bike", "name": "150fcbc4dac7833cd6abe2adc41bc480", "is_disabled": 0, "lon": -77.0653415, "fusion_lon": 0.0, "rental_uris": {"ios": "https://dc.lft.to/lastmile_qr_scan", "android": "https://dc.lft.to/lastmile_qr_scan"}, "lat": 38.99228733333333, "bike_id": "150fcbc4dac7833cd6abe2adc41bc480", "is_reserved": 0}, {"fusion_lat": 0.0, "type": "electric_bike", "name": "7d74951cab1110cff710c39cec54449d", "is_disabled": 0, "lon": -77.02957416666666, "fusion_lon": 0.0, "rental_uris": {"ios": "https://dc.lft.to/lastmile_qr_scan", "android": "https://dc.lft.to/lastmile_qr_scan"}, "lat": 38.926727166666666, "bike_id": "7d74951cab1110cff710c39cec54449d", "is_reserved": 0}, {"fusion_lat": 0.0, "type": "electric_scooter", "name": "4dcb94fbdc5d7d28ed893aa9c8119cf9", "is_disabled": 0, "lon": -77.015771, "fusion_lon": 0.0, "rental_uris": {"ios": "https://dc.lft.to/lastmile_qr_scan", "android": "https://dc.lft.to/lastmile_qr_scan"}, "lat": 38.8764525, "bike_id": "4dcb94fbdc5d7d28ed893aa9c8119cf9", "is_reserved": 0}, {"fusion_lat": 0.0, "type": "electric_scooter", "name": "5cac56e6272d9f2c71b4fdac33d92195", "is_disabled": 0, "lon": -77.0368455, "fusion_lon": 0.0, "rental_uris": {"ios": "https://dc.lft.to/lastmile_qr_scan", "android": "https://dc.lft.to/lastmile_qr_scan"}, "lat": 38.9393725, "bike_id": "5cac56e6272d9f2c71b4fdac33d92195", "is_reserved": 0}, {"fusion_lat": 0.0, "type": "electric_scooter", "name": "bc7294dd2b2ef49c6b2afc424f976840", "is_disabled": 0, "lon": -77.02609233333334, "fusion_lon": 0.0, "rental_uris": {"ios": "https://dc.lft.to/lastmile_qr_scan", "android": "https://dc.lft.to/lastmile_qr_scan"}, "lat": 38.904078, "bike_id": "bc7294dd2b2ef49c6b2afc424f976840", "is_reserved": 0}, {"fusion_lat": 0.0, "type": "electric_scooter", "name": "b352d89dd4e134269c1fe293b65b8af4", "is_disabled": 0, "lon": -77.0223955, "fusion_lon": 0.0, "rental_uris": {"ios": "https://dc.lft.to/lastmile_qr_scan", "android": "https://dc.lft.to/lastmile_qr_scan"}, "lat": 38.89968783333333, "bike_id": "b352d89dd4e134269c1fe293b65b8af4", "is_reserved": 0}, {"fusion_lat": 0.0, "type": "electric_scooter", "name": "48fc8b192f3543a6e2fa9b093a824a5b", "is_disabled": 0, "lon": -77.04008566666667, "fusion_lon": 0.0, "rental_uris": {"ios": "https://dc.lft.to/lastmile_qr_scan", "android": "https://dc.lft.to/lastmile_qr_scan"}, "lat": 38.910002666666664, "bike_id": "48fc8b192f3543a6e2fa9b093a824a5b", "is_reserved": 0}, {"fusion_lat": 0.0, "type": "electric_scooter", "name": "e93519f882c276f712f1bdca34f1708d", "is_disabled": 0, "lon": -77.03859183333333, "fusion_lon": 0.0, "rental_uris": {"ios": "https://dc.lft.to/lastmile_qr_scan", "android": "https://dc.lft.to/lastmile_qr_scan"}, "lat": 38.912605666666664, "bike_id": "e93519f882c276f712f1bdca34f1708d", "is_reserved": 0}, {"fusion_lat": 0.0, "type": "electric_scooter", "name": "b074e9763ca01a2f72e8e42b81ca9575", "is_disabled": 0, "lon": -77.0215145, "fusion_lon": 0.0, "rental_uris": {"ios": "https://dc.lft.to/lastmile_qr_scan", "android": "https://dc.lft.to/lastmile_qr_scan"}, "lat": 38.887483833333334, "bike_id": "b074e9763ca01a2f72e8e42b81ca9575", "is_reserved": 0}, {"fusion_lat": 0.0, "type": "electric_scooter", "name": "1a9257a2ccff83e9ef4be377d9da0640", "is_disabled": 0, "lon": -76.9950975, "fusion_lon": 0.0, "rental_uris": {"ios": "https://dc.lft.to/lastmile_qr_scan", "android": "https://dc.lft.to/lastmile_qr_scan"}, "lat": 38.86212866666666, "bike_id": "1a9257a2ccff83e9ef4be377d9da0640", "is_reserved": 0}, {"fusion_lat": 0.0, "type": "electric_scooter", "name": "cfaf906e222ea24ffc4c9a2f610ebe58", "is_disabled": 0, "lon": -77.07195283333333, "fusion_lon": 0.0, "rental_uris": {"ios": "https://dc.lft.to/lastmile_qr_scan", "android": "https://dc.lft.to/lastmile_qr_scan"}, "lat": 38.90759716666667, "bike_id": "cfaf906e222ea24ffc4c9a2f610ebe58", "is_reserved": 0}, {"fusion_lat": 0.0, "type": "electric_scooter", "name": "fd9d02d2d43acf788de285760dd2fd60", "is_disabled": 0, "lon": -77.02112166666667, "fusion_lon": 0.0, "rental_uris": {"ios": "https://dc.lft.to/lastmile_qr_scan", "android": "https://dc.lft.to/lastmile_qr_scan"}, "lat": 38.90607883333333, "bike_id": "fd9d02d2d43acf788de285760dd2fd60", "is_reserved": 0}, {"fusion_lat": 0.0, "type": "electric_scooter", "name": "24d60ff09edcb0f5bb20a68f9e3fc54c", "is_disabled": 0, "lon": -77.02052966666666, "fusion_lon": 0.0, "rental_uris": {"ios": "https://dc.lft.to/lastmile_qr_scan", "android": "https://dc.lft.to/lastmile_qr_scan"}, "lat": 38.921778833333335, "bike_id": "24d60ff09edcb0f5bb20a68f9e3fc54c", "is_reserved": 0}, {"fusion_lat": 0.0, "type": "electric_scooter", "name": "128a4d58845899e8065823a297175e6c", "is_disabled": 0, "lon": -77.03453716666667, "fusion_lon": 0.0, "rental_uris": {"ios": "https://dc.lft.to/lastmile_qr_scan", "android": "https://dc.lft.to/lastmile_qr_scan"}, "lat": 38.9028675, "bike_id": "128a4d58845899e8065823a297175e6c", "is_reserved": 0}, {"fusion_lat": 0.0, "type": "electric_bike", "name": "7ed065f9ca6b73e26d7d884c20f5a72b", "is_disabled": 0, "lon": -77.0325845, "fusion_lon": 0.0, "rental_uris": {"ios": "https://dc.lft.to/lastmile_qr_scan", "android": "https://dc.lft.to/lastmile_qr_scan"}, "lat": 38.93519666666667, "bike_id": "7ed065f9ca6b73e26d7d884c20f5a72b", "is_reserved": 0}, {"fusion_lat": 0.0, "type": "electric_scooter", "name": "61f9d8dc869411af9863657a47aa7920", "is_disabled": 0, "lon": -77.04387916666667, "fusion_lon": 0.0, "rental_uris": {"ios": "https://dc.lft.to/lastmile_qr_scan", "android": "https://dc.lft.to/lastmile_qr_scan"}, "lat": 38.901466166666665, "bike_id": "61f9d8dc869411af9863657a47aa7920", "is_reserved": 0}, {"fusion_lat": 0.0, "type": "electric_scooter", "name": "ec3f4c723c2436d2b6cf8451e37fee35", "is_disabled": 0, "lon": -77.02000633333333, "fusion_lon": 0.0, "rental_uris": {"ios": "https://dc.lft.to/lastmile_qr_scan", "android": "https://dc.lft.to/lastmile_qr_scan"}, "lat": 38.8983875, "bike_id": "ec3f4c723c2436d2b6cf8451e37fee35", "is_reserved": 0}, {"fusion_lat": 0.0, "type": "electric_scooter", "name": "bca94df73600043a60dc2e6fe29cdc9d", "is_disabled": 0, "lon": -77.00377866666666, "fusion_lon": 0.0, "rental_uris": {"ios": "https://dc.lft.to/lastmile_qr_scan", "android": "https://dc.lft.to/lastmile_qr_scan"}, "lat": 38.89743516666667, "bike_id": "bca94df73600043a60dc2e6fe29cdc9d", "is_reserved": 0}, {"fusion_lat": 0.0, "type": "electric_scooter", "name": "09e3aa11a83692f100ce12b9aaed43ae", "is_disabled": 0, "lon": -77.04871616666667, "fusion_lon": 0.0, "rental_uris": {"ios": "https://dc.lft.to/lastmile_qr_scan", "android": "https://dc.lft.to/lastmile_qr_scan"}, "lat": 38.900785, "bike_id": "09e3aa11a83692f100ce12b9aaed43ae", "is_reserved": 0}, {"fusion_lat": 0.0, "type": "electric_scooter", "name": "ed0d02407adbb51dd35f799f164f3f11", "is_disabled": 0, "lon": -77.04129833333333, "fusion_lon": 0.0, "rental_uris": {"ios": "https://dc.lft.to/lastmile_qr_scan", "android": "https://dc.lft.to/lastmile_qr_scan"}, "lat": 38.911888833333336, "bike_id": "ed0d02407adbb51dd35f799f164f3f11", "is_reserved": 0}, {"fusion_lat": 0.0, "type": "electric_scooter", "name": "cf4175fcdf933640baf4f3811bbc37bb", "is_disabled": 0, "lon": -77.04518116666667, "fusion_lon": 0.0, "rental_uris": {"ios": "https://dc.lft.to/lastmile_qr_scan", "android": "https://dc.lft.to/lastmile_qr_scan"}, "lat": 38.899624833333334, "bike_id": "cf4175fcdf933640baf4f3811bbc37bb", "is_reserved": 0}, {"fusion_lat": 0.0, "type": "electric_scooter", "name": "63fec7f7fdb293c59a4a38ffd3b770fc", "is_disabled": 0, "lon": -77.02356083333333, "fusion_lon": 0.0, "rental_uris": {"ios": "https://dc.lft.to/lastmile_qr_scan", "android": "https://dc.lft.to/lastmile_qr_scan"}, "lat": 38.942008333333334, "bike_id": "63fec7f7fdb293c59a4a38ffd3b770fc", "is_reserved": 0}, {"fusion_lat": 0.0, "type": "electric_scooter", "name": "8121ae68c92711f23a49a46f2f3c6350", "is_disabled": 0, "lon": -77.06618616666667, "fusion_lon": 0.0, "rental_uris": {"ios": "https://dc.lft.to/lastmile_qr_scan", "android": "https://dc.lft.to/lastmile_qr_scan"}, "lat": 38.913652, "bike_id": "8121ae68c92711f23a49a46f2f3c6350", "is_reserved": 0}, {"fusion_lat": 0.0, "type": "electric_scooter", "name": "deffaf4285b5067226c562af6c8ed046", "is_disabled": 0, "lon": -76.99844033333333, "fusion_lon": 0.0, "rental_uris": {"ios": "https://dc.lft.to/lastmile_qr_scan", "android": "https://dc.lft.to/lastmile_qr_scan"}, "lat": 38.900799166666665, "bike_id": "deffaf4285b5067226c562af6c8ed046", "is_reserved": 0}, {"fusion_lat": 0.0, "type": "electric_scooter", "name": "b68ee0983a4ffb3ef7e59bb558a5e5aa", "is_disabled": 0, "lon": -76.98375566666667, "fusion_lon": 0.0, "rental_uris": {"ios": "https://dc.lft.to/lastmile_qr_scan", "android": "https://dc.lft.to/lastmile_qr_scan"}, "lat": 38.89265133333333, "bike_id": "b68ee0983a4ffb3ef7e59bb558a5e5aa", "is_reserved": 0}, {"fusion_lat": 0.0, "type": "electric_scooter", "name": "47c96482b4f040042eb846dcd4eb4970", "is_disabled": 0, "lon": -76.99017016666667, "fusion_lon": 0.0, "rental_uris": {"ios": "https://dc.lft.to/lastmile_qr_scan", "android": "https://dc.lft.to/lastmile_qr_scan"}, "lat": 38.88272, "bike_id": "47c96482b4f040042eb846dcd4eb4970", "is_reserved": 0}, {"fusion_lat": 0.0, "type": "electric_scooter", "name": "9dc8ab8cd9503d10f5f72ec91868219b", "is_disabled": 0, "lon": -77.06366816666667, "fusion_lon": 0.0, "rental_uris": {"ios": "https://dc.lft.to/lastmile_qr_scan", "android": "https://dc.lft.to/lastmile_qr_scan"}, "lat": 38.92016616666667, "bike_id": "9dc8ab8cd9503d10f5f72ec91868219b", "is_reserved": 0}, {"fusion_lat": 0.0, "type": "electric_scooter", "name": "7bfa3b5797b741e5c7f53a5105df4dbd", "is_disabled": 0, "lon": -76.92899333333334, "fusion_lon": 0.0, "rental_uris": {"ios": "https://dc.lft.to/lastmile_qr_scan", "android": "https://dc.lft.to/lastmile_qr_scan"}, "lat": 38.87944, "bike_id": "7bfa3b5797b741e5c7f53a5105df4dbd", "is_reserved": 0}, {"fusion_lat": 0.0, "type": "electric_scooter", "name": "2b13c698b6bf442a7907b32746065b03", "is_disabled": 0, "lon": -76.9984145, "fusion_lon": 0.0, "rental_uris": {"ios": "https://dc.lft.to/lastmile_qr_scan", "android": "https://dc.lft.to/lastmile_qr_scan"}, "lat": 38.90063383333333, "bike_id": "2b13c698b6bf442a7907b32746065b03", "is_reserved": 0}, {"fusion_lat": 0.0, "type": "electric_scooter", "name": "1fe2004ba7fcac966a97a004d7e3c053", "is_disabled": 0, "lon": -77.042153, "fusion_lon": 0.0, "rental_uris": {"ios": "https://dc.lft.to/lastmile_qr_scan", "android": "https://dc.lft.to/lastmile_qr_scan"}, "lat": 38.9092785, "bike_id": "1fe2004ba7fcac966a97a004d7e3c053", "is_reserved": 0}, {"fusion_lat": 0.0, "type": "electric_bike", "name": "7ac508995dbc7773d5bdc89aa8fb4332", "is_disabled": 0, "lon": -77.12842383333333, "fusion_lon": 0.0, "rental_uris": {"ios": "https://dc.lft.to/lastmile_qr_scan", "android": "https://dc.lft.to/lastmile_qr_scan"}, "lat": 38.80052766666667, "bike_id": "7ac508995dbc7773d5bdc89aa8fb4332", "is_reserved": 0}, {"fusion_lat": 0.0, "type": "electric_scooter", "name": "98938509a15fb0256c7ecb14978267ab", "is_disabled": 0, "lon": -77.00062966666667, "fusion_lon": 0.0, "rental_uris": {"ios": "https://dc.lft.to/lastmile_qr_scan", "android": "https://dc.lft.to/lastmile_qr_scan"}, "lat": 38.87444, "bike_id": "98938509a15fb0256c7ecb14978267ab", "is_reserved": 0}, {"fusion_lat": 0.0, "type": "electric_scooter", "name": "6852d5676e4d4cfcec29f3df442d6875", "is_disabled": 0, "lon": -77.02669916666666, "fusion_lon": 0.0, "rental_uris": {"ios": "https://dc.lft.to/lastmile_qr_scan", "android": "https://dc.lft.to/lastmile_qr_scan"}, "lat": 38.922332, "bike_id": "6852d5676e4d4cfcec29f3df442d6875", "is_reserved": 0}, {"fusion_lat": 0.0, "type": "electric_scooter", "name": "cd4bccbe2c96e81fc9157026429da3d5", "is_disabled": 0, "lon": -77.00166783333333, "fusion_lon": 0.0, "rental_uris": {"ios": "https://dc.lft.to/lastmile_qr_scan", "android": "https://dc.lft.to/lastmile_qr_scan"}, "lat": 38.9191405, "bike_id": "cd4bccbe2c96e81fc9157026429da3d5", "is_reserved": 0}, {"fusion_lat": 0.0, "type": "electric_scooter", "name": "85cdd861fe8c9b9d8770c9dadbe30628", "is_disabled": 0, "lon": -77.00368766666666, "fusion_lon": 0.0, "rental_uris": {"ios": "https://dc.lft.to/lastmile_qr_scan", "android": "https://dc.lft.to/lastmile_qr_scan"}, "lat": 38.897377166666665, "bike_id": "85cdd861fe8c9b9d8770c9dadbe30628", "is_reserved": 0}, {"fusion_lat": 0.0, "type": "electric_scooter", "name": "2e21b30a1a3c9f5ad667b88dc2ef34d8", "is_disabled": 0, "lon": -77.019981, "fusion_lon": 0.0, "rental_uris": {"ios": "https://dc.lft.to/lastmile_qr_scan", "android": "https://dc.lft.to/lastmile_qr_scan"}, "lat": 38.8760615, "bike_id": "2e21b30a1a3c9f5ad667b88dc2ef34d8", "is_reserved": 0}, {"fusion_lat": 0.0, "type": "electric_scooter", "name": "79b71b0856dd9107449daf55b2f739ef", "is_disabled": 0, "lon": -77.03774633333333, "fusion_lon": 0.0, "rental_uris": {"ios": "https://dc.lft.to/lastmile_qr_scan", "android": "https://dc.lft.to/lastmile_qr_scan"}, "lat": 38.9254045, "bike_id": "79b71b0856dd9107449daf55b2f739ef", "is_reserved": 0}, {"fusion_lat": 0.0, "type": "electric_scooter", "name": "2c640626ffa2590e488c6e4794e20c1c", "is_disabled": 0, "lon": -77.02976666666666, "fusion_lon": 0.0, "rental_uris": {"ios": "https://dc.lft.to/lastmile_qr_scan", "android": "https://dc.lft.to/lastmile_qr_scan"}, "lat": 38.9072865, "bike_id": "2c640626ffa2590e488c6e4794e20c1c", "is_reserved": 0}, {"fusion_lat": 0.0, "type": "electric_scooter", "name": "bf13b69a71a4ca801c65663f8cca6312", "is_disabled": 0, "lon": -77.02690883333334, "fusion_lon": 0.0, "rental_uris": {"ios": "https://dc.lft.to/lastmile_qr_scan", "android": "https://dc.lft.to/lastmile_qr_scan"}, "lat": 38.92444533333333, "bike_id": "bf13b69a71a4ca801c65663f8cca6312", "is_reserved": 0}, {"fusion_lat": 0.0, "type": "electric_bike", "name": "094f2522fb213d96d3c1ab14735f4f8e", "is_disabled": 0, "lon": -77.02418933333334, "fusion_lon": 0.0, "rental_uris": {"ios": "https://dc.lft.to/lastmile_qr_scan", "android": "https://dc.lft.to/lastmile_qr_scan"}, "lat": 38.93717383333333, "bike_id": "094f2522fb213d96d3c1ab14735f4f8e", "is_reserved": 0}, {"fusion_lat": 0.0, "type": "electric_scooter", "name": "25b204a30420a9722b77382d61473bf8", "is_disabled": 0, "lon": -77.03041433333334, "fusion_lon": 0.0, "rental_uris": {"ios": "https://dc.lft.to/lastmile_qr_scan", "android": "https://dc.lft.to/lastmile_qr_scan"}, "lat": 38.902654166666665, "bike_id": "25b204a30420a9722b77382d61473bf8", "is_reserved": 0}, {"fusion_lat": 0.0, "type": "electric_scooter", "name": "f86fb33c3d3ce11f5a7bd117e55dbe0a", "is_disabled": 0, "lon": -77.04437683333333, "fusion_lon": 0.0, "rental_uris": {"ios": "https://dc.lft.to/lastmile_qr_scan", "android": "https://dc.lft.to/lastmile_qr_scan"}, "lat": 38.922273833333335, "bike_id": "f86fb33c3d3ce11f5a7bd117e55dbe0a", "is_reserved": 0}, {"fusion_lat": 0.0, "type": "electric_scooter", "name": "1c89e76aaa7d4e6b1c3eaf26ab46e359", "is_disabled": 0, "lon": -77.03185916666666, "fusion_lon": 0.0, "rental_uris": {"ios": "https://dc.lft.to/lastmile_qr_scan", "android": "https://dc.lft.to/lastmile_qr_scan"}, "lat": 38.91826366666667, "bike_id": "1c89e76aaa7d4e6b1c3eaf26ab46e359", "is_reserved": 0}, {"fusion_lat": 0.0, "type": "electric_scooter", "name": "04163351bedb2164a97daddd0c1f0a29", "is_disabled": 0, "lon": -77.02006283333333, "fusion_lon": 0.0, "rental_uris": {"ios": "https://dc.lft.to/lastmile_qr_scan", "android": "https://dc.lft.to/lastmile_qr_scan"}, "lat": 38.90737933333333, "bike_id": "04163351bedb2164a97daddd0c1f0a29", "is_reserved": 0}, {"fusion_lat": 0.0, "type": "electric_scooter", "name": "441020f99a7c084468399cd9f4ac7de7", "is_disabled": 0, "lon": -77.008058, "fusion_lon": 0.0, "rental_uris": {"ios": "https://dc.lft.to/lastmile_qr_scan", "android": "https://dc.lft.to/lastmile_qr_scan"}, "lat": 38.9267055, "bike_id": "441020f99a7c084468399cd9f4ac7de7", "is_reserved": 0}, {"fusion_lat": 0.0, "type": "electric_scooter", "name": "0e669a7de6961b81cf526872a4dfc7b4", "is_disabled": 0, "lon": -77.02407466666666, "fusion_lon": 0.0, "rental_uris": {"ios": "https://dc.lft.to/lastmile_qr_scan", "android": "https://dc.lft.to/lastmile_qr_scan"}, "lat": 38.910998, "bike_id": "0e669a7de6961b81cf526872a4dfc7b4", "is_reserved": 0}, {"fusion_lat": 0.0, "type": "electric_scooter", "name": "c08072317d4f15fcf415b442f77de297", "is_disabled": 0, "lon": -77.04353933333333, "fusion_lon": 0.0, "rental_uris": {"ios": "https://dc.lft.to/lastmile_qr_scan", "android": "https://dc.lft.to/lastmile_qr_scan"}, "lat": 38.89622966666667, "bike_id": "c08072317d4f15fcf415b442f77de297", "is_reserved": 0}, {"fusion_lat": 0.0, "type": "electric_scooter", "name": "50396e9c8d542b65c209fb04aae70765", "is_disabled": 0, "lon": -77.03253766666667, "fusion_lon": 0.0, "rental_uris": {"ios": "https://dc.lft.to/lastmile_qr_scan", "android": "https://dc.lft.to/lastmile_qr_scan"}, "lat": 38.939659666666664, "bike_id": "50396e9c8d542b65c209fb04aae70765", "is_reserved": 0}, {"fusion_lat": 0.0, "type": "electric_scooter", "name": "8a5720a5280be575b0e8a981f94e636f", "is_disabled": 0, "lon": -77.03626533333333, "fusion_lon": 0.0, "rental_uris": {"ios": "https://dc.lft.to/lastmile_qr_scan", "android": "https://dc.lft.to/lastmile_qr_scan"}, "lat": 38.93679233333334, "bike_id": "8a5720a5280be575b0e8a981f94e636f", "is_reserved": 0}, {"fusion_lat": 0.0, "type": "electric_scooter", "name": "3e735f40e9318c58c21de890fe908e35", "is_disabled": 0, "lon": -77.01968333333333, "fusion_lon": 0.0, "rental_uris": {"ios": "https://dc.lft.to/lastmile_qr_scan", "android": "https://dc.lft.to/lastmile_qr_scan"}, "lat": 38.92328216666667, "bike_id": "3e735f40e9318c58c21de890fe908e35", "is_reserved": 0}, {"fusion_lat": 0.0, "type": "electric_scooter", "name": "5ddf35e9709e24fa2a4164833de5defa", "is_disabled": 0, "lon": -77.03627083333333, "fusion_lon": 0.0, "rental_uris": {"ios": "https://dc.lft.to/lastmile_qr_scan", "android": "https://dc.lft.to/lastmile_qr_scan"}, "lat": 38.936795333333336, "bike_id": "5ddf35e9709e24fa2a4164833de5defa", "is_reserved": 0}, {"fusion_lat": 0.0, "type": "electric_scooter", "name": "521b477923c6d903bad2edc719aa5398", "is_disabled": 0, "lon": -77.04352433333334, "fusion_lon": 0.0, "rental_uris": {"ios": "https://dc.lft.to/lastmile_qr_scan", "android": "https://dc.lft.to/lastmile_qr_scan"}, "lat": 38.9139285, "bike_id": "521b477923c6d903bad2edc719aa5398", "is_reserved": 0}, {"fusion_lat": 0.0, "type": "electric_scooter", "name": "fcbbb13497f14a2958a9a0b264b82677", "is_disabled": 0, "lon": -77.02397283333333, "fusion_lon": 0.0, "rental_uris": {"ios": "https://dc.lft.to/lastmile_qr_scan", "android": "https://dc.lft.to/lastmile_qr_scan"}, "lat": 38.90968483333333, "bike_id": "fcbbb13497f14a2958a9a0b264b82677", "is_reserved": 0}, {"fusion_lat": 0.0, "type": "electric_scooter", "name": "ed2a34f694508afb7dfd29346ca36c6b", "is_disabled": 0, "lon": -77.03817716666667, "fusion_lon": 0.0, "rental_uris": {"ios": "https://dc.lft.to/lastmile_qr_scan", "android": "https://dc.lft.to/lastmile_qr_scan"}, "lat": 38.906797, "bike_id": "ed2a34f694508afb7dfd29346ca36c6b", "is_reserved": 0}, {"fusion_lat": 0.0, "type": "electric_scooter", "name": "145e83e377cb34041e98ea10c2d70027", "is_disabled": 0, "lon": -77.03542566666667, "fusion_lon": 0.0, "rental_uris": {"ios": "https://dc.lft.to/lastmile_qr_scan", "android": "https://dc.lft.to/lastmile_qr_scan"}, "lat": 38.91708666666667, "bike_id": "145e83e377cb34041e98ea10c2d70027", "is_reserved": 0}, {"fusion_lat": 0.0, "type": "electric_scooter", "name": "d7980c2647691615e4f5cbaddb6b315f", "is_disabled": 0, "lon": -77.0582665, "fusion_lon": 0.0, "rental_uris": {"ios": "https://dc.lft.to/lastmile_qr_scan", "android": "https://dc.lft.to/lastmile_qr_scan"}, "lat": 38.9353165, "bike_id": "d7980c2647691615e4f5cbaddb6b315f", "is_reserved": 0}, {"fusion_lat": 0.0, "type": "electric_scooter", "name": "e68e2b724fa1f905cd26874ce2e77fb3", "is_disabled": 0, "lon": -77.03205066666666, "fusion_lon": 0.0, "rental_uris": {"ios": "https://dc.lft.to/lastmile_qr_scan", "android": "https://dc.lft.to/lastmile_qr_scan"}, "lat": 38.916491666666666, "bike_id": "e68e2b724fa1f905cd26874ce2e77fb3", "is_reserved": 0}, {"fusion_lat": 0.0, "type": "electric_scooter", "name": "8ea2f97e6e662aa9f05cda0ea48cc71a", "is_disabled": 0, "lon": -76.9733165, "fusion_lon": 0.0, "rental_uris": {"ios": "https://dc.lft.to/lastmile_qr_scan", "android": "https://dc.lft.to/lastmile_qr_scan"}, "lat": 38.9041105, "bike_id": "8ea2f97e6e662aa9f05cda0ea48cc71a", "is_reserved": 0}, {"fusion_lat": 0.0, "type": "electric_scooter", "name": "c94a4d88daf802b3cd59881d2b1d39f0", "is_disabled": 0, "lon": -77.023694, "fusion_lon": 0.0, "rental_uris": {"ios": "https://dc.lft.to/lastmile_qr_scan", "android": "https://dc.lft.to/lastmile_qr_scan"}, "lat": 38.90208783333333, "bike_id": "c94a4d88daf802b3cd59881d2b1d39f0", "is_reserved": 0}, {"fusion_lat": 0.0, "type": "electric_scooter", "name": "d1720d6bbb7c208031b27f52d9c00476", "is_disabled": 0, "lon": -77.05335766666667, "fusion_lon": 0.0, "rental_uris": {"ios": "https://dc.lft.to/lastmile_qr_scan", "android": "https://dc.lft.to/lastmile_qr_scan"}, "lat": 38.923272, "bike_id": "d1720d6bbb7c208031b27f52d9c00476", "is_reserved": 0}, {"fusion_lat": 0.0, "type": "electric_scooter", "name": "16dee72d396c2275078672ec52385813", "is_disabled": 0, "lon": -77.04429733333333, "fusion_lon": 0.0, "rental_uris": {"ios": "https://dc.lft.to/lastmile_qr_scan", "android": "https://dc.lft.to/lastmile_qr_scan"}, "lat": 38.8959715, "bike_id": "16dee72d396c2275078672ec52385813", "is_reserved": 0}, {"fusion_lat": 0.0, "type": "electric_bike", "name": "992d872e724bf0f24269c7d9d0f9bbec", "is_disabled": 0, "lon": -77.06958916666666, "fusion_lon": 0.0, "rental_uris": {"ios": "https://dc.lft.to/lastmile_qr_scan", "android": "https://dc.lft.to/lastmile_qr_scan"}, "lat": 38.83627633333333, "bike_id": "992d872e724bf0f24269c7d9d0f9bbec", "is_reserved": 0}, {"fusion_lat": 0.0, "type": "electric_scooter", "name": "a60253b1772a2dd6fd7f0d1894d844ab", "is_disabled": 0, "lon": -77.04505383333333, "fusion_lon": 0.0, "rental_uris": {"ios": "https://dc.lft.to/lastmile_qr_scan", "android": "https://dc.lft.to/lastmile_qr_scan"}, "lat": 38.89223533333333, "bike_id": "a60253b1772a2dd6fd7f0d1894d844ab", "is_reserved": 0}, {"fusion_lat": 0.0, "type": "electric_scooter", "name": "f52f886c11a8fe3500171287369395b3", "is_disabled": 0, "lon": -77.03077183333333, "fusion_lon": 0.0, "rental_uris": {"ios": "https://dc.lft.to/lastmile_qr_scan", "android": "https://dc.lft.to/lastmile_qr_scan"}, "lat": 38.89965133333333, "bike_id": "f52f886c11a8fe3500171287369395b3", "is_reserved": 0}, {"fusion_lat": 0.0, "type": "electric_scooter", "name": "9bf70d387b68b04670346ae4abc8f8d0", "is_disabled": 0, "lon": -76.99106316666666, "fusion_lon": 0.0, "rental_uris": {"ios": "https://dc.lft.to/lastmile_qr_scan", "android": "https://dc.lft.to/lastmile_qr_scan"}, "lat": 38.8573135, "bike_id": "9bf70d387b68b04670346ae4abc8f8d0", "is_reserved": 0}, {"fusion_lat": 0.0, "type": "electric_bike", "name": "ac142697238af76406e491dbca6e045a", "is_disabled": 0, "lon": -77.05703583333333, "fusion_lon": 0.0, "rental_uris": {"ios": "https://dc.lft.to/lastmile_qr_scan", "android": "https://dc.lft.to/lastmile_qr_scan"}, "lat": 38.90563816666667, "bike_id": "ac142697238af76406e491dbca6e045a", "is_reserved": 0}, {"fusion_lat": 0.0, "type": "electric_scooter", "name": "5c515616c77aa643ce03f50984de6e6b", "is_disabled": 0, "lon": -76.99492066666667, "fusion_lon": 0.0, "rental_uris": {"ios": "https://dc.lft.to/lastmile_qr_scan", "android": "https://dc.lft.to/lastmile_qr_scan"}, "lat": 38.89010566666666, "bike_id": "5c515616c77aa643ce03f50984de6e6b", "is_reserved": 0}, {"fusion_lat": 0.0, "type": "electric_scooter", "name": "f60556fdc1a4aaff0ac6805f17d41207", "is_disabled": 0, "lon": -77.04138616666667, "fusion_lon": 0.0, "rental_uris": {"ios": "https://dc.lft.to/lastmile_qr_scan", "android": "https://dc.lft.to/lastmile_qr_scan"}, "lat": 38.9089245, "bike_id": "f60556fdc1a4aaff0ac6805f17d41207", "is_reserved": 0}, {"fusion_lat": 0.0, "type": "electric_scooter", "name": "4dc26eb392515f1ce72b1e3687b5558b", "is_disabled": 0, "lon": -77.0392995, "fusion_lon": 0.0, "rental_uris": {"ios": "https://dc.lft.to/lastmile_qr_scan", "android": "https://dc.lft.to/lastmile_qr_scan"}, "lat": 38.9027395, "bike_id": "4dc26eb392515f1ce72b1e3687b5558b", "is_reserved": 0}, {"fusion_lat": 0.0, "type": "electric_scooter", "name": "a59d34d8c494dcb79c569092cbb08c53", "is_disabled": 0, "lon": -77.04241316666666, "fusion_lon": 0.0, "rental_uris": {"ios": "https://dc.lft.to/lastmile_qr_scan", "android": "https://dc.lft.to/lastmile_qr_scan"}, "lat": 38.919761666666666, "bike_id": "a59d34d8c494dcb79c569092cbb08c53", "is_reserved": 0}, {"fusion_lat": 0.0, "type": "electric_scooter", "name": "ef5a7e20a12fcdbe665012a823b85780", "is_disabled": 0, "lon": -77.03865516666667, "fusion_lon": 0.0, "rental_uris": {"ios": "https://dc.lft.to/lastmile_qr_scan", "android": "https://dc.lft.to/lastmile_qr_scan"}, "lat": 38.93213216666667, "bike_id": "ef5a7e20a12fcdbe665012a823b85780", "is_reserved": 0}, {"fusion_lat": 0.0, "type": "electric_scooter", "name": "dca0c2c689be916345ab14882ad26f81", "is_disabled": 0, "lon": -77.04329833333334, "fusion_lon": 0.0, "rental_uris": {"ios": "https://dc.lft.to/lastmile_qr_scan", "android": "https://dc.lft.to/lastmile_qr_scan"}, "lat": 38.92229233333333, "bike_id": "dca0c2c689be916345ab14882ad26f81", "is_reserved": 0}, {"fusion_lat": 0.0, "type": "electric_scooter", "name": "411737abf133b61ea027b213066ce165", "is_disabled": 0, "lon": -77.04835016666667, "fusion_lon": 0.0, "rental_uris": {"ios": "https://dc.lft.to/lastmile_qr_scan", "android": "https://dc.lft.to/lastmile_qr_scan"}, "lat": 38.91626133333333, "bike_id": "411737abf133b61ea027b213066ce165", "is_reserved": 0}, {"fusion_lat": 0.0, "type": "electric_scooter", "name": "5bb3c064a79405a9de4d19c3807c299c", "is_disabled": 0, "lon": -77.03418883333333, "fusion_lon": 0.0, "rental_uris": {"ios": "https://dc.lft.to/lastmile_qr_scan", "android": "https://dc.lft.to/lastmile_qr_scan"}, "lat": 38.90273766666667, "bike_id": "5bb3c064a79405a9de4d19c3807c299c", "is_reserved": 0}, {"fusion_lat": 0.0, "type": "electric_scooter", "name": "ed417bdce9dbb5e73d0429a005e58c79", "is_disabled": 0, "lon": -77.03365416666666, "fusion_lon": 0.0, "rental_uris": {"ios": "https://dc.lft.to/lastmile_qr_scan", "android": "https://dc.lft.to/lastmile_qr_scan"}, "lat": 38.925474, "bike_id": "ed417bdce9dbb5e73d0429a005e58c79", "is_reserved": 0}, {"fusion_lat": 0.0, "type": "electric_scooter", "name": "b9627da795497bdb08098bdb963e8c4c", "is_disabled": 0, "lon": -76.9902765, "fusion_lon": 0.0, "rental_uris": {"ios": "https://dc.lft.to/lastmile_qr_scan", "android": "https://dc.lft.to/lastmile_qr_scan"}, "lat": 38.864274, "bike_id": "b9627da795497bdb08098bdb963e8c4c", "is_reserved": 0}, {"fusion_lat": 0.0, "type": "electric_scooter", "name": "48541c75ef819347904f5affe99fa66b", "is_disabled": 0, "lon": -76.9961855, "fusion_lon": 0.0, "rental_uris": {"ios": "https://dc.lft.to/lastmile_qr_scan", "android": "https://dc.lft.to/lastmile_qr_scan"}, "lat": 38.93159333333333, "bike_id": "48541c75ef819347904f5affe99fa66b", "is_reserved": 0}, {"fusion_lat": 0.0, "type": "electric_scooter", "name": "a921392963425f9872f21e828ed20aa0", "is_disabled": 0, "lon": -77.02200183333333, "fusion_lon": 0.0, "rental_uris": {"ios": "https://dc.lft.to/lastmile_qr_scan", "android": "https://dc.lft.to/lastmile_qr_scan"}, "lat": 38.9112235, "bike_id": "a921392963425f9872f21e828ed20aa0", "is_reserved": 0}, {"fusion_lat": 0.0, "type": "electric_scooter", "name": "da977e0dc85372c7e11f0a94b4e88cd3", "is_disabled": 0, "lon": -77.04561033333333, "fusion_lon": 0.0, "rental_uris": {"ios": "https://dc.lft.to/lastmile_qr_scan", "android": "https://dc.lft.to/lastmile_qr_scan"}, "lat": 38.900749166666664, "bike_id": "da977e0dc85372c7e11f0a94b4e88cd3", "is_reserved": 0}, {"fusion_lat": 0.0, "type": "electric_scooter", "name": "d83842fa13468e5ed69ab7a7905e7901", "is_disabled": 0, "lon": -77.062741, "fusion_lon": 0.0, "rental_uris": {"ios": "https://dc.lft.to/lastmile_qr_scan", "android": "https://dc.lft.to/lastmile_qr_scan"}, "lat": 38.905918, "bike_id": "d83842fa13468e5ed69ab7a7905e7901", "is_reserved": 0}, {"fusion_lat": 0.0, "type": "electric_scooter", "name": "c29f4d47e0338bc141b167898fc1904f", "is_disabled": 0, "lon": -77.03830083333334, "fusion_lon": 0.0, "rental_uris": {"ios": "https://dc.lft.to/lastmile_qr_scan", "android": "https://dc.lft.to/lastmile_qr_scan"}, "lat": 38.909796166666666, "bike_id": "c29f4d47e0338bc141b167898fc1904f", "is_reserved": 0}, {"fusion_lat": 0.0, "type": "electric_scooter", "name": "00db15723dd523269ee4578df0add269", "is_disabled": 0, "lon": -77.03664866666666, "fusion_lon": 0.0, "rental_uris": {"ios": "https://dc.lft.to/lastmile_qr_scan", "android": "https://dc.lft.to/lastmile_qr_scan"}, "lat": 38.9227075, "bike_id": "00db15723dd523269ee4578df0add269", "is_reserved": 0}, {"fusion_lat": 0.0, "type": "electric_scooter", "name": "653797e279dacbc6551006d18506cdac", "is_disabled": 0, "lon": -77.04883566666666, "fusion_lon": 0.0, "rental_uris": {"ios": "https://dc.lft.to/lastmile_qr_scan", "android": "https://dc.lft.to/lastmile_qr_scan"}, "lat": 38.90096666666667, "bike_id": "653797e279dacbc6551006d18506cdac", "is_reserved": 0}, {"fusion_lat": 0.0, "type": "electric_scooter", "name": "7bc268dee4f3633e49da36bc4e832532", "is_disabled": 0, "lon": -77.01463466666667, "fusion_lon": 0.0, "rental_uris": {"ios": "https://dc.lft.to/lastmile_qr_scan", "android": "https://dc.lft.to/lastmile_qr_scan"}, "lat": 38.917720333333335, "bike_id": "7bc268dee4f3633e49da36bc4e832532", "is_reserved": 0}, {"fusion_lat": 0.0, "type": "electric_scooter", "name": "b6631f58e2a26538fbf6b3998bb3a2e6", "is_disabled": 0, "lon": -77.0212405, "fusion_lon": 0.0, "rental_uris": {"ios": "https://dc.lft.to/lastmile_qr_scan", "android": "https://dc.lft.to/lastmile_qr_scan"}, "lat": 38.9237795, "bike_id": "b6631f58e2a26538fbf6b3998bb3a2e6", "is_reserved": 0}, {"fusion_lat": 0.0, "type": "electric_scooter", "name": "3717dd699d061568ae51eb13e6e1188a", "is_disabled": 0, "lon": -77.00604016666666, "fusion_lon": 0.0, "rental_uris": {"ios": "https://dc.lft.to/lastmile_qr_scan", "android": "https://dc.lft.to/lastmile_qr_scan"}, "lat": 38.90301266666667, "bike_id": "3717dd699d061568ae51eb13e6e1188a", "is_reserved": 0}, {"fusion_lat": 0.0, "type": "electric_scooter", "name": "ce19cefb78b8a7df93c27775317fe5af", "is_disabled": 0, "lon": -77.0363985, "fusion_lon": 0.0, "rental_uris": {"ios": "https://dc.lft.to/lastmile_qr_scan", "android": "https://dc.lft.to/lastmile_qr_scan"}, "lat": 38.91617683333333, "bike_id": "ce19cefb78b8a7df93c27775317fe5af", "is_reserved": 0}, {"fusion_lat": 0.0, "type": "electric_scooter", "name": "7b8bd71361acc7d6de2a95746acda108", "is_disabled": 0, "lon": -77.0239785, "fusion_lon": 0.0, "rental_uris": {"ios": "https://dc.lft.to/lastmile_qr_scan", "android": "https://dc.lft.to/lastmile_qr_scan"}, "lat": 38.90967633333333, "bike_id": "7b8bd71361acc7d6de2a95746acda108", "is_reserved": 0}, {"fusion_lat": 0.0, "type": "electric_scooter", "name": "73c48009980028bdd49c1341b20bf4ac", "is_disabled": 0, "lon": -77.034451, "fusion_lon": 0.0, "rental_uris": {"ios": "https://dc.lft.to/lastmile_qr_scan", "android": "https://dc.lft.to/lastmile_qr_scan"}, "lat": 38.908118, "bike_id": "73c48009980028bdd49c1341b20bf4ac", "is_reserved": 0}, {"fusion_lat": 0.0, "type": "electric_scooter", "name": "95c3e855ea2e0a89470071b66fe134aa", "is_disabled": 0, "lon": -77.0264475, "fusion_lon": 0.0, "rental_uris": {"ios": "https://dc.lft.to/lastmile_qr_scan", "android": "https://dc.lft.to/lastmile_qr_scan"}, "lat": 38.931016, "bike_id": "95c3e855ea2e0a89470071b66fe134aa", "is_reserved": 0}, {"fusion_lat": 0.0, "type": "electric_scooter", "name": "94344466de70d0513f4615dd78f1e156", "is_disabled": 0, "lon": -77.05132233333333, "fusion_lon": 0.0, "rental_uris": {"ios": "https://dc.lft.to/lastmile_qr_scan", "android": "https://dc.lft.to/lastmile_qr_scan"}, "lat": 38.92365183333333, "bike_id": "94344466de70d0513f4615dd78f1e156", "is_reserved": 0}, {"fusion_lat": 0.0, "type": "electric_scooter", "name": "8c6524b41ee918b570017d64e80f6edf", "is_disabled": 0, "lon": -77.04687166666666, "fusion_lon": 0.0, "rental_uris": {"ios": "https://dc.lft.to/lastmile_qr_scan", "android": "https://dc.lft.to/lastmile_qr_scan"}, "lat": 38.899504, "bike_id": "8c6524b41ee918b570017d64e80f6edf", "is_reserved": 0}, {"fusion_lat": 0.0, "type": "electric_scooter", "name": "6767841826114b8ffc68fbb045f604bf", "is_disabled": 0, "lon": -76.99455816666666, "fusion_lon": 0.0, "rental_uris": {"ios": "https://dc.lft.to/lastmile_qr_scan", "android": "https://dc.lft.to/lastmile_qr_scan"}, "lat": 38.8277665, "bike_id": "6767841826114b8ffc68fbb045f604bf", "is_reserved": 0}, {"fusion_lat": 0.0, "type": "electric_scooter", "name": "28788dfc60cf95e57ccfd22e08ccde58", "is_disabled": 0, "lon": -77.02679483333333, "fusion_lon": 0.0, "rental_uris": {"ios": "https://dc.lft.to/lastmile_qr_scan", "android": "https://dc.lft.to/lastmile_qr_scan"}, "lat": 38.91411866666667, "bike_id": "28788dfc60cf95e57ccfd22e08ccde58", "is_reserved": 0}, {"fusion_lat": 0.0, "type": "electric_bike", "name": "633821730438a2fef8e9dbd40c190181", "is_disabled": 0, "lon": -76.97437366666666, "fusion_lon": 0.0, "rental_uris": {"ios": "https://dc.lft.to/lastmile_qr_scan", "android": "https://dc.lft.to/lastmile_qr_scan"}, "lat": 38.85590666666667, "bike_id": "633821730438a2fef8e9dbd40c190181", "is_reserved": 0}, {"fusion_lat": 0.0, "type": "electric_scooter", "name": "320465b757b1df72e73fe7ac7e0b0ea3", "is_disabled": 0, "lon": -77.04343216666666, "fusion_lon": 0.0, "rental_uris": {"ios": "https://dc.lft.to/lastmile_qr_scan", "android": "https://dc.lft.to/lastmile_qr_scan"}, "lat": 38.90421766666667, "bike_id": "320465b757b1df72e73fe7ac7e0b0ea3", "is_reserved": 0}, {"fusion_lat": 0.0, "type": "electric_scooter", "name": "6fa754a1080a0d7cb1f053db1ca37635", "is_disabled": 0, "lon": -77.042592, "fusion_lon": 0.0, "rental_uris": {"ios": "https://dc.lft.to/lastmile_qr_scan", "android": "https://dc.lft.to/lastmile_qr_scan"}, "lat": 38.90941983333333, "bike_id": "6fa754a1080a0d7cb1f053db1ca37635", "is_reserved": 0}, {"fusion_lat": 0.0, "type": "electric_scooter", "name": "b95862c0424ca6a0ae8e7e28e10b6f79", "is_disabled": 0, "lon": -77.04469266666666, "fusion_lon": 0.0, "rental_uris": {"ios": "https://dc.lft.to/lastmile_qr_scan", "android": "https://dc.lft.to/lastmile_qr_scan"}, "lat": 38.90280166666667, "bike_id": "b95862c0424ca6a0ae8e7e28e10b6f79", "is_reserved": 0}, {"fusion_lat": 0.0, "type": "electric_scooter", "name": "f432b83f771f53578177790c5758236d", "is_disabled": 0, "lon": -77.03662716666666, "fusion_lon": 0.0, "rental_uris": {"ios": "https://dc.lft.to/lastmile_qr_scan", "android": "https://dc.lft.to/lastmile_qr_scan"}, "lat": 38.902781833333336, "bike_id": "f432b83f771f53578177790c5758236d", "is_reserved": 0}, {"fusion_lat": 0.0, "type": "electric_scooter", "name": "dd890a82a7d3afecb83f538dc6c5c7a1", "is_disabled": 0, "lon": -77.02450716666667, "fusion_lon": 0.0, "rental_uris": {"ios": "https://dc.lft.to/lastmile_qr_scan", "android": "https://dc.lft.to/lastmile_qr_scan"}, "lat": 38.91518533333333, "bike_id": "dd890a82a7d3afecb83f538dc6c5c7a1", "is_reserved": 0}, {"fusion_lat": 0.0, "type": "electric_scooter", "name": "8d0b5d0347cd0b8479e1cb18c3edb7e7", "is_disabled": 0, "lon": -77.016872, "fusion_lon": 0.0, "rental_uris": {"ios": "https://dc.lft.to/lastmile_qr_scan", "android": "https://dc.lft.to/lastmile_qr_scan"}, "lat": 38.920435166666664, "bike_id": "8d0b5d0347cd0b8479e1cb18c3edb7e7", "is_reserved": 0}, {"fusion_lat": 0.0, "type": "electric_scooter", "name": "4d3f2258398f295a286dfdbb76ffe859", "is_disabled": 0, "lon": -77.03617516666667, "fusion_lon": 0.0, "rental_uris": {"ios": "https://dc.lft.to/lastmile_qr_scan", "android": "https://dc.lft.to/lastmile_qr_scan"}, "lat": 38.92852633333333, "bike_id": "4d3f2258398f295a286dfdbb76ffe859", "is_reserved": 0}, {"fusion_lat": 0.0, "type": "electric_scooter", "name": "17b3831db6b49c6c82f2744d932f8716", "is_disabled": 0, "lon": -76.99776166666666, "fusion_lon": 0.0, "rental_uris": {"ios": "https://dc.lft.to/lastmile_qr_scan", "android": "https://dc.lft.to/lastmile_qr_scan"}, "lat": 38.90135216666667, "bike_id": "17b3831db6b49c6c82f2744d932f8716", "is_reserved": 0}, {"fusion_lat": 0.0, "type": "electric_scooter", "name": "9c6df9f645b67ce07d7109a8a0d87194", "is_disabled": 0, "lon": -77.012208, "fusion_lon": 0.0, "rental_uris": {"ios": "https://dc.lft.to/lastmile_qr_scan", "android": "https://dc.lft.to/lastmile_qr_scan"}, "lat": 38.95336833333333, "bike_id": "9c6df9f645b67ce07d7109a8a0d87194", "is_reserved": 0}, {"fusion_lat": 0.0, "type": "electric_scooter", "name": "0d78eea980dd4dc46427d484466c68c6", "is_disabled": 0, "lon": -77.04564383333333, "fusion_lon": 0.0, "rental_uris": {"ios": "https://dc.lft.to/lastmile_qr_scan", "android": "https://dc.lft.to/lastmile_qr_scan"}, "lat": 38.90361383333333, "bike_id": "0d78eea980dd4dc46427d484466c68c6", "is_reserved": 0}, {"fusion_lat": 0.0, "type": "electric_scooter", "name": "98393fab051f200dfc50430dab9a9f62", "is_disabled": 0, "lon": -77.05336816666667, "fusion_lon": 0.0, "rental_uris": {"ios": "https://dc.lft.to/lastmile_qr_scan", "android": "https://dc.lft.to/lastmile_qr_scan"}, "lat": 38.904538, "bike_id": "98393fab051f200dfc50430dab9a9f62", "is_reserved": 0}, {"fusion_lat": 0.0, "type": "electric_scooter", "name": "24b6d1b417b4732ce03d62d60b6460e7", "is_disabled": 0, "lon": -77.04340816666667, "fusion_lon": 0.0, "rental_uris": {"ios": "https://dc.lft.to/lastmile_qr_scan", "android": "https://dc.lft.to/lastmile_qr_scan"}, "lat": 38.90875916666667, "bike_id": "24b6d1b417b4732ce03d62d60b6460e7", "is_reserved": 0}, {"fusion_lat": 0.0, "type": "electric_scooter", "name": "61f14d90328ccc876253913a3cd7230b", "is_disabled": 0, "lon": -77.03660766666667, "fusion_lon": 0.0, "rental_uris": {"ios": "https://dc.lft.to/lastmile_qr_scan", "android": "https://dc.lft.to/lastmile_qr_scan"}, "lat": 38.9179565, "bike_id": "61f14d90328ccc876253913a3cd7230b", "is_reserved": 0}, {"fusion_lat": 0.0, "type": "electric_scooter", "name": "a0e590577f97c71d0a32d5792cc15898", "is_disabled": 0, "lon": -77.0209385, "fusion_lon": 0.0, "rental_uris": {"ios": "https://dc.lft.to/lastmile_qr_scan", "android": "https://dc.lft.to/lastmile_qr_scan"}, "lat": 38.89603116666667, "bike_id": "a0e590577f97c71d0a32d5792cc15898", "is_reserved": 0}, {"fusion_lat": 0.0, "type": "electric_scooter", "name": "ef368488f2ac682d656fff1942d7b11d", "is_disabled": 0, "lon": -77.062749, "fusion_lon": 0.0, "rental_uris": {"ios": "https://dc.lft.to/lastmile_qr_scan", "android": "https://dc.lft.to/lastmile_qr_scan"}, "lat": 38.90571833333333, "bike_id": "ef368488f2ac682d656fff1942d7b11d", "is_reserved": 0}, {"fusion_lat": 0.0, "type": "electric_scooter", "name": "05cad11111bc930cbf3067f816f9ac39", "is_disabled": 0, "lon": -77.01960866666667, "fusion_lon": 0.0, "rental_uris": {"ios": "https://dc.lft.to/lastmile_qr_scan", "android": "https://dc.lft.to/lastmile_qr_scan"}, "lat": 38.92326333333333, "bike_id": "05cad11111bc930cbf3067f816f9ac39", "is_reserved": 0}, {"fusion_lat": 0.0, "type": "electric_scooter", "name": "855621c576c4c86cf2cdb465ae362c28", "is_disabled": 0, "lon": -77.05340083333333, "fusion_lon": 0.0, "rental_uris": {"ios": "https://dc.lft.to/lastmile_qr_scan", "android": "https://dc.lft.to/lastmile_qr_scan"}, "lat": 38.90645383333333, "bike_id": "855621c576c4c86cf2cdb465ae362c28", "is_reserved": 0}, {"fusion_lat": 0.0, "type": "electric_scooter", "name": "966be9db0be62803c905123fce1a1603", "is_disabled": 0, "lon": -77.09106233333333, "fusion_lon": 0.0, "rental_uris": {"ios": "https://dc.lft.to/lastmile_qr_scan", "android": "https://dc.lft.to/lastmile_qr_scan"}, "lat": 38.93097, "bike_id": "966be9db0be62803c905123fce1a1603", "is_reserved": 0}, {"fusion_lat": 0.0, "type": "electric_scooter", "name": "c5b2ac2867951b523b969b3171a3b9d8", "is_disabled": 0, "lon": -76.946543, "fusion_lon": 0.0, "rental_uris": {"ios": "https://dc.lft.to/lastmile_qr_scan", "android": "https://dc.lft.to/lastmile_qr_scan"}, "lat": 38.89828166666667, "bike_id": "c5b2ac2867951b523b969b3171a3b9d8", "is_reserved": 0}, {"fusion_lat": 0.0, "type": "electric_scooter", "name": "976a31d0e075a281d80acc9ec7530aeb", "is_disabled": 0, "lon": -77.0239925, "fusion_lon": 0.0, "rental_uris": {"ios": "https://dc.lft.to/lastmile_qr_scan", "android": "https://dc.lft.to/lastmile_qr_scan"}, "lat": 38.91557866666667, "bike_id": "976a31d0e075a281d80acc9ec7530aeb", "is_reserved": 0}, {"fusion_lat": 0.0, "type": "electric_scooter", "name": "03b6925e734ab70f1f146d578c962aa9", "is_disabled": 0, "lon": -77.02150883333333, "fusion_lon": 0.0, "rental_uris": {"ios": "https://dc.lft.to/lastmile_qr_scan", "android": "https://dc.lft.to/lastmile_qr_scan"}, "lat": 38.941329833333334, "bike_id": "03b6925e734ab70f1f146d578c962aa9", "is_reserved": 0}, {"fusion_lat": 0.0, "type": "electric_scooter", "name": "9c7052e54b935802aa220fd566b2cfb0", "is_disabled": 0, "lon": -77.04684733333333, "fusion_lon": 0.0, "rental_uris": {"ios": "https://dc.lft.to/lastmile_qr_scan", "android": "https://dc.lft.to/lastmile_qr_scan"}, "lat": 38.89219216666667, "bike_id": "9c7052e54b935802aa220fd566b2cfb0", "is_reserved": 0}, {"fusion_lat": 0.0, "type": "electric_scooter", "name": "7dba21d2038d95923b6d82d4884ec4b0", "is_disabled": 0, "lon": -77.02424566666667, "fusion_lon": 0.0, "rental_uris": {"ios": "https://dc.lft.to/lastmile_qr_scan", "android": "https://dc.lft.to/lastmile_qr_scan"}, "lat": 38.92050483333333, "bike_id": "7dba21d2038d95923b6d82d4884ec4b0", "is_reserved": 0}, {"fusion_lat": 0.0, "type": "electric_scooter", "name": "677eaf60d991d23257e2830fb297634b", "is_disabled": 0, "lon": -77.04695066666666, "fusion_lon": 0.0, "rental_uris": {"ios": "https://dc.lft.to/lastmile_qr_scan", "android": "https://dc.lft.to/lastmile_qr_scan"}, "lat": 38.895981666666664, "bike_id": "677eaf60d991d23257e2830fb297634b", "is_reserved": 0}, {"fusion_lat": 0.0, "type": "electric_scooter", "name": "d5a6410f77df93082fd320bf9e23a8d9", "is_disabled": 0, "lon": -77.02479183333334, "fusion_lon": 0.0, "rental_uris": {"ios": "https://dc.lft.to/lastmile_qr_scan", "android": "https://dc.lft.to/lastmile_qr_scan"}, "lat": 38.90250133333333, "bike_id": "d5a6410f77df93082fd320bf9e23a8d9", "is_reserved": 0}, {"fusion_lat": 0.0, "type": "electric_scooter", "name": "7442ea40fdc5bdf6a64630ad9da209a9", "is_disabled": 0, "lon": -77.01445783333334, "fusion_lon": 0.0, "rental_uris": {"ios": "https://dc.lft.to/lastmile_qr_scan", "android": "https://dc.lft.to/lastmile_qr_scan"}, "lat": 38.919523166666664, "bike_id": "7442ea40fdc5bdf6a64630ad9da209a9", "is_reserved": 0}, {"fusion_lat": 0.0, "type": "electric_scooter", "name": "152502d8731f47c4438ac63723ba5273", "is_disabled": 0, "lon": -77.04009566666667, "fusion_lon": 0.0, "rental_uris": {"ios": "https://dc.lft.to/lastmile_qr_scan", "android": "https://dc.lft.to/lastmile_qr_scan"}, "lat": 38.92445083333333, "bike_id": "152502d8731f47c4438ac63723ba5273", "is_reserved": 0}, {"fusion_lat": 0.0, "type": "electric_scooter", "name": "6d5753f88bf7577e894b122540a50287", "is_disabled": 0, "lon": -77.03626633333333, "fusion_lon": 0.0, "rental_uris": {"ios": "https://dc.lft.to/lastmile_qr_scan", "android": "https://dc.lft.to/lastmile_qr_scan"}, "lat": 38.93676133333334, "bike_id": "6d5753f88bf7577e894b122540a50287", "is_reserved": 0}, {"fusion_lat": 0.0, "type": "electric_scooter", "name": "266970c36e7959b9fc79ddb97999faa8", "is_disabled": 0, "lon": -77.05732633333334, "fusion_lon": 0.0, "rental_uris": {"ios": "https://dc.lft.to/lastmile_qr_scan", "android": "https://dc.lft.to/lastmile_qr_scan"}, "lat": 38.93371333333333, "bike_id": "266970c36e7959b9fc79ddb97999faa8", "is_reserved": 0}, {"fusion_lat": 0.0, "type": "electric_scooter", "name": "b14bb059e904d547683fd67f0ad2a82c", "is_disabled": 0, "lon": -77.03466283333333, "fusion_lon": 0.0, "rental_uris": {"ios": "https://dc.lft.to/lastmile_qr_scan", "android": "https://dc.lft.to/lastmile_qr_scan"}, "lat": 38.916644833333336, "bike_id": "b14bb059e904d547683fd67f0ad2a82c", "is_reserved": 0}, {"fusion_lat": 0.0, "type": "electric_scooter", "name": "9986cf7b9ede31a5f7860c8af84c6057", "is_disabled": 0, "lon": -77.048927, "fusion_lon": 0.0, "rental_uris": {"ios": "https://dc.lft.to/lastmile_qr_scan", "android": "https://dc.lft.to/lastmile_qr_scan"}, "lat": 38.900208666666664, "bike_id": "9986cf7b9ede31a5f7860c8af84c6057", "is_reserved": 0}, {"fusion_lat": 0.0, "type": "electric_bike", "name": "1b539c71b696ad10c073b6dde47cb066", "is_disabled": 0, "lon": -77.02032283333334, "fusion_lon": 0.0, "rental_uris": {"ios": "https://dc.lft.to/lastmile_qr_scan", "android": "https://dc.lft.to/lastmile_qr_scan"}, "lat": 38.96552283333333, "bike_id": "1b539c71b696ad10c073b6dde47cb066", "is_reserved": 0}, {"fusion_lat": 0.0, "type": "electric_scooter", "name": "f27836e5eb3e1ffa567b837bc0582afb", "is_disabled": 0, "lon": -77.04890316666666, "fusion_lon": 0.0, "rental_uris": {"ios": "https://dc.lft.to/lastmile_qr_scan", "android": "https://dc.lft.to/lastmile_qr_scan"}, "lat": 38.90536916666667, "bike_id": "f27836e5eb3e1ffa567b837bc0582afb", "is_reserved": 0}, {"fusion_lat": 0.0, "type": "electric_scooter", "name": "82026e3987f8ef55156ececa75fb7c9e", "is_disabled": 0, "lon": -77.00631233333333, "fusion_lon": 0.0, "rental_uris": {"ios": "https://dc.lft.to/lastmile_qr_scan", "android": "https://dc.lft.to/lastmile_qr_scan"}, "lat": 38.87189816666667, "bike_id": "82026e3987f8ef55156ececa75fb7c9e", "is_reserved": 0}, {"fusion_lat": 0.0, "type": "electric_scooter", "name": "82297411cdea517b6e05a6ee46e23cb0", "is_disabled": 0, "lon": -77.01684566666667, "fusion_lon": 0.0, "rental_uris": {"ios": "https://dc.lft.to/lastmile_qr_scan", "android": "https://dc.lft.to/lastmile_qr_scan"}, "lat": 38.90149483333333, "bike_id": "82297411cdea517b6e05a6ee46e23cb0", "is_reserved": 0}, {"fusion_lat": 0.0, "type": "electric_bike", "name": "df7ca72e5d1d442c88ffdaab73246c58", "is_disabled": 0, "lon": -76.9884035, "fusion_lon": 0.0, "rental_uris": {"ios": "https://dc.lft.to/lastmile_qr_scan", "android": "https://dc.lft.to/lastmile_qr_scan"}, "lat": 38.842820833333334, "bike_id": "df7ca72e5d1d442c88ffdaab73246c58", "is_reserved": 0}, {"fusion_lat": 0.0, "type": "electric_scooter", "name": "0394a6454576b59b79f6a54b23465dd3", "is_disabled": 0, "lon": -77.03379616666666, "fusion_lon": 0.0, "rental_uris": {"ios": "https://dc.lft.to/lastmile_qr_scan", "android": "https://dc.lft.to/lastmile_qr_scan"}, "lat": 38.92157366666667, "bike_id": "0394a6454576b59b79f6a54b23465dd3", "is_reserved": 0}, {"fusion_lat": 0.0, "type": "electric_scooter", "name": "e2489237888174d876a767e62fe71d93", "is_disabled": 0, "lon": -76.93815116666667, "fusion_lon": 0.0, "rental_uris": {"ios": "https://dc.lft.to/lastmile_qr_scan", "android": "https://dc.lft.to/lastmile_qr_scan"}, "lat": 38.898437666666666, "bike_id": "e2489237888174d876a767e62fe71d93", "is_reserved": 0}, {"fusion_lat": 0.0, "type": "electric_scooter", "name": "09574972b92f87cb1a69c08c230347a0", "is_disabled": 0, "lon": -77.04524583333334, "fusion_lon": 0.0, "rental_uris": {"ios": "https://dc.lft.to/lastmile_qr_scan", "android": "https://dc.lft.to/lastmile_qr_scan"}, "lat": 38.89953166666667, "bike_id": "09574972b92f87cb1a69c08c230347a0", "is_reserved": 0}, {"fusion_lat": 0.0, "type": "electric_scooter", "name": "ac0058234a967ecc4f838902a7495ecd", "is_disabled": 0, "lon": -76.99939166666667, "fusion_lon": 0.0, "rental_uris": {"ios": "https://dc.lft.to/lastmile_qr_scan", "android": "https://dc.lft.to/lastmile_qr_scan"}, "lat": 38.891672166666666, "bike_id": "ac0058234a967ecc4f838902a7495ecd", "is_reserved": 0}, {"fusion_lat": 0.0, "type": "electric_scooter", "name": "e8152352b811f5b88b6e4a85b037097b", "is_disabled": 0, "lon": -77.023944, "fusion_lon": 0.0, "rental_uris": {"ios": "https://dc.lft.to/lastmile_qr_scan", "android": "https://dc.lft.to/lastmile_qr_scan"}, "lat": 38.924009166666664, "bike_id": "e8152352b811f5b88b6e4a85b037097b", "is_reserved": 0}, {"fusion_lat": 0.0, "type": "electric_bike", "name": "4e330180beb9162bfed6fc47b96fcb19", "is_disabled": 0, "lon": -77.00406616666666, "fusion_lon": 0.0, "rental_uris": {"ios": "https://dc.lft.to/lastmile_qr_scan", "android": "https://dc.lft.to/lastmile_qr_scan"}, "lat": 38.985413333333334, "bike_id": "4e330180beb9162bfed6fc47b96fcb19", "is_reserved": 0}, {"fusion_lat": 0.0, "type": "electric_bike", "name": "7bba47815ebfa4b0b5bf8e558ad986d0", "is_disabled": 0, "lon": -76.99104733333333, "fusion_lon": 0.0, "rental_uris": {"ios": "https://dc.lft.to/lastmile_qr_scan", "android": "https://dc.lft.to/lastmile_qr_scan"}, "lat": 38.804778666666664, "bike_id": "7bba47815ebfa4b0b5bf8e558ad986d0", "is_reserved": 0}, {"fusion_lat": 0.0, "type": "electric_scooter", "name": "aa1695026dc7d5a90ec014a344aee5d9", "is_disabled": 0, "lon": -77.0318585, "fusion_lon": 0.0, "rental_uris": {"ios": "https://dc.lft.to/lastmile_qr_scan", "android": "https://dc.lft.to/lastmile_qr_scan"}, "lat": 38.91660483333333, "bike_id": "aa1695026dc7d5a90ec014a344aee5d9", "is_reserved": 0}, {"fusion_lat": 0.0, "type": "electric_scooter", "name": "2d0069ca45319a65215c973e8df362c4", "is_disabled": 0, "lon": -77.03424233333334, "fusion_lon": 0.0, "rental_uris": {"ios": "https://dc.lft.to/lastmile_qr_scan", "android": "https://dc.lft.to/lastmile_qr_scan"}, "lat": 38.9073705, "bike_id": "2d0069ca45319a65215c973e8df362c4", "is_reserved": 0}, {"fusion_lat": 0.0, "type": "electric_scooter", "name": "7e2078f3587bc1023dbc5a369d2763a1", "is_disabled": 0, "lon": -76.99633066666667, "fusion_lon": 0.0, "rental_uris": {"ios": "https://dc.lft.to/lastmile_qr_scan", "android": "https://dc.lft.to/lastmile_qr_scan"}, "lat": 38.9005135, "bike_id": "7e2078f3587bc1023dbc5a369d2763a1", "is_reserved": 0}, {"fusion_lat": 0.0, "type": "electric_bike", "name": "003958105b8f28ae44ae5141ad23282c", "is_disabled": 0, "lon": -77.09819466666667, "fusion_lon": 0.0, "rental_uris": {"ios": "https://dc.lft.to/lastmile_qr_scan", "android": "https://dc.lft.to/lastmile_qr_scan"}, "lat": 38.8502095, "bike_id": "003958105b8f28ae44ae5141ad23282c", "is_reserved": 0}, {"fusion_lat": 0.0, "type": "electric_scooter", "name": "f3067df54bc93c2f90afbb70e8b0f91c", "is_disabled": 0, "lon": -77.033139, "fusion_lon": 0.0, "rental_uris": {"ios": "https://dc.lft.to/lastmile_qr_scan", "android": "https://dc.lft.to/lastmile_qr_scan"}, "lat": 38.92154566666667, "bike_id": "f3067df54bc93c2f90afbb70e8b0f91c", "is_reserved": 0}, {"fusion_lat": 0.0, "type": "electric_scooter", "name": "efdb1fb27fadc8997291fee3f6daf369", "is_disabled": 0, "lon": -77.01331016666667, "fusion_lon": 0.0, "rental_uris": {"ios": "https://dc.lft.to/lastmile_qr_scan", "android": "https://dc.lft.to/lastmile_qr_scan"}, "lat": 38.896078333333335, "bike_id": "efdb1fb27fadc8997291fee3f6daf369", "is_reserved": 0}, {"fusion_lat": 0.0, "type": "electric_scooter", "name": "4d945e92fc4a9088b1c5a158ce34708f", "is_disabled": 0, "lon": -77.04311283333334, "fusion_lon": 0.0, "rental_uris": {"ios": "https://dc.lft.to/lastmile_qr_scan", "android": "https://dc.lft.to/lastmile_qr_scan"}, "lat": 38.90572783333333, "bike_id": "4d945e92fc4a9088b1c5a158ce34708f", "is_reserved": 0}, {"fusion_lat": 0.0, "type": "electric_scooter", "name": "720d65cbd8b4435e90d4209331e6e3f7", "is_disabled": 0, "lon": -77.01027116666667, "fusion_lon": 0.0, "rental_uris": {"ios": "https://dc.lft.to/lastmile_qr_scan", "android": "https://dc.lft.to/lastmile_qr_scan"}, "lat": 38.911370833333336, "bike_id": "720d65cbd8b4435e90d4209331e6e3f7", "is_reserved": 0}, {"fusion_lat": 0.0, "type": "electric_scooter", "name": "c4244a95c8acb2e252efdd72726be8ca", "is_disabled": 0, "lon": -77.02088233333333, "fusion_lon": 0.0, "rental_uris": {"ios": "https://dc.lft.to/lastmile_qr_scan", "android": "https://dc.lft.to/lastmile_qr_scan"}, "lat": 38.90733516666667, "bike_id": "c4244a95c8acb2e252efdd72726be8ca", "is_reserved": 0}, {"fusion_lat": 0.0, "type": "electric_bike", "name": "238c57bca64f0777a422245fac0d2ecd", "is_disabled": 0, "lon": -76.978993, "fusion_lon": 0.0, "rental_uris": {"ios": "https://dc.lft.to/lastmile_qr_scan", "android": "https://dc.lft.to/lastmile_qr_scan"}, "lat": 38.9269555, "bike_id": "238c57bca64f0777a422245fac0d2ecd", "is_reserved": 0}, {"fusion_lat": 0.0, "type": "electric_scooter", "name": "c91e05cc1ba5d7166dc6d6d2bfd3fe01", "is_disabled": 0, "lon": -77.0324785, "fusion_lon": 0.0, "rental_uris": {"ios": "https://dc.lft.to/lastmile_qr_scan", "android": "https://dc.lft.to/lastmile_qr_scan"}, "lat": 38.8972935, "bike_id": "c91e05cc1ba5d7166dc6d6d2bfd3fe01", "is_reserved": 0}, {"fusion_lat": 0.0, "type": "electric_scooter", "name": "85fd3b65abd48bfaea85d32a6b02aa09", "is_disabled": 0, "lon": -77.01334016666667, "fusion_lon": 0.0, "rental_uris": {"ios": "https://dc.lft.to/lastmile_qr_scan", "android": "https://dc.lft.to/lastmile_qr_scan"}, "lat": 38.881294833333335, "bike_id": "85fd3b65abd48bfaea85d32a6b02aa09", "is_reserved": 0}, {"fusion_lat": 0.0, "type": "electric_scooter", "name": "934f344814f105f8ea2cb99f78cf173b", "is_disabled": 0, "lon": -77.05350283333334, "fusion_lon": 0.0, "rental_uris": {"ios": "https://dc.lft.to/lastmile_qr_scan", "android": "https://dc.lft.to/lastmile_qr_scan"},