{"data": {"bikes": [{"rental_uris": {"ios": "https://dc.lft.to/lastmile_qr_scan", "android": "https://dc.lft.to/lastmile_qr_scan"}, "lon": -77.035225, "type": "electric_scooter", "fusion_lat": 0.0, "lat": 38.922251, "name": "138d3cf50e3b6e12f50f834779d47b94", "fusion_lon": 0.0, "bike_id": "138d3cf50e3b6e12f50f834779d47b94", "is_disabled": 0, "is_reserved": 0}, {"rental_uris": {"ios": "https://dc.lft.to/lastmile_qr_scan", "android": "https://dc.lft.to/lastmile_qr_scan"}, "lon": -77.043377, "type": "electric_scooter", "fusion_lat": 0.0, "lat": 38.905583666666665, "name": "cc85fa747078fe742858a34f0344930d", "fusion_lon": 0.0, "bike_id": "cc85fa747078fe742858a34f0344930d", "is_disabled": 0, "is_reserved": 0}, {"rental_uris": {"ios": "https://dc.lft.to/lastmile_qr_scan", "android": "https://dc.lft.to/lastmile_qr_scan"}, "lon": -76.9982, "type": "electric_scooter", "fusion_lat": 0.0, "lat": 38.8887405, "name": "a0a122645d8e42107134c43b5db561bd", "fusion_lon": 0.0, "bike_id": "a0a122645d8e42107134c43b5db561bd", "is_disabled": 0, "is_reserved": 0}, {"rental_uris": {"ios": "https://dc.lft.to/lastmile_qr_scan", "android": "https://dc.lft.to/lastmile_qr_scan"}, "lon": -77.02387833333333, "type": "electric_scooter", "fusion_lat": 0.0, "lat": 38.89936216666667, "name": "f1f8998c0fda8261c826000528eecb80", "fusion_lon": 0.0, "bike_id": "f1f8998c0fda8261c826000528eecb80", "is_disabled": 0, "is_reserved": 0}, {"rental_uris": {"ios": "https://dc.lft.to/lastmile_qr_scan", "android": "https://dc.lft.to/lastmile_qr_scan"}, "lon": -77.04356583333333, "type": "electric_scooter", "fusion_lat": 0.0, "lat": 38.89661316666667, "name": "d9b0bb51284e29a358ca55f9345f86ee", "fusion_lon": 0.0, "bike_id": "d9b0bb51284e29a358ca55f9345f86ee", "is_disabled": 0, "is_reserved": 0}, {"rental_uris": {"ios": "https://dc.lft.to/lastmile_qr_scan", "android": "https://dc.lft.to/lastmile_qr_scan"}, "lon": -77.03562316666667, "type": "electric_bike", "fusion_lat": 0.0, "lat": 38.96471666666667, "name": "abf895216bf5dbe4646953c305ff741b", "fusion_lon": 0.0, "bike_id": "abf895216bf5dbe4646953c305ff741b", "is_disabled": 0, "is_reserved": 0}, {"rental_uris": {"ios": "https://dc.lft.to/lastmile_qr_scan", "android": "https://dc.lft.to/lastmile_qr_scan"}, "lon": -77.00602583333334, "type": "electric_scooter", "fusion_lat": 0.0, "lat": 38.87725866666667, "name": "619bd7cb529f98d7341f42c709e754dc", "fusion_lon": 0.0, "bike_id": "619bd7cb529f98d7341f42c709e754dc", "is_disabled": 0, "is_reserved": 0}, {"rental_uris": {"ios": "https://dc.lft.to/lastmile_qr_scan", "android": "https://dc.lft.to/lastmile_qr_scan"}, "lon": -77.043679, "type": "electric_scooter", "fusion_lat": 0.0, "lat": 38.91785683333333, "name": "34d95ada1afe2955cd803e300269cb37", "fusion_lon": 0.0, "bike_id": "34d95ada1afe2955cd803e300269cb37", "is_disabled": 0, "is_reserved": 0}, {"rental_uris": {"ios": "https://dc.lft.to/lastmile_qr_scan", "android": "https://dc.lft.to/lastmile_qr_scan"}, "lon": -77.02205, "type": "electric_scooter", "fusion_lat": 0.0, "lat": 38.90744266666667, "name": "480c8a718d64e79bc34358a6fc6655e2", "fusion_lon": 0.0, "bike_id": "480c8a718d64e79bc34358a6fc6655e2", "is_disabled": 0, "is_reserved": 0}, {"rental_uris": {"ios": "https://dc.lft.to/lastmile_qr_scan", "android": "https://dc.lft.to/lastmile_qr_scan"}, "lon": -76.9851, "type": "electric_scooter", "fusion_lat": 0.0, "lat": 38.906115, "name": "0acd3ab9440b19678fc280a5da1eec99", "fusion_lon": 0.0, "bike_id": "0acd3ab9440b19678fc280a5da1eec99", "is_disabled": 0, "is_reserved": 0}, {"rental_uris": {"ios": "https://dc.lft.to/lastmile_qr_scan", "android": "https://dc.lft.to/lastmile_qr_scan"}, "lon": -76.99972416666667, "type": "electric_scooter", "fusion_lat": 0.0, "lat": 38.909128, "name": "7849f607fcaaee4aad5de89303cecd1d", "fusion_lon": 0.0, "bike_id": "7849f607fcaaee4aad5de89303cecd1d", "is_disabled": 0, "is_reserved": 0}, {"rental_uris": {"ios": "https://dc.lft.to/lastmile_qr_scan", "android": "https://dc.lft.to/lastmile_qr_scan"}, "lon": -77.0417675, "type": "electric_scooter", "fusion_lat": 0.0, "lat": 38.919389333333335, "name": "ce1f71a33505853c290ddbb030321ba4", "fusion_lon": 0.0, "bike_id": "ce1f71a33505853c290ddbb030321ba4", "is_disabled": 0, "is_reserved": 0}, {"rental_uris": {"ios": "https://dc.lft.to/lastmile_qr_scan", "android": "https://dc.lft.to/lastmile_qr_scan"}, "lon": -77.04171683333334, "type": "electric_scooter", "fusion_lat": 0.0, "lat": 38.90845483333333, "name": "f2743600c4e43e0d870788d44d9a6ae8", "fusion_lon": 0.0, "bike_id": "f2743600c4e43e0d870788d44d9a6ae8", "is_disabled": 0, "is_reserved": 0}, {"rental_uris": {"ios": "https://dc.lft.to/lastmile_qr_scan", "android": "https://dc.lft.to/lastmile_qr_scan"}, "lon": -77.018382, "type": "electric_scooter", "fusion_lat": 0.0, "lat": 38.89985566666667, "name": "eea4077874e1dec65c5f2f1def5c9fc4", "fusion_lon": 0.0, "bike_id": "eea4077874e1dec65c5f2f1def5c9fc4", "is_disabled": 0, "is_reserved": 0}, {"rental_uris": {"ios": "https://dc.lft.to/lastmile_qr_scan", "android": "https://dc.lft.to/lastmile_qr_scan"}, "lon": -77.05004433333333, "type": "electric_scooter", "fusion_lat": 0.0, "lat": 38.892281, "name": "3346b8a08cee69f5e1cdf3a72d41c088", "fusion_lon": 0.0, "bike_id": "3346b8a08cee69f5e1cdf3a72d41c088", "is_disabled": 0, "is_reserved": 0}, {"rental_uris": {"ios": "https://dc.lft.to/lastmile_qr_scan", "android": "https://dc.lft.to/lastmile_qr_scan"}, "lon": -77.02384783333333, "type": "electric_scooter", "fusion_lat": 0.0, "lat": 38.8923165, "name": "78f863a623e2c73e49d7ace9640ba52a", "fusion_lon": 0.0, "bike_id": "78f863a623e2c73e49d7ace9640ba52a", "is_disabled": 0, "is_reserved": 0}, {"rental_uris": {"ios": "https://dc.lft.to/lastmile_qr_scan", "android": "https://dc.lft.to/lastmile_qr_scan"}, "lon": -77.05291833333334, "type": "electric_scooter", "fusion_lat": 0.0, "lat": 38.927929166666665, "name": "7028947aaa6aa4aa6a425ca609e263d2", "fusion_lon": 0.0, "bike_id": "7028947aaa6aa4aa6a425ca609e263d2", "is_disabled": 0, "is_reserved": 0}, {"rental_uris": {"ios": "https://dc.lft.to/lastmile_qr_scan", "android": "https://dc.lft.to/lastmile_qr_scan"}, "lon": -77.12905716666667, "type": "electric_bike", "fusion_lat": 0.0, "lat": 38.863717333333334, "name": "0f16ec5ce78aba1720fc730c253e7f26", "fusion_lon": 0.0, "bike_id": "0f16ec5ce78aba1720fc730c253e7f26", "is_disabled": 0, "is_reserved": 0}, {"rental_uris": {"ios": "https://dc.lft.to/lastmile_qr_scan", "android": "https://dc.lft.to/lastmile_qr_scan"}, "lon": -77.007019, "type": "electric_scooter", "fusion_lat": 0.0, "lat": 38.905645666666665, "name": "5ccea478a596ccd1db51451ab84129d8", "fusion_lon": 0.0, "bike_id": "5ccea478a596ccd1db51451ab84129d8", "is_disabled": 0, "is_reserved": 0}, {"rental_uris": {"ios": "https://dc.lft.to/lastmile_qr_scan", "android": "https://dc.lft.to/lastmile_qr_scan"}, "lon": -77.05332216666666, "type": "electric_scooter", "fusion_lat": 0.0, "lat": 38.923326833333334, "name": "86f687816ba01e53a2aab2704b2e9d02", "fusion_lon": 0.0, "bike_id": "86f687816ba01e53a2aab2704b2e9d02", "is_disabled": 0, "is_reserved": 0}, {"rental_uris": {"ios": "https://dc.lft.to/lastmile_qr_scan", "android": "https://dc.lft.to/lastmile_qr_scan"}, "lon": -77.03796883333334, "type": "electric_scooter", "fusion_lat": 0.0, "lat": 38.9067005, "name": "beecb6091ed6506879dde2968ac97cda", "fusion_lon": 0.0, "bike_id": "beecb6091ed6506879dde2968ac97cda", "is_disabled": 0, "is_reserved": 0}, {"rental_uris": {"ios": "https://dc.lft.to/lastmile_qr_scan", "android": "https://dc.lft.to/lastmile_qr_scan"}, "lon": -77.02386466666667, "type": "electric_scooter", "fusion_lat": 0.0, "lat": 38.915928, "name": "4ede9537a795424e92df1b753fe646bb", "fusion_lon": 0.0, "bike_id": "4ede9537a795424e92df1b753fe646bb", "is_disabled": 0, "is_reserved": 0}, {"rental_uris": {"ios": "https://dc.lft.to/lastmile_qr_scan", "android": "https://dc.lft.to/lastmile_qr_scan"}, "lon": -77.03197666666667, "type": "electric_scooter", "fusion_lat": 0.0, "lat": 38.912299833333336, "name": "6a9cfa059b99af2a2aff552149877abb", "fusion_lon": 0.0, "bike_id": "6a9cfa059b99af2a2aff552149877abb", "is_disabled": 0, "is_reserved": 0}, {"rental_uris": {"ios": "https://dc.lft.to/lastmile_qr_scan", "android": "https://dc.lft.to/lastmile_qr_scan"}, "lon": -77.02655283333333, "type": "electric_scooter", "fusion_lat": 0.0, "lat": 38.892231333333335, "name": "3b88d55c13441d691028aff94638ef2b", "fusion_lon": 0.0, "bike_id": "3b88d55c13441d691028aff94638ef2b", "is_disabled": 0, "is_reserved": 0}, {"rental_uris": {"ios": "https://dc.lft.to/lastmile_qr_scan", "android": "https://dc.lft.to/lastmile_qr_scan"}, "lon": -77.007043, "type": "electric_scooter", "fusion_lat": 0.0, "lat": 38.90052766666667, "name": "4aed6ccbc17dce6df7cf157ec42f21ad", "fusion_lon": 0.0, "bike_id": "4aed6ccbc17dce6df7cf157ec42f21ad", "is_disabled": 0, "is_reserved": 0}, {"rental_uris": {"ios": "https://dc.lft.to/lastmile_qr_scan", "android": "https://dc.lft.to/lastmile_qr_scan"}, "lon": -77.05361466666666, "type": "electric_scooter", "fusion_lat": 0.0, "lat": 38.927158666666664, "name": "b151b3abfd36bb0c73f3d4c4777fb5a2", "fusion_lon": 0.0, "bike_id": "b151b3abfd36bb0c73f3d4c4777fb5a2", "is_disabled": 0, "is_reserved": 0}, {"rental_uris": {"ios": "https://dc.lft.to/lastmile_qr_scan", "android": "https://dc.lft.to/lastmile_qr_scan"}, "lon": -76.984231, "type": "electric_scooter", "fusion_lat": 0.0, "lat": 38.859691, "name": "4c8f919acaf48c8877c954ea68fadad1", "fusion_lon": 0.0, "bike_id": "4c8f919acaf48c8877c954ea68fadad1", "is_disabled": 0, "is_reserved": 0}, {"rental_uris": {"ios": "https://dc.lft.to/lastmile_qr_scan", "android": "https://dc.lft.to/lastmile_qr_scan"}, "lon": -77.04890566666667, "type": "electric_scooter", "fusion_lat": 0.0, "lat": 38.9036345, "name": "d3a9ed5b43a352f52a5f6d06341875b8", "fusion_lon": 0.0, "bike_id": "d3a9ed5b43a352f52a5f6d06341875b8", "is_disabled": 0, "is_reserved": 0}, {"rental_uris": {"ios": "https://dc.lft.to/lastmile_qr_scan", "android": "https://dc.lft.to/lastmile_qr_scan"}, "lon": -77.0417435, "type": "electric_scooter", "fusion_lat": 0.0, "lat": 38.91702683333333, "name": "30371e5ba652ccae26791e2a6a673b00", "fusion_lon": 0.0, "bike_id": "30371e5ba652ccae26791e2a6a673b00", "is_disabled": 0, "is_reserved": 0}, {"rental_uris": {"ios": "https://dc.lft.to/lastmile_qr_scan", "android": "https://dc.lft.to/lastmile_qr_scan"}, "lon": -77.02953316666667, "type": "electric_scooter", "fusion_lat": 0.0, "lat": 38.915755833333336, "name": "c8b544060a9f05f2228724db24f7393e", "fusion_lon": 0.0, "bike_id": "c8b544060a9f05f2228724db24f7393e", "is_disabled": 0, "is_reserved": 0}, {"rental_uris": {"ios": "https://dc.lft.to/lastmile_qr_scan", "android": "https://dc.lft.to/lastmile_qr_scan"}, "lon": -77.01508883333334, "type": "electric_scooter", "fusion_lat": 0.0, "lat": 38.88742633333333, "name": "e13054f143a3a259d255f73473881c53", "fusion_lon": 0.0, "bike_id": "e13054f143a3a259d255f73473881c53", "is_disabled": 0, "is_reserved": 0}, {"rental_uris": {"ios": "https://dc.lft.to/lastmile_qr_scan", "android": "https://dc.lft.to/lastmile_qr_scan"}, "lon": -77.0318325, "type": "electric_scooter", "fusion_lat": 0.0, "lat": 38.918206166666664, "name": "2221d6b768a7ecde2af9a8662a6b6ac2", "fusion_lon": 0.0, "bike_id": "2221d6b768a7ecde2af9a8662a6b6ac2", "is_disabled": 0, "is_reserved": 0}, {"rental_uris": {"ios": "https://dc.lft.to/lastmile_qr_scan", "android": "https://dc.lft.to/lastmile_qr_scan"}, "lon": -77.03225483333334, "type": "electric_scooter", "fusion_lat": 0.0, "lat": 38.91819233333333, "name": "f99a51b01e0318bff53019f05b64d718", "fusion_lon": 0.0, "bike_id": "f99a51b01e0318bff53019f05b64d718", "is_disabled": 0, "is_reserved": 0}, {"rental_uris": {"ios": "https://dc.lft.to/lastmile_qr_scan", "android": "https://dc.lft.to/lastmile_qr_scan"}, "lon": -77.002779, "type": "electric_scooter", "fusion_lat": 0.0, "lat": 38.897436, "name": "ea99e93c690a56826962d4d2e4ecbd5d", "fusion_lon": 0.0, "bike_id": "ea99e93c690a56826962d4d2e4ecbd5d", "is_disabled": 0, "is_reserved": 0}, {"rental_uris": {"ios": "https://dc.lft.to/lastmile_qr_scan", "android": "https://dc.lft.to/lastmile_qr_scan"}, "lon": -77.1051095, "type": "electric_bike", "fusion_lat": 0.0, "lat": 38.92849266666666, "name": "d85877f65aa49dac3b7e8349cd0475f8", "fusion_lon": 0.0, "bike_id": "d85877f65aa49dac3b7e8349cd0475f8", "is_disabled": 0, "is_reserved": 0}, {"rental_uris": {"ios": "https://dc.lft.to/lastmile_qr_scan", "android": "https://dc.lft.to/lastmile_qr_scan"}, "lon": -77.0894695, "type": "electric_bike", "fusion_lat": 0.0, "lat": 38.840969666666666, "name": "239f06dc7367a4eb0d6b15d6994a96f9", "fusion_lon": 0.0, "bike_id": "239f06dc7367a4eb0d6b15d6994a96f9", "is_disabled": 0, "is_reserved": 0}, {"rental_uris": {"ios": "https://dc.lft.to/lastmile_qr_scan", "android": "https://dc.lft.to/lastmile_qr_scan"}, "lon": -77.051309, "type": "electric_scooter", "fusion_lat": 0.0, "lat": 38.90539583333333, "name": "c5ab12f687f338e1235da80d21a5b0a7", "fusion_lon": 0.0, "bike_id": "c5ab12f687f338e1235da80d21a5b0a7", "is_disabled": 0, "is_reserved": 0}, {"rental_uris": {"ios": "https://dc.lft.to/lastmile_qr_scan", "android": "https://dc.lft.to/lastmile_qr_scan"}, "lon": -77.001078, "type": "electric_scooter", "fusion_lat": 0.0, "lat": 38.89425716666667, "name": "4bb8fccb27679135e7b81e6efb07e918", "fusion_lon": 0.0, "bike_id": "4bb8fccb27679135e7b81e6efb07e918", "is_disabled": 0, "is_reserved": 0}, {"rental_uris": {"ios": "https://dc.lft.to/lastmile_qr_scan", "android": "https://dc.lft.to/lastmile_qr_scan"}, "lon": -76.99738516666666, "type": "electric_scooter", "fusion_lat": 0.0, "lat": 38.90947033333333, "name": "a2833e5b1de11bf41b21682397f88d4c", "fusion_lon": 0.0, "bike_id": "a2833e5b1de11bf41b21682397f88d4c", "is_disabled": 0, "is_reserved": 0}, {"rental_uris": {"ios": "https://dc.lft.to/lastmile_qr_scan", "android": "https://dc.lft.to/lastmile_qr_scan"}, "lon": -77.01869783333333, "type": "electric_scooter", "fusion_lat": 0.0, "lat": 38.948942833333334, "name": "ef614911876aa410f0898f3a66a60b18", "fusion_lon": 0.0, "bike_id": "ef614911876aa410f0898f3a66a60b18", "is_disabled": 0, "is_reserved": 0}, {"rental_uris": {"ios": "https://dc.lft.to/lastmile_qr_scan", "android": "https://dc.lft.to/lastmile_qr_scan"}, "lon": -77.0461205, "type": "electric_scooter", "fusion_lat": 0.0, "lat": 38.902436, "name": "27794b964cbc338a538844b915938884", "fusion_lon": 0.0, "bike_id": "27794b964cbc338a538844b915938884", "is_disabled": 0, "is_reserved": 0}, {"rental_uris": {"ios": "https://dc.lft.to/lastmile_qr_scan", "android": "https://dc.lft.to/lastmile_qr_scan"}, "lon": -77.066148, "type": "electric_scooter", "fusion_lat": 0.0, "lat": 38.90541266666666, "name": "472b5805bb008ead7700056da72607da", "fusion_lon": 0.0, "bike_id": "472b5805bb008ead7700056da72607da", "is_disabled": 0, "is_reserved": 0}, {"rental_uris": {"ios": "https://dc.lft.to/lastmile_qr_scan", "android": "https://dc.lft.to/lastmile_qr_scan"}, "lon": -77.0232785, "type": "electric_scooter", "fusion_lat": 0.0, "lat": 38.93527866666667, "name": "b781d1e0d10468ee13fa1610f8a2da34", "fusion_lon": 0.0, "bike_id": "b781d1e0d10468ee13fa1610f8a2da34", "is_disabled": 0, "is_reserved": 0}, {"rental_uris": {"ios": "https://dc.lft.to/lastmile_qr_scan", "android": "https://dc.lft.to/lastmile_qr_scan"}, "lon": -77.07357583333334, "type": "electric_scooter", "fusion_lat": 0.0, "lat": 38.9374045, "name": "2898fa3de7e74dd6fc588112ac513f8c", "fusion_lon": 0.0, "bike_id": "2898fa3de7e74dd6fc588112ac513f8c", "is_disabled": 0, "is_reserved": 0}, {"rental_uris": {"ios": "https://dc.lft.to/lastmile_qr_scan", "android": "https://dc.lft.to/lastmile_qr_scan"}, "lon": -76.96527433333333, "type": "electric_scooter", "fusion_lat": 0.0, "lat": 38.876272166666666, "name": "7e4b8c37441e75c664f703cda72e2e86", "fusion_lon": 0.0, "bike_id": "7e4b8c37441e75c664f703cda72e2e86", "is_disabled": 0, "is_reserved": 0}, {"rental_uris": {"ios": "https://dc.lft.to/lastmile_qr_scan", "android": "https://dc.lft.to/lastmile_qr_scan"}, "lon": -77.0553715, "type": "electric_scooter", "fusion_lat": 0.0, "lat": 38.89991633333333, "name": "3137ab37a7e23c897052babc6f3385e2", "fusion_lon": 0.0, "bike_id": "3137ab37a7e23c897052babc6f3385e2", "is_disabled": 0, "is_reserved": 0}, {"rental_uris": {"ios": "https://dc.lft.to/lastmile_qr_scan", "android": "https://dc.lft.to/lastmile_qr_scan"}, "lon": -77.02931916666667, "type": "electric_scooter", "fusion_lat": 0.0, "lat": 38.8821655, "name": "f751546fb4a60fa026e65d955f310a37", "fusion_lon": 0.0, "bike_id": "f751546fb4a60fa026e65d955f310a37", "is_disabled": 0, "is_reserved": 0}, {"rental_uris": {"ios": "https://dc.lft.to/lastmile_qr_scan", "android": "https://dc.lft.to/lastmile_qr_scan"}, "lon": -77.00502416666667, "type": "electric_scooter", "fusion_lat": 0.0, "lat": 38.896816, "name": "5917ee7287950585a04efe16343219ec", "fusion_lon": 0.0, "bike_id": "5917ee7287950585a04efe16343219ec", "is_disabled": 0, "is_reserved": 0}, {"rental_uris": {"ios": "https://dc.lft.to/lastmile_qr_scan", "android": "https://dc.lft.to/lastmile_qr_scan"}, "lon": -77.048197, "type": "electric_scooter", "fusion_lat": 0.0, "lat": 38.92036383333333, "name": "52dce4125ff1aa756bc4f36a886bd521", "fusion_lon": 0.0, "bike_id": "52dce4125ff1aa756bc4f36a886bd521", "is_disabled": 0, "is_reserved": 0}, {"rental_uris": {"ios": "https://dc.lft.to/lastmile_qr_scan", "android": "https://dc.lft.to/lastmile_qr_scan"}, "lon": -77.03198533333334, "type": "electric_scooter", "fusion_lat": 0.0, "lat": 38.916107, "name": "1dbb8fb066dd5c5dee8bd06daaf1f148", "fusion_lon": 0.0, "bike_id": "1dbb8fb066dd5c5dee8bd06daaf1f148", "is_disabled": 0, "is_reserved": 0}, {"rental_uris": {"ios": "https://dc.lft.to/lastmile_qr_scan", "android": "https://dc.lft.to/lastmile_qr_scan"}, "lon": -77.03550416666667, "type": "electric_scooter", "fusion_lat": 0.0, "lat": 38.912542333333334, "name": "2a7a68ce8a77c0e74a7d64beb4f75c14", "fusion_lon": 0.0, "bike_id": "2a7a68ce8a77c0e74a7d64beb4f75c14", "is_disabled": 0, "is_reserved": 0}, {"rental_uris": {"ios": "https://dc.lft.to/lastmile_qr_scan", "android": "https://dc.lft.to/lastmile_qr_scan"}, "lon": -77.04323266666667, "type": "electric_bike", "fusion_lat": 0.0, "lat": 38.92782416666667, "name": "e226a8ba17c85cd5660f6c7a61a62129", "fusion_lon": 0.0, "bike_id": "e226a8ba17c85cd5660f6c7a61a62129", "is_disabled": 0, "is_reserved": 0}, {"rental_uris": {"ios": "https://dc.lft.to/lastmile_qr_scan", "android": "https://dc.lft.to/lastmile_qr_scan"}, "lon": -77.011926, "type": "electric_scooter", "fusion_lat": 0.0, "lat": 38.915483, "name": "b843c0756298af9d7f9665cda450cdd3", "fusion_lon": 0.0, "bike_id": "b843c0756298af9d7f9665cda450cdd3", "is_disabled": 0, "is_reserved": 0}, {"rental_uris": {"ios": "https://dc.lft.to/lastmile_qr_scan", "android": "https://dc.lft.to/lastmile_qr_scan"}, "lon": -77.00074366666666, "type": "electric_scooter", "fusion_lat": 0.0, "lat": 38.9254835, "name": "bf89beb3fb729aba267face4e63433b2", "fusion_lon": 0.0, "bike_id": "bf89beb3fb729aba267face4e63433b2", "is_disabled": 0, "is_reserved": 0}, {"rental_uris": {"ios": "https://dc.lft.to/lastmile_qr_scan", "android": "https://dc.lft.to/lastmile_qr_scan"}, "lon": -76.998171, "type": "electric_bike", "fusion_lat": 0.0, "lat": 38.844312333333335, "name": "fb9ae402491a2952078723bd8d94e22d", "fusion_lon": 0.0, "bike_id": "fb9ae402491a2952078723bd8d94e22d", "is_disabled": 0, "is_reserved": 0}, {"rental_uris": {"ios": "https://dc.lft.to/lastmile_qr_scan", "android": "https://dc.lft.to/lastmile_qr_scan"}, "lon": -77.19907233333333, "type": "electric_bike", "fusion_lat": 0.0, "lat": 38.87525383333333, "name": "956b1e8fc93bb005eef051df3587fce4", "fusion_lon": 0.0, "bike_id": "956b1e8fc93bb005eef051df3587fce4", "is_disabled": 0, "is_reserved": 0}, {"rental_uris": {"ios": "https://dc.lft.to/lastmile_qr_scan", "android": "https://dc.lft.to/lastmile_qr_scan"}, "lon": -77.03570566666667, "type": "electric_scooter", "fusion_lat": 0.0, "lat": 38.91634616666666, "name": "a1fef6edb3897a56d63d75a2cbcc558c", "fusion_lon": 0.0, "bike_id": "a1fef6edb3897a56d63d75a2cbcc558c", "is_disabled": 0, "is_reserved": 0}, {"rental_uris": {"ios": "https://dc.lft.to/lastmile_qr_scan", "android": "https://dc.lft.to/lastmile_qr_scan"}, "lon": -77.00651183333333, "type": "electric_scooter", "fusion_lat": 0.0, "lat": 38.908615166666664, "name": "000653f87f89217606f1cdaf95fec982", "fusion_lon": 0.0, "bike_id": "000653f87f89217606f1cdaf95fec982", "is_disabled": 0, "is_reserved": 0}, {"rental_uris": {"ios": "https://dc.lft.to/lastmile_qr_scan", "android": "https://dc.lft.to/lastmile_qr_scan"}, "lon": -77.04896183333334, "type": "electric_scooter", "fusion_lat": 0.0, "lat": 38.903977833333336, "name": "1a37dafed5452d3c754a837577bc1a70", "fusion_lon": 0.0, "bike_id": "1a37dafed5452d3c754a837577bc1a70", "is_disabled": 0, "is_reserved": 0}, {"rental_uris": {"ios": "https://dc.lft.to/lastmile_qr_scan", "android": "https://dc.lft.to/lastmile_qr_scan"}, "lon": -77.04180483333333, "type": "electric_scooter", "fusion_lat": 0.0, "lat": 38.902754333333334, "name": "bfa29131ae6e95d64d28d1858ebc9cc7", "fusion_lon": 0.0, "bike_id": "bfa29131ae6e95d64d28d1858ebc9cc7", "is_disabled": 0, "is_reserved": 0}, {"rental_uris": {"ios": "https://dc.lft.to/lastmile_qr_scan", "android": "https://dc.lft.to/lastmile_qr_scan"}, "lon": -76.9337075, "type": "electric_scooter", "fusion_lat": 0.0, "lat": 38.899138666666666, "name": "4d00dcb0072598ccd82a5f0107798e77", "fusion_lon": 0.0, "bike_id": "4d00dcb0072598ccd82a5f0107798e77", "is_disabled": 0, "is_reserved": 0}, {"rental_uris": {"ios": "https://dc.lft.to/lastmile_qr_scan", "android": "https://dc.lft.to/lastmile_qr_scan"}, "lon": -77.02952816666667, "type": "electric_scooter", "fusion_lat": 0.0, "lat": 38.90389966666667, "name": "a3063f4747082c62ba70780ec6668702", "fusion_lon": 0.0, "bike_id": "a3063f4747082c62ba70780ec6668702", "is_disabled": 0, "is_reserved": 0}, {"rental_uris": {"ios": "https://dc.lft.to/lastmile_qr_scan", "android": "https://dc.lft.to/lastmile_qr_scan"}, "lon": -76.9980275, "type": "electric_bike", "fusion_lat": 0.0, "lat": 38.908566, "name": "56aca37a2a06731dd467d685e55a16aa", "fusion_lon": 0.0, "bike_id": "56aca37a2a06731dd467d685e55a16aa", "is_disabled": 0, "is_reserved": 0}, {"rental_uris": {"ios": "https://dc.lft.to/lastmile_qr_scan", "android": "https://dc.lft.to/lastmile_qr_scan"}, "lon": -77.14988683333333, "type": "electric_bike", "fusion_lat": 0.0, "lat": 39.09457866666666, "name": "b3ce8a886ef7ca93ecc2e05fb92f1b65", "fusion_lon": 0.0, "bike_id": "b3ce8a886ef7ca93ecc2e05fb92f1b65", "is_disabled": 0, "is_reserved": 0}, {"rental_uris": {"ios": "https://dc.lft.to/lastmile_qr_scan", "android": "https://dc.lft.to/lastmile_qr_scan"}, "lon": -76.96848566666667, "type": "electric_scooter", "fusion_lat": 0.0, "lat": 38.8746835, "name": "d57a85be3da0fc19ca83a0b8ea2c305b", "fusion_lon": 0.0, "bike_id": "d57a85be3da0fc19ca83a0b8ea2c305b", "is_disabled": 0, "is_reserved": 0}, {"rental_uris": {"ios": "https://dc.lft.to/lastmile_qr_scan", "android": "https://dc.lft.to/lastmile_qr_scan"}, "lon": -77.047082, "type": "electric_scooter", "fusion_lat": 0.0, "lat": 38.91783016666667, "name": "24ca819a09d428b38fbf4bc83609aa0a", "fusion_lon": 0.0, "bike_id": "24ca819a09d428b38fbf4bc83609aa0a", "is_disabled": 0, "is_reserved": 0}, {"rental_uris": {"ios": "https://dc.lft.to/lastmile_qr_scan", "android": "https://dc.lft.to/lastmile_qr_scan"}, "lon": -77.0048975, "type": "electric_scooter", "fusion_lat": 0.0, "lat": 38.912519, "name": "6a80c2aa32bded56e4ecc6262e7b4ec0", "fusion_lon": 0.0, "bike_id": "6a80c2aa32bded56e4ecc6262e7b4ec0", "is_disabled": 0, "is_reserved": 0}, {"rental_uris": {"ios": "https://dc.lft.to/lastmile_qr_scan", "android": "https://dc.lft.to/lastmile_qr_scan"}, "lon": -77.02405, "type": "electric_scooter", "fusion_lat": 0.0, "lat": 38.91600783333333, "name": "23391fc0385f94b27d29a99b43f1e691", "fusion_lon": 0.0, "bike_id": "23391fc0385f94b27d29a99b43f1e691", "is_disabled": 0, "is_reserved": 0}, {"rental_uris": {"ios": "https://dc.lft.to/lastmile_qr_scan", "android": "https://dc.lft.to/lastmile_qr_scan"}, "lon": -77.03212683333334, "type": "electric_scooter", "fusion_lat": 0.0, "lat": 38.937506666666664, "name": "e7074886334f99bcde4579422071e863", "fusion_lon": 0.0, "bike_id": "e7074886334f99bcde4579422071e863", "is_disabled": 0, "is_reserved": 0}, {"rental_uris": {"ios": "https://dc.lft.to/lastmile_qr_scan", "android": "https://dc.lft.to/lastmile_qr_scan"}, "lon": -77.01546016666667, "type": "electric_scooter", "fusion_lat": 0.0, "lat": 38.9027105, "name": "0dd809b2c462189e40b6587835ed5570", "fusion_lon": 0.0, "bike_id": "0dd809b2c462189e40b6587835ed5570", "is_disabled": 0, "is_reserved": 0}, {"rental_uris": {"ios": "https://dc.lft.to/lastmile_qr_scan", "android": "https://dc.lft.to/lastmile_qr_scan"}, "lon": -77.02195616666667, "type": "electric_scooter", "fusion_lat": 0.0, "lat": 38.9115105, "name": "24573a4f2259a3612bbf113f6eff0fcc", "fusion_lon": 0.0, "bike_id": "24573a4f2259a3612bbf113f6eff0fcc", "is_disabled": 0, "is_reserved": 0}, {"rental_uris": {"ios": "https://dc.lft.to/lastmile_qr_scan", "android": "https://dc.lft.to/lastmile_qr_scan"}, "lon": -77.05015516666667, "type": "electric_scooter", "fusion_lat": 0.0, "lat": 38.90434316666666, "name": "6fb396ed57f14c67189ba2a0d480b30e", "fusion_lon": 0.0, "bike_id": "6fb396ed57f14c67189ba2a0d480b30e", "is_disabled": 0, "is_reserved": 0}, {"rental_uris": {"ios": "https://dc.lft.to/lastmile_qr_scan", "android": "https://dc.lft.to/lastmile_qr_scan"}, "lon": -77.0346225, "type": "electric_scooter", "fusion_lat": 0.0, "lat": 38.917666, "name": "a7a08cab97f67d1f4f0ea730f5d9cb78", "fusion_lon": 0.0, "bike_id": "a7a08cab97f67d1f4f0ea730f5d9cb78", "is_disabled": 0, "is_reserved": 0}, {"rental_uris": {"ios": "https://dc.lft.to/lastmile_qr_scan", "android": "https://dc.lft.to/lastmile_qr_scan"}, "lon": -77.02163533333334, "type": "electric_scooter", "fusion_lat": 0.0, "lat": 38.91634066666667, "name": "efd92978709c8648039ba069a7225c61", "fusion_lon": 0.0, "bike_id": "efd92978709c8648039ba069a7225c61", "is_disabled": 0, "is_reserved": 0}, {"rental_uris": {"ios": "https://dc.lft.to/lastmile_qr_scan", "android": "https://dc.lft.to/lastmile_qr_scan"}, "lon": -77.05889316666666, "type": "electric_scooter", "fusion_lat": 0.0, "lat": 38.936345833333334, "name": "72d2e9f5cea745332a576599028d2d95", "fusion_lon": 0.0, "bike_id": "72d2e9f5cea745332a576599028d2d95", "is_disabled": 0, "is_reserved": 0}, {"rental_uris": {"ios": "https://dc.lft.to/lastmile_qr_scan", "android": "https://dc.lft.to/lastmile_qr_scan"}, "lon": -76.94652483333333, "type": "electric_scooter", "fusion_lat": 0.0, "lat": 38.89825666666667, "name": "6d9ce5ceadfcdf25434530438446775b", "fusion_lon": 0.0, "bike_id": "6d9ce5ceadfcdf25434530438446775b", "is_disabled": 0, "is_reserved": 0}, {"rental_uris": {"ios": "https://dc.lft.to/lastmile_qr_scan", "android": "https://dc.lft.to/lastmile_qr_scan"}, "lon": -77.06352266666667, "type": "electric_bike", "fusion_lat": 0.0, "lat": 38.908442, "name": "316a5e041d627a751359f6e0260093e4", "fusion_lon": 0.0, "bike_id": "316a5e041d627a751359f6e0260093e4", "is_disabled": 0, "is_reserved": 0}, {"rental_uris": {"ios": "https://dc.lft.to/lastmile_qr_scan", "android": "https://dc.lft.to/lastmile_qr_scan"}, "lon": -76.9725265, "type": "electric_bike", "fusion_lat": 0.0, "lat": 38.957406166666665, "name": "bc77cebcc2a2e6f94db1e39944080299", "fusion_lon": 0.0, "bike_id": "bc77cebcc2a2e6f94db1e39944080299", "is_disabled": 0, "is_reserved": 0}, {"rental_uris": {"ios": "https://dc.lft.to/lastmile_qr_scan", "android": "https://dc.lft.to/lastmile_qr_scan"}, "lon": -77.03171483333334, "type": "electric_scooter", "fusion_lat": 0.0, "lat": 38.919267833333336, "name": "5d66e4a330d3ed180bf566677b5b1140", "fusion_lon": 0.0, "bike_id": "5d66e4a330d3ed180bf566677b5b1140", "is_disabled": 0, "is_reserved": 0}, {"rental_uris": {"ios": "https://dc.lft.to/lastmile_qr_scan", "android": "https://dc.lft.to/lastmile_qr_scan"}, "lon": -76.97944633333333, "type": "electric_scooter", "fusion_lat": 0.0, "lat": 38.90247816666667, "name": "2cee1e40970f75adc8427ca3730bc80e", "fusion_lon": 0.0, "bike_id": "2cee1e40970f75adc8427ca3730bc80e", "is_disabled": 0, "is_reserved": 0}, {"rental_uris": {"ios": "https://dc.lft.to/lastmile_qr_scan", "android": "https://dc.lft.to/lastmile_qr_scan"}, "lon": -77.04339683333333, "type": "electric_scooter", "fusion_lat": 0.0, "lat": 38.908395666666664, "name": "762aee784d17a880c3eebafe4a0eabd7", "fusion_lon": 0.0, "bike_id": "762aee784d17a880c3eebafe4a0eabd7", "is_disabled": 0, "is_reserved": 0}, {"rental_uris": {"ios": "https://dc.lft.to/lastmile_qr_scan", "android": "https://dc.lft.to/lastmile_qr_scan"}, "lon": -77.00339183333334, "type": "electric_scooter", "fusion_lat": 0.0, "lat": 38.89348416666667, "name": "b59fee3418c63de77d021e6fb24a8f47", "fusion_lon": 0.0, "bike_id": "b59fee3418c63de77d021e6fb24a8f47", "is_disabled": 0, "is_reserved": 0}, {"rental_uris": {"ios": "https://dc.lft.to/lastmile_qr_scan", "android": "https://dc.lft.to/lastmile_qr_scan"}, "lon": -77.020877, "type": "electric_scooter", "fusion_lat": 0.0, "lat": 38.9311645, "name": "9be9a2d373120737968ae23041b5d717", "fusion_lon": 0.0, "bike_id": "9be9a2d373120737968ae23041b5d717", "is_disabled": 0, "is_reserved": 0}, {"rental_uris": {"ios": "https://dc.lft.to/lastmile_qr_scan", "android": "https://dc.lft.to/lastmile_qr_scan"}, "lon": -77.09668316666666, "type": "electric_scooter", "fusion_lat": 0.0, "lat": 38.9175685, "name": "e5bebcebabb31de3b4212d0b40823f00", "fusion_lon": 0.0, "bike_id": "e5bebcebabb31de3b4212d0b40823f00", "is_disabled": 0, "is_reserved": 0}, {"rental_uris": {"ios": "https://dc.lft.to/lastmile_qr_scan", "android": "https://dc.lft.to/lastmile_qr_scan"}, "lon": -77.0230315, "type": "electric_scooter", "fusion_lat": 0.0, "lat": 38.909639, "name": "352b6f6ea8982de0d684f6a1e1567964", "fusion_lon": 0.0, "bike_id": "352b6f6ea8982de0d684f6a1e1567964", "is_disabled": 0, "is_reserved": 0}, {"rental_uris": {"ios": "https://dc.lft.to/lastmile_qr_scan", "android": "https://dc.lft.to/lastmile_qr_scan"}, "lon": -77.04314633333334, "type": "electric_scooter", "fusion_lat": 0.0, "lat": 38.89220783333333, "name": "12fbc9ba1e8f257005645d5d2b78dacb", "fusion_lon": 0.0, "bike_id": "12fbc9ba1e8f257005645d5d2b78dacb", "is_disabled": 0, "is_reserved": 0}, {"rental_uris": {"ios": "https://dc.lft.to/lastmile_qr_scan", "android": "https://dc.lft.to/lastmile_qr_scan"}, "lon": -76.985524, "type": "electric_scooter", "fusion_lat": 0.0, "lat": 38.89952866666667, "name": "8da3ae3ac971a478f5f850baa39d3ae0", "fusion_lon": 0.0, "bike_id": "8da3ae3ac971a478f5f850baa39d3ae0", "is_disabled": 0, "is_reserved": 0}, {"rental_uris": {"ios": "https://dc.lft.to/lastmile_qr_scan", "android": "https://dc.lft.to/lastmile_qr_scan"}, "lon": -76.98886433333334, "type": "electric_scooter", "fusion_lat": 0.0, "lat": 38.866570333333335, "name": "c35e1cc3286ed6715ef4ac3af91767a1", "fusion_lon": 0.0, "bike_id": "c35e1cc3286ed6715ef4ac3af91767a1", "is_disabled": 0, "is_reserved": 0}, {"rental_uris": {"ios": "https://dc.lft.to/lastmile_qr_scan", "android": "https://dc.lft.to/lastmile_qr_scan"}, "lon": -77.0337045, "type": "electric_scooter", "fusion_lat": 0.0, "lat": 38.910404, "name": "e9882df434cd76c59cfbf10438a48fe2", "fusion_lon": 0.0, "bike_id": "e9882df434cd76c59cfbf10438a48fe2", "is_disabled": 0, "is_reserved": 0}, {"rental_uris": {"ios": "https://dc.lft.to/lastmile_qr_scan", "android": "https://dc.lft.to/lastmile_qr_scan"}, "lon": -77.06476283333333, "type": "electric_bike", "fusion_lat": 0.0, "lat": 38.97380283333333, "name": "37156afa8d599519174965ed7c3efb2b", "fusion_lon": 0.0, "bike_id": "37156afa8d599519174965ed7c3efb2b", "is_disabled": 0, "is_reserved": 0}, {"rental_uris": {"ios": "https://dc.lft.to/lastmile_qr_scan", "android": "https://dc.lft.to/lastmile_qr_scan"}, "lon": -76.99171266666667, "type": "electric_scooter", "fusion_lat": 0.0, "lat": 38.87919983333333, "name": "33b3c8d6698ae11fceb73a36fe99353c", "fusion_lon": 0.0, "bike_id": "33b3c8d6698ae11fceb73a36fe99353c", "is_disabled": 0, "is_reserved": 0}, {"rental_uris": {"ios": "https://dc.lft.to/lastmile_qr_scan", "android": "https://dc.lft.to/lastmile_qr_scan"}, "lon": -77.00506033333333, "type": "electric_scooter", "fusion_lat": 0.0, "lat": 38.87530866666667, "name": "b0c3e0c2b0aa023330837fde4c7beb3d", "fusion_lon": 0.0, "bike_id": "b0c3e0c2b0aa023330837fde4c7beb3d", "is_disabled": 0, "is_reserved": 0}, {"rental_uris": {"ios": "https://dc.lft.to/lastmile_qr_scan", "android": "https://dc.lft.to/lastmile_qr_scan"}, "lon": -77.02497333333334, "type": "electric_scooter", "fusion_lat": 0.0, "lat": 38.94283933333333, "name": "fe253de71b5e23fe1c52d93e960dca28", "fusion_lon": 0.0, "bike_id": "fe253de71b5e23fe1c52d93e960dca28", "is_disabled": 0, "is_reserved": 0}, {"rental_uris": {"ios": "https://dc.lft.to/lastmile_qr_scan", "android": "https://dc.lft.to/lastmile_qr_scan"}, "lon": -77.03269816666666, "type": "electric_scooter", "fusion_lat": 0.0, "lat": 38.9284785, "name": "997b5240113250952a3356684d1a1ff6", "fusion_lon": 0.0, "bike_id": "997b5240113250952a3356684d1a1ff6", "is_disabled": 0, "is_reserved": 0}, {"rental_uris": {"ios": "https://dc.lft.to/lastmile_qr_scan", "android": "https://dc.lft.to/lastmile_qr_scan"}, "lon": -77.00068216666666, "type": "electric_scooter", "fusion_lat": 0.0, "lat": 38.92388566666666, "name": "22ed2ecd1341a7c1e9b3ee7c71241ecf", "fusion_lon": 0.0, "bike_id": "22ed2ecd1341a7c1e9b3ee7c71241ecf", "is_disabled": 0, "is_reserved": 0}, {"rental_uris": {"ios": "https://dc.lft.to/lastmile_qr_scan", "android": "https://dc.lft.to/lastmile_qr_scan"}, "lon": -77.00256233333333, "type": "electric_scooter", "fusion_lat": 0.0, "lat": 38.901343, "name": "9ed877c9fc4fc85bedc73cb64e283a15", "fusion_lon": 0.0, "bike_id": "9ed877c9fc4fc85bedc73cb64e283a15", "is_disabled": 0, "is_reserved": 0}, {"rental_uris": {"ios": "https://dc.lft.to/lastmile_qr_scan", "android": "https://dc.lft.to/lastmile_qr_scan"}, "lon": -77.02693616666667, "type": "electric_scooter", "fusion_lat": 0.0, "lat": 38.90013866666666, "name": "9b1f5ecc7609c5e6a550796ee64c9d10", "fusion_lon": 0.0, "bike_id": "9b1f5ecc7609c5e6a550796ee64c9d10", "is_disabled": 0, "is_reserved": 0}, {"rental_uris": {"ios": "https://dc.lft.to/lastmile_qr_scan", "android": "https://dc.lft.to/lastmile_qr_scan"}, "lon": -77.04622666666667, "type": "electric_bike", "fusion_lat": 0.0, "lat": 38.99911983333333, "name": "168a5212764cd6dfe08be4163ecb367e", "fusion_lon": 0.0, "bike_id": "168a5212764cd6dfe08be4163ecb367e", "is_disabled": 0, "is_reserved": 0}, {"rental_uris": {"ios": "https://dc.lft.to/lastmile_qr_scan", "android": "https://dc.lft.to/lastmile_qr_scan"}, "lon": -77.024043, "type": "electric_scooter", "fusion_lat": 0.0, "lat": 38.90701933333333, "name": "6299372f5876c00ea3675747c0bb5b4b", "fusion_lon": 0.0, "bike_id": "6299372f5876c00ea3675747c0bb5b4b", "is_disabled": 0, "is_reserved": 0}, {"rental_uris": {"ios": "https://dc.lft.to/lastmile_qr_scan", "android": "https://dc.lft.to/lastmile_qr_scan"}, "lon": -77.0304175, "type": "electric_scooter", "fusion_lat": 0.0, "lat": 38.91698483333333, "name": "d915e0cc928051ddebac5713db312ced", "fusion_lon": 0.0, "bike_id": "d915e0cc928051ddebac5713db312ced", "is_disabled": 0, "is_reserved": 0}, {"rental_uris": {"ios": "https://dc.lft.to/lastmile_qr_scan", "android": "https://dc.lft.to/lastmile_qr_scan"}, "lon": -77.04163583333333, "type": "electric_scooter", "fusion_lat": 0.0, "lat": 38.9102285, "name": "2a96f77610e1dcfad4d48868ef191792", "fusion_lon": 0.0, "bike_id": "2a96f77610e1dcfad4d48868ef191792", "is_disabled": 0, "is_reserved": 0}, {"rental_uris": {"ios": "https://dc.lft.to/lastmile_qr_scan", "android": "https://dc.lft.to/lastmile_qr_scan"}, "lon": -77.02999916666667, "type": "electric_scooter", "fusion_lat": 0.0, "lat": 38.92478833333333, "name": "ee19a0f10eadd68f5e6c40c9ca091b33", "fusion_lon": 0.0, "bike_id": "ee19a0f10eadd68f5e6c40c9ca091b33", "is_disabled": 0, "is_reserved": 0}, {"rental_uris": {"ios": "https://dc.lft.to/lastmile_qr_scan", "android": "https://dc.lft.to/lastmile_qr_scan"}, "lon": -77.03183766666666, "type": "electric_scooter", "fusion_lat": 0.0, "lat": 38.887047833333334, "name": "7f154b07be8658e64186263d424e43a8", "fusion_lon": 0.0, "bike_id": "7f154b07be8658e64186263d424e43a8", "is_disabled": 0, "is_reserved": 0}, {"rental_uris": {"ios": "https://dc.lft.to/lastmile_qr_scan", "android": "https://dc.lft.to/lastmile_qr_scan"}, "lon": -77.360933, "type": "electric_bike", "fusion_lat": 0.0, "lat": 38.9395655, "name": "b22e5f7e924035df7de95615d4008550", "fusion_lon": 0.0, "bike_id": "b22e5f7e924035df7de95615d4008550", "is_disabled": 0, "is_reserved": 0}, {"rental_uris": {"ios": "https://dc.lft.to/lastmile_qr_scan", "android": "https://dc.lft.to/lastmile_qr_scan"}, "lon": -77.04086983333333, "type": "electric_scooter", "fusion_lat": 0.0, "lat": 38.90719983333334, "name": "9dfdac3e68468fa506e6f35b78a38cf9", "fusion_lon": 0.0, "bike_id": "9dfdac3e68468fa506e6f35b78a38cf9", "is_disabled": 0, "is_reserved": 0}, {"rental_uris": {"ios": "https://dc.lft.to/lastmile_qr_scan", "android": "https://dc.lft.to/lastmile_qr_scan"}, "lon": -77.01089766666666, "type": "electric_scooter", "fusion_lat": 0.0, "lat": 38.918136, "name": "02d914cc55fd26ac54672f6c0304eefa", "fusion_lon": 0.0, "bike_id": "02d914cc55fd26ac54672f6c0304eefa", "is_disabled": 0, "is_reserved": 0}, {"rental_uris": {"ios": "https://dc.lft.to/lastmile_qr_scan", "android": "https://dc.lft.to/lastmile_qr_scan"}, "lon": -76.97984283333334, "type": "electric_bike", "fusion_lat": 0.0, "lat": 38.877525, "name": "1c6bdb19e843fd85afe182a3be4e2dc8", "fusion_lon": 0.0, "bike_id": "1c6bdb19e843fd85afe182a3be4e2dc8", "is_disabled": 0, "is_reserved": 0}, {"rental_uris": {"ios": "https://dc.lft.to/lastmile_qr_scan", "android": "https://dc.lft.to/lastmile_qr_scan"}, "lon": -77.04999433333333, "type": "electric_scooter", "fusion_lat": 0.0, "lat": 38.892291166666666, "name": "09e37441beb85cafe5fd3509c7dcf9c3", "fusion_lon": 0.0, "bike_id": "09e37441beb85cafe5fd3509c7dcf9c3", "is_disabled": 0, "is_reserved": 0}, {"rental_uris": {"ios": "https://dc.lft.to/lastmile_qr_scan", "android": "https://dc.lft.to/lastmile_qr_scan"}, "lon": -77.03260033333333, "type": "electric_scooter", "fusion_lat": 0.0, "lat": 38.897142833333334, "name": "294f5e055f2c42363e7b11d05bde62e4", "fusion_lon": 0.0, "bike_id": "294f5e055f2c42363e7b11d05bde62e4", "is_disabled": 0, "is_reserved": 0}, {"rental_uris": {"ios": "https://dc.lft.to/lastmile_qr_scan", "android": "https://dc.lft.to/lastmile_qr_scan"}, "lon": -77.03294066666666, "type": "electric_scooter", "fusion_lat": 0.0, "lat": 38.92210133333333, "name": "f17ba54e9fc9ae560e27365f3059e863", "fusion_lon": 0.0, "bike_id": "f17ba54e9fc9ae560e27365f3059e863", "is_disabled": 0, "is_reserved": 0}, {"rental_uris": {"ios": "https://dc.lft.to/lastmile_qr_scan", "android": "https://dc.lft.to/lastmile_qr_scan"}, "lon": -77.022127, "type": "electric_scooter", "fusion_lat": 0.0, "lat": 38.89267066666667, "name": "ae34f2695778475917e23315eba602d1", "fusion_lon": 0.0, "bike_id": "ae34f2695778475917e23315eba602d1", "is_disabled": 0, "is_reserved": 0}, {"rental_uris": {"ios": "https://dc.lft.to/lastmile_qr_scan", "android": "https://dc.lft.to/lastmile_qr_scan"}, "lon": -77.02097866666666, "type": "electric_scooter", "fusion_lat": 0.0, "lat": 38.910089166666666, "name": "d0ebee9ac4cd0b7872715fbc61ad8805", "fusion_lon": 0.0, "bike_id": "d0ebee9ac4cd0b7872715fbc61ad8805", "is_disabled": 0, "is_reserved": 0}, {"rental_uris": {"ios": "https://dc.lft.to/lastmile_qr_scan", "android": "https://dc.lft.to/lastmile_qr_scan"}, "lon": -77.03954683333333, "type": "electric_scooter", "fusion_lat": 0.0, "lat": 38.89859216666667, "name": "e86e5ba8ecbe9d97e49a4fa4d874bb52", "fusion_lon": 0.0, "bike_id": "e86e5ba8ecbe9d97e49a4fa4d874bb52", "is_disabled": 0, "is_reserved": 0}, {"rental_uris": {"ios": "https://dc.lft.to/lastmile_qr_scan", "android": "https://dc.lft.to/lastmile_qr_scan"}, "lon": -77.12261766666667, "type": "electric_bike", "fusion_lat": 0.0, "lat": 38.891872666666664, "name": "64b0f734957e0795639da41cc7c4077a", "fusion_lon": 0.0, "bike_id": "64b0f734957e0795639da41cc7c4077a", "is_disabled": 0, "is_reserved": 0}, {"rental_uris": {"ios": "https://dc.lft.to/lastmile_qr_scan", "android": "https://dc.lft.to/lastmile_qr_scan"}, "lon": -77.03264133333333, "type": "electric_scooter", "fusion_lat": 0.0, "lat": 38.92931983333333, "name": "0ee9069afdb801bcc3de1c259d53d80a", "fusion_lon": 0.0, "bike_id": "0ee9069afdb801bcc3de1c259d53d80a", "is_disabled": 0, "is_reserved": 0}, {"rental_uris": {"ios": "https://dc.lft.to/lastmile_qr_scan", "android": "https://dc.lft.to/lastmile_qr_scan"}, "lon": -77.02401833333333, "type": "electric_scooter", "fusion_lat": 0.0, "lat": 38.915989, "name": "8d5192b2b3dbc16a6b53a8b4951e9c65", "fusion_lon": 0.0, "bike_id": "8d5192b2b3dbc16a6b53a8b4951e9c65", "is_disabled": 0, "is_reserved": 0}, {"rental_uris": {"ios": "https://dc.lft.to/lastmile_qr_scan", "android": "https://dc.lft.to/lastmile_qr_scan"}, "lon": -76.95758633333334, "type": "electric_scooter", "fusion_lat": 0.0, "lat": 38.8842335, "name": "5a34159da0e2013d6c0522a22da471d1", "fusion_lon": 0.0, "bike_id": "5a34159da0e2013d6c0522a22da471d1", "is_disabled": 0, "is_reserved": 0}, {"rental_uris": {"ios": "https://dc.lft.to/lastmile_qr_scan", "android": "https://dc.lft.to/lastmile_qr_scan"}, "lon": -76.99503716666666, "type": "electric_scooter", "fusion_lat": 0.0, "lat": 38.88494266666667, "name": "2201fef07343a0968db7c4b5a6a33006", "fusion_lon": 0.0, "bike_id": "2201fef07343a0968db7c4b5a6a33006", "is_disabled": 0, "is_reserved": 0}, {"rental_uris": {"ios": "https://dc.lft.to/lastmile_qr_scan", "android": "https://dc.lft.to/lastmile_qr_scan"}, "lon": -77.07694983333333, "type": "electric_bike", "fusion_lat": 0.0, "lat": 38.83190866666666, "name": "4f38e919d709edb4d553f1992b37e101", "fusion_lon": 0.0, "bike_id": "4f38e919d709edb4d553f1992b37e101", "is_disabled": 0, "is_reserved": 0}, {"rental_uris": {"ios": "https://dc.lft.to/lastmile_qr_scan", "android": "https://dc.lft.to/lastmile_qr_scan"}, "lon": -77.04998866666666, "type": "electric_scooter", "fusion_lat": 0.0, "lat": 38.89896683333333, "name": "cb6a0a3a8efac6766ecee30bb590f093", "fusion_lon": 0.0, "bike_id": "cb6a0a3a8efac6766ecee30bb590f093", "is_disabled": 0, "is_reserved": 0}, {"rental_uris": {"ios": "https://dc.lft.to/lastmile_qr_scan", "android": "https://dc.lft.to/lastmile_qr_scan"}, "lon": -77.024259, "type": "electric_scooter", "fusion_lat": 0.0, "lat": 38.900973666666665, "name": "8384a4292b120e9b0825acbaeff31755", "fusion_lon": 0.0, "bike_id": "8384a4292b120e9b0825acbaeff31755", "is_disabled": 0, "is_reserved": 0}, {"rental_uris": {"ios": "https://dc.lft.to/lastmile_qr_scan", "android": "https://dc.lft.to/lastmile_qr_scan"}, "lon": -77.02903033333334, "type": "electric_scooter", "fusion_lat": 0.0, "lat": 38.89847416666667, "name": "e05739eefdfdf0dd819680a8372a0e01", "fusion_lon": 0.0, "bike_id": "e05739eefdfdf0dd819680a8372a0e01", "is_disabled": 0, "is_reserved": 0}, {"rental_uris": {"ios": "https://dc.lft.to/lastmile_qr_scan", "android": "https://dc.lft.to/lastmile_qr_scan"}, "lon": -77.1122235, "type": "electric_bike", "fusion_lat": 0.0, "lat": 38.828742, "name": "80a896b497d1b292407b046a83c37a27", "fusion_lon": 0.0, "bike_id": "80a896b497d1b292407b046a83c37a27", "is_disabled": 0, "is_reserved": 0}, {"rental_uris": {"ios": "https://dc.lft.to/lastmile_qr_scan", "android": "https://dc.lft.to/lastmile_qr_scan"}, "lon": -77.04803633333333, "type": "electric_scooter", "fusion_lat": 0.0, "lat": 38.892211833333334, "name": "79bd1e291e5b5e2e9501433918fa21ed", "fusion_lon": 0.0, "bike_id": "79bd1e291e5b5e2e9501433918fa21ed", "is_disabled": 0, "is_reserved": 0}, {"rental_uris": {"ios": "https://dc.lft.to/lastmile_qr_scan", "android": "https://dc.lft.to/lastmile_qr_scan"}, "lon": -77.02725183333334, "type": "electric_scooter", "fusion_lat": 0.0, "lat": 38.918177166666666, "name": "3b494df33d757b98aca7f2f1fdb8cc30", "fusion_lon": 0.0, "bike_id": "3b494df33d757b98aca7f2f1fdb8cc30", "is_disabled": 0, "is_reserved": 0}, {"rental_uris": {"ios": "https://dc.lft.to/lastmile_qr_scan", "android": "https://dc.lft.to/lastmile_qr_scan"}, "lon": -76.93547, "type": "electric_bike", "fusion_lat": 0.0, "lat": 38.9555665, "name": "e46ea1cecc09d4929f5f4f3cc31f98b2", "fusion_lon": 0.0, "bike_id": "e46ea1cecc09d4929f5f4f3cc31f98b2", "is_disabled": 0, "is_reserved": 0}, {"rental_uris": {"ios": "https://dc.lft.to/lastmile_qr_scan", "android": "https://dc.lft.to/lastmile_qr_scan"}, "lon": -77.11200516666666, "type": "electric_bike", "fusion_lat": 0.0, "lat": 38.81304033333333, "name": "33502ee77dd09dc3af6469dd828af75c", "fusion_lon": 0.0, "bike_id": "33502ee77dd09dc3af6469dd828af75c", "is_disabled": 0, "is_reserved": 0}, {"rental_uris": {"ios": "https://dc.lft.to/lastmile_qr_scan", "android": "https://dc.lft.to/lastmile_qr_scan"}, "lon": -77.04747966666666, "type": "electric_scooter", "fusion_lat": 0.0, "lat": 38.902293, "name": "0ff99cbbeb39e177979ed3e35bb3d0f8", "fusion_lon": 0.0, "bike_id": "0ff99cbbeb39e177979ed3e35bb3d0f8", "is_disabled": 0, "is_reserved": 0}, {"rental_uris": {"ios": "https://dc.lft.to/lastmile_qr_scan", "android": "https://dc.lft.to/lastmile_qr_scan"}, "lon": -77.01374816666667, "type": "electric_scooter", "fusion_lat": 0.0, "lat": 38.928483, "name": "9f9a2279780d3ad67905b804ccb05518", "fusion_lon": 0.0, "bike_id": "9f9a2279780d3ad67905b804ccb05518", "is_disabled": 0, "is_reserved": 0}, {"rental_uris": {"ios": "https://dc.lft.to/lastmile_qr_scan", "android": "https://dc.lft.to/lastmile_qr_scan"}, "lon": -77.02384833333333, "type": "electric_scooter", "fusion_lat": 0.0, "lat": 38.932253333333335, "name": "3f94b3a18f5e0c38621d7c77da3fcd5f", "fusion_lon": 0.0, "bike_id": "3f94b3a18f5e0c38621d7c77da3fcd5f", "is_disabled": 0, "is_reserved": 0}, {"rental_uris": {"ios": "https://dc.lft.to/lastmile_qr_scan", "android": "https://dc.lft.to/lastmile_qr_scan"}, "lon": -77.031905, "type": "electric_scooter", "fusion_lat": 0.0, "lat": 38.91468583333333, "name": "e3efad10e35dafedf18cc79ea381f965", "fusion_lon": 0.0, "bike_id": "e3efad10e35dafedf18cc79ea381f965", "is_disabled": 0, "is_reserved": 0}, {"rental_uris": {"ios": "https://dc.lft.to/lastmile_qr_scan", "android": "https://dc.lft.to/lastmile_qr_scan"}, "lon": -77.10455583333334, "type": "electric_bike", "fusion_lat": 0.0, "lat": 38.8963575, "name": "d8c104b9865c39caa31b1774d6192b4e", "fusion_lon": 0.0, "bike_id": "d8c104b9865c39caa31b1774d6192b4e", "is_disabled": 0, "is_reserved": 0}, {"rental_uris": {"ios": "https://dc.lft.to/lastmile_qr_scan", "android": "https://dc.lft.to/lastmile_qr_scan"}, "lon": -77.03956233333334, "type": "electric_scooter", "fusion_lat": 0.0, "lat": 38.89244216666667, "name": "1fa883aebb3317898b8fea70a2b922ff", "fusion_lon": 0.0, "bike_id": "1fa883aebb3317898b8fea70a2b922ff", "is_disabled": 0, "is_reserved": 0}, {"rental_uris": {"ios": "https://dc.lft.to/lastmile_qr_scan", "android": "https://dc.lft.to/lastmile_qr_scan"}, "lon": -77.02009766666667, "type": "electric_scooter", "fusion_lat": 0.0, "lat": 38.913107333333336, "name": "55e1723819299f4fd10dbda2e985e7c3", "fusion_lon": 0.0, "bike_id": "55e1723819299f4fd10dbda2e985e7c3", "is_disabled": 0, "is_reserved": 0}, {"rental_uris": {"ios": "https://dc.lft.to/lastmile_qr_scan", "android": "https://dc.lft.to/lastmile_qr_scan"}, "lon": -77.006198, "type": "electric_scooter", "fusion_lat": 0.0, "lat": 38.902464, "name": "04f09e46d9662273e87eeaf0512ac16f", "fusion_lon": 0.0, "bike_id": "04f09e46d9662273e87eeaf0512ac16f", "is_disabled": 0, "is_reserved": 0}, {"rental_uris": {"ios": "https://dc.lft.to/lastmile_qr_scan", "android": "https://dc.lft.to/lastmile_qr_scan"}, "lon": -76.986487, "type": "electric_scooter", "fusion_lat": 0.0, "lat": 38.90288266666667, "name": "3ba86e49028d254ebc2fb30721fb496c", "fusion_lon": 0.0, "bike_id": "3ba86e49028d254ebc2fb30721fb496c", "is_disabled": 0, "is_reserved": 0}, {"rental_uris": {"ios": "https://dc.lft.to/lastmile_qr_scan", "android": "https://dc.lft.to/lastmile_qr_scan"}, "lon": -77.02710333333333, "type": "electric_scooter", "fusion_lat": 0.0, "lat": 38.949983, "name": "2fd00d517c1724e8ff8a367b8dd5d9d1", "fusion_lon": 0.0, "bike_id": "2fd00d517c1724e8ff8a367b8dd5d9d1", "is_disabled": 0, "is_reserved": 0}, {"rental_uris": {"ios": "https://dc.lft.to/lastmile_qr_scan", "android": "https://dc.lft.to/lastmile_qr_scan"}, "lon": -76.94637883333333, "type": "electric_scooter", "fusion_lat": 0.0, "lat": 38.898305, "name": "dd244f37e0781571eaed07fa6f5b483b", "fusion_lon": 0.0, "bike_id": "dd244f37e0781571eaed07fa6f5b483b", "is_disabled": 0, "is_reserved": 0}, {"rental_uris": {"ios": "https://dc.lft.to/lastmile_qr_scan", "android": "https://dc.lft.to/lastmile_qr_scan"}, "lon": -77.04548166666666, "type": "electric_scooter", "fusion_lat": 0.0, "lat": 38.9340615, "name": "07dcce79b20be2cc74c1cae61d27c9b0", "fusion_lon": 0.0, "bike_id": "07dcce79b20be2cc74c1cae61d27c9b0", "is_disabled": 0, "is_reserved": 0}, {"rental_uris": {"ios": "https://dc.lft.to/lastmile_qr_scan", "android": "https://dc.lft.to/lastmile_qr_scan"}, "lon": -77.0274665, "type": "electric_scooter", "fusion_lat": 0.0, "lat": 38.9084635, "name": "6e0646c4e7ca3c3aece9312b07a9109e", "fusion_lon": 0.0, "bike_id": "6e0646c4e7ca3c3aece9312b07a9109e", "is_disabled": 0, "is_reserved": 0}, {"rental_uris": {"ios": "https://dc.lft.to/lastmile_qr_scan", "android": "https://dc.lft.to/lastmile_qr_scan"}, "lon": -77.039153, "type": "electric_scooter", "fusion_lat": 0.0, "lat": 38.91839733333333, "name": "ceb66f83b0b6324f245650fe36eef385", "fusion_lon": 0.0, "bike_id": "ceb66f83b0b6324f245650fe36eef385", "is_disabled": 0, "is_reserved": 0}, {"rental_uris": {"ios": "https://dc.lft.to/lastmile_qr_scan", "android": "https://dc.lft.to/lastmile_qr_scan"}, "lon": -77.0235455, "type": "electric_scooter", "fusion_lat": 0.0, "lat": 38.91703966666667, "name": "829c1704e214ab64c408d446da5b77ea", "fusion_lon": 0.0, "bike_id": "829c1704e214ab64c408d446da5b77ea", "is_disabled": 0, "is_reserved": 0}, {"rental_uris": {"ios": "https://dc.lft.to/lastmile_qr_scan", "android": "https://dc.lft.to/lastmile_qr_scan"}, "lon": -76.94635383333333, "type": "electric_scooter", "fusion_lat": 0.0, "lat": 38.898428333333335, "name": "6c54c32ca2c5906b40d660d096d67cdc", "fusion_lon": 0.0, "bike_id": "6c54c32ca2c5906b40d660d096d67cdc", "is_disabled": 0, "is_reserved": 0}, {"rental_uris": {"ios": "https://dc.lft.to/lastmile_qr_scan", "android": "https://dc.lft.to/lastmile_qr_scan"}, "lon": -77.02147816666667, "type": "electric_scooter", "fusion_lat": 0.0, "lat": 38.909660333333335, "name": "1af6eb20106cd2c16e0506606a202c9b", "fusion_lon": 0.0, "bike_id": "1af6eb20106cd2c16e0506606a202c9b", "is_disabled": 0, "is_reserved": 0}, {"rental_uris": {"ios": "https://dc.lft.to/lastmile_qr_scan", "android": "https://dc.lft.to/lastmile_qr_scan"}, "lon": -77.0242525, "type": "electric_scooter", "fusion_lat": 0.0, "lat": 38.8922065, "name": "13fdf58fd1fcc4de5a4c42a28309714d", "fusion_lon": 0.0, "bike_id": "13fdf58fd1fcc4de5a4c42a28309714d", "is_disabled": 0, "is_reserved": 0}, {"rental_uris": {"ios": "https://dc.lft.to/lastmile_qr_scan", "android": "https://dc.lft.to/lastmile_qr_scan"}, "lon": -77.00942133333334, "type": "electric_scooter", "fusion_lat": 0.0, "lat": 38.8735895, "name": "78a3d5f99298f65d60d26425b1673dc0", "fusion_lon": 0.0, "bike_id": "78a3d5f99298f65d60d26425b1673dc0", "is_disabled": 0, "is_reserved": 0}, {"rental_uris": {"ios": "https://dc.lft.to/lastmile_qr_scan", "android": "https://dc.lft.to/lastmile_qr_scan"}, "lon": -76.999172, "type": "electric_scooter", "fusion_lat": 0.0, "lat": 38.900237, "name": "fa9f71f44f2f1fe0d8e27f5ba919122d", "fusion_lon": 0.0, "bike_id": "fa9f71f44f2f1fe0d8e27f5ba919122d", "is_disabled": 0, "is_reserved": 0}, {"rental_uris": {"ios": "https://dc.lft.to/lastmile_qr_scan", "android": "https://dc.lft.to/lastmile_qr_scan"}, "lon": -76.9834515, "type": "electric_scooter", "fusion_lat": 0.0, "lat": 38.915343166666666, "name": "cf0b70ca579dda8f6af8267c8acd859a", "fusion_lon": 0.0, "bike_id": "cf0b70ca579dda8f6af8267c8acd859a", "is_disabled": 0, "is_reserved": 0}, {"rental_uris": {"ios": "https://dc.lft.to/lastmile_qr_scan", "android": "https://dc.lft.to/lastmile_qr_scan"}, "lon": -77.04148583333334, "type": "electric_scooter", "fusion_lat": 0.0, "lat": 38.923536166666665, "name": "4210d134553e1882a2eeee2d65173889", "fusion_lon": 0.0, "bike_id": "4210d134553e1882a2eeee2d65173889", "is_disabled": 0, "is_reserved": 0}, {"rental_uris": {"ios": "https://dc.lft.to/lastmile_qr_scan", "android": "https://dc.lft.to/lastmile_qr_scan"}, "lon": -77.03216816666666, "type": "electric_scooter", "fusion_lat": 0.0, "lat": 38.916913, "name": "66c07994eed41047970cd4208257e289", "fusion_lon": 0.0, "bike_id": "66c07994eed41047970cd4208257e289", "is_disabled": 0, "is_reserved": 0}, {"rental_uris": {"ios": "https://dc.lft.to/lastmile_qr_scan", "android": "https://dc.lft.to/lastmile_qr_scan"}, "lon": -77.021916, "type": "electric_scooter", "fusion_lat": 0.0, "lat": 38.903511333333334, "name": "df639937813c0a0350bd02a000cb362f", "fusion_lon": 0.0, "bike_id": "df639937813c0a0350bd02a000cb362f", "is_disabled": 0, "is_reserved": 0}, {"rental_uris": {"ios": "https://dc.lft.to/lastmile_qr_scan", "android": "https://dc.lft.to/lastmile_qr_scan"}, "lon": -77.0365335, "type": "electric_scooter", "fusion_lat": 0.0, "lat": 38.95634066666667, "name": "7351d5a6eb24000a1b16debf53c5deda", "fusion_lon": 0.0, "bike_id": "7351d5a6eb24000a1b16debf53c5deda", "is_disabled": 0, "is_reserved": 0}, {"rental_uris": {"ios": "https://dc.lft.to/lastmile_qr_scan", "android": "https://dc.lft.to/lastmile_qr_scan"}, "lon": -77.041619, "type": "electric_scooter", "fusion_lat": 0.0, "lat": 38.91343216666667, "name": "4ca9fb16365e103a92f6d0258f0e225c", "fusion_lon": 0.0, "bike_id": "4ca9fb16365e103a92f6d0258f0e225c", "is_disabled": 0, "is_reserved": 0}, {"rental_uris": {"ios": "https://dc.lft.to/lastmile_qr_scan", "android": "https://dc.lft.to/lastmile_qr_scan"}, "lon": -77.07146483333334, "type": "electric_scooter", "fusion_lat": 0.0, "lat": 38.90773933333333, "name": "a6796b49e11736176211fd17b679441f", "fusion_lon": 0.0, "bike_id": "a6796b49e11736176211fd17b679441f", "is_disabled": 0, "is_reserved": 0}, {"rental_uris": {"ios": "https://dc.lft.to/lastmile_qr_scan", "android": "https://dc.lft.to/lastmile_qr_scan"}, "lon": -77.04479183333333, "type": "electric_scooter", "fusion_lat": 0.0, "lat": 38.919157, "name": "565c113b7587066cfa93893d4bf0d8a3", "fusion_lon": 0.0, "bike_id": "565c113b7587066cfa93893d4bf0d8a3", "is_disabled": 0, "is_reserved": 0}, {"rental_uris": {"ios": "https://dc.lft.to/lastmile_qr_scan", "android": "https://dc.lft.to/lastmile_qr_scan"}, "lon": -77.09561083333334, "type": "electric_bike", "fusion_lat": 0.0, "lat": 38.91705133333333, "name": "c67abb519e82d3e2f5886e7ba5ee0bfa", "fusion_lon": 0.0, "bike_id": "c67abb519e82d3e2f5886e7ba5ee0bfa", "is_disabled": 0, "is_reserved": 0}, {"rental_uris": {"ios": "https://dc.lft.to/lastmile_qr_scan", "android": "https://dc.lft.to/lastmile_qr_scan"}, "lon": -77.03341316666666, "type": "electric_scooter", "fusion_lat": 0.0, "lat": 38.90127616666667, "name": "81b61cba92c94db485d05524f9e2ca7d", "fusion_lon": 0.0, "bike_id": "81b61cba92c94db485d05524f9e2ca7d", "is_disabled": 0, "is_reserved": 0}, {"rental_uris": {"ios": "https://dc.lft.to/lastmile_qr_scan", "android": "https://dc.lft.to/lastmile_qr_scan"}, "lon": -77.022284, "type": "electric_scooter", "fusion_lat": 0.0, "lat": 38.91264, "name": "5bd47291822bca999a9ffcd4dec49a68", "fusion_lon": 0.0, "bike_id": "5bd47291822bca999a9ffcd4dec49a68", "is_disabled": 0, "is_reserved": 0}, {"rental_uris": {"ios": "https://dc.lft.to/lastmile_qr_scan", "android": "https://dc.lft.to/lastmile_qr_scan"}, "lon": -77.00211416666667, "type": "electric_scooter", "fusion_lat": 0.0, "lat": 38.902157, "name": "2efc6b69f1c43474f7df0322c26d0cd4", "fusion_lon": 0.0, "bike_id": "2efc6b69f1c43474f7df0322c26d0cd4", "is_disabled": 0, "is_reserved": 0}, {"rental_uris": {"ios": "https://dc.lft.to/lastmile_qr_scan", "android": "https://dc.lft.to/lastmile_qr_scan"}, "lon": -77.00581066666666, "type": "electric_scooter", "fusion_lat": 0.0, "lat": 38.8721465, "name": "f0ea93618ca8ddacddcc19d74fa33d53", "fusion_lon": 0.0, "bike_id": "f0ea93618ca8ddacddcc19d74fa33d53", "is_disabled": 0, "is_reserved": 0}, {"rental_uris": {"ios": "https://dc.lft.to/lastmile_qr_scan", "android": "https://dc.lft.to/lastmile_qr_scan"}, "lon": -76.9489025, "type": "electric_scooter", "fusion_lat": 0.0, "lat": 38.89528466666667, "name": "4e2a3b98f2d5a283238d79fdda9abe55", "fusion_lon": 0.0, "bike_id": "4e2a3b98f2d5a283238d79fdda9abe55", "is_disabled": 0, "is_reserved": 0}, {"rental_uris": {"ios": "https://dc.lft.to/lastmile_qr_scan", "android": "https://dc.lft.to/lastmile_qr_scan"}, "lon": -77.12734633333334, "type": "electric_bike", "fusion_lat": 0.0, "lat": 38.89561166666667, "name": "0524bf4c8c6bf384c38dfe0e910d3b88", "fusion_lon": 0.0, "bike_id": "0524bf4c8c6bf384c38dfe0e910d3b88", "is_disabled": 0, "is_reserved": 0}, {"rental_uris": {"ios": "https://dc.lft.to/lastmile_qr_scan", "android": "https://dc.lft.to/lastmile_qr_scan"}, "lon": -77.03257566666667, "type": "electric_scooter", "fusion_lat": 0.0, "lat": 38.93235383333333, "name": "34e46038aef82002c90ff22466fd8ae7", "fusion_lon": 0.0, "bike_id": "34e46038aef82002c90ff22466fd8ae7", "is_disabled": 0, "is_reserved": 0}, {"rental_uris": {"ios": "https://dc.lft.to/lastmile_qr_scan", "android": "https://dc.lft.to/lastmile_qr_scan"}, "lon": -76.91654033333333, "type": "electric_bike", "fusion_lat": 0.0, "lat": 38.8686105, "name": "4399e2a11203a06934b41b80217e0397", "fusion_lon": 0.0, "bike_id": "4399e2a11203a06934b41b80217e0397", "is_disabled": 0, "is_reserved": 0}, {"rental_uris": {"ios": "https://dc.lft.to/lastmile_qr_scan", "android": "https://dc.lft.to/lastmile_qr_scan"}, "lon": -77.00373883333333, "type": "electric_bike", "fusion_lat": 0.0, "lat": 38.836008, "name": "b4898f861222c25af39c22deb2023751", "fusion_lon": 0.0, "bike_id": "b4898f861222c25af39c22deb2023751", "is_disabled": 0, "is_reserved": 0}, {"rental_uris": {"ios": "https://dc.lft.to/lastmile_qr_scan", "android": "https://dc.lft.to/lastmile_qr_scan"}, "lon": -76.94637233333333, "type": "electric_scooter", "fusion_lat": 0.0, "lat": 38.89830283333333, "name": "2ee00b7d450beb46a62ecd7a2780ee50", "fusion_lon": 0.0, "bike_id": "2ee00b7d450beb46a62ecd7a2780ee50", "is_disabled": 0, "is_reserved": 0}, {"rental_uris": {"ios": "https://dc.lft.to/lastmile_qr_scan", "android": "https://dc.lft.to/lastmile_qr_scan"}, "lon": -76.9907425, "type": "electric_scooter", "fusion_lat": 0.0, "lat": 38.86356716666667, "name": "68a519d062ab8dc75a97605c19d40aeb", "fusion_lon": 0.0, "bike_id": "68a519d062ab8dc75a97605c19d40aeb", "is_disabled": 0, "is_reserved": 0}, {"rental_uris": {"ios": "https://dc.lft.to/lastmile_qr_scan", "android": "https://dc.lft.to/lastmile_qr_scan"}, "lon": -77.025894, "type": "electric_scooter", "fusion_lat": 0.0, "lat": 38.89242566666667, "name": "ec192ddce99dc834117f79d1cc98e0f0", "fusion_lon": 0.0, "bike_id": "ec192ddce99dc834117f79d1cc98e0f0", "is_disabled": 0, "is_reserved": 0}, {"rental_uris": {"ios": "https://dc.lft.to/lastmile_qr_scan", "android": "https://dc.lft.to/lastmile_qr_scan"}, "lon": -77.05193066666666, "type": "electric_scooter", "fusion_lat": 0.0, "lat": 38.92406033333334, "name": "060c2c29a8b453319a404cbbfe58a4c2", "fusion_lon": 0.0, "bike_id": "060c2c29a8b453319a404cbbfe58a4c2", "is_disabled": 0, "is_reserved": 0}, {"rental_uris": {"ios": "https://dc.lft.to/lastmile_qr_scan", "android": "https://dc.lft.to/lastmile_qr_scan"}, "lon": -77.0037045, "type": "electric_scooter", "fusion_lat": 0.0, "lat": 38.838019833333334, "name": "2952dbc2bd480416025faaecaba9ceb2", "fusion_lon": 0.0, "bike_id": "2952dbc2bd480416025faaecaba9ceb2", "is_disabled": 0, "is_reserved": 0}, {"rental_uris": {"ios": "https://dc.lft.to/lastmile_qr_scan", "android": "https://dc.lft.to/lastmile_qr_scan"}, "lon": -77.02757483333333, "type": "electric_scooter", "fusion_lat": 0.0, "lat": 38.95611366666667, "name": "d86e40f2a4bc55a037e4273fe7011f2f", "fusion_lon": 0.0, "bike_id": "d86e40f2a4bc55a037e4273fe7011f2f", "is_disabled": 0, "is_reserved": 0}, {"rental_uris": {"ios": "https://dc.lft.to/lastmile_qr_scan", "android": "https://dc.lft.to/lastmile_qr_scan"}, "lon": -77.09551433333333, "type": "electric_bike", "fusion_lat": 0.0, "lat": 38.83730716666667, "name": "0d78827e0a093e598689aa511e6005b3", "fusion_lon": 0.0, "bike_id": "0d78827e0a093e598689aa511e6005b3", "is_disabled": 0, "is_reserved": 0}, {"rental_uris": {"ios": "https://dc.lft.to/lastmile_qr_scan", "android": "https://dc.lft.to/lastmile_qr_scan"}, "lon": -77.04052533333333, "type": "electric_scooter", "fusion_lat": 0.0, "lat": 38.92714483333334, "name": "4098c26533a68cc39986439471c8c4e8", "fusion_lon": 0.0, "bike_id": "4098c26533a68cc39986439471c8c4e8", "is_disabled": 0, "is_reserved": 0}, {"rental_uris": {"ios": "https://dc.lft.to/lastmile_qr_scan", "android": "https://dc.lft.to/lastmile_qr_scan"}, "lon": -77.03553283333333, "type": "electric_scooter", "fusion_lat": 0.0, "lat": 38.908332333333334, "name": "8df3ece993afc82faae31a9a873a8f93", "fusion_lon": 0.0, "bike_id": "8df3ece993afc82faae31a9a873a8f93", "is_disabled": 0, "is_reserved": 0}, {"rental_uris": {"ios": "https://dc.lft.to/lastmile_qr_scan", "android": "https://dc.lft.to/lastmile_qr_scan"}, "lon": -77.050017, "type": "electric_scooter", "fusion_lat": 0.0, "lat": 38.89229233333333, "name": "51ee3161cdcaed550afcd399fcf33efe", "fusion_lon": 0.0, "bike_id": "51ee3161cdcaed550afcd399fcf33efe", "is_disabled": 0, "is_reserved": 0}, {"rental_uris": {"ios": "https://dc.lft.to/lastmile_qr_scan", "android": "https://dc.lft.to/lastmile_qr_scan"}, "lon": -77.03652, "type": "electric_scooter", "fusion_lat": 0.0, "lat": 38.95624166666666, "name": "66e2ac657d3bbd384aae91f9d49ee55a", "fusion_lon": 0.0, "bike_id": "66e2ac657d3bbd384aae91f9d49ee55a", "is_disabled": 0, "is_reserved": 0}, {"rental_uris": {"ios": "https://dc.lft.to/lastmile_qr_scan", "android": "https://dc.lft.to/lastmile_qr_scan"}, "lon": -77.03214316666667, "type": "electric_scooter", "fusion_lat": 0.0, "lat": 38.9126535, "name": "77cc5a6968ce2fc25f17f1dce477e3ca", "fusion_lon": 0.0, "bike_id": "77cc5a6968ce2fc25f17f1dce477e3ca", "is_disabled": 0, "is_reserved": 0}, {"rental_uris": {"ios": "https://dc.lft.to/lastmile_qr_scan", "android": "https://dc.lft.to/lastmile_qr_scan"}, "lon": -77.04172166666666, "type": "electric_scooter", "fusion_lat": 0.0, "lat": 38.91991316666667, "name": "ac78e45008e154bf2c92768b050e211b", "fusion_lon": 0.0, "bike_id": "ac78e45008e154bf2c92768b050e211b", "is_disabled": 0, "is_reserved": 0}, {"rental_uris": {"ios": "https://dc.lft.to/lastmile_qr_scan", "android": "https://dc.lft.to/lastmile_qr_scan"}, "lon": -77.089415, "type": "electric_bike", "fusion_lat": 0.0, "lat": 38.841060666666664, "name": "7afdef1e61757ea9b9a8e14c4103fbfd", "fusion_lon": 0.0, "bike_id": "7afdef1e61757ea9b9a8e14c4103fbfd", "is_disabled": 0, "is_reserved": 0}, {"rental_uris": {"ios": "https://dc.lft.to/lastmile_qr_scan", "android": "https://dc.lft.to/lastmile_qr_scan"}, "lon": -77.08080133333333, "type": "electric_bike", "fusion_lat": 0.0, "lat": 38.9068865, "name": "fb2a054e61856f7a1efb64cd8a25023c", "fusion_lon": 0.0, "bike_id": "fb2a054e61856f7a1efb64cd8a25023c", "is_disabled": 0, "is_reserved": 0}, {"rental_uris": {"ios": "https://dc.lft.to/lastmile_qr_scan", "android": "https://dc.lft.to/lastmile_qr_scan"}, "lon": -77.04510416666666, "type": "electric_scooter", "fusion_lat": 0.0, "lat": 38.90550016666667, "name": "f4c5df4eb5c6e84a78a8ae5e7e8c329d", "fusion_lon": 0.0, "bike_id": "f4c5df4eb5c6e84a78a8ae5e7e8c329d", "is_disabled": 0, "is_reserved": 0}, {"rental_uris": {"ios": "https://dc.lft.to/lastmile_qr_scan", "android": "https://dc.lft.to/lastmile_qr_scan"}, "lon": -77.023889, "type": "electric_scooter", "fusion_lat": 0.0, "lat": 38.906954166666665, "name": "9a723efa4110a3f048c40a0353c1aac8", "fusion_lon": 0.0, "bike_id": "9a723efa4110a3f048c40a0353c1aac8", "is_disabled": 0, "is_reserved": 0}, {"rental_uris": {"ios": "https://dc.lft.to/lastmile_qr_scan", "android": "https://dc.lft.to/lastmile_qr_scan"}, "lon": -77.013654, "type": "electric_scooter", "fusion_lat": 0.0, "lat": 38.863721166666664, "name": "d3c521e573ac3237f2823107ac00f4fe", "fusion_lon": 0.0, "bike_id": "d3c521e573ac3237f2823107ac00f4fe", "is_disabled": 0, "is_reserved": 0}, {"rental_uris": {"ios": "https://dc.lft.to/lastmile_qr_scan", "android": "https://dc.lft.to/lastmile_qr_scan"}, "lon": -77.0237145, "type": "electric_scooter", "fusion_lat": 0.0, "lat": 38.9205785, "name": "f70dd85a4efd738d8fe0790b39722367", "fusion_lon": 0.0, "bike_id": "f70dd85a4efd738d8fe0790b39722367", "is_disabled": 0, "is_reserved": 0}, {"rental_uris": {"ios": "https://dc.lft.to/lastmile_qr_scan", "android": "https://dc.lft.to/lastmile_qr_scan"}, "lon": -77.045477, "type": "electric_scooter", "fusion_lat": 0.0, "lat": 38.911118, "name": "50f6b2666f7cd1cff19469e1916c7602", "fusion_lon": 0.0, "bike_id": "50f6b2666f7cd1cff19469e1916c7602", "is_disabled": 0, "is_reserved": 0}, {"rental_uris": {"ios": "https://dc.lft.to/lastmile_qr_scan", "android": "https://dc.lft.to/lastmile_qr_scan"}, "lon": -77.00582133333333, "type": "electric_scooter", "fusion_lat": 0.0, "lat": 38.874177, "name": "2cf33d0370e29b6b11232145cf30bd5a", "fusion_lon": 0.0, "bike_id": "2cf33d0370e29b6b11232145cf30bd5a", "is_disabled": 0, "is_reserved": 0}, {"rental_uris": {"ios": "https://dc.lft.to/lastmile_qr_scan", "android": "https://dc.lft.to/lastmile_qr_scan"}, "lon": -77.05348783333334, "type": "electric_scooter", "fusion_lat": 0.0, "lat": 38.902269833333335, "name": "77e1d11edf8140dce239f8225f4bf2ae", "fusion_lon": 0.0, "bike_id": "77e1d11edf8140dce239f8225f4bf2ae", "is_disabled": 0, "is_reserved": 0}, {"rental_uris": {"ios": "https://dc.lft.to/lastmile_qr_scan", "android": "https://dc.lft.to/lastmile_qr_scan"}, "lon": -77.02136083333333, "type": "electric_scooter", "fusion_lat": 0.0, "lat": 38.897160666666664, "name": "58a25cc8a0dd5df85d4bec061744e32b", "fusion_lon": 0.0, "bike_id": "58a25cc8a0dd5df85d4bec061744e32b", "is_disabled": 0, "is_reserved": 0}, {"rental_uris": {"ios": "https://dc.lft.to/lastmile_qr_scan", "android": "https://dc.lft.to/lastmile_qr_scan"}, "lon": -77.026957, "type": "electric_scooter", "fusion_lat": 0.0, "lat": 38.908411666666666, "name": "02a9e8df3e40af8507ec128d2f8b75bb", "fusion_lon": 0.0, "bike_id": "02a9e8df3e40af8507ec128d2f8b75bb", "is_disabled": 0, "is_reserved": 0}, {"rental_uris": {"ios": "https://dc.lft.to/lastmile_qr_scan", "android": "https://dc.lft.to/lastmile_qr_scan"}, "lon": -77.02369283333333, "type": "electric_scooter", "fusion_lat": 0.0, "lat": 38.898559, "name": "0a853093b8df989de10e0cb5caa307bd", "fusion_lon": 0.0, "bike_id": "0a853093b8df989de10e0cb5caa307bd", "is_disabled": 0, "is_reserved": 0}, {"rental_uris": {"ios": "https://dc.lft.to/lastmile_qr_scan", "android": "https://dc.lft.to/lastmile_qr_scan"}, "lon": -77.02761683333334, "type": "electric_scooter", "fusion_lat": 0.0, "lat": 38.8919565, "name": "e6096874b0c7770bef39f5329a272880", "fusion_lon": 0.0, "bike_id": "e6096874b0c7770bef39f5329a272880", "is_disabled": 0, "is_reserved": 0}, {"rental_uris": {"ios": "https://dc.lft.to/lastmile_qr_scan", "android": "https://dc.lft.to/lastmile_qr_scan"}, "lon": -77.03932966666666, "type": "electric_scooter", "fusion_lat": 0.0, "lat": 38.91755633333333, "name": "2cb4f4ea2d5713dc4d179aaa2b1727b2", "fusion_lon": 0.0, "bike_id": "2cb4f4ea2d5713dc4d179aaa2b1727b2", "is_disabled": 0, "is_reserved": 0}, {"rental_uris": {"ios": "https://dc.lft.to/lastmile_qr_scan", "android": "https://dc.lft.to/lastmile_qr_scan"}, "lon": -76.99561783333333, "type": "electric_scooter", "fusion_lat": 0.0, "lat": 38.92028233333333, "name": "7aad60a5c9b0b434eb21cb451a2092aa", "fusion_lon": 0.0, "bike_id": "7aad60a5c9b0b434eb21cb451a2092aa", "is_disabled": 0, "is_reserved": 0}, {"rental_uris": {"ios": "https://dc.lft.to/lastmile_qr_scan", "android": "https://dc.lft.to/lastmile_qr_scan"}, "lon": -77.14124916666667, "type": "electric_bike", "fusion_lat": 0.0, "lat": 38.8160305, "name": "a6faab90aade0786111056127ee58f2e", "fusion_lon": 0.0, "bike_id": "a6faab90aade0786111056127ee58f2e", "is_disabled": 0, "is_reserved": 0}, {"rental_uris": {"ios": "https://dc.lft.to/lastmile_qr_scan", "android": "https://dc.lft.to/lastmile_qr_scan"}, "lon": -77.03471716666667, "type": "electric_scooter", "fusion_lat": 0.0, "lat": 38.90776016666667, "name": "1e7fb8df0d3a374562f9b6fcf8e47128", "fusion_lon": 0.0, "bike_id": "1e7fb8df0d3a374562f9b6fcf8e47128", "is_disabled": 0, "is_reserved": 0}, {"rental_uris": {"ios": "https://dc.lft.to/lastmile_qr_scan", "android": "https://dc.lft.to/lastmile_qr_scan"}, "lon": -77.03657633333333, "type": "electric_scooter", "fusion_lat": 0.0, "lat": 38.95496116666666, "name": "06745768b25b047d5ed165ae75ade1d0", "fusion_lon": 0.0, "bike_id": "06745768b25b047d5ed165ae75ade1d0", "is_disabled": 0, "is_reserved": 0}, {"rental_uris": {"ios": "https://dc.lft.to/lastmile_qr_scan", "android": "https://dc.lft.to/lastmile_qr_scan"}, "lon": -77.03275783333333, "type": "electric_scooter", "fusion_lat": 0.0, "lat": 38.919172, "name": "46e749571cb71fbc1d3524c4f8b2f580", "fusion_lon": 0.0, "bike_id": "46e749571cb71fbc1d3524c4f8b2f580", "is_disabled": 0, "is_reserved": 0}, {"rental_uris": {"ios": "https://dc.lft.to/lastmile_qr_scan", "android": "https://dc.lft.to/lastmile_qr_scan"}, "lon": -76.99516983333334, "type": "electric_scooter", "fusion_lat": 0.0, "lat": 38.86254533333333, "name": "bf88fd1a384f97c76da6937ff1262e5c", "fusion_lon": 0.0, "bike_id": "bf88fd1a384f97c76da6937ff1262e5c", "is_disabled": 0, "is_reserved": 0}, {"rental_uris": {"ios": "https://dc.lft.to/lastmile_qr_scan", "android": "https://dc.lft.to/lastmile_qr_scan"}, "lon": -77.00251833333333, "type": "electric_bike", "fusion_lat": 0.0, "lat": 38.952253166666665, "name": "4f5c90db63009b3f5e5e21a2b970492f", "fusion_lon": 0.0, "bike_id": "4f5c90db63009b3f5e5e21a2b970492f", "is_disabled": 0, "is_reserved": 0}, {"rental_uris": {"ios": "https://dc.lft.to/lastmile_qr_scan", "android": "https://dc.lft.to/lastmile_qr_scan"}, "lon": -77.02713316666667, "type": "electric_scooter", "fusion_lat": 0.0, "lat": 38.91727783333333, "name": "24bd164b42b719a6d37ef5ffd61d73dc", "fusion_lon": 0.0, "bike_id": "24bd164b42b719a6d37ef5ffd61d73dc", "is_disabled": 0, "is_reserved": 0}, {"rental_uris": {"ios": "https://dc.lft.to/lastmile_qr_scan", "android": "https://dc.lft.to/lastmile_qr_scan"}, "lon": -77.0640375, "type": "electric_bike", "fusion_lat": 0.0, "lat": 38.843392, "name": "327bbfd7089f0032ba7900c5793d15a3", "fusion_lon": 0.0, "bike_id": "327bbfd7089f0032ba7900c5793d15a3", "is_disabled": 0, "is_reserved": 0}, {"rental_uris": {"ios": "https://dc.lft.to/lastmile_qr_scan", "android": "https://dc.lft.to/lastmile_qr_scan"}, "lon": -76.9978555, "type": "electric_scooter", "fusion_lat": 0.0, "lat": 38.844193833333335, "name": "8908e0c29ff6c3bb71160852ce85e8dc", "fusion_lon": 0.0, "bike_id": "8908e0c29ff6c3bb71160852ce85e8dc", "is_disabled": 0, "is_reserved": 0}, {"rental_uris": {"ios": "https://dc.lft.to/lastmile_qr_scan", "android": "https://dc.lft.to/lastmile_qr_scan"}, "lon": -77.0329345, "type": "electric_scooter", "fusion_lat": 0.0, "lat": 38.901182666666664, "name": "ed36fcb1248bcb0b1bbe1b3e90886050", "fusion_lon": 0.0, "bike_id": "ed36fcb1248bcb0b1bbe1b3e90886050", "is_disabled": 0, "is_reserved": 0}, {"rental_uris": {"ios": "https://dc.lft.to/lastmile_qr_scan", "android": "https://dc.lft.to/lastmile_qr_scan"}, "lon": -77.03208933333333, "type": "electric_scooter", "fusion_lat": 0.0, "lat": 38.9180355, "name": "8ead3b548547c13994f52758f3a25d9f", "fusion_lon": 0.0, "bike_id": "8ead3b548547c13994f52758f3a25d9f", "is_disabled": 0, "is_reserved": 0}, {"rental_uris": {"ios": "https://dc.lft.to/lastmile_qr_scan", "android": "https://dc.lft.to/lastmile_qr_scan"}, "lon": -77.00646016666667, "type": "electric_scooter", "fusion_lat": 0.0, "lat": 38.9170425, "name": "6ffa311788a2cf3b3c6f4c1593141f37", "fusion_lon": 0.0, "bike_id": "6ffa311788a2cf3b3c6f4c1593141f37", "is_disabled": 0, "is_reserved": 0}, {"rental_uris": {"ios": "https://dc.lft.to/lastmile_qr_scan", "android": "https://dc.lft.to/lastmile_qr_scan"}, "lon": -77.0395035, "type": "electric_scooter", "fusion_lat": 0.0, "lat": 38.904686, "name": "5995b21e4bd7c9feb35561b7d0d376eb", "fusion_lon": 0.0, "bike_id": "5995b21e4bd7c9feb35561b7d0d376eb", "is_disabled": 0, "is_reserved": 0}, {"rental_uris": {"ios": "https://dc.lft.to/lastmile_qr_scan", "android": "https://dc.lft.to/lastmile_qr_scan"}, "lon": -76.94761033333333, "type": "electric_scooter", "fusion_lat": 0.0, "lat": 38.900481666666664, "name": "7b6842adfb0e6bcd8d57982a16a2aae4", "fusion_lon": 0.0, "bike_id": "7b6842adfb0e6bcd8d57982a16a2aae4", "is_disabled": 0, "is_reserved": 0}, {"rental_uris": {"ios": "https://dc.lft.to/lastmile_qr_scan", "android": "https://dc.lft.to/lastmile_qr_scan"}, "lon": -77.0238655, "type": "electric_scooter", "fusion_lat": 0.0, "lat": 38.952454833333334, "name": "e12322fff768e29962592f469110416a", "fusion_lon": 0.0, "bike_id": "e12322fff768e29962592f469110416a", "is_disabled": 0, "is_reserved": 0}, {"rental_uris": {"ios": "https://dc.lft.to/lastmile_qr_scan", "android": "https://dc.lft.to/lastmile_qr_scan"}, "lon": -77.03310516666667, "type": "electric_scooter", "fusion_lat": 0.0, "lat": 38.926480166666664, "name": "2e699f1af225df846cbf98cf629b44b5", "fusion_lon": 0.0, "bike_id": "2e699f1af225df846cbf98cf629b44b5", "is_disabled": 0, "is_reserved": 0}, {"rental_uris": {"ios": "https://dc.lft.to/lastmile_qr_scan", "android": "https://dc.lft.to/lastmile_qr_scan"}, "lon": -77.01350566666666, "type": "electric_scooter", "fusion_lat": 0.0, "lat": 38.94189516666667, "name": "3f1b8e42d4449eb626959ca999621846", "fusion_lon": 0.0, "bike_id": "3f1b8e42d4449eb626959ca999621846", "is_disabled": 0, "is_reserved": 0}, {"rental_uris": {"ios": "https://dc.lft.to/lastmile_qr_scan", "android": "https://dc.lft.to/lastmile_qr_scan"}, "lon": -77.0240695, "type": "electric_scooter", "fusion_lat": 0.0, "lat": 38.89223533333333, "name": "f46407c5c078a9ad2cb8154c140c76d0", "fusion_lon": 0.0, "bike_id": "f46407c5c078a9ad2cb8154c140c76d0", "is_disabled": 0, "is_reserved": 0}, {"rental_uris": {"ios": "https://dc.lft.to/lastmile_qr_scan", "android": "https://dc.lft.to/lastmile_qr_scan"}, "lon": -77.00817516666666, "type": "electric_scooter", "fusion_lat": 0.0, "lat": 38.87751566666667, "name": "c792c9c453c06ff853e0e8f17ff1abdf", "fusion_lon": 0.0, "bike_id": "c792c9c453c06ff853e0e8f17ff1abdf", "is_disabled": 0, "is_reserved": 0}, {"rental_uris": {"ios": "https://dc.lft.to/lastmile_qr_scan", "android": "https://dc.lft.to/lastmile_qr_scan"}, "lon": -77.03178483333333, "type": "electric_scooter", "fusion_lat": 0.0, "lat": 38.919215333333334, "name": "f359b1f1ee71f3673cdd804a5478320b", "fusion_lon": 0.0, "bike_id": "f359b1f1ee71f3673cdd804a5478320b", "is_disabled": 0, "is_reserved": 0}, {"rental_uris": {"ios": "https://dc.lft.to/lastmile_qr_scan", "android": "https://dc.lft.to/lastmile_qr_scan"}, "lon": -76.97679916666667, "type": "electric_scooter", "fusion_lat": 0.0, "lat": 38.89869366666667, "name": "984a6b533aab118212524084755373fa", "fusion_lon": 0.0, "bike_id": "984a6b533aab118212524084755373fa", "is_disabled": 0, "is_reserved": 0}, {"rental_uris": {"ios": "https://dc.lft.to/lastmile_qr_scan", "android": "https://dc.lft.to/lastmile_qr_scan"}, "lon": -77.02015266666666, "type": "electric_scooter", "fusion_lat": 0.0, "lat": 38.89218283333334, "name": "57d8575915dd9f3621862c76e5eafbc8", "fusion_lon": 0.0, "bike_id": "57d8575915dd9f3621862c76e5eafbc8", "is_disabled": 0, "is_reserved": 0}, {"rental_uris": {"ios": "https://dc.lft.to/lastmile_qr_scan", "android": "https://dc.lft.to/lastmile_qr_scan"}, "lon": -77.04181433333333, "type": "electric_scooter", "fusion_lat": 0.0, "lat": 38.903562666666666, "name": "6a5146fed2f900138bdd7e3843a4dab6", "fusion_lon": 0.0, "bike_id": "6a5146fed2f900138bdd7e3843a4dab6", "is_disabled": 0, "is_reserved": 0}, {"rental_uris": {"ios": "https://dc.lft.to/lastmile_qr_scan", "android": "https://dc.lft.to/lastmile_qr_scan"}, "lon": -77.04485916666667, "type": "electric_scooter", "fusion_lat": 0.0, "lat": 38.91954966666667, "name": "bf6dfedc0a90c6c9755d7fa3f303fc85", "fusion_lon": 0.0, "bike_id": "bf6dfedc0a90c6c9755d7fa3f303fc85", "is_disabled": 0, "is_reserved": 0}, {"rental_uris": {"ios": "https://dc.lft.to/lastmile_qr_scan", "android": "https://dc.lft.to/lastmile_qr_scan"}, "lon": -77.00863683333333, "type": "electric_bike", "fusion_lat": 0.0, "lat": 38.8272825, "name": "01c6f789735ed81d01f6e51adff5dcbd", "fusion_lon": 0.0, "bike_id": "01c6f789735ed81d01f6e51adff5dcbd", "is_disabled": 0, "is_reserved": 0}, {"rental_uris": {"ios": "https://dc.lft.to/lastmile_qr_scan", "android": "https://dc.lft.to/lastmile_qr_scan"}, "lon": -77.04713966666667, "type": "electric_scooter", "fusion_lat": 0.0, "lat": 38.922391166666664, "name": "643b1eced847ef4b4f0fa3390790c1f4", "fusion_lon": 0.0, "bike_id": "643b1eced847ef4b4f0fa3390790c1f4", "is_disabled": 0, "is_reserved": 0}, {"rental_uris": {"ios": "https://dc.lft.to/lastmile_qr_scan", "android": "https://dc.lft.to/lastmile_qr_scan"}, "lon": -77.02589066666667, "type": "electric_scooter", "fusion_lat": 0.0, "lat": 38.8924705, "name": "6c209a501b40c2894c8ac51bafba94d9", "fusion_lon": 0.0, "bike_id": "6c209a501b40c2894c8ac51bafba94d9", "is_disabled": 0, "is_reserved": 0}, {"rental_uris": {"ios": "https://dc.lft.to/lastmile_qr_scan", "android": "https://dc.lft.to/lastmile_qr_scan"}, "lon": -77.04779583333334, "type": "electric_scooter", "fusion_lat": 0.0, "lat": 38.90509383333333, "name": "00394cb9df33637b2fbfbf7b356b0f72", "fusion_lon": 0.0, "bike_id": "00394cb9df33637b2fbfbf7b356b0f72", "is_disabled": 0, "is_reserved": 0}, {"rental_uris": {"ios": "https://dc.lft.to/lastmile_qr_scan", "android": "https://dc.lft.to/lastmile_qr_scan"}, "lon": -77.02382616666667, "type": "electric_scooter", "fusion_lat": 0.0, "lat": 38.93227133333333, "name": "851d2300d32c37dc32379765d212556c", "fusion_lon": 0.0, "bike_id": "851d2300d32c37dc32379765d212556c", "is_disabled": 0, "is_reserved": 0}, {"rental_uris": {"ios": "https://dc.lft.to/lastmile_qr_scan", "android": "https://dc.lft.to/lastmile_qr_scan"}, "lon": -77.04998633333334, "type": "electric_scooter", "fusion_lat": 0.0, "lat": 38.901222, "name": "1afa8633ab781a94947fa1293d5dac07", "fusion_lon": 0.0, "bike_id": "1afa8633ab781a94947fa1293d5dac07", "is_disabled": 0, "is_reserved": 0}, {"rental_uris": {"ios": "https://dc.lft.to/lastmile_qr_scan", "android": "https://dc.lft.to/lastmile_qr_scan"}, "lon": -76.99002566666667, "type": "electric_scooter", "fusion_lat": 0.0, "lat": 38.8650275, "name": "e5bafde51e1d4fae5d4a5b2517e06ad6", "fusion_lon": 0.0, "bike_id": "e5bafde51e1d4fae5d4a5b2517e06ad6", "is_disabled": 0, "is_reserved": 0}, {"rental_uris": {"ios": "https://dc.lft.to/lastmile_qr_scan", "android": "https://dc.lft.to/lastmile_qr_scan"}, "lon": -77.06757416666666, "type": "electric_scooter", "fusion_lat": 0.0, "lat": 38.90373616666667, "name": "1c4df50b49e95122097b9f898eddb290", "fusion_lon": 0.0, "bike_id": "1c4df50b49e95122097b9f898eddb290", "is_disabled": 0, "is_reserved": 0}, {"rental_uris": {"ios": "https://dc.lft.to/lastmile_qr_scan", "android": "https://dc.lft.to/lastmile_qr_scan"}, "lon": -77.01952683333333, "type": "electric_scooter", "fusion_lat": 0.0, "lat": 38.924151333333334, "name": "f8e6eb51f74958800fe3719046454d6b", "fusion_lon": 0.0, "bike_id": "f8e6eb51f74958800fe3719046454d6b", "is_disabled": 0, "is_reserved": 0}, {"rental_uris": {"ios": "https://dc.lft.to/lastmile_qr_scan", "android": "https://dc.lft.to/lastmile_qr_scan"}, "lon": -77.03209883333334, "type": "electric_scooter", "fusion_lat": 0.0, "lat": 38.9258095, "name": "b45089aec0cdf8293e5794c247355741", "fusion_lon": 0.0, "bike_id": "b45089aec0cdf8293e5794c247355741", "is_disabled": 0, "is_reserved": 0}, {"rental_uris": {"ios": "https://dc.lft.to/lastmile_qr_scan", "android": "https://dc.lft.to/lastmile_qr_scan"}, "lon": -77.015108, "type": "electric_scooter", "fusion_lat": 0.0, "lat": 38.90146933333333, "name": "a79c84b48a07ed8704d86290c395d22a", "fusion_lon": 0.0, "bike_id": "a79c84b48a07ed8704d86290c395d22a", "is_disabled": 0, "is_reserved": 0}, {"rental_uris": {"ios": "https://dc.lft.to/lastmile_qr_scan", "android": "https://dc.lft.to/lastmile_qr_scan"}, "lon": -77.02765116666667, "type": "electric_scooter", "fusion_lat": 0.0, "lat": 38.917141666666666, "name": "10c869543e7fe316b492657bf64770da", "fusion_lon": 0.0, "bike_id": "10c869543e7fe316b492657bf64770da", "is_disabled": 0, "is_reserved": 0}, {"rental_uris": {"ios": "https://dc.lft.to/lastmile_qr_scan", "android": "https://dc.lft.to/lastmile_qr_scan"}, "lon": -76.94895666666666, "type": "electric_scooter", "fusion_lat": 0.0, "lat": 38.895247833333336, "name": "bcbe55cf206e7d067aa5197d5496a9b8", "fusion_lon": 0.0, "bike_id": "bcbe55cf206e7d067aa5197d5496a9b8", "is_disabled": 0, "is_reserved": 0}, {"rental_uris": {"ios": "https://dc.lft.to/lastmile_qr_scan", "android": "https://dc.lft.to/lastmile_qr_scan"}, "lon": -77.03217233333334, "type": "electric_scooter", "fusion_lat": 0.0, "lat": 38.892158, "name": "a7527743bcb53cb1e044908f3a3bf9fc", "fusion_lon": 0.0, "bike_id": "a7527743bcb53cb1e044908f3a3bf9fc", "is_disabled": 0, "is_reserved": 0}, {"rental_uris": {"ios": "https://dc.lft.to/lastmile_qr_scan", "android": "https://dc.lft.to/lastmile_qr_scan"}, "lon": -76.98563633333333, "type": "electric_scooter", "fusion_lat": 0.0, "lat": 38.85580233333334, "name": "dca6cedfceefb0a68025fb80b06998dd", "fusion_lon": 0.0, "bike_id": "dca6cedfceefb0a68025fb80b06998dd", "is_disabled": 0, "is_reserved": 0}, {"rental_uris": {"ios": "https://dc.lft.to/lastmile_qr_scan", "android": "https://dc.lft.to/lastmile_qr_scan"}, "lon": -77.009887, "type": "electric_scooter", "fusion_lat": 0.0, "lat": 38.89615333333333, "name": "a9b9f030bdc378ef70306642ea5c5107", "fusion_lon": 0.0, "bike_id": "a9b9f030bdc378ef70306642ea5c5107", "is_disabled": 0, "is_reserved": 0}, {"rental_uris": {"ios": "https://dc.lft.to/lastmile_qr_scan", "android": "https://dc.lft.to/lastmile_qr_scan"}, "lon": -77.07067366666666, "type": "electric_scooter", "fusion_lat": 0.0, "lat": 38.95222066666667, "name": "1900eb84b73ec88c5d42b02155af14c9", "fusion_lon": 0.0, "bike_id": "1900eb84b73ec88c5d42b02155af14c9", "is_disabled": 0, "is_reserved": 0}, {"rental_uris": {"ios": "https://dc.lft.to/lastmile_qr_scan", "android": "https://dc.lft.to/lastmile_qr_scan"}, "lon": -77.009792, "type": "electric_scooter", "fusion_lat": 0.0, "lat": 38.919222833333336, "name": "22a13b6d6780bc657f0fb57c089d53f1", "fusion_lon": 0.0, "bike_id": "22a13b6d6780bc657f0fb57c089d53f1", "is_disabled": 0, "is_reserved": 0}, {"rental_uris": {"ios": "https://dc.lft.to/lastmile_qr_scan", "android": "https://dc.lft.to/lastmile_qr_scan"}, "lon": -76.9489165, "type": "electric_scooter", "fusion_lat": 0.0, "lat": 38.89527066666667, "name": "17cea3fe153d5b3e80daf0acd3fa9aea", "fusion_lon": 0.0, "bike_id": "17cea3fe153d5b3e80daf0acd3fa9aea", "is_disabled": 0, "is_reserved": 0}, {"rental_uris": {"ios": "https://dc.lft.to/lastmile_qr_scan", "android": "https://dc.lft.to/lastmile_qr_scan"}, "lon": -77.045511, "type": "electric_scooter", "fusion_lat": 0.0, "lat": 38.933872, "name": "49d14acd9d09eb0e4cac66d9008b40e8", "fusion_lon": 0.0, "bike_id": "49d14acd9d09eb0e4cac66d9008b40e8", "is_disabled": 0, "is_reserved": 0}, {"rental_uris": {"ios": "https://dc.lft.to/lastmile_qr_scan", "android": "https://dc.lft.to/lastmile_qr_scan"}, "lon": -77.04188366666666, "type": "electric_scooter", "fusion_lat": 0.0, "lat": 38.920178166666666, "name": "99bd9a9dced7a7ce0a6c68d775018c4d", "fusion_lon": 0.0, "bike_id": "99bd9a9dced7a7ce0a6c68d775018c4d", "is_disabled": 0, "is_reserved": 0}, {"rental_uris": {"ios": "https://dc.lft.to/lastmile_qr_scan", "android": "https://dc.lft.to/lastmile_qr_scan"}, "lon": -77.04658233333333, "type": "electric_scooter", "fusion_lat": 0.0, "lat": 38.901589333333334, "name": "f111cbe6e486e562b29c0aefbd9556d4", "fusion_lon": 0.0, "bike_id": "f111cbe6e486e562b29c0aefbd9556d4", "is_disabled": 0, "is_reserved": 0}, {"rental_uris": {"ios": "https://dc.lft.to/lastmile_qr_scan", "android": "https://dc.lft.to/lastmile_qr_scan"}, "lon": -77.03019333333333, "type": "electric_scooter", "fusion_lat": 0.0, "lat": 38.910101, "name": "71fa89ef5d1b5b254da4c286c1cbff0f", "fusion_lon": 0.0, "bike_id": "71fa89ef5d1b5b254da4c286c1cbff0f", "is_disabled": 0, "is_reserved": 0}, {"rental_uris": {"ios": "https://dc.lft.to/lastmile_qr_scan", "android": "https://dc.lft.to/lastmile_qr_scan"}, "lon": -76.98178683333333, "type": "electric_scooter", "fusion_lat": 0.0, "lat": 38.8958005, "name": "bef6cb793be6d4d61e68f69b0a8e6158", "fusion_lon": 0.0, "bike_id": "bef6cb793be6d4d61e68f69b0a8e6158", "is_disabled": 0, "is_reserved": 0}, {"rental_uris": {"ios": "https://dc.lft.to/lastmile_qr_scan", "android": "https://dc.lft.to/lastmile_qr_scan"}, "lon": -77.031466, "type": "electric_scooter", "fusion_lat": 0.0, "lat": 38.912692166666666, "name": "1ac9972de4f8201bc4051608c64b3325", "fusion_lon": 0.0, "bike_id": "1ac9972de4f8201bc4051608c64b3325", "is_disabled": 0, "is_reserved": 0}, {"rental_uris": {"ios": "https://dc.lft.to/lastmile_qr_scan", "android": "https://dc.lft.to/lastmile_qr_scan"}, "lon": -77.029528, "type": "electric_scooter", "fusion_lat": 0.0, "lat": 38.9158975, "name": "e1f28b88d1f6c6449157573a018d5f99", "fusion_lon": 0.0, "bike_id": "e1f28b88d1f6c6449157573a018d5f99", "is_disabled": 0, "is_reserved": 0}, {"rental_uris": {"ios": "https://dc.lft.to/lastmile_qr_scan", "android": "https://dc.lft.to/lastmile_qr_scan"}, "lon": -77.03188783333333, "type": "electric_scooter", "fusion_lat": 0.0, "lat": 38.913248333333335, "name": "c1b8010380db021b82b52b1a5fa62e4c", "fusion_lon": 0.0, "bike_id": "c1b8010380db021b82b52b1a5fa62e4c", "is_disabled": 0, "is_reserved": 0}, {"rental_uris": {"ios": "https://dc.lft.to/lastmile_qr_scan", "android": "https://dc.lft.to/lastmile_qr_scan"}, "lon": -77.0218325, "type": "electric_scooter", "fusion_lat": 0.0, "lat": 38.93946533333333, "name": "d95530c0d72ae72c7df44ca610723f69", "fusion_lon": 0.0, "bike_id": "d95530c0d72ae72c7df44ca610723f69", "is_disabled": 0, "is_reserved": 0}, {"rental_uris": {"ios": "https://dc.lft.to/lastmile_qr_scan", "android": "https://dc.lft.to/lastmile_qr_scan"}, "lon": -76.9826255, "type": "electric_scooter", "fusion_lat": 0.0, "lat": 38.90862833333333, "name": "3fe6e4d663754978a9974e671e01e378", "fusion_lon": 0.0, "bike_id": "3fe6e4d663754978a9974e671e01e378", "is_disabled": 0, "is_reserved": 0}, {"rental_uris": {"ios": "https://dc.lft.to/lastmile_qr_scan", "android": "https://dc.lft.to/lastmile_qr_scan"}, "lon": -76.9096895, "type": "electric_bike", "fusion_lat": 0.0, "lat": 38.8542635, "name": "f35bcea92bb3cab9faca01229389983a", "fusion_lon": 0.0, "bike_id": "f35bcea92bb3cab9faca01229389983a", "is_disabled": 0, "is_reserved": 0}, {"rental_uris": {"ios": "https://dc.lft.to/lastmile_qr_scan", "android": "https://dc.lft.to/lastmile_qr_scan"}, "lon": -76.999531, "type": "electric_scooter", "fusion_lat": 0.0, "lat": 38.8429515, "name": "50eecb5fe282efc07323905bef2402db", "fusion_lon": 0.0, "bike_id": "50eecb5fe282efc07323905bef2402db", "is_disabled": 0, "is_reserved": 0}, {"rental_uris": {"ios": "https://dc.lft.to/lastmile_qr_scan", "android": "https://dc.lft.to/lastmile_qr_scan"}, "lon": -77.039778, "type": "electric_scooter", "fusion_lat": 0.0, "lat": 38.92448383333333, "name": "e573099a56980c98a6c933352fdd8ad7", "fusion_lon": 0.0, "bike_id": "e573099a56980c98a6c933352fdd8ad7", "is_disabled": 0, "is_reserved": 0}, {"rental_uris": {"ios": "https://dc.lft.to/lastmile_qr_scan", "android": "https://dc.lft.to/lastmile_qr_scan"}, "lon": -77.03215883333333, "type": "electric_scooter", "fusion_lat": 0.0, "lat": 38.962366333333335, "name": "a1ca793789a4786a3edf5d1346f0e2df", "fusion_lon": 0.0, "bike_id": "a1ca793789a4786a3edf5d1346f0e2df", "is_disabled": 0, "is_reserved": 0}, {"rental_uris": {"ios": "https://dc.lft.to/lastmile_qr_scan", "android": "https://dc.lft.to/lastmile_qr_scan"}, "lon": -77.04510616666667, "type": "electric_scooter", "fusion_lat": 0.0, "lat": 38.892193166666665, "name": "903af95a78078ea596ae52ec6dcdc6ae", "fusion_lon": 0.0, "bike_id": "903af95a78078ea596ae52ec6dcdc6ae", "is_disabled": 0, "is_reserved": 0}, {"rental_uris": {"ios": "https://dc.lft.to/lastmile_qr_scan", "android": "https://dc.lft.to/lastmile_qr_scan"}, "lon": -77.04902733333333, "type": "electric_bike", "fusion_lat": 0.0, "lat": 38.87488033333333, "name": "4a92553e8bb5fff60c0ce1d3bebee85e", "fusion_lon": 0.0, "bike_id": "4a92553e8bb5fff60c0ce1d3bebee85e", "is_disabled": 0, "is_reserved": 0}, {"rental_uris": {"ios": "https://dc.lft.to/lastmile_qr_scan", "android": "https://dc.lft.to/lastmile_qr_scan"}, "lon": -77.0231205, "type": "electric_scooter", "fusion_lat": 0.0, "lat": 38.916868, "name": "0745d64e3f63205e58bc789382951e2a", "fusion_lon": 0.0, "bike_id": "0745d64e3f63205e58bc789382951e2a", "is_disabled": 0, "is_reserved": 0}, {"rental_uris": {"ios": "https://dc.lft.to/lastmile_qr_scan", "android": "https://dc.lft.to/lastmile_qr_scan"}, "lon": -77.10031866666667, "type": "electric_bike", "fusion_lat": 0.0, "lat": 38.99056516666667, "name": "0d80658efe9a5ee56bc8943a16c8eda8", "fusion_lon": 0.0, "bike_id": "0d80658efe9a5ee56bc8943a16c8eda8", "is_disabled": 0, "is_reserved": 0}, {"rental_uris": {"ios": "https://dc.lft.to/lastmile_qr_scan", "android": "https://dc.lft.to/lastmile_qr_scan"}, "lon": -77.06279416666666, "type": "electric_scooter", "fusion_lat": 0.0, "lat": 38.9068425, "name": "cbfd45b666da959408d83f09838bc976", "fusion_lon": 0.0, "bike_id": "cbfd45b666da959408d83f09838bc976", "is_disabled": 0, "is_reserved": 0}, {"rental_uris": {"ios": "https://dc.lft.to/lastmile_qr_scan", "android": "https://dc.lft.to/lastmile_qr_scan"}, "lon": -76.99053833333333, "type": "electric_scooter", "fusion_lat": 0.0, "lat": 38.901377, "name": "c7c55a5d51d452e27b9917c7af114505", "fusion_lon": 0.0, "bike_id": "c7c55a5d51d452e27b9917c7af114505", "is_disabled": 0, "is_reserved": 0}, {"rental_uris": {"ios": "https://dc.lft.to/lastmile_qr_scan", "android": "https://dc.lft.to/lastmile_qr_scan"}, "lon": -77.02189083333333, "type": "electric_scooter", "fusion_lat": 0.0, "lat": 38.91037383333333, "name": "e422a7248c4aeffe1284ce0ca7b6c45a", "fusion_lon": 0.0, "bike_id": "e422a7248c4aeffe1284ce0ca7b6c45a", "is_disabled": 0, "is_reserved": 0}, {"rental_uris": {"ios": "https://dc.lft.to/lastmile_qr_scan", "android": "https://dc.lft.to/lastmile_qr_scan"}, "lon": -76.9465145, "type": "electric_scooter", "fusion_lat": 0.0, "lat": 38.89824083333333, "name": "d3639995cb908dbcc2c9172124d356dd", "fusion_lon": 0.0, "bike_id": "d3639995cb908dbcc2c9172124d356dd", "is_disabled": 0, "is_reserved": 0}, {"rental_uris": {"ios": "https://dc.lft.to/lastmile_qr_scan", "android": "https://dc.lft.to/lastmile_qr_scan"}, "lon": -77.00354566666667, "type": "electric_scooter", "fusion_lat": 0.0, "lat": 38.89770683333333, "name": "7ff422f174b6d7c1599637260e751177", "fusion_lon": 0.0, "bike_id": "7ff422f174b6d7c1599637260e751177", "is_disabled": 0, "is_reserved": 0}, {"rental_uris": {"ios": "https://dc.lft.to/lastmile_qr_scan", "android": "https://dc.lft.to/lastmile_qr_scan"}, "lon": -76.98658933333333, "type": "electric_scooter", "fusion_lat": 0.0, "lat": 38.8580185, "name": "a42071575ea3275e8f55b14c70488509", "fusion_lon": 0.0, "bike_id": "a42071575ea3275e8f55b14c70488509", "is_disabled": 0, "is_reserved": 0}, {"rental_uris": {"ios": "https://dc.lft.to/lastmile_qr_scan", "android": "https://dc.lft.to/lastmile_qr_scan"}, "lon": -76.98657033333333, "type": "electric_scooter", "fusion_lat": 0.0, "lat": 38.858032, "name": "082be0c7b31a4ad190d3e239d293ef30", "fusion_lon": 0.0, "bike_id": "082be0c7b31a4ad190d3e239d293ef30", "is_disabled": 0, "is_reserved": 0}, {"rental_uris": {"ios": "https://dc.lft.to/lastmile_qr_scan", "android": "https://dc.lft.to/lastmile_qr_scan"}, "lon": -76.985708, "type": "electric_scooter", "fusion_lat": 0.0, "lat": 38.898846166666665, "name": "3a950003add9d7d7892824247d6d2e05", "fusion_lon": 0.0, "bike_id": "3a950003add9d7d7892824247d6d2e05", "is_disabled": 0, "is_reserved": 0}, {"rental_uris": {"ios": "https://dc.lft.to/lastmile_qr_scan", "android": "https://dc.lft.to/lastmile_qr_scan"}, "lon": -76.9443975, "type": "electric_bike", "fusion_lat": 0.0, "lat": 38.902942833333334, "name": "7bd7a270231d52b950fa8d0876d382ad", "fusion_lon": 0.0, "bike_id": "7bd7a270231d52b950fa8d0876d382ad", "is_disabled": 0, "is_reserved": 0}, {"rental_uris": {"ios": "https://dc.lft.to/lastmile_qr_scan", "android": "https://dc.lft.to/lastmile_qr_scan"}, "lon": -77.03304433333334, "type": "electric_scooter", "fusion_lat": 0.0, "lat": 38.90021333333333, "name": "04b297b1c1b3ff72f474f579635c0162", "fusion_lon": 0.0, "bike_id": "04b297b1c1b3ff72f474f579635c0162", "is_disabled": 0, "is_reserved": 0}, {"rental_uris": {"ios": "https://dc.lft.to/lastmile_qr_scan", "android": "https://dc.lft.to/lastmile_qr_scan"}, "lon": -76.9770535, "type": "electric_scooter", "fusion_lat": 0.0, "lat": 38.898882, "name": "ed6ce6d76d723145de77832e7bf31194", "fusion_lon": 0.0, "bike_id": "ed6ce6d76d723145de77832e7bf31194", "is_disabled": 0, "is_reserved": 0}, {"rental_uris": {"ios": "https://dc.lft.to/lastmile_qr_scan", "android": "https://dc.lft.to/lastmile_qr_scan"}, "lon": -76.97219766666667, "type": "electric_bike", "fusion_lat": 0.0, "lat": 38.844744166666665, "name": "402ef1ec01ee740dc0326a002c3ebb76", "fusion_lon": 0.0, "bike_id": "402ef1ec01ee740dc0326a002c3ebb76", "is_disabled": 0, "is_reserved": 0}, {"rental_uris": {"ios": "https://dc.lft.to/lastmile_qr_scan", "android": "https://dc.lft.to/lastmile_qr_scan"}, "lon": -77.0185685, "type": "electric_scooter", "fusion_lat": 0.0, "lat": 38.91956716666667, "name": "7d648023334cbf7279b8b189838832e0", "fusion_lon": 0.0, "bike_id": "7d648023334cbf7279b8b189838832e0", "is_disabled": 0, "is_reserved": 0}, {"rental_uris": {"ios": "https://dc.lft.to/lastmile_qr_scan", "android": "https://dc.lft.to/lastmile_qr_scan"}, "lon": -77.03188383333334, "type": "electric_scooter", "fusion_lat": 0.0, "lat": 38.911007833333336, "name": "d9804fbcccb9d5a8b09ffdf63fd85add", "fusion_lon": 0.0, "bike_id": "d9804fbcccb9d5a8b09ffdf63fd85add", "is_disabled": 0, "is_reserved": 0}, {"rental_uris": {"ios": "https://dc.lft.to/lastmile_qr_scan", "android": "https://dc.lft.to/lastmile_qr_scan"}, "lon": -77.02484216666667, "type": "electric_scooter", "fusion_lat": 0.0, "lat": 38.903318166666665, "name": "9135c5e4520a01b0c0cfe2ea76ff7ee8", "fusion_lon": 0.0, "bike_id": "9135c5e4520a01b0c0cfe2ea76ff7ee8", "is_disabled": 0, "is_reserved": 0}, {"rental_uris": {"ios": "https://dc.lft.to/lastmile_qr_scan", "android": "https://dc.lft.to/lastmile_qr_scan"}, "lon": -77.02969216666666, "type": "electric_scooter", "fusion_lat": 0.0, "lat": 38.93039433333333, "name": "75f52f0fea59420c87180773855f0d3a", "fusion_lon": 0.0, "bike_id": "75f52f0fea59420c87180773855f0d3a", "is_disabled": 0, "is_reserved": 0}, {"rental_uris": {"ios": "https://dc.lft.to/lastmile_qr_scan", "android": "https://dc.lft.to/lastmile_qr_scan"}, "lon": -77.05123116666667, "type": "electric_scooter", "fusion_lat": 0.0, "lat": 38.923576, "name": "35043170c94aed122f23b6c28c70b31b", "fusion_lon": 0.0, "bike_id": "35043170c94aed122f23b6c28c70b31b", "is_disabled": 0, "is_reserved": 0}, {"rental_uris": {"ios": "https://dc.lft.to/lastmile_qr_scan", "android": "https://dc.lft.to/lastmile_qr_scan"}, "lon": -76.99161966666667, "type": "electric_scooter", "fusion_lat": 0.0, "lat": 38.893397666666665, "name": "24cab8c2becda8c02ffd28b83260356c", "fusion_lon": 0.0, "bike_id": "24cab8c2becda8c02ffd28b83260356c", "is_disabled": 0, "is_reserved": 0}, {"rental_uris": {"ios": "https://dc.lft.to/lastmile_qr_scan", "android": "https://dc.lft.to/lastmile_qr_scan"}, "lon": -77.00582083333333, "type": "electric_scooter", "fusion_lat": 0.0, "lat": 38.904861333333336, "name": "dcc1d2573c031bcda92aa3b19e4ea2bf", "fusion_lon": 0.0, "bike_id": "dcc1d2573c031bcda92aa3b19e4ea2bf", "is_disabled": 0, "is_reserved": 0}, {"rental_uris": {"ios": "https://dc.lft.to/lastmile_qr_scan", "android": "https://dc.lft.to/lastmile_qr_scan"}, "lon": -76.99868133333334, "type": "electric_scooter", "fusion_lat": 0.0, "lat": 38.9002625, "name": "8d52c6338bbca88da419de4ab3cb607f", "fusion_lon": 0.0, "bike_id": "8d52c6338bbca88da419de4ab3cb607f", "is_disabled": 0, "is_reserved": 0}, {"rental_uris": {"ios": "https://dc.lft.to/lastmile_qr_scan", "android": "https://dc.lft.to/lastmile_qr_scan"}, "lon": -77.031574, "type": "electric_scooter", "fusion_lat": 0.0, "lat": 38.897347, "name": "3501f37ea973f746a29ee87c395e18a6", "fusion_lon": 0.0, "bike_id": "3501f37ea973f746a29ee87c395e18a6", "is_disabled": 0, "is_reserved": 0}, {"rental_uris": {"ios": "https://dc.lft.to/lastmile_qr_scan", "android": "https://dc.lft.to/lastmile_qr_scan"}, "lon": -77.04509633333333, "type": "electric_scooter", "fusion_lat": 0.0, "lat": 38.90543916666667, "name": "28e0e45f2d49496aad576d82866cd70a", "fusion_lon": 0.0, "bike_id": "28e0e45f2d49496aad576d82866cd70a", "is_disabled": 0, "is_reserved": 0}, {"rental_uris": {"ios": "https://dc.lft.to/lastmile_qr_scan", "android": "https://dc.lft.to/lastmile_qr_scan"}, "lon": -77.044406, "type": "electric_scooter", "fusion_lat": 0.0, "lat": 38.90567516666667, "name": "3f994a6565d0e26806369f923a6ce2b3", "fusion_lon": 0.0, "bike_id": "3f994a6565d0e26806369f923a6ce2b3", "is_disabled": 0, "is_reserved": 0}, {"rental_uris": {"ios": "https://dc.lft.to/lastmile_qr_scan", "android": "https://dc.lft.to/lastmile_qr_scan"}, "lon": -77.01207233333334, "type": "electric_scooter", "fusion_lat": 0.0, "lat": 38.915191166666666, "name": "00d04c61a8396fc16f37702745efb9f2", "fusion_lon": 0.0, "bike_id": "00d04c61a8396fc16f37702745efb9f2", "is_disabled": 0, "is_reserved": 0}, {"rental_uris": {"ios": "https://dc.lft.to/lastmile_qr_scan", "android": "https://dc.lft.to/lastmile_qr_scan"}, "lon": -77.017579, "type": "electric_scooter", "fusion_lat": 0.0, "lat": 38.90260833333333, "name": "7e2f252980ae8f8749b293469fcae0e2", "fusion_lon": 0.0, "bike_id": "7e2f252980ae8f8749b293469fcae0e2", "is_disabled": 0, "is_reserved": 0}, {"rental_uris": {"ios": "https://dc.lft.to/lastmile_qr_scan", "android": "https://dc.lft.to/lastmile_qr_scan"}, "lon": -77.02707816666667, "type": "electric_scooter", "fusion_lat": 0.0, "lat": 38.91870083333333, "name": "fd1ceb7aadfc0c111c4c49371bafbb69", "fusion_lon": 0.0, "bike_id": "fd1ceb7aadfc0c111c4c49371bafbb69", "is_disabled": 0, "is_reserved": 0}, {"rental_uris": {"ios": "https://dc.lft.to/lastmile_qr_scan", "android": "https://dc.lft.to/lastmile_qr_scan"}, "lon": -77.031884, "type": "electric_scooter", "fusion_lat": 0.0, "lat": 38.9135205, "name": "24d436a48fd49f356e334e732342ca87", "fusion_lon": 0.0, "bike_id": "24d436a48fd49f356e334e732342ca87", "is_disabled": 0, "is_reserved": 0}, {"rental_uris": {"ios": "https://dc.lft.to/lastmile_qr_scan", "android": "https://dc.lft.to/lastmile_qr_scan"}, "lon": -77.03852716666667, "type": "electric_scooter", "fusion_lat": 0.0, "lat": 38.913903166666664, "name": "c251ae81215023844d0538f7477e22db", "fusion_lon": 0.0, "bike_id": "c251ae81215023844d0538f7477e22db", "is_disabled": 0, "is_reserved": 0}, {"rental_uris": {"ios": "https://dc.lft.to/lastmile_qr_scan", "android": "https://dc.lft.to/lastmile_qr_scan"},