{"data": {"bikes": [{"bike_id": "bf97151eeaf82d3aab6571b035c0d590", "fusion_lon": 0.0, "lon": -77.0281425, "name": "bf97151eeaf82d3aab6571b035c0d590", "is_disabled": 0, "rental_uris": {"android": "https://dc.lft.to/lastmile_qr_scan", "ios": "https://dc.lft.to/lastmile_qr_scan"}, "type": "electric_scooter", "lat": 38.93174283333333, "is_reserved": 0, "fusion_lat": 0.0}, {"bike_id": "e4a4f11cd1bd7fdffdb8e2c3b8f2db15", "fusion_lon": 0.0, "lon": -77.04296866666667, "name": "e4a4f11cd1bd7fdffdb8e2c3b8f2db15", "is_disabled": 0, "rental_uris": {"android": "https://dc.lft.to/lastmile_qr_scan", "ios": "https://dc.lft.to/lastmile_qr_scan"}, "type": "electric_scooter", "lat": 38.9085865, "is_reserved": 0, "fusion_lat": 0.0}, {"bike_id": "8cd8bce2a1f58659b9b5f056cfd639df", "fusion_lon": 0.0, "lon": -77.04401483333334, "name": "8cd8bce2a1f58659b9b5f056cfd639df", "is_disabled": 0, "rental_uris": {"android": "https://dc.lft.to/lastmile_qr_scan", "ios": "https://dc.lft.to/lastmile_qr_scan"}, "type": "electric_scooter", "lat": 38.914198999999996, "is_reserved": 0, "fusion_lat": 0.0}, {"bike_id": "4e7ecffba4ebdd3f723e5dcf76383979", "fusion_lon": 0.0, "lon": -77.04787216666666, "name": "4e7ecffba4ebdd3f723e5dcf76383979", "is_disabled": 0, "rental_uris": {"android": "https://dc.lft.to/lastmile_qr_scan", "ios": "https://dc.lft.to/lastmile_qr_scan"}, "type": "electric_scooter", "lat": 38.8937725, "is_reserved": 0, "fusion_lat": 0.0}, {"bike_id": "f944a5efc9791d6d9e1899d9ade10c07", "fusion_lon": 0.0, "lon": -76.9857145, "name": "f944a5efc9791d6d9e1899d9ade10c07", "is_disabled": 0, "rental_uris": {"android": "https://dc.lft.to/lastmile_qr_scan", "ios": "https://dc.lft.to/lastmile_qr_scan"}, "type": "electric_scooter", "lat": 38.8545315, "is_reserved": 0, "fusion_lat": 0.0}, {"bike_id": "dfa3a8d0b5e33830b0a9953895d103cf", "fusion_lon": 0.0, "lon": -76.93132666666666, "name": "dfa3a8d0b5e33830b0a9953895d103cf", "is_disabled": 0, "rental_uris": {"android": "https://dc.lft.to/lastmile_qr_scan", "ios": "https://dc.lft.to/lastmile_qr_scan"}, "type": "electric_scooter", "lat": 38.893401833333336, "is_reserved": 0, "fusion_lat": 0.0}, {"bike_id": "82c146a72d4deb67e61dab81962c9e0d", "fusion_lon": 0.0, "lon": -77.02776316666667, "name": "82c146a72d4deb67e61dab81962c9e0d", "is_disabled": 0, "rental_uris": {"android": "https://dc.lft.to/lastmile_qr_scan", "ios": "https://dc.lft.to/lastmile_qr_scan"}, "type": "electric_scooter", "lat": 38.89220616666667, "is_reserved": 0, "fusion_lat": 0.0}, {"bike_id": "d97305cb79929f4e97229b8ab09d90f5", "fusion_lon": 0.0, "lon": -77.021707, "name": "d97305cb79929f4e97229b8ab09d90f5", "is_disabled": 0, "rental_uris": {"android": "https://dc.lft.to/lastmile_qr_scan", "ios": "https://dc.lft.to/lastmile_qr_scan"}, "type": "electric_scooter", "lat": 38.942938166666664, "is_reserved": 0, "fusion_lat": 0.0}, {"bike_id": "7b183009a4701273dc091f6ba2851094", "fusion_lon": 0.0, "lon": -76.96529716666667, "name": "7b183009a4701273dc091f6ba2851094", "is_disabled": 0, "rental_uris": {"android": "https://dc.lft.to/lastmile_qr_scan", "ios": "https://dc.lft.to/lastmile_qr_scan"}, "type": "electric_scooter", "lat": 38.87632766666667, "is_reserved": 0, "fusion_lat": 0.0}, {"bike_id": "c9d4a6f26b24a2560372ee14f6f1dd0e", "fusion_lon": 0.0, "lon": -77.026259, "name": "c9d4a6f26b24a2560372ee14f6f1dd0e", "is_disabled": 0, "rental_uris": {"android": "https://dc.lft.to/lastmile_qr_scan", "ios": "https://dc.lft.to/lastmile_qr_scan"}, "type": "electric_bike", "lat": 38.96231683333333, "is_reserved": 0, "fusion_lat": 0.0}, {"bike_id": "2a08543bae5fa81dd9cbaa23f7798c25", "fusion_lon": 0.0, "lon": -77.01536466666667, "name": "2a08543bae5fa81dd9cbaa23f7798c25", "is_disabled": 0, "rental_uris": {"android": "https://dc.lft.to/lastmile_qr_scan", "ios": "https://dc.lft.to/lastmile_qr_scan"}, "type": "electric_scooter", "lat": 38.88747933333333, "is_reserved": 0, "fusion_lat": 0.0}, {"bike_id": "3d45ac456ac1d442139ec67f0505d26d", "fusion_lon": 0.0, "lon": -77.0275915, "name": "3d45ac456ac1d442139ec67f0505d26d", "is_disabled": 0, "rental_uris": {"android": "https://dc.lft.to/lastmile_qr_scan", "ios": "https://dc.lft.to/lastmile_qr_scan"}, "type": "electric_scooter", "lat": 38.9542755, "is_reserved": 0, "fusion_lat": 0.0}, {"bike_id": "4fc7bb2ffa24be5270d51b22418d50b0", "fusion_lon": 0.0, "lon": -76.98088733333333, "name": "4fc7bb2ffa24be5270d51b22418d50b0", "is_disabled": 0, "rental_uris": {"android": "https://dc.lft.to/lastmile_qr_scan", "ios": "https://dc.lft.to/lastmile_qr_scan"}, "type": "electric_bike", "lat": 38.95357883333333, "is_reserved": 0, "fusion_lat": 0.0}, {"bike_id": "67f5baba40cd3940e200cdf1ac34588c", "fusion_lon": 0.0, "lon": -76.95755733333333, "name": "67f5baba40cd3940e200cdf1ac34588c", "is_disabled": 0, "rental_uris": {"android": "https://dc.lft.to/lastmile_qr_scan", "ios": "https://dc.lft.to/lastmile_qr_scan"}, "type": "electric_scooter", "lat": 38.884342833333335, "is_reserved": 0, "fusion_lat": 0.0}, {"bike_id": "34f325472abc4d4514b0eaba701eebfa", "fusion_lon": 0.0, "lon": -77.0025855, "name": "34f325472abc4d4514b0eaba701eebfa", "is_disabled": 0, "rental_uris": {"android": "https://dc.lft.to/lastmile_qr_scan", "ios": "https://dc.lft.to/lastmile_qr_scan"}, "type": "electric_scooter", "lat": 38.90587816666667, "is_reserved": 0, "fusion_lat": 0.0}, {"bike_id": "896ad16c4d7e87ac60d2f9ab59ec7d7e", "fusion_lon": 0.0, "lon": -76.980701, "name": "896ad16c4d7e87ac60d2f9ab59ec7d7e", "is_disabled": 0, "rental_uris": {"android": "https://dc.lft.to/lastmile_qr_scan", "ios": "https://dc.lft.to/lastmile_qr_scan"}, "type": "electric_scooter", "lat": 38.901723833333335, "is_reserved": 0, "fusion_lat": 0.0}, {"bike_id": "7e7322ed04c813ffdc5567c9f0c4ce23", "fusion_lon": 0.0, "lon": -77.04355433333333, "name": "7e7322ed04c813ffdc5567c9f0c4ce23", "is_disabled": 0, "rental_uris": {"android": "https://dc.lft.to/lastmile_qr_scan", "ios": "https://dc.lft.to/lastmile_qr_scan"}, "type": "electric_scooter", "lat": 38.908575666666664, "is_reserved": 0, "fusion_lat": 0.0}, {"bike_id": "c6f9569cd9124825fb8c57d82df86f42", "fusion_lon": 0.0, "lon": -77.0346175, "name": "c6f9569cd9124825fb8c57d82df86f42", "is_disabled": 0, "rental_uris": {"android": "https://dc.lft.to/lastmile_qr_scan", "ios": "https://dc.lft.to/lastmile_qr_scan"}, "type": "electric_scooter", "lat": 38.9055735, "is_reserved": 0, "fusion_lat": 0.0}, {"bike_id": "505a444e706472f295012f138ab86746", "fusion_lon": 0.0, "lon": -77.04484483333333, "name": "505a444e706472f295012f138ab86746", "is_disabled": 0, "rental_uris": {"android": "https://dc.lft.to/lastmile_qr_scan", "ios": "https://dc.lft.to/lastmile_qr_scan"}, "type": "electric_scooter", "lat": 38.911688833333336, "is_reserved": 0, "fusion_lat": 0.0}, {"bike_id": "2ea4c4850586caf6a2323c221c586316", "fusion_lon": 0.0, "lon": -77.04478283333333, "name": "2ea4c4850586caf6a2323c221c586316", "is_disabled": 0, "rental_uris": {"android": "https://dc.lft.to/lastmile_qr_scan", "ios": "https://dc.lft.to/lastmile_qr_scan"}, "type": "electric_scooter", "lat": 38.90869716666667, "is_reserved": 0, "fusion_lat": 0.0}, {"bike_id": "5e78a4c4dc6f2f71fb3e0df1eedadec1", "fusion_lon": 0.0, "lon": -76.99776466666667, "name": "5e78a4c4dc6f2f71fb3e0df1eedadec1", "is_disabled": 0, "rental_uris": {"android": "https://dc.lft.to/lastmile_qr_scan", "ios": "https://dc.lft.to/lastmile_qr_scan"}, "type": "electric_scooter", "lat": 38.84432233333333, "is_reserved": 0, "fusion_lat": 0.0}, {"bike_id": "c1b6e2698a98af613555d35f4d7a3850", "fusion_lon": 0.0, "lon": -77.03120216666667, "name": "c1b6e2698a98af613555d35f4d7a3850", "is_disabled": 0, "rental_uris": {"android": "https://dc.lft.to/lastmile_qr_scan", "ios": "https://dc.lft.to/lastmile_qr_scan"}, "type": "electric_scooter", "lat": 38.9156825, "is_reserved": 0, "fusion_lat": 0.0}, {"bike_id": "62f12371a153954fa59d69a746dac49e", "fusion_lon": 0.0, "lon": -77.011814, "name": "62f12371a153954fa59d69a746dac49e", "is_disabled": 0, "rental_uris": {"android": "https://dc.lft.to/lastmile_qr_scan", "ios": "https://dc.lft.to/lastmile_qr_scan"}, "type": "electric_scooter", "lat": 38.90332216666667, "is_reserved": 0, "fusion_lat": 0.0}, {"bike_id": "8341e28ca0968e7775f81651ea91fcbc", "fusion_lon": 0.0, "lon": -76.9496575, "name": "8341e28ca0968e7775f81651ea91fcbc", "is_disabled": 0, "rental_uris": {"android": "https://dc.lft.to/lastmile_qr_scan", "ios": "https://dc.lft.to/lastmile_qr_scan"}, "type": "electric_scooter", "lat": 38.893595166666664, "is_reserved": 0, "fusion_lat": 0.0}, {"bike_id": "1dd57de5ce32760b05fb9e00b9e9be85", "fusion_lon": 0.0, "lon": -77.01581233333333, "name": "1dd57de5ce32760b05fb9e00b9e9be85", "is_disabled": 0, "rental_uris": {"android": "https://dc.lft.to/lastmile_qr_scan", "ios": "https://dc.lft.to/lastmile_qr_scan"}, "type": "electric_scooter", "lat": 38.91680316666667, "is_reserved": 0, "fusion_lat": 0.0}, {"bike_id": "c26a4877bf6f6951a5dd7dbd08161a24", "fusion_lon": 0.0, "lon": -77.04865383333333, "name": "c26a4877bf6f6951a5dd7dbd08161a24", "is_disabled": 0, "rental_uris": {"android": "https://dc.lft.to/lastmile_qr_scan", "ios": "https://dc.lft.to/lastmile_qr_scan"}, "type": "electric_scooter", "lat": 38.915255, "is_reserved": 0, "fusion_lat": 0.0}, {"bike_id": "1a8c4fae441c987772beb6a6dbfdb11b", "fusion_lon": 0.0, "lon": -77.10596366666667, "name": "1a8c4fae441c987772beb6a6dbfdb11b", "is_disabled": 0, "rental_uris": {"android": "https://dc.lft.to/lastmile_qr_scan", "ios": "https://dc.lft.to/lastmile_qr_scan"}, "type": "electric_bike", "lat": 38.92899333333333, "is_reserved": 0, "fusion_lat": 0.0}, {"bike_id": "e3ff67d548f017a5775f021181f020a8", "fusion_lon": 0.0, "lon": -76.999452, "name": "e3ff67d548f017a5775f021181f020a8", "is_disabled": 0, "rental_uris": {"android": "https://dc.lft.to/lastmile_qr_scan", "ios": "https://dc.lft.to/lastmile_qr_scan"}, "type": "electric_scooter", "lat": 38.8429465, "is_reserved": 0, "fusion_lat": 0.0}, {"bike_id": "43341acf1e1a2025d28a42210a0088cd", "fusion_lon": 0.0, "lon": -77.03907483333333, "name": "43341acf1e1a2025d28a42210a0088cd", "is_disabled": 0, "rental_uris": {"android": "https://dc.lft.to/lastmile_qr_scan", "ios": "https://dc.lft.to/lastmile_qr_scan"}, "type": "electric_scooter", "lat": 38.915614166666664, "is_reserved": 0, "fusion_lat": 0.0}, {"bike_id": "5fbdf12ba6eea457fb82c4ca14ab75b5", "fusion_lon": 0.0, "lon": -77.07958516666666, "name": "5fbdf12ba6eea457fb82c4ca14ab75b5", "is_disabled": 0, "rental_uris": {"android": "https://dc.lft.to/lastmile_qr_scan", "ios": "https://dc.lft.to/lastmile_qr_scan"}, "type": "electric_scooter", "lat": 38.9456135, "is_reserved": 0, "fusion_lat": 0.0}, {"bike_id": "c9b2dca98e2941745a25c2b9650398ba", "fusion_lon": 0.0, "lon": -77.04681633333334, "name": "c9b2dca98e2941745a25c2b9650398ba", "is_disabled": 0, "rental_uris": {"android": "https://dc.lft.to/lastmile_qr_scan", "ios": "https://dc.lft.to/lastmile_qr_scan"}, "type": "electric_scooter", "lat": 38.895105, "is_reserved": 0, "fusion_lat": 0.0}, {"bike_id": "2579f12435d622aed1ad6babb0bff14f", "fusion_lon": 0.0, "lon": -77.0378345, "name": "2579f12435d622aed1ad6babb0bff14f", "is_disabled": 0, "rental_uris": {"android": "https://dc.lft.to/lastmile_qr_scan", "ios": "https://dc.lft.to/lastmile_qr_scan"}, "type": "electric_scooter", "lat": 38.9322065, "is_reserved": 0, "fusion_lat": 0.0}, {"bike_id": "71fa02cb475b7de1e79d5b7829a81d66", "fusion_lon": 0.0, "lon": -76.9839755, "name": "71fa02cb475b7de1e79d5b7829a81d66", "is_disabled": 0, "rental_uris": {"android": "https://dc.lft.to/lastmile_qr_scan", "ios": "https://dc.lft.to/lastmile_qr_scan"}, "type": "electric_scooter", "lat": 38.86701766666667, "is_reserved": 0, "fusion_lat": 0.0}, {"bike_id": "2c0f5dfc60064f7e8cfc7486be42c4db", "fusion_lon": 0.0, "lon": -77.02363833333334, "name": "2c0f5dfc60064f7e8cfc7486be42c4db", "is_disabled": 0, "rental_uris": {"android": "https://dc.lft.to/lastmile_qr_scan", "ios": "https://dc.lft.to/lastmile_qr_scan"}, "type": "electric_scooter", "lat": 38.9309055, "is_reserved": 0, "fusion_lat": 0.0}, {"bike_id": "07f16d3e5bd7c50a66dcf18e343f9a96", "fusion_lon": 0.0, "lon": -77.03465766666666, "name": "07f16d3e5bd7c50a66dcf18e343f9a96", "is_disabled": 0, "rental_uris": {"android": "https://dc.lft.to/lastmile_qr_scan", "ios": "https://dc.lft.to/lastmile_qr_scan"}, "type": "electric_scooter", "lat": 38.924836666666664, "is_reserved": 0, "fusion_lat": 0.0}, {"bike_id": "8929e435f8d7c1ff72eeec1342661fdc", "fusion_lon": 0.0, "lon": -77.033189, "name": "8929e435f8d7c1ff72eeec1342661fdc", "is_disabled": 0, "rental_uris": {"android": "https://dc.lft.to/lastmile_qr_scan", "ios": "https://dc.lft.to/lastmile_qr_scan"}, "type": "electric_scooter", "lat": 38.903731666666665, "is_reserved": 0, "fusion_lat": 0.0}, {"bike_id": "5723b9a41d07dc58fa5224baa42d167b", "fusion_lon": 0.0, "lon": -76.937359, "name": "5723b9a41d07dc58fa5224baa42d167b", "is_disabled": 0, "rental_uris": {"android": "https://dc.lft.to/lastmile_qr_scan", "ios": "https://dc.lft.to/lastmile_qr_scan"}, "type": "electric_scooter", "lat": 38.89018466666667, "is_reserved": 0, "fusion_lat": 0.0}, {"bike_id": "b983c13796cf90fc9ebb558380939bbf", "fusion_lon": 0.0, "lon": -77.03285983333333, "name": "b983c13796cf90fc9ebb558380939bbf", "is_disabled": 0, "rental_uris": {"android": "https://dc.lft.to/lastmile_qr_scan", "ios": "https://dc.lft.to/lastmile_qr_scan"}, "type": "electric_scooter", "lat": 38.928791, "is_reserved": 0, "fusion_lat": 0.0}, {"bike_id": "8f279fe62e54d3efa2a6b379774c8b88", "fusion_lon": 0.0, "lon": -76.94633933333333, "name": "8f279fe62e54d3efa2a6b379774c8b88", "is_disabled": 0, "rental_uris": {"android": "https://dc.lft.to/lastmile_qr_scan", "ios": "https://dc.lft.to/lastmile_qr_scan"}, "type": "electric_scooter", "lat": 38.8984255, "is_reserved": 0, "fusion_lat": 0.0}, {"bike_id": "27a22052b96df51b293d9f1749e04b3b", "fusion_lon": 0.0, "lon": -77.04549783333333, "name": "27a22052b96df51b293d9f1749e04b3b", "is_disabled": 0, "rental_uris": {"android": "https://dc.lft.to/lastmile_qr_scan", "ios": "https://dc.lft.to/lastmile_qr_scan"}, "type": "electric_scooter", "lat": 38.92424183333333, "is_reserved": 0, "fusion_lat": 0.0}, {"bike_id": "619106ec221ab7ed97c0ec9cc67ef2ce", "fusion_lon": 0.0, "lon": -76.99000183333334, "name": "619106ec221ab7ed97c0ec9cc67ef2ce", "is_disabled": 0, "rental_uris": {"android": "https://dc.lft.to/lastmile_qr_scan", "ios": "https://dc.lft.to/lastmile_qr_scan"}, "type": "electric_scooter", "lat": 38.92449633333333, "is_reserved": 0, "fusion_lat": 0.0}, {"bike_id": "6fe99974bccbf3269ff26784103b7da1", "fusion_lon": 0.0, "lon": -77.09477883333334, "name": "6fe99974bccbf3269ff26784103b7da1", "is_disabled": 0, "rental_uris": {"android": "https://dc.lft.to/lastmile_qr_scan", "ios": "https://dc.lft.to/lastmile_qr_scan"}, "type": "electric_bike", "lat": 39.0305575, "is_reserved": 0, "fusion_lat": 0.0}, {"bike_id": "33f4e18d7ac7a7ad9d9fbeecbe8d5366", "fusion_lon": 0.0, "lon": -77.01940983333333, "name": "33f4e18d7ac7a7ad9d9fbeecbe8d5366", "is_disabled": 0, "rental_uris": {"android": "https://dc.lft.to/lastmile_qr_scan", "ios": "https://dc.lft.to/lastmile_qr_scan"}, "type": "electric_scooter", "lat": 38.924204333333336, "is_reserved": 0, "fusion_lat": 0.0}, {"bike_id": "a5f5d2134fef6fcb61ddd64394b2c1c3", "fusion_lon": 0.0, "lon": -77.0336015, "name": "a5f5d2134fef6fcb61ddd64394b2c1c3", "is_disabled": 0, "rental_uris": {"android": "https://dc.lft.to/lastmile_qr_scan", "ios": "https://dc.lft.to/lastmile_qr_scan"}, "type": "electric_scooter", "lat": 38.93224566666667, "is_reserved": 0, "fusion_lat": 0.0}, {"bike_id": "a139ee0558b30fbecdf6b35879977403", "fusion_lon": 0.0, "lon": -77.04331933333333, "name": "a139ee0558b30fbecdf6b35879977403", "is_disabled": 0, "rental_uris": {"android": "https://dc.lft.to/lastmile_qr_scan", "ios": "https://dc.lft.to/lastmile_qr_scan"}, "type": "electric_scooter", "lat": 38.90731616666667, "is_reserved": 0, "fusion_lat": 0.0}, {"bike_id": "53e0970497262d5c394c78400017c35c", "fusion_lon": 0.0, "lon": -77.02288166666666, "name": "53e0970497262d5c394c78400017c35c", "is_disabled": 0, "rental_uris": {"android": "https://dc.lft.to/lastmile_qr_scan", "ios": "https://dc.lft.to/lastmile_qr_scan"}, "type": "electric_scooter", "lat": 38.936750833333335, "is_reserved": 0, "fusion_lat": 0.0}, {"bike_id": "78fcd2e9d0cc2c35cca552def9d86a1b", "fusion_lon": 0.0, "lon": -77.02209916666666, "name": "78fcd2e9d0cc2c35cca552def9d86a1b", "is_disabled": 0, "rental_uris": {"android": "https://dc.lft.to/lastmile_qr_scan", "ios": "https://dc.lft.to/lastmile_qr_scan"}, "type": "electric_scooter", "lat": 38.87893116666667, "is_reserved": 0, "fusion_lat": 0.0}, {"bike_id": "fad39aed51e95120f0c0305b981a893f", "fusion_lon": 0.0, "lon": -77.13106716666667, "name": "fad39aed51e95120f0c0305b981a893f", "is_disabled": 0, "rental_uris": {"android": "https://dc.lft.to/lastmile_qr_scan", "ios": "https://dc.lft.to/lastmile_qr_scan"}, "type": "electric_bike", "lat": 39.0243685, "is_reserved": 0, "fusion_lat": 0.0}, {"bike_id": "80c29e8b1d2ed21e69571b56b31d604a", "fusion_lon": 0.0, "lon": -77.02750516666667, "name": "80c29e8b1d2ed21e69571b56b31d604a", "is_disabled": 0, "rental_uris": {"android": "https://dc.lft.to/lastmile_qr_scan", "ios": "https://dc.lft.to/lastmile_qr_scan"}, "type": "electric_scooter", "lat": 38.95171783333333, "is_reserved": 0, "fusion_lat": 0.0}, {"bike_id": "371d4bed6d407e1e15c084e71e0706ff", "fusion_lon": 0.0, "lon": -77.02709266666666, "name": "371d4bed6d407e1e15c084e71e0706ff", "is_disabled": 0, "rental_uris": {"android": "https://dc.lft.to/lastmile_qr_scan", "ios": "https://dc.lft.to/lastmile_qr_scan"}, "type": "electric_scooter", "lat": 38.90668333333333, "is_reserved": 0, "fusion_lat": 0.0}, {"bike_id": "be26ce3a497f5e1887caf2b47812020d", "fusion_lon": 0.0, "lon": -77.0593575, "name": "be26ce3a497f5e1887caf2b47812020d", "is_disabled": 0, "rental_uris": {"android": "https://dc.lft.to/lastmile_qr_scan", "ios": "https://dc.lft.to/lastmile_qr_scan"}, "type": "electric_scooter", "lat": 38.905329, "is_reserved": 0, "fusion_lat": 0.0}, {"bike_id": "1eb244dc657acff42320ed9380cc67d7", "fusion_lon": 0.0, "lon": -77.06076, "name": "1eb244dc657acff42320ed9380cc67d7", "is_disabled": 0, "rental_uris": {"android": "https://dc.lft.to/lastmile_qr_scan", "ios": "https://dc.lft.to/lastmile_qr_scan"}, "type": "electric_bike", "lat": 38.88583933333334, "is_reserved": 0, "fusion_lat": 0.0}, {"bike_id": "578e07f88f6325461faf1e4ec6b3588c", "fusion_lon": 0.0, "lon": -76.947551, "name": "578e07f88f6325461faf1e4ec6b3588c", "is_disabled": 0, "rental_uris": {"android": "https://dc.lft.to/lastmile_qr_scan", "ios": "https://dc.lft.to/lastmile_qr_scan"}, "type": "electric_scooter", "lat": 38.89674, "is_reserved": 0, "fusion_lat": 0.0}, {"bike_id": "fe3207b526ae881fa28aeea30a67d4e9", "fusion_lon": 0.0, "lon": -77.03444466666667, "name": "fe3207b526ae881fa28aeea30a67d4e9", "is_disabled": 0, "rental_uris": {"android": "https://dc.lft.to/lastmile_qr_scan", "ios": "https://dc.lft.to/lastmile_qr_scan"}, "type": "electric_scooter", "lat": 38.9086855, "is_reserved": 0, "fusion_lat": 0.0}, {"bike_id": "37d246ee63a29b1de258a52382862645", "fusion_lon": 0.0, "lon": -77.02788316666667, "name": "37d246ee63a29b1de258a52382862645", "is_disabled": 0, "rental_uris": {"android": "https://dc.lft.to/lastmile_qr_scan", "ios": "https://dc.lft.to/lastmile_qr_scan"}, "type": "electric_scooter", "lat": 38.93061433333333, "is_reserved": 0, "fusion_lat": 0.0}, {"bike_id": "c2ebb1b08aa98ea1b2cf52649da83567", "fusion_lon": 0.0, "lon": -77.046941, "name": "c2ebb1b08aa98ea1b2cf52649da83567", "is_disabled": 0, "rental_uris": {"android": "https://dc.lft.to/lastmile_qr_scan", "ios": "https://dc.lft.to/lastmile_qr_scan"}, "type": "electric_scooter", "lat": 38.922591, "is_reserved": 0, "fusion_lat": 0.0}, {"bike_id": "49c144bee4a066688d38125841ef0ff4", "fusion_lon": 0.0, "lon": -77.027354, "name": "49c144bee4a066688d38125841ef0ff4", "is_disabled": 0, "rental_uris": {"android": "https://dc.lft.to/lastmile_qr_scan", "ios": "https://dc.lft.to/lastmile_qr_scan"}, "type": "electric_scooter", "lat": 38.898782, "is_reserved": 0, "fusion_lat": 0.0}, {"bike_id": "1f733cb0f2ebce3f6fbc7c5104e9aa82", "fusion_lon": 0.0, "lon": -77.039654, "name": "1f733cb0f2ebce3f6fbc7c5104e9aa82", "is_disabled": 0, "rental_uris": {"android": "https://dc.lft.to/lastmile_qr_scan", "ios": "https://dc.lft.to/lastmile_qr_scan"}, "type": "electric_scooter", "lat": 38.90042116666667, "is_reserved": 0, "fusion_lat": 0.0}, {"bike_id": "7ef50f3a2da71c7751a659490e98be7e", "fusion_lon": 0.0, "lon": -77.05010133333333, "name": "7ef50f3a2da71c7751a659490e98be7e", "is_disabled": 0, "rental_uris": {"android": "https://dc.lft.to/lastmile_qr_scan", "ios": "https://dc.lft.to/lastmile_qr_scan"}, "type": "electric_scooter", "lat": 38.905366, "is_reserved": 0, "fusion_lat": 0.0}, {"bike_id": "1938d89d61b6e21c282943162f567e27", "fusion_lon": 0.0, "lon": -77.02743133333334, "name": "1938d89d61b6e21c282943162f567e27", "is_disabled": 0, "rental_uris": {"android": "https://dc.lft.to/lastmile_qr_scan", "ios": "https://dc.lft.to/lastmile_qr_scan"}, "type": "electric_scooter", "lat": 38.9277665, "is_reserved": 0, "fusion_lat": 0.0}, {"bike_id": "1ff24c9cc17111acbc13a381117c9b08", "fusion_lon": 0.0, "lon": -77.03385716666666, "name": "1ff24c9cc17111acbc13a381117c9b08", "is_disabled": 0, "rental_uris": {"android": "https://dc.lft.to/lastmile_qr_scan", "ios": "https://dc.lft.to/lastmile_qr_scan"}, "type": "electric_scooter", "lat": 38.919743833333335, "is_reserved": 0, "fusion_lat": 0.0}, {"bike_id": "f6ce6fd688210f82939b5a13b5b80f39", "fusion_lon": 0.0, "lon": -77.1296155, "name": "f6ce6fd688210f82939b5a13b5b80f39", "is_disabled": 0, "rental_uris": {"android": "https://dc.lft.to/lastmile_qr_scan", "ios": "https://dc.lft.to/lastmile_qr_scan"}, "type": "electric_bike", "lat": 38.85222816666667, "is_reserved": 0, "fusion_lat": 0.0}, {"bike_id": "98032a5255499b76d8e136cee5c758be", "fusion_lon": 0.0, "lon": -77.0092825, "name": "98032a5255499b76d8e136cee5c758be", "is_disabled": 0, "rental_uris": {"android": "https://dc.lft.to/lastmile_qr_scan", "ios": "https://dc.lft.to/lastmile_qr_scan"}, "type": "electric_scooter", "lat": 38.872142, "is_reserved": 0, "fusion_lat": 0.0}, {"bike_id": "807935805b1de5e29c76b874ec723e8e", "fusion_lon": 0.0, "lon": -77.0437335, "name": "807935805b1de5e29c76b874ec723e8e", "is_disabled": 0, "rental_uris": {"android": "https://dc.lft.to/lastmile_qr_scan", "ios": "https://dc.lft.to/lastmile_qr_scan"}, "type": "electric_scooter", "lat": 38.8985955, "is_reserved": 0, "fusion_lat": 0.0}, {"bike_id": "97595ff4dd3f4a71a1dc865101a76c4e", "fusion_lon": 0.0, "lon": -77.0552155, "name": "97595ff4dd3f4a71a1dc865101a76c4e", "is_disabled": 0, "rental_uris": {"android": "https://dc.lft.to/lastmile_qr_scan", "ios": "https://dc.lft.to/lastmile_qr_scan"}, "type": "electric_scooter", "lat": 38.897295166666666, "is_reserved": 0, "fusion_lat": 0.0}, {"bike_id": "c46b351e7f95441e019339d7babe6716", "fusion_lon": 0.0, "lon": -76.990262, "name": "c46b351e7f95441e019339d7babe6716", "is_disabled": 0, "rental_uris": {"android": "https://dc.lft.to/lastmile_qr_scan", "ios": "https://dc.lft.to/lastmile_qr_scan"}, "type": "electric_scooter", "lat": 38.86528466666667, "is_reserved": 0, "fusion_lat": 0.0}, {"bike_id": "33b61036047a7171cbd6e8bba34623dd", "fusion_lon": 0.0, "lon": -77.02793216666667, "name": "33b61036047a7171cbd6e8bba34623dd", "is_disabled": 0, "rental_uris": {"android": "https://dc.lft.to/lastmile_qr_scan", "ios": "https://dc.lft.to/lastmile_qr_scan"}, "type": "electric_scooter", "lat": 38.93080716666667, "is_reserved": 0, "fusion_lat": 0.0}, {"bike_id": "a23d3f46911007a946bb06cfe92118d4", "fusion_lon": 0.0, "lon": -77.02478083333334, "name": "a23d3f46911007a946bb06cfe92118d4", "is_disabled": 0, "rental_uris": {"android": "https://dc.lft.to/lastmile_qr_scan", "ios": "https://dc.lft.to/lastmile_qr_scan"}, "type": "electric_scooter", "lat": 38.90253166666667, "is_reserved": 0, "fusion_lat": 0.0}, {"bike_id": "bcafacf34c8c056eb1fcd5831fa5302b", "fusion_lon": 0.0, "lon": -77.03859583333333, "name": "bcafacf34c8c056eb1fcd5831fa5302b", "is_disabled": 0, "rental_uris": {"android": "https://dc.lft.to/lastmile_qr_scan", "ios": "https://dc.lft.to/lastmile_qr_scan"}, "type": "electric_scooter", "lat": 38.9036355, "is_reserved": 0, "fusion_lat": 0.0}, {"bike_id": "db37463059067303e1199f210b40eacf", "fusion_lon": 0.0, "lon": -77.05313483333333, "name": "db37463059067303e1199f210b40eacf", "is_disabled": 0, "rental_uris": {"android": "https://dc.lft.to/lastmile_qr_scan", "ios": "https://dc.lft.to/lastmile_qr_scan"}, "type": "electric_scooter", "lat": 38.90267166666667, "is_reserved": 0, "fusion_lat": 0.0}, {"bike_id": "e38916bb44075057dce60e8bc23444e0", "fusion_lon": 0.0, "lon": -77.01756116666667, "name": "e38916bb44075057dce60e8bc23444e0", "is_disabled": 0, "rental_uris": {"android": "https://dc.lft.to/lastmile_qr_scan", "ios": "https://dc.lft.to/lastmile_qr_scan"}, "type": "electric_scooter", "lat": 38.90269166666667, "is_reserved": 0, "fusion_lat": 0.0}, {"bike_id": "858af571e0c12c0fcf487cffa37000c3", "fusion_lon": 0.0, "lon": -77.030255, "name": "858af571e0c12c0fcf487cffa37000c3", "is_disabled": 0, "rental_uris": {"android": "https://dc.lft.to/lastmile_qr_scan", "ios": "https://dc.lft.to/lastmile_qr_scan"}, "type": "electric_scooter", "lat": 38.89632133333333, "is_reserved": 0, "fusion_lat": 0.0}, {"bike_id": "8fa514d4e9bb044a47e936062cafb881", "fusion_lon": 0.0, "lon": -77.024165, "name": "8fa514d4e9bb044a47e936062cafb881", "is_disabled": 0, "rental_uris": {"android": "https://dc.lft.to/lastmile_qr_scan", "ios": "https://dc.lft.to/lastmile_qr_scan"}, "type": "electric_scooter", "lat": 38.89630733333333, "is_reserved": 0, "fusion_lat": 0.0}, {"bike_id": "119175cf0d1deff2191c1a75ab95b744", "fusion_lon": 0.0, "lon": -77.01522816666666, "name": "119175cf0d1deff2191c1a75ab95b744", "is_disabled": 0, "rental_uris": {"android": "https://dc.lft.to/lastmile_qr_scan", "ios": "https://dc.lft.to/lastmile_qr_scan"}, "type": "electric_scooter", "lat": 38.893068166666666, "is_reserved": 0, "fusion_lat": 0.0}, {"bike_id": "ce1e0a348059760ad81b607aa315e7ca", "fusion_lon": 0.0, "lon": -77.05328733333333, "name": "ce1e0a348059760ad81b607aa315e7ca", "is_disabled": 0, "rental_uris": {"android": "https://dc.lft.to/lastmile_qr_scan", "ios": "https://dc.lft.to/lastmile_qr_scan"}, "type": "electric_scooter", "lat": 38.927935, "is_reserved": 0, "fusion_lat": 0.0}, {"bike_id": "7384a056ec2ba42ecd622c822d7a6d60", "fusion_lon": 0.0, "lon": -76.990122, "name": "7384a056ec2ba42ecd622c822d7a6d60", "is_disabled": 0, "rental_uris": {"android": "https://dc.lft.to/lastmile_qr_scan", "ios": "https://dc.lft.to/lastmile_qr_scan"}, "type": "electric_bike", "lat": 38.865605, "is_reserved": 0, "fusion_lat": 0.0}, {"bike_id": "8862c6e2a515ef393cbb1c3d435d0021", "fusion_lon": 0.0, "lon": -76.9852375, "name": "8862c6e2a515ef393cbb1c3d435d0021", "is_disabled": 0, "rental_uris": {"android": "https://dc.lft.to/lastmile_qr_scan", "ios": "https://dc.lft.to/lastmile_qr_scan"}, "type": "electric_scooter", "lat": 38.86661016666667, "is_reserved": 0, "fusion_lat": 0.0}, {"bike_id": "41ed8dbce95757e7b80a0dc079249298", "fusion_lon": 0.0, "lon": -77.02941966666667, "name": "41ed8dbce95757e7b80a0dc079249298", "is_disabled": 0, "rental_uris": {"android": "https://dc.lft.to/lastmile_qr_scan", "ios": "https://dc.lft.to/lastmile_qr_scan"}, "type": "electric_scooter", "lat": 38.905027, "is_reserved": 0, "fusion_lat": 0.0}, {"bike_id": "16bdac5a32e4be9b98d067bfa96e9488", "fusion_lon": 0.0, "lon": -77.09251333333333, "name": "16bdac5a32e4be9b98d067bfa96e9488", "is_disabled": 0, "rental_uris": {"android": "https://dc.lft.to/lastmile_qr_scan", "ios": "https://dc.lft.to/lastmile_qr_scan"}, "type": "electric_scooter", "lat": 38.94158983333333, "is_reserved": 0, "fusion_lat": 0.0}, {"bike_id": "dac92b1cf289e5229d40a1aac6b2d624", "fusion_lon": 0.0, "lon": -77.011142, "name": "dac92b1cf289e5229d40a1aac6b2d624", "is_disabled": 0, "rental_uris": {"android": "https://dc.lft.to/lastmile_qr_scan", "ios": "https://dc.lft.to/lastmile_qr_scan"}, "type": "electric_scooter", "lat": 38.903528333333334, "is_reserved": 0, "fusion_lat": 0.0}, {"bike_id": "54c1b795143412ae969c6694f03c6e5f", "fusion_lon": 0.0, "lon": -77.032669, "name": "54c1b795143412ae969c6694f03c6e5f", "is_disabled": 0, "rental_uris": {"android": "https://dc.lft.to/lastmile_qr_scan", "ios": "https://dc.lft.to/lastmile_qr_scan"}, "type": "electric_scooter", "lat": 38.91624016666667, "is_reserved": 0, "fusion_lat": 0.0}, {"bike_id": "43d3533e005562bd07d2b008ed00eb5a", "fusion_lon": 0.0, "lon": -76.9882225, "name": "43d3533e005562bd07d2b008ed00eb5a", "is_disabled": 0, "rental_uris": {"android": "https://dc.lft.to/lastmile_qr_scan", "ios": "https://dc.lft.to/lastmile_qr_scan"}, "type": "electric_scooter", "lat": 38.9003435, "is_reserved": 0, "fusion_lat": 0.0}, {"bike_id": "6792b9cf6783af391e1651803ac2caa8", "fusion_lon": 0.0, "lon": -77.04451483333334, "name": "6792b9cf6783af391e1651803ac2caa8", "is_disabled": 0, "rental_uris": {"android": "https://dc.lft.to/lastmile_qr_scan", "ios": "https://dc.lft.to/lastmile_qr_scan"}, "type": "electric_scooter", "lat": 38.9039, "is_reserved": 0, "fusion_lat": 0.0}, {"bike_id": "7eb8bf4b6aeda8d427c9be6eac330128", "fusion_lon": 0.0, "lon": -77.0385905, "name": "7eb8bf4b6aeda8d427c9be6eac330128", "is_disabled": 0, "rental_uris": {"android": "https://dc.lft.to/lastmile_qr_scan", "ios": "https://dc.lft.to/lastmile_qr_scan"}, "type": "electric_scooter", "lat": 38.932118833333334, "is_reserved": 0, "fusion_lat": 0.0}, {"bike_id": "e034a78141777bacdd2479b8137d5219", "fusion_lon": 0.0, "lon": -77.04005916666667, "name": "e034a78141777bacdd2479b8137d5219", "is_disabled": 0, "rental_uris": {"android": "https://dc.lft.to/lastmile_qr_scan", "ios": "https://dc.lft.to/lastmile_qr_scan"}, "type": "electric_scooter", "lat": 38.9243505, "is_reserved": 0, "fusion_lat": 0.0}, {"bike_id": "be56e54edb9f1633aa4429802f7203e0", "fusion_lon": 0.0, "lon": -77.03121633333333, "name": "be56e54edb9f1633aa4429802f7203e0", "is_disabled": 0, "rental_uris": {"android": "https://dc.lft.to/lastmile_qr_scan", "ios": "https://dc.lft.to/lastmile_qr_scan"}, "type": "electric_scooter", "lat": 38.915641, "is_reserved": 0, "fusion_lat": 0.0}, {"bike_id": "e7b52170837c1aeec0926b923a194b93", "fusion_lon": 0.0, "lon": -77.002953, "name": "e7b52170837c1aeec0926b923a194b93", "is_disabled": 0, "rental_uris": {"android": "https://dc.lft.to/lastmile_qr_scan", "ios": "https://dc.lft.to/lastmile_qr_scan"}, "type": "electric_scooter", "lat": 38.89198666666667, "is_reserved": 0, "fusion_lat": 0.0}, {"bike_id": "69d10871bc8a8846c561f7bbb25aa7e6", "fusion_lon": 0.0, "lon": -76.97581566666666, "name": "69d10871bc8a8846c561f7bbb25aa7e6", "is_disabled": 0, "rental_uris": {"android": "https://dc.lft.to/lastmile_qr_scan", "ios": "https://dc.lft.to/lastmile_qr_scan"}, "type": "electric_bike", "lat": 38.84034116666667, "is_reserved": 0, "fusion_lat": 0.0}, {"bike_id": "cde2214a7d86d84e1c6ad1b6fd3b8670", "fusion_lon": 0.0, "lon": -76.93043333333334, "name": "cde2214a7d86d84e1c6ad1b6fd3b8670", "is_disabled": 0, "rental_uris": {"android": "https://dc.lft.to/lastmile_qr_scan", "ios": "https://dc.lft.to/lastmile_qr_scan"}, "type": "electric_scooter", "lat": 38.8951975, "is_reserved": 0, "fusion_lat": 0.0}, {"bike_id": "d0301817aef2c78e4d48fe0af5625ae5", "fusion_lon": 0.0, "lon": -77.02471133333333, "name": "d0301817aef2c78e4d48fe0af5625ae5", "is_disabled": 0, "rental_uris": {"android": "https://dc.lft.to/lastmile_qr_scan", "ios": "https://dc.lft.to/lastmile_qr_scan"}, "type": "electric_scooter", "lat": 38.91818083333333, "is_reserved": 0, "fusion_lat": 0.0}, {"bike_id": "509cf6f20a773500fd7d69d1eb1da5b7", "fusion_lon": 0.0, "lon": -77.04902566666667, "name": "509cf6f20a773500fd7d69d1eb1da5b7", "is_disabled": 0, "rental_uris": {"android": "https://dc.lft.to/lastmile_qr_scan", "ios": "https://dc.lft.to/lastmile_qr_scan"}, "type": "electric_scooter", "lat": 38.90087716666667, "is_reserved": 0, "fusion_lat": 0.0}, {"bike_id": "9db9a6616f3c55e4643547e8f95253b9", "fusion_lon": 0.0, "lon": -76.99598016666667, "name": "9db9a6616f3c55e4643547e8f95253b9", "is_disabled": 0, "rental_uris": {"android": "https://dc.lft.to/lastmile_qr_scan", "ios": "https://dc.lft.to/lastmile_qr_scan"}, "type": "electric_scooter", "lat": 38.85694616666667, "is_reserved": 0, "fusion_lat": 0.0}, {"bike_id": "de38c1b9502a005302eef8f8bda4e6b9", "fusion_lon": 0.0, "lon": -76.95735433333333, "name": "de38c1b9502a005302eef8f8bda4e6b9", "is_disabled": 0, "rental_uris": {"android": "https://dc.lft.to/lastmile_qr_scan", "ios": "https://dc.lft.to/lastmile_qr_scan"}, "type": "electric_scooter", "lat": 38.89636333333333, "is_reserved": 0, "fusion_lat": 0.0}, {"bike_id": "8119a876fc4c4a4ee209836860aff451", "fusion_lon": 0.0, "lon": -77.04348766666666, "name": "8119a876fc4c4a4ee209836860aff451", "is_disabled": 0, "rental_uris": {"android": "https://dc.lft.to/lastmile_qr_scan", "ios": "https://dc.lft.to/lastmile_qr_scan"}, "type": "electric_scooter", "lat": 38.91260366666667, "is_reserved": 0, "fusion_lat": 0.0}, {"bike_id": "5cabc3146b6bac7cc5c0c87aaa251129", "fusion_lon": 0.0, "lon": -76.99010783333334, "name": "5cabc3146b6bac7cc5c0c87aaa251129", "is_disabled": 0, "rental_uris": {"android": "https://dc.lft.to/lastmile_qr_scan", "ios": "https://dc.lft.to/lastmile_qr_scan"}, "type": "electric_scooter", "lat": 38.85884183333334, "is_reserved": 0, "fusion_lat": 0.0}, {"bike_id": "b637f60f386d349c3a85a7f98ff5573a", "fusion_lon": 0.0, "lon": -77.00598416666666, "name": "b637f60f386d349c3a85a7f98ff5573a", "is_disabled": 0, "rental_uris": {"android": "https://dc.lft.to/lastmile_qr_scan", "ios": "https://dc.lft.to/lastmile_qr_scan"}, "type": "electric_scooter", "lat": 38.90578266666667, "is_reserved": 0, "fusion_lat": 0.0}, {"bike_id": "618c15ae663a0f317879cb951942060a", "fusion_lon": 0.0, "lon": -77.023963, "name": "618c15ae663a0f317879cb951942060a", "is_disabled": 0, "rental_uris": {"android": "https://dc.lft.to/lastmile_qr_scan", "ios": "https://dc.lft.to/lastmile_qr_scan"}, "type": "electric_scooter", "lat": 38.95708916666667, "is_reserved": 0, "fusion_lat": 0.0}, {"bike_id": "3f2f7a9c57e6558275cc2cd6cd629d3b", "fusion_lon": 0.0, "lon": -77.03263083333333, "name": "3f2f7a9c57e6558275cc2cd6cd629d3b", "is_disabled": 0, "rental_uris": {"android": "https://dc.lft.to/lastmile_qr_scan", "ios": "https://dc.lft.to/lastmile_qr_scan"}, "type": "electric_scooter", "lat": 38.937401, "is_reserved": 0, "fusion_lat": 0.0}, {"bike_id": "e0da1872ddab673473fc50bf7e9c4ecf", "fusion_lon": 0.0, "lon": -77.01181666666666, "name": "e0da1872ddab673473fc50bf7e9c4ecf", "is_disabled": 0, "rental_uris": {"android": "https://dc.lft.to/lastmile_qr_scan", "ios": "https://dc.lft.to/lastmile_qr_scan"}, "type": "electric_scooter", "lat": 38.903278666666665, "is_reserved": 0, "fusion_lat": 0.0}, {"bike_id": "45e6d4df3e50b37e1e2215a7bd785ae7", "fusion_lon": 0.0, "lon": -76.98649483333334, "name": "45e6d4df3e50b37e1e2215a7bd785ae7", "is_disabled": 0, "rental_uris": {"android": "https://dc.lft.to/lastmile_qr_scan", "ios": "https://dc.lft.to/lastmile_qr_scan"}, "type": "electric_scooter", "lat": 38.867300166666666, "is_reserved": 0, "fusion_lat": 0.0}, {"bike_id": "7735277270875440b631ef997b400a51", "fusion_lon": 0.0, "lon": -77.0347165, "name": "7735277270875440b631ef997b400a51", "is_disabled": 0, "rental_uris": {"android": "https://dc.lft.to/lastmile_qr_scan", "ios": "https://dc.lft.to/lastmile_qr_scan"}, "type": "electric_scooter", "lat": 38.90974383333333, "is_reserved": 0, "fusion_lat": 0.0}, {"bike_id": "253d85f2a945d864345cbe03ef0d979d", "fusion_lon": 0.0, "lon": -77.024551, "name": "253d85f2a945d864345cbe03ef0d979d", "is_disabled": 0, "rental_uris": {"android": "https://dc.lft.to/lastmile_qr_scan", "ios": "https://dc.lft.to/lastmile_qr_scan"}, "type": "electric_scooter", "lat": 38.93880866666667, "is_reserved": 0, "fusion_lat": 0.0}, {"bike_id": "e7db0e7e9294407861809dbf60e00aa8", "fusion_lon": 0.0, "lon": -76.9550345, "name": "e7db0e7e9294407861809dbf60e00aa8", "is_disabled": 0, "rental_uris": {"android": "https://dc.lft.to/lastmile_qr_scan", "ios": "https://dc.lft.to/lastmile_qr_scan"}, "type": "electric_scooter", "lat": 38.887344, "is_reserved": 0, "fusion_lat": 0.0}, {"bike_id": "1bbe152df92460495d804a9c6e8b9ace", "fusion_lon": 0.0, "lon": -77.01792233333333, "name": "1bbe152df92460495d804a9c6e8b9ace", "is_disabled": 0, "rental_uris": {"android": "https://dc.lft.to/lastmile_qr_scan", "ios": "https://dc.lft.to/lastmile_qr_scan"}, "type": "electric_scooter", "lat": 38.87722483333334, "is_reserved": 0, "fusion_lat": 0.0}, {"bike_id": "d0aad6535e59c8c2b3c6b5c22938e609", "fusion_lon": 0.0, "lon": -77.02492783333334, "name": "d0aad6535e59c8c2b3c6b5c22938e609", "is_disabled": 0, "rental_uris": {"android": "https://dc.lft.to/lastmile_qr_scan", "ios": "https://dc.lft.to/lastmile_qr_scan"}, "type": "electric_scooter", "lat": 38.941847, "is_reserved": 0, "fusion_lat": 0.0}, {"bike_id": "0aff1781816363534fe640ab5d0acf7a", "fusion_lon": 0.0, "lon": -76.97188816666667, "name": "0aff1781816363534fe640ab5d0acf7a", "is_disabled": 0, "rental_uris": {"android": "https://dc.lft.to/lastmile_qr_scan", "ios": "https://dc.lft.to/lastmile_qr_scan"}, "type": "electric_bike", "lat": 38.917957, "is_reserved": 0, "fusion_lat": 0.0}, {"bike_id": "6b860885db36de2f045d08cdac612223", "fusion_lon": 0.0, "lon": -77.01910566666666, "name": "6b860885db36de2f045d08cdac612223", "is_disabled": 0, "rental_uris": {"android": "https://dc.lft.to/lastmile_qr_scan", "ios": "https://dc.lft.to/lastmile_qr_scan"}, "type": "electric_scooter", "lat": 38.923749, "is_reserved": 0, "fusion_lat": 0.0}, {"bike_id": "136396b07134bf983260e67383cdb95d", "fusion_lon": 0.0, "lon": -77.05049516666666, "name": "136396b07134bf983260e67383cdb95d", "is_disabled": 0, "rental_uris": {"android": "https://dc.lft.to/lastmile_qr_scan", "ios": "https://dc.lft.to/lastmile_qr_scan"}, "type": "electric_scooter", "lat": 38.90100116666667, "is_reserved": 0, "fusion_lat": 0.0}, {"bike_id": "47e5be3306553c4cf9d14d571be5a16a", "fusion_lon": 0.0, "lon": -77.05499016666667, "name": "47e5be3306553c4cf9d14d571be5a16a", "is_disabled": 0, "rental_uris": {"android": "https://dc.lft.to/lastmile_qr_scan", "ios": "https://dc.lft.to/lastmile_qr_scan"}, "type": "electric_scooter", "lat": 38.9366625, "is_reserved": 0, "fusion_lat": 0.0}, {"bike_id": "4364a28d10cd68350693ea6715601f3b", "fusion_lon": 0.0, "lon": -77.03094166666666, "name": "4364a28d10cd68350693ea6715601f3b", "is_disabled": 0, "rental_uris": {"android": "https://dc.lft.to/lastmile_qr_scan", "ios": "https://dc.lft.to/lastmile_qr_scan"}, "type": "electric_scooter", "lat": 38.8947975, "is_reserved": 0, "fusion_lat": 0.0}, {"bike_id": "d1e931618327e0345ef808990c99a4d5", "fusion_lon": 0.0, "lon": -77.04312933333334, "name": "d1e931618327e0345ef808990c99a4d5", "is_disabled": 0, "rental_uris": {"android": "https://dc.lft.to/lastmile_qr_scan", "ios": "https://dc.lft.to/lastmile_qr_scan"}, "type": "electric_scooter", "lat": 38.88106666666667, "is_reserved": 0, "fusion_lat": 0.0}, {"bike_id": "6482d015165a0d19cb9069eefe560905", "fusion_lon": 0.0, "lon": -77.02169916666666, "name": "6482d015165a0d19cb9069eefe560905", "is_disabled": 0, "rental_uris": {"android": "https://dc.lft.to/lastmile_qr_scan", "ios": "https://dc.lft.to/lastmile_qr_scan"}, "type": "electric_scooter", "lat": 38.942935166666665, "is_reserved": 0, "fusion_lat": 0.0}, {"bike_id": "4c509783f33311831fb789ab0e82fa56", "fusion_lon": 0.0, "lon": -77.1314465, "name": "4c509783f33311831fb789ab0e82fa56", "is_disabled": 0, "rental_uris": {"android": "https://dc.lft.to/lastmile_qr_scan", "ios": "https://dc.lft.to/lastmile_qr_scan"}, "type": "electric_bike", "lat": 38.861742666666665, "is_reserved": 0, "fusion_lat": 0.0}, {"bike_id": "872f39e594bca9a650e6fb51b08581a2", "fusion_lon": 0.0, "lon": -77.04476, "name": "872f39e594bca9a650e6fb51b08581a2", "is_disabled": 0, "rental_uris": {"android": "https://dc.lft.to/lastmile_qr_scan", "ios": "https://dc.lft.to/lastmile_qr_scan"}, "type": "electric_scooter", "lat": 38.90387466666667, "is_reserved": 0, "fusion_lat": 0.0}, {"bike_id": "3110e7b9943239e1d9c830e7df110ac2", "fusion_lon": 0.0, "lon": -77.00302533333333, "name": "3110e7b9943239e1d9c830e7df110ac2", "is_disabled": 0, "rental_uris": {"android": "https://dc.lft.to/lastmile_qr_scan", "ios": "https://dc.lft.to/lastmile_qr_scan"}, "type": "electric_scooter", "lat": 38.903696833333335, "is_reserved": 0, "fusion_lat": 0.0}, {"bike_id": "c06b119d3e5f22f7edc9153d9cfc9f89", "fusion_lon": 0.0, "lon": -76.993582, "name": "c06b119d3e5f22f7edc9153d9cfc9f89", "is_disabled": 0, "rental_uris": {"android": "https://dc.lft.to/lastmile_qr_scan", "ios": "https://dc.lft.to/lastmile_qr_scan"}, "type": "electric_scooter", "lat": 38.924035333333336, "is_reserved": 0, "fusion_lat": 0.0}, {"bike_id": "cad34fcc0a13e330a2ef015a6b41d724", "fusion_lon": 0.0, "lon": -77.01136466666667, "name": "cad34fcc0a13e330a2ef015a6b41d724", "is_disabled": 0, "rental_uris": {"android": "https://dc.lft.to/lastmile_qr_scan", "ios": "https://dc.lft.to/lastmile_qr_scan"}, "type": "electric_scooter", "lat": 38.88528066666667, "is_reserved": 0, "fusion_lat": 0.0}, {"bike_id": "f727e3f58ca0b8e555dd9ccf02b979c7", "fusion_lon": 0.0, "lon": -77.02617816666667, "name": "f727e3f58ca0b8e555dd9ccf02b979c7", "is_disabled": 0, "rental_uris": {"android": "https://dc.lft.to/lastmile_qr_scan", "ios": "https://dc.lft.to/lastmile_qr_scan"}, "type": "electric_scooter", "lat": 38.917115333333335, "is_reserved": 0, "fusion_lat": 0.0}, {"bike_id": "9f85bc401924ed3e2ba60eb03cffc216", "fusion_lon": 0.0, "lon": -77.117506, "name": "9f85bc401924ed3e2ba60eb03cffc216", "is_disabled": 0, "rental_uris": {"android": "https://dc.lft.to/lastmile_qr_scan", "ios": "https://dc.lft.to/lastmile_qr_scan"}, "type": "electric_bike", "lat": 39.049105, "is_reserved": 0, "fusion_lat": 0.0}, {"bike_id": "7cdc9779119f2fd847d2ef095e483404", "fusion_lon": 0.0, "lon": -77.03777533333333, "name": "7cdc9779119f2fd847d2ef095e483404", "is_disabled": 0, "rental_uris": {"android": "https://dc.lft.to/lastmile_qr_scan", "ios": "https://dc.lft.to/lastmile_qr_scan"}, "type": "electric_scooter", "lat": 38.92196583333333, "is_reserved": 0, "fusion_lat": 0.0}, {"bike_id": "04dfe5f3160eb753024475b618b034bb", "fusion_lon": 0.0, "lon": -77.05861533333334, "name": "04dfe5f3160eb753024475b618b034bb", "is_disabled": 0, "rental_uris": {"android": "https://dc.lft.to/lastmile_qr_scan", "ios": "https://dc.lft.to/lastmile_qr_scan"}, "type": "electric_scooter", "lat": 38.93612533333334, "is_reserved": 0, "fusion_lat": 0.0}, {"bike_id": "6f49e494c9bea2d0fc6c09b6d4f66769", "fusion_lon": 0.0, "lon": -77.04616116666666, "name": "6f49e494c9bea2d0fc6c09b6d4f66769", "is_disabled": 0, "rental_uris": {"android": "https://dc.lft.to/lastmile_qr_scan", "ios": "https://dc.lft.to/lastmile_qr_scan"}, "type": "electric_scooter", "lat": 38.9024005, "is_reserved": 0, "fusion_lat": 0.0}, {"bike_id": "5fb628c292a16250b698bf0f52febba0", "fusion_lon": 0.0, "lon": -77.023286, "name": "5fb628c292a16250b698bf0f52febba0", "is_disabled": 0, "rental_uris": {"android": "https://dc.lft.to/lastmile_qr_scan", "ios": "https://dc.lft.to/lastmile_qr_scan"}, "type": "electric_scooter", "lat": 38.895709833333335, "is_reserved": 0, "fusion_lat": 0.0}, {"bike_id": "040ad4a4079e1f316e8c6f7f70c19034", "fusion_lon": 0.0, "lon": -77.05034383333333, "name": "040ad4a4079e1f316e8c6f7f70c19034", "is_disabled": 0, "rental_uris": {"android": "https://dc.lft.to/lastmile_qr_scan", "ios": "https://dc.lft.to/lastmile_qr_scan"}, "type": "electric_scooter", "lat": 38.906259166666665, "is_reserved": 0, "fusion_lat": 0.0}, {"bike_id": "fa839bfb8b00f78a60d0dadb4c76cbea", "fusion_lon": 0.0, "lon": -77.02762916666667, "name": "fa839bfb8b00f78a60d0dadb4c76cbea", "is_disabled": 0, "rental_uris": {"android": "https://dc.lft.to/lastmile_qr_scan", "ios": "https://dc.lft.to/lastmile_qr_scan"}, "type": "electric_scooter", "lat": 38.95427766666667, "is_reserved": 0, "fusion_lat": 0.0}, {"bike_id": "622bd73b097a7d50d281eb9a8195d8df", "fusion_lon": 0.0, "lon": -77.0224555, "name": "622bd73b097a7d50d281eb9a8195d8df", "is_disabled": 0, "rental_uris": {"android": "https://dc.lft.to/lastmile_qr_scan", "ios": "https://dc.lft.to/lastmile_qr_scan"}, "type": "electric_scooter", "lat": 38.912789, "is_reserved": 0, "fusion_lat": 0.0}, {"bike_id": "5e77496f0be0d03a3f9510c1efe43411", "fusion_lon": 0.0, "lon": -77.02822316666666, "name": "5e77496f0be0d03a3f9510c1efe43411", "is_disabled": 0, "rental_uris": {"android": "https://dc.lft.to/lastmile_qr_scan", "ios": "https://dc.lft.to/lastmile_qr_scan"}, "type": "electric_scooter", "lat": 38.88738016666667, "is_reserved": 0, "fusion_lat": 0.0}, {"bike_id": "9ddd8ba26a08ebd0a362d7e8716ba6dd", "fusion_lon": 0.0, "lon": -77.05524266666667, "name": "9ddd8ba26a08ebd0a362d7e8716ba6dd", "is_disabled": 0, "rental_uris": {"android": "https://dc.lft.to/lastmile_qr_scan", "ios": "https://dc.lft.to/lastmile_qr_scan"}, "type": "electric_scooter", "lat": 38.93015066666667, "is_reserved": 0, "fusion_lat": 0.0}, {"bike_id": "3787c2c60da25839829f60f8e05ea97d", "fusion_lon": 0.0, "lon": -76.9898915, "name": "3787c2c60da25839829f60f8e05ea97d", "is_disabled": 0, "rental_uris": {"android": "https://dc.lft.to/lastmile_qr_scan", "ios": "https://dc.lft.to/lastmile_qr_scan"}, "type": "electric_bike", "lat": 38.8639105, "is_reserved": 0, "fusion_lat": 0.0}, {"bike_id": "775446fda76952cc68dbbbd26ec3e22b", "fusion_lon": 0.0, "lon": -77.0369015, "name": "775446fda76952cc68dbbbd26ec3e22b", "is_disabled": 0, "rental_uris": {"android": "https://dc.lft.to/lastmile_qr_scan", "ios": "https://dc.lft.to/lastmile_qr_scan"}, "type": "electric_scooter", "lat": 38.903824, "is_reserved": 0, "fusion_lat": 0.0}, {"bike_id": "6fe560a88c4c9ea70de7bc4ef2462fe9", "fusion_lon": 0.0, "lon": -77.03164616666666, "name": "6fe560a88c4c9ea70de7bc4ef2462fe9", "is_disabled": 0, "rental_uris": {"android": "https://dc.lft.to/lastmile_qr_scan", "ios": "https://dc.lft.to/lastmile_qr_scan"}, "type": "electric_scooter", "lat": 38.892284333333336, "is_reserved": 0, "fusion_lat": 0.0}, {"bike_id": "f2b21cc387fcebf6994297d0fef0e1aa", "fusion_lon": 0.0, "lon": -77.03104583333334, "name": "f2b21cc387fcebf6994297d0fef0e1aa", "is_disabled": 0, "rental_uris": {"android": "https://dc.lft.to/lastmile_qr_scan", "ios": "https://dc.lft.to/lastmile_qr_scan"}, "type": "electric_scooter", "lat": 38.946498166666665, "is_reserved": 0, "fusion_lat": 0.0}, {"bike_id": "43b35beacb824fafdbbb91f6306e0ed2", "fusion_lon": 0.0, "lon": -77.00369866666666, "name": "43b35beacb824fafdbbb91f6306e0ed2", "is_disabled": 0, "rental_uris": {"android": "https://dc.lft.to/lastmile_qr_scan", "ios": "https://dc.lft.to/lastmile_qr_scan"}, "type": "electric_scooter", "lat": 38.882689, "is_reserved": 0, "fusion_lat": 0.0}, {"bike_id": "c442dd13b18cf63ab154f5148b8ffccf", "fusion_lon": 0.0, "lon": -77.00199933333333, "name": "c442dd13b18cf63ab154f5148b8ffccf", "is_disabled": 0, "rental_uris": {"android": "https://dc.lft.to/lastmile_qr_scan", "ios": "https://dc.lft.to/lastmile_qr_scan"}, "type": "electric_bike", "lat": 38.81939916666666, "is_reserved": 0, "fusion_lat": 0.0}, {"bike_id": "2d3d17789d4485ebff875e0de604b43a", "fusion_lon": 0.0, "lon": -76.99517533333334, "name": "2d3d17789d4485ebff875e0de604b43a", "is_disabled": 0, "rental_uris": {"android": "https://dc.lft.to/lastmile_qr_scan", "ios": "https://dc.lft.to/lastmile_qr_scan"}, "type": "electric_scooter", "lat": 38.909805, "is_reserved": 0, "fusion_lat": 0.0}, {"bike_id": "d68f3d7ccaeeeb182782169d1db44beb", "fusion_lon": 0.0, "lon": -76.98632966666666, "name": "d68f3d7ccaeeeb182782169d1db44beb", "is_disabled": 0, "rental_uris": {"android": "https://dc.lft.to/lastmile_qr_scan", "ios": "https://dc.lft.to/lastmile_qr_scan"}, "type": "electric_bike", "lat": 38.8804455, "is_reserved": 0, "fusion_lat": 0.0}, {"bike_id": "141e53d516c81d6142325dc82875791a", "fusion_lon": 0.0, "lon": -77.0317755, "name": "141e53d516c81d6142325dc82875791a", "is_disabled": 0, "rental_uris": {"android": "https://dc.lft.to/lastmile_qr_scan", "ios": "https://dc.lft.to/lastmile_qr_scan"}, "type": "electric_scooter", "lat": 38.919348, "is_reserved": 0, "fusion_lat": 0.0}, {"bike_id": "9b703ecad54ca816d5804b300d7ceb32", "fusion_lon": 0.0, "lon": -77.04586033333334, "name": "9b703ecad54ca816d5804b300d7ceb32", "is_disabled": 0, "rental_uris": {"android": "https://dc.lft.to/lastmile_qr_scan", "ios": "https://dc.lft.to/lastmile_qr_scan"}, "type": "electric_scooter", "lat": 38.90265, "is_reserved": 0, "fusion_lat": 0.0}, {"bike_id": "96931479f69f9355c250ddcdadc1dd20", "fusion_lon": 0.0, "lon": -77.0382945, "name": "96931479f69f9355c250ddcdadc1dd20", "is_disabled": 0, "rental_uris": {"android": "https://dc.lft.to/lastmile_qr_scan", "ios": "https://dc.lft.to/lastmile_qr_scan"}, "type": "electric_scooter", "lat": 38.908117, "is_reserved": 0, "fusion_lat": 0.0}, {"bike_id": "4003e2dfdf7cb88b0a5a473942bec4cc", "fusion_lon": 0.0, "lon": -77.03985283333333, "name": "4003e2dfdf7cb88b0a5a473942bec4cc", "is_disabled": 0, "rental_uris": {"android": "https://dc.lft.to/lastmile_qr_scan", "ios": "https://dc.lft.to/lastmile_qr_scan"}, "type": "electric_scooter", "lat": 38.92085766666667, "is_reserved": 0, "fusion_lat": 0.0}, {"bike_id": "8bc0d551702b5c5d6caadb2564653a6e", "fusion_lon": 0.0, "lon": -77.02623283333334, "name": "8bc0d551702b5c5d6caadb2564653a6e", "is_disabled": 0, "rental_uris": {"android": "https://dc.lft.to/lastmile_qr_scan", "ios": "https://dc.lft.to/lastmile_qr_scan"}, "type": "electric_scooter", "lat": 38.92804783333333, "is_reserved": 0, "fusion_lat": 0.0}, {"bike_id": "bea9a6aade4195c276fb893d9567f1cb", "fusion_lon": 0.0, "lon": -77.02720066666667, "name": "bea9a6aade4195c276fb893d9567f1cb", "is_disabled": 0, "rental_uris": {"android": "https://dc.lft.to/lastmile_qr_scan", "ios": "https://dc.lft.to/lastmile_qr_scan"}, "type": "electric_scooter", "lat": 38.949641666666665, "is_reserved": 0, "fusion_lat": 0.0}, {"bike_id": "70b5c6c2ac71963fda5a38d096974556", "fusion_lon": 0.0, "lon": -77.01300483333333, "name": "70b5c6c2ac71963fda5a38d096974556", "is_disabled": 0, "rental_uris": {"android": "https://dc.lft.to/lastmile_qr_scan", "ios": "https://dc.lft.to/lastmile_qr_scan"}, "type": "electric_scooter", "lat": 38.90064533333333, "is_reserved": 0, "fusion_lat": 0.0}, {"bike_id": "727b7d06746677420521a43e691b1837", "fusion_lon": 0.0, "lon": -77.05022916666667, "name": "727b7d06746677420521a43e691b1837", "is_disabled": 0, "rental_uris": {"android": "https://dc.lft.to/lastmile_qr_scan", "ios": "https://dc.lft.to/lastmile_qr_scan"}, "type": "electric_scooter", "lat": 38.90627833333333, "is_reserved": 0, "fusion_lat": 0.0}, {"bike_id": "342022d6790cff75994a2b1b31b2f327", "fusion_lon": 0.0, "lon": -77.00656, "name": "342022d6790cff75994a2b1b31b2f327", "is_disabled": 0, "rental_uris": {"android": "https://dc.lft.to/lastmile_qr_scan", "ios": "https://dc.lft.to/lastmile_qr_scan"}, "type": "electric_scooter", "lat": 38.94468233333333, "is_reserved": 0, "fusion_lat": 0.0}, {"bike_id": "2d611cb69a6ee71b483a53a2ac92772d", "fusion_lon": 0.0, "lon": -77.1170865, "name": "2d611cb69a6ee71b483a53a2ac92772d", "is_disabled": 0, "rental_uris": {"android": "https://dc.lft.to/lastmile_qr_scan", "ios": "https://dc.lft.to/lastmile_qr_scan"}, "type": "electric_bike", "lat": 38.867475666666664, "is_reserved": 0, "fusion_lat": 0.0}, {"bike_id": "3d349786a171cde1fe7eefc22657707f", "fusion_lon": 0.0, "lon": -77.0362885, "name": "3d349786a171cde1fe7eefc22657707f", "is_disabled": 0, "rental_uris": {"android": "https://dc.lft.to/lastmile_qr_scan", "ios": "https://dc.lft.to/lastmile_qr_scan"}, "type": "electric_scooter", "lat": 38.90390216666667, "is_reserved": 0, "fusion_lat": 0.0}, {"bike_id": "0de723948218dd12c8c35939fa973af1", "fusion_lon": 0.0, "lon": -77.025145, "name": "0de723948218dd12c8c35939fa973af1", "is_disabled": 0, "rental_uris": {"android": "https://dc.lft.to/lastmile_qr_scan", "ios": "https://dc.lft.to/lastmile_qr_scan"}, "type": "electric_scooter", "lat": 38.946250166666665, "is_reserved": 0, "fusion_lat": 0.0}, {"bike_id": "381e124a502c3fd8a4acf961cc389c27", "fusion_lon": 0.0, "lon": -76.953631, "name": "381e124a502c3fd8a4acf961cc389c27", "is_disabled": 0, "rental_uris": {"android": "https://dc.lft.to/lastmile_qr_scan", "ios": "https://dc.lft.to/lastmile_qr_scan"}, "type": "electric_scooter", "lat": 38.89213866666667, "is_reserved": 0, "fusion_lat": 0.0}, {"bike_id": "34c84f6fa388a6017d6b3cd4608072f8", "fusion_lon": 0.0, "lon": -77.05394583333333, "name": "34c84f6fa388a6017d6b3cd4608072f8", "is_disabled": 0, "rental_uris": {"android": "https://dc.lft.to/lastmile_qr_scan", "ios": "https://dc.lft.to/lastmile_qr_scan"}, "type": "electric_scooter", "lat": 38.92814333333333, "is_reserved": 0, "fusion_lat": 0.0}, {"bike_id": "ca02ec22ba756a1f8687d4719b1949ec", "fusion_lon": 0.0, "lon": -77.03192633333333, "name": "ca02ec22ba756a1f8687d4719b1949ec", "is_disabled": 0, "rental_uris": {"android": "https://dc.lft.to/lastmile_qr_scan", "ios": "https://dc.lft.to/lastmile_qr_scan"}, "type": "electric_scooter", "lat": 38.93070316666667, "is_reserved": 0, "fusion_lat": 0.0}, {"bike_id": "ff1c2a7783c583b612425c976b59bd16", "fusion_lon": 0.0, "lon": -77.0194715, "name": "ff1c2a7783c583b612425c976b59bd16", "is_disabled": 0, "rental_uris": {"android": "https://dc.lft.to/lastmile_qr_scan", "ios": "https://dc.lft.to/lastmile_qr_scan"}, "type": "electric_scooter", "lat": 38.924238833333334, "is_reserved": 0, "fusion_lat": 0.0}, {"bike_id": "6119e8a810860716da7f9126fe5ae073", "fusion_lon": 0.0, "lon": -76.9870885, "name": "6119e8a810860716da7f9126fe5ae073", "is_disabled": 0, "rental_uris": {"android": "https://dc.lft.to/lastmile_qr_scan", "ios": "https://dc.lft.to/lastmile_qr_scan"}, "type": "electric_scooter", "lat": 38.86700616666667, "is_reserved": 0, "fusion_lat": 0.0}, {"bike_id": "87c5d11141f5b50d5786050d624dbc7c", "fusion_lon": 0.0, "lon": -77.03656816666667, "name": "87c5d11141f5b50d5786050d624dbc7c", "is_disabled": 0, "rental_uris": {"android": "https://dc.lft.to/lastmile_qr_scan", "ios": "https://dc.lft.to/lastmile_qr_scan"}, "type": "electric_scooter", "lat": 38.92985216666667, "is_reserved": 0, "fusion_lat": 0.0}, {"bike_id": "6f3f1f611047d653853c140e231440d6", "fusion_lon": 0.0, "lon": -77.01191716666666, "name": "6f3f1f611047d653853c140e231440d6", "is_disabled": 0, "rental_uris": {"android": "https://dc.lft.to/lastmile_qr_scan", "ios": "https://dc.lft.to/lastmile_qr_scan"}, "type": "electric_scooter", "lat": 38.9155575, "is_reserved": 0, "fusion_lat": 0.0}, {"bike_id": "fe3a2ab366f2e74c8439f8aca184520e", "fusion_lon": 0.0, "lon": -76.9984395, "name": "fe3a2ab366f2e74c8439f8aca184520e", "is_disabled": 0, "rental_uris": {"android": "https://dc.lft.to/lastmile_qr_scan", "ios": "https://dc.lft.to/lastmile_qr_scan"}, "type": "electric_scooter", "lat": 38.90746433333333, "is_reserved": 0, "fusion_lat": 0.0}, {"bike_id": "0bb4c390bffdb7bbe66ad8ee90cdf916", "fusion_lon": 0.0, "lon": -77.0237145, "name": "0bb4c390bffdb7bbe66ad8ee90cdf916", "is_disabled": 0, "rental_uris": {"android": "https://dc.lft.to/lastmile_qr_scan", "ios": "https://dc.lft.to/lastmile_qr_scan"}, "type": "electric_scooter", "lat": 38.89222683333333, "is_reserved": 0, "fusion_lat": 0.0}, {"bike_id": "7b73f6157047f7610648e8edc645fc20", "fusion_lon": 0.0, "lon": -77.02781066666667, "name": "7b73f6157047f7610648e8edc645fc20", "is_disabled": 0, "rental_uris": {"android": "https://dc.lft.to/lastmile_qr_scan", "ios": "https://dc.lft.to/lastmile_qr_scan"}, "type": "electric_scooter", "lat": 38.90141083333334, "is_reserved": 0, "fusion_lat": 0.0}, {"bike_id": "a2c461486a7b795685a41f5d52b53541", "fusion_lon": 0.0, "lon": -77.0336775, "name": "a2c461486a7b795685a41f5d52b53541", "is_disabled": 0, "rental_uris": {"android": "https://dc.lft.to/lastmile_qr_scan", "ios": "https://dc.lft.to/lastmile_qr_scan"}, "type": "electric_scooter", "lat": 38.90381266666667, "is_reserved": 0, "fusion_lat": 0.0}, {"bike_id": "d526dc4c5129ae332915f93e4bd193b2", "fusion_lon": 0.0, "lon": -77.07252633333333, "name": "d526dc4c5129ae332915f93e4bd193b2", "is_disabled": 0, "rental_uris": {"android": "https://dc.lft.to/lastmile_qr_scan", "ios": "https://dc.lft.to/lastmile_qr_scan"}, "type": "electric_scooter", "lat": 38.907848666666666, "is_reserved": 0, "fusion_lat": 0.0}, {"bike_id": "82d9f1af6dc193bc028da94f26fcdd92", "fusion_lon": 0.0, "lon": -77.02084333333333, "name": "82d9f1af6dc193bc028da94f26fcdd92", "is_disabled": 0, "rental_uris": {"android": "https://dc.lft.to/lastmile_qr_scan", "ios": "https://dc.lft.to/lastmile_qr_scan"}, "type": "electric_scooter", "lat": 38.9112635, "is_reserved": 0, "fusion_lat": 0.0}, {"bike_id": "48e7e827bfeb4ef727ceaef8caabc64a", "fusion_lon": 0.0, "lon": -77.02186966666666, "name": "48e7e827bfeb4ef727ceaef8caabc64a", "is_disabled": 0, "rental_uris": {"android": "https://dc.lft.to/lastmile_qr_scan", "ios": "https://dc.lft.to/lastmile_qr_scan"}, "type": "electric_scooter", "lat": 38.90586666666667, "is_reserved": 0, "fusion_lat": 0.0}, {"bike_id": "e83faf59cd5d4a5709531a070c06bae0", "fusion_lon": 0.0, "lon": -77.02166516666666, "name": "e83faf59cd5d4a5709531a070c06bae0", "is_disabled": 0, "rental_uris": {"android": "https://dc.lft.to/lastmile_qr_scan", "ios": "https://dc.lft.to/lastmile_qr_scan"}, "type": "electric_scooter", "lat": 38.884788666666665, "is_reserved": 0, "fusion_lat": 0.0}, {"bike_id": "2e6f3c273b9820acf48cd2d12a1f2bfc", "fusion_lon": 0.0, "lon": -77.0257395, "name": "2e6f3c273b9820acf48cd2d12a1f2bfc", "is_disabled": 0, "rental_uris": {"android": "https://dc.lft.to/lastmile_qr_scan", "ios": "https://dc.lft.to/lastmile_qr_scan"}, "type": "electric_scooter", "lat": 38.91602316666667, "is_reserved": 0, "fusion_lat": 0.0}, {"bike_id": "2879643ea1563a36cb94c195635c9d91", "fusion_lon": 0.0, "lon": -77.079382, "name": "2879643ea1563a36cb94c195635c9d91", "is_disabled": 0, "rental_uris": {"android": "https://dc.lft.to/lastmile_qr_scan", "ios": "https://dc.lft.to/lastmile_qr_scan"}, "type": "electric_scooter", "lat": 38.947647, "is_reserved": 0, "fusion_lat": 0.0}, {"bike_id": "8ec2d402b2d238e02fb837e2a23a0788", "fusion_lon": 0.0, "lon": -77.02555033333333, "name": "8ec2d402b2d238e02fb837e2a23a0788", "is_disabled": 0, "rental_uris": {"android": "https://dc.lft.to/lastmile_qr_scan", "ios": "https://dc.lft.to/lastmile_qr_scan"}, "type": "electric_scooter", "lat": 38.91558333333333, "is_reserved": 0, "fusion_lat": 0.0}, {"bike_id": "07b45579613cd7d479ef432198fc121f", "fusion_lon": 0.0, "lon": -77.02333666666667, "name": "07b45579613cd7d479ef432198fc121f", "is_disabled": 0, "rental_uris": {"android": "https://dc.lft.to/lastmile_qr_scan", "ios": "https://dc.lft.to/lastmile_qr_scan"}, "type": "electric_scooter", "lat": 38.9262475, "is_reserved": 0, "fusion_lat": 0.0}, {"bike_id": "0e7844f70638339474ce8021ddba730d", "fusion_lon": 0.0, "lon": -77.001178, "name": "0e7844f70638339474ce8021ddba730d", "is_disabled": 0, "rental_uris": {"android": "https://dc.lft.to/lastmile_qr_scan", "ios": "https://dc.lft.to/lastmile_qr_scan"}, "type": "electric_scooter", "lat": 38.905617166666666, "is_reserved": 0, "fusion_lat": 0.0}, {"bike_id": "ccc79150d6a3a624803c737ac00aaf21", "fusion_lon": 0.0, "lon": -77.0277185, "name": "ccc79150d6a3a624803c737ac00aaf21", "is_disabled": 0, "rental_uris": {"android": "https://dc.lft.to/lastmile_qr_scan", "ios": "https://dc.lft.to/lastmile_qr_scan"}, "type": "electric_scooter", "lat": 38.939615, "is_reserved": 0, "fusion_lat": 0.0}, {"bike_id": "1bf604bf01aae6970cdca29646f41826", "fusion_lon": 0.0, "lon": -77.04361183333333, "name": "1bf604bf01aae6970cdca29646f41826", "is_disabled": 0, "rental_uris": {"android": "https://dc.lft.to/lastmile_qr_scan", "ios": "https://dc.lft.to/lastmile_qr_scan"}, "type": "electric_scooter", "lat": 38.90619233333334, "is_reserved": 0, "fusion_lat": 0.0}, {"bike_id": "98556c8ac775b59f0a4262eff75a452d", "fusion_lon": 0.0, "lon": -77.04623883333333, "name": "98556c8ac775b59f0a4262eff75a452d", "is_disabled": 0, "rental_uris": {"android": "https://dc.lft.to/lastmile_qr_scan", "ios": "https://dc.lft.to/lastmile_qr_scan"}, "type": "electric_scooter", "lat": 38.91921116666666, "is_reserved": 0, "fusion_lat": 0.0}, {"bike_id": "c87f26c794ba659aba4992852634c37c", "fusion_lon": 0.0, "lon": -76.99590816666667, "name": "c87f26c794ba659aba4992852634c37c", "is_disabled": 0, "rental_uris": {"android": "https://dc.lft.to/lastmile_qr_scan", "ios": "https://dc.lft.to/lastmile_qr_scan"}, "type": "electric_scooter", "lat": 38.884387, "is_reserved": 0, "fusion_lat": 0.0}, {"bike_id": "8fef1bc1e46ad9cdde99eac93e8f4aaa", "fusion_lon": 0.0, "lon": -77.04367983333333, "name": "8fef1bc1e46ad9cdde99eac93e8f4aaa", "is_disabled": 0, "rental_uris": {"android": "https://dc.lft.to/lastmile_qr_scan", "ios": "https://dc.lft.to/lastmile_qr_scan"}, "type": "electric_scooter", "lat": 38.9214475, "is_reserved": 0, "fusion_lat": 0.0}, {"bike_id": "fb39a074ca774bab60b98f3b5167e850", "fusion_lon": 0.0, "lon": -77.04854966666667, "name": "fb39a074ca774bab60b98f3b5167e850", "is_disabled": 0, "rental_uris": {"android": "https://dc.lft.to/lastmile_qr_scan", "ios": "https://dc.lft.to/lastmile_qr_scan"}, "type": "electric_scooter", "lat": 38.90586883333334, "is_reserved": 0, "fusion_lat": 0.0}, {"bike_id": "4de4865ea17b2262ddf0736053324c3a", "fusion_lon": 0.0, "lon": -77.038604, "name": "4de4865ea17b2262ddf0736053324c3a", "is_disabled": 0, "rental_uris": {"android": "https://dc.lft.to/lastmile_qr_scan", "ios": "https://dc.lft.to/lastmile_qr_scan"}, "type": "electric_scooter", "lat": 38.907213666666664, "is_reserved": 0, "fusion_lat": 0.0}, {"bike_id": "6b3f4f451dd78701cd0caf5a7ea80ece", "fusion_lon": 0.0, "lon": -77.03282383333334, "name": "6b3f4f451dd78701cd0caf5a7ea80ece", "is_disabled": 0, "rental_uris": {"android": "https://dc.lft.to/lastmile_qr_scan", "ios": "https://dc.lft.to/lastmile_qr_scan"}, "type": "electric_scooter", "lat": 38.92065866666667, "is_reserved": 0, "fusion_lat": 0.0}, {"bike_id": "5f2d46782bc59809818878d3ad670519", "fusion_lon": 0.0, "lon": -77.02594283333333, "name": "5f2d46782bc59809818878d3ad670519", "is_disabled": 0, "rental_uris": {"android": "https://dc.lft.to/lastmile_qr_scan", "ios": "https://dc.lft.to/lastmile_qr_scan"}, "type": "electric_bike", "lat": 38.902563, "is_reserved": 0, "fusion_lat": 0.0}, {"bike_id": "2fd36d6017da72d5164193651d9333dc", "fusion_lon": 0.0, "lon": -77.0312575, "name": "2fd36d6017da72d5164193651d9333dc", "is_disabled": 0, "rental_uris": {"android": "https://dc.lft.to/lastmile_qr_scan", "ios": "https://dc.lft.to/lastmile_qr_scan"}, "type": "electric_scooter", "lat": 38.914946666666665, "is_reserved": 0, "fusion_lat": 0.0}, {"bike_id": "9ec15cf6c22a5b9806a0924314d0d0f9", "fusion_lon": 0.0, "lon": -76.9759275, "name": "9ec15cf6c22a5b9806a0924314d0d0f9", "is_disabled": 0, "rental_uris": {"android": "https://dc.lft.to/lastmile_qr_scan", "ios": "https://dc.lft.to/lastmile_qr_scan"}, "type": "electric_bike", "lat": 38.90335016666667, "is_reserved": 0, "fusion_lat": 0.0}, {"bike_id": "55b536bed9efccd3b8e9d738e532ea57", "fusion_lon": 0.0, "lon": -76.9495805, "name": "55b536bed9efccd3b8e9d738e532ea57", "is_disabled": 0, "rental_uris": {"android": "https://dc.lft.to/lastmile_qr_scan", "ios": "https://dc.lft.to/lastmile_qr_scan"}, "type": "electric_scooter", "lat": 38.90487783333333, "is_reserved": 0, "fusion_lat": 0.0}, {"bike_id": "711aaf9579d24c6368127bc5a2ea47bc", "fusion_lon": 0.0, "lon": -77.03825583333334, "name": "711aaf9579d24c6368127bc5a2ea47bc", "is_disabled": 0, "rental_uris": {"android": "https://dc.lft.to/lastmile_qr_scan", "ios": "https://dc.lft.to/lastmile_qr_scan"}, "type": "electric_scooter", "lat": 38.91815166666667, "is_reserved": 0, "fusion_lat": 0.0}, {"bike_id": "afb45ffc83509c740676be05299538b3", "fusion_lon": 0.0, "lon": -77.03238466666667, "name": "afb45ffc83509c740676be05299538b3", "is_disabled": 0, "rental_uris": {"android": "https://dc.lft.to/lastmile_qr_scan", "ios": "https://dc.lft.to/lastmile_qr_scan"}, "type": "electric_scooter", "lat": 38.91485183333333, "is_reserved": 0, "fusion_lat": 0.0}, {"bike_id": "f2ffa444f2b6177931cc8375233c1553", "fusion_lon": 0.0, "lon": -77.0505085, "name": "f2ffa444f2b6177931cc8375233c1553", "is_disabled": 0, "rental_uris": {"android": "https://dc.lft.to/lastmile_qr_scan", "ios": "https://dc.lft.to/lastmile_qr_scan"}, "type": "electric_scooter", "lat": 38.92417016666667, "is_reserved": 0, "fusion_lat": 0.0}, {"bike_id": "360f41f7aacb2379fbae733c6c8edfdc", "fusion_lon": 0.0, "lon": -77.04343083333333, "name": "360f41f7aacb2379fbae733c6c8edfdc", "is_disabled": 0, "rental_uris": {"android": "https://dc.lft.to/lastmile_qr_scan", "ios": "https://dc.lft.to/lastmile_qr_scan"}, "type": "electric_scooter", "lat": 38.910642833333334, "is_reserved": 0, "fusion_lat": 0.0}, {"bike_id": "0bd51667d2082044454a2845a46063fe", "fusion_lon": 0.0, "lon": -77.04468383333334, "name": "0bd51667d2082044454a2845a46063fe", "is_disabled": 0, "rental_uris": {"android": "https://dc.lft.to/lastmile_qr_scan", "ios": "https://dc.lft.to/lastmile_qr_scan"}, "type": "electric_scooter", "lat": 38.9111945, "is_reserved": 0, "fusion_lat": 0.0}, {"bike_id": "a6f9b93e4155d4dc4c6a4a5b4fef9022", "fusion_lon": 0.0, "lon": -76.95976433333334, "name": "a6f9b93e4155d4dc4c6a4a5b4fef9022", "is_disabled": 0, "rental_uris": {"android": "https://dc.lft.to/lastmile_qr_scan", "ios": "https://dc.lft.to/lastmile_qr_scan"}, "type": "electric_bike", "lat": 38.869952, "is_reserved": 0, "fusion_lat": 0.0}, {"bike_id": "583c6d2287d0edc64d2d6d1f267bc6ae", "fusion_lon": 0.0, "lon": -76.951341, "name": "583c6d2287d0edc64d2d6d1f267bc6ae", "is_disabled": 0, "rental_uris": {"android": "https://dc.lft.to/lastmile_qr_scan", "ios": "https://dc.lft.to/lastmile_qr_scan"}, "type": "electric_scooter", "lat": 38.887686333333335, "is_reserved": 0, "fusion_lat": 0.0}, {"bike_id": "a76ee6da38d5a11319ab481db7413657", "fusion_lon": 0.0, "lon": -77.03122266666666, "name": "a76ee6da38d5a11319ab481db7413657", "is_disabled": 0, "rental_uris": {"android": "https://dc.lft.to/lastmile_qr_scan", "ios": "https://dc.lft.to/lastmile_qr_scan"}, "type": "electric_scooter", "lat": 38.920331, "is_reserved": 0, "fusion_lat": 0.0}, {"bike_id": "5e58116a36e1e891e1b2c55b0720ca30", "fusion_lon": 0.0, "lon": -77.04173383333334, "name": "5e58116a36e1e891e1b2c55b0720ca30", "is_disabled": 0, "rental_uris": {"android": "https://dc.lft.to/lastmile_qr_scan", "ios": "https://dc.lft.to/lastmile_qr_scan"}, "type": "electric_scooter", "lat": 38.9173485, "is_reserved": 0, "fusion_lat": 0.0}, {"bike_id": "52802052c887683bf3bf632244c516be", "fusion_lon": 0.0, "lon": -77.03428033333333, "name": "52802052c887683bf3bf632244c516be", "is_disabled": 0, "rental_uris": {"android": "https://dc.lft.to/lastmile_qr_scan", "ios": "https://dc.lft.to/lastmile_qr_scan"}, "type": "electric_scooter", "lat": 38.922427666666664, "is_reserved": 0, "fusion_lat": 0.0}, {"bike_id": "917cc708dae94d421b31bef59c528000", "fusion_lon": 0.0, "lon": -77.04192966666666, "name": "917cc708dae94d421b31bef59c528000", "is_disabled": 0, "rental_uris": {"android": "https://dc.lft.to/lastmile_qr_scan", "ios": "https://dc.lft.to/lastmile_qr_scan"}, "type": "electric_scooter", "lat": 38.893604833333335, "is_reserved": 0, "fusion_lat": 0.0}, {"bike_id": "33832a0022a42304733667bfba48652a", "fusion_lon": 0.0, "lon": -77.033335, "name": "33832a0022a42304733667bfba48652a", "is_disabled": 0, "rental_uris": {"android": "https://dc.lft.to/lastmile_qr_scan", "ios": "https://dc.lft.to/lastmile_qr_scan"}, "type": "electric_scooter", "lat": 38.907348666666664, "is_reserved": 0, "fusion_lat": 0.0}, {"bike_id": "f30d04ec283234bc00589e3fca224361", "fusion_lon": 0.0, "lon": -77.03226483333333, "name": "f30d04ec283234bc00589e3fca224361", "is_disabled": 0, "rental_uris": {"android": "https://dc.lft.to/lastmile_qr_scan", "ios": "https://dc.lft.to/lastmile_qr_scan"}, "type": "electric_scooter", "lat": 38.91403183333333, "is_reserved": 0, "fusion_lat": 0.0}, {"bike_id": "89cc747f1c79a9a46397edc93128378f", "fusion_lon": 0.0, "lon": -76.9419155, "name": "89cc747f1c79a9a46397edc93128378f", "is_disabled": 0, "rental_uris": {"android": "https://dc.lft.to/lastmile_qr_scan", "ios": "https://dc.lft.to/lastmile_qr_scan"}, "type": "electric_scooter", "lat": 38.89752583333333, "is_reserved": 0, "fusion_lat": 0.0}, {"bike_id": "41ba26b9bab906f8b754c4dcbc61982b", "fusion_lon": 0.0, "lon": -77.04477583333333, "name": "41ba26b9bab906f8b754c4dcbc61982b", "is_disabled": 0, "rental_uris": {"android": "https://dc.lft.to/lastmile_qr_scan", "ios": "https://dc.lft.to/lastmile_qr_scan"}, "type": "electric_scooter", "lat": 38.908710166666665, "is_reserved": 0, "fusion_lat": 0.0}, {"bike_id": "7026da039a3e4128d92342d1c1230f7d", "fusion_lon": 0.0, "lon": -77.0384765, "name": "7026da039a3e4128d92342d1c1230f7d", "is_disabled": 0, "rental_uris": {"android": "https://dc.lft.to/lastmile_qr_scan", "ios": "https://dc.lft.to/lastmile_qr_scan"}, "type": "electric_scooter", "lat": 38.910205833333336, "is_reserved": 0, "fusion_lat": 0.0}, {"bike_id": "a33593650464be47cdf1f3394163b84c", "fusion_lon": 0.0, "lon": -77.12018766666667, "name": "a33593650464be47cdf1f3394163b84c", "is_disabled": 0, "rental_uris": {"android": "https://dc.lft.to/lastmile_qr_scan", "ios": "https://dc.lft.to/lastmile_qr_scan"}, "type": "electric_bike", "lat": 38.85518716666667, "is_reserved": 0, "fusion_lat": 0.0}, {"bike_id": "111be80f44c643d914920caee225f480", "fusion_lon": 0.0, "lon": -76.9883845, "name": "111be80f44c643d914920caee225f480", "is_disabled": 0, "rental_uris": {"android": "https://dc.lft.to/lastmile_qr_scan", "ios": "https://dc.lft.to/lastmile_qr_scan"}, "type": "electric_scooter", "lat": 38.90033283333333, "is_reserved": 0, "fusion_lat": 0.0}, {"bike_id": "be43f2ae068b1fd3ece25975bd70524a", "fusion_lon": 0.0, "lon": -77.03510033333333, "name": "be43f2ae068b1fd3ece25975bd70524a", "is_disabled": 0, "rental_uris": {"android": "https://dc.lft.to/lastmile_qr_scan", "ios": "https://dc.lft.to/lastmile_qr_scan"}, "type": "electric_scooter", "lat": 38.9222265, "is_reserved": 0, "fusion_lat": 0.0}, {"bike_id": "1eeb4851d8f908348f2cc17dcd6e7cb6", "fusion_lon": 0.0, "lon": -76.97924533333334, "name": "1eeb4851d8f908348f2cc17dcd6e7cb6", "is_disabled": 0, "rental_uris": {"android": "https://dc.lft.to/lastmile_qr_scan", "ios": "https://dc.lft.to/lastmile_qr_scan"}, "type": "electric_scooter", "lat": 38.90501116666667, "is_reserved": 0, "fusion_lat": 0.0}, {"bike_id": "cd2131e6268c82513cd9b9d3d0ecae9a", "fusion_lon": 0.0, "lon": -77.001941, "name": "cd2131e6268c82513cd9b9d3d0ecae9a", "is_disabled": 0, "rental_uris": {"android": "https://dc.lft.to/lastmile_qr_scan", "ios": "https://dc.lft.to/lastmile_qr_scan"}, "type": "electric_scooter", "lat": 38.8935625, "is_reserved": 0, "fusion_lat": 0.0}, {"bike_id": "80a7ba001d38a5c832fa38d4a5d155b8", "fusion_lon": 0.0, "lon": -77.0433015, "name": "80a7ba001d38a5c832fa38d4a5d155b8", "is_disabled": 0, "rental_uris": {"android": "https://dc.lft.to/lastmile_qr_scan", "ios": "https://dc.lft.to/lastmile_qr_scan"}, "type": "electric_scooter", "lat": 38.892254333333334, "is_reserved": 0, "fusion_lat": 0.0}, {"bike_id": "6427b60d3b812887b5128797b50b3e3f", "fusion_lon": 0.0, "lon": -77.0257445, "name": "6427b60d3b812887b5128797b50b3e3f", "is_disabled": 0, "rental_uris": {"android": "https://dc.lft.to/lastmile_qr_scan", "ios": "https://dc.lft.to/lastmile_qr_scan"}, "type": "electric_scooter", "lat": 38.892359, "is_reserved": 0, "fusion_lat": 0.0}, {"bike_id": "231ea26ddc523ce13dc99a361b08f461", "fusion_lon": 0.0, "lon": -77.03634783333334, "name": "231ea26ddc523ce13dc99a361b08f461", "is_disabled": 0, "rental_uris": {"android": "https://dc.lft.to/lastmile_qr_scan", "ios": "https://dc.lft.to/lastmile_qr_scan"}, "type": "electric_scooter", "lat": 38.92669516666667, "is_reserved": 0, "fusion_lat": 0.0}, {"bike_id": "c63e3b9a75f200581a34419b5d242aef", "fusion_lon": 0.0, "lon": -77.02662883333333, "name": "c63e3b9a75f200581a34419b5d242aef", "is_disabled": 0, "rental_uris": {"android": "https://dc.lft.to/lastmile_qr_scan", "ios": "https://dc.lft.to/lastmile_qr_scan"}, "type": "electric_scooter", "lat": 38.897347833333335, "is_reserved": 0, "fusion_lat": 0.0}, {"bike_id": "71ac4b8c932989ba851831c2728a46fc", "fusion_lon": 0.0, "lon": -77.04899483333334, "name": "71ac4b8c932989ba851831c2728a46fc", "is_disabled": 0, "rental_uris": {"android": "https://dc.lft.to/lastmile_qr_scan", "ios": "https://dc.lft.to/lastmile_qr_scan"}, "type": "electric_scooter", "lat": 38.900881166666665, "is_reserved": 0, "fusion_lat": 0.0}, {"bike_id": "d1c374947dc0d3b658ae6e149a09dec4", "fusion_lon": 0.0, "lon": -77.01744266666667, "name": "d1c374947dc0d3b658ae6e149a09dec4", "is_disabled": 0, "rental_uris": {"android": "https://dc.lft.to/lastmile_qr_scan", "ios": "https://dc.lft.to/lastmile_qr_scan"}, "type": "electric_scooter", "lat": 38.91106116666667, "is_reserved": 0, "fusion_lat": 0.0}, {"bike_id": "59e771756b7dfcc2620ed52c4471967b", "fusion_lon": 0.0, "lon": -77.0418095, "name": "59e771756b7dfcc2620ed52c4471967b", "is_disabled": 0, "rental_uris": {"android": "https://dc.lft.to/lastmile_qr_scan", "ios": "https://dc.lft.to/lastmile_qr_scan"}, "type": "electric_scooter", "lat": 38.905265666666665, "is_reserved": 0, "fusion_lat": 0.0}, {"bike_id": "138e9d368c048cf564ae921c4fd6ae44", "fusion_lon": 0.0, "lon": -77.03519583333333, "name": "138e9d368c048cf564ae921c4fd6ae44", "is_disabled": 0, "rental_uris": {"android": "https://dc.lft.to/lastmile_qr_scan", "ios": "https://dc.lft.to/lastmile_qr_scan"}, "type": "electric_scooter", "lat": 38.93598033333333, "is_reserved": 0, "fusion_lat": 0.0}, {"bike_id": "21e88ea62559ea1039fa3fe8bf10cd70", "fusion_lon": 0.0, "lon": -76.98928933333333, "name": "21e88ea62559ea1039fa3fe8bf10cd70", "is_disabled": 0, "rental_uris": {"android": "https://dc.lft.to/lastmile_qr_scan", "ios": "https://dc.lft.to/lastmile_qr_scan"}, "type": "electric_scooter", "lat": 38.840769333333334, "is_reserved": 0, "fusion_lat": 0.0}, {"bike_id": "7711b87b868a0a72a3e492dd693401e9", "fusion_lon": 0.0, "lon": -77.041152, "name": "7711b87b868a0a72a3e492dd693401e9", "is_disabled": 0, "rental_uris": {"android": "https://dc.lft.to/lastmile_qr_scan", "ios": "https://dc.lft.to/lastmile_qr_scan"}, "type": "electric_scooter", "lat": 38.905388333333335, "is_reserved": 0, "fusion_lat": 0.0}, {"bike_id": "a323363908c49958fc9b01f53c11bf5f", "fusion_lon": 0.0, "lon": -77.02182266666667, "name": "a323363908c49958fc9b01f53c11bf5f", "is_disabled": 0, "rental_uris": {"android": "https://dc.lft.to/lastmile_qr_scan", "ios": "https://dc.lft.to/lastmile_qr_scan"}, "type": "electric_scooter", "lat": 38.909564333333336, "is_reserved": 0, "fusion_lat": 0.0}, {"bike_id": "0bd582c16a415d7489c3cd13f4ac2076", "fusion_lon": 0.0, "lon": -77.02326683333334, "name": "0bd582c16a415d7489c3cd13f4ac2076", "is_disabled": 0, "rental_uris": {"android": "https://dc.lft.to/lastmile_qr_scan", "ios": "https://dc.lft.to/lastmile_qr_scan"}, "type": "electric_scooter", "lat": 38.937917166666665, "is_reserved": 0, "fusion_lat": 0.0}, {"bike_id": "d0906f6c12fa0c96bebc43d6f57a341d", "fusion_lon": 0.0, "lon": -77.02125183333334, "name": "d0906f6c12fa0c96bebc43d6f57a341d", "is_disabled": 0, "rental_uris": {"android": "https://dc.lft.to/lastmile_qr_scan", "ios": "https://dc.lft.to/lastmile_qr_scan"}, "type": "electric_scooter", "lat": 38.89954616666667, "is_reserved": 0, "fusion_lat": 0.0}, {"bike_id": "8054f85a6c9f7f4f6ad22084c08c9a3d", "fusion_lon": 0.0, "lon": -76.98537966666666, "name": "8054f85a6c9f7f4f6ad22084c08c9a3d", "is_disabled": 0, "rental_uris": {"android": "https://dc.lft.to/lastmile_qr_scan", "ios": "https://dc.lft.to/lastmile_qr_scan"}, "type": "electric_scooter", "lat": 38.8664915, "is_reserved": 0, "fusion_lat": 0.0}, {"bike_id": "40e9d06465031008def9f3a96a121412", "fusion_lon": 0.0, "lon": -77.04874533333333, "name": "40e9d06465031008def9f3a96a121412", "is_disabled": 0, "rental_uris": {"android": "https://dc.lft.to/lastmile_qr_scan", "ios": "https://dc.lft.to/lastmile_qr_scan"}, "type": "electric_scooter", "lat": 38.90978233333333, "is_reserved": 0, "fusion_lat": 0.0}, {"bike_id": "963f6012f8c22fb62001ef6bcd5add4e", "fusion_lon": 0.0, "lon": -77.02442283333333, "name": "963f6012f8c22fb62001ef6bcd5add4e", "is_disabled": 0, "rental_uris": {"android": "https://dc.lft.to/lastmile_qr_scan", "ios": "https://dc.lft.to/lastmile_qr_scan"}, "type": "electric_bike", "lat": 38.89833, "is_reserved": 0, "fusion_lat": 0.0}, {"bike_id": "7b640943f95cc5118da207fc7fbb67ba", "fusion_lon": 0.0, "lon": -77.02725083333333, "name": "7b640943f95cc5118da207fc7fbb67ba", "is_disabled": 0, "rental_uris": {"android": "https://dc.lft.to/lastmile_qr_scan", "ios": "https://dc.lft.to/lastmile_qr_scan"}, "type": "electric_scooter", "lat": 38.94960416666667, "is_reserved": 0, "fusion_lat": 0.0}, {"bike_id": "840574d3ef431265b414787cf34455fe", "fusion_lon": 0.0, "lon": -76.93731816666667, "name": "840574d3ef431265b414787cf34455fe", "is_disabled": 0, "rental_uris": {"android": "https://dc.lft.to/lastmile_qr_scan", "ios": "https://dc.lft.to/lastmile_qr_scan"}, "type": "electric_scooter", "lat": 38.89019316666667, "is_reserved": 0, "fusion_lat": 0.0}, {"bike_id": "236192f511541fdb00e2159522653701", "fusion_lon": 0.0, "lon": -77.03838483333334, "name": "236192f511541fdb00e2159522653701", "is_disabled": 0, "rental_uris": {"android": "https://dc.lft.to/lastmile_qr_scan", "ios": "https://dc.lft.to/lastmile_qr_scan"}, "type": "electric_scooter", "lat": 38.910102333333334, "is_reserved": 0, "fusion_lat": 0.0}, {"bike_id": "72b7979186b18ce888dcdeb0a7251133", "fusion_lon": 0.0, "lon": -77.02423966666667, "name": "72b7979186b18ce888dcdeb0a7251133", "is_disabled": 0, "rental_uris": {"android": "https://dc.lft.to/lastmile_qr_scan", "ios": "https://dc.lft.to/lastmile_qr_scan"}, "type": "electric_scooter", "lat": 38.9265485, "is_reserved": 0, "fusion_lat": 0.0}, {"bike_id": "53fc1dded7ded6ee25c4a5699f3cc98b", "fusion_lon": 0.0, "lon": -76.98712, "name": "53fc1dded7ded6ee25c4a5699f3cc98b", "is_disabled": 0, "rental_uris": {"android": "https://dc.lft.to/lastmile_qr_scan", "ios": "https://dc.lft.to/lastmile_qr_scan"}, "type": "electric_scooter", "lat": 38.86705283333333, "is_reserved": 0, "fusion_lat": 0.0}, {"bike_id": "5dbc282a78ad1c2191913e775a14c26c", "fusion_lon": 0.0, "lon": -77.03424183333334, "name": "5dbc282a78ad1c2191913e775a14c26c", "is_disabled": 0, "rental_uris": {"android": "https://dc.lft.to/lastmile_qr_scan", "ios": "https://dc.lft.to/lastmile_qr_scan"}, "type": "electric_bike", "lat": 38.96620216666667, "is_reserved": 0, "fusion_lat": 0.0}, {"bike_id": "1899239fd4e18ae9f7d8d92b70e121b0", "fusion_lon": 0.0, "lon": -77.03662566666667, "name": "1899239fd4e18ae9f7d8d92b70e121b0", "is_disabled": 0, "rental_uris": {"android": "https://dc.lft.to/lastmile_qr_scan", "ios": "https://dc.lft.to/lastmile_qr_scan"}, "type": "electric_scooter", "lat": 38.906206, "is_reserved": 0, "fusion_lat": 0.0}, {"bike_id": "19e570584f8a473eea1723a784a0404d", "fusion_lon": 0.0, "lon": -77.03527166666667, "name": "19e570584f8a473eea1723a784a0404d", "is_disabled": 0, "rental_uris": {"android": "https://dc.lft.to/lastmile_qr_scan", "ios": "https://dc.lft.to/lastmile_qr_scan"}, "type": "electric_scooter", "lat": 38.9170405, "is_reserved": 0, "fusion_lat": 0.0}, {"bike_id": "dd4e91c6908706ce0ea2664520ae78d0", "fusion_lon": 0.0, "lon": -77.02204783333333, "name": "dd4e91c6908706ce0ea2664520ae78d0", "is_disabled": 0, "rental_uris": {"android": "https://dc.lft.to/lastmile_qr_scan", "ios": "https://dc.lft.to/lastmile_qr_scan"}, "type": "electric_scooter", "lat": 38.91102333333333, "is_reserved": 0, "fusion_lat": 0.0}, {"bike_id": "a5f924989c2578b4fd2244a21a436f32", "fusion_lon": 0.0, "lon": -77.01124316666667, "name": "a5f924989c2578b4fd2244a21a436f32", "is_disabled": 0, "rental_uris": {"android": "https://dc.lft.to/lastmile_qr_scan", "ios": "https://dc.lft.to/lastmile_qr_scan"}, "type": "electric_scooter", "lat": 38.91595, "is_reserved": 0, "fusion_lat": 0.0}, {"bike_id": "29e6b44cbe3bab56c9da5d635ec46e93", "fusion_lon": 0.0, "lon": -77.04127383333334, "name": "29e6b44cbe3bab56c9da5d635ec46e93", "is_disabled": 0, "rental_uris": {"android": "https://dc.lft.to/lastmile_qr_scan", "ios": "https://dc.lft.to/lastmile_qr_scan"}, "type": "electric_scooter", "lat": 38.92133616666667, "is_reserved": 0, "fusion_lat": 0.0}, {"bike_id": "48d520601ef3373a378f3f81230193b1", "fusion_lon": 0.0, "lon": -77.03402833333334, "name": "48d520601ef3373a378f3f81230193b1", "is_disabled": 0, "rental_uris": {"android": "https://dc.lft.to/lastmile_qr_scan", "ios": "https://dc.lft.to/lastmile_qr_scan"}, "type": "electric_scooter", "lat": 38.90383966666667, "is_reserved": 0, "fusion_lat": 0.0}, {"bike_id": "75265a3258a097b697176e4e15781005", "fusion_lon": 0.0, "lon": -77.11795366666666, "name": "75265a3258a097b697176e4e15781005", "is_disabled": 0, "rental_uris": {"android": "https://dc.lft.to/lastmile_qr_scan", "ios": "https://dc.lft.to/lastmile_qr_scan"}, "type": "electric_bike", "lat": 38.87376716666667, "is_reserved": 0, "fusion_lat": 0.0}, {"bike_id": "5e5785e25c73e3167717c604e2eb3d65", "fusion_lon": 0.0, "lon": -76.99794966666667, "name": "5e5785e25c73e3167717c604e2eb3d65", "is_disabled": 0, "rental_uris": {"android": "https://dc.lft.to/lastmile_qr_scan", "ios": "https://dc.lft.to/lastmile_qr_scan"}, "type": "electric_scooter", "lat": 38.87499, "is_reserved": 0, "fusion_lat": 0.0}, {"bike_id": "495fd9e9530fe7025f5dc237c265e05d", "fusion_lon": 0.0, "lon": -76.983576, "name": "495fd9e9530fe7025f5dc237c265e05d", "is_disabled": 0, "rental_uris": {"android": "https://dc.lft.to/lastmile_qr_scan", "ios": "https://dc.lft.to/lastmile_qr_scan"}, "type": "electric_scooter", "lat": 38.90635616666667, "is_reserved": 0, "fusion_lat": 0.0}, {"bike_id": "207ca3962d640cc3d96b963bb78c0716", "fusion_lon": 0.0, "lon": -76.96527033333334, "name": "207ca3962d640cc3d96b963bb78c0716", "is_disabled": 0, "rental_uris": {"android": "https://dc.lft.to/lastmile_qr_scan", "ios": "https://dc.lft.to/lastmile_qr_scan"}, "type": "electric_scooter", "lat": 38.8762995, "is_reserved": 0, "fusion_lat": 0.0}, {"bike_id": "6c98373b611adfc258012af823b04316", "fusion_lon": 0.0, "lon": -76.9652885, "name": "6c98373b611adfc258012af823b04316", "is_disabled": 0, "rental_uris": {"android": "https://dc.lft.to/lastmile_qr_scan", "ios": "https://dc.lft.to/lastmile_qr_scan"}, "type": "electric_scooter", "lat": 38.876284166666665, "is_reserved": 0, "fusion_lat": 0.0}, {"bike_id": "7ff4b2044ef91801945dec2558852a7c", "fusion_lon": 0.0, "lon": -77.02819183333334, "name": "7ff4b2044ef91801945dec2558852a7c", "is_disabled": 0, "rental_uris": {"android": "https://dc.lft.to/lastmile_qr_scan", "ios": "https://dc.lft.to/lastmile_qr_scan"}, "type": "electric_scooter", "lat": 38.9207015, "is_reserved": 0, "fusion_lat": 0.0}, {"bike_id": "08c3828745d7406ff778314b18212a55", "fusion_lon": 0.0, "lon": -77.02619033333333, "name": "08c3828745d7406ff778314b18212a55", "is_disabled": 0, "rental_uris": {"android": "https://dc.lft.to/lastmile_qr_scan", "ios": "https://dc.lft.to/lastmile_qr_scan"}, "type": "electric_bike", "lat": 38.96933966666667, "is_reserved": 0, "fusion_lat": 0.0}, {"bike_id": "f0c6207a1bf107843347c45eb12b76c8", "fusion_lon": 0.0, "lon": -77.05235733333333, "name": "f0c6207a1bf107843347c45eb12b76c8", "is_disabled": 0, "rental_uris": {"android": "https://dc.lft.to/lastmile_qr_scan", "ios": "https://dc.lft.to/lastmile_qr_scan"}, "type": "electric_scooter", "lat": 38.927018, "is_reserved": 0, "fusion_lat": 0.0}, {"bike_id": "8488e9828c6ece769dd88d9e4a93f451", "fusion_lon": 0.0, "lon": -77.0289275, "name": "8488e9828c6ece769dd88d9e4a93f451", "is_disabled": 0, "rental_uris": {"android": "https://dc.lft.to/lastmile_qr_scan", "ios": "https://dc.lft.to/lastmile_qr_scan"}, "type": "electric_scooter", "lat": 38.914042333333335, "is_reserved": 0, "fusion_lat": 0.0}, {"bike_id": "0e2f0fbcf6f11d0342a46233bb511e9c", "fusion_lon": 0.0, "lon": -77.04031783333333, "name": "0e2f0fbcf6f11d0342a46233bb511e9c", "is_disabled": 0, "rental_uris": {"android": "https://dc.lft.to/lastmile_qr_scan", "ios": "https://dc.lft.to/lastmile_qr_scan"}, "type": "electric_scooter", "lat": 38.899103833333335, "is_reserved": 0, "fusion_lat": 0.0}, {"bike_id": "3eb157935aab9077fa093913e297f496", "fusion_lon": 0.0, "lon": -77.0033235, "name": "3eb157935aab9077fa093913e297f496", "is_disabled": 0, "rental_uris": {"android": "https://dc.lft.to/lastmile_qr_scan", "ios": "https://dc.lft.to/lastmile_qr_scan"}, "type": "electric_scooter", "lat": 38.90720566666667, "is_reserved": 0, "fusion_lat": 0.0}, {"bike_id": "e73ee4efeae810857215a90891f908d2", "fusion_lon": 0.0, "lon": -77.0093615, "name": "e73ee4efeae810857215a90891f908d2", "is_disabled": 0, "rental_uris": {"android": "https://dc.lft.to/lastmile_qr_scan", "ios": "https://dc.lft.to/lastmile_qr_scan"}, "type": "electric_bike", "lat": 38.897384333333335, "is_reserved": 0, "fusion_lat": 0.0}, {"bike_id": "d112dfa913cb1a4d092b2fb499fcad10", "fusion_lon": 0.0, "lon": -77.01988516666667, "name": "d112dfa913cb1a4d092b2fb499fcad10", "is_disabled": 0, "rental_uris": {"android": "https://dc.lft.to/lastmile_qr_scan", "ios": "https://dc.lft.to/lastmile_qr_scan"}, "type": "electric_bike", "lat": 38.922776166666665, "is_reserved": 0, "fusion_lat": 0.0}, {"bike_id": "0f5c972fc91d2eb512127c19ef16a1b6", "fusion_lon": 0.0, "lon": -77.00214366666667, "name": "0f5c972fc91d2eb512127c19ef16a1b6", "is_disabled": 0, "rental_uris": {"android": "https://dc.lft.to/lastmile_qr_scan", "ios": "https://dc.lft.to/lastmile_qr_scan"}, "type": "electric_scooter", "lat": 38.87526583333333, "is_reserved": 0, "fusion_lat": 0.0}, {"bike_id": "3a05b3cc707afca446ba166f07814e3c", "fusion_lon": 0.0, "lon": -76.9981415, "name": "3a05b3cc707afca446ba166f07814e3c", "is_disabled": 0, "rental_uris": {"android": "https://dc.lft.to/lastmile_qr_scan", "ios": "https://dc.lft.to/lastmile_qr_scan"}, "type": "electric_scooter", "lat": 38.8443535, "is_reserved": 0, "fusion_lat": 0.0}, {"bike_id": "f737147e6efc4a1eaa11bea87f74b9bd", "fusion_lon": 0.0, "lon": -77.0387, "name": "f737147e6efc4a1eaa11bea87f74b9bd", "is_disabled": 0, "rental_uris": {"android": "https://dc.lft.to/lastmile_qr_scan", "ios": "https://dc.lft.to/lastmile_qr_scan"}, "type": "electric_scooter", "lat": 38.912638333333334, "is_reserved": 0, "fusion_lat": 0.0}, {"bike_id": "1e24f57b1ba92dd1f4f7d02fea0b672a", "fusion_lon": 0.0, "lon": -77.04360916666667, "name": "1e24f57b1ba92dd1f4f7d02fea0b672a", "is_disabled": 0, "rental_uris": {"android": "https://dc.lft.to/lastmile_qr_scan", "ios": "https://dc.lft.to/lastmile_qr_scan"}, "type": "electric_scooter", "lat": 38.90893666666667, "is_reserved": 0, "fusion_lat": 0.0}, {"bike_id": "287d5fddf28a68c0f54a2577180247d5", "fusion_lon": 0.0, "lon": -76.98649, "name": "287d5fddf28a68c0f54a2577180247d5", "is_disabled": 0, "rental_uris": {"android": "https://dc.lft.to/lastmile_qr_scan", "ios": "https://dc.lft.to/lastmile_qr_scan"}, "type": "electric_scooter", "lat": 38.85810683333333, "is_reserved": 0, "fusion_lat": 0.0}, {"bike_id": "7b030f18c2770e680adecbfd75267888", "fusion_lon": 0.0, "lon": -76.98922833333333, "name": "7b030f18c2770e680adecbfd75267888", "is_disabled": 0, "rental_uris": {"android": "https://dc.lft.to/lastmile_qr_scan", "ios": "https://dc.lft.to/lastmile_qr_scan"}, "type": "electric_scooter", "lat": 38.858131, "is_reserved": 0, "fusion_lat": 0.0}, {"bike_id": "1031944ae4da3df8bac3ba12313eea47", "fusion_lon": 0.0, "lon": -77.03283183333333, "name": "1031944ae4da3df8bac3ba12313eea47", "is_disabled": 0, "rental_uris": {"android": "https://dc.lft.to/lastmile_qr_scan", "ios": "https://dc.lft.to/lastmile_qr_scan"}, "type": "electric_scooter", "lat": 38.92060766666667, "is_reserved": 0, "fusion_lat": 0.0}, {"bike_id": "6021244a87fc23d21b94febe93205016", "fusion_lon": 0.0, "lon": -77.03548516666666, "name": "6021244a87fc23d21b94febe93205016", "is_disabled": 0, "rental_uris": {"android": "https://dc.lft.to/lastmile_qr_scan", "ios": "https://dc.lft.to/lastmile_qr_scan"}, "type": "electric_scooter", "lat": 38.928654, "is_reserved": 0, "fusion_lat": 0.0}, {"bike_id": "ffeaab84b8b7891da89a0eb35cfa3d51", "fusion_lon": 0.0, "lon": -77.0415085, "name": "ffeaab84b8b7891da89a0eb35cfa3d51", "is_disabled": 0, "rental_uris": {"android": "https://dc.lft.to/lastmile_qr_scan", "ios": "https://dc.lft.to/lastmile_qr_scan"}, "type": "electric_scooter", "lat": 38.91978316666667, "is_reserved": 0, "fusion_lat": 0.0}, {"bike_id": "6bd80d8bef7b9b38f7d3bdc05d37dcd9", "fusion_lon": 0.0, "lon": -77.070094, "name": "6bd80d8bef7b9b38f7d3bdc05d37dcd9", "is_disabled": 0, "rental_uris": {"android": "https://dc.lft.to/lastmile_qr_scan", "ios": "https://dc.lft.to/lastmile_qr_scan"}, "type": "electric_bike", "lat": 38.9277045, "is_reserved": 0, "fusion_lat": 0.0}, {"bike_id": "6d0a5348d1435cb2c441468ebaf10fdb", "fusion_lon": 0.0, "lon": -77.04464983333334, "name": "6d0a5348d1435cb2c441468ebaf10fdb", "is_disabled": 0, "rental_uris": {"android": "https://dc.lft.to/lastmile_qr_scan", "ios": "https://dc.lft.to/lastmile_qr_scan"}, "type": "electric_scooter", "lat": 38.91848666666667, "is_reserved": 0, "fusion_lat": 0.0}, {"bike_id": "303dd2935167a0520cccd1cd891b3741", "fusion_lon": 0.0, "lon": -76.98364183333334, "name": "303dd2935167a0520cccd1cd891b3741", "is_disabled": 0, "rental_uris": {"android": "https://dc.lft.to/lastmile_qr_scan", "ios": "https://dc.lft.to/lastmile_qr_scan"}, "type": "electric_scooter", "lat": 38.885992333333334, "is_reserved": 0, "fusion_lat": 0.0}, {"bike_id": "d5bf18034c3f4382d2450c313b284518", "fusion_lon": 0.0, "lon": -77.03153033333334, "name": "d5bf18034c3f4382d2450c313b284518", "is_disabled": 0, "rental_uris": {"android": "https://dc.lft.to/lastmile_qr_scan", "ios": "https://dc.lft.to/lastmile_qr_scan"}, "type": "electric_bike", "lat": 38.999523333333336, "is_reserved": 0, "fusion_lat": 0.0}, {"bike_id": "ff66c647de762198377feb09306756a9", "fusion_lon": 0.0, "lon": -77.04687866666667, "name": "ff66c647de762198377feb09306756a9", "is_disabled": 0, "rental_uris": {"android": "https://dc.lft.to/lastmile_qr_scan", "ios": "https://dc.lft.to/lastmile_qr_scan"}, "type": "electric_scooter", "lat": 38.905734833333334, "is_reserved": 0, "fusion_lat": 0.0}, {"bike_id": "7822581342d69f0292d3a22a63cd7682", "fusion_lon": 0.0, "lon": -77.003501, "name": "7822581342d69f0292d3a22a63cd7682", "is_disabled": 0, "rental_uris": {"android": "https://dc.lft.to/lastmile_qr_scan", "ios": "https://dc.lft.to/lastmile_qr_scan"}, "type": "electric_scooter", "lat": 38.902329333333334, "is_reserved": 0, "fusion_lat": 0.0}, {"bike_id": "c53f2b01ff38177f19336eb583a53794", "fusion_lon": 0.0, "lon": -77.04466633333334, "name": "c53f2b01ff38177f19336eb583a53794", "is_disabled": 0, "rental_uris": {"android": "https://dc.lft.to/lastmile_qr_scan", "ios": "https://dc.lft.to/lastmile_qr_scan"}, "type": "electric_scooter", "lat": 38.895334166666665, "is_reserved": 0, "fusion_lat": 0.0}, {"bike_id": "8b45b415409a6ae887596ade6752388e", "fusion_lon": 0.0, "lon": -77.03179383333334, "name": "8b45b415409a6ae887596ade6752388e", "is_disabled": 0, "rental_uris": {"android": "https://dc.lft.to/lastmile_qr_scan", "ios": "https://dc.lft.to/lastmile_qr_scan"}, "type": "electric_scooter", "lat": 38.919276833333335, "is_reserved": 0, "fusion_lat": 0.0}, {"bike_id": "0dfb444f270a0d56216a27987eeadbe7", "fusion_lon": 0.0, "lon": -77.038289, "name": "0dfb444f270a0d56216a27987eeadbe7", "is_disabled": 0, "rental_uris": {"android": "https://dc.lft.to/lastmile_qr_scan", "ios": "https://dc.lft.to/lastmile_qr_scan"}, "type": "electric_scooter", "lat": 38.9112085, "is_reserved": 0, "fusion_lat": 0.0}, {"bike_id": "6e5ecee2d5166c47496afe39b4b0d743", "fusion_lon": 0.0, "lon": -77.02583433333334, "name": "6e5ecee2d5166c47496afe39b4b0d743", "is_disabled": 0, "rental_uris": {"android": "https://dc.lft.to/lastmile_qr_scan", "ios": "https://dc.lft.to/lastmile_qr_scan"}, "type": "electric_scooter", "lat": 38.892332833333334, "is_reserved": 0, "fusion_lat": 0.0}, {"bike_id": "dbbd6dfad4a89f1d76c6899cedd846e2", "fusion_lon": 0.0, "lon": -77.0686385, "name": "dbbd6dfad4a89f1d76c6899cedd846e2", "is_disabled": 0, "rental_uris": {"android": "https://dc.lft.to/lastmile_qr_scan", "ios": "https://dc.lft.to/lastmile_qr_scan"}, "type": "electric_bike", "lat": 38.805793666666666, "is_reserved": 0, "fusion_lat": 0.0}, {"bike_id": "b4e85ef3567dec005240dd7b577529a6", "fusion_lon": 0.0, "lon": -77.01197933333333, "name": "b4e85ef3567dec005240dd7b577529a6", "is_disabled": 0, "rental_uris": {"android": "https://dc.lft.to/lastmile_qr_scan", "ios": "https://dc.lft.to/lastmile_qr_scan"}, "type": "electric_scooter", "lat": 38.900129, "is_reserved": 0, "fusion_lat": 0.0}, {"bike_id": "e612bfbbd9319c97b26c9a8e9f5e97c6", "fusion_lon": 0.0, "lon": -76.92735333333333, "name": "e612bfbbd9319c97b26c9a8e9f5e97c6", "is_disabled": 0, "rental_uris": {"android": "https://dc.lft.to/lastmile_qr_scan", "ios": "https://dc.lft.to/lastmile_qr_scan"}, "type": "electric_scooter", "lat": 38.889671, "is_reserved": 0, "fusion_lat": 0.0}, {"bike_id": "0a5709ba7f0fbc1b86c67e045579f748", "fusion_lon": 0.0, "lon": -76.98796166666666, "name": "0a5709ba7f0fbc1b86c67e045579f748", "is_disabled": 0, "rental_uris": {"android": "https://dc.lft.to/lastmile_qr_scan", "ios": "https://dc.lft.to/lastmile_qr_scan"}, "type": "electric_bike", "lat": 38.922109666666664, "is_reserved": 0, "fusion_lat": 0.0}, {"bike_id": "8d8a3f6cf4c723195f66621ea12ceea5", "fusion_lon": 0.0, "lon": -76.9851885, "name": "8d8a3f6cf4c723195f66621ea12ceea5", "is_disabled": 0, "rental_uris": {"android": "https://dc.lft.to/lastmile_qr_scan", "ios": "https://dc.lft.to/lastmile_qr_scan"}, "type": "electric_scooter", "lat": 38.86665383333333, "is_reserved": 0, "fusion_lat": 0.0}, {"bike_id": "708bd15c895f6c082ab5be3cd40a8261", "fusion_lon": 0.0, "lon": -77.02328783333333, "name": "708bd15c895f6c082ab5be3cd40a8261", "is_disabled": 0, "rental_uris": {"android": "https://dc.lft.to/lastmile_qr_scan", "ios": "https://dc.lft.to/lastmile_qr_scan"}, "type": "electric_scooter", "lat": 38.92893516666667, "is_reserved": 0, "fusion_lat": 0.0}, {"bike_id": "892b397680bb0f415b46b353870f9610", "fusion_lon": 0.0, "lon": -76.93158166666667, "name": "892b397680bb0f415b46b353870f9610", "is_disabled": 0, "rental_uris": {"android": "https://dc.lft.to/lastmile_qr_scan", "ios": "https://dc.lft.to/lastmile_qr_scan"}, "type": "electric_scooter", "lat": 38.8987815, "is_reserved": 0, "fusion_lat": 0.0}, {"bike_id": "531efaa83807f87e8c4fccc4e37c03fe", "fusion_lon": 0.0, "lon": -77.02690116666666, "name": "531efaa83807f87e8c4fccc4e37c03fe", "is_disabled": 0, "rental_uris": {"android": "https://dc.lft.to/lastmile_qr_scan", "ios": "https://dc.lft.to/lastmile_qr_scan"}, "type": "electric_scooter", "lat": 38.88130683333333, "is_reserved": 0, "fusion_lat": 0.0}, {"bike_id": "676ef7556b906dd8080d442f21c53215", "fusion_lon": 0.0, "lon": -77.02316316666666, "name": "676ef7556b906dd8080d442f21c53215", "is_disabled": 0, "rental_uris": {"android": "https://dc.lft.to/lastmile_qr_scan", "ios": "https://dc.lft.to/lastmile_qr_scan"}, "type": "electric_scooter", "lat": 38.9072795, "is_reserved": 0, "fusion_lat": 0.0}, {"bike_id": "07f848d04936d9d90625ff44b42d4812", "fusion_lon": 0.0, "lon": -77.01936066666667, "name": "07f848d04936d9d90625ff44b42d4812", "is_disabled": 0, "rental_uris": {"android": "https://dc.lft.to/lastmile_qr_scan", "ios": "https://dc.lft.to/lastmile_qr_scan"}, "type": "electric_scooter", "lat": 38.947073333333336, "is_reserved": 0, "fusion_lat": 0.0}, {"bike_id": "ce134cf567f2a2e13baaab8ebe3aa190", "fusion_lon": 0.0, "lon": -77.050353, "name": "ce134cf567f2a2e13baaab8ebe3aa190", "is_disabled": 0, "rental_uris": {"android": "https://dc.lft.to/lastmile_qr_scan", "ios": "https://dc.lft.to/lastmile_qr_scan"}, "type": "electric_bike", "lat": 39.0390915, "is_reserved": 0, "fusion_lat": 0.0}, {"bike_id": "478fce3242d6e7d91f71bdb49b4ee9b7", "fusion_lon": 0.0, "lon": -77.03901066666667, "name": "478fce3242d6e7d91f71bdb49b4ee9b7", "is_disabled": 0, "rental_uris": {"android": "https://dc.lft.to/lastmile_qr_scan", "ios": "https://dc.lft.to/lastmile_qr_scan"}, "type": "electric_scooter", "lat": 38.9247285, "is_reserved": 0, "fusion_lat": 0.0}, {"bike_id": "cb921543bab84406cd9959c44970820c", "fusion_lon": 0.0, "lon": -76.95403333333333, "name": "cb921543bab84406cd9959c44970820c", "is_disabled": 0, "rental_uris": {"android": "https://dc.lft.to/lastmile_qr_scan", "ios": "https://dc.lft.to/lastmile_qr_scan"}, "type": "electric_bike", "lat": 38.8900665, "is_reserved": 0, "fusion_lat": 0.0}, {"bike_id": "5cf6f7e040396ba1234559976ccb96be", "fusion_lon": 0.0, "lon": -77.012243, "name": "5cf6f7e040396ba1234559976ccb96be", "is_disabled": 0, "rental_uris": {"android": "https://dc.lft.to/lastmile_qr_scan", "ios": "https://dc.lft.to/lastmile_qr_scan"}, "type": "electric_scooter", "lat": 38.89775183333333, "is_reserved": 0, "fusion_lat": 0.0}, {"bike_id": "ed7aba944166ff5e67f055093fd0c72e", "fusion_lon": 0.0, "lon": -77.05395616666667, "name": "ed7aba944166ff5e67f055093fd0c72e", "is_disabled": 0, "rental_uris": {"android": "https://dc.lft.to/lastmile_qr_scan", "ios": "https://dc.lft.to/lastmile_qr_scan"}, "type": "electric_scooter", "lat": 38.928143166666665, "is_reserved": 0, "fusion_lat": 0.0}, {"bike_id": "803c00763069ba53f28ceecb907e7ae5", "fusion_lon": 0.0, "lon": -77.12067316666666, "name": "803c00763069ba53f28ceecb907e7ae5", "is_disabled": 0, "rental_uris": {"android": "https://dc.lft.to/lastmile_qr_scan", "ios": "https://dc.lft.to/lastmile_qr_scan"}, "type": "electric_bike", "lat": 38.85414033333333, "is_reserved": 0, "fusion_lat": 0.0}, {"bike_id": "7645901169820406f3655356a684c346", "fusion_lon": 0.0, "lon": -77.01220033333334, "name": "7645901169820406f3655356a684c346", "is_disabled": 0, "rental_uris": {"android": "https://dc.lft.to/lastmile_qr_scan", "ios": "https://dc.lft.to/lastmile_qr_scan"}, "type": "electric_scooter", "lat": 38.91534983333333, "is_reserved": 0, "fusion_lat": 0.0}, {"bike_id": "8918b0672b95606811b60024cc16429e", "fusion_lon": 0.0, "lon": -77.0298865, "name": "8918b0672b95606811b60024cc16429e", "is_disabled": 0, "rental_uris": {"android": "https://dc.lft.to/lastmile_qr_scan", "ios": "https://dc.lft.to/lastmile_qr_scan"}, "type": "electric_scooter", "lat": 38.9237945, "is_reserved": 0, "fusion_lat": 0.0}, {"bike_id": "e53d89725e335127285bf6906a984165", "fusion_lon": 0.0, "lon": -77.02374533333334, "name": "e53d89725e335127285bf6906a984165", "is_disabled": 0, "rental_uris": {"android": "https://dc.lft.to/lastmile_qr_scan", "ios": "https://dc.lft.to/lastmile_qr_scan"}, "type": "electric_scooter", "lat": 38.900681666666664, "is_reserved": 0, "fusion_lat": 0.0}, {"bike_id": "fa706ec0c7282e1bf83c8dca438d080a", "fusion_lon": 0.0, "lon": -77.0332675, "name": "fa706ec0c7282e1bf83c8dca438d080a", "is_disabled": 0, "rental_uris": {"android": "https://dc.lft.to/lastmile_qr_scan", "ios": "https://dc.lft.to/lastmile_qr_scan"}, "type": "electric_scooter", "lat": 38.89851083333333, "is_reserved": 0, "fusion_lat": 0.0}, {"bike_id": "7fe0d250daf1523e4b6af49ed3ea7732", "fusion_lon": 0.0, "lon": -77.03291283333333, "name": "7fe0d250daf1523e4b6af49ed3ea7732", "is_disabled": 0, "rental_uris": {"android": "https://dc.lft.to/lastmile_qr_scan", "ios": "https://dc.lft.to/lastmile_qr_scan"}, "type": "electric_scooter", "lat": 38.90420866666667, "is_reserved": 0, "fusion_lat": 0.0},