{"data": {"bikes": [{"name": "e427bac67e7ac35804e919d64c7e5672", "fusion_lon": 0.0, "lat": 38.91642016666667, "is_reserved": 0, "type": "electric_scooter", "bike_id": "e427bac67e7ac35804e919d64c7e5672", "is_disabled": 0, "rental_uris": {"android": "https://dc.lft.to/lastmile_qr_scan", "ios": "https://dc.lft.to/lastmile_qr_scan"}, "lon": -77.03993933333334, "fusion_lat": 0.0}, {"name": "271fa06fe6f6c2ad54b6014f3f762c46", "fusion_lon": 0.0, "lat": 38.9228495, "is_reserved": 0, "type": "electric_scooter", "bike_id": "271fa06fe6f6c2ad54b6014f3f762c46", "is_disabled": 0, "rental_uris": {"android": "https://dc.lft.to/lastmile_qr_scan", "ios": "https://dc.lft.to/lastmile_qr_scan"}, "lon": -77.03657483333333, "fusion_lat": 0.0}, {"name": "dd02980f6dadc2b3bd60774de9c7b2e5", "fusion_lon": 0.0, "lat": 38.923751, "is_reserved": 0, "type": "electric_scooter", "bike_id": "dd02980f6dadc2b3bd60774de9c7b2e5", "is_disabled": 0, "rental_uris": {"android": "https://dc.lft.to/lastmile_qr_scan", "ios": "https://dc.lft.to/lastmile_qr_scan"}, "lon": -77.03041183333333, "fusion_lat": 0.0}, {"name": "4da2042da4f978f0a6b7a39c11b5ab9c", "fusion_lon": 0.0, "lat": 38.914603666666665, "is_reserved": 0, "type": "electric_scooter", "bike_id": "4da2042da4f978f0a6b7a39c11b5ab9c", "is_disabled": 0, "rental_uris": {"android": "https://dc.lft.to/lastmile_qr_scan", "ios": "https://dc.lft.to/lastmile_qr_scan"}, "lon": -77.07134166666667, "fusion_lat": 0.0}, {"name": "1a4ad9804bdef11f5a5af5bd6ebc0092", "fusion_lon": 0.0, "lat": 38.88266, "is_reserved": 0, "type": "electric_scooter", "bike_id": "1a4ad9804bdef11f5a5af5bd6ebc0092", "is_disabled": 0, "rental_uris": {"android": "https://dc.lft.to/lastmile_qr_scan", "ios": "https://dc.lft.to/lastmile_qr_scan"}, "lon": -76.9924835, "fusion_lat": 0.0}, {"name": "29a7d527d8a5eab58a7ee970de073094", "fusion_lon": 0.0, "lat": 38.90743416666667, "is_reserved": 0, "type": "electric_scooter", "bike_id": "29a7d527d8a5eab58a7ee970de073094", "is_disabled": 0, "rental_uris": {"android": "https://dc.lft.to/lastmile_qr_scan", "ios": "https://dc.lft.to/lastmile_qr_scan"}, "lon": -77.04186783333333, "fusion_lat": 0.0}, {"name": "04eb8156c99ae5042075c8d2b78b3329", "fusion_lon": 0.0, "lat": 38.91963583333333, "is_reserved": 0, "type": "electric_scooter", "bike_id": "04eb8156c99ae5042075c8d2b78b3329", "is_disabled": 0, "rental_uris": {"android": "https://dc.lft.to/lastmile_qr_scan", "ios": "https://dc.lft.to/lastmile_qr_scan"}, "lon": -77.02400316666666, "fusion_lat": 0.0}, {"name": "4707221470196a4b61d248aad0515f13", "fusion_lon": 0.0, "lat": 38.905773833333335, "is_reserved": 0, "type": "electric_scooter", "bike_id": "4707221470196a4b61d248aad0515f13", "is_disabled": 0, "rental_uris": {"android": "https://dc.lft.to/lastmile_qr_scan", "ios": "https://dc.lft.to/lastmile_qr_scan"}, "lon": -77.00589816666667, "fusion_lat": 0.0}, {"name": "66e1064b4a1ef87faaedbb3a3d95b9f1", "fusion_lon": 0.0, "lat": 38.935286833333336, "is_reserved": 0, "type": "electric_scooter", "bike_id": "66e1064b4a1ef87faaedbb3a3d95b9f1", "is_disabled": 0, "rental_uris": {"android": "https://dc.lft.to/lastmile_qr_scan", "ios": "https://dc.lft.to/lastmile_qr_scan"}, "lon": -77.02353933333333, "fusion_lat": 0.0}, {"name": "5fc8854c1bd5353694013d298a2d940f", "fusion_lon": 0.0, "lat": 38.928638, "is_reserved": 0, "type": "electric_scooter", "bike_id": "5fc8854c1bd5353694013d298a2d940f", "is_disabled": 0, "rental_uris": {"android": "https://dc.lft.to/lastmile_qr_scan", "ios": "https://dc.lft.to/lastmile_qr_scan"}, "lon": -77.0279675, "fusion_lat": 0.0}, {"name": "6f2b26e77c59e98b0b70e68450d06b92", "fusion_lon": 0.0, "lat": 38.9168435, "is_reserved": 0, "type": "electric_scooter", "bike_id": "6f2b26e77c59e98b0b70e68450d06b92", "is_disabled": 0, "rental_uris": {"android": "https://dc.lft.to/lastmile_qr_scan", "ios": "https://dc.lft.to/lastmile_qr_scan"}, "lon": -77.02699333333334, "fusion_lat": 0.0}, {"name": "fd07e830a3487a158ae68f3fb50adaad", "fusion_lon": 0.0, "lat": 38.921828833333336, "is_reserved": 0, "type": "electric_scooter", "bike_id": "fd07e830a3487a158ae68f3fb50adaad", "is_disabled": 0, "rental_uris": {"android": "https://dc.lft.to/lastmile_qr_scan", "ios": "https://dc.lft.to/lastmile_qr_scan"}, "lon": -77.02663833333334, "fusion_lat": 0.0}, {"name": "48dcb66537b237325ce267e9bf380b0d", "fusion_lon": 0.0, "lat": 38.9111245, "is_reserved": 0, "type": "electric_bike", "bike_id": "48dcb66537b237325ce267e9bf380b0d", "is_disabled": 0, "rental_uris": {"android": "https://dc.lft.to/lastmile_qr_scan", "ios": "https://dc.lft.to/lastmile_qr_scan"}, "lon": -77.01503533333333, "fusion_lat": 0.0}, {"name": "0045dbfc04d446e0bb800461f7c145b2", "fusion_lon": 0.0, "lat": 38.935484333333335, "is_reserved": 0, "type": "electric_scooter", "bike_id": "0045dbfc04d446e0bb800461f7c145b2", "is_disabled": 0, "rental_uris": {"android": "https://dc.lft.to/lastmile_qr_scan", "ios": "https://dc.lft.to/lastmile_qr_scan"}, "lon": -77.058478, "fusion_lat": 0.0}, {"name": "0d5bc2fa498e8482fa64b869830f66e0", "fusion_lon": 0.0, "lat": 38.93081933333333, "is_reserved": 0, "type": "electric_scooter", "bike_id": "0d5bc2fa498e8482fa64b869830f66e0", "is_disabled": 0, "rental_uris": {"android": "https://dc.lft.to/lastmile_qr_scan", "ios": "https://dc.lft.to/lastmile_qr_scan"}, "lon": -76.99607116666667, "fusion_lat": 0.0}, {"name": "aa00a75872d30a70b314be817d3e21a8", "fusion_lon": 0.0, "lat": 38.915735, "is_reserved": 0, "type": "electric_scooter", "bike_id": "aa00a75872d30a70b314be817d3e21a8", "is_disabled": 0, "rental_uris": {"android": "https://dc.lft.to/lastmile_qr_scan", "ios": "https://dc.lft.to/lastmile_qr_scan"}, "lon": -77.0228875, "fusion_lat": 0.0}, {"name": "fc450b34adda1f02c9723c2acb59040f", "fusion_lon": 0.0, "lat": 38.89356083333333, "is_reserved": 0, "type": "electric_scooter", "bike_id": "fc450b34adda1f02c9723c2acb59040f", "is_disabled": 0, "rental_uris": {"android": "https://dc.lft.to/lastmile_qr_scan", "ios": "https://dc.lft.to/lastmile_qr_scan"}, "lon": -76.9493515, "fusion_lat": 0.0}, {"name": "71a8f485547c13d3cc360ebad77ea630", "fusion_lon": 0.0, "lat": 38.905052166666664, "is_reserved": 0, "type": "electric_scooter", "bike_id": "71a8f485547c13d3cc360ebad77ea630", "is_disabled": 0, "rental_uris": {"android": "https://dc.lft.to/lastmile_qr_scan", "ios": "https://dc.lft.to/lastmile_qr_scan"}, "lon": -77.02946866666667, "fusion_lat": 0.0}, {"name": "fea50b74714386cb2066434ef761af06", "fusion_lon": 0.0, "lat": 38.907835666666664, "is_reserved": 0, "type": "electric_scooter", "bike_id": "fea50b74714386cb2066434ef761af06", "is_disabled": 0, "rental_uris": {"android": "https://dc.lft.to/lastmile_qr_scan", "ios": "https://dc.lft.to/lastmile_qr_scan"}, "lon": -77.0238615, "fusion_lat": 0.0}, {"name": "99cd94003d2ac86f5988ee3a0c09822d", "fusion_lon": 0.0, "lat": 38.923121, "is_reserved": 0, "type": "electric_scooter", "bike_id": "99cd94003d2ac86f5988ee3a0c09822d", "is_disabled": 0, "rental_uris": {"android": "https://dc.lft.to/lastmile_qr_scan", "ios": "https://dc.lft.to/lastmile_qr_scan"}, "lon": -77.04109033333333, "fusion_lat": 0.0}, {"name": "bb1e242ff3dbcb26e4abc01df6a3deeb", "fusion_lon": 0.0, "lat": 38.91708233333333, "is_reserved": 0, "type": "electric_scooter", "bike_id": "bb1e242ff3dbcb26e4abc01df6a3deeb", "is_disabled": 0, "rental_uris": {"android": "https://dc.lft.to/lastmile_qr_scan", "ios": "https://dc.lft.to/lastmile_qr_scan"}, "lon": -77.0316185, "fusion_lat": 0.0}, {"name": "8ddfbec6163817876006cfdb5ff4df06", "fusion_lon": 0.0, "lat": 38.86469966666667, "is_reserved": 0, "type": "electric_scooter", "bike_id": "8ddfbec6163817876006cfdb5ff4df06", "is_disabled": 0, "rental_uris": {"android": "https://dc.lft.to/lastmile_qr_scan", "ios": "https://dc.lft.to/lastmile_qr_scan"}, "lon": -76.97736116666667, "fusion_lat": 0.0}, {"name": "3f00f0eb55153191a709ba63f70e0f86", "fusion_lon": 0.0, "lat": 38.91189133333334, "is_reserved": 0, "type": "electric_scooter", "bike_id": "3f00f0eb55153191a709ba63f70e0f86", "is_disabled": 0, "rental_uris": {"android": "https://dc.lft.to/lastmile_qr_scan", "ios": "https://dc.lft.to/lastmile_qr_scan"}, "lon": -77.01011683333333, "fusion_lat": 0.0}, {"name": "3fec646d3d8892615c1a22c6cdef8a0b", "fusion_lon": 0.0, "lat": 38.969610833333334, "is_reserved": 0, "type": "electric_bike", "bike_id": "3fec646d3d8892615c1a22c6cdef8a0b", "is_disabled": 0, "rental_uris": {"android": "https://dc.lft.to/lastmile_qr_scan", "ios": "https://dc.lft.to/lastmile_qr_scan"}, "lon": -76.957486, "fusion_lat": 0.0}, {"name": "843e180d616343973d99179440c997b6", "fusion_lon": 0.0, "lat": 38.931642333333336, "is_reserved": 0, "type": "electric_bike", "bike_id": "843e180d616343973d99179440c997b6", "is_disabled": 0, "rental_uris": {"android": "https://dc.lft.to/lastmile_qr_scan", "ios": "https://dc.lft.to/lastmile_qr_scan"}, "lon": -76.976302, "fusion_lat": 0.0}, {"name": "e72acfcf68ab82864a04b5927c17f722", "fusion_lon": 0.0, "lat": 38.916835, "is_reserved": 0, "type": "electric_scooter", "bike_id": "e72acfcf68ab82864a04b5927c17f722", "is_disabled": 0, "rental_uris": {"android": "https://dc.lft.to/lastmile_qr_scan", "ios": "https://dc.lft.to/lastmile_qr_scan"}, "lon": -77.02687716666667, "fusion_lat": 0.0}, {"name": "168854e4933bb82e9590b6b520717ed2", "fusion_lon": 0.0, "lat": 38.9238745, "is_reserved": 0, "type": "electric_scooter", "bike_id": "168854e4933bb82e9590b6b520717ed2", "is_disabled": 0, "rental_uris": {"android": "https://dc.lft.to/lastmile_qr_scan", "ios": "https://dc.lft.to/lastmile_qr_scan"}, "lon": -77.025644, "fusion_lat": 0.0}, {"name": "879bf6b39806d59efeb66dbb2c623540", "fusion_lon": 0.0, "lat": 38.83453183333334, "is_reserved": 0, "type": "electric_scooter", "bike_id": "879bf6b39806d59efeb66dbb2c623540", "is_disabled": 0, "rental_uris": {"android": "https://dc.lft.to/lastmile_qr_scan", "ios": "https://dc.lft.to/lastmile_qr_scan"}, "lon": -76.99076666666667, "fusion_lat": 0.0}, {"name": "b745c77fbe6e1ea29481dd685a1e9761", "fusion_lon": 0.0, "lat": 38.927996, "is_reserved": 0, "type": "electric_scooter", "bike_id": "b745c77fbe6e1ea29481dd685a1e9761", "is_disabled": 0, "rental_uris": {"android": "https://dc.lft.to/lastmile_qr_scan", "ios": "https://dc.lft.to/lastmile_qr_scan"}, "lon": -77.030236, "fusion_lat": 0.0}, {"name": "907d922de5b29479a560192576e03a39", "fusion_lon": 0.0, "lat": 38.95759816666666, "is_reserved": 0, "type": "electric_scooter", "bike_id": "907d922de5b29479a560192576e03a39", "is_disabled": 0, "rental_uris": {"android": "https://dc.lft.to/lastmile_qr_scan", "ios": "https://dc.lft.to/lastmile_qr_scan"}, "lon": -77.02098, "fusion_lat": 0.0}, {"name": "da671305a27421df0b0931db4234385e", "fusion_lon": 0.0, "lat": 38.90441, "is_reserved": 0, "type": "electric_scooter", "bike_id": "da671305a27421df0b0931db4234385e", "is_disabled": 0, "rental_uris": {"android": "https://dc.lft.to/lastmile_qr_scan", "ios": "https://dc.lft.to/lastmile_qr_scan"}, "lon": -76.98485883333333, "fusion_lat": 0.0}, {"name": "37febf51110cf2ac5987555213668ff8", "fusion_lon": 0.0, "lat": 38.917544, "is_reserved": 0, "type": "electric_bike", "bike_id": "37febf51110cf2ac5987555213668ff8", "is_disabled": 0, "rental_uris": {"android": "https://dc.lft.to/lastmile_qr_scan", "ios": "https://dc.lft.to/lastmile_qr_scan"}, "lon": -77.00045966666667, "fusion_lat": 0.0}, {"name": "644006a87ea2d8be713312390bddb5bd", "fusion_lon": 0.0, "lat": 38.8962575, "is_reserved": 0, "type": "electric_scooter", "bike_id": "644006a87ea2d8be713312390bddb5bd", "is_disabled": 0, "rental_uris": {"android": "https://dc.lft.to/lastmile_qr_scan", "ios": "https://dc.lft.to/lastmile_qr_scan"}, "lon": -77.02980683333334, "fusion_lat": 0.0}, {"name": "aaae46c599186cb438be501fabe75a67", "fusion_lon": 0.0, "lat": 38.90058066666667, "is_reserved": 0, "type": "electric_scooter", "bike_id": "aaae46c599186cb438be501fabe75a67", "is_disabled": 0, "rental_uris": {"android": "https://dc.lft.to/lastmile_qr_scan", "ios": "https://dc.lft.to/lastmile_qr_scan"}, "lon": -77.0178395, "fusion_lat": 0.0}, {"name": "8bfca0b53c3509f0484f45e3a7b3f0aa", "fusion_lon": 0.0, "lat": 38.9518195, "is_reserved": 0, "type": "electric_scooter", "bike_id": "8bfca0b53c3509f0484f45e3a7b3f0aa", "is_disabled": 0, "rental_uris": {"android": "https://dc.lft.to/lastmile_qr_scan", "ios": "https://dc.lft.to/lastmile_qr_scan"}, "lon": -77.02723533333334, "fusion_lat": 0.0}, {"name": "4ad058bf727159b7b933e61d22414ebd", "fusion_lon": 0.0, "lat": 38.91183183333333, "is_reserved": 0, "type": "electric_scooter", "bike_id": "4ad058bf727159b7b933e61d22414ebd", "is_disabled": 0, "rental_uris": {"android": "https://dc.lft.to/lastmile_qr_scan", "ios": "https://dc.lft.to/lastmile_qr_scan"}, "lon": -77.0177295, "fusion_lat": 0.0}, {"name": "0ed58429f84a113b53bca70ab0eccc62", "fusion_lon": 0.0, "lat": 38.900169, "is_reserved": 0, "type": "electric_scooter", "bike_id": "0ed58429f84a113b53bca70ab0eccc62", "is_disabled": 0, "rental_uris": {"android": "https://dc.lft.to/lastmile_qr_scan", "ios": "https://dc.lft.to/lastmile_qr_scan"}, "lon": -76.99698066666667, "fusion_lat": 0.0}, {"name": "a1322e608bdc615c53e5fbc8b24a50e2", "fusion_lon": 0.0, "lat": 38.9026215, "is_reserved": 0, "type": "electric_scooter", "bike_id": "a1322e608bdc615c53e5fbc8b24a50e2", "is_disabled": 0, "rental_uris": {"android": "https://dc.lft.to/lastmile_qr_scan", "ios": "https://dc.lft.to/lastmile_qr_scan"}, "lon": -77.0175925, "fusion_lat": 0.0}, {"name": "bc3c4741da86e8ab7d8157460e6a441c", "fusion_lon": 0.0, "lat": 38.9002555, "is_reserved": 0, "type": "electric_scooter", "bike_id": "bc3c4741da86e8ab7d8157460e6a441c", "is_disabled": 0, "rental_uris": {"android": "https://dc.lft.to/lastmile_qr_scan", "ios": "https://dc.lft.to/lastmile_qr_scan"}, "lon": -76.98044183333333, "fusion_lat": 0.0}, {"name": "e443c6f460bd2679d30f6406556c76ae", "fusion_lon": 0.0, "lat": 38.945181166666664, "is_reserved": 0, "type": "electric_scooter", "bike_id": "e443c6f460bd2679d30f6406556c76ae", "is_disabled": 0, "rental_uris": {"android": "https://dc.lft.to/lastmile_qr_scan", "ios": "https://dc.lft.to/lastmile_qr_scan"}, "lon": -77.03358933333334, "fusion_lat": 0.0}, {"name": "b7ca85fc2d354f6ff139fa55d4853c04", "fusion_lon": 0.0, "lat": 38.870092666666665, "is_reserved": 0, "type": "electric_scooter", "bike_id": "b7ca85fc2d354f6ff139fa55d4853c04", "is_disabled": 0, "rental_uris": {"android": "https://dc.lft.to/lastmile_qr_scan", "ios": "https://dc.lft.to/lastmile_qr_scan"}, "lon": -76.980877, "fusion_lat": 0.0}, {"name": "66a871147bea36818f988276c600f5c5", "fusion_lon": 0.0, "lat": 38.909855666666665, "is_reserved": 0, "type": "electric_scooter", "bike_id": "66a871147bea36818f988276c600f5c5", "is_disabled": 0, "rental_uris": {"android": "https://dc.lft.to/lastmile_qr_scan", "ios": "https://dc.lft.to/lastmile_qr_scan"}, "lon": -77.0384045, "fusion_lat": 0.0}, {"name": "1a227954b05bbd0759dbcf9456c163c2", "fusion_lon": 0.0, "lat": 38.876662, "is_reserved": 0, "type": "electric_scooter", "bike_id": "1a227954b05bbd0759dbcf9456c163c2", "is_disabled": 0, "rental_uris": {"android": "https://dc.lft.to/lastmile_qr_scan", "ios": "https://dc.lft.to/lastmile_qr_scan"}, "lon": -77.00318716666666, "fusion_lat": 0.0}, {"name": "fd6f957488f2540a0cdc520c1dc1af52", "fusion_lon": 0.0, "lat": 38.865213833333335, "is_reserved": 0, "type": "electric_scooter", "bike_id": "fd6f957488f2540a0cdc520c1dc1af52", "is_disabled": 0, "rental_uris": {"android": "https://dc.lft.to/lastmile_qr_scan", "ios": "https://dc.lft.to/lastmile_qr_scan"}, "lon": -76.9684015, "fusion_lat": 0.0}, {"name": "dcc83db89106b6d8c239cb7cfb53eeb2", "fusion_lon": 0.0, "lat": 38.924947833333334, "is_reserved": 0, "type": "electric_scooter", "bike_id": "dcc83db89106b6d8c239cb7cfb53eeb2", "is_disabled": 0, "rental_uris": {"android": "https://dc.lft.to/lastmile_qr_scan", "ios": "https://dc.lft.to/lastmile_qr_scan"}, "lon": -77.0318025, "fusion_lat": 0.0}, {"name": "32cc6ff617d7d50f1e72630d5a8910b7", "fusion_lon": 0.0, "lat": 38.924608166666665, "is_reserved": 0, "type": "electric_scooter", "bike_id": "32cc6ff617d7d50f1e72630d5a8910b7", "is_disabled": 0, "rental_uris": {"android": "https://dc.lft.to/lastmile_qr_scan", "ios": "https://dc.lft.to/lastmile_qr_scan"}, "lon": -77.02713366666667, "fusion_lat": 0.0}, {"name": "09c901538bdcb65ce432b2932a04fc39", "fusion_lon": 0.0, "lat": 38.91840416666667, "is_reserved": 0, "type": "electric_scooter", "bike_id": "09c901538bdcb65ce432b2932a04fc39", "is_disabled": 0, "rental_uris": {"android": "https://dc.lft.to/lastmile_qr_scan", "ios": "https://dc.lft.to/lastmile_qr_scan"}, "lon": -77.02292633333333, "fusion_lat": 0.0}, {"name": "e35ddf9a7842a6fe15c76eac31cb930a", "fusion_lon": 0.0, "lat": 38.8922435, "is_reserved": 0, "type": "electric_scooter", "bike_id": "e35ddf9a7842a6fe15c76eac31cb930a", "is_disabled": 0, "rental_uris": {"android": "https://dc.lft.to/lastmile_qr_scan", "ios": "https://dc.lft.to/lastmile_qr_scan"}, "lon": -77.0485965, "fusion_lat": 0.0}, {"name": "54c424c1c6bd07b83f7ec5c33d2325b2", "fusion_lon": 0.0, "lat": 38.9124855, "is_reserved": 0, "type": "electric_scooter", "bike_id": "54c424c1c6bd07b83f7ec5c33d2325b2", "is_disabled": 0, "rental_uris": {"android": "https://dc.lft.to/lastmile_qr_scan", "ios": "https://dc.lft.to/lastmile_qr_scan"}, "lon": -77.03415183333334, "fusion_lat": 0.0}, {"name": "ce701bba001351d3032d42e02481bbd2", "fusion_lon": 0.0, "lat": 38.90506466666667, "is_reserved": 0, "type": "electric_scooter", "bike_id": "ce701bba001351d3032d42e02481bbd2", "is_disabled": 0, "rental_uris": {"android": "https://dc.lft.to/lastmile_qr_scan", "ios": "https://dc.lft.to/lastmile_qr_scan"}, "lon": -77.03823166666666, "fusion_lat": 0.0}, {"name": "db1f27d3039f2ce597640e0e7f075c3b", "fusion_lon": 0.0, "lat": 38.915556333333335, "is_reserved": 0, "type": "electric_scooter", "bike_id": "db1f27d3039f2ce597640e0e7f075c3b", "is_disabled": 0, "rental_uris": {"android": "https://dc.lft.to/lastmile_qr_scan", "ios": "https://dc.lft.to/lastmile_qr_scan"}, "lon": -77.02550883333333, "fusion_lat": 0.0}, {"name": "3b12a214dbb8efe307f4e49f946975cf", "fusion_lon": 0.0, "lat": 38.92068966666667, "is_reserved": 0, "type": "electric_scooter", "bike_id": "3b12a214dbb8efe307f4e49f946975cf", "is_disabled": 0, "rental_uris": {"android": "https://dc.lft.to/lastmile_qr_scan", "ios": "https://dc.lft.to/lastmile_qr_scan"}, "lon": -77.0321145, "fusion_lat": 0.0}, {"name": "4e628454850849600ee3c91204b4084b", "fusion_lon": 0.0, "lat": 38.89612, "is_reserved": 0, "type": "electric_scooter", "bike_id": "4e628454850849600ee3c91204b4084b", "is_disabled": 0, "rental_uris": {"android": "https://dc.lft.to/lastmile_qr_scan", "ios": "https://dc.lft.to/lastmile_qr_scan"}, "lon": -77.02602966666667, "fusion_lat": 0.0}, {"name": "db6aa59147c282d635c4905835610e62", "fusion_lon": 0.0, "lat": 38.86090516666667, "is_reserved": 0, "type": "electric_bike", "bike_id": "db6aa59147c282d635c4905835610e62", "is_disabled": 0, "rental_uris": {"android": "https://dc.lft.to/lastmile_qr_scan", "ios": "https://dc.lft.to/lastmile_qr_scan"}, "lon": -77.09596316666666, "fusion_lat": 0.0}, {"name": "f572b1ce2a3a89c50ff711501e3ff7da", "fusion_lon": 0.0, "lat": 38.936794, "is_reserved": 0, "type": "electric_scooter", "bike_id": "f572b1ce2a3a89c50ff711501e3ff7da", "is_disabled": 0, "rental_uris": {"android": "https://dc.lft.to/lastmile_qr_scan", "ios": "https://dc.lft.to/lastmile_qr_scan"}, "lon": -77.036243, "fusion_lat": 0.0}, {"name": "58b0349cd633ee59488f27442f3d5a77", "fusion_lon": 0.0, "lat": 38.88108716666667, "is_reserved": 0, "type": "electric_scooter", "bike_id": "58b0349cd633ee59488f27442f3d5a77", "is_disabled": 0, "rental_uris": {"android": "https://dc.lft.to/lastmile_qr_scan", "ios": "https://dc.lft.to/lastmile_qr_scan"}, "lon": -77.01636916666666, "fusion_lat": 0.0}, {"name": "200a8fa5eb4a10228cd4d14b92ee9968", "fusion_lon": 0.0, "lat": 38.91818983333334, "is_reserved": 0, "type": "electric_scooter", "bike_id": "200a8fa5eb4a10228cd4d14b92ee9968", "is_disabled": 0, "rental_uris": {"android": "https://dc.lft.to/lastmile_qr_scan", "ios": "https://dc.lft.to/lastmile_qr_scan"}, "lon": -77.0316315, "fusion_lat": 0.0}, {"name": "f01920c7dd039fcb887da9e4483b6328", "fusion_lon": 0.0, "lat": 38.917154, "is_reserved": 0, "type": "electric_scooter", "bike_id": "f01920c7dd039fcb887da9e4483b6328", "is_disabled": 0, "rental_uris": {"android": "https://dc.lft.to/lastmile_qr_scan", "ios": "https://dc.lft.to/lastmile_qr_scan"}, "lon": -77.0385095, "fusion_lat": 0.0}, {"name": "586a4a19e412eda47f1cdccc15e61892", "fusion_lon": 0.0, "lat": 38.88816516666667, "is_reserved": 0, "type": "electric_scooter", "bike_id": "586a4a19e412eda47f1cdccc15e61892", "is_disabled": 0, "rental_uris": {"android": "https://dc.lft.to/lastmile_qr_scan", "ios": "https://dc.lft.to/lastmile_qr_scan"}, "lon": -76.933403, "fusion_lat": 0.0}, {"name": "33c50081f013a3007d28fb350786f066", "fusion_lon": 0.0, "lat": 38.9246685, "is_reserved": 0, "type": "electric_scooter", "bike_id": "33c50081f013a3007d28fb350786f066", "is_disabled": 0, "rental_uris": {"android": "https://dc.lft.to/lastmile_qr_scan", "ios": "https://dc.lft.to/lastmile_qr_scan"}, "lon": -77.02203733333333, "fusion_lat": 0.0}, {"name": "39f566d8c15aa45d6cf58740fc49cd83", "fusion_lon": 0.0, "lat": 38.91636166666667, "is_reserved": 0, "type": "electric_scooter", "bike_id": "39f566d8c15aa45d6cf58740fc49cd83", "is_disabled": 0, "rental_uris": {"android": "https://dc.lft.to/lastmile_qr_scan", "ios": "https://dc.lft.to/lastmile_qr_scan"}, "lon": -77.001931, "fusion_lat": 0.0}, {"name": "0916c2c1e0665cb8b534a9a8ede65080", "fusion_lon": 0.0, "lat": 38.922127333333336, "is_reserved": 0, "type": "electric_bike", "bike_id": "0916c2c1e0665cb8b534a9a8ede65080", "is_disabled": 0, "rental_uris": {"android": "https://dc.lft.to/lastmile_qr_scan", "ios": "https://dc.lft.to/lastmile_qr_scan"}, "lon": -76.987936, "fusion_lat": 0.0}, {"name": "9fad31bb9019eb10bc000f9fa0592446", "fusion_lon": 0.0, "lat": 38.920898333333334, "is_reserved": 0, "type": "electric_scooter", "bike_id": "9fad31bb9019eb10bc000f9fa0592446", "is_disabled": 0, "rental_uris": {"android": "https://dc.lft.to/lastmile_qr_scan", "ios": "https://dc.lft.to/lastmile_qr_scan"}, "lon": -77.00425, "fusion_lat": 0.0}, {"name": "c932ecb378213b43d24d10440c3339aa", "fusion_lon": 0.0, "lat": 38.90279116666667, "is_reserved": 0, "type": "electric_scooter", "bike_id": "c932ecb378213b43d24d10440c3339aa", "is_disabled": 0, "rental_uris": {"android": "https://dc.lft.to/lastmile_qr_scan", "ios": "https://dc.lft.to/lastmile_qr_scan"}, "lon": -77.03951033333334, "fusion_lat": 0.0}, {"name": "64f1a96808a9256933dbaf0fa64b8f03", "fusion_lon": 0.0, "lat": 38.91412583333333, "is_reserved": 0, "type": "electric_scooter", "bike_id": "64f1a96808a9256933dbaf0fa64b8f03", "is_disabled": 0, "rental_uris": {"android": "https://dc.lft.to/lastmile_qr_scan", "ios": "https://dc.lft.to/lastmile_qr_scan"}, "lon": -77.021512, "fusion_lat": 0.0}, {"name": "717cf23fd06aa53f4ae86989c90d6dc3", "fusion_lon": 0.0, "lat": 38.920436, "is_reserved": 0, "type": "electric_scooter", "bike_id": "717cf23fd06aa53f4ae86989c90d6dc3", "is_disabled": 0, "rental_uris": {"android": "https://dc.lft.to/lastmile_qr_scan", "ios": "https://dc.lft.to/lastmile_qr_scan"}, "lon": -77.04199533333333, "fusion_lat": 0.0}, {"name": "1abfc76d8e94c5ed519e07762aa6f19c", "fusion_lon": 0.0, "lat": 38.9119595, "is_reserved": 0, "type": "electric_scooter", "bike_id": "1abfc76d8e94c5ed519e07762aa6f19c", "is_disabled": 0, "rental_uris": {"android": "https://dc.lft.to/lastmile_qr_scan", "ios": "https://dc.lft.to/lastmile_qr_scan"}, "lon": -77.03838666666667, "fusion_lat": 0.0}, {"name": "40ab7b706fdea2ba21839c1e800b78c3", "fusion_lon": 0.0, "lat": 38.90498766666666, "is_reserved": 0, "type": "electric_scooter", "bike_id": "40ab7b706fdea2ba21839c1e800b78c3", "is_disabled": 0, "rental_uris": {"android": "https://dc.lft.to/lastmile_qr_scan", "ios": "https://dc.lft.to/lastmile_qr_scan"}, "lon": -77.04146566666667, "fusion_lat": 0.0}, {"name": "3c03bcf752680a7d74b28b1a67ff2924", "fusion_lon": 0.0, "lat": 38.94912333333333, "is_reserved": 0, "type": "electric_bike", "bike_id": "3c03bcf752680a7d74b28b1a67ff2924", "is_disabled": 0, "rental_uris": {"android": "https://dc.lft.to/lastmile_qr_scan", "ios": "https://dc.lft.to/lastmile_qr_scan"}, "lon": -77.024174, "fusion_lat": 0.0}, {"name": "b5a5bcf8fc5374aa5d7b7f9f26196046", "fusion_lon": 0.0, "lat": 38.921601833333334, "is_reserved": 0, "type": "electric_scooter", "bike_id": "b5a5bcf8fc5374aa5d7b7f9f26196046", "is_disabled": 0, "rental_uris": {"android": "https://dc.lft.to/lastmile_qr_scan", "ios": "https://dc.lft.to/lastmile_qr_scan"}, "lon": -77.025366, "fusion_lat": 0.0}, {"name": "e28b0110c903c43f1e1fb2ee8b9774f4", "fusion_lon": 0.0, "lat": 38.9210805, "is_reserved": 0, "type": "electric_scooter", "bike_id": "e28b0110c903c43f1e1fb2ee8b9774f4", "is_disabled": 0, "rental_uris": {"android": "https://dc.lft.to/lastmile_qr_scan", "ios": "https://dc.lft.to/lastmile_qr_scan"}, "lon": -77.031805, "fusion_lat": 0.0}, {"name": "537209ded69148cd0878b57684b89b66", "fusion_lon": 0.0, "lat": 38.919814833333334, "is_reserved": 0, "type": "electric_scooter", "bike_id": "537209ded69148cd0878b57684b89b66", "is_disabled": 0, "rental_uris": {"android": "https://dc.lft.to/lastmile_qr_scan", "ios": "https://dc.lft.to/lastmile_qr_scan"}, "lon": -77.023772, "fusion_lat": 0.0}, {"name": "0f46fb005e720ab45094dae6278ed7b0", "fusion_lon": 0.0, "lat": 38.93578466666666, "is_reserved": 0, "type": "electric_scooter", "bike_id": "0f46fb005e720ab45094dae6278ed7b0", "is_disabled": 0, "rental_uris": {"android": "https://dc.lft.to/lastmile_qr_scan", "ios": "https://dc.lft.to/lastmile_qr_scan"}, "lon": -77.02108216666667, "fusion_lat": 0.0}, {"name": "d39bc914ecebfa1509b6621ed6c3ff18", "fusion_lon": 0.0, "lat": 38.915002333333334, "is_reserved": 0, "type": "electric_scooter", "bike_id": "d39bc914ecebfa1509b6621ed6c3ff18", "is_disabled": 0, "rental_uris": {"android": "https://dc.lft.to/lastmile_qr_scan", "ios": "https://dc.lft.to/lastmile_qr_scan"}, "lon": -76.98372666666667, "fusion_lat": 0.0}, {"name": "674959d21adb2677ccab1e369e263752", "fusion_lon": 0.0, "lat": 38.91554383333333, "is_reserved": 0, "type": "electric_scooter", "bike_id": "674959d21adb2677ccab1e369e263752", "is_disabled": 0, "rental_uris": {"android": "https://dc.lft.to/lastmile_qr_scan", "ios": "https://dc.lft.to/lastmile_qr_scan"}, "lon": -77.0386475, "fusion_lat": 0.0}, {"name": "44d15b34f4123264c92db905da60cf2e", "fusion_lon": 0.0, "lat": 38.95201633333333, "is_reserved": 0, "type": "electric_scooter", "bike_id": "44d15b34f4123264c92db905da60cf2e", "is_disabled": 0, "rental_uris": {"android": "https://dc.lft.to/lastmile_qr_scan", "ios": "https://dc.lft.to/lastmile_qr_scan"}, "lon": -77.02728833333333, "fusion_lat": 0.0}, {"name": "925231b12a5cefe28c365da2e3cfa9ed", "fusion_lon": 0.0, "lat": 38.86197816666667, "is_reserved": 0, "type": "electric_bike", "bike_id": "925231b12a5cefe28c365da2e3cfa9ed", "is_disabled": 0, "rental_uris": {"android": "https://dc.lft.to/lastmile_qr_scan", "ios": "https://dc.lft.to/lastmile_qr_scan"}, "lon": -76.94806183333333, "fusion_lat": 0.0}, {"name": "9daae3dfe50b030dc8f5eb7158966466", "fusion_lon": 0.0, "lat": 38.890437666666664, "is_reserved": 0, "type": "electric_scooter", "bike_id": "9daae3dfe50b030dc8f5eb7158966466", "is_disabled": 0, "rental_uris": {"android": "https://dc.lft.to/lastmile_qr_scan", "ios": "https://dc.lft.to/lastmile_qr_scan"}, "lon": -76.99062333333333, "fusion_lat": 0.0}, {"name": "57a04de0daad1a92ddc6176d264a0a2f", "fusion_lon": 0.0, "lat": 38.90140366666667, "is_reserved": 0, "type": "electric_scooter", "bike_id": "57a04de0daad1a92ddc6176d264a0a2f", "is_disabled": 0, "rental_uris": {"android": "https://dc.lft.to/lastmile_qr_scan", "ios": "https://dc.lft.to/lastmile_qr_scan"}, "lon": -77.00854233333334, "fusion_lat": 0.0}, {"name": "de91b3b3b88df68e5037c9c8c2a849a0", "fusion_lon": 0.0, "lat": 38.892224, "is_reserved": 0, "type": "electric_scooter", "bike_id": "de91b3b3b88df68e5037c9c8c2a849a0", "is_disabled": 0, "rental_uris": {"android": "https://dc.lft.to/lastmile_qr_scan", "ios": "https://dc.lft.to/lastmile_qr_scan"}, "lon": -77.0222575, "fusion_lat": 0.0}, {"name": "5fa76229ba26bf1fbefc4f3af2cb4c4a", "fusion_lon": 0.0, "lat": 38.94036766666667, "is_reserved": 0, "type": "electric_scooter", "bike_id": "5fa76229ba26bf1fbefc4f3af2cb4c4a", "is_disabled": 0, "rental_uris": {"android": "https://dc.lft.to/lastmile_qr_scan", "ios": "https://dc.lft.to/lastmile_qr_scan"}, "lon": -77.02903266666667, "fusion_lat": 0.0}, {"name": "d11bac0c64a10b45e1f7558360008996", "fusion_lon": 0.0, "lat": 38.89613716666667, "is_reserved": 0, "type": "electric_scooter", "bike_id": "d11bac0c64a10b45e1f7558360008996", "is_disabled": 0, "rental_uris": {"android": "https://dc.lft.to/lastmile_qr_scan", "ios": "https://dc.lft.to/lastmile_qr_scan"}, "lon": -76.98165866666666, "fusion_lat": 0.0}, {"name": "9d10971931203f6f64b8430e1b77feae", "fusion_lon": 0.0, "lat": 38.92614583333334, "is_reserved": 0, "type": "electric_bike", "bike_id": "9d10971931203f6f64b8430e1b77feae", "is_disabled": 0, "rental_uris": {"android": "https://dc.lft.to/lastmile_qr_scan", "ios": "https://dc.lft.to/lastmile_qr_scan"}, "lon": -77.0395695, "fusion_lat": 0.0}, {"name": "33522ac3646fc022b1e2d40e8af234a2", "fusion_lon": 0.0, "lat": 38.903330833333335, "is_reserved": 0, "type": "electric_scooter", "bike_id": "33522ac3646fc022b1e2d40e8af234a2", "is_disabled": 0, "rental_uris": {"android": "https://dc.lft.to/lastmile_qr_scan", "ios": "https://dc.lft.to/lastmile_qr_scan"}, "lon": -77.01107583333334, "fusion_lat": 0.0}, {"name": "75b4a17d42b5dfc425b1f454a66efdc4", "fusion_lon": 0.0, "lat": 38.877050833333335, "is_reserved": 0, "type": "electric_scooter", "bike_id": "75b4a17d42b5dfc425b1f454a66efdc4", "is_disabled": 0, "rental_uris": {"android": "https://dc.lft.to/lastmile_qr_scan", "ios": "https://dc.lft.to/lastmile_qr_scan"}, "lon": -77.017235, "fusion_lat": 0.0}, {"name": "cc656c1a488c798ff428ab2bd570843d", "fusion_lon": 0.0, "lat": 38.9078155, "is_reserved": 0, "type": "electric_scooter", "bike_id": "cc656c1a488c798ff428ab2bd570843d", "is_disabled": 0, "rental_uris": {"android": "https://dc.lft.to/lastmile_qr_scan", "ios": "https://dc.lft.to/lastmile_qr_scan"}, "lon": -77.0382675, "fusion_lat": 0.0}, {"name": "2e7cdf9be4cb37c7f709ecb7f3f712e7", "fusion_lon": 0.0, "lat": 38.90865066666667, "is_reserved": 0, "type": "electric_scooter", "bike_id": "2e7cdf9be4cb37c7f709ecb7f3f712e7", "is_disabled": 0, "rental_uris": {"android": "https://dc.lft.to/lastmile_qr_scan", "ios": "https://dc.lft.to/lastmile_qr_scan"}, "lon": -76.9995695, "fusion_lat": 0.0}, {"name": "72de9f2e0d530256c5511dcbbfbb4954", "fusion_lon": 0.0, "lat": 38.88393033333333, "is_reserved": 0, "type": "electric_scooter", "bike_id": "72de9f2e0d530256c5511dcbbfbb4954", "is_disabled": 0, "rental_uris": {"android": "https://dc.lft.to/lastmile_qr_scan", "ios": "https://dc.lft.to/lastmile_qr_scan"}, "lon": -76.95443366666666, "fusion_lat": 0.0}, {"name": "fe696cc5b04e4f03fc0958fb337ea47e", "fusion_lon": 0.0, "lat": 38.909669666666666, "is_reserved": 0, "type": "electric_scooter", "bike_id": "fe696cc5b04e4f03fc0958fb337ea47e", "is_disabled": 0, "rental_uris": {"android": "https://dc.lft.to/lastmile_qr_scan", "ios": "https://dc.lft.to/lastmile_qr_scan"}, "lon": -77.02305666666666, "fusion_lat": 0.0}, {"name": "d9f4c94e16c7197c7c8c8c64fe9d2822", "fusion_lon": 0.0, "lat": 38.91816016666667, "is_reserved": 0, "type": "electric_scooter", "bike_id": "d9f4c94e16c7197c7c8c8c64fe9d2822", "is_disabled": 0, "rental_uris": {"android": "https://dc.lft.to/lastmile_qr_scan", "ios": "https://dc.lft.to/lastmile_qr_scan"}, "lon": -77.0366485, "fusion_lat": 0.0}, {"name": "ec2098557073a7584c87445ae01d95b1", "fusion_lon": 0.0, "lat": 38.903823, "is_reserved": 0, "type": "electric_scooter", "bike_id": "ec2098557073a7584c87445ae01d95b1", "is_disabled": 0, "rental_uris": {"android": "https://dc.lft.to/lastmile_qr_scan", "ios": "https://dc.lft.to/lastmile_qr_scan"}, "lon": -77.041926, "fusion_lat": 0.0}, {"name": "e507825dc338baf0f8be96fb9070c716", "fusion_lon": 0.0, "lat": 38.90631, "is_reserved": 0, "type": "electric_scooter", "bike_id": "e507825dc338baf0f8be96fb9070c716", "is_disabled": 0, "rental_uris": {"android": "https://dc.lft.to/lastmile_qr_scan", "ios": "https://dc.lft.to/lastmile_qr_scan"}, "lon": -77.048704, "fusion_lat": 0.0}, {"name": "1052f0a4af3e2115bfbc7d043c63ab48", "fusion_lon": 0.0, "lat": 38.9053805, "is_reserved": 0, "type": "electric_scooter", "bike_id": "1052f0a4af3e2115bfbc7d043c63ab48", "is_disabled": 0, "rental_uris": {"android": "https://dc.lft.to/lastmile_qr_scan", "ios": "https://dc.lft.to/lastmile_qr_scan"}, "lon": -77.03435783333333, "fusion_lat": 0.0}, {"name": "566afcfec51df472970b48a5cf84ec80", "fusion_lon": 0.0, "lat": 38.88472483333334, "is_reserved": 0, "type": "electric_scooter", "bike_id": "566afcfec51df472970b48a5cf84ec80", "is_disabled": 0, "rental_uris": {"android": "https://dc.lft.to/lastmile_qr_scan", "ios": "https://dc.lft.to/lastmile_qr_scan"}, "lon": -77.02653766666667, "fusion_lat": 0.0}, {"name": "40f5d8e05026dae4c934642e74e6971d", "fusion_lon": 0.0, "lat": 38.95183, "is_reserved": 0, "type": "electric_scooter", "bike_id": "40f5d8e05026dae4c934642e74e6971d", "is_disabled": 0, "rental_uris": {"android": "https://dc.lft.to/lastmile_qr_scan", "ios": "https://dc.lft.to/lastmile_qr_scan"}, "lon": -77.02612633333334, "fusion_lat": 0.0}, {"name": "4d847c9c776454aa8fd1d7c7e81f8751", "fusion_lon": 0.0, "lat": 38.9127505, "is_reserved": 0, "type": "electric_scooter", "bike_id": "4d847c9c776454aa8fd1d7c7e81f8751", "is_disabled": 0, "rental_uris": {"android": "https://dc.lft.to/lastmile_qr_scan", "ios": "https://dc.lft.to/lastmile_qr_scan"}, "lon": -77.018467, "fusion_lat": 0.0}, {"name": "e551d5864eb623980ce594121eaa0edb", "fusion_lon": 0.0, "lat": 38.925061166666666, "is_reserved": 0, "type": "electric_scooter", "bike_id": "e551d5864eb623980ce594121eaa0edb", "is_disabled": 0, "rental_uris": {"android": "https://dc.lft.to/lastmile_qr_scan", "ios": "https://dc.lft.to/lastmile_qr_scan"}, "lon": -77.02358416666667, "fusion_lat": 0.0}, {"name": "d63e5077023de8be6a747954f56b8d8e", "fusion_lon": 0.0, "lat": 38.934877, "is_reserved": 0, "type": "electric_scooter", "bike_id": "d63e5077023de8be6a747954f56b8d8e", "is_disabled": 0, "rental_uris": {"android": "https://dc.lft.to/lastmile_qr_scan", "ios": "https://dc.lft.to/lastmile_qr_scan"}, "lon": -77.0360615, "fusion_lat": 0.0}, {"name": "f6616105ebc011f16f8308fee456d84d", "fusion_lon": 0.0, "lat": 38.91471216666667, "is_reserved": 0, "type": "electric_scooter", "bike_id": "f6616105ebc011f16f8308fee456d84d", "is_disabled": 0, "rental_uris": {"android": "https://dc.lft.to/lastmile_qr_scan", "ios": "https://dc.lft.to/lastmile_qr_scan"}, "lon": -77.03174933333334, "fusion_lat": 0.0}, {"name": "50574f2abe56c4d65aa8510e896debf1", "fusion_lon": 0.0, "lat": 38.86695483333333, "is_reserved": 0, "type": "electric_scooter", "bike_id": "50574f2abe56c4d65aa8510e896debf1", "is_disabled": 0, "rental_uris": {"android": "https://dc.lft.to/lastmile_qr_scan", "ios": "https://dc.lft.to/lastmile_qr_scan"}, "lon": -76.985634, "fusion_lat": 0.0}, {"name": "1799b56969cda0f559fa2079469c04c2", "fusion_lon": 0.0, "lat": 38.916208166666664, "is_reserved": 0, "type": "electric_scooter", "bike_id": "1799b56969cda0f559fa2079469c04c2", "is_disabled": 0, "rental_uris": {"android": "https://dc.lft.to/lastmile_qr_scan", "ios": "https://dc.lft.to/lastmile_qr_scan"}, "lon": -77.01580566666667, "fusion_lat": 0.0}, {"name": "68f50d03d14a3a8449d499d72747515e", "fusion_lon": 0.0, "lat": 38.882052, "is_reserved": 0, "type": "electric_bike", "bike_id": "68f50d03d14a3a8449d499d72747515e", "is_disabled": 0, "rental_uris": {"android": "https://dc.lft.to/lastmile_qr_scan", "ios": "https://dc.lft.to/lastmile_qr_scan"}, "lon": -77.11748416666667, "fusion_lat": 0.0}, {"name": "02de11d358b91b19fe6edad69dd7ea55", "fusion_lon": 0.0, "lat": 38.895052166666666, "is_reserved": 0, "type": "electric_scooter", "bike_id": "02de11d358b91b19fe6edad69dd7ea55", "is_disabled": 0, "rental_uris": {"android": "https://dc.lft.to/lastmile_qr_scan", "ios": "https://dc.lft.to/lastmile_qr_scan"}, "lon": -76.93474066666667, "fusion_lat": 0.0}, {"name": "3e2c436f50e7cd966e4b5f0e86b8a49b", "fusion_lon": 0.0, "lat": 38.995320166666666, "is_reserved": 0, "type": "electric_bike", "bike_id": "3e2c436f50e7cd966e4b5f0e86b8a49b", "is_disabled": 0, "rental_uris": {"android": "https://dc.lft.to/lastmile_qr_scan", "ios": "https://dc.lft.to/lastmile_qr_scan"}, "lon": -77.06939433333334, "fusion_lat": 0.0}, {"name": "b5e9d56c51fda020b320e4d7fcc95b4d", "fusion_lon": 0.0, "lat": 38.92618933333333, "is_reserved": 0, "type": "electric_scooter", "bike_id": "b5e9d56c51fda020b320e4d7fcc95b4d", "is_disabled": 0, "rental_uris": {"android": "https://dc.lft.to/lastmile_qr_scan", "ios": "https://dc.lft.to/lastmile_qr_scan"}, "lon": -77.0431905, "fusion_lat": 0.0}, {"name": "ad44365c577139b749e1cd9286e64b13", "fusion_lon": 0.0, "lat": 38.922489166666665, "is_reserved": 0, "type": "electric_scooter", "bike_id": "ad44365c577139b749e1cd9286e64b13", "is_disabled": 0, "rental_uris": {"android": "https://dc.lft.to/lastmile_qr_scan", "ios": "https://dc.lft.to/lastmile_qr_scan"}, "lon": -77.03391383333333, "fusion_lat": 0.0}, {"name": "76ebdcd0d9045893962f1d00fb9ca771", "fusion_lon": 0.0, "lat": 38.85485966666667, "is_reserved": 0, "type": "electric_bike", "bike_id": "76ebdcd0d9045893962f1d00fb9ca771", "is_disabled": 0, "rental_uris": {"android": "https://dc.lft.to/lastmile_qr_scan", "ios": "https://dc.lft.to/lastmile_qr_scan"}, "lon": -77.11613466666667, "fusion_lat": 0.0}, {"name": "acea9f8b6500d8b301bfd038c5866628", "fusion_lon": 0.0, "lat": 38.8922185, "is_reserved": 0, "type": "electric_scooter", "bike_id": "acea9f8b6500d8b301bfd038c5866628", "is_disabled": 0, "rental_uris": {"android": "https://dc.lft.to/lastmile_qr_scan", "ios": "https://dc.lft.to/lastmile_qr_scan"}, "lon": -77.02224233333334, "fusion_lat": 0.0}, {"name": "7c756a380c98a178ee6ae5b5b098adaf", "fusion_lon": 0.0, "lat": 38.918025666666665, "is_reserved": 0, "type": "electric_scooter", "bike_id": "7c756a380c98a178ee6ae5b5b098adaf", "is_disabled": 0, "rental_uris": {"android": "https://dc.lft.to/lastmile_qr_scan", "ios": "https://dc.lft.to/lastmile_qr_scan"}, "lon": -77.034376, "fusion_lat": 0.0}, {"name": "02e71bfd1adc0b33077488e0a4c5418d", "fusion_lon": 0.0, "lat": 38.9112185, "is_reserved": 0, "type": "electric_scooter", "bike_id": "02e71bfd1adc0b33077488e0a4c5418d", "is_disabled": 0, "rental_uris": {"android": "https://dc.lft.to/lastmile_qr_scan", "ios": "https://dc.lft.to/lastmile_qr_scan"}, "lon": -77.02234366666667, "fusion_lat": 0.0}, {"name": "0448973e541a8e3ff527abfad846008c", "fusion_lon": 0.0, "lat": 38.894770666666666, "is_reserved": 0, "type": "electric_scooter", "bike_id": "0448973e541a8e3ff527abfad846008c", "is_disabled": 0, "rental_uris": {"android": "https://dc.lft.to/lastmile_qr_scan", "ios": "https://dc.lft.to/lastmile_qr_scan"}, "lon": -77.04653266666666, "fusion_lat": 0.0}, {"name": "fc5f70f07504bd53dbcd9b469bead2fb", "fusion_lon": 0.0, "lat": 38.89222383333333, "is_reserved": 0, "type": "electric_scooter", "bike_id": "fc5f70f07504bd53dbcd9b469bead2fb", "is_disabled": 0, "rental_uris": {"android": "https://dc.lft.to/lastmile_qr_scan", "ios": "https://dc.lft.to/lastmile_qr_scan"}, "lon": -77.04864033333334, "fusion_lat": 0.0}, {"name": "7c76c54c93cb998f61bc42165a3b55c4", "fusion_lon": 0.0, "lat": 38.89241883333333, "is_reserved": 0, "type": "electric_scooter", "bike_id": "7c76c54c93cb998f61bc42165a3b55c4", "is_disabled": 0, "rental_uris": {"android": "https://dc.lft.to/lastmile_qr_scan", "ios": "https://dc.lft.to/lastmile_qr_scan"}, "lon": -77.02409683333333, "fusion_lat": 0.0}, {"name": "8eac2646666631a1a7b84c59af03ab64", "fusion_lon": 0.0, "lat": 38.87826483333333, "is_reserved": 0, "type": "electric_scooter", "bike_id": "8eac2646666631a1a7b84c59af03ab64", "is_disabled": 0, "rental_uris": {"android": "https://dc.lft.to/lastmile_qr_scan", "ios": "https://dc.lft.to/lastmile_qr_scan"}, "lon": -77.01593633333333, "fusion_lat": 0.0}, {"name": "8cea20e5724fe8225320dd1b9fb824bc", "fusion_lon": 0.0, "lat": 38.89299533333333, "is_reserved": 0, "type": "electric_scooter", "bike_id": "8cea20e5724fe8225320dd1b9fb824bc", "is_disabled": 0, "rental_uris": {"android": "https://dc.lft.to/lastmile_qr_scan", "ios": "https://dc.lft.to/lastmile_qr_scan"}, "lon": -76.939264, "fusion_lat": 0.0}, {"name": "64716f78fe37884fd8e05be2aa8bae1c", "fusion_lon": 0.0, "lat": 38.92033283333333, "is_reserved": 0, "type": "electric_scooter", "bike_id": "64716f78fe37884fd8e05be2aa8bae1c", "is_disabled": 0, "rental_uris": {"android": "https://dc.lft.to/lastmile_qr_scan", "ios": "https://dc.lft.to/lastmile_qr_scan"}, "lon": -77.02582783333334, "fusion_lat": 0.0}, {"name": "1aeb6ca165a78d0e76ac39e925cfd435", "fusion_lon": 0.0, "lat": 38.92373, "is_reserved": 0, "type": "electric_scooter", "bike_id": "1aeb6ca165a78d0e76ac39e925cfd435", "is_disabled": 0, "rental_uris": {"android": "https://dc.lft.to/lastmile_qr_scan", "ios": "https://dc.lft.to/lastmile_qr_scan"}, "lon": -77.02916683333333, "fusion_lat": 0.0}, {"name": "640f7f1d229def8f9578bac1b050eebf", "fusion_lon": 0.0, "lat": 38.9456415, "is_reserved": 0, "type": "electric_bike", "bike_id": "640f7f1d229def8f9578bac1b050eebf", "is_disabled": 0, "rental_uris": {"android": "https://dc.lft.to/lastmile_qr_scan", "ios": "https://dc.lft.to/lastmile_qr_scan"}, "lon": -76.96679766666666, "fusion_lat": 0.0}, {"name": "d1d4f39f0f7051daf9dbec435e40d8a3", "fusion_lon": 0.0, "lat": 38.9038685, "is_reserved": 0, "type": "electric_scooter", "bike_id": "d1d4f39f0f7051daf9dbec435e40d8a3", "is_disabled": 0, "rental_uris": {"android": "https://dc.lft.to/lastmile_qr_scan", "ios": "https://dc.lft.to/lastmile_qr_scan"}, "lon": -77.026236, "fusion_lat": 0.0}, {"name": "45e58e5d10800df1daf04319283dbbd1", "fusion_lon": 0.0, "lat": 38.92157383333333, "is_reserved": 0, "type": "electric_scooter", "bike_id": "45e58e5d10800df1daf04319283dbbd1", "is_disabled": 0, "rental_uris": {"android": "https://dc.lft.to/lastmile_qr_scan", "ios": "https://dc.lft.to/lastmile_qr_scan"}, "lon": -77.03458416666666, "fusion_lat": 0.0}, {"name": "5a93bcd90fbc5133c9bf5b650da3921f", "fusion_lon": 0.0, "lat": 38.92885316666667, "is_reserved": 0, "type": "electric_scooter", "bike_id": "5a93bcd90fbc5133c9bf5b650da3921f", "is_disabled": 0, "rental_uris": {"android": "https://dc.lft.to/lastmile_qr_scan", "ios": "https://dc.lft.to/lastmile_qr_scan"}, "lon": -77.042307, "fusion_lat": 0.0}, {"name": "010480154e97ae561c25de51ac1d655c", "fusion_lon": 0.0, "lat": 38.87230366666667, "is_reserved": 0, "type": "electric_scooter", "bike_id": "010480154e97ae561c25de51ac1d655c", "is_disabled": 0, "rental_uris": {"android": "https://dc.lft.to/lastmile_qr_scan", "ios": "https://dc.lft.to/lastmile_qr_scan"}, "lon": -77.011747, "fusion_lat": 0.0}, {"name": "e56631ea6b87429e2b81e61d5c3c9ec2", "fusion_lon": 0.0, "lat": 38.97073116666667, "is_reserved": 0, "type": "electric_bike", "bike_id": "e56631ea6b87429e2b81e61d5c3c9ec2", "is_disabled": 0, "rental_uris": {"android": "https://dc.lft.to/lastmile_qr_scan", "ios": "https://dc.lft.to/lastmile_qr_scan"}, "lon": -76.93613516666667, "fusion_lat": 0.0}, {"name": "34d1ee151eafe72ee00ea97d8a055f41", "fusion_lon": 0.0, "lat": 38.90667166666667, "is_reserved": 0, "type": "electric_scooter", "bike_id": "34d1ee151eafe72ee00ea97d8a055f41", "is_disabled": 0, "rental_uris": {"android": "https://dc.lft.to/lastmile_qr_scan", "ios": "https://dc.lft.to/lastmile_qr_scan"}, "lon": -77.038627, "fusion_lat": 0.0}, {"name": "678cafa93c3b53d16040b5bce75cf09c", "fusion_lon": 0.0, "lat": 38.900037, "is_reserved": 0, "type": "electric_scooter", "bike_id": "678cafa93c3b53d16040b5bce75cf09c", "is_disabled": 0, "rental_uris": {"android": "https://dc.lft.to/lastmile_qr_scan", "ios": "https://dc.lft.to/lastmile_qr_scan"}, "lon": -77.001391, "fusion_lat": 0.0}, {"name": "738b32c5a7c8f5f373b93a4206b9952c", "fusion_lon": 0.0, "lat": 38.98437916666666, "is_reserved": 0, "type": "electric_scooter", "bike_id": "738b32c5a7c8f5f373b93a4206b9952c", "is_disabled": 0, "rental_uris": {"android": "https://dc.lft.to/lastmile_qr_scan", "ios": "https://dc.lft.to/lastmile_qr_scan"}, "lon": -77.02671683333334, "fusion_lat": 0.0}, {"name": "0003c82b7c7cbf3850cddda890b885d6", "fusion_lon": 0.0, "lat": 38.9154155, "is_reserved": 0, "type": "electric_scooter", "bike_id": "0003c82b7c7cbf3850cddda890b885d6", "is_disabled": 0, "rental_uris": {"android": "https://dc.lft.to/lastmile_qr_scan", "ios": "https://dc.lft.to/lastmile_qr_scan"}, "lon": -77.0384985, "fusion_lat": 0.0}, {"name": "e68c219483489f86ee9e8cc4220ea06e", "fusion_lon": 0.0, "lat": 38.893213, "is_reserved": 0, "type": "electric_scooter", "bike_id": "e68c219483489f86ee9e8cc4220ea06e", "is_disabled": 0, "rental_uris": {"android": "https://dc.lft.to/lastmile_qr_scan", "ios": "https://dc.lft.to/lastmile_qr_scan"}, "lon": -77.0178955, "fusion_lat": 0.0}, {"name": "4f5cd756cce43096670c633b2d4d7ad0", "fusion_lon": 0.0, "lat": 38.8848585, "is_reserved": 0, "type": "electric_scooter", "bike_id": "4f5cd756cce43096670c633b2d4d7ad0", "is_disabled": 0, "rental_uris": {"android": "https://dc.lft.to/lastmile_qr_scan", "ios": "https://dc.lft.to/lastmile_qr_scan"}, "lon": -77.00917983333333, "fusion_lat": 0.0}, {"name": "3bcfdfafb08b2c0160b7e58cd6cbac5f", "fusion_lon": 0.0, "lat": 38.9241695, "is_reserved": 0, "type": "electric_scooter", "bike_id": "3bcfdfafb08b2c0160b7e58cd6cbac5f", "is_disabled": 0, "rental_uris": {"android": "https://dc.lft.to/lastmile_qr_scan", "ios": "https://dc.lft.to/lastmile_qr_scan"}, "lon": -77.05063433333333, "fusion_lat": 0.0}, {"name": "ccff411d936a3f61e67cf102287dc7ee", "fusion_lon": 0.0, "lat": 38.91026433333333, "is_reserved": 0, "type": "electric_scooter", "bike_id": "ccff411d936a3f61e67cf102287dc7ee", "is_disabled": 0, "rental_uris": {"android": "https://dc.lft.to/lastmile_qr_scan", "ios": "https://dc.lft.to/lastmile_qr_scan"}, "lon": -77.00759216666667, "fusion_lat": 0.0}, {"name": "e0d9c68b3d87c503e25bf3720c2bd6bd", "fusion_lon": 0.0, "lat": 38.888889166666665, "is_reserved": 0, "type": "electric_scooter", "bike_id": "e0d9c68b3d87c503e25bf3720c2bd6bd", "is_disabled": 0, "rental_uris": {"android": "https://dc.lft.to/lastmile_qr_scan", "ios": "https://dc.lft.to/lastmile_qr_scan"}, "lon": -76.9477735, "fusion_lat": 0.0}, {"name": "816ad8f855b2fed263f691badb96e558", "fusion_lon": 0.0, "lat": 38.977237333333335, "is_reserved": 0, "type": "electric_scooter", "bike_id": "816ad8f855b2fed263f691badb96e558", "is_disabled": 0, "rental_uris": {"android": "https://dc.lft.to/lastmile_qr_scan", "ios": "https://dc.lft.to/lastmile_qr_scan"}, "lon": -77.01726583333334, "fusion_lat": 0.0}, {"name": "a4637a451e22bfcd4dd563213ef41008", "fusion_lon": 0.0, "lat": 38.910326833333336, "is_reserved": 0, "type": "electric_scooter", "bike_id": "a4637a451e22bfcd4dd563213ef41008", "is_disabled": 0, "rental_uris": {"android": "https://dc.lft.to/lastmile_qr_scan", "ios": "https://dc.lft.to/lastmile_qr_scan"}, "lon": -77.007558, "fusion_lat": 0.0}, {"name": "9864eca8ff382612a39852159809c6b2", "fusion_lon": 0.0, "lat": 38.7960855, "is_reserved": 0, "type": "electric_bike", "bike_id": "9864eca8ff382612a39852159809c6b2", "is_disabled": 0, "rental_uris": {"android": "https://dc.lft.to/lastmile_qr_scan", "ios": "https://dc.lft.to/lastmile_qr_scan"}, "lon": -76.9974115, "fusion_lat": 0.0}, {"name": "94693ce9aebcc18f1d1b5796f6d6acfa", "fusion_lon": 0.0, "lat": 38.90074333333333, "is_reserved": 0, "type": "electric_scooter", "bike_id": "94693ce9aebcc18f1d1b5796f6d6acfa", "is_disabled": 0, "rental_uris": {"android": "https://dc.lft.to/lastmile_qr_scan", "ios": "https://dc.lft.to/lastmile_qr_scan"}, "lon": -76.98337033333334, "fusion_lat": 0.0}, {"name": "b8b06d2267a67c5bf2f21511f4a2fe86", "fusion_lon": 0.0, "lat": 38.9055805, "is_reserved": 0, "type": "electric_scooter", "bike_id": "b8b06d2267a67c5bf2f21511f4a2fe86", "is_disabled": 0, "rental_uris": {"android": "https://dc.lft.to/lastmile_qr_scan", "ios": "https://dc.lft.to/lastmile_qr_scan"}, "lon": -77.00579483333334, "fusion_lat": 0.0}, {"name": "e1fe592b78705f5833c98c4865270b3f", "fusion_lon": 0.0, "lat": 38.91695283333333, "is_reserved": 0, "type": "electric_scooter", "bike_id": "e1fe592b78705f5833c98c4865270b3f", "is_disabled": 0, "rental_uris": {"android": "https://dc.lft.to/lastmile_qr_scan", "ios": "https://dc.lft.to/lastmile_qr_scan"}, "lon": -77.0294885, "fusion_lat": 0.0}, {"name": "a3460eb82c533559c41ff2dba773269c", "fusion_lon": 0.0, "lat": 38.87859, "is_reserved": 0, "type": "electric_bike", "bike_id": "a3460eb82c533559c41ff2dba773269c", "is_disabled": 0, "rental_uris": {"android": "https://dc.lft.to/lastmile_qr_scan", "ios": "https://dc.lft.to/lastmile_qr_scan"}, "lon": -77.017659, "fusion_lat": 0.0}, {"name": "867b267733e1aaed34365b3d1ee14edd", "fusion_lon": 0.0, "lat": 39.0003195, "is_reserved": 0, "type": "electric_bike", "bike_id": "867b267733e1aaed34365b3d1ee14edd", "is_disabled": 0, "rental_uris": {"android": "https://dc.lft.to/lastmile_qr_scan", "ios": "https://dc.lft.to/lastmile_qr_scan"}, "lon": -77.0473925, "fusion_lat": 0.0}, {"name": "964a8e915e6b963a1ab2287e6712c4d9", "fusion_lon": 0.0, "lat": 38.90570066666667, "is_reserved": 0, "type": "electric_scooter", "bike_id": "964a8e915e6b963a1ab2287e6712c4d9", "is_disabled": 0, "rental_uris": {"android": "https://dc.lft.to/lastmile_qr_scan", "ios": "https://dc.lft.to/lastmile_qr_scan"}, "lon": -77.04340566666667, "fusion_lat": 0.0}, {"name": "19f3428489b0e06461227dc2b65ed81e", "fusion_lon": 0.0, "lat": 38.915199666666666, "is_reserved": 0, "type": "electric_scooter", "bike_id": "19f3428489b0e06461227dc2b65ed81e", "is_disabled": 0, "rental_uris": {"android": "https://dc.lft.to/lastmile_qr_scan", "ios": "https://dc.lft.to/lastmile_qr_scan"}, "lon": -77.012227, "fusion_lat": 0.0}, {"name": "237b8e9d7e188e33720acfde2058350b", "fusion_lon": 0.0, "lat": 38.87298066666666, "is_reserved": 0, "type": "electric_bike", "bike_id": "237b8e9d7e188e33720acfde2058350b", "is_disabled": 0, "rental_uris": {"android": "https://dc.lft.to/lastmile_qr_scan", "ios": "https://dc.lft.to/lastmile_qr_scan"}, "lon": -76.96979883333333, "fusion_lat": 0.0}, {"name": "4908750b975aea1f4aafe1124be47ed6", "fusion_lon": 0.0, "lat": 38.94986766666667, "is_reserved": 0, "type": "electric_scooter", "bike_id": "4908750b975aea1f4aafe1124be47ed6", "is_disabled": 0, "rental_uris": {"android": "https://dc.lft.to/lastmile_qr_scan", "ios": "https://dc.lft.to/lastmile_qr_scan"}, "lon": -77.02704416666667, "fusion_lat": 0.0}, {"name": "ba16a1bbe46867c7d699eb003568f8f6", "fusion_lon": 0.0, "lat": 38.91123133333333, "is_reserved": 0, "type": "electric_scooter", "bike_id": "ba16a1bbe46867c7d699eb003568f8f6", "is_disabled": 0, "rental_uris": {"android": "https://dc.lft.to/lastmile_qr_scan", "ios": "https://dc.lft.to/lastmile_qr_scan"}, "lon": -77.02240716666667, "fusion_lat": 0.0}, {"name": "d4149e78181f435c32f7394b4972a1cd", "fusion_lon": 0.0, "lat": 38.883984166666664, "is_reserved": 0, "type": "electric_scooter", "bike_id": "d4149e78181f435c32f7394b4972a1cd", "is_disabled": 0, "rental_uris": {"android": "https://dc.lft.to/lastmile_qr_scan", "ios": "https://dc.lft.to/lastmile_qr_scan"}, "lon": -77.0256495, "fusion_lat": 0.0}, {"name": "ce30b58248de53898075c7c6e946ee0b", "fusion_lon": 0.0, "lat": 38.97170233333333, "is_reserved": 0, "type": "electric_scooter", "bike_id": "ce30b58248de53898075c7c6e946ee0b", "is_disabled": 0, "rental_uris": {"android": "https://dc.lft.to/lastmile_qr_scan", "ios": "https://dc.lft.to/lastmile_qr_scan"}, "lon": -77.02671166666667, "fusion_lat": 0.0}, {"name": "f44ed93594949501e121b893e3001c4e", "fusion_lon": 0.0, "lat": 38.9183755, "is_reserved": 0, "type": "electric_scooter", "bike_id": "f44ed93594949501e121b893e3001c4e", "is_disabled": 0, "rental_uris": {"android": "https://dc.lft.to/lastmile_qr_scan", "ios": "https://dc.lft.to/lastmile_qr_scan"}, "lon": -77.05947916666666, "fusion_lat": 0.0}, {"name": "1df7c4c97aa76945ba6d1347154e2fd8", "fusion_lon": 0.0, "lat": 38.878198, "is_reserved": 0, "type": "electric_scooter", "bike_id": "1df7c4c97aa76945ba6d1347154e2fd8", "is_disabled": 0, "rental_uris": {"android": "https://dc.lft.to/lastmile_qr_scan", "ios": "https://dc.lft.to/lastmile_qr_scan"}, "lon": -76.93100833333334, "fusion_lat": 0.0}, {"name": "2385fcb320d9a6c220790fcc9ad84fd2", "fusion_lon": 0.0, "lat": 38.90412633333333, "is_reserved": 0, "type": "electric_scooter", "bike_id": "2385fcb320d9a6c220790fcc9ad84fd2", "is_disabled": 0, "rental_uris": {"android": "https://dc.lft.to/lastmile_qr_scan", "ios": "https://dc.lft.to/lastmile_qr_scan"}, "lon": -76.97327133333333, "fusion_lat": 0.0}, {"name": "2adf5db9e94daca6c8c563a74bc2325d", "fusion_lon": 0.0, "lat": 38.92901583333333, "is_reserved": 0, "type": "electric_scooter", "bike_id": "2adf5db9e94daca6c8c563a74bc2325d", "is_disabled": 0, "rental_uris": {"android": "https://dc.lft.to/lastmile_qr_scan", "ios": "https://dc.lft.to/lastmile_qr_scan"}, "lon": -77.03233233333333, "fusion_lat": 0.0}, {"name": "1b74c6360fd76bebd70624caf57eb4c9", "fusion_lon": 0.0, "lat": 38.82005633333333, "is_reserved": 0, "type": "electric_bike", "bike_id": "1b74c6360fd76bebd70624caf57eb4c9", "is_disabled": 0, "rental_uris": {"android": "https://dc.lft.to/lastmile_qr_scan", "ios": "https://dc.lft.to/lastmile_qr_scan"}, "lon": -77.05762333333334, "fusion_lat": 0.0}, {"name": "fafa5ac504f29ce8b54cdcbff6b6cf03", "fusion_lon": 0.0, "lat": 38.92723866666667, "is_reserved": 0, "type": "electric_scooter", "bike_id": "fafa5ac504f29ce8b54cdcbff6b6cf03", "is_disabled": 0, "rental_uris": {"android": "https://dc.lft.to/lastmile_qr_scan", "ios": "https://dc.lft.to/lastmile_qr_scan"}, "lon": -77.0227855, "fusion_lat": 0.0}, {"name": "54d34684a69e4db0ff5f73ef2bfb93c9", "fusion_lon": 0.0, "lat": 38.833803333333336, "is_reserved": 0, "type": "electric_scooter", "bike_id": "54d34684a69e4db0ff5f73ef2bfb93c9", "is_disabled": 0, "rental_uris": {"android": "https://dc.lft.to/lastmile_qr_scan", "ios": "https://dc.lft.to/lastmile_qr_scan"}, "lon": -76.995664, "fusion_lat": 0.0}, {"name": "bcaa3fbed85ecd2e3bdd78c30e1eb800", "fusion_lon": 0.0, "lat": 38.91234033333333, "is_reserved": 0, "type": "electric_scooter", "bike_id": "bcaa3fbed85ecd2e3bdd78c30e1eb800", "is_disabled": 0, "rental_uris": {"android": "https://dc.lft.to/lastmile_qr_scan", "ios": "https://dc.lft.to/lastmile_qr_scan"}, "lon": -77.00203983333333, "fusion_lat": 0.0}, {"name": "4ad908ac3e12ceada29229b16ca94260", "fusion_lon": 0.0, "lat": 38.92420033333333, "is_reserved": 0, "type": "electric_scooter", "bike_id": "4ad908ac3e12ceada29229b16ca94260", "is_disabled": 0, "rental_uris": {"android": "https://dc.lft.to/lastmile_qr_scan", "ios": "https://dc.lft.to/lastmile_qr_scan"}, "lon": -77.05059183333333, "fusion_lat": 0.0}, {"name": "85dcac70e3b582d2a25f04757f811e14", "fusion_lon": 0.0, "lat": 38.924218333333336, "is_reserved": 0, "type": "electric_scooter", "bike_id": "85dcac70e3b582d2a25f04757f811e14", "is_disabled": 0, "rental_uris": {"android": "https://dc.lft.to/lastmile_qr_scan", "ios": "https://dc.lft.to/lastmile_qr_scan"}, "lon": -77.04463633333333, "fusion_lat": 0.0}, {"name": "5c5f3917024d34c47c7b7f5b0f881709", "fusion_lon": 0.0, "lat": 38.91080733333333, "is_reserved": 0, "type": "electric_scooter", "bike_id": "5c5f3917024d34c47c7b7f5b0f881709", "is_disabled": 0, "rental_uris": {"android": "https://dc.lft.to/lastmile_qr_scan", "ios": "https://dc.lft.to/lastmile_qr_scan"}, "lon": -77.0085305, "fusion_lat": 0.0}, {"name": "0286f4b5f5df3c06acce0b2783b2a1cb", "fusion_lon": 0.0, "lat": 38.932386666666666, "is_reserved": 0, "type": "electric_scooter", "bike_id": "0286f4b5f5df3c06acce0b2783b2a1cb", "is_disabled": 0, "rental_uris": {"android": "https://dc.lft.to/lastmile_qr_scan", "ios": "https://dc.lft.to/lastmile_qr_scan"}, "lon": -77.03404583333334, "fusion_lat": 0.0}, {"name": "49dcbee99a27b306612a50e3c295cd10", "fusion_lon": 0.0, "lat": 38.87724716666666, "is_reserved": 0, "type": "electric_scooter", "bike_id": "49dcbee99a27b306612a50e3c295cd10", "is_disabled": 0, "rental_uris": {"android": "https://dc.lft.to/lastmile_qr_scan", "ios": "https://dc.lft.to/lastmile_qr_scan"}, "lon": -77.01768116666666, "fusion_lat": 0.0}, {"name": "d6274dcc91168a9f75d71f2ccdac7179", "fusion_lon": 0.0, "lat": 38.871663166666664, "is_reserved": 0, "type": "electric_scooter", "bike_id": "d6274dcc91168a9f75d71f2ccdac7179", "is_disabled": 0, "rental_uris": {"android": "https://dc.lft.to/lastmile_qr_scan", "ios": "https://dc.lft.to/lastmile_qr_scan"}, "lon": -76.9774645, "fusion_lat": 0.0}, {"name": "eab10dcdb2369381e51871998278b19e", "fusion_lon": 0.0, "lat": 38.936780666666664, "is_reserved": 0, "type": "electric_scooter", "bike_id": "eab10dcdb2369381e51871998278b19e", "is_disabled": 0, "rental_uris": {"android": "https://dc.lft.to/lastmile_qr_scan", "ios": "https://dc.lft.to/lastmile_qr_scan"}, "lon": -77.03622033333333, "fusion_lat": 0.0}, {"name": "6a39843462e04138c4efd0370f0776da", "fusion_lon": 0.0, "lat": 38.91610283333333, "is_reserved": 0, "type": "electric_scooter", "bike_id": "6a39843462e04138c4efd0370f0776da", "is_disabled": 0, "rental_uris": {"android": "https://dc.lft.to/lastmile_qr_scan", "ios": "https://dc.lft.to/lastmile_qr_scan"}, "lon": -77.02184583333333, "fusion_lat": 0.0}, {"name": "712be09d4b3787a7dc422b7c691beb66", "fusion_lon": 0.0, "lat": 38.925808333333336, "is_reserved": 0, "type": "electric_scooter", "bike_id": "712be09d4b3787a7dc422b7c691beb66", "is_disabled": 0, "rental_uris": {"android": "https://dc.lft.to/lastmile_qr_scan", "ios": "https://dc.lft.to/lastmile_qr_scan"}, "lon": -77.02604083333334, "fusion_lat": 0.0}, {"name": "2666c90a2be1369a7923e624a2b9e890", "fusion_lon": 0.0, "lat": 38.87311616666667, "is_reserved": 0, "type": "electric_bike", "bike_id": "2666c90a2be1369a7923e624a2b9e890", "is_disabled": 0, "rental_uris": {"android": "https://dc.lft.to/lastmile_qr_scan", "ios": "https://dc.lft.to/lastmile_qr_scan"}, "lon": -77.01573616666667, "fusion_lat": 0.0}, {"name": "143a70607b78b850cea469077e784c88", "fusion_lon": 0.0, "lat": 38.898293333333335, "is_reserved": 0, "type": "electric_scooter", "bike_id": "143a70607b78b850cea469077e784c88", "is_disabled": 0, "rental_uris": {"android": "https://dc.lft.to/lastmile_qr_scan", "ios": "https://dc.lft.to/lastmile_qr_scan"}, "lon": -77.03350633333334, "fusion_lat": 0.0}, {"name": "f2ec34b228b4b394d364d26f2e6a3aec", "fusion_lon": 0.0, "lat": 38.916028, "is_reserved": 0, "type": "electric_scooter", "bike_id": "f2ec34b228b4b394d364d26f2e6a3aec", "is_disabled": 0, "rental_uris": {"android": "https://dc.lft.to/lastmile_qr_scan", "ios": "https://dc.lft.to/lastmile_qr_scan"}, "lon": -76.98370516666667, "fusion_lat": 0.0}, {"name": "8a05af07bc154266baf9d15bfc80b75d", "fusion_lon": 0.0, "lat": 38.923939833333336, "is_reserved": 0, "type": "electric_scooter", "bike_id": "8a05af07bc154266baf9d15bfc80b75d", "is_disabled": 0, "rental_uris": {"android": "https://dc.lft.to/lastmile_qr_scan", "ios": "https://dc.lft.to/lastmile_qr_scan"}, "lon": -77.036655, "fusion_lat": 0.0}, {"name": "655bd63aaa286f9fad78f3dbccbf60bd", "fusion_lon": 0.0, "lat": 38.9282265, "is_reserved": 0, "type": "electric_scooter", "bike_id": "655bd63aaa286f9fad78f3dbccbf60bd", "is_disabled": 0, "rental_uris": {"android": "https://dc.lft.to/lastmile_qr_scan", "ios": "https://dc.lft.to/lastmile_qr_scan"}, "lon": -77.02251616666666, "fusion_lat": 0.0}, {"name": "50c4e2671ef20532c547c15c43607388", "fusion_lon": 0.0, "lat": 38.923386666666666, "is_reserved": 0, "type": "electric_scooter", "bike_id": "50c4e2671ef20532c547c15c43607388", "is_disabled": 0, "rental_uris": {"android": "https://dc.lft.to/lastmile_qr_scan", "ios": "https://dc.lft.to/lastmile_qr_scan"}, "lon": -77.05243716666666, "fusion_lat": 0.0}, {"name": "b6d6ec044675913e5d97080b2c3b823d", "fusion_lon": 0.0, "lat": 38.90680483333333, "is_reserved": 0, "type": "electric_scooter", "bike_id": "b6d6ec044675913e5d97080b2c3b823d", "is_disabled": 0, "rental_uris": {"android": "https://dc.lft.to/lastmile_qr_scan", "ios": "https://dc.lft.to/lastmile_qr_scan"}, "lon": -77.03626883333334, "fusion_lat": 0.0}, {"name": "8f5b9ed5c6d3ae4d54c70be91a38bb1e", "fusion_lon": 0.0, "lat": 38.996299, "is_reserved": 0, "type": "electric_scooter", "bike_id": "8f5b9ed5c6d3ae4d54c70be91a38bb1e", "is_disabled": 0, "rental_uris": {"android": "https://dc.lft.to/lastmile_qr_scan", "ios": "https://dc.lft.to/lastmile_qr_scan"}, "lon": -77.03139016666667, "fusion_lat": 0.0}, {"name": "315f1bd5fda4a77b0e710e785d00beee", "fusion_lon": 0.0, "lat": 38.9212195, "is_reserved": 0, "type": "electric_bike", "bike_id": "315f1bd5fda4a77b0e710e785d00beee", "is_disabled": 0, "rental_uris": {"android": "https://dc.lft.to/lastmile_qr_scan", "ios": "https://dc.lft.to/lastmile_qr_scan"}, "lon": -77.012123, "fusion_lat": 0.0}, {"name": "811e6b64c735d086d2638f4d1805cecd", "fusion_lon": 0.0, "lat": 38.91021633333333, "is_reserved": 0, "type": "electric_scooter", "bike_id": "811e6b64c735d086d2638f4d1805cecd", "is_disabled": 0, "rental_uris": {"android": "https://dc.lft.to/lastmile_qr_scan", "ios": "https://dc.lft.to/lastmile_qr_scan"}, "lon": -77.05267083333334, "fusion_lat": 0.0}, {"name": "be14d8be3b7879d9335ff21109ac432a", "fusion_lon": 0.0, "lat": 38.897156333333335, "is_reserved": 0, "type": "electric_scooter", "bike_id": "be14d8be3b7879d9335ff21109ac432a", "is_disabled": 0, "rental_uris": {"android": "https://dc.lft.to/lastmile_qr_scan", "ios": "https://dc.lft.to/lastmile_qr_scan"}, "lon": -77.02150316666666, "fusion_lat": 0.0}, {"name": "95b5613cba4de53097294d6db9f93666", "fusion_lon": 0.0, "lat": 38.874427833333336, "is_reserved": 0, "type": "electric_scooter", "bike_id": "95b5613cba4de53097294d6db9f93666", "is_disabled": 0, "rental_uris": {"android": "https://dc.lft.to/lastmile_qr_scan", "ios": "https://dc.lft.to/lastmile_qr_scan"}, "lon": -77.0056545, "fusion_lat": 0.0}, {"name": "7cce3e0a705454200c0b4f7fd9dedf2a", "fusion_lon": 0.0, "lat": 38.94199166666667, "is_reserved": 0, "type": "electric_scooter", "bike_id": "7cce3e0a705454200c0b4f7fd9dedf2a", "is_disabled": 0, "rental_uris": {"android": "https://dc.lft.to/lastmile_qr_scan", "ios": "https://dc.lft.to/lastmile_qr_scan"}, "lon": -77.02513633333334, "fusion_lat": 0.0}, {"name": "1f021e68aac16ddafe020f5df37986c3", "fusion_lon": 0.0, "lat": 38.909454, "is_reserved": 0, "type": "electric_scooter", "bike_id": "1f021e68aac16ddafe020f5df37986c3", "is_disabled": 0, "rental_uris": {"android": "https://dc.lft.to/lastmile_qr_scan", "ios": "https://dc.lft.to/lastmile_qr_scan"}, "lon": -77.03451616666666, "fusion_lat": 0.0}, {"name": "bed50ac0a695d78c705e3f65a84d9711", "fusion_lon": 0.0, "lat": 38.90006733333333, "is_reserved": 0, "type": "electric_scooter", "bike_id": "bed50ac0a695d78c705e3f65a84d9711", "is_disabled": 0, "rental_uris": {"android": "https://dc.lft.to/lastmile_qr_scan", "ios": "https://dc.lft.to/lastmile_qr_scan"}, "lon": -76.99623533333333, "fusion_lat": 0.0}, {"name": "6bd0922bb0ff3655a4aa5e2133d9fe73", "fusion_lon": 0.0, "lat": 38.917116166666666, "is_reserved": 0, "type": "electric_scooter", "bike_id": "6bd0922bb0ff3655a4aa5e2133d9fe73", "is_disabled": 0, "rental_uris": {"android": "https://dc.lft.to/lastmile_qr_scan", "ios": "https://dc.lft.to/lastmile_qr_scan"}, "lon": -77.01334716666666, "fusion_lat": 0.0}, {"name": "d80f26dc282e466a31fdfae69a315fce", "fusion_lon": 0.0, "lat": 38.92182366666667, "is_reserved": 0, "type": "electric_scooter", "bike_id": "d80f26dc282e466a31fdfae69a315fce", "is_disabled": 0, "rental_uris": {"android": "https://dc.lft.to/lastmile_qr_scan", "ios": "https://dc.lft.to/lastmile_qr_scan"}, "lon": -77.04705383333334, "fusion_lat": 0.0}, {"name": "a9cb3172a4e9ef92c9353eef30663bcf", "fusion_lon": 0.0, "lat": 38.8961455, "is_reserved": 0, "type": "electric_scooter", "bike_id": "a9cb3172a4e9ef92c9353eef30663bcf", "is_disabled": 0, "rental_uris": {"android": "https://dc.lft.to/lastmile_qr_scan", "ios": "https://dc.lft.to/lastmile_qr_scan"}, "lon": -76.98114583333333, "fusion_lat": 0.0}, {"name": "c38b2b96c30bea0eee79ad60fa5b8efa", "fusion_lon": 0.0, "lat": 38.934417, "is_reserved": 0, "type": "electric_scooter", "bike_id": "c38b2b96c30bea0eee79ad60fa5b8efa", "is_disabled": 0, "rental_uris": {"android": "https://dc.lft.to/lastmile_qr_scan", "ios": "https://dc.lft.to/lastmile_qr_scan"}, "lon": -77.03282516666667, "fusion_lat": 0.0}, {"name": "b4f7c365776550e1cd48dcb625e4520f", "fusion_lon": 0.0, "lat": 38.91292516666667, "is_reserved": 0, "type": "electric_scooter", "bike_id": "b4f7c365776550e1cd48dcb625e4520f", "is_disabled": 0, "rental_uris": {"android": "https://dc.lft.to/lastmile_qr_scan", "ios": "https://dc.lft.to/lastmile_qr_scan"}, "lon": -77.02382183333333, "fusion_lat": 0.0}, {"name": "58db947c81bc631770180cb89170aa42", "fusion_lon": 0.0, "lat": 38.896189, "is_reserved": 0, "type": "electric_scooter", "bike_id": "58db947c81bc631770180cb89170aa42", "is_disabled": 0, "rental_uris": {"android": "https://dc.lft.to/lastmile_qr_scan", "ios": "https://dc.lft.to/lastmile_qr_scan"}, "lon": -77.01594116666666, "fusion_lat": 0.0}, {"name": "67ceb321ecc01208874d50814fb99b4c", "fusion_lon": 0.0, "lat": 38.89631416666667, "is_reserved": 0, "type": "electric_scooter", "bike_id": "67ceb321ecc01208874d50814fb99b4c", "is_disabled": 0, "rental_uris": {"android": "https://dc.lft.to/lastmile_qr_scan", "ios": "https://dc.lft.to/lastmile_qr_scan"}, "lon": -77.022088, "fusion_lat": 0.0}, {"name": "11304ba23fca84cdb7801dbbc6ba8df2", "fusion_lon": 0.0, "lat": 38.9033965, "is_reserved": 0, "type": "electric_scooter", "bike_id": "11304ba23fca84cdb7801dbbc6ba8df2", "is_disabled": 0, "rental_uris": {"android": "https://dc.lft.to/lastmile_qr_scan", "ios": "https://dc.lft.to/lastmile_qr_scan"}, "lon": -76.97581283333334, "fusion_lat": 0.0}, {"name": "be969ea556a3d6efcce0a6dd33269aa0", "fusion_lon": 0.0, "lat": 38.892227166666665, "is_reserved": 0, "type": "electric_scooter", "bike_id": "be969ea556a3d6efcce0a6dd33269aa0", "is_disabled": 0, "rental_uris": {"android": "https://dc.lft.to/lastmile_qr_scan", "ios": "https://dc.lft.to/lastmile_qr_scan"}, "lon": -77.01275183333334, "fusion_lat": 0.0}, {"name": "27d2b5dde1e25ac60d501eba1bc8852a", "fusion_lon": 0.0, "lat": 38.92982383333333, "is_reserved": 0, "type": "electric_scooter", "bike_id": "27d2b5dde1e25ac60d501eba1bc8852a", "is_disabled": 0, "rental_uris": {"android": "https://dc.lft.to/lastmile_qr_scan", "ios": "https://dc.lft.to/lastmile_qr_scan"}, "lon": -77.03655266666667, "fusion_lat": 0.0}, {"name": "23264b2732be2042056f8666b48a3656", "fusion_lon": 0.0, "lat": 38.90275416666667, "is_reserved": 0, "type": "electric_scooter", "bike_id": "23264b2732be2042056f8666b48a3656", "is_disabled": 0, "rental_uris": {"android": "https://dc.lft.to/lastmile_qr_scan", "ios": "https://dc.lft.to/lastmile_qr_scan"}, "lon": -77.03967066666667, "fusion_lat": 0.0}, {"name": "4bfb67e7013b9c4944cd4501111dacdd", "fusion_lon": 0.0, "lat": 38.854136833333335, "is_reserved": 0, "type": "electric_bike", "bike_id": "4bfb67e7013b9c4944cd4501111dacdd", "is_disabled": 0, "rental_uris": {"android": "https://dc.lft.to/lastmile_qr_scan", "ios": "https://dc.lft.to/lastmile_qr_scan"}, "lon": -77.1207365, "fusion_lat": 0.0}, {"name": "0be5a4a1ec3c9316d28f4de3df06e42f", "fusion_lon": 0.0, "lat": 38.923413, "is_reserved": 0, "type": "electric_scooter", "bike_id": "0be5a4a1ec3c9316d28f4de3df06e42f", "is_disabled": 0, "rental_uris": {"android": "https://dc.lft.to/lastmile_qr_scan", "ios": "https://dc.lft.to/lastmile_qr_scan"}, "lon": -77.05242266666667, "fusion_lat": 0.0}, {"name": "680f7ffb5f2f83ece254658fe01100f5", "fusion_lon": 0.0, "lat": 38.901538, "is_reserved": 0, "type": "electric_scooter", "bike_id": "680f7ffb5f2f83ece254658fe01100f5", "is_disabled": 0, "rental_uris": {"android": "https://dc.lft.to/lastmile_qr_scan", "ios": "https://dc.lft.to/lastmile_qr_scan"}, "lon": -76.92136633333334, "fusion_lat": 0.0}, {"name": "9a7f4fafdda4d65a5ec7dc87a70dda41", "fusion_lon": 0.0, "lat": 38.898217, "is_reserved": 0, "type": "electric_scooter", "bike_id": "9a7f4fafdda4d65a5ec7dc87a70dda41", "is_disabled": 0, "rental_uris": {"android": "https://dc.lft.to/lastmile_qr_scan", "ios": "https://dc.lft.to/lastmile_qr_scan"}, "lon": -77.049516, "fusion_lat": 0.0}, {"name": "ae7de5e06a1f1ecb959e07b2b389455f", "fusion_lon": 0.0, "lat": 38.9140935, "is_reserved": 0, "type": "electric_scooter", "bike_id": "ae7de5e06a1f1ecb959e07b2b389455f", "is_disabled": 0, "rental_uris": {"android": "https://dc.lft.to/lastmile_qr_scan", "ios": "https://dc.lft.to/lastmile_qr_scan"}, "lon": -77.040242, "fusion_lat": 0.0}, {"name": "e23fff17daeae2f822afc50d802bc688", "fusion_lon": 0.0, "lat": 38.919859833333334, "is_reserved": 0, "type": "electric_scooter", "bike_id": "e23fff17daeae2f822afc50d802bc688", "is_disabled": 0, "rental_uris": {"android": "https://dc.lft.to/lastmile_qr_scan", "ios": "https://dc.lft.to/lastmile_qr_scan"}, "lon": -77.02387366666666, "fusion_lat": 0.0}, {"name": "d51b572ace4dd500842cb5dc2e0626c7", "fusion_lon": 0.0, "lat": 38.94826583333333, "is_reserved": 0, "type": "electric_bike", "bike_id": "d51b572ace4dd500842cb5dc2e0626c7", "is_disabled": 0, "rental_uris": {"android": "https://dc.lft.to/lastmile_qr_scan", "ios": "https://dc.lft.to/lastmile_qr_scan"}, "lon": -77.02368283333334, "fusion_lat": 0.0}, {"name": "8f9c2016eab795e8ef609f05f34e518f", "fusion_lon": 0.0, "lat": 38.9312525, "is_reserved": 0, "type": "electric_scooter", "bike_id": "8f9c2016eab795e8ef609f05f34e518f", "is_disabled": 0, "rental_uris": {"android": "https://dc.lft.to/lastmile_qr_scan", "ios": "https://dc.lft.to/lastmile_qr_scan"}, "lon": -77.03315, "fusion_lat": 0.0}, {"name": "b51817b065fb085f607d06ef1d63332b", "fusion_lon": 0.0, "lat": 38.93012233333334, "is_reserved": 0, "type": "electric_scooter", "bike_id": "b51817b065fb085f607d06ef1d63332b", "is_disabled": 0, "rental_uris": {"android": "https://dc.lft.to/lastmile_qr_scan", "ios": "https://dc.lft.to/lastmile_qr_scan"}, "lon": -77.03784116666667, "fusion_lat": 0.0}, {"name": "aa03dba680f8426164ae9719783bf628", "fusion_lon": 0.0, "lat": 38.907848666666666, "is_reserved": 0, "type": "electric_scooter", "bike_id": "aa03dba680f8426164ae9719783bf628", "is_disabled": 0, "rental_uris": {"android": "https://dc.lft.to/lastmile_qr_scan", "ios": "https://dc.lft.to/lastmile_qr_scan"}, "lon": -77.02948516666666, "fusion_lat": 0.0}, {"name": "4a659d33bea4c313ab94f1dec197eb2e", "fusion_lon": 0.0, "lat": 38.84730883333334, "is_reserved": 0, "type": "electric_bike", "bike_id": "4a659d33bea4c313ab94f1dec197eb2e", "is_disabled": 0, "rental_uris": {"android": "https://dc.lft.to/lastmile_qr_scan", "ios": "https://dc.lft.to/lastmile_qr_scan"}, "lon": -77.11986266666666, "fusion_lat": 0.0}, {"name": "06cb9485a0cef6e9e3a37e0891953d9c", "fusion_lon": 0.0, "lat": 38.920351, "is_reserved": 0, "type": "electric_scooter", "bike_id": "06cb9485a0cef6e9e3a37e0891953d9c", "is_disabled": 0, "rental_uris": {"android": "https://dc.lft.to/lastmile_qr_scan", "ios": "https://dc.lft.to/lastmile_qr_scan"}, "lon": -77.02585216666667, "fusion_lat": 0.0}, {"name": "2b60aa338187f135dccde9dbfe5112f8", "fusion_lon": 0.0, "lat": 38.877291166666666, "is_reserved": 0, "type": "electric_scooter", "bike_id": "2b60aa338187f135dccde9dbfe5112f8", "is_disabled": 0, "rental_uris": {"android": "https://dc.lft.to/lastmile_qr_scan", "ios": "https://dc.lft.to/lastmile_qr_scan"}, "lon": -77.01759916666667, "fusion_lat": 0.0}, {"name": "8113e897c9041dd96c441c15dd94b2e0", "fusion_lon": 0.0, "lat": 38.899139, "is_reserved": 0, "type": "electric_scooter", "bike_id": "8113e897c9041dd96c441c15dd94b2e0", "is_disabled": 0, "rental_uris": {"android": "https://dc.lft.to/lastmile_qr_scan", "ios": "https://dc.lft.to/lastmile_qr_scan"}, "lon": -76.9338615, "fusion_lat": 0.0}, {"name": "891afb29145406607d3711171a4cbb45", "fusion_lon": 0.0, "lat": 38.914126, "is_reserved": 0, "type": "electric_scooter", "bike_id": "891afb29145406607d3711171a4cbb45", "is_disabled": 0, "rental_uris": {"android": "https://dc.lft.to/lastmile_qr_scan", "ios": "https://dc.lft.to/lastmile_qr_scan"}, "lon": -77.041794, "fusion_lat": 0.0}, {"name": "af4ce440d36b2a8dc11936b034e01c1f", "fusion_lon": 0.0, "lat": 38.924777166666665, "is_reserved": 0, "type": "electric_scooter", "bike_id": "af4ce440d36b2a8dc11936b034e01c1f", "is_disabled": 0, "rental_uris": {"android": "https://dc.lft.to/lastmile_qr_scan", "ios": "https://dc.lft.to/lastmile_qr_scan"}, "lon": -77.02819816666667, "fusion_lat": 0.0}, {"name": "bab24e45fb171a7bcee8782068c05e60", "fusion_lon": 0.0, "lat": 38.94441233333333, "is_reserved": 0, "type": "electric_scooter", "bike_id": "bab24e45fb171a7bcee8782068c05e60", "is_disabled": 0, "rental_uris": {"android": "https://dc.lft.to/lastmile_qr_scan", "ios": "https://dc.lft.to/lastmile_qr_scan"}, "lon": -77.063507, "fusion_lat": 0.0}, {"name": "bd6d3af5e8cdedcb4b656983c34373d2", "fusion_lon": 0.0, "lat": 38.9127715, "is_reserved": 0, "type": "electric_scooter", "bike_id": "bd6d3af5e8cdedcb4b656983c34373d2", "is_disabled": 0, "rental_uris": {"android": "https://dc.lft.to/lastmile_qr_scan", "ios": "https://dc.lft.to/lastmile_qr_scan"}, "lon": -77.02692233333333, "fusion_lat": 0.0}, {"name": "9643e4f03273853e20dce33a9e6a9ba8", "fusion_lon": 0.0, "lat": 38.90161366666667, "is_reserved": 0, "type": "electric_scooter", "bike_id": "9643e4f03273853e20dce33a9e6a9ba8", "is_disabled": 0, "rental_uris": {"android": "https://dc.lft.to/lastmile_qr_scan", "ios": "https://dc.lft.to/lastmile_qr_scan"}, "lon": -77.03995033333334, "fusion_lat": 0.0}, {"name": "716b1bcb4174ef25b46f344417f3ae09", "fusion_lon": 0.0, "lat": 38.91594383333333, "is_reserved": 0, "type": "electric_scooter", "bike_id": "716b1bcb4174ef25b46f344417f3ae09", "is_disabled": 0, "rental_uris": {"android": "https://dc.lft.to/lastmile_qr_scan", "ios": "https://dc.lft.to/lastmile_qr_scan"}, "lon": -77.03200133333333, "fusion_lat": 0.0}, {"name": "ec22367ad78de9fd4715939d02f7e8a2", "fusion_lon": 0.0, "lat": 38.917679666666665, "is_reserved": 0, "type": "electric_scooter", "bike_id": "ec22367ad78de9fd4715939d02f7e8a2", "is_disabled": 0, "rental_uris": {"android": "https://dc.lft.to/lastmile_qr_scan", "ios": "https://dc.lft.to/lastmile_qr_scan"}, "lon": -77.01464983333334, "fusion_lat": 0.0}, {"name": "4a889f4c5db05553ddd9043f1c0629a9", "fusion_lon": 0.0, "lat": 38.903713, "is_reserved": 0, "type": "electric_scooter", "bike_id": "4a889f4c5db05553ddd9043f1c0629a9", "is_disabled": 0, "rental_uris": {"android": "https://dc.lft.to/lastmile_qr_scan", "ios": "https://dc.lft.to/lastmile_qr_scan"}, "lon": -76.937569, "fusion_lat": 0.0}, {"name": "f17efefa2f724bda29b5abf08be504df", "fusion_lon": 0.0, "lat": 38.90154183333333, "is_reserved": 0, "type": "electric_scooter", "bike_id": "f17efefa2f724bda29b5abf08be504df", "is_disabled": 0, "rental_uris": {"android": "https://dc.lft.to/lastmile_qr_scan", "ios": "https://dc.lft.to/lastmile_qr_scan"}, "lon": -76.93059983333333, "fusion_lat": 0.0}, {"name": "a26114c07bb7112f8c2e12c4266dcf21", "fusion_lon": 0.0, "lat": 39.06293383333333, "is_reserved": 0, "type": "electric_bike", "bike_id": "a26114c07bb7112f8c2e12c4266dcf21", "is_disabled": 0, "rental_uris": {"android": "https://dc.lft.to/lastmile_qr_scan", "ios": "https://dc.lft.to/lastmile_qr_scan"}, "lon": -77.04974916666667, "fusion_lat": 0.0}, {"name": "e91850f34fee6551c145bcca004b0de7", "fusion_lon": 0.0, "lat": 38.91327, "is_reserved": 0, "type": "electric_scooter", "bike_id": "e91850f34fee6551c145bcca004b0de7", "is_disabled": 0, "rental_uris": {"android": "https://dc.lft.to/lastmile_qr_scan", "ios": "https://dc.lft.to/lastmile_qr_scan"}, "lon": -77.0316715, "fusion_lat": 0.0}, {"name": "2cbe0ce74ea9af207b912926434be7d7", "fusion_lon": 0.0, "lat": 38.892236833333335, "is_reserved": 0, "type": "electric_scooter", "bike_id": "2cbe0ce74ea9af207b912926434be7d7", "is_disabled": 0, "rental_uris": {"android": "https://dc.lft.to/lastmile_qr_scan", "ios": "https://dc.lft.to/lastmile_qr_scan"}, "lon": -77.04083866666667, "fusion_lat": 0.0}, {"name": "5ac7496a9242097b6c05c559dd84e9d7", "fusion_lon": 0.0, "lat": 38.91117966666667, "is_reserved": 0, "type": "electric_scooter", "bike_id": "5ac7496a9242097b6c05c559dd84e9d7", "is_disabled": 0, "rental_uris": {"android": "https://dc.lft.to/lastmile_qr_scan", "ios": "https://dc.lft.to/lastmile_qr_scan"}, "lon": -77.02137116666667, "fusion_lat": 0.0}, {"name": "c2024192e3993e26922e1602e1c548a3", "fusion_lon": 0.0, "lat": 38.91267333333333, "is_reserved": 0, "type": "electric_scooter", "bike_id": "c2024192e3993e26922e1602e1c548a3", "is_disabled": 0, "rental_uris": {"android": "https://dc.lft.to/lastmile_qr_scan", "ios": "https://dc.lft.to/lastmile_qr_scan"}, "lon": -77.02225683333333, "fusion_lat": 0.0}, {"name": "b423edeecf698da28f9990c0963a3dbb", "fusion_lon": 0.0, "lat": 38.896436333333334, "is_reserved": 0, "type": "electric_scooter", "bike_id": "b423edeecf698da28f9990c0963a3dbb", "is_disabled": 0, "rental_uris": {"android": "https://dc.lft.to/lastmile_qr_scan", "ios": "https://dc.lft.to/lastmile_qr_scan"}, "lon": -77.0214235, "fusion_lat": 0.0}, {"name": "e4fcad14855c2bcc14556816ed3fda33", "fusion_lon": 0.0, "lat": 38.807583, "is_reserved": 0, "type": "electric_bike", "bike_id": "e4fcad14855c2bcc14556816ed3fda33", "is_disabled": 0, "rental_uris": {"android": "https://dc.lft.to/lastmile_qr_scan", "ios": "https://dc.lft.to/lastmile_qr_scan"}, "lon": -77.09459983333333, "fusion_lat": 0.0}, {"name": "b84bca10cb43d4ca0e1d34586a7d6270", "fusion_lon": 0.0, "lat": 38.927735, "is_reserved": 0, "type": "electric_scooter", "bike_id": "b84bca10cb43d4ca0e1d34586a7d6270", "is_disabled": 0, "rental_uris": {"android": "https://dc.lft.to/lastmile_qr_scan", "ios": "https://dc.lft.to/lastmile_qr_scan"}, "lon": -77.02618083333333, "fusion_lat": 0.0}, {"name": "0a470b26f96825ed89e280335b151989", "fusion_lon": 0.0, "lat": 38.90772616666667, "is_reserved": 0, "type": "electric_scooter", "bike_id": "0a470b26f96825ed89e280335b151989", "is_disabled": 0, "rental_uris": {"android": "https://dc.lft.to/lastmile_qr_scan", "ios": "https://dc.lft.to/lastmile_qr_scan"}, "lon": -77.03827383333334, "fusion_lat": 0.0}, {"name": "488d81b24d0c750ef2356e4bf24d4bd4", "fusion_lon": 0.0, "lat": 38.910604, "is_reserved": 0, "type": "electric_scooter", "bike_id": "488d81b24d0c750ef2356e4bf24d4bd4", "is_disabled": 0, "rental_uris": {"android": "https://dc.lft.to/lastmile_qr_scan", "ios": "https://dc.lft.to/lastmile_qr_scan"}, "lon": -77.0448765, "fusion_lat": 0.0}, {"name": "b0f982f56cf8737b0d25f03eba81a398", "fusion_lon": 0.0, "lat": 38.9347465, "is_reserved": 0, "type": "electric_scooter", "bike_id": "b0f982f56cf8737b0d25f03eba81a398", "is_disabled": 0, "rental_uris": {"android": "https://dc.lft.to/lastmile_qr_scan", "ios": "https://dc.lft.to/lastmile_qr_scan"}, "lon": -77.035778, "fusion_lat": 0.0}, {"name": "06bdc535c67dda3e8b8b6ab8f3d5107f", "fusion_lon": 0.0, "lat": 38.918864666666664, "is_reserved": 0, "type": "electric_scooter", "bike_id": "06bdc535c67dda3e8b8b6ab8f3d5107f", "is_disabled": 0, "rental_uris": {"android": "https://dc.lft.to/lastmile_qr_scan", "ios": "https://dc.lft.to/lastmile_qr_scan"}, "lon": -77.035112, "fusion_lat": 0.0}, {"name": "7b4f2fd90317653e74d3cd8d2d1654c1", "fusion_lon": 0.0, "lat": 38.92392233333333, "is_reserved": 0, "type": "electric_scooter", "bike_id": "7b4f2fd90317653e74d3cd8d2d1654c1", "is_disabled": 0, "rental_uris": {"android": "https://dc.lft.to/lastmile_qr_scan", "ios": "https://dc.lft.to/lastmile_qr_scan"}, "lon": -77.04058333333333, "fusion_lat": 0.0}, {"name": "5d7b5391c7e862a43c8446e782b01118", "fusion_lon": 0.0, "lat": 38.916809, "is_reserved": 0, "type": "electric_scooter", "bike_id": "5d7b5391c7e862a43c8446e782b01118", "is_disabled": 0, "rental_uris": {"android": "https://dc.lft.to/lastmile_qr_scan", "ios": "https://dc.lft.to/lastmile_qr_scan"}, "lon": -77.04141566666667, "fusion_lat": 0.0}, {"name": "667a09660dc03c789dd6abc91402844d", "fusion_lon": 0.0, "lat": 38.90668133333333, "is_reserved": 0, "type": "electric_scooter", "bike_id": "667a09660dc03c789dd6abc91402844d", "is_disabled": 0, "rental_uris": {"android": "https://dc.lft.to/lastmile_qr_scan", "ios": "https://dc.lft.to/lastmile_qr_scan"}, "lon": -77.071306, "fusion_lat": 0.0}, {"name": "e317e561241714704ee41d4597dc0d43", "fusion_lon": 0.0, "lat": 38.9901, "is_reserved": 0, "type": "electric_bike", "bike_id": "e317e561241714704ee41d4597dc0d43", "is_disabled": 0, "rental_uris": {"android": "https://dc.lft.to/lastmile_qr_scan", "ios": "https://dc.lft.to/lastmile_qr_scan"}, "lon": -77.00439383333334, "fusion_lat": 0.0}, {"name": "f11d824104057fa07b26a11a93903aec", "fusion_lon": 0.0, "lat": 38.8665975, "is_reserved": 0, "type": "electric_scooter", "bike_id": "f11d824104057fa07b26a11a93903aec", "is_disabled": 0, "rental_uris": {"android": "https://dc.lft.to/lastmile_qr_scan", "ios": "https://dc.lft.to/lastmile_qr_scan"}, "lon": -76.9888355, "fusion_lat": 0.0}, {"name": "cce59cdbb89682db1e2d83be0d46096f", "fusion_lon": 0.0, "lat": 38.925558, "is_reserved": 0, "type": "electric_scooter", "bike_id": "cce59cdbb89682db1e2d83be0d46096f", "is_disabled": 0, "rental_uris": {"android": "https://dc.lft.to/lastmile_qr_scan", "ios": "https://dc.lft.to/lastmile_qr_scan"}, "lon": -77.0331645, "fusion_lat": 0.0}, {"name": "6ef93f5e13ae35f59c2c5a710406fb8a", "fusion_lon": 0.0, "lat": 38.86521883333333, "is_reserved": 0, "type": "electric_scooter", "bike_id": "6ef93f5e13ae35f59c2c5a710406fb8a", "is_disabled": 0, "rental_uris": {"android": "https://dc.lft.to/lastmile_qr_scan", "ios": "https://dc.lft.to/lastmile_qr_scan"}, "lon": -76.97343933333333, "fusion_lat": 0.0}, {"name": "4f0a95af3ed7109441d815dd6853799e", "fusion_lon": 0.0, "lat": 38.924905, "is_reserved": 0, "type": "electric_scooter", "bike_id": "4f0a95af3ed7109441d815dd6853799e", "is_disabled": 0, "rental_uris": {"android": "https://dc.lft.to/lastmile_qr_scan", "ios": "https://dc.lft.to/lastmile_qr_scan"}, "lon": -77.03493216666666, "fusion_lat": 0.0}, {"name": "abdfee28e0ae658e62db3e44d46289fe", "fusion_lon": 0.0, "lat": 38.862407833333336, "is_reserved": 0, "type": "electric_scooter", "bike_id": "abdfee28e0ae658e62db3e44d46289fe", "is_disabled": 0, "rental_uris": {"android": "https://dc.lft.to/lastmile_qr_scan", "ios": "https://dc.lft.to/lastmile_qr_scan"}, "lon": -76.99493533333333, "fusion_lat": 0.0}, {"name": "5727f4a62ff89a6b5f0860b5e8722a3c", "fusion_lon": 0.0, "lat": 38.849241, "is_reserved": 0, "type": "electric_bike", "bike_id": "5727f4a62ff89a6b5f0860b5e8722a3c", "is_disabled": 0, "rental_uris": {"android": "https://dc.lft.to/lastmile_qr_scan", "ios": "https://dc.lft.to/lastmile_qr_scan"}, "lon": -77.077805, "fusion_lat": 0.0}, {"name": "33656153dc59a93724a80ac4f6520a91", "fusion_lon": 0.0, "lat": 38.901894, "is_reserved": 0, "type": "electric_scooter", "bike_id": "33656153dc59a93724a80ac4f6520a91", "is_disabled": 0, "rental_uris": {"android": "https://dc.lft.to/lastmile_qr_scan", "ios": "https://dc.lft.to/lastmile_qr_scan"}, "lon": -77.02147866666667, "fusion_lat": 0.0}, {"name": "cbffed07da22e2997a2e09bfd9428a07", "fusion_lon": 0.0, "lat": 38.95655416666666, "is_reserved": 0, "type": "electric_bike", "bike_id": "cbffed07da22e2997a2e09bfd9428a07", "is_disabled": 0, "rental_uris": {"android": "https://dc.lft.to/lastmile_qr_scan", "ios": "https://dc.lft.to/lastmile_qr_scan"}, "lon": -77.01277833333333, "fusion_lat": 0.0}, {"name": "3e3e206bdf4bf8fc252d7b69ef6cd1f3", "fusion_lon": 0.0, "lat": 38.893726666666666, "is_reserved": 0, "type": "electric_scooter", "bike_id": "3e3e206bdf4bf8fc252d7b69ef6cd1f3", "is_disabled": 0, "rental_uris": {"android": "https://dc.lft.to/lastmile_qr_scan", "ios": "https://dc.lft.to/lastmile_qr_scan"}, "lon": -77.0155235, "fusion_lat": 0.0}, {"name": "48bf9356e93d80cf44972cb342b519e3", "fusion_lon": 0.0, "lat": 38.905105166666665, "is_reserved": 0, "type": "electric_scooter", "bike_id": "48bf9356e93d80cf44972cb342b519e3", "is_disabled": 0, "rental_uris": {"android": "https://dc.lft.to/lastmile_qr_scan", "ios": "https://dc.lft.to/lastmile_qr_scan"}, "lon": -77.00127933333333, "fusion_lat": 0.0}, {"name": "9db2d45f742690837ef07e80f8f4bed6", "fusion_lon": 0.0, "lat": 38.8767325, "is_reserved": 0, "type": "electric_scooter", "bike_id": "9db2d45f742690837ef07e80f8f4bed6", "is_disabled": 0, "rental_uris": {"android": "https://dc.lft.to/lastmile_qr_scan", "ios": "https://dc.lft.to/lastmile_qr_scan"}, "lon": -77.00444116666667, "fusion_lat": 0.0}, {"name": "c65d9b355abc3f936075d3c26924175e", "fusion_lon": 0.0, "lat": 38.948016333333335, "is_reserved": 0, "type": "electric_bike", "bike_id": "c65d9b355abc3f936075d3c26924175e", "is_disabled": 0, "rental_uris": {"android": "https://dc.lft.to/lastmile_qr_scan", "ios": "https://dc.lft.to/lastmile_qr_scan"}, "lon": -76.95536233333333, "fusion_lat": 0.0}, {"name": "8e20877c44f829ac8af8107860af49de", "fusion_lon": 0.0, "lat": 38.917703833333334, "is_reserved": 0, "type": "electric_scooter", "bike_id": "8e20877c44f829ac8af8107860af49de", "is_disabled": 0, "rental_uris": {"android": "https://dc.lft.to/lastmile_qr_scan", "ios": "https://dc.lft.to/lastmile_qr_scan"}, "lon": -77.04772016666666, "fusion_lat": 0.0}, {"name": "a67962212adc6254e929366721d6c07e", "fusion_lon": 0.0, "lat": 38.90778566666667, "is_reserved": 0, "type": "electric_scooter", "bike_id": "a67962212adc6254e929366721d6c07e", "is_disabled": 0, "rental_uris": {"android": "https://dc.lft.to/lastmile_qr_scan", "ios": "https://dc.lft.to/lastmile_qr_scan"}, "lon": -77.03829216666666, "fusion_lat": 0.0}, {"name": "90cccc3aea2c6f9f6c7589e2281c5d29", "fusion_lon": 0.0, "lat": 38.8742045, "is_reserved": 0, "type": "electric_scooter", "bike_id": "90cccc3aea2c6f9f6c7589e2281c5d29", "is_disabled": 0, "rental_uris": {"android": "https://dc.lft.to/lastmile_qr_scan", "ios": "https://dc.lft.to/lastmile_qr_scan"}, "lon": -76.96770083333334, "fusion_lat": 0.0}, {"name": "c48432da3decdae58fee2721dea77ab3", "fusion_lon": 0.0, "lat": 38.9266695, "is_reserved": 0, "type": "electric_scooter", "bike_id": "c48432da3decdae58fee2721dea77ab3", "is_disabled": 0, "rental_uris": {"android": "https://dc.lft.to/lastmile_qr_scan", "ios": "https://dc.lft.to/lastmile_qr_scan"}, "lon": -77.02305133333333, "fusion_lat": 0.0}, {"name": "0b93b54e649992639be3a21f3c9223d2", "fusion_lon": 0.0, "lat": 38.9236385, "is_reserved": 0, "type": "electric_scooter", "bike_id": "0b93b54e649992639be3a21f3c9223d2", "is_disabled": 0, "rental_uris": {"android": "https://dc.lft.to/lastmile_qr_scan", "ios": "https://dc.lft.to/lastmile_qr_scan"}, "lon": -77.02983233333333, "fusion_lat": 0.0}, {"name": "d0799149fc559d5e80308e65bc0f10f3", "fusion_lon": 0.0, "lat": 38.917309, "is_reserved": 0, "type": "electric_scooter", "bike_id": "d0799149fc559d5e80308e65bc0f10f3", "is_disabled": 0, "rental_uris": {"android": "https://dc.lft.to/lastmile_qr_scan", "ios": "https://dc.lft.to/lastmile_qr_scan"}, "lon": -77.0365955, "fusion_lat": 0.0}, {"name": "386f8e030c0f10cacc692dab1b28e1bb", "fusion_lon": 0.0, "lat": 38.9276855, "is_reserved": 0, "type": "electric_scooter", "bike_id": "386f8e030c0f10cacc692dab1b28e1bb", "is_disabled": 0, "rental_uris": {"android": "https://dc.lft.to/lastmile_qr_scan", "ios": "https://dc.lft.to/lastmile_qr_scan"}, "lon": -77.0406445, "fusion_lat": 0.0}, {"name": "23a4f5ee65e6d44d6bc1ff82019a5f60", "fusion_lon": 0.0, "lat": 38.91554983333333, "is_reserved": 0, "type": "electric_scooter", "bike_id": "23a4f5ee65e6d44d6bc1ff82019a5f60", "is_disabled": 0, "rental_uris": {"android": "https://dc.lft.to/lastmile_qr_scan", "ios": "https://dc.lft.to/lastmile_qr_scan"}, "lon": -77.05324983333334, "fusion_lat": 0.0}, {"name": "a706bc6a7abe14470fff35415e014239", "fusion_lon": 0.0, "lat": 38.916960333333336, "is_reserved": 0, "type": "electric_scooter", "bike_id": "a706bc6a7abe14470fff35415e014239", "is_disabled": 0, "rental_uris": {"android": "https://dc.lft.to/lastmile_qr_scan", "ios": "https://dc.lft.to/lastmile_qr_scan"}, "lon": -77.031187, "fusion_lat": 0.0}, {"name": "b69a6cac4adfd351f0413a1577d04eba", "fusion_lon": 0.0, "lat": 38.892227, "is_reserved": 0, "type": "electric_scooter", "bike_id": "b69a6cac4adfd351f0413a1577d04eba", "is_disabled": 0, "rental_uris": {"android": "https://dc.lft.to/lastmile_qr_scan", "ios": "https://dc.lft.to/lastmile_qr_scan"}, "lon": -77.048639, "fusion_lat": 0.0}, {"name": "7723cb0da505fc3acefa6857149c2ece", "fusion_lon": 0.0, "lat": 38.90148833333333, "is_reserved": 0, "type": "electric_scooter", "bike_id": "7723cb0da505fc3acefa6857149c2ece", "is_disabled": 0, "rental_uris": {"android": "https://dc.lft.to/lastmile_qr_scan", "ios": "https://dc.lft.to/lastmile_qr_scan"}, "lon": -76.9298375, "fusion_lat": 0.0}, {"name": "5827589c1a7b562620889774623f5165", "fusion_lon": 0.0, "lat": 38.90219, "is_reserved": 0, "type": "electric_scooter", "bike_id": "5827589c1a7b562620889774623f5165", "is_disabled": 0, "rental_uris": {"android": "https://dc.lft.to/lastmile_qr_scan", "ios": "https://dc.lft.to/lastmile_qr_scan"}, "lon": -77.02376566666666, "fusion_lat": 0.0}, {"name": "434385e7a53baab12c2a334160bf9852", "fusion_lon": 0.0, "lat": 38.97398583333333, "is_reserved": 0, "type": "electric_bike", "bike_id": "434385e7a53baab12c2a334160bf9852", "is_disabled": 0, "rental_uris": {"android": "https://dc.lft.to/lastmile_qr_scan", "ios": "https://dc.lft.to/lastmile_qr_scan"}, "lon": -77.0644725, "fusion_lat": 0.0}, {"name": "241f1bc6e734b2f6b3d585b754d341ca", "fusion_lon": 0.0, "lat": 38.92105683333333, "is_reserved": 0, "type": "electric_scooter", "bike_id": "241f1bc6e734b2f6b3d585b754d341ca", "is_disabled": 0, "rental_uris": {"android": "https://dc.lft.to/lastmile_qr_scan", "ios": "https://dc.lft.to/lastmile_qr_scan"}, "lon": -77.039268, "fusion_lat": 0.0}, {"name": "208d8ac546f2afb950a61c35e4ed4455", "fusion_lon": 0.0, "lat": 38.93455816666667, "is_reserved": 0, "type": "electric_scooter", "bike_id": "208d8ac546f2afb950a61c35e4ed4455", "is_disabled": 0, "rental_uris": {"android": "https://dc.lft.to/lastmile_qr_scan", "ios": "https://dc.lft.to/lastmile_qr_scan"}, "lon": -77.02729583333333, "fusion_lat": 0.0}, {"name": "75a83fdea188af6a7c84c3c2cf34e53a", "fusion_lon": 0.0, "lat": 38.885268333333336, "is_reserved": 0, "type": "electric_scooter", "bike_id": "75a83fdea188af6a7c84c3c2cf34e53a", "is_disabled": 0, "rental_uris": {"android": "https://dc.lft.to/lastmile_qr_scan", "ios": "https://dc.lft.to/lastmile_qr_scan"}, "lon": -76.99606316666667, "fusion_lat": 0.0}, {"name": "c592c6aef6d6208cde477452e8c415a1", "fusion_lon": 0.0, "lat": 38.906012833333335, "is_reserved": 0, "type": "electric_scooter", "bike_id": "c592c6aef6d6208cde477452e8c415a1", "is_disabled": 0, "rental_uris": {"android": "https://dc.lft.to/lastmile_qr_scan", "ios": "https://dc.lft.to/lastmile_qr_scan"}, "lon": -77.0210915, "fusion_lat": 0.0}, {"name": "37e6d04b166157cd9a60667e12bd9abc", "fusion_lon": 0.0, "lat": 38.96502266666667, "is_reserved": 0, "type": "electric_bike", "bike_id": "37e6d04b166157cd9a60667e12bd9abc", "is_disabled": 0, "rental_uris": {"android": "https://dc.lft.to/lastmile_qr_scan", "ios": "https://dc.lft.to/lastmile_qr_scan"}, "lon": -77.02824216666667, "fusion_lat": 0.0}, {"name": "04b084b3e333e96154c2a5d74748a943", "fusion_lon": 0.0, "lat": 38.913042, "is_reserved": 0, "type": "electric_scooter", "bike_id": "04b084b3e333e96154c2a5d74748a943", "is_disabled": 0, "rental_uris": {"android": "https://dc.lft.to/lastmile_qr_scan", "ios": "https://dc.lft.to/lastmile_qr_scan"}, "lon": -77.04543133333334, "fusion_lat": 0.0}, {"name": "a9b981ad9740819195c0dc7868d88dd4", "fusion_lon": 0.0, "lat": 38.90523833333334, "is_reserved": 0, "type": "electric_scooter", "bike_id": "a9b981ad9740819195c0dc7868d88dd4", "is_disabled": 0, "rental_uris": {"android": "https://dc.lft.to/lastmile_qr_scan", "ios": "https://dc.lft.to/lastmile_qr_scan"}, "lon": -77.02969116666667, "fusion_lat": 0.0}, {"name": "4f065688b0620d49ed843ceed1777ae8", "fusion_lon": 0.0, "lat": 38.886142, "is_reserved": 0, "type": "electric_scooter", "bike_id": "4f065688b0620d49ed843ceed1777ae8", "is_disabled": 0, "rental_uris": {"android": "https://dc.lft.to/lastmile_qr_scan", "ios": "https://dc.lft.to/lastmile_qr_scan"}, "lon": -76.995152, "fusion_lat": 0.0}, {"name": "d04d89d7be1dbe03233ae05f3475b284", "fusion_lon": 0.0, "lat": 38.962239, "is_reserved": 0, "type": "electric_bike", "bike_id": "d04d89d7be1dbe03233ae05f3475b284", "is_disabled": 0, "rental_uris": {"android": "https://dc.lft.to/lastmile_qr_scan", "ios": "https://dc.lft.to/lastmile_qr_scan"}, "lon": -77.0263385, "fusion_lat": 0.0}, {"name": "2bf14893abb242a3ee8c3561034e3c36", "fusion_lon": 0.0, "lat": 38.88459183333333, "is_reserved": 0, "type": "electric_scooter", "bike_id": "2bf14893abb242a3ee8c3561034e3c36", "is_disabled": 0, "rental_uris": {"android": "https://dc.lft.to/lastmile_qr_scan", "ios": "https://dc.lft.to/lastmile_qr_scan"}, "lon": -76.92621766666667, "fusion_lat": 0.0}, {"name": "4747e18415d83814ef1ce5c487f71d4d", "fusion_lon": 0.0, "lat": 38.90672816666667, "is_reserved": 0, "type": "electric_scooter", "bike_id": "4747e18415d83814ef1ce5c487f71d4d", "is_disabled": 0, "rental_uris": {"android": "https://dc.lft.to/lastmile_qr_scan", "ios": "https://dc.lft.to/lastmile_qr_scan"}, "lon": -77.03863966666667, "fusion_lat": 0.0}, {"name": "0527961219e4065dfe6229c55d1e4a4d", "fusion_lon": 0.0, "lat": 38.92468916666667, "is_reserved": 0, "type": "electric_scooter", "bike_id": "0527961219e4065dfe6229c55d1e4a4d", "is_disabled": 0, "rental_uris": {"android": "https://dc.lft.to/lastmile_qr_scan", "ios": "https://dc.lft.to/lastmile_qr_scan"}, "lon": -77.03907966666667, "fusion_lat": 0.0}, {"name": "d2b28da9e5a30752995afc3857d4c636", "fusion_lon": 0.0, "lat": 38.8708625, "is_reserved": 0, "type": "electric_scooter", "bike_id": "d2b28da9e5a30752995afc3857d4c636", "is_disabled": 0, "rental_uris": {"android": "https://dc.lft.to/lastmile_qr_scan", "ios": "https://dc.lft.to/lastmile_qr_scan"}, "lon": -77.013538, "fusion_lat": 0.0}, {"name": "ca57ffc0ea5c657e6603bf4e3d8a6a3c", "fusion_lon": 0.0, "lat": 38.905862666666664, "is_reserved": 0, "type": "electric_scooter", "bike_id": "ca57ffc0ea5c657e6603bf4e3d8a6a3c", "is_disabled": 0, "rental_uris": {"android": "https://dc.lft.to/lastmile_qr_scan", "ios": "https://dc.lft.to/lastmile_qr_scan"}, "lon": -77.04153766666667, "fusion_lat": 0.0}, {"name": "81b51c753215e50ebdea90964e400bad", "fusion_lon": 0.0, "lat": 38.9049755, "is_reserved": 0, "type": "electric_bike", "bike_id": "81b51c753215e50ebdea90964e400bad", "is_disabled": 0, "rental_uris": {"android": "https://dc.lft.to/lastmile_qr_scan", "ios": "https://dc.lft.to/lastmile_qr_scan"}, "lon": -76.97424533333333, "fusion_lat": 0.0}, {"name": "b5ae6a3013435adbb436c7abdcbe2cd1", "fusion_lon": 0.0, "lat": 38.9140815, "is_reserved": 0, "type": "electric_scooter", "bike_id": "b5ae6a3013435adbb436c7abdcbe2cd1", "is_disabled": 0, "rental_uris": {"android": "https://dc.lft.to/lastmile_qr_scan", "ios": "https://dc.lft.to/lastmile_qr_scan"}, "lon": -77.04177416666667, "fusion_lat": 0.0}, {"name": "52d1053d8797fc5be8046fc27beea665", "fusion_lon": 0.0, "lat": 38.9024535, "is_reserved": 0, "type": "electric_scooter", "bike_id": "52d1053d8797fc5be8046fc27beea665", "is_disabled": 0, "rental_uris": {"android": "https://dc.lft.to/lastmile_qr_scan", "ios": "https://dc.lft.to/lastmile_qr_scan"}, "lon": -77.00196216666667, "fusion_lat": 0.0}, {"name": "c54ca1e7b580f10bbbfbc11b1346567f", "fusion_lon": 0.0, "lat": 38.9132645, "is_reserved": 0, "type": "electric_scooter", "bike_id": "c54ca1e7b580f10bbbfbc11b1346567f", "is_disabled": 0, "rental_uris": {"android": "https://dc.lft.to/lastmile_qr_scan", "ios": "https://dc.lft.to/lastmile_qr_scan"}, "lon": -77.03657866666667, "fusion_lat": 0.0}, {"name": "fd28cf351ca5bcad859e14d64adb1a66", "fusion_lon": 0.0, "lat": 38.892341, "is_reserved": 0, "type": "electric_scooter", "bike_id": "fd28cf351ca5bcad859e14d64adb1a66", "is_disabled": 0, "rental_uris": {"android": "https://dc.lft.to/lastmile_qr_scan", "ios": "https://dc.lft.to/lastmile_qr_scan"}, "lon": -77.03206533333334, "fusion_lat": 0.0}, {"name": "35fbea7e3e58a8c5d23852ca519c59d5", "fusion_lon": 0.0, "lat": 38.92148666666667, "is_reserved": 0, "type": "electric_scooter", "bike_id": "35fbea7e3e58a8c5d23852ca519c59d5", "is_disabled": 0, "rental_uris": {"android": "https://dc.lft.to/lastmile_qr_scan", "ios": "https://dc.lft.to/lastmile_qr_scan"}, "lon": -77.034602, "fusion_lat": 0.0}, {"name": "fbce265ed5009263c20ee5fa07bcb291", "fusion_lon": 0.0, "lat": 38.91668, "is_reserved": 0, "type": "electric_scooter", "bike_id": "fbce265ed5009263c20ee5fa07bcb291", "is_disabled": 0, "rental_uris": {"android": "https://dc.lft.to/lastmile_qr_scan", "ios": "https://dc.lft.to/lastmile_qr_scan"}, "lon": -77.02975333333333, "fusion_lat": 0.0}, {"name": "0abd930307abf64c8d04b6bbdc76b9b1", "fusion_lon": 0.0, "lat": 38.8932395, "is_reserved": 0, "type": "electric_scooter", "bike_id": "0abd930307abf64c8d04b6bbdc76b9b1", "is_disabled": 0, "rental_uris": {"android": "https://dc.lft.to/lastmile_qr_scan", "ios": "https://dc.lft.to/lastmile_qr_scan"}, "lon": -77.04874683333334, "fusion_lat": 0.0}, {"name": "7d675cc2c0487324072b0fd67f6d8a72", "fusion_lon": 0.0, "lat": 38.9515395, "is_reserved": 0, "type": "electric_scooter", "bike_id": "7d675cc2c0487324072b0fd67f6d8a72", "is_disabled": 0, "rental_uris": {"android": "https://dc.lft.to/lastmile_qr_scan", "ios": "https://dc.lft.to/lastmile_qr_scan"}, "lon": -77.01865466666666, "fusion_lat": 0.0}, {"name": "fab0113b11048669cca118efd6d4e672", "fusion_lon": 0.0, "lat": 38.923392666666665, "is_reserved": 0, "type": "electric_scooter", "bike_id": "fab0113b11048669cca118efd6d4e672", "is_disabled": 0, "rental_uris": {"android": "https://dc.lft.to/lastmile_qr_scan", "ios": "https://dc.lft.to/lastmile_qr_scan"}, "lon": -77.05679766666667, "fusion_lat": 0.0}, {"name": "8536e7b648334b39b4ff2a60f7246d43", "fusion_lon": 0.0, "lat": 38.905695333333334, "is_reserved": 0, "type": "electric_scooter", "bike_id": "8536e7b648334b39b4ff2a60f7246d43", "is_disabled": 0, "rental_uris": {"android": "https://dc.lft.to/lastmile_qr_scan", "ios": "https://dc.lft.to/lastmile_qr_scan"}, "lon": -77.04499866666667, "fusion_lat": 0.0}, {"name": "8564c976ea47dce598152c45dd5583b9", "fusion_lon": 0.0, "lat": 38.92641033333334, "is_reserved": 0, "type": "electric_scooter", "bike_id": "8564c976ea47dce598152c45dd5583b9", "is_disabled": 0, "rental_uris": {"android": "https://dc.lft.to/lastmile_qr_scan", "ios": "https://dc.lft.to/lastmile_qr_scan"}, "lon": -77.04137883333334, "fusion_lat": 0.0}, {"name": "124192b2673498562ffa3a49579cd93c", "fusion_lon": 0.0, "lat": 38.902224, "is_reserved": 0, "type": "electric_scooter", "bike_id": "124192b2673498562ffa3a49579cd93c", "is_disabled": 0, "rental_uris": {"android": "https://dc.lft.to/lastmile_qr_scan", "ios": "https://dc.lft.to/lastmile_qr_scan"}, "lon": -77.0237715, "fusion_lat": 0.0}, {"name": "2bc25725aaeebfde30f437d3479c76fe", "fusion_lon": 0.0, "lat": 38.90216483333333, "is_reserved": 0, "type": "electric_scooter", "bike_id": "2bc25725aaeebfde30f437d3479c76fe", "is_disabled": 0, "rental_uris": {"android": "https://dc.lft.to/lastmile_qr_scan", "ios": "https://dc.lft.to/lastmile_qr_scan"}, "lon": -77.023683, "fusion_lat": 0.0}, {"name": "37dfe2a99ed89546b3a01a6bdb18ca9c", "fusion_lon": 0.0, "lat": 38.880797, "is_reserved": 0, "type": "electric_scooter", "bike_id": "37dfe2a99ed89546b3a01a6bdb18ca9c", "is_disabled": 0, "rental_uris": {"android": "https://dc.lft.to/lastmile_qr_scan", "ios": "https://dc.lft.to/lastmile_qr_scan"}, "lon": -76.98513983333333, "fusion_lat": 0.0},