{"data": {"bikes": [{"is_reserved": 0, "type": "electric_bike", "bike_id": "1719102a7b7907542c7d5c2ec2928242", "lat": 38.882478166666665, "lon": -76.96262433333334, "rental_uris": {"android": "https://dc.lft.to/lastmile_qr_scan", "ios": "https://dc.lft.to/lastmile_qr_scan"}, "is_disabled": 0, "fusion_lat": 0.0, "name": "1719102a7b7907542c7d5c2ec2928242", "fusion_lon": 0.0}, {"is_reserved": 0, "type": "electric_scooter", "bike_id": "979de46f1dfa0f8289e58739829b7dc8", "lat": 38.90081983333334, "lon": -77.0487535, "rental_uris": {"android": "https://dc.lft.to/lastmile_qr_scan", "ios": "https://dc.lft.to/lastmile_qr_scan"}, "is_disabled": 0, "fusion_lat": 0.0, "name": "979de46f1dfa0f8289e58739829b7dc8", "fusion_lon": 0.0}, {"is_reserved": 0, "type": "electric_scooter", "bike_id": "7286ad19583959c6dd07861a67b16eba", "lat": 38.896991, "lon": -77.004994, "rental_uris": {"android": "https://dc.lft.to/lastmile_qr_scan", "ios": "https://dc.lft.to/lastmile_qr_scan"}, "is_disabled": 0, "fusion_lat": 0.0, "name": "7286ad19583959c6dd07861a67b16eba", "fusion_lon": 0.0}, {"is_reserved": 0, "type": "electric_scooter", "bike_id": "15b6dc9f810a459762f8ba536e80b3c7", "lat": 38.92598133333333, "lon": -77.02491716666667, "rental_uris": {"android": "https://dc.lft.to/lastmile_qr_scan", "ios": "https://dc.lft.to/lastmile_qr_scan"}, "is_disabled": 0, "fusion_lat": 0.0, "name": "15b6dc9f810a459762f8ba536e80b3c7", "fusion_lon": 0.0}, {"is_reserved": 0, "type": "electric_scooter", "bike_id": "3531aec792e43ebfc52fb751b41d9f84", "lat": 38.896851166666664, "lon": -77.05056966666666, "rental_uris": {"android": "https://dc.lft.to/lastmile_qr_scan", "ios": "https://dc.lft.to/lastmile_qr_scan"}, "is_disabled": 0, "fusion_lat": 0.0, "name": "3531aec792e43ebfc52fb751b41d9f84", "fusion_lon": 0.0}, {"is_reserved": 0, "type": "electric_scooter", "bike_id": "5834eec0f893ffe814c7b698aa079236", "lat": 38.92692266666667, "lon": -77.02580583333334, "rental_uris": {"android": "https://dc.lft.to/lastmile_qr_scan", "ios": "https://dc.lft.to/lastmile_qr_scan"}, "is_disabled": 0, "fusion_lat": 0.0, "name": "5834eec0f893ffe814c7b698aa079236", "fusion_lon": 0.0}, {"is_reserved": 0, "type": "electric_scooter", "bike_id": "bcaa3f43384687567afb4e6e8fd3453c", "lat": 38.9207665, "lon": -77.02389633333334, "rental_uris": {"android": "https://dc.lft.to/lastmile_qr_scan", "ios": "https://dc.lft.to/lastmile_qr_scan"}, "is_disabled": 0, "fusion_lat": 0.0, "name": "bcaa3f43384687567afb4e6e8fd3453c", "fusion_lon": 0.0}, {"is_reserved": 0, "type": "electric_scooter", "bike_id": "9ac5cbd451a504ddd36ad09210769b6f", "lat": 38.92378683333333, "lon": -77.01915833333334, "rental_uris": {"android": "https://dc.lft.to/lastmile_qr_scan", "ios": "https://dc.lft.to/lastmile_qr_scan"}, "is_disabled": 0, "fusion_lat": 0.0, "name": "9ac5cbd451a504ddd36ad09210769b6f", "fusion_lon": 0.0}, {"is_reserved": 0, "type": "electric_scooter", "bike_id": "ad3e25309eb552e668e4ef2d93ec380d", "lat": 38.93648366666667, "lon": -77.03683566666666, "rental_uris": {"android": "https://dc.lft.to/lastmile_qr_scan", "ios": "https://dc.lft.to/lastmile_qr_scan"}, "is_disabled": 0, "fusion_lat": 0.0, "name": "ad3e25309eb552e668e4ef2d93ec380d", "fusion_lon": 0.0}, {"is_reserved": 0, "type": "electric_scooter", "bike_id": "9fef626985d08711234b24ec4b003d2c", "lat": 38.920810833333334, "lon": -77.0401035, "rental_uris": {"android": "https://dc.lft.to/lastmile_qr_scan", "ios": "https://dc.lft.to/lastmile_qr_scan"}, "is_disabled": 0, "fusion_lat": 0.0, "name": "9fef626985d08711234b24ec4b003d2c", "fusion_lon": 0.0}, {"is_reserved": 0, "type": "electric_scooter", "bike_id": "0f34de04fe1ac5c3b11fe77351d1e710", "lat": 38.93866933333334, "lon": -77.02704316666667, "rental_uris": {"android": "https://dc.lft.to/lastmile_qr_scan", "ios": "https://dc.lft.to/lastmile_qr_scan"}, "is_disabled": 0, "fusion_lat": 0.0, "name": "0f34de04fe1ac5c3b11fe77351d1e710", "fusion_lon": 0.0}, {"is_reserved": 0, "type": "electric_scooter", "bike_id": "c41b54f999bc5c7c86f2abc61933c3fe", "lat": 38.90527733333333, "lon": -76.98411283333333, "rental_uris": {"android": "https://dc.lft.to/lastmile_qr_scan", "ios": "https://dc.lft.to/lastmile_qr_scan"}, "is_disabled": 0, "fusion_lat": 0.0, "name": "c41b54f999bc5c7c86f2abc61933c3fe", "fusion_lon": 0.0}, {"is_reserved": 0, "type": "electric_scooter", "bike_id": "51b9ea6888c8c974d614a143ca692ef5", "lat": 38.89819133333334, "lon": -77.04896816666667, "rental_uris": {"android": "https://dc.lft.to/lastmile_qr_scan", "ios": "https://dc.lft.to/lastmile_qr_scan"}, "is_disabled": 0, "fusion_lat": 0.0, "name": "51b9ea6888c8c974d614a143ca692ef5", "fusion_lon": 0.0}, {"is_reserved": 0, "type": "electric_scooter", "bike_id": "f5bcfa15ca98f0897c11d199cdd0bf5e", "lat": 38.91569, "lon": -77.0313385, "rental_uris": {"android": "https://dc.lft.to/lastmile_qr_scan", "ios": "https://dc.lft.to/lastmile_qr_scan"}, "is_disabled": 0, "fusion_lat": 0.0, "name": "f5bcfa15ca98f0897c11d199cdd0bf5e", "fusion_lon": 0.0}, {"is_reserved": 0, "type": "electric_scooter", "bike_id": "57851e2e9ce1c816c3c74d8b3f8a7e2e", "lat": 38.912202666666666, "lon": -76.98706283333334, "rental_uris": {"android": "https://dc.lft.to/lastmile_qr_scan", "ios": "https://dc.lft.to/lastmile_qr_scan"}, "is_disabled": 0, "fusion_lat": 0.0, "name": "57851e2e9ce1c816c3c74d8b3f8a7e2e", "fusion_lon": 0.0}, {"is_reserved": 0, "type": "electric_scooter", "bike_id": "10d41b1a6325052707d904b7fc318746", "lat": 38.90840716666666, "lon": -77.0355035, "rental_uris": {"android": "https://dc.lft.to/lastmile_qr_scan", "ios": "https://dc.lft.to/lastmile_qr_scan"}, "is_disabled": 0, "fusion_lat": 0.0, "name": "10d41b1a6325052707d904b7fc318746", "fusion_lon": 0.0}, {"is_reserved": 0, "type": "electric_scooter", "bike_id": "2d3afea62796eb6e8cfc14171b982f84", "lat": 38.9195085, "lon": -77.02492216666667, "rental_uris": {"android": "https://dc.lft.to/lastmile_qr_scan", "ios": "https://dc.lft.to/lastmile_qr_scan"}, "is_disabled": 0, "fusion_lat": 0.0, "name": "2d3afea62796eb6e8cfc14171b982f84", "fusion_lon": 0.0}, {"is_reserved": 0, "type": "electric_scooter", "bike_id": "66c6d7a5346d743c12f2284e88b89967", "lat": 38.9085265, "lon": -77.01021016666667, "rental_uris": {"android": "https://dc.lft.to/lastmile_qr_scan", "ios": "https://dc.lft.to/lastmile_qr_scan"}, "is_disabled": 0, "fusion_lat": 0.0, "name": "66c6d7a5346d743c12f2284e88b89967", "fusion_lon": 0.0}, {"is_reserved": 0, "type": "electric_scooter", "bike_id": "7119427dca06566f611d15c802d00ab6", "lat": 38.91054166666667, "lon": -77.04098666666667, "rental_uris": {"android": "https://dc.lft.to/lastmile_qr_scan", "ios": "https://dc.lft.to/lastmile_qr_scan"}, "is_disabled": 0, "fusion_lat": 0.0, "name": "7119427dca06566f611d15c802d00ab6", "fusion_lon": 0.0}, {"is_reserved": 0, "type": "electric_scooter", "bike_id": "4c53304b062187f288a6476e3060e496", "lat": 38.91606733333333, "lon": -77.0450215, "rental_uris": {"android": "https://dc.lft.to/lastmile_qr_scan", "ios": "https://dc.lft.to/lastmile_qr_scan"}, "is_disabled": 0, "fusion_lat": 0.0, "name": "4c53304b062187f288a6476e3060e496", "fusion_lon": 0.0}, {"is_reserved": 0, "type": "electric_scooter", "bike_id": "adf3cdac62bf8b8ec40c0822538b095c", "lat": 38.90407733333333, "lon": -76.97332483333334, "rental_uris": {"android": "https://dc.lft.to/lastmile_qr_scan", "ios": "https://dc.lft.to/lastmile_qr_scan"}, "is_disabled": 0, "fusion_lat": 0.0, "name": "adf3cdac62bf8b8ec40c0822538b095c", "fusion_lon": 0.0}, {"is_reserved": 0, "type": "electric_scooter", "bike_id": "cdf1aa938a0cbae0509079325f4349b5", "lat": 38.92038633333333, "lon": -77.0172725, "rental_uris": {"android": "https://dc.lft.to/lastmile_qr_scan", "ios": "https://dc.lft.to/lastmile_qr_scan"}, "is_disabled": 0, "fusion_lat": 0.0, "name": "cdf1aa938a0cbae0509079325f4349b5", "fusion_lon": 0.0}, {"is_reserved": 0, "type": "electric_scooter", "bike_id": "099c3909a3c28ee5d62199fe40a0f738", "lat": 38.90684866666667, "lon": -77.01548133333333, "rental_uris": {"android": "https://dc.lft.to/lastmile_qr_scan", "ios": "https://dc.lft.to/lastmile_qr_scan"}, "is_disabled": 0, "fusion_lat": 0.0, "name": "099c3909a3c28ee5d62199fe40a0f738", "fusion_lon": 0.0}, {"is_reserved": 0, "type": "electric_scooter", "bike_id": "f2c2f70fa2b5654c49def5b18a37cebe", "lat": 38.89964633333334, "lon": -77.0448255, "rental_uris": {"android": "https://dc.lft.to/lastmile_qr_scan", "ios": "https://dc.lft.to/lastmile_qr_scan"}, "is_disabled": 0, "fusion_lat": 0.0, "name": "f2c2f70fa2b5654c49def5b18a37cebe", "fusion_lon": 0.0}, {"is_reserved": 0, "type": "electric_scooter", "bike_id": "488e9fab19a354a358d7993a2a99ba80", "lat": 38.876568666666664, "lon": -76.99323633333333, "rental_uris": {"android": "https://dc.lft.to/lastmile_qr_scan", "ios": "https://dc.lft.to/lastmile_qr_scan"}, "is_disabled": 0, "fusion_lat": 0.0, "name": "488e9fab19a354a358d7993a2a99ba80", "fusion_lon": 0.0}, {"is_reserved": 0, "type": "electric_scooter", "bike_id": "09b580aa454c38ab11605fec06566513", "lat": 38.9119075, "lon": -77.00728133333334, "rental_uris": {"android": "https://dc.lft.to/lastmile_qr_scan", "ios": "https://dc.lft.to/lastmile_qr_scan"}, "is_disabled": 0, "fusion_lat": 0.0, "name": "09b580aa454c38ab11605fec06566513", "fusion_lon": 0.0}, {"is_reserved": 0, "type": "electric_bike", "bike_id": "93cf58a892c81c235f7fbba1fd90886b", "lat": 38.898137, "lon": -76.99065566666667, "rental_uris": {"android": "https://dc.lft.to/lastmile_qr_scan", "ios": "https://dc.lft.to/lastmile_qr_scan"}, "is_disabled": 0, "fusion_lat": 0.0, "name": "93cf58a892c81c235f7fbba1fd90886b", "fusion_lon": 0.0}, {"is_reserved": 0, "type": "electric_scooter", "bike_id": "8dd9a1d434440bb62f72fa6add567cc6", "lat": 38.900224333333334, "lon": -77.01018533333334, "rental_uris": {"android": "https://dc.lft.to/lastmile_qr_scan", "ios": "https://dc.lft.to/lastmile_qr_scan"}, "is_disabled": 0, "fusion_lat": 0.0, "name": "8dd9a1d434440bb62f72fa6add567cc6", "fusion_lon": 0.0}, {"is_reserved": 0, "type": "electric_scooter", "bike_id": "0217ef715c902413eeccc505a2444558", "lat": 38.899396833333334, "lon": -77.02728366666666, "rental_uris": {"android": "https://dc.lft.to/lastmile_qr_scan", "ios": "https://dc.lft.to/lastmile_qr_scan"}, "is_disabled": 0, "fusion_lat": 0.0, "name": "0217ef715c902413eeccc505a2444558", "fusion_lon": 0.0}, {"is_reserved": 0, "type": "electric_scooter", "bike_id": "dfd6f41a0e060aae381c6c70f3a149df", "lat": 38.933588, "lon": -77.05727383333333, "rental_uris": {"android": "https://dc.lft.to/lastmile_qr_scan", "ios": "https://dc.lft.to/lastmile_qr_scan"}, "is_disabled": 0, "fusion_lat": 0.0, "name": "dfd6f41a0e060aae381c6c70f3a149df", "fusion_lon": 0.0}, {"is_reserved": 0, "type": "electric_scooter", "bike_id": "93a666572da6fcdbddb4a5fb23a704fe", "lat": 38.914137833333335, "lon": -77.02875033333333, "rental_uris": {"android": "https://dc.lft.to/lastmile_qr_scan", "ios": "https://dc.lft.to/lastmile_qr_scan"}, "is_disabled": 0, "fusion_lat": 0.0, "name": "93a666572da6fcdbddb4a5fb23a704fe", "fusion_lon": 0.0}, {"is_reserved": 0, "type": "electric_scooter", "bike_id": "dc31d8d048267957eb6548c562f9c0fc", "lat": 38.90345816666667, "lon": -77.033771, "rental_uris": {"android": "https://dc.lft.to/lastmile_qr_scan", "ios": "https://dc.lft.to/lastmile_qr_scan"}, "is_disabled": 0, "fusion_lat": 0.0, "name": "dc31d8d048267957eb6548c562f9c0fc", "fusion_lon": 0.0}, {"is_reserved": 0, "type": "electric_scooter", "bike_id": "b03e1441caedeb4c9dadb5e2d468b56c", "lat": 38.92263916666667, "lon": -77.01923966666666, "rental_uris": {"android": "https://dc.lft.to/lastmile_qr_scan", "ios": "https://dc.lft.to/lastmile_qr_scan"}, "is_disabled": 0, "fusion_lat": 0.0, "name": "b03e1441caedeb4c9dadb5e2d468b56c", "fusion_lon": 0.0}, {"is_reserved": 0, "type": "electric_scooter", "bike_id": "b8f92aa6c2ff45f35cca9d085b6bfbae", "lat": 38.923182, "lon": -77.02802266666667, "rental_uris": {"android": "https://dc.lft.to/lastmile_qr_scan", "ios": "https://dc.lft.to/lastmile_qr_scan"}, "is_disabled": 0, "fusion_lat": 0.0, "name": "b8f92aa6c2ff45f35cca9d085b6bfbae", "fusion_lon": 0.0}, {"is_reserved": 0, "type": "electric_scooter", "bike_id": "ac18bb0d6367713fdee85d3be00c066d", "lat": 38.87480083333333, "lon": -77.01744483333333, "rental_uris": {"android": "https://dc.lft.to/lastmile_qr_scan", "ios": "https://dc.lft.to/lastmile_qr_scan"}, "is_disabled": 0, "fusion_lat": 0.0, "name": "ac18bb0d6367713fdee85d3be00c066d", "fusion_lon": 0.0}, {"is_reserved": 0, "type": "electric_scooter", "bike_id": "3c50af488e060c144ee618c6d5ccda3b", "lat": 38.89451783333333, "lon": -77.0454445, "rental_uris": {"android": "https://dc.lft.to/lastmile_qr_scan", "ios": "https://dc.lft.to/lastmile_qr_scan"}, "is_disabled": 0, "fusion_lat": 0.0, "name": "3c50af488e060c144ee618c6d5ccda3b", "fusion_lon": 0.0}, {"is_reserved": 0, "type": "electric_scooter", "bike_id": "cd4a15f1455130f66461b010372234b1", "lat": 38.923300166666664, "lon": -77.0089575, "rental_uris": {"android": "https://dc.lft.to/lastmile_qr_scan", "ios": "https://dc.lft.to/lastmile_qr_scan"}, "is_disabled": 0, "fusion_lat": 0.0, "name": "cd4a15f1455130f66461b010372234b1", "fusion_lon": 0.0}, {"is_reserved": 0, "type": "electric_scooter", "bike_id": "ed1f1a4868343fe178a27a03c003f511", "lat": 38.94039083333333, "lon": -77.02908483333333, "rental_uris": {"android": "https://dc.lft.to/lastmile_qr_scan", "ios": "https://dc.lft.to/lastmile_qr_scan"}, "is_disabled": 0, "fusion_lat": 0.0, "name": "ed1f1a4868343fe178a27a03c003f511", "fusion_lon": 0.0}, {"is_reserved": 0, "type": "electric_scooter", "bike_id": "e9de410f7cc3e5043a1e9517f15e4157", "lat": 38.905606166666665, "lon": -77.041648, "rental_uris": {"android": "https://dc.lft.to/lastmile_qr_scan", "ios": "https://dc.lft.to/lastmile_qr_scan"}, "is_disabled": 0, "fusion_lat": 0.0, "name": "e9de410f7cc3e5043a1e9517f15e4157", "fusion_lon": 0.0}, {"is_reserved": 0, "type": "electric_scooter", "bike_id": "702f406d9ef10498187169fb68a837dc", "lat": 38.924425166666666, "lon": -76.99679716666667, "rental_uris": {"android": "https://dc.lft.to/lastmile_qr_scan", "ios": "https://dc.lft.to/lastmile_qr_scan"}, "is_disabled": 0, "fusion_lat": 0.0, "name": "702f406d9ef10498187169fb68a837dc", "fusion_lon": 0.0}, {"is_reserved": 0, "type": "electric_scooter", "bike_id": "a4f04b0f200d08b4f3e4f76b64417641", "lat": 38.89568366666666, "lon": -76.9821125, "rental_uris": {"android": "https://dc.lft.to/lastmile_qr_scan", "ios": "https://dc.lft.to/lastmile_qr_scan"}, "is_disabled": 0, "fusion_lat": 0.0, "name": "a4f04b0f200d08b4f3e4f76b64417641", "fusion_lon": 0.0}, {"is_reserved": 0, "type": "electric_bike", "bike_id": "80e3fa0d0cbba1249dca46ad2ca86249", "lat": 38.84925583333333, "lon": -77.08377, "rental_uris": {"android": "https://dc.lft.to/lastmile_qr_scan", "ios": "https://dc.lft.to/lastmile_qr_scan"}, "is_disabled": 0, "fusion_lat": 0.0, "name": "80e3fa0d0cbba1249dca46ad2ca86249", "fusion_lon": 0.0}, {"is_reserved": 0, "type": "electric_scooter", "bike_id": "e33e144947c51d7c8a65668a3106d5c1", "lat": 38.910703166666664, "lon": -76.99141333333333, "rental_uris": {"android": "https://dc.lft.to/lastmile_qr_scan", "ios": "https://dc.lft.to/lastmile_qr_scan"}, "is_disabled": 0, "fusion_lat": 0.0, "name": "e33e144947c51d7c8a65668a3106d5c1", "fusion_lon": 0.0}, {"is_reserved": 0, "type": "electric_scooter", "bike_id": "4b4a208feadc25aac6384e58a79cad66", "lat": 38.9156305, "lon": -77.020905, "rental_uris": {"android": "https://dc.lft.to/lastmile_qr_scan", "ios": "https://dc.lft.to/lastmile_qr_scan"}, "is_disabled": 0, "fusion_lat": 0.0, "name": "4b4a208feadc25aac6384e58a79cad66", "fusion_lon": 0.0}, {"is_reserved": 0, "type": "electric_scooter", "bike_id": "849228d14166effa56b42004f3e347e2", "lat": 38.902202833333334, "lon": -77.04900483333333, "rental_uris": {"android": "https://dc.lft.to/lastmile_qr_scan", "ios": "https://dc.lft.to/lastmile_qr_scan"}, "is_disabled": 0, "fusion_lat": 0.0, "name": "849228d14166effa56b42004f3e347e2", "fusion_lon": 0.0}, {"is_reserved": 0, "type": "electric_scooter", "bike_id": "0d83ba265f32374df94c9298794e97d1", "lat": 38.899793833333334, "lon": -77.0220695, "rental_uris": {"android": "https://dc.lft.to/lastmile_qr_scan", "ios": "https://dc.lft.to/lastmile_qr_scan"}, "is_disabled": 0, "fusion_lat": 0.0, "name": "0d83ba265f32374df94c9298794e97d1", "fusion_lon": 0.0}, {"is_reserved": 0, "type": "electric_scooter", "bike_id": "b8e128ffda9512e16841a88a43f92df8", "lat": 38.91645366666667, "lon": -77.01054083333334, "rental_uris": {"android": "https://dc.lft.to/lastmile_qr_scan", "ios": "https://dc.lft.to/lastmile_qr_scan"}, "is_disabled": 0, "fusion_lat": 0.0, "name": "b8e128ffda9512e16841a88a43f92df8", "fusion_lon": 0.0}, {"is_reserved": 0, "type": "electric_scooter", "bike_id": "344aec33230845250d602400b4030959", "lat": 38.902324166666666, "lon": -77.05350616666666, "rental_uris": {"android": "https://dc.lft.to/lastmile_qr_scan", "ios": "https://dc.lft.to/lastmile_qr_scan"}, "is_disabled": 0, "fusion_lat": 0.0, "name": "344aec33230845250d602400b4030959", "fusion_lon": 0.0}, {"is_reserved": 0, "type": "electric_scooter", "bike_id": "ec0ac84316dc2119ec9f68cc05f7896a", "lat": 38.87154066666667, "lon": -76.96584733333333, "rental_uris": {"android": "https://dc.lft.to/lastmile_qr_scan", "ios": "https://dc.lft.to/lastmile_qr_scan"}, "is_disabled": 0, "fusion_lat": 0.0, "name": "ec0ac84316dc2119ec9f68cc05f7896a", "fusion_lon": 0.0}, {"is_reserved": 0, "type": "electric_bike", "bike_id": "73d7531e4ba410f6e1f873df1349caba", "lat": 38.96671883333333, "lon": -77.023037, "rental_uris": {"android": "https://dc.lft.to/lastmile_qr_scan", "ios": "https://dc.lft.to/lastmile_qr_scan"}, "is_disabled": 0, "fusion_lat": 0.0, "name": "73d7531e4ba410f6e1f873df1349caba", "fusion_lon": 0.0}, {"is_reserved": 0, "type": "electric_bike", "bike_id": "8d3333f18b0134a149d23b9ccb331621", "lat": 38.91570433333333, "lon": -77.020227, "rental_uris": {"android": "https://dc.lft.to/lastmile_qr_scan", "ios": "https://dc.lft.to/lastmile_qr_scan"}, "is_disabled": 0, "fusion_lat": 0.0, "name": "8d3333f18b0134a149d23b9ccb331621", "fusion_lon": 0.0}, {"is_reserved": 0, "type": "electric_scooter", "bike_id": "5e5dc9b0ad4c7b86a883a6a0bd133d3f", "lat": 38.9228765, "lon": -77.03393333333334, "rental_uris": {"android": "https://dc.lft.to/lastmile_qr_scan", "ios": "https://dc.lft.to/lastmile_qr_scan"}, "is_disabled": 0, "fusion_lat": 0.0, "name": "5e5dc9b0ad4c7b86a883a6a0bd133d3f", "fusion_lon": 0.0}, {"is_reserved": 0, "type": "electric_scooter", "bike_id": "f5d99c9d807c8d5dab8650623afbde45", "lat": 38.923834666666664, "lon": -77.0306685, "rental_uris": {"android": "https://dc.lft.to/lastmile_qr_scan", "ios": "https://dc.lft.to/lastmile_qr_scan"}, "is_disabled": 0, "fusion_lat": 0.0, "name": "f5d99c9d807c8d5dab8650623afbde45", "fusion_lon": 0.0}, {"is_reserved": 0, "type": "electric_bike", "bike_id": "6454548dd10fcbecec86093fef245c4a", "lat": 38.867545166666666, "lon": -76.94542333333334, "rental_uris": {"android": "https://dc.lft.to/lastmile_qr_scan", "ios": "https://dc.lft.to/lastmile_qr_scan"}, "is_disabled": 0, "fusion_lat": 0.0, "name": "6454548dd10fcbecec86093fef245c4a", "fusion_lon": 0.0}, {"is_reserved": 0, "type": "electric_scooter", "bike_id": "02bd3b72b57f69f99dc07929b355825d", "lat": 38.8877375, "lon": -76.9326275, "rental_uris": {"android": "https://dc.lft.to/lastmile_qr_scan", "ios": "https://dc.lft.to/lastmile_qr_scan"}, "is_disabled": 0, "fusion_lat": 0.0, "name": "02bd3b72b57f69f99dc07929b355825d", "fusion_lon": 0.0}, {"is_reserved": 0, "type": "electric_scooter", "bike_id": "60ff502044955ebbc16b78dbdeb60d6d", "lat": 38.92030616666667, "lon": -76.98549166666666, "rental_uris": {"android": "https://dc.lft.to/lastmile_qr_scan", "ios": "https://dc.lft.to/lastmile_qr_scan"}, "is_disabled": 0, "fusion_lat": 0.0, "name": "60ff502044955ebbc16b78dbdeb60d6d", "fusion_lon": 0.0}, {"is_reserved": 0, "type": "electric_scooter", "bike_id": "462f114ea76e0c945164baafa8b66bfd", "lat": 38.90626066666667, "lon": -77.008942, "rental_uris": {"android": "https://dc.lft.to/lastmile_qr_scan", "ios": "https://dc.lft.to/lastmile_qr_scan"}, "is_disabled": 0, "fusion_lat": 0.0, "name": "462f114ea76e0c945164baafa8b66bfd", "fusion_lon": 0.0}, {"is_reserved": 0, "type": "electric_scooter", "bike_id": "e6ed66c01177be657fd48ef0b0ae8eaa", "lat": 38.9055815, "lon": -77.00732083333334, "rental_uris": {"android": "https://dc.lft.to/lastmile_qr_scan", "ios": "https://dc.lft.to/lastmile_qr_scan"}, "is_disabled": 0, "fusion_lat": 0.0, "name": "e6ed66c01177be657fd48ef0b0ae8eaa", "fusion_lon": 0.0}, {"is_reserved": 0, "type": "electric_scooter", "bike_id": "a826f64d7d4817650c53b3ead93fbbb5", "lat": 38.90067966666667, "lon": -77.053107, "rental_uris": {"android": "https://dc.lft.to/lastmile_qr_scan", "ios": "https://dc.lft.to/lastmile_qr_scan"}, "is_disabled": 0, "fusion_lat": 0.0, "name": "a826f64d7d4817650c53b3ead93fbbb5", "fusion_lon": 0.0}, {"is_reserved": 0, "type": "electric_scooter", "bike_id": "4fe3143a4ec4f6abc692aca0d320a339", "lat": 38.892286666666664, "lon": -77.0311585, "rental_uris": {"android": "https://dc.lft.to/lastmile_qr_scan", "ios": "https://dc.lft.to/lastmile_qr_scan"}, "is_disabled": 0, "fusion_lat": 0.0, "name": "4fe3143a4ec4f6abc692aca0d320a339", "fusion_lon": 0.0}, {"is_reserved": 0, "type": "electric_scooter", "bike_id": "0c81ed3adc04e44a79766cf9e0157966", "lat": 38.90489433333333, "lon": -77.02949116666667, "rental_uris": {"android": "https://dc.lft.to/lastmile_qr_scan", "ios": "https://dc.lft.to/lastmile_qr_scan"}, "is_disabled": 0, "fusion_lat": 0.0, "name": "0c81ed3adc04e44a79766cf9e0157966", "fusion_lon": 0.0}, {"is_reserved": 0, "type": "electric_scooter", "bike_id": "fda4b2d07ac2c6e8bb9d2a59505fd885", "lat": 38.922057833333334, "lon": -77.02039283333333, "rental_uris": {"android": "https://dc.lft.to/lastmile_qr_scan", "ios": "https://dc.lft.to/lastmile_qr_scan"}, "is_disabled": 0, "fusion_lat": 0.0, "name": "fda4b2d07ac2c6e8bb9d2a59505fd885", "fusion_lon": 0.0}, {"is_reserved": 0, "type": "electric_scooter", "bike_id": "5202a4e3a534611fbb3f39edb96a6498", "lat": 38.910176, "lon": -76.99376816666667, "rental_uris": {"android": "https://dc.lft.to/lastmile_qr_scan", "ios": "https://dc.lft.to/lastmile_qr_scan"}, "is_disabled": 0, "fusion_lat": 0.0, "name": "5202a4e3a534611fbb3f39edb96a6498", "fusion_lon": 0.0}, {"is_reserved": 0, "type": "electric_scooter", "bike_id": "9d33c1c1d0b561c463d0c04fa3108764", "lat": 38.89717266666667, "lon": -77.00799133333334, "rental_uris": {"android": "https://dc.lft.to/lastmile_qr_scan", "ios": "https://dc.lft.to/lastmile_qr_scan"}, "is_disabled": 0, "fusion_lat": 0.0, "name": "9d33c1c1d0b561c463d0c04fa3108764", "fusion_lon": 0.0}, {"is_reserved": 0, "type": "electric_scooter", "bike_id": "c5de6e9a9765ab92e412107c7e236314", "lat": 38.917990333333336, "lon": -77.0344525, "rental_uris": {"android": "https://dc.lft.to/lastmile_qr_scan", "ios": "https://dc.lft.to/lastmile_qr_scan"}, "is_disabled": 0, "fusion_lat": 0.0, "name": "c5de6e9a9765ab92e412107c7e236314", "fusion_lon": 0.0}, {"is_reserved": 0, "type": "electric_scooter", "bike_id": "74d4ddd2032bb5b93b2704fe10461c2f", "lat": 38.9015465, "lon": -77.028484, "rental_uris": {"android": "https://dc.lft.to/lastmile_qr_scan", "ios": "https://dc.lft.to/lastmile_qr_scan"}, "is_disabled": 0, "fusion_lat": 0.0, "name": "74d4ddd2032bb5b93b2704fe10461c2f", "fusion_lon": 0.0}, {"is_reserved": 0, "type": "electric_scooter", "bike_id": "138ef104293f46d9e31b8bd19567f43a", "lat": 38.9370005, "lon": -77.0212325, "rental_uris": {"android": "https://dc.lft.to/lastmile_qr_scan", "ios": "https://dc.lft.to/lastmile_qr_scan"}, "is_disabled": 0, "fusion_lat": 0.0, "name": "138ef104293f46d9e31b8bd19567f43a", "fusion_lon": 0.0}, {"is_reserved": 0, "type": "electric_scooter", "bike_id": "738d3f07e3e8274d3f3b8612d3326854", "lat": 38.895311666666665, "lon": -77.03017866666667, "rental_uris": {"android": "https://dc.lft.to/lastmile_qr_scan", "ios": "https://dc.lft.to/lastmile_qr_scan"}, "is_disabled": 0, "fusion_lat": 0.0, "name": "738d3f07e3e8274d3f3b8612d3326854", "fusion_lon": 0.0}, {"is_reserved": 0, "type": "electric_scooter", "bike_id": "5ac4a590427d8f51604efcfa55c5f0ba", "lat": 38.92369083333333, "lon": -77.05034233333333, "rental_uris": {"android": "https://dc.lft.to/lastmile_qr_scan", "ios": "https://dc.lft.to/lastmile_qr_scan"}, "is_disabled": 0, "fusion_lat": 0.0, "name": "5ac4a590427d8f51604efcfa55c5f0ba", "fusion_lon": 0.0}, {"is_reserved": 0, "type": "electric_scooter", "bike_id": "51b7cd01747420e415aa73456f93888e", "lat": 38.8992135, "lon": -76.97839666666667, "rental_uris": {"android": "https://dc.lft.to/lastmile_qr_scan", "ios": "https://dc.lft.to/lastmile_qr_scan"}, "is_disabled": 0, "fusion_lat": 0.0, "name": "51b7cd01747420e415aa73456f93888e", "fusion_lon": 0.0}, {"is_reserved": 0, "type": "electric_scooter", "bike_id": "b99f60e6936c0eee6d4abe35571ffbb1", "lat": 38.897132666666664, "lon": -77.022759, "rental_uris": {"android": "https://dc.lft.to/lastmile_qr_scan", "ios": "https://dc.lft.to/lastmile_qr_scan"}, "is_disabled": 0, "fusion_lat": 0.0, "name": "b99f60e6936c0eee6d4abe35571ffbb1", "fusion_lon": 0.0}, {"is_reserved": 0, "type": "electric_scooter", "bike_id": "7dba10b988212bae0364e982133c2978", "lat": 38.882691, "lon": -77.0036385, "rental_uris": {"android": "https://dc.lft.to/lastmile_qr_scan", "ios": "https://dc.lft.to/lastmile_qr_scan"}, "is_disabled": 0, "fusion_lat": 0.0, "name": "7dba10b988212bae0364e982133c2978", "fusion_lon": 0.0}, {"is_reserved": 0, "type": "electric_scooter", "bike_id": "294bb786f972ede8faab9ea19c3e1004", "lat": 38.938622, "lon": -77.025579, "rental_uris": {"android": "https://dc.lft.to/lastmile_qr_scan", "ios": "https://dc.lft.to/lastmile_qr_scan"}, "is_disabled": 0, "fusion_lat": 0.0, "name": "294bb786f972ede8faab9ea19c3e1004", "fusion_lon": 0.0}, {"is_reserved": 0, "type": "electric_scooter", "bike_id": "bd7d6efc18d9dcacc161e8bb23d25e8b", "lat": 38.96648866666666, "lon": -77.00893216666667, "rental_uris": {"android": "https://dc.lft.to/lastmile_qr_scan", "ios": "https://dc.lft.to/lastmile_qr_scan"}, "is_disabled": 0, "fusion_lat": 0.0, "name": "bd7d6efc18d9dcacc161e8bb23d25e8b", "fusion_lon": 0.0}, {"is_reserved": 0, "type": "electric_scooter", "bike_id": "62e4d7246d67e7027c87549af4ec4b4d", "lat": 38.905880333333336, "lon": -77.00610016666667, "rental_uris": {"android": "https://dc.lft.to/lastmile_qr_scan", "ios": "https://dc.lft.to/lastmile_qr_scan"}, "is_disabled": 0, "fusion_lat": 0.0, "name": "62e4d7246d67e7027c87549af4ec4b4d", "fusion_lon": 0.0}, {"is_reserved": 0, "type": "electric_scooter", "bike_id": "9ecae0cd03226adc61ae08ab2972c9ff", "lat": 38.9261545, "lon": -77.021622, "rental_uris": {"android": "https://dc.lft.to/lastmile_qr_scan", "ios": "https://dc.lft.to/lastmile_qr_scan"}, "is_disabled": 0, "fusion_lat": 0.0, "name": "9ecae0cd03226adc61ae08ab2972c9ff", "fusion_lon": 0.0}, {"is_reserved": 0, "type": "electric_bike", "bike_id": "3b0328deeed59841f5ceee6eb202b9ec", "lat": 38.9954575, "lon": -77.07476533333333, "rental_uris": {"android": "https://dc.lft.to/lastmile_qr_scan", "ios": "https://dc.lft.to/lastmile_qr_scan"}, "is_disabled": 0, "fusion_lat": 0.0, "name": "3b0328deeed59841f5ceee6eb202b9ec", "fusion_lon": 0.0}, {"is_reserved": 0, "type": "electric_scooter", "bike_id": "4c8883ff69f5e8113e7908c6286d3fcf", "lat": 38.90018716666667, "lon": -77.04467933333333, "rental_uris": {"android": "https://dc.lft.to/lastmile_qr_scan", "ios": "https://dc.lft.to/lastmile_qr_scan"}, "is_disabled": 0, "fusion_lat": 0.0, "name": "4c8883ff69f5e8113e7908c6286d3fcf", "fusion_lon": 0.0}, {"is_reserved": 0, "type": "electric_scooter", "bike_id": "7fc516bce8e6f3a5508c1ee423676200", "lat": 38.95253366666667, "lon": -77.024029, "rental_uris": {"android": "https://dc.lft.to/lastmile_qr_scan", "ios": "https://dc.lft.to/lastmile_qr_scan"}, "is_disabled": 0, "fusion_lat": 0.0, "name": "7fc516bce8e6f3a5508c1ee423676200", "fusion_lon": 0.0}, {"is_reserved": 0, "type": "electric_scooter", "bike_id": "6b00a9b1d21582d3be85f82d0d303e94", "lat": 38.91715666666666, "lon": -77.03213433333333, "rental_uris": {"android": "https://dc.lft.to/lastmile_qr_scan", "ios": "https://dc.lft.to/lastmile_qr_scan"}, "is_disabled": 0, "fusion_lat": 0.0, "name": "6b00a9b1d21582d3be85f82d0d303e94", "fusion_lon": 0.0}, {"is_reserved": 0, "type": "electric_scooter", "bike_id": "9faaa4441877877ce7eda1f0a1c5e9a3", "lat": 38.90577016666667, "lon": -77.0368035, "rental_uris": {"android": "https://dc.lft.to/lastmile_qr_scan", "ios": "https://dc.lft.to/lastmile_qr_scan"}, "is_disabled": 0, "fusion_lat": 0.0, "name": "9faaa4441877877ce7eda1f0a1c5e9a3", "fusion_lon": 0.0}, {"is_reserved": 0, "type": "electric_scooter", "bike_id": "9d52c9c6df0750c02e680b70c28f68c7", "lat": 38.91871733333333, "lon": -77.01356016666666, "rental_uris": {"android": "https://dc.lft.to/lastmile_qr_scan", "ios": "https://dc.lft.to/lastmile_qr_scan"}, "is_disabled": 0, "fusion_lat": 0.0, "name": "9d52c9c6df0750c02e680b70c28f68c7", "fusion_lon": 0.0}, {"is_reserved": 0, "type": "electric_scooter", "bike_id": "be55f1b9295c99963da81eff8a62875a", "lat": 38.887393833333334, "lon": -77.02202833333334, "rental_uris": {"android": "https://dc.lft.to/lastmile_qr_scan", "ios": "https://dc.lft.to/lastmile_qr_scan"}, "is_disabled": 0, "fusion_lat": 0.0, "name": "be55f1b9295c99963da81eff8a62875a", "fusion_lon": 0.0}, {"is_reserved": 0, "type": "electric_scooter", "bike_id": "d5378f8bdf0a8e58eee6fc2f6a30c68c", "lat": 38.924261333333334, "lon": -77.05755216666667, "rental_uris": {"android": "https://dc.lft.to/lastmile_qr_scan", "ios": "https://dc.lft.to/lastmile_qr_scan"}, "is_disabled": 0, "fusion_lat": 0.0, "name": "d5378f8bdf0a8e58eee6fc2f6a30c68c", "fusion_lon": 0.0}, {"is_reserved": 0, "type": "electric_scooter", "bike_id": "25f079a246a6f552ce71838b84c36fe6", "lat": 38.90590666666667, "lon": -77.01610216666667, "rental_uris": {"android": "https://dc.lft.to/lastmile_qr_scan", "ios": "https://dc.lft.to/lastmile_qr_scan"}, "is_disabled": 0, "fusion_lat": 0.0, "name": "25f079a246a6f552ce71838b84c36fe6", "fusion_lon": 0.0}, {"is_reserved": 0, "type": "electric_scooter", "bike_id": "a1cf9ab505c1b59eb79153b04cac1dff", "lat": 38.899895666666666, "lon": -77.02726683333333, "rental_uris": {"android": "https://dc.lft.to/lastmile_qr_scan", "ios": "https://dc.lft.to/lastmile_qr_scan"}, "is_disabled": 0, "fusion_lat": 0.0, "name": "a1cf9ab505c1b59eb79153b04cac1dff", "fusion_lon": 0.0}, {"is_reserved": 0, "type": "electric_bike", "bike_id": "28d2ef2ae15feed3634bae3995a527b6", "lat": 38.882124166666664, "lon": -77.11166566666667, "rental_uris": {"android": "https://dc.lft.to/lastmile_qr_scan", "ios": "https://dc.lft.to/lastmile_qr_scan"}, "is_disabled": 0, "fusion_lat": 0.0, "name": "28d2ef2ae15feed3634bae3995a527b6", "fusion_lon": 0.0}, {"is_reserved": 0, "type": "electric_scooter", "bike_id": "aa90cde9945c234ec864844e7d891bc6", "lat": 38.8729265, "lon": -77.0155865, "rental_uris": {"android": "https://dc.lft.to/lastmile_qr_scan", "ios": "https://dc.lft.to/lastmile_qr_scan"}, "is_disabled": 0, "fusion_lat": 0.0, "name": "aa90cde9945c234ec864844e7d891bc6", "fusion_lon": 0.0}, {"is_reserved": 0, "type": "electric_scooter", "bike_id": "18b1485d875f54ad6eca45df12654e2b", "lat": 38.93661316666667, "lon": -77.03694166666666, "rental_uris": {"android": "https://dc.lft.to/lastmile_qr_scan", "ios": "https://dc.lft.to/lastmile_qr_scan"}, "is_disabled": 0, "fusion_lat": 0.0, "name": "18b1485d875f54ad6eca45df12654e2b", "fusion_lon": 0.0}, {"is_reserved": 0, "type": "electric_scooter", "bike_id": "e98cc86f30e78ac3a110a96e8f441c78", "lat": 38.887865, "lon": -76.9771955, "rental_uris": {"android": "https://dc.lft.to/lastmile_qr_scan", "ios": "https://dc.lft.to/lastmile_qr_scan"}, "is_disabled": 0, "fusion_lat": 0.0, "name": "e98cc86f30e78ac3a110a96e8f441c78", "fusion_lon": 0.0}, {"is_reserved": 0, "type": "electric_scooter", "bike_id": "03435d3997d8833bef5ad674916aa2c3", "lat": 38.921529666666665, "lon": -77.038774, "rental_uris": {"android": "https://dc.lft.to/lastmile_qr_scan", "ios": "https://dc.lft.to/lastmile_qr_scan"}, "is_disabled": 0, "fusion_lat": 0.0, "name": "03435d3997d8833bef5ad674916aa2c3", "fusion_lon": 0.0}, {"is_reserved": 0, "type": "electric_scooter", "bike_id": "f32bbd89a4bb3f4eab5556ab0b1aa322", "lat": 38.9131415, "lon": -77.01438866666666, "rental_uris": {"android": "https://dc.lft.to/lastmile_qr_scan", "ios": "https://dc.lft.to/lastmile_qr_scan"}, "is_disabled": 0, "fusion_lat": 0.0, "name": "f32bbd89a4bb3f4eab5556ab0b1aa322", "fusion_lon": 0.0}, {"is_reserved": 0, "type": "electric_scooter", "bike_id": "f7ea9be29406db032e8f66485a3ad2e5", "lat": 38.91851333333334, "lon": -77.04593416666667, "rental_uris": {"android": "https://dc.lft.to/lastmile_qr_scan", "ios": "https://dc.lft.to/lastmile_qr_scan"}, "is_disabled": 0, "fusion_lat": 0.0, "name": "f7ea9be29406db032e8f66485a3ad2e5", "fusion_lon": 0.0}, {"is_reserved": 0, "type": "electric_scooter", "bike_id": "2def658a924e3c03927b668b4a8f3d8d", "lat": 38.91226066666667, "lon": -77.02717716666666, "rental_uris": {"android": "https://dc.lft.to/lastmile_qr_scan", "ios": "https://dc.lft.to/lastmile_qr_scan"}, "is_disabled": 0, "fusion_lat": 0.0, "name": "2def658a924e3c03927b668b4a8f3d8d", "fusion_lon": 0.0}, {"is_reserved": 0, "type": "electric_scooter", "bike_id": "8d0e9f71821f6bf7ae4ee5263ccd0605", "lat": 38.89855933333333, "lon": -76.92755116666666, "rental_uris": {"android": "https://dc.lft.to/lastmile_qr_scan", "ios": "https://dc.lft.to/lastmile_qr_scan"}, "is_disabled": 0, "fusion_lat": 0.0, "name": "8d0e9f71821f6bf7ae4ee5263ccd0605", "fusion_lon": 0.0}, {"is_reserved": 0, "type": "electric_scooter", "bike_id": "f2d9015f7608e204d232b4734e16169e", "lat": 38.92564016666667, "lon": -76.9701385, "rental_uris": {"android": "https://dc.lft.to/lastmile_qr_scan", "ios": "https://dc.lft.to/lastmile_qr_scan"}, "is_disabled": 0, "fusion_lat": 0.0, "name": "f2d9015f7608e204d232b4734e16169e", "fusion_lon": 0.0}, {"is_reserved": 0, "type": "electric_bike", "bike_id": "ff6ad5ff0870dbfe1452478613d304e0", "lat": 38.9555275, "lon": -76.96907333333333, "rental_uris": {"android": "https://dc.lft.to/lastmile_qr_scan", "ios": "https://dc.lft.to/lastmile_qr_scan"}, "is_disabled": 0, "fusion_lat": 0.0, "name": "ff6ad5ff0870dbfe1452478613d304e0", "fusion_lon": 0.0}, {"is_reserved": 0, "type": "electric_scooter", "bike_id": "597e710a33e04b4dc47b1f266bae57ea", "lat": 38.944463999999996, "lon": -77.02917433333333, "rental_uris": {"android": "https://dc.lft.to/lastmile_qr_scan", "ios": "https://dc.lft.to/lastmile_qr_scan"}, "is_disabled": 0, "fusion_lat": 0.0, "name": "597e710a33e04b4dc47b1f266bae57ea", "fusion_lon": 0.0}, {"is_reserved": 0, "type": "electric_scooter", "bike_id": "c60c4fb11683f014e518e3aace5c1cf8", "lat": 38.90670716666666, "lon": -76.980264, "rental_uris": {"android": "https://dc.lft.to/lastmile_qr_scan", "ios": "https://dc.lft.to/lastmile_qr_scan"}, "is_disabled": 0, "fusion_lat": 0.0, "name": "c60c4fb11683f014e518e3aace5c1cf8", "fusion_lon": 0.0}, {"is_reserved": 0, "type": "electric_scooter", "bike_id": "a3fc4e013f5abd5f840a5e6e69cc6eb4", "lat": 38.871582333333336, "lon": -77.013533, "rental_uris": {"android": "https://dc.lft.to/lastmile_qr_scan", "ios": "https://dc.lft.to/lastmile_qr_scan"}, "is_disabled": 0, "fusion_lat": 0.0, "name": "a3fc4e013f5abd5f840a5e6e69cc6eb4", "fusion_lon": 0.0}, {"is_reserved": 0, "type": "electric_scooter", "bike_id": "42dfe699272807cd1c3b3b7fc01d88e7", "lat": 38.907205166666664, "lon": -77.0255265, "rental_uris": {"android": "https://dc.lft.to/lastmile_qr_scan", "ios": "https://dc.lft.to/lastmile_qr_scan"}, "is_disabled": 0, "fusion_lat": 0.0, "name": "42dfe699272807cd1c3b3b7fc01d88e7", "fusion_lon": 0.0}, {"is_reserved": 0, "type": "electric_scooter", "bike_id": "2bec614337ec58b0601d21eef350494d", "lat": 38.91873783333333, "lon": -77.04486183333333, "rental_uris": {"android": "https://dc.lft.to/lastmile_qr_scan", "ios": "https://dc.lft.to/lastmile_qr_scan"}, "is_disabled": 0, "fusion_lat": 0.0, "name": "2bec614337ec58b0601d21eef350494d", "fusion_lon": 0.0}, {"is_reserved": 0, "type": "electric_scooter", "bike_id": "a2afce3e4ffbcf65e03da46744e6935d", "lat": 38.92075333333333, "lon": -77.02392066666667, "rental_uris": {"android": "https://dc.lft.to/lastmile_qr_scan", "ios": "https://dc.lft.to/lastmile_qr_scan"}, "is_disabled": 0, "fusion_lat": 0.0, "name": "a2afce3e4ffbcf65e03da46744e6935d", "fusion_lon": 0.0}, {"is_reserved": 0, "type": "electric_scooter", "bike_id": "e91bd588cc37a21138be11026bec9429", "lat": 38.93693, "lon": -77.0271625, "rental_uris": {"android": "https://dc.lft.to/lastmile_qr_scan", "ios": "https://dc.lft.to/lastmile_qr_scan"}, "is_disabled": 0, "fusion_lat": 0.0, "name": "e91bd588cc37a21138be11026bec9429", "fusion_lon": 0.0}, {"is_reserved": 0, "type": "electric_scooter", "bike_id": "d88d38f7aee56876083e6f9f23276e86", "lat": 38.899709333333334, "lon": -77.01637433333333, "rental_uris": {"android": "https://dc.lft.to/lastmile_qr_scan", "ios": "https://dc.lft.to/lastmile_qr_scan"}, "is_disabled": 0, "fusion_lat": 0.0, "name": "d88d38f7aee56876083e6f9f23276e86", "fusion_lon": 0.0}, {"is_reserved": 0, "type": "electric_scooter", "bike_id": "4c85bcb38cbe60d3ce1aa439c4c2f881", "lat": 38.9166, "lon": -76.98067866666666, "rental_uris": {"android": "https://dc.lft.to/lastmile_qr_scan", "ios": "https://dc.lft.to/lastmile_qr_scan"}, "is_disabled": 0, "fusion_lat": 0.0, "name": "4c85bcb38cbe60d3ce1aa439c4c2f881", "fusion_lon": 0.0}, {"is_reserved": 0, "type": "electric_scooter", "bike_id": "f434fa4a8af7ccdb84a2eb6b31b139e5", "lat": 38.895317, "lon": -77.044753, "rental_uris": {"android": "https://dc.lft.to/lastmile_qr_scan", "ios": "https://dc.lft.to/lastmile_qr_scan"}, "is_disabled": 0, "fusion_lat": 0.0, "name": "f434fa4a8af7ccdb84a2eb6b31b139e5", "fusion_lon": 0.0}, {"is_reserved": 0, "type": "electric_scooter", "bike_id": "c8a39a359e7c8b26a75fa479622b73ed", "lat": 38.9192575, "lon": -77.0342715, "rental_uris": {"android": "https://dc.lft.to/lastmile_qr_scan", "ios": "https://dc.lft.to/lastmile_qr_scan"}, "is_disabled": 0, "fusion_lat": 0.0, "name": "c8a39a359e7c8b26a75fa479622b73ed", "fusion_lon": 0.0}, {"is_reserved": 0, "type": "electric_scooter", "bike_id": "1bdb5ed418d2199eb372facf7c2e0587", "lat": 38.92055533333333, "lon": -77.01691816666667, "rental_uris": {"android": "https://dc.lft.to/lastmile_qr_scan", "ios": "https://dc.lft.to/lastmile_qr_scan"}, "is_disabled": 0, "fusion_lat": 0.0, "name": "1bdb5ed418d2199eb372facf7c2e0587", "fusion_lon": 0.0}, {"is_reserved": 0, "type": "electric_bike", "bike_id": "825e016d3c4b0ac48664c5e9d9388d14", "lat": 39.084940833333334, "lon": -76.95062816666666, "rental_uris": {"android": "https://dc.lft.to/lastmile_qr_scan", "ios": "https://dc.lft.to/lastmile_qr_scan"}, "is_disabled": 0, "fusion_lat": 0.0, "name": "825e016d3c4b0ac48664c5e9d9388d14", "fusion_lon": 0.0}, {"is_reserved": 0, "type": "electric_scooter", "bike_id": "021fc6c29d5c94fa64309bb57ce4f5ec", "lat": 38.9265345, "lon": -77.03715466666667, "rental_uris": {"android": "https://dc.lft.to/lastmile_qr_scan", "ios": "https://dc.lft.to/lastmile_qr_scan"}, "is_disabled": 0, "fusion_lat": 0.0, "name": "021fc6c29d5c94fa64309bb57ce4f5ec", "fusion_lon": 0.0}, {"is_reserved": 0, "type": "electric_scooter", "bike_id": "5e287c7b0666b6bc7e8a9a44cdd5f713", "lat": 38.956200333333335, "lon": -77.003264, "rental_uris": {"android": "https://dc.lft.to/lastmile_qr_scan", "ios": "https://dc.lft.to/lastmile_qr_scan"}, "is_disabled": 0, "fusion_lat": 0.0, "name": "5e287c7b0666b6bc7e8a9a44cdd5f713", "fusion_lon": 0.0}, {"is_reserved": 0, "type": "electric_scooter", "bike_id": "179d4cbbd98257700b798a28c1f207dd", "lat": 38.91807, "lon": -77.03444366666666, "rental_uris": {"android": "https://dc.lft.to/lastmile_qr_scan", "ios": "https://dc.lft.to/lastmile_qr_scan"}, "is_disabled": 0, "fusion_lat": 0.0, "name": "179d4cbbd98257700b798a28c1f207dd", "fusion_lon": 0.0}, {"is_reserved": 0, "type": "electric_scooter", "bike_id": "e20f6916a2e377834716bb6af54d0b48", "lat": 38.91016283333333, "lon": -77.04402, "rental_uris": {"android": "https://dc.lft.to/lastmile_qr_scan", "ios": "https://dc.lft.to/lastmile_qr_scan"}, "is_disabled": 0, "fusion_lat": 0.0, "name": "e20f6916a2e377834716bb6af54d0b48", "fusion_lon": 0.0}, {"is_reserved": 0, "type": "electric_scooter", "bike_id": "16a7b53548b154148908991a4e6c2abc", "lat": 38.906448833333336, "lon": -77.0120535, "rental_uris": {"android": "https://dc.lft.to/lastmile_qr_scan", "ios": "https://dc.lft.to/lastmile_qr_scan"}, "is_disabled": 0, "fusion_lat": 0.0, "name": "16a7b53548b154148908991a4e6c2abc", "fusion_lon": 0.0}, {"is_reserved": 0, "type": "electric_scooter", "bike_id": "a5d29cf6e7bea650938ef6ea771ecdf4", "lat": 38.914803166666665, "lon": -77.03235783333334, "rental_uris": {"android": "https://dc.lft.to/lastmile_qr_scan", "ios": "https://dc.lft.to/lastmile_qr_scan"}, "is_disabled": 0, "fusion_lat": 0.0, "name": "a5d29cf6e7bea650938ef6ea771ecdf4", "fusion_lon": 0.0}, {"is_reserved": 0, "type": "electric_scooter", "bike_id": "c914520967f6435e7e08cea73adb7996", "lat": 38.957466333333336, "lon": -77.03016216666667, "rental_uris": {"android": "https://dc.lft.to/lastmile_qr_scan", "ios": "https://dc.lft.to/lastmile_qr_scan"}, "is_disabled": 0, "fusion_lat": 0.0, "name": "c914520967f6435e7e08cea73adb7996", "fusion_lon": 0.0}, {"is_reserved": 0, "type": "electric_scooter", "bike_id": "dc1329ea515f18544ce869a02587cbcf", "lat": 38.903909, "lon": -77.01770366666666, "rental_uris": {"android": "https://dc.lft.to/lastmile_qr_scan", "ios": "https://dc.lft.to/lastmile_qr_scan"}, "is_disabled": 0, "fusion_lat": 0.0, "name": "dc1329ea515f18544ce869a02587cbcf", "fusion_lon": 0.0}, {"is_reserved": 0, "type": "electric_bike", "bike_id": "27ec4507b22e606e469a7db86c795b2f", "lat": 38.9479665, "lon": -76.94251733333333, "rental_uris": {"android": "https://dc.lft.to/lastmile_qr_scan", "ios": "https://dc.lft.to/lastmile_qr_scan"}, "is_disabled": 0, "fusion_lat": 0.0, "name": "27ec4507b22e606e469a7db86c795b2f", "fusion_lon": 0.0}, {"is_reserved": 0, "type": "electric_bike", "bike_id": "22fe79967e13e143f402ae12b0f19db6", "lat": 38.84455466666667, "lon": -76.93167133333333, "rental_uris": {"android": "https://dc.lft.to/lastmile_qr_scan", "ios": "https://dc.lft.to/lastmile_qr_scan"}, "is_disabled": 0, "fusion_lat": 0.0, "name": "22fe79967e13e143f402ae12b0f19db6", "fusion_lon": 0.0}, {"is_reserved": 0, "type": "electric_scooter", "bike_id": "73ee5b69e54c90bcf29fb02382c98209", "lat": 38.91420733333333, "lon": -77.018784, "rental_uris": {"android": "https://dc.lft.to/lastmile_qr_scan", "ios": "https://dc.lft.to/lastmile_qr_scan"}, "is_disabled": 0, "fusion_lat": 0.0, "name": "73ee5b69e54c90bcf29fb02382c98209", "fusion_lon": 0.0}, {"is_reserved": 0, "type": "electric_scooter", "bike_id": "d3bdd95e9c347783768d43ef17bb23e0", "lat": 38.89870333333333, "lon": -77.03948333333334, "rental_uris": {"android": "https://dc.lft.to/lastmile_qr_scan", "ios": "https://dc.lft.to/lastmile_qr_scan"}, "is_disabled": 0, "fusion_lat": 0.0, "name": "d3bdd95e9c347783768d43ef17bb23e0", "fusion_lon": 0.0}, {"is_reserved": 0, "type": "electric_scooter", "bike_id": "9eb63f036950ef252f540ce2e0b22a1a", "lat": 38.922477666666666, "lon": -77.047169, "rental_uris": {"android": "https://dc.lft.to/lastmile_qr_scan", "ios": "https://dc.lft.to/lastmile_qr_scan"}, "is_disabled": 0, "fusion_lat": 0.0, "name": "9eb63f036950ef252f540ce2e0b22a1a", "fusion_lon": 0.0}, {"is_reserved": 0, "type": "electric_scooter", "bike_id": "3410f950ba69aa1326202f7527ebf873", "lat": 38.900966, "lon": -77.017559, "rental_uris": {"android": "https://dc.lft.to/lastmile_qr_scan", "ios": "https://dc.lft.to/lastmile_qr_scan"}, "is_disabled": 0, "fusion_lat": 0.0, "name": "3410f950ba69aa1326202f7527ebf873", "fusion_lon": 0.0}, {"is_reserved": 0, "type": "electric_scooter", "bike_id": "853963ceb7e4f061ad72944de47ba922", "lat": 38.923246166666665, "lon": -77.03676366666667, "rental_uris": {"android": "https://dc.lft.to/lastmile_qr_scan", "ios": "https://dc.lft.to/lastmile_qr_scan"}, "is_disabled": 0, "fusion_lat": 0.0, "name": "853963ceb7e4f061ad72944de47ba922", "fusion_lon": 0.0}, {"is_reserved": 0, "type": "electric_scooter", "bike_id": "2ae0bc2c5b60cece8dd7a26c8a133f5f", "lat": 38.911190500000004, "lon": -77.00255216666666, "rental_uris": {"android": "https://dc.lft.to/lastmile_qr_scan", "ios": "https://dc.lft.to/lastmile_qr_scan"}, "is_disabled": 0, "fusion_lat": 0.0, "name": "2ae0bc2c5b60cece8dd7a26c8a133f5f", "fusion_lon": 0.0}, {"is_reserved": 0, "type": "electric_scooter", "bike_id": "c34ac6f405820b87dd23ff89e374b428", "lat": 38.910464, "lon": -77.04809983333334, "rental_uris": {"android": "https://dc.lft.to/lastmile_qr_scan", "ios": "https://dc.lft.to/lastmile_qr_scan"}, "is_disabled": 0, "fusion_lat": 0.0, "name": "c34ac6f405820b87dd23ff89e374b428", "fusion_lon": 0.0}, {"is_reserved": 0, "type": "electric_bike", "bike_id": "cac1edf17ed79b194734a51dd18265c5", "lat": 38.9853255, "lon": -76.95472833333334, "rental_uris": {"android": "https://dc.lft.to/lastmile_qr_scan", "ios": "https://dc.lft.to/lastmile_qr_scan"}, "is_disabled": 0, "fusion_lat": 0.0, "name": "cac1edf17ed79b194734a51dd18265c5", "fusion_lon": 0.0}, {"is_reserved": 0, "type": "electric_scooter", "bike_id": "b34b858a79b528f8706c551fb3ca53cf", "lat": 38.89547316666667, "lon": -76.98336783333333, "rental_uris": {"android": "https://dc.lft.to/lastmile_qr_scan", "ios": "https://dc.lft.to/lastmile_qr_scan"}, "is_disabled": 0, "fusion_lat": 0.0, "name": "b34b858a79b528f8706c551fb3ca53cf", "fusion_lon": 0.0}, {"is_reserved": 0, "type": "electric_scooter", "bike_id": "3d5b112dbfc0c6b321cc6de7f9ec86fb", "lat": 38.926752666666665, "lon": -77.00752866666667, "rental_uris": {"android": "https://dc.lft.to/lastmile_qr_scan", "ios": "https://dc.lft.to/lastmile_qr_scan"}, "is_disabled": 0, "fusion_lat": 0.0, "name": "3d5b112dbfc0c6b321cc6de7f9ec86fb", "fusion_lon": 0.0}, {"is_reserved": 0, "type": "electric_scooter", "bike_id": "5c72e6d398ecf276e8fffe9c8c297373", "lat": 38.916596166666665, "lon": -77.0385855, "rental_uris": {"android": "https://dc.lft.to/lastmile_qr_scan", "ios": "https://dc.lft.to/lastmile_qr_scan"}, "is_disabled": 0, "fusion_lat": 0.0, "name": "5c72e6d398ecf276e8fffe9c8c297373", "fusion_lon": 0.0}, {"is_reserved": 0, "type": "electric_scooter", "bike_id": "c701981f108283b7cee075f68749e4a8", "lat": 38.91547416666667, "lon": -77.031233, "rental_uris": {"android": "https://dc.lft.to/lastmile_qr_scan", "ios": "https://dc.lft.to/lastmile_qr_scan"}, "is_disabled": 0, "fusion_lat": 0.0, "name": "c701981f108283b7cee075f68749e4a8", "fusion_lon": 0.0}, {"is_reserved": 0, "type": "electric_scooter", "bike_id": "9b2c104144047a3cf211e1f82386b612", "lat": 38.92075166666667, "lon": -77.0231625, "rental_uris": {"android": "https://dc.lft.to/lastmile_qr_scan", "ios": "https://dc.lft.to/lastmile_qr_scan"}, "is_disabled": 0, "fusion_lat": 0.0, "name": "9b2c104144047a3cf211e1f82386b612", "fusion_lon": 0.0}, {"is_reserved": 0, "type": "electric_scooter", "bike_id": "abef682f9c0a1cfe0470a1fd52ba629e", "lat": 38.9225975, "lon": -77.03106233333334, "rental_uris": {"android": "https://dc.lft.to/lastmile_qr_scan", "ios": "https://dc.lft.to/lastmile_qr_scan"}, "is_disabled": 0, "fusion_lat": 0.0, "name": "abef682f9c0a1cfe0470a1fd52ba629e", "fusion_lon": 0.0}, {"is_reserved": 0, "type": "electric_scooter", "bike_id": "3c4ab4e58457f339fbcecf9fc3a642b6", "lat": 38.915596666666666, "lon": -77.03116, "rental_uris": {"android": "https://dc.lft.to/lastmile_qr_scan", "ios": "https://dc.lft.to/lastmile_qr_scan"}, "is_disabled": 0, "fusion_lat": 0.0, "name": "3c4ab4e58457f339fbcecf9fc3a642b6", "fusion_lon": 0.0}, {"is_reserved": 0, "type": "electric_scooter", "bike_id": "0d075abe3d6b173ac9f8d33fd8341530", "lat": 38.865268, "lon": -76.9690885, "rental_uris": {"android": "https://dc.lft.to/lastmile_qr_scan", "ios": "https://dc.lft.to/lastmile_qr_scan"}, "is_disabled": 0, "fusion_lat": 0.0, "name": "0d075abe3d6b173ac9f8d33fd8341530", "fusion_lon": 0.0}, {"is_reserved": 0, "type": "electric_scooter", "bike_id": "14308433b8c52b81aa7ed71f5eaed4c6", "lat": 38.896166666666666, "lon": -77.04412816666667, "rental_uris": {"android": "https://dc.lft.to/lastmile_qr_scan", "ios": "https://dc.lft.to/lastmile_qr_scan"}, "is_disabled": 0, "fusion_lat": 0.0, "name": "14308433b8c52b81aa7ed71f5eaed4c6", "fusion_lon": 0.0}, {"is_reserved": 0, "type": "electric_scooter", "bike_id": "e2e73f6df9a9275c2b842d0498a3e425", "lat": 38.92377716666667, "lon": -77.0191705, "rental_uris": {"android": "https://dc.lft.to/lastmile_qr_scan", "ios": "https://dc.lft.to/lastmile_qr_scan"}, "is_disabled": 0, "fusion_lat": 0.0, "name": "e2e73f6df9a9275c2b842d0498a3e425", "fusion_lon": 0.0}, {"is_reserved": 0, "type": "electric_scooter", "bike_id": "857af151acf553e85020fdf7c51e959a", "lat": 38.91857566666667, "lon": -77.03660383333333, "rental_uris": {"android": "https://dc.lft.to/lastmile_qr_scan", "ios": "https://dc.lft.to/lastmile_qr_scan"}, "is_disabled": 0, "fusion_lat": 0.0, "name": "857af151acf553e85020fdf7c51e959a", "fusion_lon": 0.0}, {"is_reserved": 0, "type": "electric_scooter", "bike_id": "93731010dd3c06b83453ba137a11a373", "lat": 38.89428266666667, "lon": -77.05592683333333, "rental_uris": {"android": "https://dc.lft.to/lastmile_qr_scan", "ios": "https://dc.lft.to/lastmile_qr_scan"}, "is_disabled": 0, "fusion_lat": 0.0, "name": "93731010dd3c06b83453ba137a11a373", "fusion_lon": 0.0}, {"is_reserved": 0, "type": "electric_scooter", "bike_id": "10bb33238d207a324550b4227d28273e", "lat": 38.9250225, "lon": -77.03879516666667, "rental_uris": {"android": "https://dc.lft.to/lastmile_qr_scan", "ios": "https://dc.lft.to/lastmile_qr_scan"}, "is_disabled": 0, "fusion_lat": 0.0, "name": "10bb33238d207a324550b4227d28273e", "fusion_lon": 0.0}, {"is_reserved": 0, "type": "electric_scooter", "bike_id": "8e8d88ff9f89dad4119bea3bf7ab8f10", "lat": 38.931876833333334, "lon": -77.02835133333333, "rental_uris": {"android": "https://dc.lft.to/lastmile_qr_scan", "ios": "https://dc.lft.to/lastmile_qr_scan"}, "is_disabled": 0, "fusion_lat": 0.0, "name": "8e8d88ff9f89dad4119bea3bf7ab8f10", "fusion_lon": 0.0}, {"is_reserved": 0, "type": "electric_bike", "bike_id": "1f8f833250eff6182925b2c3ebc33fce", "lat": 38.802531, "lon": -77.11441383333333, "rental_uris": {"android": "https://dc.lft.to/lastmile_qr_scan", "ios": "https://dc.lft.to/lastmile_qr_scan"}, "is_disabled": 0, "fusion_lat": 0.0, "name": "1f8f833250eff6182925b2c3ebc33fce", "fusion_lon": 0.0}, {"is_reserved": 0, "type": "electric_scooter", "bike_id": "19080e759a243f0f15f48b5fc2c8581b", "lat": 38.90070266666667, "lon": -76.92746733333334, "rental_uris": {"android": "https://dc.lft.to/lastmile_qr_scan", "ios": "https://dc.lft.to/lastmile_qr_scan"}, "is_disabled": 0, "fusion_lat": 0.0, "name": "19080e759a243f0f15f48b5fc2c8581b", "fusion_lon": 0.0}, {"is_reserved": 0, "type": "electric_scooter", "bike_id": "8071f44f724cbee26217e5c5f4b3febb", "lat": 38.929712, "lon": -77.02345333333334, "rental_uris": {"android": "https://dc.lft.to/lastmile_qr_scan", "ios": "https://dc.lft.to/lastmile_qr_scan"}, "is_disabled": 0, "fusion_lat": 0.0, "name": "8071f44f724cbee26217e5c5f4b3febb", "fusion_lon": 0.0}, {"is_reserved": 0, "type": "electric_scooter", "bike_id": "51afbf8f01ec3344373db34e61db3727", "lat": 38.92567533333333, "lon": -76.97008066666666, "rental_uris": {"android": "https://dc.lft.to/lastmile_qr_scan", "ios": "https://dc.lft.to/lastmile_qr_scan"}, "is_disabled": 0, "fusion_lat": 0.0, "name": "51afbf8f01ec3344373db34e61db3727", "fusion_lon": 0.0}, {"is_reserved": 0, "type": "electric_scooter", "bike_id": "28600efed1b69842e3121d95b0265a79", "lat": 38.91818266666667, "lon": -77.040048, "rental_uris": {"android": "https://dc.lft.to/lastmile_qr_scan", "ios": "https://dc.lft.to/lastmile_qr_scan"}, "is_disabled": 0, "fusion_lat": 0.0, "name": "28600efed1b69842e3121d95b0265a79", "fusion_lon": 0.0}, {"is_reserved": 0, "type": "electric_scooter", "bike_id": "c2fd27b587b100ebc4564d52edef0dfa", "lat": 38.94736533333333, "lon": -77.02463516666667, "rental_uris": {"android": "https://dc.lft.to/lastmile_qr_scan", "ios": "https://dc.lft.to/lastmile_qr_scan"}, "is_disabled": 0, "fusion_lat": 0.0, "name": "c2fd27b587b100ebc4564d52edef0dfa", "fusion_lon": 0.0}, {"is_reserved": 0, "type": "electric_scooter", "bike_id": "8036c4c76bf7ee21b90fd60dbb2e342d", "lat": 38.902712333333334, "lon": -77.003252, "rental_uris": {"android": "https://dc.lft.to/lastmile_qr_scan", "ios": "https://dc.lft.to/lastmile_qr_scan"}, "is_disabled": 0, "fusion_lat": 0.0, "name": "8036c4c76bf7ee21b90fd60dbb2e342d", "fusion_lon": 0.0}, {"is_reserved": 0, "type": "electric_scooter", "bike_id": "8b4530e4bdb5bd089338a9e8eb35a11f", "lat": 38.8765595, "lon": -77.00729783333334, "rental_uris": {"android": "https://dc.lft.to/lastmile_qr_scan", "ios": "https://dc.lft.to/lastmile_qr_scan"}, "is_disabled": 0, "fusion_lat": 0.0, "name": "8b4530e4bdb5bd089338a9e8eb35a11f", "fusion_lon": 0.0}, {"is_reserved": 0, "type": "electric_scooter", "bike_id": "b0f64af7b0498ce1aa5792712080457c", "lat": 38.89044466666667, "lon": -76.95246966666667, "rental_uris": {"android": "https://dc.lft.to/lastmile_qr_scan", "ios": "https://dc.lft.to/lastmile_qr_scan"}, "is_disabled": 0, "fusion_lat": 0.0, "name": "b0f64af7b0498ce1aa5792712080457c", "fusion_lon": 0.0}, {"is_reserved": 0, "type": "electric_scooter", "bike_id": "3f2e20f29008760878a8afad0a9dc8a7", "lat": 38.876129166666665, "lon": -76.965684, "rental_uris": {"android": "https://dc.lft.to/lastmile_qr_scan", "ios": "https://dc.lft.to/lastmile_qr_scan"}, "is_disabled": 0, "fusion_lat": 0.0, "name": "3f2e20f29008760878a8afad0a9dc8a7", "fusion_lon": 0.0}, {"is_reserved": 0, "type": "electric_scooter", "bike_id": "b802fc7c89b097614053ac1bec6ae016", "lat": 38.9051125, "lon": -77.063847, "rental_uris": {"android": "https://dc.lft.to/lastmile_qr_scan", "ios": "https://dc.lft.to/lastmile_qr_scan"}, "is_disabled": 0, "fusion_lat": 0.0, "name": "b802fc7c89b097614053ac1bec6ae016", "fusion_lon": 0.0}, {"is_reserved": 0, "type": "electric_scooter", "bike_id": "1c2511c1184748c666501c86019266ea", "lat": 38.925587166666666, "lon": -77.07761666666667, "rental_uris": {"android": "https://dc.lft.to/lastmile_qr_scan", "ios": "https://dc.lft.to/lastmile_qr_scan"}, "is_disabled": 0, "fusion_lat": 0.0, "name": "1c2511c1184748c666501c86019266ea", "fusion_lon": 0.0}, {"is_reserved": 0, "type": "electric_scooter", "bike_id": "f0a9aa847963789480d30556570406ca", "lat": 38.918205666666665, "lon": -77.03154433333333, "rental_uris": {"android": "https://dc.lft.to/lastmile_qr_scan", "ios": "https://dc.lft.to/lastmile_qr_scan"}, "is_disabled": 0, "fusion_lat": 0.0, "name": "f0a9aa847963789480d30556570406ca", "fusion_lon": 0.0}, {"is_reserved": 0, "type": "electric_scooter", "bike_id": "9e81dca93a56e4a74209e6d02af24568", "lat": 38.9282615, "lon": -77.05444766666666, "rental_uris": {"android": "https://dc.lft.to/lastmile_qr_scan", "ios": "https://dc.lft.to/lastmile_qr_scan"}, "is_disabled": 0, "fusion_lat": 0.0, "name": "9e81dca93a56e4a74209e6d02af24568", "fusion_lon": 0.0}, {"is_reserved": 0, "type": "electric_scooter", "bike_id": "3fe58a109c500a7e0222bd66baf5bc5f", "lat": 38.92486433333333, "lon": -77.03479983333334, "rental_uris": {"android": "https://dc.lft.to/lastmile_qr_scan", "ios": "https://dc.lft.to/lastmile_qr_scan"}, "is_disabled": 0, "fusion_lat": 0.0, "name": "3fe58a109c500a7e0222bd66baf5bc5f", "fusion_lon": 0.0}, {"is_reserved": 0, "type": "electric_scooter", "bike_id": "e620de961dfb1c6e363b53d88a29f5ea", "lat": 38.919858, "lon": -77.04070766666666, "rental_uris": {"android": "https://dc.lft.to/lastmile_qr_scan", "ios": "https://dc.lft.to/lastmile_qr_scan"}, "is_disabled": 0, "fusion_lat": 0.0, "name": "e620de961dfb1c6e363b53d88a29f5ea", "fusion_lon": 0.0}, {"is_reserved": 0, "type": "electric_scooter", "bike_id": "fab076a258a3a33a53b63ed9ca517fb1", "lat": 38.873867833333335, "lon": -77.0001705, "rental_uris": {"android": "https://dc.lft.to/lastmile_qr_scan", "ios": "https://dc.lft.to/lastmile_qr_scan"}, "is_disabled": 0, "fusion_lat": 0.0, "name": "fab076a258a3a33a53b63ed9ca517fb1", "fusion_lon": 0.0}, {"is_reserved": 0, "type": "electric_scooter", "bike_id": "7150e59d007666329630b76c0ba85c43", "lat": 38.9079515, "lon": -77.048929, "rental_uris": {"android": "https://dc.lft.to/lastmile_qr_scan", "ios": "https://dc.lft.to/lastmile_qr_scan"}, "is_disabled": 0, "fusion_lat": 0.0, "name": "7150e59d007666329630b76c0ba85c43", "fusion_lon": 0.0}, {"is_reserved": 0, "type": "electric_scooter", "bike_id": "2bb1f0e57ac008dd5f0020e0282258d1", "lat": 38.937425833333336, "lon": -77.03268633333333, "rental_uris": {"android": "https://dc.lft.to/lastmile_qr_scan", "ios": "https://dc.lft.to/lastmile_qr_scan"}, "is_disabled": 0, "fusion_lat": 0.0, "name": "2bb1f0e57ac008dd5f0020e0282258d1", "fusion_lon": 0.0}, {"is_reserved": 0, "type": "electric_scooter", "bike_id": "2800893e156678d9ccf7eb0fc58cb972", "lat": 38.94314516666667, "lon": -77.02181383333334, "rental_uris": {"android": "https://dc.lft.to/lastmile_qr_scan", "ios": "https://dc.lft.to/lastmile_qr_scan"}, "is_disabled": 0, "fusion_lat": 0.0, "name": "2800893e156678d9ccf7eb0fc58cb972", "fusion_lon": 0.0}, {"is_reserved": 0, "type": "electric_scooter", "bike_id": "6b28025ec2891c9b317f3b10ef27bdad", "lat": 38.920332333333334, "lon": -77.01035416666667, "rental_uris": {"android": "https://dc.lft.to/lastmile_qr_scan", "ios": "https://dc.lft.to/lastmile_qr_scan"}, "is_disabled": 0, "fusion_lat": 0.0, "name": "6b28025ec2891c9b317f3b10ef27bdad", "fusion_lon": 0.0}, {"is_reserved": 0, "type": "electric_scooter", "bike_id": "86f7664b49d042baea565a2e28b0341f", "lat": 38.888117333333334, "lon": -77.00210733333333, "rental_uris": {"android": "https://dc.lft.to/lastmile_qr_scan", "ios": "https://dc.lft.to/lastmile_qr_scan"}, "is_disabled": 0, "fusion_lat": 0.0, "name": "86f7664b49d042baea565a2e28b0341f", "fusion_lon": 0.0}, {"is_reserved": 0, "type": "electric_scooter", "bike_id": "ec625ccbd3aac346bc07ff57befdd43f", "lat": 38.89950233333333, "lon": -77.02705683333333, "rental_uris": {"android": "https://dc.lft.to/lastmile_qr_scan", "ios": "https://dc.lft.to/lastmile_qr_scan"}, "is_disabled": 0, "fusion_lat": 0.0, "name": "ec625ccbd3aac346bc07ff57befdd43f", "fusion_lon": 0.0}, {"is_reserved": 0, "type": "electric_scooter", "bike_id": "ec5a2153a8e78918cf579b55b2cd4799", "lat": 38.8965205, "lon": -76.99038183333333, "rental_uris": {"android": "https://dc.lft.to/lastmile_qr_scan", "ios": "https://dc.lft.to/lastmile_qr_scan"}, "is_disabled": 0, "fusion_lat": 0.0, "name": "ec5a2153a8e78918cf579b55b2cd4799", "fusion_lon": 0.0}, {"is_reserved": 0, "type": "electric_scooter", "bike_id": "d5baf0075ce9bd16406dd9889eb63c37", "lat": 38.88390033333334, "lon": -76.93044966666666, "rental_uris": {"android": "https://dc.lft.to/lastmile_qr_scan", "ios": "https://dc.lft.to/lastmile_qr_scan"}, "is_disabled": 0, "fusion_lat": 0.0, "name": "d5baf0075ce9bd16406dd9889eb63c37", "fusion_lon": 0.0}, {"is_reserved": 0, "type": "electric_scooter", "bike_id": "0eeec77b728689bcd64f9b53f10c9e0c", "lat": 38.920723, "lon": -77.02499316666666, "rental_uris": {"android": "https://dc.lft.to/lastmile_qr_scan", "ios": "https://dc.lft.to/lastmile_qr_scan"}, "is_disabled": 0, "fusion_lat": 0.0, "name": "0eeec77b728689bcd64f9b53f10c9e0c", "fusion_lon": 0.0}, {"is_reserved": 0, "type": "electric_scooter", "bike_id": "a6bd285654095cf0c28f55df132d384c", "lat": 38.92317666666667, "lon": -77.02979083333334, "rental_uris": {"android": "https://dc.lft.to/lastmile_qr_scan", "ios": "https://dc.lft.to/lastmile_qr_scan"}, "is_disabled": 0, "fusion_lat": 0.0, "name": "a6bd285654095cf0c28f55df132d384c", "fusion_lon": 0.0}, {"is_reserved": 0, "type": "electric_scooter", "bike_id": "0b923ad2e05d0ed164827956bd7c2611", "lat": 38.899537, "lon": -77.02025466666667, "rental_uris": {"android": "https://dc.lft.to/lastmile_qr_scan", "ios": "https://dc.lft.to/lastmile_qr_scan"}, "is_disabled": 0, "fusion_lat": 0.0, "name": "0b923ad2e05d0ed164827956bd7c2611", "fusion_lon": 0.0}, {"is_reserved": 0, "type": "electric_scooter", "bike_id": "08a61e85a91959e004ef13e435e0c678", "lat": 38.906371, "lon": -77.07037466666667, "rental_uris": {"android": "https://dc.lft.to/lastmile_qr_scan", "ios": "https://dc.lft.to/lastmile_qr_scan"}, "is_disabled": 0, "fusion_lat": 0.0, "name": "08a61e85a91959e004ef13e435e0c678", "fusion_lon": 0.0}, {"is_reserved": 0, "type": "electric_scooter", "bike_id": "ed8ddadb8bd6ed2812944904bca09647", "lat": 38.91743116666667, "lon": -77.00922516666667, "rental_uris": {"android": "https://dc.lft.to/lastmile_qr_scan", "ios": "https://dc.lft.to/lastmile_qr_scan"}, "is_disabled": 0, "fusion_lat": 0.0, "name": "ed8ddadb8bd6ed2812944904bca09647", "fusion_lon": 0.0}, {"is_reserved": 0, "type": "electric_scooter", "bike_id": "07ae60970391fd23f65d803842b56cbf", "lat": 38.892690333333334, "lon": -76.92997716666666, "rental_uris": {"android": "https://dc.lft.to/lastmile_qr_scan", "ios": "https://dc.lft.to/lastmile_qr_scan"}, "is_disabled": 0, "fusion_lat": 0.0, "name": "07ae60970391fd23f65d803842b56cbf", "fusion_lon": 0.0}, {"is_reserved": 0, "type": "electric_scooter", "bike_id": "ac48f534a6286fabbdd9c53d1752f51d", "lat": 38.9169295, "lon": -77.026016, "rental_uris": {"android": "https://dc.lft.to/lastmile_qr_scan", "ios": "https://dc.lft.to/lastmile_qr_scan"}, "is_disabled": 0, "fusion_lat": 0.0, "name": "ac48f534a6286fabbdd9c53d1752f51d", "fusion_lon": 0.0}, {"is_reserved": 0, "type": "electric_scooter", "bike_id": "5ae08473a2816e7be516f6703c9a143b", "lat": 38.93009466666667, "lon": -77.01827583333333, "rental_uris": {"android": "https://dc.lft.to/lastmile_qr_scan", "ios": "https://dc.lft.to/lastmile_qr_scan"}, "is_disabled": 0, "fusion_lat": 0.0, "name": "5ae08473a2816e7be516f6703c9a143b", "fusion_lon": 0.0}, {"is_reserved": 0, "type": "electric_scooter", "bike_id": "dc9f2bf7d2a14fbbd5b5895bc3f99473", "lat": 38.908459666666666, "lon": -77.02591583333333, "rental_uris": {"android": "https://dc.lft.to/lastmile_qr_scan", "ios": "https://dc.lft.to/lastmile_qr_scan"}, "is_disabled": 0, "fusion_lat": 0.0, "name": "dc9f2bf7d2a14fbbd5b5895bc3f99473", "fusion_lon": 0.0}, {"is_reserved": 0, "type": "electric_scooter", "bike_id": "8806f1dd2925dcb56558e2492bfb911a", "lat": 38.89617666666667, "lon": -76.976853, "rental_uris": {"android": "https://dc.lft.to/lastmile_qr_scan", "ios": "https://dc.lft.to/lastmile_qr_scan"}, "is_disabled": 0, "fusion_lat": 0.0, "name": "8806f1dd2925dcb56558e2492bfb911a", "fusion_lon": 0.0}, {"is_reserved": 0, "type": "electric_scooter", "bike_id": "72ef60eae387e52f2b17e1f1af9ce028", "lat": 38.935335333333335, "lon": -77.02355833333333, "rental_uris": {"android": "https://dc.lft.to/lastmile_qr_scan", "ios": "https://dc.lft.to/lastmile_qr_scan"}, "is_disabled": 0, "fusion_lat": 0.0, "name": "72ef60eae387e52f2b17e1f1af9ce028", "fusion_lon": 0.0}, {"is_reserved": 0, "type": "electric_scooter", "bike_id": "74a71e7be277b255ad5ba5f7bee99e37", "lat": 38.90783016666666, "lon": -77.0024055, "rental_uris": {"android": "https://dc.lft.to/lastmile_qr_scan", "ios": "https://dc.lft.to/lastmile_qr_scan"}, "is_disabled": 0, "fusion_lat": 0.0, "name": "74a71e7be277b255ad5ba5f7bee99e37", "fusion_lon": 0.0}, {"is_reserved": 0, "type": "electric_scooter", "bike_id": "f906054e3396817fa6c9bedf6f72b281", "lat": 38.92826766666667, "lon": -77.0544055, "rental_uris": {"android": "https://dc.lft.to/lastmile_qr_scan", "ios": "https://dc.lft.to/lastmile_qr_scan"}, "is_disabled": 0, "fusion_lat": 0.0, "name": "f906054e3396817fa6c9bedf6f72b281", "fusion_lon": 0.0}, {"is_reserved": 0, "type": "electric_scooter", "bike_id": "31df1fe3678df68974daea220df4c2d9", "lat": 38.927533, "lon": -77.03306016666667, "rental_uris": {"android": "https://dc.lft.to/lastmile_qr_scan", "ios": "https://dc.lft.to/lastmile_qr_scan"}, "is_disabled": 0, "fusion_lat": 0.0, "name": "31df1fe3678df68974daea220df4c2d9", "fusion_lon": 0.0}, {"is_reserved": 0, "type": "electric_bike", "bike_id": "6cf4ab63cc278eeb9389862480cc5fa2", "lat": 39.0002875, "lon": -77.04743266666667, "rental_uris": {"android": "https://dc.lft.to/lastmile_qr_scan", "ios": "https://dc.lft.to/lastmile_qr_scan"}, "is_disabled": 0, "fusion_lat": 0.0, "name": "6cf4ab63cc278eeb9389862480cc5fa2", "fusion_lon": 0.0}, {"is_reserved": 0, "type": "electric_scooter", "bike_id": "8d531844e0891dc1d7a869a5b5a04c53", "lat": 38.92825633333333, "lon": -77.05441416666666, "rental_uris": {"android": "https://dc.lft.to/lastmile_qr_scan", "ios": "https://dc.lft.to/lastmile_qr_scan"}, "is_disabled": 0, "fusion_lat": 0.0, "name": "8d531844e0891dc1d7a869a5b5a04c53", "fusion_lon": 0.0}, {"is_reserved": 0, "type": "electric_scooter", "bike_id": "d2dff1b92d4710a2370dc5a676e845ba", "lat": 38.918352666666664, "lon": -77.01472516666666, "rental_uris": {"android": "https://dc.lft.to/lastmile_qr_scan", "ios": "https://dc.lft.to/lastmile_qr_scan"}, "is_disabled": 0, "fusion_lat": 0.0, "name": "d2dff1b92d4710a2370dc5a676e845ba", "fusion_lon": 0.0}, {"is_reserved": 0, "type": "electric_scooter", "bike_id": "9dadefeed50b94fa37b80c2f8ef0229d", "lat": 38.899472333333335, "lon": -76.9770375, "rental_uris": {"android": "https://dc.lft.to/lastmile_qr_scan", "ios": "https://dc.lft.to/lastmile_qr_scan"}, "is_disabled": 0, "fusion_lat": 0.0, "name": "9dadefeed50b94fa37b80c2f8ef0229d", "fusion_lon": 0.0}, {"is_reserved": 0, "type": "electric_scooter", "bike_id": "df860838446c7c5a1ee80ab13f41d72c", "lat": 38.8922805, "lon": -77.04360516666667, "rental_uris": {"android": "https://dc.lft.to/lastmile_qr_scan", "ios": "https://dc.lft.to/lastmile_qr_scan"}, "is_disabled": 0, "fusion_lat": 0.0, "name": "df860838446c7c5a1ee80ab13f41d72c", "fusion_lon": 0.0}, {"is_reserved": 0, "type": "electric_scooter", "bike_id": "3f39c052e73478737fcc011c50f0cf33", "lat": 38.95382166666667, "lon": -77.0018985, "rental_uris": {"android": "https://dc.lft.to/lastmile_qr_scan", "ios": "https://dc.lft.to/lastmile_qr_scan"}, "is_disabled": 0, "fusion_lat": 0.0, "name": "3f39c052e73478737fcc011c50f0cf33", "fusion_lon": 0.0}, {"is_reserved": 0, "type": "electric_scooter", "bike_id": "111557c646378e21b31cdc2fce8c89af", "lat": 38.90563266666667, "lon": -77.00608666666666, "rental_uris": {"android": "https://dc.lft.to/lastmile_qr_scan", "ios": "https://dc.lft.to/lastmile_qr_scan"}, "is_disabled": 0, "fusion_lat": 0.0, "name": "111557c646378e21b31cdc2fce8c89af", "fusion_lon": 0.0}, {"is_reserved": 0, "type": "electric_scooter", "bike_id": "ef7aca4e74f01ad8bda09369c1707478", "lat": 38.936214, "lon": -77.02479, "rental_uris": {"android": "https://dc.lft.to/lastmile_qr_scan", "ios": "https://dc.lft.to/lastmile_qr_scan"}, "is_disabled": 0, "fusion_lat": 0.0, "name": "ef7aca4e74f01ad8bda09369c1707478", "fusion_lon": 0.0}, {"is_reserved": 0, "type": "electric_scooter", "bike_id": "27f7f6fb65a514dc84f0041c0772e212", "lat": 38.8997245, "lon": -77.04759716666666, "rental_uris": {"android": "https://dc.lft.to/lastmile_qr_scan", "ios": "https://dc.lft.to/lastmile_qr_scan"}, "is_disabled": 0, "fusion_lat": 0.0, "name": "27f7f6fb65a514dc84f0041c0772e212", "fusion_lon": 0.0}, {"is_reserved": 0, "type": "electric_scooter", "bike_id": "49bf8d8b21fc3440895e980971e0796c", "lat": 38.9245735, "lon": -77.0522745, "rental_uris": {"android": "https://dc.lft.to/lastmile_qr_scan", "ios": "https://dc.lft.to/lastmile_qr_scan"}, "is_disabled": 0, "fusion_lat": 0.0, "name": "49bf8d8b21fc3440895e980971e0796c", "fusion_lon": 0.0}, {"is_reserved": 0, "type": "electric_scooter", "bike_id": "749f81bb63b2884ba10cdf63f0ed2de3", "lat": 38.86379083333333, "lon": -76.99066833333333, "rental_uris": {"android": "https://dc.lft.to/lastmile_qr_scan", "ios": "https://dc.lft.to/lastmile_qr_scan"}, "is_disabled": 0, "fusion_lat": 0.0, "name": "749f81bb63b2884ba10cdf63f0ed2de3", "fusion_lon": 0.0}, {"is_reserved": 0, "type": "electric_scooter", "bike_id": "ee679dd98b762ae630406b1f7580b385", "lat": 38.93460066666667, "lon": -77.02247066666666, "rental_uris": {"android": "https://dc.lft.to/lastmile_qr_scan", "ios": "https://dc.lft.to/lastmile_qr_scan"}, "is_disabled": 0, "fusion_lat": 0.0, "name": "ee679dd98b762ae630406b1f7580b385", "fusion_lon": 0.0}, {"is_reserved": 0, "type": "electric_scooter", "bike_id": "34b317d92fbfd34aac2337ec19ee4877", "lat": 38.92900916666667, "lon": -77.02253233333333, "rental_uris": {"android": "https://dc.lft.to/lastmile_qr_scan", "ios": "https://dc.lft.to/lastmile_qr_scan"}, "is_disabled": 0, "fusion_lat": 0.0, "name": "34b317d92fbfd34aac2337ec19ee4877", "fusion_lon": 0.0}, {"is_reserved": 0, "type": "electric_scooter", "bike_id": "a1fb13c506dd126ba323323ecb3cb8a7", "lat": 38.917636, "lon": -77.031634, "rental_uris": {"android": "https://dc.lft.to/lastmile_qr_scan", "ios": "https://dc.lft.to/lastmile_qr_scan"}, "is_disabled": 0, "fusion_lat": 0.0, "name": "a1fb13c506dd126ba323323ecb3cb8a7", "fusion_lon": 0.0}, {"is_reserved": 0, "type": "electric_scooter", "bike_id": "a33dd33abfb0191f7f426e31cfbb5c0f", "lat": 38.950912333333335, "lon": -77.02807866666667, "rental_uris": {"android": "https://dc.lft.to/lastmile_qr_scan", "ios": "https://dc.lft.to/lastmile_qr_scan"}, "is_disabled": 0, "fusion_lat": 0.0, "name": "a33dd33abfb0191f7f426e31cfbb5c0f", "fusion_lon": 0.0}, {"is_reserved": 0, "type": "electric_scooter", "bike_id": "c92cdd6ec17fcabf845be67456362fc4", "lat": 38.900633166666665, "lon": -76.98686766666667, "rental_uris": {"android": "https://dc.lft.to/lastmile_qr_scan", "ios": "https://dc.lft.to/lastmile_qr_scan"}, "is_disabled": 0, "fusion_lat": 0.0, "name": "c92cdd6ec17fcabf845be67456362fc4", "fusion_lon": 0.0}, {"is_reserved": 0, "type": "electric_scooter", "bike_id": "2d3c540d0fad679c2ddb54f169f06faf", "lat": 38.903717, "lon": -77.01110583333333, "rental_uris": {"android": "https://dc.lft.to/lastmile_qr_scan", "ios": "https://dc.lft.to/lastmile_qr_scan"}, "is_disabled": 0, "fusion_lat": 0.0, "name": "2d3c540d0fad679c2ddb54f169f06faf", "fusion_lon": 0.0}, {"is_reserved": 0, "type": "electric_scooter", "bike_id": "96fe2e1aa2c238dd1d088bfbfac2d9e5", "lat": 38.930012166666664, "lon": -77.0230405, "rental_uris": {"android": "https://dc.lft.to/lastmile_qr_scan", "ios": "https://dc.lft.to/lastmile_qr_scan"}, "is_disabled": 0, "fusion_lat": 0.0, "name": "96fe2e1aa2c238dd1d088bfbfac2d9e5", "fusion_lon": 0.0}, {"is_reserved": 0, "type": "electric_bike", "bike_id": "a2e1c347e553bc051d29e6b033e047c1", "lat": 38.895653333333335, "lon": -77.12737583333333, "rental_uris": {"android": "https://dc.lft.to/lastmile_qr_scan", "ios": "https://dc.lft.to/lastmile_qr_scan"}, "is_disabled": 0, "fusion_lat": 0.0, "name": "a2e1c347e553bc051d29e6b033e047c1", "fusion_lon": 0.0}, {"is_reserved": 0, "type": "electric_scooter", "bike_id": "5ec0892efb9ffa20e5e0ed478d0210a6", "lat": 38.94030766666667, "lon": -77.02644883333333, "rental_uris": {"android": "https://dc.lft.to/lastmile_qr_scan", "ios": "https://dc.lft.to/lastmile_qr_scan"}, "is_disabled": 0, "fusion_lat": 0.0, "name": "5ec0892efb9ffa20e5e0ed478d0210a6", "fusion_lon": 0.0}, {"is_reserved": 0, "type": "electric_scooter", "bike_id": "cab892da5a116032b845ba2614cc4662", "lat": 38.911755166666666, "lon": -77.028285, "rental_uris": {"android": "https://dc.lft.to/lastmile_qr_scan", "ios": "https://dc.lft.to/lastmile_qr_scan"}, "is_disabled": 0, "fusion_lat": 0.0, "name": "cab892da5a116032b845ba2614cc4662", "fusion_lon": 0.0}, {"is_reserved": 0, "type": "electric_scooter", "bike_id": "464c84997fc4bcb511d846b6ab4ae065", "lat": 38.864321333333336, "lon": -76.998635, "rental_uris": {"android": "https://dc.lft.to/lastmile_qr_scan", "ios": "https://dc.lft.to/lastmile_qr_scan"}, "is_disabled": 0, "fusion_lat": 0.0, "name": "464c84997fc4bcb511d846b6ab4ae065", "fusion_lon": 0.0}, {"is_reserved": 0, "type": "electric_scooter", "bike_id": "88adda044f1ec39d1e7ba99870521336", "lat": 38.923524, "lon": -76.9994875, "rental_uris": {"android": "https://dc.lft.to/lastmile_qr_scan", "ios": "https://dc.lft.to/lastmile_qr_scan"}, "is_disabled": 0, "fusion_lat": 0.0, "name": "88adda044f1ec39d1e7ba99870521336", "fusion_lon": 0.0}, {"is_reserved": 0, "type": "electric_scooter", "bike_id": "9ceba4f723c292bf6b174d83303954c7", "lat": 38.89973966666667, "lon": -77.031638, "rental_uris": {"android": "https://dc.lft.to/lastmile_qr_scan", "ios": "https://dc.lft.to/lastmile_qr_scan"}, "is_disabled": 0, "fusion_lat": 0.0, "name": "9ceba4f723c292bf6b174d83303954c7", "fusion_lon": 0.0}, {"is_reserved": 0, "type": "electric_scooter", "bike_id": "9439520af9b535a0906730a2b9c060fd", "lat": 38.9169205, "lon": -77.0316645, "rental_uris": {"android": "https://dc.lft.to/lastmile_qr_scan", "ios": "https://dc.lft.to/lastmile_qr_scan"}, "is_disabled": 0, "fusion_lat": 0.0, "name": "9439520af9b535a0906730a2b9c060fd", "fusion_lon": 0.0}, {"is_reserved": 0, "type": "electric_scooter", "bike_id": "5aa1d129d3c47a15275fa3e84ef459ba", "lat": 38.92459933333333, "lon": -77.008916, "rental_uris": {"android": "https://dc.lft.to/lastmile_qr_scan", "ios": "https://dc.lft.to/lastmile_qr_scan"}, "is_disabled": 0, "fusion_lat": 0.0, "name": "5aa1d129d3c47a15275fa3e84ef459ba", "fusion_lon": 0.0}, {"is_reserved": 0, "type": "electric_scooter", "bike_id": "8db9966d7d950cdb622e95a95668973c", "lat": 38.906652333333334, "lon": -77.07510883333333, "rental_uris": {"android": "https://dc.lft.to/lastmile_qr_scan", "ios": "https://dc.lft.to/lastmile_qr_scan"}, "is_disabled": 0, "fusion_lat": 0.0, "name": "8db9966d7d950cdb622e95a95668973c", "fusion_lon": 0.0}, {"is_reserved": 0, "type": "electric_scooter", "bike_id": "290a76f1b3196ec2edf61076a3e5d24c", "lat": 38.91643916666666, "lon": -77.0225505, "rental_uris": {"android": "https://dc.lft.to/lastmile_qr_scan", "ios": "https://dc.lft.to/lastmile_qr_scan"}, "is_disabled": 0, "fusion_lat": 0.0, "name": "290a76f1b3196ec2edf61076a3e5d24c", "fusion_lon": 0.0}, {"is_reserved": 0, "type": "electric_scooter", "bike_id": "7fa1e2e88606916c71793461bc13ab54", "lat": 38.893525, "lon": -77.01171283333333, "rental_uris": {"android": "https://dc.lft.to/lastmile_qr_scan", "ios": "https://dc.lft.to/lastmile_qr_scan"}, "is_disabled": 0, "fusion_lat": 0.0, "name": "7fa1e2e88606916c71793461bc13ab54", "fusion_lon": 0.0}, {"is_reserved": 0, "type": "electric_scooter", "bike_id": "64339b3462d1d87877d7bb1a6c246a36", "lat": 38.892276333333335, "lon": -77.04164516666667, "rental_uris": {"android": "https://dc.lft.to/lastmile_qr_scan", "ios": "https://dc.lft.to/lastmile_qr_scan"}, "is_disabled": 0, "fusion_lat": 0.0, "name": "64339b3462d1d87877d7bb1a6c246a36", "fusion_lon": 0.0}, {"is_reserved": 0, "type": "electric_scooter", "bike_id": "7f6e98f04c248f1373e2bd57be259508", "lat": 38.941902166666665, "lon": -77.0234565, "rental_uris": {"android": "https://dc.lft.to/lastmile_qr_scan", "ios": "https://dc.lft.to/lastmile_qr_scan"}, "is_disabled": 0, "fusion_lat": 0.0, "name": "7f6e98f04c248f1373e2bd57be259508", "fusion_lon": 0.0}, {"is_reserved": 0, "type": "electric_scooter", "bike_id": "9a2b73f25d5cc9cf0d21f5518618a087", "lat": 38.91421916666667, "lon": -77.01803033333333, "rental_uris": {"android": "https://dc.lft.to/lastmile_qr_scan", "ios": "https://dc.lft.to/lastmile_qr_scan"}, "is_disabled": 0, "fusion_lat": 0.0, "name": "9a2b73f25d5cc9cf0d21f5518618a087", "fusion_lon": 0.0}, {"is_reserved": 0, "type": "electric_scooter", "bike_id": "75664c6bb216942a8f209b434adb3513", "lat": 38.899931333333335, "lon": -77.027082, "rental_uris": {"android": "https://dc.lft.to/lastmile_qr_scan", "ios": "https://dc.lft.to/lastmile_qr_scan"}, "is_disabled": 0, "fusion_lat": 0.0, "name": "75664c6bb216942a8f209b434adb3513", "fusion_lon": 0.0}, {"is_reserved": 0, "type": "electric_bike", "bike_id": "31dda52488db78521b8d41ad4dc85239", "lat": 38.9575685, "lon": -76.98024583333333, "rental_uris": {"android": "https://dc.lft.to/lastmile_qr_scan", "ios": "https://dc.lft.to/lastmile_qr_scan"}, "is_disabled": 0, "fusion_lat": 0.0, "name": "31dda52488db78521b8d41ad4dc85239", "fusion_lon": 0.0}, {"is_reserved": 0, "type": "electric_scooter", "bike_id": "96dec9b1f54b5495581a33611a15cb58", "lat": 38.90196016666667, "lon": -77.02185433333334, "rental_uris": {"android": "https://dc.lft.to/lastmile_qr_scan", "ios": "https://dc.lft.to/lastmile_qr_scan"}, "is_disabled": 0, "fusion_lat": 0.0, "name": "96dec9b1f54b5495581a33611a15cb58", "fusion_lon": 0.0}, {"is_reserved": 0, "type": "electric_scooter", "bike_id": "ec04341132e81f31f4c7f3106bf8d061", "lat": 38.903500333333334, "lon": -76.98614033333334, "rental_uris": {"android": "https://dc.lft.to/lastmile_qr_scan", "ios": "https://dc.lft.to/lastmile_qr_scan"}, "is_disabled": 0, "fusion_lat": 0.0, "name": "ec04341132e81f31f4c7f3106bf8d061", "fusion_lon": 0.0}, {"is_reserved": 0, "type": "electric_scooter", "bike_id": "1a5248d1b9180e2ed1af66c6e2145d39", "lat": 38.902559833333335, "lon": -77.01767383333333, "rental_uris": {"android": "https://dc.lft.to/lastmile_qr_scan", "ios": "https://dc.lft.to/lastmile_qr_scan"}, "is_disabled": 0, "fusion_lat": 0.0, "name": "1a5248d1b9180e2ed1af66c6e2145d39", "fusion_lon": 0.0}, {"is_reserved": 0, "type": "electric_scooter", "bike_id": "f5eeb9ff672bc49438291326e66e93c5", "lat": 38.930762333333334, "lon": -77.02818583333334, "rental_uris": {"android": "https://dc.lft.to/lastmile_qr_scan", "ios": "https://dc.lft.to/lastmile_qr_scan"}, "is_disabled": 0, "fusion_lat": 0.0, "name": "f5eeb9ff672bc49438291326e66e93c5", "fusion_lon": 0.0}, {"is_reserved": 0, "type": "electric_scooter", "bike_id": "73419103303e66a1a03f22915cd8d6aa", "lat": 38.907677, "lon": -77.00043466666666, "rental_uris": {"android": "https://dc.lft.to/lastmile_qr_scan", "ios": "https://dc.lft.to/lastmile_qr_scan"}, "is_disabled": 0, "fusion_lat": 0.0, "name": "73419103303e66a1a03f22915cd8d6aa", "fusion_lon": 0.0}, {"is_reserved": 0, "type": "electric_scooter", "bike_id": "d18500e16ae4ab67da4a8872bb6dc917", "lat": 38.923594, "lon": -77.05114316666666, "rental_uris": {"android": "https://dc.lft.to/lastmile_qr_scan", "ios": "https://dc.lft.to/lastmile_qr_scan"}, "is_disabled": 0, "fusion_lat": 0.0, "name": "d18500e16ae4ab67da4a8872bb6dc917", "fusion_lon": 0.0}, {"is_reserved": 0, "type": "electric_scooter", "bike_id": "4fab65542fd38012c700bb6ec58bd400", "lat": 38.93991966666667, "lon": -77.02004566666666, "rental_uris": {"android": "https://dc.lft.to/lastmile_qr_scan", "ios": "https://dc.lft.to/lastmile_qr_scan"}, "is_disabled": 0, "fusion_lat": 0.0, "name": "4fab65542fd38012c700bb6ec58bd400", "fusion_lon": 0.0}, {"is_reserved": 0, "type": "electric_scooter", "bike_id": "555736b3900e2487bc0be0edd31b9469", "lat": 38.91273733333333, "lon": -77.012252, "rental_uris": {"android": "https://dc.lft.to/lastmile_qr_scan", "ios": "https://dc.lft.to/lastmile_qr_scan"}, "is_disabled": 0, "fusion_lat": 0.0, "name": "555736b3900e2487bc0be0edd31b9469", "fusion_lon": 0.0}, {"is_reserved": 0, "type": "electric_scooter", "bike_id": "e820ace467430e8f5b5af24fe95ada9a", "lat": 38.975205333333335, "lon": -77.01745466666667, "rental_uris": {"android": "https://dc.lft.to/lastmile_qr_scan", "ios": "https://dc.lft.to/lastmile_qr_scan"}, "is_disabled": 0, "fusion_lat": 0.0, "name": "e820ace467430e8f5b5af24fe95ada9a", "fusion_lon": 0.0}, {"is_reserved": 0, "type": "electric_scooter", "bike_id": "1e80df05e15dd55faeeec84cbcccd348", "lat": 38.975215666666664, "lon": -77.017457, "rental_uris": {"android": "https://dc.lft.to/lastmile_qr_scan", "ios": "https://dc.lft.to/lastmile_qr_scan"}, "is_disabled": 0, "fusion_lat": 0.0, "name": "1e80df05e15dd55faeeec84cbcccd348", "fusion_lon": 0.0}, {"is_reserved": 0, "type": "electric_scooter", "bike_id": "6425773aca56d0d2f6deb2ae62582e38", "lat": 38.892288666666666, "lon": -77.04488033333334, "rental_uris": {"android": "https://dc.lft.to/lastmile_qr_scan", "ios": "https://dc.lft.to/lastmile_qr_scan"}, "is_disabled": 0, "fusion_lat": 0.0, "name": "6425773aca56d0d2f6deb2ae62582e38", "fusion_lon": 0.0}, {"is_reserved": 0, "type": "electric_scooter", "bike_id": "ce87865b52608bc2b51fa47d14a173ce", "lat": 38.88382633333333, "lon": -77.04610666666666, "rental_uris": {"android": "https://dc.lft.to/lastmile_qr_scan", "ios": "https://dc.lft.to/lastmile_qr_scan"}, "is_disabled": 0, "fusion_lat": 0.0, "name": "ce87865b52608bc2b51fa47d14a173ce", "fusion_lon": 0.0}, {"is_reserved": 0, "type": "electric_scooter", "bike_id": "a75a7df8b98d28d2e91bf4cc76240afc", "lat": 38.90902483333333, "lon": -76.99620916666667, "rental_uris": {"android": "https://dc.lft.to/lastmile_qr_scan", "ios": "https://dc.lft.to/lastmile_qr_scan"}, "is_disabled": 0, "fusion_lat": 0.0, "name": "a75a7df8b98d28d2e91bf4cc76240afc", "fusion_lon": 0.0}, {"is_reserved": 0, "type": "electric_scooter", "bike_id": "2f16ff32f12443dffd055b88ec46a568", "lat": 38.93358683333334, "lon": -77.05725683333333, "rental_uris": {"android": "https://dc.lft.to/lastmile_qr_scan", "ios": "https://dc.lft.to/lastmile_qr_scan"}, "is_disabled": 0, "fusion_lat": 0.0, "name": "2f16ff32f12443dffd055b88ec46a568", "fusion_lon": 0.0}, {"is_reserved": 0, "type": "electric_scooter", "bike_id": "0dc837bccf328065d411b9860702e4db", "lat": 38.918234, "lon": -77.01220533333333, "rental_uris": {"android": "https://dc.lft.to/lastmile_qr_scan", "ios": "https://dc.lft.to/lastmile_qr_scan"}, "is_disabled": 0, "fusion_lat": 0.0, "name": "0dc837bccf328065d411b9860702e4db", "fusion_lon": 0.0}, {"is_reserved": 0, "type": "electric_scooter", "bike_id": "675883defe756b2add95b77a6a368303", "lat": 38.92332283333333, "lon": -77.05240383333333, "rental_uris": {"android": "https://dc.lft.to/lastmile_qr_scan", "ios": "https://dc.lft.to/lastmile_qr_scan"}, "is_disabled": 0, "fusion_lat": 0.0, "name": "675883defe756b2add95b77a6a368303", "fusion_lon": 0.0}, {"is_reserved": 0, "type": "electric_scooter", "bike_id": "a65e0c0a51e396acb27f1cc8693e6c16", "lat": 38.905878666666666, "lon": -77.029942, "rental_uris": {"android": "https://dc.lft.to/lastmile_qr_scan", "ios": "https://dc.lft.to/lastmile_qr_scan"}, "is_disabled": 0, "fusion_lat": 0.0, "name": "a65e0c0a51e396acb27f1cc8693e6c16", "fusion_lon": 0.0}, {"is_reserved": 0, "type": "electric_scooter", "bike_id": "a167da3eb0d24a93e31e059a9819bbad", "lat": 38.926364, "lon": -77.0425295, "rental_uris": {"android": "https://dc.lft.to/lastmile_qr_scan", "ios": "https://dc.lft.to/lastmile_qr_scan"}, "is_disabled": 0, "fusion_lat": 0.0, "name": "a167da3eb0d24a93e31e059a9819bbad", "fusion_lon": 0.0}, {"is_reserved": 0, "type": "electric_scooter", "bike_id": "b3b6fedcba4bd62dac42300d1c6fae86", "lat": 38.932616833333334, "lon": -77.02067816666667, "rental_uris": {"android": "https://dc.lft.to/lastmile_qr_scan", "ios": "https://dc.lft.to/lastmile_qr_scan"}, "is_disabled": 0, "fusion_lat": 0.0, "name": "b3b6fedcba4bd62dac42300d1c6fae86", "fusion_lon": 0.0}, {"is_reserved": 0, "type": "electric_scooter", "bike_id": "b6baa3239e1801cd77ab22844e319fe5", "lat": 38.924109666666666, "lon": -77.04274833333334, "rental_uris": {"android": "https://dc.lft.to/lastmile_qr_scan", "ios": "https://dc.lft.to/lastmile_qr_scan"}, "is_disabled": 0, "fusion_lat": 0.0, "name": "b6baa3239e1801cd77ab22844e319fe5", "fusion_lon": 0.0}, {"is_reserved": 0, "type": "electric_scooter", "bike_id": "05df38d7f86f89d03601c58eb74abf26", "lat": 38.8947125, "lon": -77.02626066666667, "rental_uris": {"android": "https://dc.lft.to/lastmile_qr_scan", "ios": "https://dc.lft.to/lastmile_qr_scan"}, "is_disabled": 0, "fusion_lat": 0.0, "name": "05df38d7f86f89d03601c58eb74abf26", "fusion_lon": 0.0}, {"is_reserved": 0, "type": "electric_scooter", "bike_id": "582cbc214aa6c447c674959c87c1ff2d", "lat": 38.943274333333335, "lon": -77.01258983333334, "rental_uris": {"android": "https://dc.lft.to/lastmile_qr_scan", "ios": "https://dc.lft.to/lastmile_qr_scan"}, "is_disabled": 0, "fusion_lat": 0.0, "name": "582cbc214aa6c447c674959c87c1ff2d", "fusion_lon": 0.0}, {"is_reserved": 0, "type": "electric_scooter", "bike_id": "577aeaee722b6ac994900d6db3bdde00", "lat": 38.89885183333333, "lon": -77.00751033333333, "rental_uris": {"android": "https://dc.lft.to/lastmile_qr_scan", "ios": "https://dc.lft.to/lastmile_qr_scan"}, "is_disabled": 0, "fusion_lat": 0.0, "name": "577aeaee722b6ac994900d6db3bdde00", "fusion_lon": 0.0}, {"is_reserved": 0, "type": "electric_scooter", "bike_id": "2b56a924b005bc0215cf650b2d0f7055", "lat": 38.943317, "lon": -77.06524233333333, "rental_uris": {"android": "https://dc.lft.to/lastmile_qr_scan", "ios": "https://dc.lft.to/lastmile_qr_scan"}, "is_disabled": 0, "fusion_lat": 0.0, "name": "2b56a924b005bc0215cf650b2d0f7055", "fusion_lon": 0.0}, {"is_reserved": 0, "type": "electric_scooter", "bike_id": "306f5d76945b6b41d875d54baaaeef41", "lat": 38.89787616666667, "lon": -77.016742, "rental_uris": {"android": "https://dc.lft.to/lastmile_qr_scan", "ios": "https://dc.lft.to/lastmile_qr_scan"}, "is_disabled": 0, "fusion_lat": 0.0, "name": "306f5d76945b6b41d875d54baaaeef41", "fusion_lon": 0.0}, {"is_reserved": 0, "type": "electric_scooter", "bike_id": "2fc8e3a76df061834e40d5b71e0f6974", "lat": 38.92235766666667, "lon": -77.03521, "rental_uris": {"android": "https://dc.lft.to/lastmile_qr_scan", "ios": "https://dc.lft.to/lastmile_qr_scan"}, "is_disabled": 0, "fusion_lat": 0.0, "name": "2fc8e3a76df061834e40d5b71e0f6974", "fusion_lon": 0.0}, {"is_reserved": 0, "type": "electric_scooter", "bike_id": "bf75fc6a76de7d958cdb8d64cffc7ea4", "lat": 38.9418135, "lon": -77.025673, "rental_uris": {"android": "https://dc.lft.to/lastmile_qr_scan", "ios": "https://dc.lft.to/lastmile_qr_scan"}, "is_disabled": 0, "fusion_lat": 0.0, "name": "bf75fc6a76de7d958cdb8d64cffc7ea4", "fusion_lon": 0.0}, {"is_reserved": 0, "type": "electric_scooter", "bike_id": "5d3e43861924d695bf3af27f8fd134ce", "lat": 38.9147525, "lon": -77.0260605, "rental_uris": {"android": "https://dc.lft.to/lastmile_qr_scan", "ios": "https://dc.lft.to/lastmile_qr_scan"}, "is_disabled": 0, "fusion_lat": 0.0, "name": "5d3e43861924d695bf3af27f8fd134ce", "fusion_lon": 0.0}, {"is_reserved": 0, "type": "electric_scooter", "bike_id": "5f6d5a6c514b974975be83b22ff76a76", "lat": 38.8786905, "lon": -76.96261083333333, "rental_uris": {"android": "https://dc.lft.to/lastmile_qr_scan", "ios": "https://dc.lft.to/lastmile_qr_scan"}, "is_disabled": 0, "fusion_lat": 0.0, "name": "5f6d5a6c514b974975be83b22ff76a76", "fusion_lon": 0.0}, {"is_reserved": 0, "type": "electric_scooter", "bike_id": "569b3d2539d4152888c1b97d953ce955", "lat": 38.926086833333336, "lon": -77.0215875, "rental_uris": {"android": "https://dc.lft.to/lastmile_qr_scan", "ios": "https://dc.lft.to/lastmile_qr_scan"}, "is_disabled": 0, "fusion_lat": 0.0, "name": "569b3d2539d4152888c1b97d953ce955", "fusion_lon": 0.0}, {"is_reserved": 0, "type": "electric_scooter", "bike_id": "996d49b7d8da13401f0452b4c8d4f997", "lat": 38.90067033333333, "lon": -77.00758083333334, "rental_uris": {"android": "https://dc.lft.to/lastmile_qr_scan", "ios": "https://dc.lft.to/lastmile_qr_scan"}, "is_disabled": 0, "fusion_lat": 0.0, "name": "996d49b7d8da13401f0452b4c8d4f997", "fusion_lon": 0.0}, {"is_reserved": 0, "type": "electric_scooter", "bike_id": "079a360254b2d538ddf90ec39bc595d8", "lat": 38.912749833333336, "lon": -77.03871683333334, "rental_uris": {"android": "https://dc.lft.to/lastmile_qr_scan", "ios": "https://dc.lft.to/lastmile_qr_scan"}, "is_disabled": 0, "fusion_lat": 0.0, "name": "079a360254b2d538ddf90ec39bc595d8", "fusion_lon": 0.0}, {"is_reserved": 0, "type": "electric_scooter", "bike_id": "0f71601a95126d2171b260ce352ac4e9", "lat": 38.924280333333336, "lon": -77.019474, "rental_uris": {"android": "https://dc.lft.to/lastmile_qr_scan", "ios": "https://dc.lft.to/lastmile_qr_scan"}, "is_disabled": 0, "fusion_lat": 0.0, "name": "0f71601a95126d2171b260ce352ac4e9", "fusion_lon": 0.0}, {"is_reserved": 0, "type": "electric_scooter", "bike_id": "debb2b8cf79ed9f0e8d52a479b1c011b", "lat": 38.89577416666667, "lon": -77.0413985, "rental_uris": {"android": "https://dc.lft.to/lastmile_qr_scan", "ios": "https://dc.lft.to/lastmile_qr_scan"}, "is_disabled": 0, "fusion_lat": 0.0, "name": "debb2b8cf79ed9f0e8d52a479b1c011b", "fusion_lon": 0.0}, {"is_reserved": 0, "type": "electric_scooter", "bike_id": "f231a9fd4b077cfb5e14df0d0c87a65a", "lat": 38.918596, "lon": -77.035745, "rental_uris": {"android": "https://dc.lft.to/lastmile_qr_scan", "ios": "https://dc.lft.to/lastmile_qr_scan"}, "is_disabled": 0, "fusion_lat": 0.0, "name": "f231a9fd4b077cfb5e14df0d0c87a65a", "fusion_lon": 0.0}, {"is_reserved": 0, "type": "electric_scooter", "bike_id": "1469a4ed711431aed55a9a98596c8714", "lat": 38.90378066666667, "lon": -77.01646066666666, "rental_uris": {"android": "https://dc.lft.to/lastmile_qr_scan", "ios": "https://dc.lft.to/lastmile_qr_scan"}, "is_disabled": 0, "fusion_lat": 0.0, "name": "1469a4ed711431aed55a9a98596c8714", "fusion_lon": 0.0}, {"is_reserved": 0, "type": "electric_bike", "bike_id": "e5eca49b2dc5479ae54f57a5895a2e4e", "lat": 38.965610833333336, "lon": -77.028297, "rental_uris": {"android": "https://dc.lft.to/lastmile_qr_scan", "ios": "https://dc.lft.to/lastmile_qr_scan"}, "is_disabled": 0, "fusion_lat": 0.0, "name": "e5eca49b2dc5479ae54f57a5895a2e4e", "fusion_lon": 0.0}, {"is_reserved": 0, "type": "electric_scooter", "bike_id": "ba2604d9fee0f3c67a3fc616a76a66ea", "lat": 38.907947166666666, "lon": -77.04785, "rental_uris": {"android": "https://dc.lft.to/lastmile_qr_scan", "ios": "https://dc.lft.to/lastmile_qr_scan"}, "is_disabled": 0, "fusion_lat": 0.0, "name": "ba2604d9fee0f3c67a3fc616a76a66ea", "fusion_lon": 0.0}, {"is_reserved": 0, "type": "electric_scooter", "bike_id": "37ae6c7b524ac913dab038b8fb9d2a79", "lat": 38.9008825, "lon": -76.98017133333333, "rental_uris": {"android": "https://dc.lft.to/lastmile_qr_scan", "ios": "https://dc.lft.to/lastmile_qr_scan"}, "is_disabled": 0, "fusion_lat": 0.0, "name": "37ae6c7b524ac913dab038b8fb9d2a79", "fusion_lon": 0.0}, {"is_reserved": 0, "type": "electric_scooter", "bike_id": "8b587b2c8ffd9778964343eca50c0f8a", "lat": 38.90970016666667, "lon": -77.00775016666667, "rental_uris": {"android": "https://dc.lft.to/lastmile_qr_scan", "ios": "https://dc.lft.to/lastmile_qr_scan"}, "is_disabled": 0, "fusion_lat": 0.0, "name": "8b587b2c8ffd9778964343eca50c0f8a", "fusion_lon": 0.0}, {"is_reserved": 0, "type": "electric_scooter", "bike_id": "9e062776413e3721793ee7e5f3b73f99", "lat": 38.925764666666666, "lon": -77.0376615, "rental_uris": {"android": "https://dc.lft.to/lastmile_qr_scan", "ios": "https://dc.lft.to/lastmile_qr_scan"}, "is_disabled": 0, "fusion_lat": 0.0, "name": "9e062776413e3721793ee7e5f3b73f99", "fusion_lon": 0.0}, {"is_reserved": 0, "type": "electric_scooter", "bike_id": "3a31f5c330e966d5405f04bbd7974ad0", "lat": 38.88729766666667, "lon": -76.98383316666667, "rental_uris": {"android": "https://dc.lft.to/lastmile_qr_scan", "ios": "https://dc.lft.to/lastmile_qr_scan"}, "is_disabled": 0, "fusion_lat": 0.0, "name": "3a31f5c330e966d5405f04bbd7974ad0", "fusion_lon": 0.0}, {"is_reserved": 0, "type": "electric_scooter", "bike_id": "a71591c7c7642f0d1baf36d5a90f8de0", "lat": 38.921722, "lon": -77.04018, "rental_uris": {"android": "https://dc.lft.to/lastmile_qr_scan", "ios": "https://dc.lft.to/lastmile_qr_scan"}, "is_disabled": 0, "fusion_lat": 0.0, "name": "a71591c7c7642f0d1baf36d5a90f8de0", "fusion_lon": 0.0}, {"is_reserved": 0, "type": "electric_scooter", "bike_id": "5ea9e051fd710d2edd51a5c7ba90bca9", "lat": 38.894422166666665, "lon": -77.0453205, "rental_uris": {"android": "https://dc.lft.to/lastmile_qr_scan", "ios": "https://dc.lft.to/lastmile_qr_scan"}, "is_disabled": 0, "fusion_lat": 0.0, "name": "5ea9e051fd710d2edd51a5c7ba90bca9", "fusion_lon": 0.0}, {"is_reserved": 0, "type": "electric_scooter", "bike_id": "188fdc7efe9bd614ba1dc742ef259b80", "lat": 38.913042833333336, "lon": -77.02695416666667, "rental_uris": {"android": "https://dc.lft.to/lastmile_qr_scan", "ios": "https://dc.lft.to/lastmile_qr_scan"}, "is_disabled": 0, "fusion_lat": 0.0, "name": "188fdc7efe9bd614ba1dc742ef259b80", "fusion_lon": 0.0}, {"is_reserved": 0, "type": "electric_scooter", "bike_id": "da7d81d150aff3329513bf9f4847fac2", "lat": 38.91267233333333, "lon": -77.03145116666667, "rental_uris": {"android": "https://dc.lft.to/lastmile_qr_scan", "ios": "https://dc.lft.to/lastmile_qr_scan"}, "is_disabled": 0, "fusion_lat": 0.0, "name": "da7d81d150aff3329513bf9f4847fac2", "fusion_lon": 0.0}, {"is_reserved": 0, "type": "electric_scooter", "bike_id": "58a0e46f4338745ce23ee5705f9be5a0", "lat": 38.91884066666667, "lon": -77.02716516666666, "rental_uris": {"android": "https://dc.lft.to/lastmile_qr_scan", "ios": "https://dc.lft.to/lastmile_qr_scan"}, "is_disabled": 0, "fusion_lat": 0.0, "name": "58a0e46f4338745ce23ee5705f9be5a0", "fusion_lon": 0.0}, {"is_reserved": 0, "type": "electric_scooter", "bike_id": "62550c4fc376a09e6b491ac708d734d8", "lat": 38.907767166666666, "lon": -77.0023035, "rental_uris": {"android": "https://dc.lft.to/lastmile_qr_scan", "ios": "https://dc.lft.to/lastmile_qr_scan"}, "is_disabled": 0, "fusion_lat": 0.0, "name": "62550c4fc376a09e6b491ac708d734d8", "fusion_lon": 0.0}, {"is_reserved": 0, "type": "electric_bike", "bike_id": "429e1d02ba37cf165d837516d403fd96", "lat": 38.807342, "lon": -76.99254616666667, "rental_uris": {"android": "https://dc.lft.to/lastmile_qr_scan", "ios": "https://dc.lft.to/lastmile_qr_scan"}, "is_disabled": 0, "fusion_lat": 0.0, "name": "429e1d02ba37cf165d837516d403fd96", "fusion_lon": 0.0}, {"is_reserved": 0, "type": "electric_scooter", "bike_id": "3f3f70099c484547c51feef2a345e22b", "lat": 38.928967, "lon": -77.02558816666667, "rental_uris": {"android": "https://dc.lft.to/lastmile_qr_scan", "ios": "https://dc.lft.to/lastmile_qr_scan"}, "is_disabled": 0, "fusion_lat": 0.0, "name": "3f3f70099c484547c51feef2a345e22b", "fusion_lon": 0.0}, {"is_reserved": 0, "type": "electric_bike", "bike_id": "a25271b505b32e95825f9037a5427257", "lat": 38.88839316666667, "lon": -76.9575345, "rental_uris": {"android": "https://dc.lft.to/lastmile_qr_scan", "ios": "https://dc.lft.to/lastmile_qr_scan"}, "is_disabled": 0, "fusion_lat": 0.0, "name": "a25271b505b32e95825f9037a5427257", "fusion_lon": 0.0}, {"is_reserved": 0, "type": "electric_scooter", "bike_id": "cd0b32af51d7592829d3bbb2ae6bcfa0", "lat": 38.936044833333334, "lon": -77.05870916666667, "rental_uris": {"android": "https://dc.lft.to/lastmile_qr_scan", "ios": "https://dc.lft.to/lastmile_qr_scan"}, "is_disabled": 0, "fusion_lat": 0.0, "name": "cd0b32af51d7592829d3bbb2ae6bcfa0", "fusion_lon": 0.0}, {"is_reserved": 0, "type": "electric_scooter", "bike_id": "6c2a381aaad238107cd1e03252683d35", "lat": 38.901663166666665, "lon": -76.9302475, "rental_uris": {"android": "https://dc.lft.to/lastmile_qr_scan", "ios": "https://dc.lft.to/lastmile_qr_scan"}, "is_disabled": 0, "fusion_lat": 0.0, "name": "6c2a381aaad238107cd1e03252683d35", "fusion_lon": 0.0}, {"is_reserved": 0, "type": "electric_scooter", "bike_id": "2f5ffb44eb6a3984c379e7986ef4c077", "lat": 38.86595466666667, "lon": -76.97463933333333, "rental_uris": {"android": "https://dc.lft.to/lastmile_qr_scan", "ios": "https://dc.lft.to/lastmile_qr_scan"}, "is_disabled": 0, "fusion_lat": 0.0, "name": "2f5ffb44eb6a3984c379e7986ef4c077", "fusion_lon": 0.0}, {"is_reserved": 0, "type": "electric_scooter", "bike_id": "4e47b6eb3433485152907cf73a8f10c1", "lat": 38.9197245, "lon": -77.0435935, "rental_uris": {"android": "https://dc.lft.to/lastmile_qr_scan", "ios": "https://dc.lft.to/lastmile_qr_scan"}, "is_disabled": 0, "fusion_lat": 0.0, "name": "4e47b6eb3433485152907cf73a8f10c1", "fusion_lon": 0.0}, {"is_reserved": 0, "type": "electric_scooter", "bike_id": "d777947b8d3d726698c12ce6e026b839", "lat": 38.90575916666667, "lon": -77.007869, "rental_uris": {"android": "https://dc.lft.to/lastmile_qr_scan", "ios": "https://dc.lft.to/lastmile_qr_scan"}, "is_disabled": 0, "fusion_lat": 0.0, "name": "d777947b8d3d726698c12ce6e026b839", "fusion_lon": 0.0}, {"is_reserved": 0, "type": "electric_scooter", "bike_id": "85b9335c1852d703ed23e3c3cb6ae2f3", "lat": 38.905506, "lon": -77.00545683333333, "rental_uris": {"android": "https://dc.lft.to/lastmile_qr_scan", "ios": "https://dc.lft.to/lastmile_qr_scan"}, "is_disabled": 0, "fusion_lat": 0.0, "name": "85b9335c1852d703ed23e3c3cb6ae2f3", "fusion_lon": 0.0}, {"is_reserved": 0, "type": "electric_scooter", "bike_id": "f3eeee62fc026f1fa145b98e2b0a35eb", "lat": 38.9019705, "lon": -76.982029, "rental_uris": {"android": "https://dc.lft.to/lastmile_qr_scan", "ios": "https://dc.lft.to/lastmile_qr_scan"}, "is_disabled": 0, "fusion_lat": 0.0, "name": "f3eeee62fc026f1fa145b98e2b0a35eb", "fusion_lon": 0.0}, {"is_reserved": 0, "type": "electric_scooter", "bike_id": "252c3e366b82f02d14b305f30135b59d", "lat": 38.93655733333333, "lon": -77.021369, "rental_uris": {"android": "https://dc.lft.to/lastmile_qr_scan", "ios": "https://dc.lft.to/lastmile_qr_scan"}, "is_disabled": 0, "fusion_lat": 0.0, "name": "252c3e366b82f02d14b305f30135b59d", "fusion_lon": 0.0}, {"is_reserved": 0, "type": "electric_scooter", "bike_id": "eafcb3fcca93bc3f059ab825af7579dd", "lat": 38.918036666666666, "lon": -77.0344415, "rental_uris": {"android": "https://dc.lft.to/lastmile_qr_scan", "ios": "https://dc.lft.to/lastmile_qr_scan"}, "is_disabled": 0, "fusion_lat": 0.0, "name": "eafcb3fcca93bc3f059ab825af7579dd", "fusion_lon": 0.0}, {"is_reserved": 0, "type": "electric_scooter", "bike_id": "e0675c372aa0e4b708cd89771612c2f3", "lat": 38.916612666666666, "lon": -77.02472683333333, "rental_uris": {"android": "https://dc.lft.to/lastmile_qr_scan", "ios": "https://dc.lft.to/lastmile_qr_scan"}, "is_disabled": 0, "fusion_lat": 0.0, "name": "e0675c372aa0e4b708cd89771612c2f3", "fusion_lon": 0.0}, {"is_reserved": 0, "type": "electric_scooter", "bike_id": "71fa8edbbc5d7a9270c569751ad2ee02", "lat": 38.90035233333333, "lon": -77.0023095, "rental_uris": {"android": "https://dc.lft.to/lastmile_qr_scan", "ios": "https://dc.lft.to/lastmile_qr_scan"}, "is_disabled": 0, "fusion_lat": 0.0, "name": "71fa8edbbc5d7a9270c569751ad2ee02", "fusion_lon": 0.0}, {"is_reserved": 0, "type": "electric_scooter", "bike_id": "2d1ff08c9166533cc5fffa57e17986f1", "lat": 38.915510833333336, "lon": -77.032528, "rental_uris": {"android": "https://dc.lft.to/lastmile_qr_scan", "ios": "https://dc.lft.to/lastmile_qr_scan"}, "is_disabled": 0, "fusion_lat": 0.0, "name": "2d1ff08c9166533cc5fffa57e17986f1", "fusion_lon": 0.0}, {"is_reserved": 0, "type": "electric_scooter", "bike_id": "f415689afe057a0cf944d83c891e159e", "lat": 38.89226633333333, "lon": -77.0500135, "rental_uris": {"android": "https://dc.lft.to/lastmile_qr_scan", "ios": "https://dc.lft.to/lastmile_qr_scan"}, "is_disabled": 0, "fusion_lat": 0.0, "name": "f415689afe057a0cf944d83c891e159e", "fusion_lon": 0.0}, {"is_reserved": 0, "type": "electric_scooter", "bike_id": "f493f46967e53839831645947132e729", "lat": 38.9196915, "lon": -77.0186615, "rental_uris": {"android": "https://dc.lft.to/lastmile_qr_scan", "ios": "https://dc.lft.to/lastmile_qr_scan"}, "is_disabled": 0, "fusion_lat": 0.0, "name": "f493f46967e53839831645947132e729", "fusion_lon": 0.0}, {"is_reserved": 0, "type": "electric_scooter", "bike_id": "a7f591c5abd940aa52f25df676da5d60", "lat": 38.867182166666666, "lon": -76.98072433333333, "rental_uris": {"android": "https://dc.lft.to/lastmile_qr_scan", "ios": "https://dc.lft.to/lastmile_qr_scan"}, "is_disabled": 0, "fusion_lat": 0.0, "name": "a7f591c5abd940aa52f25df676da5d60", "fusion_lon": 0.0}, {"is_reserved": 0, "type": "electric_scooter", "bike_id": "611f124a5b7bf495edde1a10293d44b6", "lat": 38.8765435, "lon": -77.0207865, "rental_uris": {"android": "https://dc.lft.to/lastmile_qr_scan", "ios": "https://dc.lft.to/lastmile_qr_scan"}, "is_disabled": 0, "fusion_lat": 0.0, "name": "611f124a5b7bf495edde1a10293d44b6", "fusion_lon": 0.0},