{"data": {"bikes": [{"rental_uris": {"android": "https://dc.lft.to/lastmile_qr_scan", "ios": "https://dc.lft.to/lastmile_qr_scan"}, "type": "electric_scooter", "lon": -76.9941095, "name": "6db19f1c3dcfdf13e0a14b793e5f48df", "bike_id": "6db19f1c3dcfdf13e0a14b793e5f48df", "fusion_lat": 0.0, "is_reserved": 0, "lat": 38.877849166666664, "fusion_lon": 0.0, "is_disabled": 0}, {"rental_uris": {"android": "https://dc.lft.to/lastmile_qr_scan", "ios": "https://dc.lft.to/lastmile_qr_scan"}, "type": "electric_scooter", "lon": -76.98598666666666, "name": "00f649dc8dfa6198bd4fbde9d1b58aff", "bike_id": "00f649dc8dfa6198bd4fbde9d1b58aff", "fusion_lat": 0.0, "is_reserved": 0, "lat": 38.8991925, "fusion_lon": 0.0, "is_disabled": 0}, {"rental_uris": {"android": "https://dc.lft.to/lastmile_qr_scan", "ios": "https://dc.lft.to/lastmile_qr_scan"}, "type": "electric_scooter", "lon": -77.038834, "name": "4f7166f47b635743f4913a6033e5d9d0", "bike_id": "4f7166f47b635743f4913a6033e5d9d0", "fusion_lat": 0.0, "is_reserved": 0, "lat": 38.9336755, "fusion_lon": 0.0, "is_disabled": 0}, {"rental_uris": {"android": "https://dc.lft.to/lastmile_qr_scan", "ios": "https://dc.lft.to/lastmile_qr_scan"}, "type": "electric_scooter", "lon": -77.04502483333333, "name": "b3433f694ad69f14b6e0c8a10d9f2bb8", "bike_id": "b3433f694ad69f14b6e0c8a10d9f2bb8", "fusion_lat": 0.0, "is_reserved": 0, "lat": 38.90368216666667, "fusion_lon": 0.0, "is_disabled": 0}, {"rental_uris": {"android": "https://dc.lft.to/lastmile_qr_scan", "ios": "https://dc.lft.to/lastmile_qr_scan"}, "type": "electric_scooter", "lon": -77.02694733333334, "name": "67a8d1b561f99a0e7eddfe72006d3004", "bike_id": "67a8d1b561f99a0e7eddfe72006d3004", "fusion_lat": 0.0, "is_reserved": 0, "lat": 38.9182055, "fusion_lon": 0.0, "is_disabled": 0}, {"rental_uris": {"android": "https://dc.lft.to/lastmile_qr_scan", "ios": "https://dc.lft.to/lastmile_qr_scan"}, "type": "electric_scooter", "lon": -77.0218545, "name": "5b8fdf5f261ed628b29c7b601a8d162c", "bike_id": "5b8fdf5f261ed628b29c7b601a8d162c", "fusion_lat": 0.0, "is_reserved": 0, "lat": 38.892427166666664, "fusion_lon": 0.0, "is_disabled": 0}, {"rental_uris": {"android": "https://dc.lft.to/lastmile_qr_scan", "ios": "https://dc.lft.to/lastmile_qr_scan"}, "type": "electric_bike", "lon": -77.0265995, "name": "6f63ebf498dab9caf3f6ce4892c5e965", "bike_id": "6f63ebf498dab9caf3f6ce4892c5e965", "fusion_lat": 0.0, "is_reserved": 0, "lat": 38.89608333333334, "fusion_lon": 0.0, "is_disabled": 0}, {"rental_uris": {"android": "https://dc.lft.to/lastmile_qr_scan", "ios": "https://dc.lft.to/lastmile_qr_scan"}, "type": "electric_scooter", "lon": -77.05298033333334, "name": "72528fdc69d690710269c63f9dda1954", "bike_id": "72528fdc69d690710269c63f9dda1954", "fusion_lat": 0.0, "is_reserved": 0, "lat": 38.89882, "fusion_lon": 0.0, "is_disabled": 0}, {"rental_uris": {"android": "https://dc.lft.to/lastmile_qr_scan", "ios": "https://dc.lft.to/lastmile_qr_scan"}, "type": "electric_scooter", "lon": -77.03438983333334, "name": "e525dd0da361563bfe4f5dc0424b3227", "bike_id": "e525dd0da361563bfe4f5dc0424b3227", "fusion_lat": 0.0, "is_reserved": 0, "lat": 38.928624, "fusion_lon": 0.0, "is_disabled": 0}, {"rental_uris": {"android": "https://dc.lft.to/lastmile_qr_scan", "ios": "https://dc.lft.to/lastmile_qr_scan"}, "type": "electric_scooter", "lon": -77.02066383333333, "name": "b91625198b598deaffe7a80d15ae8504", "bike_id": "b91625198b598deaffe7a80d15ae8504", "fusion_lat": 0.0, "is_reserved": 0, "lat": 38.9023875, "fusion_lon": 0.0, "is_disabled": 0}, {"rental_uris": {"android": "https://dc.lft.to/lastmile_qr_scan", "ios": "https://dc.lft.to/lastmile_qr_scan"}, "type": "electric_scooter", "lon": -77.0195125, "name": "3f74dcd166d297dc4d600499b30e4227", "bike_id": "3f74dcd166d297dc4d600499b30e4227", "fusion_lat": 0.0, "is_reserved": 0, "lat": 38.93578883333333, "fusion_lon": 0.0, "is_disabled": 0}, {"rental_uris": {"android": "https://dc.lft.to/lastmile_qr_scan", "ios": "https://dc.lft.to/lastmile_qr_scan"}, "type": "electric_scooter", "lon": -77.02498933333334, "name": "cd6b83d72162bdac0374ba2b28c300b5", "bike_id": "cd6b83d72162bdac0374ba2b28c300b5", "fusion_lat": 0.0, "is_reserved": 0, "lat": 38.941986166666666, "fusion_lon": 0.0, "is_disabled": 0}, {"rental_uris": {"android": "https://dc.lft.to/lastmile_qr_scan", "ios": "https://dc.lft.to/lastmile_qr_scan"}, "type": "electric_scooter", "lon": -77.04713316666667, "name": "1f8f896c0c64c77358a59b3b2e5d4aad", "bike_id": "1f8f896c0c64c77358a59b3b2e5d4aad", "fusion_lat": 0.0, "is_reserved": 0, "lat": 38.8960885, "fusion_lon": 0.0, "is_disabled": 0}, {"rental_uris": {"android": "https://dc.lft.to/lastmile_qr_scan", "ios": "https://dc.lft.to/lastmile_qr_scan"}, "type": "electric_bike", "lon": -76.97327966666667, "name": "61b14bf8ca29d6718eee7db017ff122a", "bike_id": "61b14bf8ca29d6718eee7db017ff122a", "fusion_lat": 0.0, "is_reserved": 0, "lat": 38.8506655, "fusion_lon": 0.0, "is_disabled": 0}, {"rental_uris": {"android": "https://dc.lft.to/lastmile_qr_scan", "ios": "https://dc.lft.to/lastmile_qr_scan"}, "type": "electric_scooter", "lon": -77.02164933333333, "name": "7ada38a83c6044a925bd82c2a85126b6", "bike_id": "7ada38a83c6044a925bd82c2a85126b6", "fusion_lat": 0.0, "is_reserved": 0, "lat": 38.887434666666664, "fusion_lon": 0.0, "is_disabled": 0}, {"rental_uris": {"android": "https://dc.lft.to/lastmile_qr_scan", "ios": "https://dc.lft.to/lastmile_qr_scan"}, "type": "electric_scooter", "lon": -77.0343555, "name": "107fddae81bd04e2f8fd1ce2159aa5ef", "bike_id": "107fddae81bd04e2f8fd1ce2159aa5ef", "fusion_lat": 0.0, "is_reserved": 0, "lat": 38.907282333333335, "fusion_lon": 0.0, "is_disabled": 0}, {"rental_uris": {"android": "https://dc.lft.to/lastmile_qr_scan", "ios": "https://dc.lft.to/lastmile_qr_scan"}, "type": "electric_scooter", "lon": -77.03621616666666, "name": "71932943cb7b62665045cc75ca4f5c62", "bike_id": "71932943cb7b62665045cc75ca4f5c62", "fusion_lat": 0.0, "is_reserved": 0, "lat": 38.9367555, "fusion_lon": 0.0, "is_disabled": 0}, {"rental_uris": {"android": "https://dc.lft.to/lastmile_qr_scan", "ios": "https://dc.lft.to/lastmile_qr_scan"}, "type": "electric_scooter", "lon": -77.03272266666667, "name": "85b3279d07585b97ae98bd95278755df", "bike_id": "85b3279d07585b97ae98bd95278755df", "fusion_lat": 0.0, "is_reserved": 0, "lat": 38.9325505, "fusion_lon": 0.0, "is_disabled": 0}, {"rental_uris": {"android": "https://dc.lft.to/lastmile_qr_scan", "ios": "https://dc.lft.to/lastmile_qr_scan"}, "type": "electric_scooter", "lon": -77.0433705, "name": "622f2e2bf3aeef003ab6ddbe9b14ab9e", "bike_id": "622f2e2bf3aeef003ab6ddbe9b14ab9e", "fusion_lat": 0.0, "is_reserved": 0, "lat": 38.90319233333334, "fusion_lon": 0.0, "is_disabled": 0}, {"rental_uris": {"android": "https://dc.lft.to/lastmile_qr_scan", "ios": "https://dc.lft.to/lastmile_qr_scan"}, "type": "electric_scooter", "lon": -77.02397766666667, "name": "354317b421568a8466a377ae392fceff", "bike_id": "354317b421568a8466a377ae392fceff", "fusion_lat": 0.0, "is_reserved": 0, "lat": 38.91994733333333, "fusion_lon": 0.0, "is_disabled": 0}, {"rental_uris": {"android": "https://dc.lft.to/lastmile_qr_scan", "ios": "https://dc.lft.to/lastmile_qr_scan"}, "type": "electric_scooter", "lon": -77.0333625, "name": "4ddd2435627b8cc5e9314ac8ea9d90c2", "bike_id": "4ddd2435627b8cc5e9314ac8ea9d90c2", "fusion_lat": 0.0, "is_reserved": 0, "lat": 38.903723, "fusion_lon": 0.0, "is_disabled": 0}, {"rental_uris": {"android": "https://dc.lft.to/lastmile_qr_scan", "ios": "https://dc.lft.to/lastmile_qr_scan"}, "type": "electric_scooter", "lon": -77.045841, "name": "d825dd5ed4011c93b1bacf1619f2cb6d", "bike_id": "d825dd5ed4011c93b1bacf1619f2cb6d", "fusion_lat": 0.0, "is_reserved": 0, "lat": 38.902722833333335, "fusion_lon": 0.0, "is_disabled": 0}, {"rental_uris": {"android": "https://dc.lft.to/lastmile_qr_scan", "ios": "https://dc.lft.to/lastmile_qr_scan"}, "type": "electric_scooter", "lon": -77.0395345, "name": "628b7c69dba194d25f7cee3f1b961a41", "bike_id": "628b7c69dba194d25f7cee3f1b961a41", "fusion_lat": 0.0, "is_reserved": 0, "lat": 38.906131, "fusion_lon": 0.0, "is_disabled": 0}, {"rental_uris": {"android": "https://dc.lft.to/lastmile_qr_scan", "ios": "https://dc.lft.to/lastmile_qr_scan"}, "type": "electric_scooter", "lon": -77.07259866666666, "name": "00738825b921e52acc81273dbecb77ac", "bike_id": "00738825b921e52acc81273dbecb77ac", "fusion_lat": 0.0, "is_reserved": 0, "lat": 38.90908483333333, "fusion_lon": 0.0, "is_disabled": 0}, {"rental_uris": {"android": "https://dc.lft.to/lastmile_qr_scan", "ios": "https://dc.lft.to/lastmile_qr_scan"}, "type": "electric_scooter", "lon": -77.00610933333333, "name": "e513529f95f3d99eba097d06b1375a2a", "bike_id": "e513529f95f3d99eba097d06b1375a2a", "fusion_lat": 0.0, "is_reserved": 0, "lat": 38.906390333333334, "fusion_lon": 0.0, "is_disabled": 0}, {"rental_uris": {"android": "https://dc.lft.to/lastmile_qr_scan", "ios": "https://dc.lft.to/lastmile_qr_scan"}, "type": "electric_bike", "lon": -77.0036315, "name": "61b38ec98316e5bbf1a333e18367cf3c", "bike_id": "61b38ec98316e5bbf1a333e18367cf3c", "fusion_lat": 0.0, "is_reserved": 0, "lat": 38.83613833333333, "fusion_lon": 0.0, "is_disabled": 0}, {"rental_uris": {"android": "https://dc.lft.to/lastmile_qr_scan", "ios": "https://dc.lft.to/lastmile_qr_scan"}, "type": "electric_scooter", "lon": -76.94793333333334, "name": "3fea7a21c798bebad37bba368081f9e4", "bike_id": "3fea7a21c798bebad37bba368081f9e4", "fusion_lat": 0.0, "is_reserved": 0, "lat": 38.89640283333333, "fusion_lon": 0.0, "is_disabled": 0}, {"rental_uris": {"android": "https://dc.lft.to/lastmile_qr_scan", "ios": "https://dc.lft.to/lastmile_qr_scan"}, "type": "electric_scooter", "lon": -76.94940366666667, "name": "3956ca4358a3deaa3aafbad5d7e8b13d", "bike_id": "3956ca4358a3deaa3aafbad5d7e8b13d", "fusion_lat": 0.0, "is_reserved": 0, "lat": 38.883147666666666, "fusion_lon": 0.0, "is_disabled": 0}, {"rental_uris": {"android": "https://dc.lft.to/lastmile_qr_scan", "ios": "https://dc.lft.to/lastmile_qr_scan"}, "type": "electric_bike", "lon": -76.9833135, "name": "8f93f68f1de5bd4a6f0c58dfd56849b1", "bike_id": "8f93f68f1de5bd4a6f0c58dfd56849b1", "fusion_lat": 0.0, "is_reserved": 0, "lat": 38.96603416666667, "fusion_lon": 0.0, "is_disabled": 0}, {"rental_uris": {"android": "https://dc.lft.to/lastmile_qr_scan", "ios": "https://dc.lft.to/lastmile_qr_scan"}, "type": "electric_scooter", "lon": -77.02101833333333, "name": "fbf3b351671ef7a0a2cf6ba50bcaffbe", "bike_id": "fbf3b351671ef7a0a2cf6ba50bcaffbe", "fusion_lat": 0.0, "is_reserved": 0, "lat": 38.90282783333333, "fusion_lon": 0.0, "is_disabled": 0}, {"rental_uris": {"android": "https://dc.lft.to/lastmile_qr_scan", "ios": "https://dc.lft.to/lastmile_qr_scan"}, "type": "electric_scooter", "lon": -77.03286233333333, "name": "3425e85f0c5717deb81c4743190e6628", "bike_id": "3425e85f0c5717deb81c4743190e6628", "fusion_lat": 0.0, "is_reserved": 0, "lat": 38.956476333333335, "fusion_lon": 0.0, "is_disabled": 0}, {"rental_uris": {"android": "https://dc.lft.to/lastmile_qr_scan", "ios": "https://dc.lft.to/lastmile_qr_scan"}, "type": "electric_scooter", "lon": -76.99771966666667, "name": "cf0a42b3a51d1daddd555fcf996c3468", "bike_id": "cf0a42b3a51d1daddd555fcf996c3468", "fusion_lat": 0.0, "is_reserved": 0, "lat": 38.84425433333333, "fusion_lon": 0.0, "is_disabled": 0}, {"rental_uris": {"android": "https://dc.lft.to/lastmile_qr_scan", "ios": "https://dc.lft.to/lastmile_qr_scan"}, "type": "electric_bike", "lon": -77.08935983333333, "name": "9686374c3a1ed52e7ddc6838e62f5094", "bike_id": "9686374c3a1ed52e7ddc6838e62f5094", "fusion_lat": 0.0, "is_reserved": 0, "lat": 38.84091516666667, "fusion_lon": 0.0, "is_disabled": 0}, {"rental_uris": {"android": "https://dc.lft.to/lastmile_qr_scan", "ios": "https://dc.lft.to/lastmile_qr_scan"}, "type": "electric_bike", "lon": -77.03508383333333, "name": "e976f15a82d54ad70944988f4ad0dc1e", "bike_id": "e976f15a82d54ad70944988f4ad0dc1e", "fusion_lat": 0.0, "is_reserved": 0, "lat": 38.97587333333333, "fusion_lon": 0.0, "is_disabled": 0}, {"rental_uris": {"android": "https://dc.lft.to/lastmile_qr_scan", "ios": "https://dc.lft.to/lastmile_qr_scan"}, "type": "electric_scooter", "lon": -77.044028, "name": "f5f28a1dcfc3475143387d1e7cde4e92", "bike_id": "f5f28a1dcfc3475143387d1e7cde4e92", "fusion_lat": 0.0, "is_reserved": 0, "lat": 38.90925383333333, "fusion_lon": 0.0, "is_disabled": 0}, {"rental_uris": {"android": "https://dc.lft.to/lastmile_qr_scan", "ios": "https://dc.lft.to/lastmile_qr_scan"}, "type": "electric_bike", "lon": -77.01377616666667, "name": "46ac382e29b166c195f67529516a067f", "bike_id": "46ac382e29b166c195f67529516a067f", "fusion_lat": 0.0, "is_reserved": 0, "lat": 38.892296, "fusion_lon": 0.0, "is_disabled": 0}, {"rental_uris": {"android": "https://dc.lft.to/lastmile_qr_scan", "ios": "https://dc.lft.to/lastmile_qr_scan"}, "type": "electric_bike", "lon": -77.088169, "name": "2cd7d3921a210dd60564ffeeda530495", "bike_id": "2cd7d3921a210dd60564ffeeda530495", "fusion_lat": 0.0, "is_reserved": 0, "lat": 38.909706166666666, "fusion_lon": 0.0, "is_disabled": 0}, {"rental_uris": {"android": "https://dc.lft.to/lastmile_qr_scan", "ios": "https://dc.lft.to/lastmile_qr_scan"}, "type": "electric_scooter", "lon": -77.02979283333333, "name": "5a49aa2c1ac8feecb78f8017199809ad", "bike_id": "5a49aa2c1ac8feecb78f8017199809ad", "fusion_lat": 0.0, "is_reserved": 0, "lat": 38.9470405, "fusion_lon": 0.0, "is_disabled": 0}, {"rental_uris": {"android": "https://dc.lft.to/lastmile_qr_scan", "ios": "https://dc.lft.to/lastmile_qr_scan"}, "type": "electric_scooter", "lon": -76.98723183333334, "name": "fbba72d9d5319b7fca5e357dd952def5", "bike_id": "fbba72d9d5319b7fca5e357dd952def5", "fusion_lat": 0.0, "is_reserved": 0, "lat": 38.86707, "fusion_lon": 0.0, "is_disabled": 0}, {"rental_uris": {"android": "https://dc.lft.to/lastmile_qr_scan", "ios": "https://dc.lft.to/lastmile_qr_scan"}, "type": "electric_scooter", "lon": -77.02570133333333, "name": "5a2f4a92fe0930119c3306687d98eb15", "bike_id": "5a2f4a92fe0930119c3306687d98eb15", "fusion_lat": 0.0, "is_reserved": 0, "lat": 38.88585833333333, "fusion_lon": 0.0, "is_disabled": 0}, {"rental_uris": {"android": "https://dc.lft.to/lastmile_qr_scan", "ios": "https://dc.lft.to/lastmile_qr_scan"}, "type": "electric_scooter", "lon": -76.99935283333333, "name": "e0421ed14122b2cc1e4aa274b30562b7", "bike_id": "e0421ed14122b2cc1e4aa274b30562b7", "fusion_lat": 0.0, "is_reserved": 0, "lat": 38.896143333333335, "fusion_lon": 0.0, "is_disabled": 0}, {"rental_uris": {"android": "https://dc.lft.to/lastmile_qr_scan", "ios": "https://dc.lft.to/lastmile_qr_scan"}, "type": "electric_scooter", "lon": -77.02895133333334, "name": "7121d6bea8154c93b20929f1d546b17c", "bike_id": "7121d6bea8154c93b20929f1d546b17c", "fusion_lat": 0.0, "is_reserved": 0, "lat": 38.958416, "fusion_lon": 0.0, "is_disabled": 0}, {"rental_uris": {"android": "https://dc.lft.to/lastmile_qr_scan", "ios": "https://dc.lft.to/lastmile_qr_scan"}, "type": "electric_scooter", "lon": -77.0138805, "name": "560458329c3ac6d6c2b74b7e26053779", "bike_id": "560458329c3ac6d6c2b74b7e26053779", "fusion_lat": 0.0, "is_reserved": 0, "lat": 38.900565, "fusion_lon": 0.0, "is_disabled": 0}, {"rental_uris": {"android": "https://dc.lft.to/lastmile_qr_scan", "ios": "https://dc.lft.to/lastmile_qr_scan"}, "type": "electric_scooter", "lon": -77.03794916666666, "name": "72d2b88e0cfb0e6fbca7a0ea1c0b221d", "bike_id": "72d2b88e0cfb0e6fbca7a0ea1c0b221d", "fusion_lat": 0.0, "is_reserved": 0, "lat": 38.914046166666665, "fusion_lon": 0.0, "is_disabled": 0}, {"rental_uris": {"android": "https://dc.lft.to/lastmile_qr_scan", "ios": "https://dc.lft.to/lastmile_qr_scan"}, "type": "electric_scooter", "lon": -77.02341866666667, "name": "f58e1b1eb67e55c0a76540e32508ae41", "bike_id": "f58e1b1eb67e55c0a76540e32508ae41", "fusion_lat": 0.0, "is_reserved": 0, "lat": 38.884834833333336, "fusion_lon": 0.0, "is_disabled": 0}, {"rental_uris": {"android": "https://dc.lft.to/lastmile_qr_scan", "ios": "https://dc.lft.to/lastmile_qr_scan"}, "type": "electric_scooter", "lon": -77.03867816666667, "name": "c3845823e20d6f0f7d7951aaa1d2847f", "bike_id": "c3845823e20d6f0f7d7951aaa1d2847f", "fusion_lat": 0.0, "is_reserved": 0, "lat": 38.91271616666667, "fusion_lon": 0.0, "is_disabled": 0}, {"rental_uris": {"android": "https://dc.lft.to/lastmile_qr_scan", "ios": "https://dc.lft.to/lastmile_qr_scan"}, "type": "electric_scooter", "lon": -77.04045766666667, "name": "1fbf969e5d62cd8ac46f2b1618797947", "bike_id": "1fbf969e5d62cd8ac46f2b1618797947", "fusion_lat": 0.0, "is_reserved": 0, "lat": 38.90720966666667, "fusion_lon": 0.0, "is_disabled": 0}, {"rental_uris": {"android": "https://dc.lft.to/lastmile_qr_scan", "ios": "https://dc.lft.to/lastmile_qr_scan"}, "type": "electric_scooter", "lon": -77.03622583333333, "name": "94d8ad118fc8de032df48e3a39f40780", "bike_id": "94d8ad118fc8de032df48e3a39f40780", "fusion_lat": 0.0, "is_reserved": 0, "lat": 38.93674266666667, "fusion_lon": 0.0, "is_disabled": 0}, {"rental_uris": {"android": "https://dc.lft.to/lastmile_qr_scan", "ios": "https://dc.lft.to/lastmile_qr_scan"}, "type": "electric_scooter", "lon": -77.0408435, "name": "a8d41ae9ac18d1698066261c5cbae6e1", "bike_id": "a8d41ae9ac18d1698066261c5cbae6e1", "fusion_lat": 0.0, "is_reserved": 0, "lat": 38.923783, "fusion_lon": 0.0, "is_disabled": 0}, {"rental_uris": {"android": "https://dc.lft.to/lastmile_qr_scan", "ios": "https://dc.lft.to/lastmile_qr_scan"}, "type": "electric_scooter", "lon": -77.00204866666667, "name": "72db50f7425de7689b24312b679cbb08", "bike_id": "72db50f7425de7689b24312b679cbb08", "fusion_lat": 0.0, "is_reserved": 0, "lat": 38.907191, "fusion_lon": 0.0, "is_disabled": 0}, {"rental_uris": {"android": "https://dc.lft.to/lastmile_qr_scan", "ios": "https://dc.lft.to/lastmile_qr_scan"}, "type": "electric_scooter", "lon": -77.05295483333333, "name": "4d657b737860053e1f70293d65e5fe4d", "bike_id": "4d657b737860053e1f70293d65e5fe4d", "fusion_lat": 0.0, "is_reserved": 0, "lat": 38.92623866666667, "fusion_lon": 0.0, "is_disabled": 0}, {"rental_uris": {"android": "https://dc.lft.to/lastmile_qr_scan", "ios": "https://dc.lft.to/lastmile_qr_scan"}, "type": "electric_scooter", "lon": -77.03590166666666, "name": "de74947400c9d4e028e36e9ab1051ddb", "bike_id": "de74947400c9d4e028e36e9ab1051ddb", "fusion_lat": 0.0, "is_reserved": 0, "lat": 38.903738, "fusion_lon": 0.0, "is_disabled": 0}, {"rental_uris": {"android": "https://dc.lft.to/lastmile_qr_scan", "ios": "https://dc.lft.to/lastmile_qr_scan"}, "type": "electric_scooter", "lon": -76.94843083333333, "name": "06965231d668b9cca44378ccebcd7d95", "bike_id": "06965231d668b9cca44378ccebcd7d95", "fusion_lat": 0.0, "is_reserved": 0, "lat": 38.89486333333333, "fusion_lon": 0.0, "is_disabled": 0}, {"rental_uris": {"android": "https://dc.lft.to/lastmile_qr_scan", "ios": "https://dc.lft.to/lastmile_qr_scan"}, "type": "electric_scooter", "lon": -77.03433966666667, "name": "1589404316268ab4fe0c4d61cc011f89", "bike_id": "1589404316268ab4fe0c4d61cc011f89", "fusion_lat": 0.0, "is_reserved": 0, "lat": 38.9027235, "fusion_lon": 0.0, "is_disabled": 0}, {"rental_uris": {"android": "https://dc.lft.to/lastmile_qr_scan", "ios": "https://dc.lft.to/lastmile_qr_scan"}, "type": "electric_scooter", "lon": -77.0010805, "name": "fda0dec121aea17a7c0eb3ed4e353ff8", "bike_id": "fda0dec121aea17a7c0eb3ed4e353ff8", "fusion_lat": 0.0, "is_reserved": 0, "lat": 38.91632033333333, "fusion_lon": 0.0, "is_disabled": 0}, {"rental_uris": {"android": "https://dc.lft.to/lastmile_qr_scan", "ios": "https://dc.lft.to/lastmile_qr_scan"}, "type": "electric_scooter", "lon": -76.98603183333333, "name": "f9814de9668d3594cf232b5ef896da7c", "bike_id": "f9814de9668d3594cf232b5ef896da7c", "fusion_lat": 0.0, "is_reserved": 0, "lat": 38.8544295, "fusion_lon": 0.0, "is_disabled": 0}, {"rental_uris": {"android": "https://dc.lft.to/lastmile_qr_scan", "ios": "https://dc.lft.to/lastmile_qr_scan"}, "type": "electric_scooter", "lon": -77.03803133333334, "name": "0c9e999896feae96c222392e7b0ed93f", "bike_id": "0c9e999896feae96c222392e7b0ed93f", "fusion_lat": 0.0, "is_reserved": 0, "lat": 38.906853, "fusion_lon": 0.0, "is_disabled": 0}, {"rental_uris": {"android": "https://dc.lft.to/lastmile_qr_scan", "ios": "https://dc.lft.to/lastmile_qr_scan"}, "type": "electric_scooter", "lon": -77.04580216666666, "name": "5e2a9a505d48b555e446c7db2b9f77b5", "bike_id": "5e2a9a505d48b555e446c7db2b9f77b5", "fusion_lat": 0.0, "is_reserved": 0, "lat": 38.921298166666666, "fusion_lon": 0.0, "is_disabled": 0}, {"rental_uris": {"android": "https://dc.lft.to/lastmile_qr_scan", "ios": "https://dc.lft.to/lastmile_qr_scan"}, "type": "electric_scooter", "lon": -76.94852966666667, "name": "5c52395c5c45e94ca0b659357d0c9ba9", "bike_id": "5c52395c5c45e94ca0b659357d0c9ba9", "fusion_lat": 0.0, "is_reserved": 0, "lat": 38.88296033333334, "fusion_lon": 0.0, "is_disabled": 0}, {"rental_uris": {"android": "https://dc.lft.to/lastmile_qr_scan", "ios": "https://dc.lft.to/lastmile_qr_scan"}, "type": "electric_scooter", "lon": -77.02391483333334, "name": "a1a8544b8e830074c528d57cafc4fbd6", "bike_id": "a1a8544b8e830074c528d57cafc4fbd6", "fusion_lat": 0.0, "is_reserved": 0, "lat": 38.89392083333333, "fusion_lon": 0.0, "is_disabled": 0}, {"rental_uris": {"android": "https://dc.lft.to/lastmile_qr_scan", "ios": "https://dc.lft.to/lastmile_qr_scan"}, "type": "electric_bike", "lon": -76.99055266666667, "name": "4e29052ac4b20b824eeec9d270562d95", "bike_id": "4e29052ac4b20b824eeec9d270562d95", "fusion_lat": 0.0, "is_reserved": 0, "lat": 38.936879, "fusion_lon": 0.0, "is_disabled": 0}, {"rental_uris": {"android": "https://dc.lft.to/lastmile_qr_scan", "ios": "https://dc.lft.to/lastmile_qr_scan"}, "type": "electric_bike", "lon": -76.99384666666667, "name": "9becd92dd95b82b263f0bd07cc5d39dd", "bike_id": "9becd92dd95b82b263f0bd07cc5d39dd", "fusion_lat": 0.0, "is_reserved": 0, "lat": 38.92279666666667, "fusion_lon": 0.0, "is_disabled": 0}, {"rental_uris": {"android": "https://dc.lft.to/lastmile_qr_scan", "ios": "https://dc.lft.to/lastmile_qr_scan"}, "type": "electric_scooter", "lon": -76.99513383333333, "name": "640084bc9ffbfd989b3daf822059c872", "bike_id": "640084bc9ffbfd989b3daf822059c872", "fusion_lat": 0.0, "is_reserved": 0, "lat": 38.894788, "fusion_lon": 0.0, "is_disabled": 0}, {"rental_uris": {"android": "https://dc.lft.to/lastmile_qr_scan", "ios": "https://dc.lft.to/lastmile_qr_scan"}, "type": "electric_scooter", "lon": -77.05511266666667, "name": "a2206df1efe008c5d8ae917ee1b03a6e", "bike_id": "a2206df1efe008c5d8ae917ee1b03a6e", "fusion_lat": 0.0, "is_reserved": 0, "lat": 38.94415933333333, "fusion_lon": 0.0, "is_disabled": 0}, {"rental_uris": {"android": "https://dc.lft.to/lastmile_qr_scan", "ios": "https://dc.lft.to/lastmile_qr_scan"}, "type": "electric_scooter", "lon": -77.043192, "name": "645aee2d4b7ed7c0940baf2675930629", "bike_id": "645aee2d4b7ed7c0940baf2675930629", "fusion_lat": 0.0, "is_reserved": 0, "lat": 38.911160333333335, "fusion_lon": 0.0, "is_disabled": 0}, {"rental_uris": {"android": "https://dc.lft.to/lastmile_qr_scan", "ios": "https://dc.lft.to/lastmile_qr_scan"}, "type": "electric_scooter", "lon": -77.00210983333334, "name": "0d7352b2e2e756d17e1ca84590ddd60c", "bike_id": "0d7352b2e2e756d17e1ca84590ddd60c", "fusion_lat": 0.0, "is_reserved": 0, "lat": 38.90267166666667, "fusion_lon": 0.0, "is_disabled": 0}, {"rental_uris": {"android": "https://dc.lft.to/lastmile_qr_scan", "ios": "https://dc.lft.to/lastmile_qr_scan"}, "type": "electric_scooter", "lon": -77.03147933333334, "name": "35e9c2580231f8f17c5343f173e12960", "bike_id": "35e9c2580231f8f17c5343f173e12960", "fusion_lat": 0.0, "is_reserved": 0, "lat": 38.88748416666667, "fusion_lon": 0.0, "is_disabled": 0}, {"rental_uris": {"android": "https://dc.lft.to/lastmile_qr_scan", "ios": "https://dc.lft.to/lastmile_qr_scan"}, "type": "electric_scooter", "lon": -77.0697125, "name": "313ac661ed2ebfec249164e069258893", "bike_id": "313ac661ed2ebfec249164e069258893", "fusion_lat": 0.0, "is_reserved": 0, "lat": 38.9529375, "fusion_lon": 0.0, "is_disabled": 0}, {"rental_uris": {"android": "https://dc.lft.to/lastmile_qr_scan", "ios": "https://dc.lft.to/lastmile_qr_scan"}, "type": "electric_scooter", "lon": -77.04882383333333, "name": "341ca14a146cacb0cefc72773cb60b3f", "bike_id": "341ca14a146cacb0cefc72773cb60b3f", "fusion_lat": 0.0, "is_reserved": 0, "lat": 38.90077933333333, "fusion_lon": 0.0, "is_disabled": 0}, {"rental_uris": {"android": "https://dc.lft.to/lastmile_qr_scan", "ios": "https://dc.lft.to/lastmile_qr_scan"}, "type": "electric_bike", "lon": -76.95203883333333, "name": "1d7bbbe4b7122abc4069d121b3e3c228", "bike_id": "1d7bbbe4b7122abc4069d121b3e3c228", "fusion_lat": 0.0, "is_reserved": 0, "lat": 38.93672316666667, "fusion_lon": 0.0, "is_disabled": 0}, {"rental_uris": {"android": "https://dc.lft.to/lastmile_qr_scan", "ios": "https://dc.lft.to/lastmile_qr_scan"}, "type": "electric_scooter", "lon": -77.00128616666667, "name": "9e9e1d6d962ec53fda65c6ab91872190", "bike_id": "9e9e1d6d962ec53fda65c6ab91872190", "fusion_lat": 0.0, "is_reserved": 0, "lat": 38.90408716666666, "fusion_lon": 0.0, "is_disabled": 0}, {"rental_uris": {"android": "https://dc.lft.to/lastmile_qr_scan", "ios": "https://dc.lft.to/lastmile_qr_scan"}, "type": "electric_bike", "lon": -76.99029183333333, "name": "b38bc7bf1c91a40c8039d91f53c97555", "bike_id": "b38bc7bf1c91a40c8039d91f53c97555", "fusion_lat": 0.0, "is_reserved": 0, "lat": 38.898100666666664, "fusion_lon": 0.0, "is_disabled": 0}, {"rental_uris": {"android": "https://dc.lft.to/lastmile_qr_scan", "ios": "https://dc.lft.to/lastmile_qr_scan"}, "type": "electric_bike", "lon": -76.96489533333333, "name": "459bc19f0178eaf54b75b9c26080624f", "bike_id": "459bc19f0178eaf54b75b9c26080624f", "fusion_lat": 0.0, "is_reserved": 0, "lat": 38.875506333333334, "fusion_lon": 0.0, "is_disabled": 0}, {"rental_uris": {"android": "https://dc.lft.to/lastmile_qr_scan", "ios": "https://dc.lft.to/lastmile_qr_scan"}, "type": "electric_scooter", "lon": -76.93182883333333, "name": "44a9d81890e91c9ede3e9408f95eee4f", "bike_id": "44a9d81890e91c9ede3e9408f95eee4f", "fusion_lat": 0.0, "is_reserved": 0, "lat": 38.898779833333336, "fusion_lon": 0.0, "is_disabled": 0}, {"rental_uris": {"android": "https://dc.lft.to/lastmile_qr_scan", "ios": "https://dc.lft.to/lastmile_qr_scan"}, "type": "electric_scooter", "lon": -77.021701, "name": "3a723458a8db0644baceb9e5d2282406", "bike_id": "3a723458a8db0644baceb9e5d2282406", "fusion_lat": 0.0, "is_reserved": 0, "lat": 38.88497566666667, "fusion_lon": 0.0, "is_disabled": 0}, {"rental_uris": {"android": "https://dc.lft.to/lastmile_qr_scan", "ios": "https://dc.lft.to/lastmile_qr_scan"}, "type": "electric_scooter", "lon": -77.04999166666667, "name": "c0cc9c79f720f4f8df43bc40e5f3d6c0", "bike_id": "c0cc9c79f720f4f8df43bc40e5f3d6c0", "fusion_lat": 0.0, "is_reserved": 0, "lat": 38.90090933333333, "fusion_lon": 0.0, "is_disabled": 0}, {"rental_uris": {"android": "https://dc.lft.to/lastmile_qr_scan", "ios": "https://dc.lft.to/lastmile_qr_scan"}, "type": "electric_scooter", "lon": -77.04228083333334, "name": "00aaa23d6114c6ce0252cd379d2f60a5", "bike_id": "00aaa23d6114c6ce0252cd379d2f60a5", "fusion_lat": 0.0, "is_reserved": 0, "lat": 38.907213, "fusion_lon": 0.0, "is_disabled": 0}, {"rental_uris": {"android": "https://dc.lft.to/lastmile_qr_scan", "ios": "https://dc.lft.to/lastmile_qr_scan"}, "type": "electric_scooter", "lon": -76.99933566666667, "name": "be102c447c40beddfc2aeca2c334c5b0", "bike_id": "be102c447c40beddfc2aeca2c334c5b0", "fusion_lat": 0.0, "is_reserved": 0, "lat": 38.896194666666666, "fusion_lon": 0.0, "is_disabled": 0}, {"rental_uris": {"android": "https://dc.lft.to/lastmile_qr_scan", "ios": "https://dc.lft.to/lastmile_qr_scan"}, "type": "electric_scooter", "lon": -76.995767, "name": "8ee58e69b7bb1be5ce662c3f0c1fb0c3", "bike_id": "8ee58e69b7bb1be5ce662c3f0c1fb0c3", "fusion_lat": 0.0, "is_reserved": 0, "lat": 38.949455666666665, "fusion_lon": 0.0, "is_disabled": 0}, {"rental_uris": {"android": "https://dc.lft.to/lastmile_qr_scan", "ios": "https://dc.lft.to/lastmile_qr_scan"}, "type": "electric_scooter", "lon": -76.983197, "name": "bd1ead7eac25110734b0a7ffa2ba34d4", "bike_id": "bd1ead7eac25110734b0a7ffa2ba34d4", "fusion_lat": 0.0, "is_reserved": 0, "lat": 38.9005, "fusion_lon": 0.0, "is_disabled": 0}, {"rental_uris": {"android": "https://dc.lft.to/lastmile_qr_scan", "ios": "https://dc.lft.to/lastmile_qr_scan"}, "type": "electric_scooter", "lon": -77.03067116666666, "name": "50f970769fd466e0e29ac84eeb8b771a", "bike_id": "50f970769fd466e0e29ac84eeb8b771a", "fusion_lat": 0.0, "is_reserved": 0, "lat": 38.90560466666667, "fusion_lon": 0.0, "is_disabled": 0}, {"rental_uris": {"android": "https://dc.lft.to/lastmile_qr_scan", "ios": "https://dc.lft.to/lastmile_qr_scan"}, "type": "electric_scooter", "lon": -77.03844666666667, "name": "815b71c35c8d2e8fad9d6f762e494563", "bike_id": "815b71c35c8d2e8fad9d6f762e494563", "fusion_lat": 0.0, "is_reserved": 0, "lat": 38.9028515, "fusion_lon": 0.0, "is_disabled": 0}, {"rental_uris": {"android": "https://dc.lft.to/lastmile_qr_scan", "ios": "https://dc.lft.to/lastmile_qr_scan"}, "type": "electric_scooter", "lon": -77.08605466666667, "name": "161b6ff26ccdca675531a79ffd0d562e", "bike_id": "161b6ff26ccdca675531a79ffd0d562e", "fusion_lat": 0.0, "is_reserved": 0, "lat": 38.9586965, "fusion_lon": 0.0, "is_disabled": 0}, {"rental_uris": {"android": "https://dc.lft.to/lastmile_qr_scan", "ios": "https://dc.lft.to/lastmile_qr_scan"}, "type": "electric_scooter", "lon": -77.02346833333333, "name": "7acb54475c52eeb3ca27aef75749128e", "bike_id": "7acb54475c52eeb3ca27aef75749128e", "fusion_lat": 0.0, "is_reserved": 0, "lat": 38.929883333333336, "fusion_lon": 0.0, "is_disabled": 0}, {"rental_uris": {"android": "https://dc.lft.to/lastmile_qr_scan", "ios": "https://dc.lft.to/lastmile_qr_scan"}, "type": "electric_scooter", "lon": -77.01964183333334, "name": "6ea0105585efd788fbe3eb6392a84f93", "bike_id": "6ea0105585efd788fbe3eb6392a84f93", "fusion_lat": 0.0, "is_reserved": 0, "lat": 38.88376866666667, "fusion_lon": 0.0, "is_disabled": 0}, {"rental_uris": {"android": "https://dc.lft.to/lastmile_qr_scan", "ios": "https://dc.lft.to/lastmile_qr_scan"}, "type": "electric_scooter", "lon": -77.0139015, "name": "588172e79903139d91682fa9545f0734", "bike_id": "588172e79903139d91682fa9545f0734", "fusion_lat": 0.0, "is_reserved": 0, "lat": 38.9285255, "fusion_lon": 0.0, "is_disabled": 0}, {"rental_uris": {"android": "https://dc.lft.to/lastmile_qr_scan", "ios": "https://dc.lft.to/lastmile_qr_scan"}, "type": "electric_scooter", "lon": -77.027803, "name": "97e6ae94c2af86ae60d4308e1a5b8c86", "bike_id": "97e6ae94c2af86ae60d4308e1a5b8c86", "fusion_lat": 0.0, "is_reserved": 0, "lat": 38.898001, "fusion_lon": 0.0, "is_disabled": 0}, {"rental_uris": {"android": "https://dc.lft.to/lastmile_qr_scan", "ios": "https://dc.lft.to/lastmile_qr_scan"}, "type": "electric_scooter", "lon": -76.937356, "name": "ede2e57cf02171466f260aef533b02b4", "bike_id": "ede2e57cf02171466f260aef533b02b4", "fusion_lat": 0.0, "is_reserved": 0, "lat": 38.890131833333335, "fusion_lon": 0.0, "is_disabled": 0}, {"rental_uris": {"android": "https://dc.lft.to/lastmile_qr_scan", "ios": "https://dc.lft.to/lastmile_qr_scan"}, "type": "electric_scooter", "lon": -77.034319, "name": "81cd473c5c7c232653fe12c92c299cdd", "bike_id": "81cd473c5c7c232653fe12c92c299cdd", "fusion_lat": 0.0, "is_reserved": 0, "lat": 38.904218666666665, "fusion_lon": 0.0, "is_disabled": 0}, {"rental_uris": {"android": "https://dc.lft.to/lastmile_qr_scan", "ios": "https://dc.lft.to/lastmile_qr_scan"}, "type": "electric_scooter", "lon": -77.00056416666666, "name": "9c8537791afa0b83493f8a9701357669", "bike_id": "9c8537791afa0b83493f8a9701357669", "fusion_lat": 0.0, "is_reserved": 0, "lat": 38.903598833333334, "fusion_lon": 0.0, "is_disabled": 0}, {"rental_uris": {"android": "https://dc.lft.to/lastmile_qr_scan", "ios": "https://dc.lft.to/lastmile_qr_scan"}, "type": "electric_scooter", "lon": -77.02484916666667, "name": "8b68d448748cd0655426275068254c79", "bike_id": "8b68d448748cd0655426275068254c79", "fusion_lat": 0.0, "is_reserved": 0, "lat": 38.93880683333333, "fusion_lon": 0.0, "is_disabled": 0}, {"rental_uris": {"android": "https://dc.lft.to/lastmile_qr_scan", "ios": "https://dc.lft.to/lastmile_qr_scan"}, "type": "electric_scooter", "lon": -77.043448, "name": "ab391038d0d2f2a7a7365e49f96896b4", "bike_id": "ab391038d0d2f2a7a7365e49f96896b4", "fusion_lat": 0.0, "is_reserved": 0, "lat": 38.9014645, "fusion_lon": 0.0, "is_disabled": 0}, {"rental_uris": {"android": "https://dc.lft.to/lastmile_qr_scan", "ios": "https://dc.lft.to/lastmile_qr_scan"}, "type": "electric_scooter", "lon": -76.990155, "name": "855ed1f3451cea56a6265d50ce438b00", "bike_id": "855ed1f3451cea56a6265d50ce438b00", "fusion_lat": 0.0, "is_reserved": 0, "lat": 38.861127333333336, "fusion_lon": 0.0, "is_disabled": 0}, {"rental_uris": {"android": "https://dc.lft.to/lastmile_qr_scan", "ios": "https://dc.lft.to/lastmile_qr_scan"}, "type": "electric_scooter", "lon": -77.01538533333333, "name": "94bc6680f77afd4c7812f0be76e564b6", "bike_id": "94bc6680f77afd4c7812f0be76e564b6", "fusion_lat": 0.0, "is_reserved": 0, "lat": 38.9430735, "fusion_lon": 0.0, "is_disabled": 0}, {"rental_uris": {"android": "https://dc.lft.to/lastmile_qr_scan", "ios": "https://dc.lft.to/lastmile_qr_scan"}, "type": "electric_scooter", "lon": -76.94919683333333, "name": "1dcb96b9c07782bd9c3dd66204d0105d", "bike_id": "1dcb96b9c07782bd9c3dd66204d0105d", "fusion_lat": 0.0, "is_reserved": 0, "lat": 38.88477433333333, "fusion_lon": 0.0, "is_disabled": 0}, {"rental_uris": {"android": "https://dc.lft.to/lastmile_qr_scan", "ios": "https://dc.lft.to/lastmile_qr_scan"}, "type": "electric_scooter", "lon": -77.01889933333334, "name": "c5389946441e3a5c0e8a7ef2c42a2a9e", "bike_id": "c5389946441e3a5c0e8a7ef2c42a2a9e", "fusion_lat": 0.0, "is_reserved": 0, "lat": 38.909431, "fusion_lon": 0.0, "is_disabled": 0}, {"rental_uris": {"android": "https://dc.lft.to/lastmile_qr_scan", "ios": "https://dc.lft.to/lastmile_qr_scan"}, "type": "electric_scooter", "lon": -76.99630216666667, "name": "c25a9df711d6e12340c21e3e37917220", "bike_id": "c25a9df711d6e12340c21e3e37917220", "fusion_lat": 0.0, "is_reserved": 0, "lat": 38.846204, "fusion_lon": 0.0, "is_disabled": 0}, {"rental_uris": {"android": "https://dc.lft.to/lastmile_qr_scan", "ios": "https://dc.lft.to/lastmile_qr_scan"}, "type": "electric_scooter", "lon": -77.00900916666667, "name": "2b1c15cc1aaa579301dab90c83d05c61", "bike_id": "2b1c15cc1aaa579301dab90c83d05c61", "fusion_lat": 0.0, "is_reserved": 0, "lat": 38.900461666666665, "fusion_lon": 0.0, "is_disabled": 0}, {"rental_uris": {"android": "https://dc.lft.to/lastmile_qr_scan", "ios": "https://dc.lft.to/lastmile_qr_scan"}, "type": "electric_bike", "lon": -77.0764265, "name": "4b6bbc34bdc88ae4da8335a8ccd5a9ef", "bike_id": "4b6bbc34bdc88ae4da8335a8ccd5a9ef", "fusion_lat": 0.0, "is_reserved": 0, "lat": 38.90609666666667, "fusion_lon": 0.0, "is_disabled": 0}, {"rental_uris": {"android": "https://dc.lft.to/lastmile_qr_scan", "ios": "https://dc.lft.to/lastmile_qr_scan"}, "type": "electric_scooter", "lon": -76.99502216666667, "name": "efece62d091100410e2717a4e2e089eb", "bike_id": "efece62d091100410e2717a4e2e089eb", "fusion_lat": 0.0, "is_reserved": 0, "lat": 38.862508, "fusion_lon": 0.0, "is_disabled": 0}, {"rental_uris": {"android": "https://dc.lft.to/lastmile_qr_scan", "ios": "https://dc.lft.to/lastmile_qr_scan"}, "type": "electric_scooter", "lon": -77.02827716666667, "name": "b2f0e16087e1733852ff0148a96814b1", "bike_id": "b2f0e16087e1733852ff0148a96814b1", "fusion_lat": 0.0, "is_reserved": 0, "lat": 38.887462166666666, "fusion_lon": 0.0, "is_disabled": 0}, {"rental_uris": {"android": "https://dc.lft.to/lastmile_qr_scan", "ios": "https://dc.lft.to/lastmile_qr_scan"}, "type": "electric_scooter", "lon": -77.03260583333333, "name": "63f9959f0fa5e2092b5d8ecfea520313", "bike_id": "63f9959f0fa5e2092b5d8ecfea520313", "fusion_lat": 0.0, "is_reserved": 0, "lat": 38.934493833333335, "fusion_lon": 0.0, "is_disabled": 0}, {"rental_uris": {"android": "https://dc.lft.to/lastmile_qr_scan", "ios": "https://dc.lft.to/lastmile_qr_scan"}, "type": "electric_bike", "lon": -77.01075533333334, "name": "642721733e3a8417a4553097cc3194fe", "bike_id": "642721733e3a8417a4553097cc3194fe", "fusion_lat": 0.0, "is_reserved": 0, "lat": 38.962601, "fusion_lon": 0.0, "is_disabled": 0}, {"rental_uris": {"android": "https://dc.lft.to/lastmile_qr_scan", "ios": "https://dc.lft.to/lastmile_qr_scan"}, "type": "electric_scooter", "lon": -77.0325545, "name": "7b8ca40187742e1b235dee28e9b3b583", "bike_id": "7b8ca40187742e1b235dee28e9b3b583", "fusion_lat": 0.0, "is_reserved": 0, "lat": 38.90446983333333, "fusion_lon": 0.0, "is_disabled": 0}, {"rental_uris": {"android": "https://dc.lft.to/lastmile_qr_scan", "ios": "https://dc.lft.to/lastmile_qr_scan"}, "type": "electric_scooter", "lon": -76.99525333333334, "name": "228e75dff30e80bbf037ec7deb0f9ec2", "bike_id": "228e75dff30e80bbf037ec7deb0f9ec2", "fusion_lat": 0.0, "is_reserved": 0, "lat": 38.8840685, "fusion_lon": 0.0, "is_disabled": 0}, {"rental_uris": {"android": "https://dc.lft.to/lastmile_qr_scan", "ios": "https://dc.lft.to/lastmile_qr_scan"}, "type": "electric_scooter", "lon": -77.00201066666666, "name": "ede285b5eddae9b2be0142e92c549fac", "bike_id": "ede285b5eddae9b2be0142e92c549fac", "fusion_lat": 0.0, "is_reserved": 0, "lat": 38.902385833333334, "fusion_lon": 0.0, "is_disabled": 0}, {"rental_uris": {"android": "https://dc.lft.to/lastmile_qr_scan", "ios": "https://dc.lft.to/lastmile_qr_scan"}, "type": "electric_bike", "lon": -76.99835716666666, "name": "9603303eb4309ca469757cc6bc657425", "bike_id": "9603303eb4309ca469757cc6bc657425", "fusion_lat": 0.0, "is_reserved": 0, "lat": 38.839165, "fusion_lon": 0.0, "is_disabled": 0}, {"rental_uris": {"android": "https://dc.lft.to/lastmile_qr_scan", "ios": "https://dc.lft.to/lastmile_qr_scan"}, "type": "electric_scooter", "lon": -77.0125265, "name": "147b82dc6d8e8137d5530d3d78441707", "bike_id": "147b82dc6d8e8137d5530d3d78441707", "fusion_lat": 0.0, "is_reserved": 0, "lat": 38.90847333333333, "fusion_lon": 0.0, "is_disabled": 0}, {"rental_uris": {"android": "https://dc.lft.to/lastmile_qr_scan", "ios": "https://dc.lft.to/lastmile_qr_scan"}, "type": "electric_scooter", "lon": -77.03464516666666, "name": "1e27705a8e1fff090f8e28fb38747094", "bike_id": "1e27705a8e1fff090f8e28fb38747094", "fusion_lat": 0.0, "is_reserved": 0, "lat": 38.90265616666667, "fusion_lon": 0.0, "is_disabled": 0}, {"rental_uris": {"android": "https://dc.lft.to/lastmile_qr_scan", "ios": "https://dc.lft.to/lastmile_qr_scan"}, "type": "electric_scooter", "lon": -77.09208916666667, "name": "3c8fe40b9e10db0cacb9496f05644c3c", "bike_id": "3c8fe40b9e10db0cacb9496f05644c3c", "fusion_lat": 0.0, "is_reserved": 0, "lat": 38.9170405, "fusion_lon": 0.0, "is_disabled": 0}, {"rental_uris": {"android": "https://dc.lft.to/lastmile_qr_scan", "ios": "https://dc.lft.to/lastmile_qr_scan"}, "type": "electric_scooter", "lon": -77.029454, "name": "08e3fecf5c9fad4309b47eb7dd57aaa6", "bike_id": "08e3fecf5c9fad4309b47eb7dd57aaa6", "fusion_lat": 0.0, "is_reserved": 0, "lat": 38.90489983333333, "fusion_lon": 0.0, "is_disabled": 0}, {"rental_uris": {"android": "https://dc.lft.to/lastmile_qr_scan", "ios": "https://dc.lft.to/lastmile_qr_scan"}, "type": "electric_scooter", "lon": -77.03430833333333, "name": "f1a632b1d808fec04c82d5b07b5d35f9", "bike_id": "f1a632b1d808fec04c82d5b07b5d35f9", "fusion_lat": 0.0, "is_reserved": 0, "lat": 38.90302783333333, "fusion_lon": 0.0, "is_disabled": 0}, {"rental_uris": {"android": "https://dc.lft.to/lastmile_qr_scan", "ios": "https://dc.lft.to/lastmile_qr_scan"}, "type": "electric_scooter", "lon": -77.0045005, "name": "a9acc1310cb3c8105f884855406405d7", "bike_id": "a9acc1310cb3c8105f884855406405d7", "fusion_lat": 0.0, "is_reserved": 0, "lat": 38.928944333333334, "fusion_lon": 0.0, "is_disabled": 0}, {"rental_uris": {"android": "https://dc.lft.to/lastmile_qr_scan", "ios": "https://dc.lft.to/lastmile_qr_scan"}, "type": "electric_scooter", "lon": -77.02240433333333, "name": "e60e8f7ed9a1d32c3dd2e007d06d7a2d", "bike_id": "e60e8f7ed9a1d32c3dd2e007d06d7a2d", "fusion_lat": 0.0, "is_reserved": 0, "lat": 38.91359633333333, "fusion_lon": 0.0, "is_disabled": 0}, {"rental_uris": {"android": "https://dc.lft.to/lastmile_qr_scan", "ios": "https://dc.lft.to/lastmile_qr_scan"}, "type": "electric_scooter", "lon": -77.03959933333333, "name": "b395ebd962ed9178b990932035a69791", "bike_id": "b395ebd962ed9178b990932035a69791", "fusion_lat": 0.0, "is_reserved": 0, "lat": 38.904423333333334, "fusion_lon": 0.0, "is_disabled": 0}, {"rental_uris": {"android": "https://dc.lft.to/lastmile_qr_scan", "ios": "https://dc.lft.to/lastmile_qr_scan"}, "type": "electric_scooter", "lon": -77.04657966666667, "name": "08a76f78bf523436f3257cfac8f0d5b8", "bike_id": "08a76f78bf523436f3257cfac8f0d5b8", "fusion_lat": 0.0, "is_reserved": 0, "lat": 38.904969, "fusion_lon": 0.0, "is_disabled": 0}, {"rental_uris": {"android": "https://dc.lft.to/lastmile_qr_scan", "ios": "https://dc.lft.to/lastmile_qr_scan"}, "type": "electric_scooter", "lon": -77.03297933333333, "name": "c93ea9794d1fc97be9ca2cc9416e3953", "bike_id": "c93ea9794d1fc97be9ca2cc9416e3953", "fusion_lat": 0.0, "is_reserved": 0, "lat": 38.9564045, "fusion_lon": 0.0, "is_disabled": 0}, {"rental_uris": {"android": "https://dc.lft.to/lastmile_qr_scan", "ios": "https://dc.lft.to/lastmile_qr_scan"}, "type": "electric_scooter", "lon": -77.04978783333334, "name": "cb5a585b8f8838750950589f22921682", "bike_id": "cb5a585b8f8838750950589f22921682", "fusion_lat": 0.0, "is_reserved": 0, "lat": 38.90087716666667, "fusion_lon": 0.0, "is_disabled": 0}, {"rental_uris": {"android": "https://dc.lft.to/lastmile_qr_scan", "ios": "https://dc.lft.to/lastmile_qr_scan"}, "type": "electric_scooter", "lon": -77.00911283333333, "name": "bd4fde69e954f5ec41c2b1351c4ac9c4", "bike_id": "bd4fde69e954f5ec41c2b1351c4ac9c4", "fusion_lat": 0.0, "is_reserved": 0, "lat": 38.895573166666665, "fusion_lon": 0.0, "is_disabled": 0}, {"rental_uris": {"android": "https://dc.lft.to/lastmile_qr_scan", "ios": "https://dc.lft.to/lastmile_qr_scan"}, "type": "electric_scooter", "lon": -77.03214516666667, "name": "dd7d74327626b5469dd4da42d622c739", "bike_id": "dd7d74327626b5469dd4da42d622c739", "fusion_lat": 0.0, "is_reserved": 0, "lat": 38.92262216666666, "fusion_lon": 0.0, "is_disabled": 0}, {"rental_uris": {"android": "https://dc.lft.to/lastmile_qr_scan", "ios": "https://dc.lft.to/lastmile_qr_scan"}, "type": "electric_scooter", "lon": -77.03986433333333, "name": "f113d2a8b0044baf8b76d2793a01ee86", "bike_id": "f113d2a8b0044baf8b76d2793a01ee86", "fusion_lat": 0.0, "is_reserved": 0, "lat": 38.92581366666667, "fusion_lon": 0.0, "is_disabled": 0}, {"rental_uris": {"android": "https://dc.lft.to/lastmile_qr_scan", "ios": "https://dc.lft.to/lastmile_qr_scan"}, "type": "electric_scooter", "lon": -77.032808, "name": "d31e827d3661c45c1ebd641345d76514", "bike_id": "d31e827d3661c45c1ebd641345d76514", "fusion_lat": 0.0, "is_reserved": 0, "lat": 38.93987666666666, "fusion_lon": 0.0, "is_disabled": 0}, {"rental_uris": {"android": "https://dc.lft.to/lastmile_qr_scan", "ios": "https://dc.lft.to/lastmile_qr_scan"}, "type": "electric_scooter", "lon": -77.02285683333334, "name": "50ccae07fbd607dcc03a158e735ffe03", "bike_id": "50ccae07fbd607dcc03a158e735ffe03", "fusion_lat": 0.0, "is_reserved": 0, "lat": 38.9172465, "fusion_lon": 0.0, "is_disabled": 0}, {"rental_uris": {"android": "https://dc.lft.to/lastmile_qr_scan", "ios": "https://dc.lft.to/lastmile_qr_scan"}, "type": "electric_scooter", "lon": -77.0272335, "name": "a00a7a9e688910b37f1a144423000557", "bike_id": "a00a7a9e688910b37f1a144423000557", "fusion_lat": 0.0, "is_reserved": 0, "lat": 38.93399766666667, "fusion_lon": 0.0, "is_disabled": 0}, {"rental_uris": {"android": "https://dc.lft.to/lastmile_qr_scan", "ios": "https://dc.lft.to/lastmile_qr_scan"}, "type": "electric_scooter", "lon": -77.05619333333334, "name": "fdfb733448384edab859db9b0ecdd145", "bike_id": "fdfb733448384edab859db9b0ecdd145", "fusion_lat": 0.0, "is_reserved": 0, "lat": 38.924166166666666, "fusion_lon": 0.0, "is_disabled": 0}, {"rental_uris": {"android": "https://dc.lft.to/lastmile_qr_scan", "ios": "https://dc.lft.to/lastmile_qr_scan"}, "type": "electric_scooter", "lon": -76.9824255, "name": "078882faf8569121837e3a7ca1baef1e", "bike_id": "078882faf8569121837e3a7ca1baef1e", "fusion_lat": 0.0, "is_reserved": 0, "lat": 38.90307416666667, "fusion_lon": 0.0, "is_disabled": 0}, {"rental_uris": {"android": "https://dc.lft.to/lastmile_qr_scan", "ios": "https://dc.lft.to/lastmile_qr_scan"}, "type": "electric_scooter", "lon": -77.02192366666667, "name": "7832fc94aef967e54b5acb99a1d57646", "bike_id": "7832fc94aef967e54b5acb99a1d57646", "fusion_lat": 0.0, "is_reserved": 0, "lat": 38.911249, "fusion_lon": 0.0, "is_disabled": 0}, {"rental_uris": {"android": "https://dc.lft.to/lastmile_qr_scan", "ios": "https://dc.lft.to/lastmile_qr_scan"}, "type": "electric_scooter", "lon": -77.027015, "name": "3076372518e50bb908f2e9f4fb2aeaef", "bike_id": "3076372518e50bb908f2e9f4fb2aeaef", "fusion_lat": 0.0, "is_reserved": 0, "lat": 38.9172205, "fusion_lon": 0.0, "is_disabled": 0}, {"rental_uris": {"android": "https://dc.lft.to/lastmile_qr_scan", "ios": "https://dc.lft.to/lastmile_qr_scan"}, "type": "electric_scooter", "lon": -77.00332866666666, "name": "169cda7bdec19670b0d7db613a2afbe3", "bike_id": "169cda7bdec19670b0d7db613a2afbe3", "fusion_lat": 0.0, "is_reserved": 0, "lat": 38.893542833333335, "fusion_lon": 0.0, "is_disabled": 0}, {"rental_uris": {"android": "https://dc.lft.to/lastmile_qr_scan", "ios": "https://dc.lft.to/lastmile_qr_scan"}, "type": "electric_scooter", "lon": -77.03829883333333, "name": "f15e5d326301e8e093aebd5eab416ac9", "bike_id": "f15e5d326301e8e093aebd5eab416ac9", "fusion_lat": 0.0, "is_reserved": 0, "lat": 38.903104166666665, "fusion_lon": 0.0, "is_disabled": 0}, {"rental_uris": {"android": "https://dc.lft.to/lastmile_qr_scan", "ios": "https://dc.lft.to/lastmile_qr_scan"}, "type": "electric_scooter", "lon": -77.04672183333334, "name": "6c2d369d226724e57ac9e01c41a9f833", "bike_id": "6c2d369d226724e57ac9e01c41a9f833", "fusion_lat": 0.0, "is_reserved": 0, "lat": 38.895537833333336, "fusion_lon": 0.0, "is_disabled": 0}, {"rental_uris": {"android": "https://dc.lft.to/lastmile_qr_scan", "ios": "https://dc.lft.to/lastmile_qr_scan"}, "type": "electric_scooter", "lon": -76.9378215, "name": "a2f87b4f4c5e936c40f139dc13f60cfa", "bike_id": "a2f87b4f4c5e936c40f139dc13f60cfa", "fusion_lat": 0.0, "is_reserved": 0, "lat": 38.899682166666665, "fusion_lon": 0.0, "is_disabled": 0}, {"rental_uris": {"android": "https://dc.lft.to/lastmile_qr_scan", "ios": "https://dc.lft.to/lastmile_qr_scan"}, "type": "electric_bike", "lon": -76.93190266666667, "name": "756f490b455febaacb5260163063dbe1", "bike_id": "756f490b455febaacb5260163063dbe1", "fusion_lat": 0.0, "is_reserved": 0, "lat": 38.89853383333333, "fusion_lon": 0.0, "is_disabled": 0}, {"rental_uris": {"android": "https://dc.lft.to/lastmile_qr_scan", "ios": "https://dc.lft.to/lastmile_qr_scan"}, "type": "electric_scooter", "lon": -77.025117, "name": "3264a929449e7b298f6ce2f69e3872ef", "bike_id": "3264a929449e7b298f6ce2f69e3872ef", "fusion_lat": 0.0, "is_reserved": 0, "lat": 38.92632016666667, "fusion_lon": 0.0, "is_disabled": 0}, {"rental_uris": {"android": "https://dc.lft.to/lastmile_qr_scan", "ios": "https://dc.lft.to/lastmile_qr_scan"}, "type": "electric_scooter", "lon": -77.0343945, "name": "1f6eb9fce3e878ccdd0cc78c484cc6fb", "bike_id": "1f6eb9fce3e878ccdd0cc78c484cc6fb", "fusion_lat": 0.0, "is_reserved": 0, "lat": 38.92866083333333, "fusion_lon": 0.0, "is_disabled": 0}, {"rental_uris": {"android": "https://dc.lft.to/lastmile_qr_scan", "ios": "https://dc.lft.to/lastmile_qr_scan"}, "type": "electric_bike", "lon": -77.06950633333334, "name": "2f0fa1aeb3f28973c5fe5c9e28486c2c", "bike_id": "2f0fa1aeb3f28973c5fe5c9e28486c2c", "fusion_lat": 0.0, "is_reserved": 0, "lat": 38.99047433333333, "fusion_lon": 0.0, "is_disabled": 0}, {"rental_uris": {"android": "https://dc.lft.to/lastmile_qr_scan", "ios": "https://dc.lft.to/lastmile_qr_scan"}, "type": "electric_scooter", "lon": -77.04495266666666, "name": "aa5ba47974cbfbbc509892a3dac6bf9b", "bike_id": "aa5ba47974cbfbbc509892a3dac6bf9b", "fusion_lat": 0.0, "is_reserved": 0, "lat": 38.90016983333334, "fusion_lon": 0.0, "is_disabled": 0}, {"rental_uris": {"android": "https://dc.lft.to/lastmile_qr_scan", "ios": "https://dc.lft.to/lastmile_qr_scan"}, "type": "electric_scooter", "lon": -77.01897316666667, "name": "e5dae701decf754f4b1a8c78369759ff", "bike_id": "e5dae701decf754f4b1a8c78369759ff", "fusion_lat": 0.0, "is_reserved": 0, "lat": 38.87659516666667, "fusion_lon": 0.0, "is_disabled": 0}, {"rental_uris": {"android": "https://dc.lft.to/lastmile_qr_scan", "ios": "https://dc.lft.to/lastmile_qr_scan"}, "type": "electric_scooter", "lon": -77.01677166666667, "name": "598ce86ccb0c2f1170c34468670a5d0c", "bike_id": "598ce86ccb0c2f1170c34468670a5d0c", "fusion_lat": 0.0, "is_reserved": 0, "lat": 38.883277666666665, "fusion_lon": 0.0, "is_disabled": 0}, {"rental_uris": {"android": "https://dc.lft.to/lastmile_qr_scan", "ios": "https://dc.lft.to/lastmile_qr_scan"}, "type": "electric_scooter", "lon": -77.0220645, "name": "175498e30417c6990d3498bad0cc0a88", "bike_id": "175498e30417c6990d3498bad0cc0a88", "fusion_lat": 0.0, "is_reserved": 0, "lat": 38.90374716666667, "fusion_lon": 0.0, "is_disabled": 0}, {"rental_uris": {"android": "https://dc.lft.to/lastmile_qr_scan", "ios": "https://dc.lft.to/lastmile_qr_scan"}, "type": "electric_scooter", "lon": -77.03226716666667, "name": "6cb39f62d1e1e638664f28cd62893ef7", "bike_id": "6cb39f62d1e1e638664f28cd62893ef7", "fusion_lat": 0.0, "is_reserved": 0, "lat": 38.89225483333333, "fusion_lon": 0.0, "is_disabled": 0}, {"rental_uris": {"android": "https://dc.lft.to/lastmile_qr_scan", "ios": "https://dc.lft.to/lastmile_qr_scan"}, "type": "electric_scooter", "lon": -77.02390333333334, "name": "92918857548804315ad19fc272cbef8a", "bike_id": "92918857548804315ad19fc272cbef8a", "fusion_lat": 0.0, "is_reserved": 0, "lat": 38.9098255, "fusion_lon": 0.0, "is_disabled": 0}, {"rental_uris": {"android": "https://dc.lft.to/lastmile_qr_scan", "ios": "https://dc.lft.to/lastmile_qr_scan"}, "type": "electric_scooter", "lon": -77.004191, "name": "dce8662b752b422e9852e771b0193c71", "bike_id": "dce8662b752b422e9852e771b0193c71", "fusion_lat": 0.0, "is_reserved": 0, "lat": 38.876584, "fusion_lon": 0.0, "is_disabled": 0}, {"rental_uris": {"android": "https://dc.lft.to/lastmile_qr_scan", "ios": "https://dc.lft.to/lastmile_qr_scan"}, "type": "electric_scooter", "lon": -77.03220316666666, "name": "52bc071742c9d03a0ac0d6fab8c1fd30", "bike_id": "52bc071742c9d03a0ac0d6fab8c1fd30", "fusion_lat": 0.0, "is_reserved": 0, "lat": 38.915938833333335, "fusion_lon": 0.0, "is_disabled": 0}, {"rental_uris": {"android": "https://dc.lft.to/lastmile_qr_scan", "ios": "https://dc.lft.to/lastmile_qr_scan"}, "type": "electric_scooter", "lon": -77.06568633333333, "name": "53436ddb95efd26f9ad42d4c26d485f0", "bike_id": "53436ddb95efd26f9ad42d4c26d485f0", "fusion_lat": 0.0, "is_reserved": 0, "lat": 38.905202, "fusion_lon": 0.0, "is_disabled": 0}, {"rental_uris": {"android": "https://dc.lft.to/lastmile_qr_scan", "ios": "https://dc.lft.to/lastmile_qr_scan"}, "type": "electric_scooter", "lon": -76.9471405, "name": "484e8b3ef35fad3eda394ddd55302273", "bike_id": "484e8b3ef35fad3eda394ddd55302273", "fusion_lat": 0.0, "is_reserved": 0, "lat": 38.89736416666667, "fusion_lon": 0.0, "is_disabled": 0}, {"rental_uris": {"android": "https://dc.lft.to/lastmile_qr_scan", "ios": "https://dc.lft.to/lastmile_qr_scan"}, "type": "electric_scooter", "lon": -77.04404566666666, "name": "92afc2632fce8abd346e2ac2a1e49109", "bike_id": "92afc2632fce8abd346e2ac2a1e49109", "fusion_lat": 0.0, "is_reserved": 0, "lat": 38.93460183333333, "fusion_lon": 0.0, "is_disabled": 0}, {"rental_uris": {"android": "https://dc.lft.to/lastmile_qr_scan", "ios": "https://dc.lft.to/lastmile_qr_scan"}, "type": "electric_scooter", "lon": -77.01373716666667, "name": "bd79698885c4b8c7cd4723c1281b7e70", "bike_id": "bd79698885c4b8c7cd4723c1281b7e70", "fusion_lat": 0.0, "is_reserved": 0, "lat": 38.9149755, "fusion_lon": 0.0, "is_disabled": 0}, {"rental_uris": {"android": "https://dc.lft.to/lastmile_qr_scan", "ios": "https://dc.lft.to/lastmile_qr_scan"}, "type": "electric_scooter", "lon": -77.03320766666667, "name": "cfc90a526c2956007ebe5e8a2987f487", "bike_id": "cfc90a526c2956007ebe5e8a2987f487", "fusion_lat": 0.0, "is_reserved": 0, "lat": 38.90328016666667, "fusion_lon": 0.0, "is_disabled": 0}, {"rental_uris": {"android": "https://dc.lft.to/lastmile_qr_scan", "ios": "https://dc.lft.to/lastmile_qr_scan"}, "type": "electric_bike", "lon": -76.90961016666667, "name": "61167177f70c7cf1a6488b2ca64b9784", "bike_id": "61167177f70c7cf1a6488b2ca64b9784", "fusion_lat": 0.0, "is_reserved": 0, "lat": 38.85432483333334, "fusion_lon": 0.0, "is_disabled": 0}, {"rental_uris": {"android": "https://dc.lft.to/lastmile_qr_scan", "ios": "https://dc.lft.to/lastmile_qr_scan"}, "type": "electric_scooter", "lon": -77.0483555, "name": "0ecbe42ee6f2a938c910a72b895b3d21", "bike_id": "0ecbe42ee6f2a938c910a72b895b3d21", "fusion_lat": 0.0, "is_reserved": 0, "lat": 38.913449166666666, "fusion_lon": 0.0, "is_disabled": 0}, {"rental_uris": {"android": "https://dc.lft.to/lastmile_qr_scan", "ios": "https://dc.lft.to/lastmile_qr_scan"}, "type": "electric_bike", "lon": -77.01286483333334, "name": "a67a835cf58e3337042a5bf397e987ec", "bike_id": "a67a835cf58e3337042a5bf397e987ec", "fusion_lat": 0.0, "is_reserved": 0, "lat": 39.003778833333335, "fusion_lon": 0.0, "is_disabled": 0}, {"rental_uris": {"android": "https://dc.lft.to/lastmile_qr_scan", "ios": "https://dc.lft.to/lastmile_qr_scan"}, "type": "electric_scooter", "lon": -77.02546883333333, "name": "b82620bf370166f4b994867b97dcacb5", "bike_id": "b82620bf370166f4b994867b97dcacb5", "fusion_lat": 0.0, "is_reserved": 0, "lat": 38.892324333333335, "fusion_lon": 0.0, "is_disabled": 0}, {"rental_uris": {"android": "https://dc.lft.to/lastmile_qr_scan", "ios": "https://dc.lft.to/lastmile_qr_scan"}, "type": "electric_bike", "lon": -77.08523433333333, "name": "30595faa0d9b9f75d86590fcb660fed9", "bike_id": "30595faa0d9b9f75d86590fcb660fed9", "fusion_lat": 0.0, "is_reserved": 0, "lat": 38.85649266666667, "fusion_lon": 0.0, "is_disabled": 0}, {"rental_uris": {"android": "https://dc.lft.to/lastmile_qr_scan", "ios": "https://dc.lft.to/lastmile_qr_scan"}, "type": "electric_scooter", "lon": -77.0280615, "name": "280634713b87b591ae474b9de64b3bc2", "bike_id": "280634713b87b591ae474b9de64b3bc2", "fusion_lat": 0.0, "is_reserved": 0, "lat": 38.90436483333333, "fusion_lon": 0.0, "is_disabled": 0}, {"rental_uris": {"android": "https://dc.lft.to/lastmile_qr_scan", "ios": "https://dc.lft.to/lastmile_qr_scan"}, "type": "electric_scooter", "lon": -77.01715666666666, "name": "2683cd3b8abab24adba91edfc5ff5964", "bike_id": "2683cd3b8abab24adba91edfc5ff5964", "fusion_lat": 0.0, "is_reserved": 0, "lat": 38.885917, "fusion_lon": 0.0, "is_disabled": 0}, {"rental_uris": {"android": "https://dc.lft.to/lastmile_qr_scan", "ios": "https://dc.lft.to/lastmile_qr_scan"}, "type": "electric_scooter", "lon": -76.94842183333333, "name": "027ca0be0dd35db91dfe2ac2be9dc962", "bike_id": "027ca0be0dd35db91dfe2ac2be9dc962", "fusion_lat": 0.0, "is_reserved": 0, "lat": 38.894847166666665, "fusion_lon": 0.0, "is_disabled": 0}, {"rental_uris": {"android": "https://dc.lft.to/lastmile_qr_scan", "ios": "https://dc.lft.to/lastmile_qr_scan"}, "type": "electric_scooter", "lon": -77.06321333333334, "name": "b38bb344b68d119ab70f81eb58bbd5a8", "bike_id": "b38bb344b68d119ab70f81eb58bbd5a8", "fusion_lat": 0.0, "is_reserved": 0, "lat": 38.92175266666667, "fusion_lon": 0.0, "is_disabled": 0}, {"rental_uris": {"android": "https://dc.lft.to/lastmile_qr_scan", "ios": "https://dc.lft.to/lastmile_qr_scan"}, "type": "electric_scooter", "lon": -77.011118, "name": "e0de798ba76bf2acaef19aa73fea09f9", "bike_id": "e0de798ba76bf2acaef19aa73fea09f9", "fusion_lat": 0.0, "is_reserved": 0, "lat": 38.90360533333333, "fusion_lon": 0.0, "is_disabled": 0}, {"rental_uris": {"android": "https://dc.lft.to/lastmile_qr_scan", "ios": "https://dc.lft.to/lastmile_qr_scan"}, "type": "electric_scooter", "lon": -77.00346216666667, "name": "b404d04b03647d40c229ed0aa57dd192", "bike_id": "b404d04b03647d40c229ed0aa57dd192", "fusion_lat": 0.0, "is_reserved": 0, "lat": 38.89539283333333, "fusion_lon": 0.0, "is_disabled": 0}, {"rental_uris": {"android": "https://dc.lft.to/lastmile_qr_scan", "ios": "https://dc.lft.to/lastmile_qr_scan"}, "type": "electric_scooter", "lon": -77.00595516666667, "name": "80c0c40a8a640650463313714a1e92e0", "bike_id": "80c0c40a8a640650463313714a1e92e0", "fusion_lat": 0.0, "is_reserved": 0, "lat": 38.877351833333336, "fusion_lon": 0.0, "is_disabled": 0}, {"rental_uris": {"android": "https://dc.lft.to/lastmile_qr_scan", "ios": "https://dc.lft.to/lastmile_qr_scan"}, "type": "electric_scooter", "lon": -76.96412933333333, "name": "fefec45a3442a6bdf1bb09fc03342926", "bike_id": "fefec45a3442a6bdf1bb09fc03342926", "fusion_lat": 0.0, "is_reserved": 0, "lat": 38.93448933333333, "fusion_lon": 0.0, "is_disabled": 0}, {"rental_uris": {"android": "https://dc.lft.to/lastmile_qr_scan", "ios": "https://dc.lft.to/lastmile_qr_scan"}, "type": "electric_scooter", "lon": -77.0075145, "name": "eca0e29d21efe54adf5dc304fc0781b8", "bike_id": "eca0e29d21efe54adf5dc304fc0781b8", "fusion_lat": 0.0, "is_reserved": 0, "lat": 38.92673083333333, "fusion_lon": 0.0, "is_disabled": 0}, {"rental_uris": {"android": "https://dc.lft.to/lastmile_qr_scan", "ios": "https://dc.lft.to/lastmile_qr_scan"}, "type": "electric_scooter", "lon": -77.00573566666667, "name": "fa79b3781541633f87ed6e4621f393b6", "bike_id": "fa79b3781541633f87ed6e4621f393b6", "fusion_lat": 0.0, "is_reserved": 0, "lat": 38.90541133333333, "fusion_lon": 0.0, "is_disabled": 0}, {"rental_uris": {"android": "https://dc.lft.to/lastmile_qr_scan", "ios": "https://dc.lft.to/lastmile_qr_scan"}, "type": "electric_scooter", "lon": -76.94631166666667, "name": "9b6ac7907342d14178e643856f174f8d", "bike_id": "9b6ac7907342d14178e643856f174f8d", "fusion_lat": 0.0, "is_reserved": 0, "lat": 38.89842433333333, "fusion_lon": 0.0, "is_disabled": 0}, {"rental_uris": {"android": "https://dc.lft.to/lastmile_qr_scan", "ios": "https://dc.lft.to/lastmile_qr_scan"}, "type": "electric_scooter", "lon": -76.98990483333333, "name": "fd04bb4a5c2b7dcb6e9396490e802542", "bike_id": "fd04bb4a5c2b7dcb6e9396490e802542", "fusion_lat": 0.0, "is_reserved": 0, "lat": 38.8644185, "fusion_lon": 0.0, "is_disabled": 0}, {"rental_uris": {"android": "https://dc.lft.to/lastmile_qr_scan", "ios": "https://dc.lft.to/lastmile_qr_scan"}, "type": "electric_scooter", "lon": -77.03468583333333, "name": "3dc905ef29398d7935a630cbd97515e1", "bike_id": "3dc905ef29398d7935a630cbd97515e1", "fusion_lat": 0.0, "is_reserved": 0, "lat": 38.90323983333333, "fusion_lon": 0.0, "is_disabled": 0}, {"rental_uris": {"android": "https://dc.lft.to/lastmile_qr_scan", "ios": "https://dc.lft.to/lastmile_qr_scan"}, "type": "electric_scooter", "lon": -77.02343166666667, "name": "a43e7aea871ade0a7ad38cff1d34cf45", "bike_id": "a43e7aea871ade0a7ad38cff1d34cf45", "fusion_lat": 0.0, "is_reserved": 0, "lat": 38.962088, "fusion_lon": 0.0, "is_disabled": 0}, {"rental_uris": {"android": "https://dc.lft.to/lastmile_qr_scan", "ios": "https://dc.lft.to/lastmile_qr_scan"}, "type": "electric_scooter", "lon": -77.05723166666667, "name": "2d51982dc1404740502abbf60aef64c5", "bike_id": "2d51982dc1404740502abbf60aef64c5", "fusion_lat": 0.0, "is_reserved": 0, "lat": 38.93369533333333, "fusion_lon": 0.0, "is_disabled": 0}, {"rental_uris": {"android": "https://dc.lft.to/lastmile_qr_scan", "ios": "https://dc.lft.to/lastmile_qr_scan"}, "type": "electric_scooter", "lon": -77.02354933333334, "name": "61d54139412d53107af93b6bd5cd5750", "bike_id": "61d54139412d53107af93b6bd5cd5750", "fusion_lat": 0.0, "is_reserved": 0, "lat": 38.892231833333334, "fusion_lon": 0.0, "is_disabled": 0}, {"rental_uris": {"android": "https://dc.lft.to/lastmile_qr_scan", "ios": "https://dc.lft.to/lastmile_qr_scan"}, "type": "electric_scooter", "lon": -76.99620266666666, "name": "06564e128aef1d83c141cf65501f79ca", "bike_id": "06564e128aef1d83c141cf65501f79ca", "fusion_lat": 0.0, "is_reserved": 0, "lat": 38.900317, "fusion_lon": 0.0, "is_disabled": 0}, {"rental_uris": {"android": "https://dc.lft.to/lastmile_qr_scan", "ios": "https://dc.lft.to/lastmile_qr_scan"}, "type": "electric_scooter", "lon": -77.038623, "name": "92cc6bfe170a2341207dc8c7a4fc7ce7", "bike_id": "92cc6bfe170a2341207dc8c7a4fc7ce7", "fusion_lat": 0.0, "is_reserved": 0, "lat": 38.91260066666667, "fusion_lon": 0.0, "is_disabled": 0}, {"rental_uris": {"android": "https://dc.lft.to/lastmile_qr_scan", "ios": "https://dc.lft.to/lastmile_qr_scan"}, "type": "electric_scooter", "lon": -77.04486033333333, "name": "41fc36bf5ce0390444625984b9121dad", "bike_id": "41fc36bf5ce0390444625984b9121dad", "fusion_lat": 0.0, "is_reserved": 0, "lat": 38.911797666666665, "fusion_lon": 0.0, "is_disabled": 0}, {"rental_uris": {"android": "https://dc.lft.to/lastmile_qr_scan", "ios": "https://dc.lft.to/lastmile_qr_scan"}, "type": "electric_scooter", "lon": -77.04290583333334, "name": "dcf5d533d1bee6fdca43b60dc230d4ca", "bike_id": "dcf5d533d1bee6fdca43b60dc230d4ca", "fusion_lat": 0.0, "is_reserved": 0, "lat": 38.9225155, "fusion_lon": 0.0, "is_disabled": 0}, {"rental_uris": {"android": "https://dc.lft.to/lastmile_qr_scan", "ios": "https://dc.lft.to/lastmile_qr_scan"}, "type": "electric_scooter", "lon": -77.02151716666667, "name": "c45fa0d104233826694795b4de09a741", "bike_id": "c45fa0d104233826694795b4de09a741", "fusion_lat": 0.0, "is_reserved": 0, "lat": 38.884894333333335, "fusion_lon": 0.0, "is_disabled": 0}, {"rental_uris": {"android": "https://dc.lft.to/lastmile_qr_scan", "ios": "https://dc.lft.to/lastmile_qr_scan"}, "type": "electric_bike", "lon": -77.10994016666666, "name": "168111dced24c714bd6c6178ff1d26ef", "bike_id": "168111dced24c714bd6c6178ff1d26ef", "fusion_lat": 0.0, "is_reserved": 0, "lat": 38.87056483333333, "fusion_lon": 0.0, "is_disabled": 0}, {"rental_uris": {"android": "https://dc.lft.to/lastmile_qr_scan", "ios": "https://dc.lft.to/lastmile_qr_scan"}, "type": "electric_scooter", "lon": -76.99478883333333, "name": "4519d8034cc39b2a93ddb1abf1044d6f", "bike_id": "4519d8034cc39b2a93ddb1abf1044d6f", "fusion_lat": 0.0, "is_reserved": 0, "lat": 38.87732533333333, "fusion_lon": 0.0, "is_disabled": 0}, {"rental_uris": {"android": "https://dc.lft.to/lastmile_qr_scan", "ios": "https://dc.lft.to/lastmile_qr_scan"}, "type": "electric_scooter", "lon": -77.05129616666666, "name": "cd4a1dacd50d68e5c27543b0a07a2d18", "bike_id": "cd4a1dacd50d68e5c27543b0a07a2d18", "fusion_lat": 0.0, "is_reserved": 0, "lat": 38.906629833333334, "fusion_lon": 0.0, "is_disabled": 0}, {"rental_uris": {"android": "https://dc.lft.to/lastmile_qr_scan", "ios": "https://dc.lft.to/lastmile_qr_scan"}, "type": "electric_scooter", "lon": -77.03790083333334, "name": "e12fa1fae08dd3bc8cc15676ec64e494", "bike_id": "e12fa1fae08dd3bc8cc15676ec64e494", "fusion_lat": 0.0, "is_reserved": 0, "lat": 38.931044, "fusion_lon": 0.0, "is_disabled": 0}, {"rental_uris": {"android": "https://dc.lft.to/lastmile_qr_scan", "ios": "https://dc.lft.to/lastmile_qr_scan"}, "type": "electric_scooter", "lon": -77.04168516666667, "name": "d9c468f6128e9f5f88d6775c5fe04472", "bike_id": "d9c468f6128e9f5f88d6775c5fe04472", "fusion_lat": 0.0, "is_reserved": 0, "lat": 38.913425833333335, "fusion_lon": 0.0, "is_disabled": 0}, {"rental_uris": {"android": "https://dc.lft.to/lastmile_qr_scan", "ios": "https://dc.lft.to/lastmile_qr_scan"}, "type": "electric_scooter", "lon": -77.025121, "name": "99847958ac48d6bd7729aff14ada5034", "bike_id": "99847958ac48d6bd7729aff14ada5034", "fusion_lat": 0.0, "is_reserved": 0, "lat": 38.9015515, "fusion_lon": 0.0, "is_disabled": 0}, {"rental_uris": {"android": "https://dc.lft.to/lastmile_qr_scan", "ios": "https://dc.lft.to/lastmile_qr_scan"}, "type": "electric_scooter", "lon": -77.01925016666667, "name": "381fa1b5a23c2afe1df7b24de800d969", "bike_id": "381fa1b5a23c2afe1df7b24de800d969", "fusion_lat": 0.0, "is_reserved": 0, "lat": 38.935767, "fusion_lon": 0.0, "is_disabled": 0}, {"rental_uris": {"android": "https://dc.lft.to/lastmile_qr_scan", "ios": "https://dc.lft.to/lastmile_qr_scan"}, "type": "electric_scooter", "lon": -77.01439716666667, "name": "ce6bb7a0a0c67bef50098759504dfd52", "bike_id": "ce6bb7a0a0c67bef50098759504dfd52", "fusion_lat": 0.0, "is_reserved": 0, "lat": 38.87778083333333, "fusion_lon": 0.0, "is_disabled": 0}, {"rental_uris": {"android": "https://dc.lft.to/lastmile_qr_scan", "ios": "https://dc.lft.to/lastmile_qr_scan"}, "type": "electric_scooter", "lon": -77.011514, "name": "d7193ab558e83f6108109c59e2bc3037", "bike_id": "d7193ab558e83f6108109c59e2bc3037", "fusion_lat": 0.0, "is_reserved": 0, "lat": 38.90295783333333, "fusion_lon": 0.0, "is_disabled": 0}, {"rental_uris": {"android": "https://dc.lft.to/lastmile_qr_scan", "ios": "https://dc.lft.to/lastmile_qr_scan"}, "type": "electric_scooter", "lon": -76.9875825, "name": "d55f0bbec55d68b389c5b3be46123ee7", "bike_id": "d55f0bbec55d68b389c5b3be46123ee7", "fusion_lat": 0.0, "is_reserved": 0, "lat": 38.8449895, "fusion_lon": 0.0, "is_disabled": 0}, {"rental_uris": {"android": "https://dc.lft.to/lastmile_qr_scan", "ios": "https://dc.lft.to/lastmile_qr_scan"}, "type": "electric_scooter", "lon": -76.99027, "name": "15a8742fff8789b5b8cd023b0680f8d7", "bike_id": "15a8742fff8789b5b8cd023b0680f8d7", "fusion_lat": 0.0, "is_reserved": 0, "lat": 38.860721, "fusion_lon": 0.0, "is_disabled": 0}, {"rental_uris": {"android": "https://dc.lft.to/lastmile_qr_scan", "ios": "https://dc.lft.to/lastmile_qr_scan"}, "type": "electric_scooter", "lon": -77.01895016666667, "name": "f3373daecf02a8cff669124ce97506c2", "bike_id": "f3373daecf02a8cff669124ce97506c2", "fusion_lat": 0.0, "is_reserved": 0, "lat": 38.92342033333333, "fusion_lon": 0.0, "is_disabled": 0}, {"rental_uris": {"android": "https://dc.lft.to/lastmile_qr_scan", "ios": "https://dc.lft.to/lastmile_qr_scan"}, "type": "electric_scooter", "lon": -77.03431266666666, "name": "09af0455ceb788eb79a42e692ba19889", "bike_id": "09af0455ceb788eb79a42e692ba19889", "fusion_lat": 0.0, "is_reserved": 0, "lat": 38.90399516666667, "fusion_lon": 0.0, "is_disabled": 0}, {"rental_uris": {"android": "https://dc.lft.to/lastmile_qr_scan", "ios": "https://dc.lft.to/lastmile_qr_scan"}, "type": "electric_scooter", "lon": -77.026331, "name": "6f859d435bcf860cb5fd39f2c87dc6ed", "bike_id": "6f859d435bcf860cb5fd39f2c87dc6ed", "fusion_lat": 0.0, "is_reserved": 0, "lat": 38.8922265, "fusion_lon": 0.0, "is_disabled": 0}, {"rental_uris": {"android": "https://dc.lft.to/lastmile_qr_scan", "ios": "https://dc.lft.to/lastmile_qr_scan"}, "type": "electric_scooter", "lon": -77.034377, "name": "55f60de24bf809310066e86ead933f31", "bike_id": "55f60de24bf809310066e86ead933f31", "fusion_lat": 0.0, "is_reserved": 0, "lat": 38.90507016666667, "fusion_lon": 0.0, "is_disabled": 0}, {"rental_uris": {"android": "https://dc.lft.to/lastmile_qr_scan", "ios": "https://dc.lft.to/lastmile_qr_scan"}, "type": "electric_scooter", "lon": -77.034778, "name": "61e47dc611322ffe71b52fa37e584919", "bike_id": "61e47dc611322ffe71b52fa37e584919", "fusion_lat": 0.0, "is_reserved": 0, "lat": 38.928675166666665, "fusion_lon": 0.0, "is_disabled": 0}, {"rental_uris": {"android": "https://dc.lft.to/lastmile_qr_scan", "ios": "https://dc.lft.to/lastmile_qr_scan"}, "type": "electric_scooter", "lon": -76.94849333333333, "name": "b05ecd32e11fceb71d96793c24a968c8", "bike_id": "b05ecd32e11fceb71d96793c24a968c8", "fusion_lat": 0.0, "is_reserved": 0, "lat": 38.882985833333336, "fusion_lon": 0.0, "is_disabled": 0}, {"rental_uris": {"android": "https://dc.lft.to/lastmile_qr_scan", "ios": "https://dc.lft.to/lastmile_qr_scan"}, "type": "electric_bike", "lon": -76.979469, "name": "790fd24ddb65aac1f6a3d01674a644d7", "bike_id": "790fd24ddb65aac1f6a3d01674a644d7", "fusion_lat": 0.0, "is_reserved": 0, "lat": 38.898020333333335, "fusion_lon": 0.0, "is_disabled": 0}, {"rental_uris": {"android": "https://dc.lft.to/lastmile_qr_scan", "ios": "https://dc.lft.to/lastmile_qr_scan"}, "type": "electric_bike", "lon": -77.13594066666667, "name": "2e2c4e32f9d5583173ad75efe167a454", "bike_id": "2e2c4e32f9d5583173ad75efe167a454", "fusion_lat": 0.0, "is_reserved": 0, "lat": 39.0534575, "fusion_lon": 0.0, "is_disabled": 0}, {"rental_uris": {"android": "https://dc.lft.to/lastmile_qr_scan", "ios": "https://dc.lft.to/lastmile_qr_scan"}, "type": "electric_scooter", "lon": -77.06185783333333, "name": "914946b3a30969fe91adf620ed905745", "bike_id": "914946b3a30969fe91adf620ed905745", "fusion_lat": 0.0, "is_reserved": 0, "lat": 38.930131833333334, "fusion_lon": 0.0, "is_disabled": 0}, {"rental_uris": {"android": "https://dc.lft.to/lastmile_qr_scan", "ios": "https://dc.lft.to/lastmile_qr_scan"}, "type": "electric_scooter", "lon": -76.93835466666667, "name": "7c0b6c0e0dd0e74a44b17c2e05fde3b4", "bike_id": "7c0b6c0e0dd0e74a44b17c2e05fde3b4", "fusion_lat": 0.0, "is_reserved": 0, "lat": 38.89014133333333, "fusion_lon": 0.0, "is_disabled": 0}, {"rental_uris": {"android": "https://dc.lft.to/lastmile_qr_scan", "ios": "https://dc.lft.to/lastmile_qr_scan"}, "type": "electric_scooter", "lon": -77.02348683333334, "name": "f45a3df636b3fc64a9773ba514d7ae52", "bike_id": "f45a3df636b3fc64a9773ba514d7ae52", "fusion_lat": 0.0, "is_reserved": 0, "lat": 38.929853333333334, "fusion_lon": 0.0, "is_disabled": 0}, {"rental_uris": {"android": "https://dc.lft.to/lastmile_qr_scan", "ios": "https://dc.lft.to/lastmile_qr_scan"}, "type": "electric_scooter", "lon": -77.02210933333333, "name": "19e44cc0d7ed48670a0d1d11d16ad072", "bike_id": "19e44cc0d7ed48670a0d1d11d16ad072", "fusion_lat": 0.0, "is_reserved": 0, "lat": 38.9039015, "fusion_lon": 0.0, "is_disabled": 0}, {"rental_uris": {"android": "https://dc.lft.to/lastmile_qr_scan", "ios": "https://dc.lft.to/lastmile_qr_scan"}, "type": "electric_scooter", "lon": -77.078636, "name": "c9cfd03ab0180384d7a5a5427fb68532", "bike_id": "c9cfd03ab0180384d7a5a5427fb68532", "fusion_lat": 0.0, "is_reserved": 0, "lat": 38.919136333333334, "fusion_lon": 0.0, "is_disabled": 0}, {"rental_uris": {"android": "https://dc.lft.to/lastmile_qr_scan", "ios": "https://dc.lft.to/lastmile_qr_scan"}, "type": "electric_scooter", "lon": -77.02341166666666, "name": "c688564dba2e520e32eb62fc929fc5a2", "bike_id": "c688564dba2e520e32eb62fc929fc5a2", "fusion_lat": 0.0, "is_reserved": 0, "lat": 38.96207366666667, "fusion_lon": 0.0, "is_disabled": 0}, {"rental_uris": {"android": "https://dc.lft.to/lastmile_qr_scan", "ios": "https://dc.lft.to/lastmile_qr_scan"}, "type": "electric_scooter", "lon": -77.03699816666666, "name": "2125e00acb3a4a245a55aa70da9273f8", "bike_id": "2125e00acb3a4a245a55aa70da9273f8", "fusion_lat": 0.0, "is_reserved": 0, "lat": 38.92642033333333, "fusion_lon": 0.0, "is_disabled": 0}, {"rental_uris": {"android": "https://dc.lft.to/lastmile_qr_scan", "ios": "https://dc.lft.to/lastmile_qr_scan"}, "type": "electric_scooter", "lon": -77.0296045, "name": "ca3e539e8f24cc1b3821005c6129962f", "bike_id": "ca3e539e8f24cc1b3821005c6129962f", "fusion_lat": 0.0, "is_reserved": 0, "lat": 38.9231785, "fusion_lon": 0.0, "is_disabled": 0}, {"rental_uris": {"android": "https://dc.lft.to/lastmile_qr_scan", "ios": "https://dc.lft.to/lastmile_qr_scan"}, "type": "electric_scooter", "lon": -77.043512, "name": "b553fc6a8f8205177cba4f91ffdf89f2", "bike_id": "b553fc6a8f8205177cba4f91ffdf89f2", "fusion_lat": 0.0, "is_reserved": 0, "lat": 38.9212835, "fusion_lon": 0.0, "is_disabled": 0}, {"rental_uris": {"android": "https://dc.lft.to/lastmile_qr_scan", "ios": "https://dc.lft.to/lastmile_qr_scan"}, "type": "electric_scooter", "lon": -77.04359916666667, "name": "83ef1e6dc804d5224a7e4c3f996a1db8", "bike_id": "83ef1e6dc804d5224a7e4c3f996a1db8", "fusion_lat": 0.0, "is_reserved": 0, "lat": 38.90410716666667, "fusion_lon": 0.0, "is_disabled": 0}, {"rental_uris": {"android": "https://dc.lft.to/lastmile_qr_scan", "ios": "https://dc.lft.to/lastmile_qr_scan"}, "type": "electric_scooter", "lon": -77.03699283333333, "name": "a865f4d1a8f67dd3e9f085d1d544db8a", "bike_id": "a865f4d1a8f67dd3e9f085d1d544db8a", "fusion_lat": 0.0, "is_reserved": 0, "lat": 38.9264495, "fusion_lon": 0.0, "is_disabled": 0}, {"rental_uris": {"android": "https://dc.lft.to/lastmile_qr_scan", "ios": "https://dc.lft.to/lastmile_qr_scan"}, "type": "electric_scooter", "lon": -76.9948085, "name": "e8063c045d3a4ba56daf7d929f654e39", "bike_id": "e8063c045d3a4ba56daf7d929f654e39", "fusion_lat": 0.0, "is_reserved": 0, "lat": 38.862397333333334, "fusion_lon": 0.0, "is_disabled": 0}, {"rental_uris": {"android": "https://dc.lft.to/lastmile_qr_scan", "ios": "https://dc.lft.to/lastmile_qr_scan"}, "type": "electric_scooter", "lon": -77.00591916666667, "name": "b8d01368f70d84ed2960bbf014588b3d", "bike_id": "b8d01368f70d84ed2960bbf014588b3d", "fusion_lat": 0.0, "is_reserved": 0, "lat": 38.915605666666664, "fusion_lon": 0.0, "is_disabled": 0}, {"rental_uris": {"android": "https://dc.lft.to/lastmile_qr_scan", "ios": "https://dc.lft.to/lastmile_qr_scan"}, "type": "electric_bike", "lon": -77.1249965, "name": "f17d90b57dab26f94e22cb007e71d546", "bike_id": "f17d90b57dab26f94e22cb007e71d546", "fusion_lat": 0.0, "is_reserved": 0, "lat": 39.02421233333333, "fusion_lon": 0.0, "is_disabled": 0}, {"rental_uris": {"android": "https://dc.lft.to/lastmile_qr_scan", "ios": "https://dc.lft.to/lastmile_qr_scan"}, "type": "electric_scooter", "lon": -77.03533533333334, "name": "5c2263d69456475e4ae8f467417caf6e", "bike_id": "5c2263d69456475e4ae8f467417caf6e", "fusion_lat": 0.0, "is_reserved": 0, "lat": 38.903589, "fusion_lon": 0.0, "is_disabled": 0}, {"rental_uris": {"android": "https://dc.lft.to/lastmile_qr_scan", "ios": "https://dc.lft.to/lastmile_qr_scan"}, "type": "electric_scooter", "lon": -77.03278866666666, "name": "09f839ee25111c71c7ea497fb5f7355c", "bike_id": "09f839ee25111c71c7ea497fb5f7355c", "fusion_lat": 0.0, "is_reserved": 0, "lat": 38.93694033333333, "fusion_lon": 0.0, "is_disabled": 0}, {"rental_uris": {"android": "https://dc.lft.to/lastmile_qr_scan", "ios": "https://dc.lft.to/lastmile_qr_scan"}, "type": "electric_scooter", "lon": -77.037692, "name": "78ecc77a6d07a6ed55e463d57cb2b14a", "bike_id": "78ecc77a6d07a6ed55e463d57cb2b14a", "fusion_lat": 0.0, "is_reserved": 0, "lat": 38.90686216666667, "fusion_lon": 0.0, "is_disabled": 0}, {"rental_uris": {"android": "https://dc.lft.to/lastmile_qr_scan", "ios": "https://dc.lft.to/lastmile_qr_scan"}, "type": "electric_scooter", "lon": -76.98337033333334, "name": "eeb8e8e7b45b9e17bebfe73734db8c8d", "bike_id": "eeb8e8e7b45b9e17bebfe73734db8c8d", "fusion_lat": 0.0, "is_reserved": 0, "lat": 38.8625185, "fusion_lon": 0.0, "is_disabled": 0}, {"rental_uris": {"android": "https://dc.lft.to/lastmile_qr_scan", "ios": "https://dc.lft.to/lastmile_qr_scan"}, "type": "electric_bike", "lon": -77.07797016666666, "name": "eaa5bd4fbd7545e7f99d51a3398918dc", "bike_id": "eaa5bd4fbd7545e7f99d51a3398918dc", "fusion_lat": 0.0, "is_reserved": 0, "lat": 38.845158166666664, "fusion_lon": 0.0, "is_disabled": 0}, {"rental_uris": {"android": "https://dc.lft.to/lastmile_qr_scan", "ios": "https://dc.lft.to/lastmile_qr_scan"}, "type": "electric_scooter", "lon": -77.02401066666667, "name": "3688402535753e08b2a48c03e3bc673e", "bike_id": "3688402535753e08b2a48c03e3bc673e", "fusion_lat": 0.0, "is_reserved": 0, "lat": 38.95730983333333, "fusion_lon": 0.0, "is_disabled": 0}, {"rental_uris": {"android": "https://dc.lft.to/lastmile_qr_scan", "ios": "https://dc.lft.to/lastmile_qr_scan"}, "type": "electric_scooter", "lon": -76.99942833333333, "name": "8edb0e9bdcbc8d76914ef931e34c9793", "bike_id": "8edb0e9bdcbc8d76914ef931e34c9793", "fusion_lat": 0.0, "is_reserved": 0, "lat": 38.842918833333336, "fusion_lon": 0.0, "is_disabled": 0}, {"rental_uris": {"android": "https://dc.lft.to/lastmile_qr_scan", "ios": "https://dc.lft.to/lastmile_qr_scan"}, "type": "electric_scooter", "lon": -77.03646, "name": "66025276267d214055be8d86cb9a16da", "bike_id": "66025276267d214055be8d86cb9a16da", "fusion_lat": 0.0, "is_reserved": 0, "lat": 38.90313066666667, "fusion_lon": 0.0, "is_disabled": 0}, {"rental_uris": {"android": "https://dc.lft.to/lastmile_qr_scan", "ios": "https://dc.lft.to/lastmile_qr_scan"}, "type": "electric_scooter", "lon": -77.00156166666666, "name": "d7c8f50f99328bf3ad3f629a85b39f09", "bike_id": "d7c8f50f99328bf3ad3f629a85b39f09", "fusion_lat": 0.0, "is_reserved": 0, "lat": 38.905157333333335, "fusion_lon": 0.0, "is_disabled": 0}, {"rental_uris": {"android": "https://dc.lft.to/lastmile_qr_scan", "ios": "https://dc.lft.to/lastmile_qr_scan"}, "type": "electric_scooter", "lon": -77.071646, "name": "1f00e4f1e5478a62d2522ae88bbd9578", "bike_id": "1f00e4f1e5478a62d2522ae88bbd9578", "fusion_lat": 0.0, "is_reserved": 0, "lat": 38.9583795, "fusion_lon": 0.0, "is_disabled": 0}, {"rental_uris": {"android": "https://dc.lft.to/lastmile_qr_scan", "ios": "https://dc.lft.to/lastmile_qr_scan"}, "type": "electric_scooter", "lon": -77.0043485, "name": "ccd95e8f7c4f0501b265e17e4e6236d0", "bike_id": "ccd95e8f7c4f0501b265e17e4e6236d0", "fusion_lat": 0.0, "is_reserved": 0, "lat": 38.896883333333335, "fusion_lon": 0.0, "is_disabled": 0}, {"rental_uris": {"android": "https://dc.lft.to/lastmile_qr_scan", "ios": "https://dc.lft.to/lastmile_qr_scan"}, "type": "electric_scooter", "lon": -77.0450805, "name": "5e2ce83b639a56af7b8b032f6ca41c78", "bike_id": "5e2ce83b639a56af7b8b032f6ca41c78", "fusion_lat": 0.0, "is_reserved": 0, "lat": 38.892247833333336, "fusion_lon": 0.0, "is_disabled": 0}, {"rental_uris": {"android": "https://dc.lft.to/lastmile_qr_scan", "ios": "https://dc.lft.to/lastmile_qr_scan"}, "type": "electric_scooter", "lon": -77.01095966666666, "name": "dbe5e05a4b6c264c21544271a1a32377", "bike_id": "dbe5e05a4b6c264c21544271a1a32377", "fusion_lat": 0.0, "is_reserved": 0, "lat": 38.8948415, "fusion_lon": 0.0, "is_disabled": 0}, {"rental_uris": {"android": "https://dc.lft.to/lastmile_qr_scan", "ios": "https://dc.lft.to/lastmile_qr_scan"}, "type": "electric_scooter", "lon": -77.0435745, "name": "f809e3de42e157a5341386c54d89454c", "bike_id": "f809e3de42e157a5341386c54d89454c", "fusion_lat": 0.0, "is_reserved": 0, "lat": 38.90539166666667, "fusion_lon": 0.0, "is_disabled": 0}, {"rental_uris": {"android": "https://dc.lft.to/lastmile_qr_scan", "ios": "https://dc.lft.to/lastmile_qr_scan"}, "type": "electric_scooter", "lon": -77.00188383333334, "name": "261f12b3ee3654f8524c335ed92a2b82", "bike_id": "261f12b3ee3654f8524c335ed92a2b82", "fusion_lat": 0.0, "is_reserved": 0, "lat": 38.89483666666667, "fusion_lon": 0.0, "is_disabled": 0}, {"rental_uris": {"android": "https://dc.lft.to/lastmile_qr_scan", "ios": "https://dc.lft.to/lastmile_qr_scan"}, "type": "electric_scooter", "lon": -76.98705816666667, "name": "0834a1d0f51555b3492c79c10f1f87dc", "bike_id": "0834a1d0f51555b3492c79c10f1f87dc", "fusion_lat": 0.0, "is_reserved": 0, "lat": 38.86695783333333, "fusion_lon": 0.0, "is_disabled": 0}, {"rental_uris": {"android": "https://dc.lft.to/lastmile_qr_scan", "ios": "https://dc.lft.to/lastmile_qr_scan"}, "type": "electric_bike", "lon": -76.99573283333334, "name": "f76d46b216229807947d354016366bd2", "bike_id": "f76d46b216229807947d354016366bd2", "fusion_lat": 0.0, "is_reserved": 0, "lat": 39.007952333333336, "fusion_lon": 0.0, "is_disabled": 0}, {"rental_uris": {"android": "https://dc.lft.to/lastmile_qr_scan", "ios": "https://dc.lft.to/lastmile_qr_scan"}, "type": "electric_bike", "lon": -77.12498666666667, "name": "ebc96c734e48e211e360fcd7c0ae5bbb", "bike_id": "ebc96c734e48e211e360fcd7c0ae5bbb", "fusion_lat": 0.0, "is_reserved": 0, "lat": 39.02426416666667, "fusion_lon": 0.0, "is_disabled": 0}, {"rental_uris": {"android": "https://dc.lft.to/lastmile_qr_scan", "ios": "https://dc.lft.to/lastmile_qr_scan"}, "type": "electric_scooter", "lon": -77.02351183333333, "name": "15610aeb735db839a5801593890e515b", "bike_id": "15610aeb735db839a5801593890e515b", "fusion_lat": 0.0, "is_reserved": 0, "lat": 38.931338833333335, "fusion_lon": 0.0, "is_disabled": 0}, {"rental_uris": {"android": "https://dc.lft.to/lastmile_qr_scan", "ios": "https://dc.lft.to/lastmile_qr_scan"}, "type": "electric_bike", "lon": -77.02642783333333, "name": "08d11c5ae433c144aade4ff405693969", "bike_id": "08d11c5ae433c144aade4ff405693969", "fusion_lat": 0.0, "is_reserved": 0, "lat": 38.9822615, "fusion_lon": 0.0, "is_disabled": 0}, {"rental_uris": {"android": "https://dc.lft.to/lastmile_qr_scan", "ios": "https://dc.lft.to/lastmile_qr_scan"}, "type": "electric_scooter", "lon": -77.04399416666666, "name": "674ec23ce4c043be2d2163ccaffad50a", "bike_id": "674ec23ce4c043be2d2163ccaffad50a", "fusion_lat": 0.0, "is_reserved": 0, "lat": 38.92358466666667, "fusion_lon": 0.0, "is_disabled": 0}, {"rental_uris": {"android": "https://dc.lft.to/lastmile_qr_scan", "ios": "https://dc.lft.to/lastmile_qr_scan"}, "type": "electric_scooter", "lon": -77.035042, "name": "deff38e01a54b186adf7bc93ace2d5c7", "bike_id": "deff38e01a54b186adf7bc93ace2d5c7", "fusion_lat": 0.0, "is_reserved": 0, "lat": 38.903645166666664, "fusion_lon": 0.0, "is_disabled": 0}, {"rental_uris": {"android": "https://dc.lft.to/lastmile_qr_scan", "ios": "https://dc.lft.to/lastmile_qr_scan"}, "type": "electric_scooter", "lon": -77.00131616666667, "name": "60243d17a828499bd9853839b133b682", "bike_id": "60243d17a828499bd9853839b133b682", "fusion_lat": 0.0, "is_reserved": 0, "lat": 38.904088, "fusion_lon": 0.0, "is_disabled": 0}, {"rental_uris": {"android": "https://dc.lft.to/lastmile_qr_scan", "ios": "https://dc.lft.to/lastmile_qr_scan"}, "type": "electric_scooter", "lon": -77.03624016666667, "name": "d577d9aa542361c7fb330f0eddc6335b", "bike_id": "d577d9aa542361c7fb330f0eddc6335b", "fusion_lat": 0.0, "is_reserved": 0, "lat": 38.9367685, "fusion_lon": 0.0, "is_disabled": 0}, {"rental_uris": {"android": "https://dc.lft.to/lastmile_qr_scan", "ios": "https://dc.lft.to/lastmile_qr_scan"}, "type": "electric_scooter", "lon": -77.002124, "name": "a8a7e302b25e38bedb4ddd40f64d49ec", "bike_id": "a8a7e302b25e38bedb4ddd40f64d49ec", "fusion_lat": 0.0, "is_reserved": 0, "lat": 38.902717333333335, "fusion_lon": 0.0, "is_disabled": 0}, {"rental_uris": {"android": "https://dc.lft.to/lastmile_qr_scan", "ios": "https://dc.lft.to/lastmile_qr_scan"}, "type": "electric_bike", "lon": -77.10126566666666, "name": "250193c6d243840545cec4e24a1d67e9", "bike_id": "250193c6d243840545cec4e24a1d67e9", "fusion_lat": 0.0, "is_reserved": 0, "lat": 38.8520935, "fusion_lon": 0.0, "is_disabled": 0}, {"rental_uris": {"android": "https://dc.lft.to/lastmile_qr_scan", "ios": "https://dc.lft.to/lastmile_qr_scan"}, "type": "electric_scooter", "lon": -77.02975083333334, "name": "544cb42738897014b4ee948f5cf484fe", "bike_id": "544cb42738897014b4ee948f5cf484fe", "fusion_lat": 0.0, "is_reserved": 0, "lat": 38.962272666666664, "fusion_lon": 0.0, "is_disabled": 0}, {"rental_uris": {"android": "https://dc.lft.to/lastmile_qr_scan", "ios": "https://dc.lft.to/lastmile_qr_scan"}, "type": "electric_scooter", "lon": -76.994914, "name": "8333c782fedcadfd7e6ff619f4cde0ca", "bike_id": "8333c782fedcadfd7e6ff619f4cde0ca", "fusion_lat": 0.0, "is_reserved": 0, "lat": 38.862210166666664, "fusion_lon": 0.0, "is_disabled": 0}, {"rental_uris": {"android": "https://dc.lft.to/lastmile_qr_scan", "ios": "https://dc.lft.to/lastmile_qr_scan"}, "type": "electric_scooter", "lon": -77.01566616666666, "name": "2c199176e24fd72b440de2ce362b65be", "bike_id": "2c199176e24fd72b440de2ce362b65be", "fusion_lat": 0.0, "is_reserved": 0, "lat": 38.96574833333333, "fusion_lon": 0.0, "is_disabled": 0}, {"rental_uris": {"android": "https://dc.lft.to/lastmile_qr_scan", "ios": "https://dc.lft.to/lastmile_qr_scan"}, "type": "electric_scooter", "lon": -77.0182645, "name": "59129907d597c76e9b1545f974f3db59", "bike_id": "59129907d597c76e9b1545f974f3db59", "fusion_lat": 0.0, "is_reserved": 0, "lat": 38.91981, "fusion_lon": 0.0, "is_disabled": 0}, {"rental_uris": {"android": "https://dc.lft.to/lastmile_qr_scan", "ios": "https://dc.lft.to/lastmile_qr_scan"}, "type": "electric_scooter", "lon": -77.032042, "name": "a3c58bfbd3ca95e1efbc647e5d827434", "bike_id": "a3c58bfbd3ca95e1efbc647e5d827434", "fusion_lat": 0.0, "is_reserved": 0, "lat": 38.9026025, "fusion_lon": 0.0, "is_disabled": 0}, {"rental_uris": {"android": "https://dc.lft.to/lastmile_qr_scan", "ios": "https://dc.lft.to/lastmile_qr_scan"}, "type": "electric_scooter", "lon": -77.067592, "name": "8be33a3f7e1e9528809d052de6ae95bc", "bike_id": "8be33a3f7e1e9528809d052de6ae95bc", "fusion_lat": 0.0, "is_reserved": 0, "lat": 38.94986333333333, "fusion_lon": 0.0, "is_disabled": 0}, {"rental_uris": {"android": "https://dc.lft.to/lastmile_qr_scan", "ios": "https://dc.lft.to/lastmile_qr_scan"}, "type": "electric_scooter", "lon": -77.03144233333333, "name": "4a64de91b31c33dd9d75ddf8184f5610", "bike_id": "4a64de91b31c33dd9d75ddf8184f5610", "fusion_lat": 0.0, "is_reserved": 0, "lat": 38.899824833333334, "fusion_lon": 0.0, "is_disabled": 0}, {"rental_uris": {"android": "https://dc.lft.to/lastmile_qr_scan", "ios": "https://dc.lft.to/lastmile_qr_scan"}, "type": "electric_scooter", "lon": -77.02010283333334, "name": "fb673e321965faf78af99342a52b8923", "bike_id": "fb673e321965faf78af99342a52b8923", "fusion_lat": 0.0, "is_reserved": 0, "lat": 38.92414333333333, "fusion_lon": 0.0, "is_disabled": 0}, {"rental_uris": {"android": "https://dc.lft.to/lastmile_qr_scan", "ios": "https://dc.lft.to/lastmile_qr_scan"}, "type": "electric_bike", "lon": -77.00750733333334, "name": "bd0edd95bb913000cf7ffc3cb2f7f38a", "bike_id": "bd0edd95bb913000cf7ffc3cb2f7f38a", "fusion_lat": 0.0, "is_reserved": 0, "lat": 38.87836933333333, "fusion_lon": 0.0, "is_disabled": 0}, {"rental_uris": {"android": "https://dc.lft.to/lastmile_qr_scan", "ios": "https://dc.lft.to/lastmile_qr_scan"}, "type": "electric_scooter", "lon": -77.05693466666666, "name": "cee993d91e4e31358c5efb92d24b5438", "bike_id": "cee993d91e4e31358c5efb92d24b5438", "fusion_lat": 0.0, "is_reserved": 0, "lat": 38.905041833333335, "fusion_lon": 0.0, "is_disabled": 0}, {"rental_uris": {"android": "https://dc.lft.to/lastmile_qr_scan", "ios": "https://dc.lft.to/lastmile_qr_scan"}, "type": "electric_scooter", "lon": -77.02404066666666, "name": "15be86a915ff5b94137f042ccf0030b4", "bike_id": "15be86a915ff5b94137f042ccf0030b4", "fusion_lat": 0.0, "is_reserved": 0, "lat": 38.90953966666667, "fusion_lon": 0.0, "is_disabled": 0}, {"rental_uris": {"android": "https://dc.lft.to/lastmile_qr_scan", "ios": "https://dc.lft.to/lastmile_qr_scan"}, "type": "electric_scooter", "lon": -77.03270033333334, "name": "aaa2ed6c26658f2d481673ff3805a6ef", "bike_id": "aaa2ed6c26658f2d481673ff3805a6ef", "fusion_lat": 0.0, "is_reserved": 0, "lat": 38.91263883333333, "fusion_lon": 0.0, "is_disabled": 0}, {"rental_uris": {"android": "https://dc.lft.to/lastmile_qr_scan", "ios": "https://dc.lft.to/lastmile_qr_scan"}, "type": "electric_bike", "lon": -76.97220083333333, "name": "ecf3f856de4a1174d4f19d06e0ad58bf", "bike_id": "ecf3f856de4a1174d4f19d06e0ad58bf", "fusion_lat": 0.0, "is_reserved": 0, "lat": 38.84483766666666, "fusion_lon": 0.0, "is_disabled": 0}, {"rental_uris": {"android": "https://dc.lft.to/lastmile_qr_scan", "ios": "https://dc.lft.to/lastmile_qr_scan"}, "type": "electric_scooter", "lon": -77.02590583333334, "name": "c58ac8bb6a4bb112620dc49d505d1c36", "bike_id": "c58ac8bb6a4bb112620dc49d505d1c36", "fusion_lat": 0.0, "is_reserved": 0, "lat": 38.908493166666666, "fusion_lon": 0.0, "is_disabled": 0}, {"rental_uris": {"android": "https://dc.lft.to/lastmile_qr_scan", "ios": "https://dc.lft.to/lastmile_qr_scan"}, "type": "electric_scooter", "lon": -77.03199816666667, "name": "9a781178fa35eb4a09157018ee20b75b", "bike_id": "9a781178fa35eb4a09157018ee20b75b", "fusion_lat": 0.0, "is_reserved": 0, "lat": 38.939651833333336, "fusion_lon": 0.0, "is_disabled": 0}, {"rental_uris": {"android": "https://dc.lft.to/lastmile_qr_scan", "ios": "https://dc.lft.to/lastmile_qr_scan"}, "type": "electric_scooter", "lon": -77.03034533333333, "name": "58c1f26d296aaec0a3570f2c65f80aa3", "bike_id": "58c1f26d296aaec0a3570f2c65f80aa3", "fusion_lat": 0.0, "is_reserved": 0, "lat": 38.93982833333333, "fusion_lon": 0.0, "is_disabled": 0}, {"rental_uris": {"android": "https://dc.lft.to/lastmile_qr_scan", "ios": "https://dc.lft.to/lastmile_qr_scan"}, "type": "electric_scooter", "lon": -77.04673933333333, "name": "9261977b8a8e9bff0bbaa6d17fb549c3", "bike_id": "9261977b8a8e9bff0bbaa6d17fb549c3", "fusion_lat": 0.0, "is_reserved": 0, "lat": 38.915694333333334, "fusion_lon": 0.0, "is_disabled": 0}, {"rental_uris": {"android": "https://dc.lft.to/lastmile_qr_scan", "ios": "https://dc.lft.to/lastmile_qr_scan"}, "type": "electric_scooter", "lon": -76.97325666666667, "name": "3a3d6aa58544038e6619b7fe6d6af000", "bike_id": "3a3d6aa58544038e6619b7fe6d6af000", "fusion_lat": 0.0, "is_reserved": 0, "lat": 38.91786, "fusion_lon": 0.0, "is_disabled": 0}, {"rental_uris": {"android": "https://dc.lft.to/lastmile_qr_scan", "ios": "https://dc.lft.to/lastmile_qr_scan"}, "type": "electric_scooter", "lon": -76.99826016666667, "name": "dee669baa51aef04b6614a9f6df0dc05", "bike_id": "dee669baa51aef04b6614a9f6df0dc05", "fusion_lat": 0.0, "is_reserved": 0, "lat": 38.88267533333333, "fusion_lon": 0.0, "is_disabled": 0}, {"rental_uris": {"android": "https://dc.lft.to/lastmile_qr_scan", "ios": "https://dc.lft.to/lastmile_qr_scan"}, "type": "electric_bike", "lon": -76.96695166666666, "name": "d1e0f35b4e60cb1ccf30025bec314b09", "bike_id": "d1e0f35b4e60cb1ccf30025bec314b09", "fusion_lat": 0.0, "is_reserved": 0, "lat": 38.86850716666667, "fusion_lon": 0.0, "is_disabled": 0}, {"rental_uris": {"android": "https://dc.lft.to/lastmile_qr_scan", "ios": "https://dc.lft.to/lastmile_qr_scan"}, "type": "electric_scooter", "lon": -77.0331395, "name": "c737130d4ec7c52290530fe13c46fc1b", "bike_id": "c737130d4ec7c52290530fe13c46fc1b", "fusion_lat": 0.0, "is_reserved": 0, "lat": 38.919865, "fusion_lon": 0.0, "is_disabled": 0}, {"rental_uris": {"android": "https://dc.lft.to/lastmile_qr_scan", "ios": "https://dc.lft.to/lastmile_qr_scan"}, "type": "electric_bike", "lon": -77.19546283333334, "name": "de81699a212349cfb08b27ec4ee5e903", "bike_id": "de81699a212349cfb08b27ec4ee5e903", "fusion_lat": 0.0, "is_reserved": 0, "lat": 39.11505616666667, "fusion_lon": 0.0, "is_disabled": 0}, {"rental_uris": {"android": "https://dc.lft.to/lastmile_qr_scan", "ios": "https://dc.lft.to/lastmile_qr_scan"}, "type": "electric_scooter", "lon": -77.0358375, "name": "75b802a75771e89b6a96525af7705276", "bike_id": "75b802a75771e89b6a96525af7705276", "fusion_lat": 0.0, "is_reserved": 0, "lat": 38.928688, "fusion_lon": 0.0, "is_disabled": 0}, {"rental_uris": {"android": "https://dc.lft.to/lastmile_qr_scan", "ios": "https://dc.lft.to/lastmile_qr_scan"}, "type": "electric_scooter", "lon": -76.9518475, "name": "bb1d6a369cc8e594a20ef6bee15ab2bf", "bike_id": "bb1d6a369cc8e594a20ef6bee15ab2bf", "fusion_lat": 0.0, "is_reserved": 0, "lat": 38.891378, "fusion_lon": 0.0, "is_disabled": 0}, {"rental_uris": {"android": "https://dc.lft.to/lastmile_qr_scan", "ios": "https://dc.lft.to/lastmile_qr_scan"}, "type": "electric_scooter", "lon": -77.0460455, "name": "09f902e78fcc0e1ef54c037836325237", "bike_id": "09f902e78fcc0e1ef54c037836325237", "fusion_lat": 0.0, "is_reserved": 0, "lat": 38.9067295, "fusion_lon": 0.0, "is_disabled": 0}, {"rental_uris": {"android": "https://dc.lft.to/lastmile_qr_scan", "ios": "https://dc.lft.to/lastmile_qr_scan"}, "type": "electric_scooter", "lon": -77.01592116666667, "name": "d5d2d74d7d161f8f924d4ede4bb25e45", "bike_id": "d5d2d74d7d161f8f924d4ede4bb25e45", "fusion_lat": 0.0, "is_reserved": 0, "lat": 38.9659275, "fusion_lon": 0.0, "is_disabled": 0}, {"rental_uris": {"android": "https://dc.lft.to/lastmile_qr_scan", "ios": "https://dc.lft.to/lastmile_qr_scan"}, "type": "electric_scooter", "lon": -77.02475833333334, "name": "297739b7164070b88925973c298f1418", "bike_id": "297739b7164070b88925973c298f1418", "fusion_lat": 0.0, "is_reserved": 0, "lat": 38.9386405, "fusion_lon": 0.0, "is_disabled": 0}, {"rental_uris": {"android": "https://dc.lft.to/lastmile_qr_scan", "ios": "https://dc.lft.to/lastmile_qr_scan"}, "type": "electric_scooter", "lon": -77.01944166666667, "name": "afb575a7fdc6161a0a19bb343d3a3705", "bike_id": "afb575a7fdc6161a0a19bb343d3a3705", "fusion_lat": 0.0, "is_reserved": 0, "lat": 38.92253633333333, "fusion_lon": 0.0, "is_disabled": 0}, {"rental_uris": {"android": "https://dc.lft.to/lastmile_qr_scan", "ios": "https://dc.lft.to/lastmile_qr_scan"}, "type": "electric_scooter", "lon": -77.0451835, "name": "8cb5b0f53979bd1c218333fcbec62d61", "bike_id": "8cb5b0f53979bd1c218333fcbec62d61", "fusion_lat": 0.0, "is_reserved": 0, "lat": 38.90236683333333, "fusion_lon": 0.0, "is_disabled": 0}, {"rental_uris": {"android": "https://dc.lft.to/lastmile_qr_scan", "ios": "https://dc.lft.to/lastmile_qr_scan"}, "type": "electric_scooter", "lon": -77.03211416666667, "name": "9c167747cdf88beae1edf424e7d4e6ef", "bike_id": "9c167747cdf88beae1edf424e7d4e6ef", "fusion_lat": 0.0, "is_reserved": 0, "lat": 38.916896, "fusion_lon": 0.0, "is_disabled": 0}, {"rental_uris": {"android": "https://dc.lft.to/lastmile_qr_scan", "ios": "https://dc.lft.to/lastmile_qr_scan"}, "type": "electric_scooter", "lon": -77.041603, "name": "5f47ba4019534241040f7ac24be81aee", "bike_id": "5f47ba4019534241040f7ac24be81aee", "fusion_lat": 0.0, "is_reserved": 0, "lat": 38.89264683333333, "fusion_lon": 0.0, "is_disabled": 0}, {"rental_uris": {"android": "https://dc.lft.to/lastmile_qr_scan", "ios": "https://dc.lft.to/lastmile_qr_scan"}, "type": "electric_scooter", "lon": -77.00726333333333, "name": "f190f886a29688f73c7e1f8051a1dc92", "bike_id": "f190f886a29688f73c7e1f8051a1dc92", "fusion_lat": 0.0, "is_reserved": 0, "lat": 38.899007833333336, "fusion_lon": 0.0, "is_disabled": 0}, {"rental_uris": {"android": "https://dc.lft.to/lastmile_qr_scan", "ios": "https://dc.lft.to/lastmile_qr_scan"}, "type": "electric_scooter", "lon": -76.98595666666667, "name": "3d273eaba99bb522b8dc15c5fb779c9b", "bike_id": "3d273eaba99bb522b8dc15c5fb779c9b", "fusion_lat": 0.0, "is_reserved": 0, "lat": 38.90011583333333, "fusion_lon": 0.0, "is_disabled": 0}, {"rental_uris": {"android": "https://dc.lft.to/lastmile_qr_scan", "ios": "https://dc.lft.to/lastmile_qr_scan"}, "type": "electric_scooter", "lon": -77.02768666666667, "name": "3ddb08ee01e71a073f005e5e8b45d6bf", "bike_id": "3ddb08ee01e71a073f005e5e8b45d6bf", "fusion_lat": 0.0, "is_reserved": 0, "lat": 38.881656666666665, "fusion_lon": 0.0, "is_disabled": 0}, {"rental_uris": {"android": "https://dc.lft.to/lastmile_qr_scan", "ios": "https://dc.lft.to/lastmile_qr_scan"}, "type": "electric_bike", "lon": -77.02872766666667, "name": "fcde4da2553558c96121d10752864a3e", "bike_id": "fcde4da2553558c96121d10752864a3e", "fusion_lat": 0.0, "is_reserved": 0, "lat": 38.9794325, "fusion_lon": 0.0, "is_disabled": 0}, {"rental_uris": {"android": "https://dc.lft.to/lastmile_qr_scan", "ios": "https://dc.lft.to/lastmile_qr_scan"}, "type": "electric_bike", "lon": -77.00783066666666, "name": "44280c8573c2ae18f11bdadabbeb09e2", "bike_id": "44280c8573c2ae18f11bdadabbeb09e2", "fusion_lat": 0.0, "is_reserved": 0, "lat": 38.9149975, "fusion_lon": 0.0, "is_disabled": 0}, {"rental_uris": {"android": "https://dc.lft.to/lastmile_qr_scan", "ios": "https://dc.lft.to/lastmile_qr_scan"}, "type": "electric_scooter", "lon": -77.04781116666666, "name": "62504724fc3e9e1df3cd9dae9066480e", "bike_id": "62504724fc3e9e1df3cd9dae9066480e", "fusion_lat": 0.0, "is_reserved": 0, "lat": 38.905160333333335, "fusion_lon": 0.0, "is_disabled": 0}, {"rental_uris": {"android": "https://dc.lft.to/lastmile_qr_scan", "ios": "https://dc.lft.to/lastmile_qr_scan"}, "type": "electric_scooter", "lon": -77.03065766666667, "name": "93800e281899c3fc47367fc4104b6e9d", "bike_id": "93800e281899c3fc47367fc4104b6e9d", "fusion_lat": 0.0, "is_reserved": 0, "lat": 38.880456, "fusion_lon": 0.0, "is_disabled": 0}, {"rental_uris": {"android": "https://dc.lft.to/lastmile_qr_scan", "ios": "https://dc.lft.to/lastmile_qr_scan"}, "type": "electric_scooter", "lon": -77.00383466666666, "name": "a4849d59b6873564db11182c395c445d", "bike_id": "a4849d59b6873564db11182c395c445d", "fusion_lat": 0.0, "is_reserved": 0, "lat": 38.897328, "fusion_lon": 0.0, "is_disabled": 0}, {"rental_uris": {"android": "https://dc.lft.to/lastmile_qr_scan", "ios": "https://dc.lft.to/lastmile_qr_scan"}, "type": "electric_scooter", "lon": -77.04335833333333, "name": "25b0e0cd5cb43d55a6117a3cf4650bca", "bike_id": "25b0e0cd5cb43d55a6117a3cf4650bca", "fusion_lat": 0.0, "is_reserved": 0, "lat": 38.910388, "fusion_lon": 0.0, "is_disabled": 0}, {"rental_uris": {"android": "https://dc.lft.to/lastmile_qr_scan", "ios": "https://dc.lft.to/lastmile_qr_scan"}, "type": "electric_scooter", "lon": -76.99146283333333, "name": "9684a6d3d158fa6c3fd47d38771d7389", "bike_id": "9684a6d3d158fa6c3fd47d38771d7389", "fusion_lat": 0.0, "is_reserved": 0, "lat": 38.8790655, "fusion_lon": 0.0, "is_disabled": 0}, {"rental_uris": {"android": "https://dc.lft.to/lastmile_qr_scan", "ios": "https://dc.lft.to/lastmile_qr_scan"}, "type": "electric_scooter", "lon": -77.02942883333333, "name": "4d535c009b128a33b4a1358070a83e08", "bike_id": "4d535c009b128a33b4a1358070a83e08", "fusion_lat": 0.0, "is_reserved": 0, "lat": 38.904921, "fusion_lon": 0.0, "is_disabled": 0}, {"rental_uris": {"android": "https://dc.lft.to/lastmile_qr_scan", "ios": "https://dc.lft.to/lastmile_qr_scan"}, "type": "electric_scooter", "lon": -76.92951266666667, "name": "fd5a6701cf0bb7ce6b62a7a5627f385a", "bike_id": "fd5a6701cf0bb7ce6b62a7a5627f385a", "fusion_lat": 0.0, "is_reserved": 0, "lat": 38.898784166666665, "fusion_lon": 0.0, "is_disabled": 0}, {"rental_uris": {"android": "https://dc.lft.to/lastmile_qr_scan", "ios": "https://dc.lft.to/lastmile_qr_scan"}, "type": "electric_scooter", "lon": -77.03414916666667, "name": "a796073ee2853a69e73e867a2598fa71", "bike_id": "a796073ee2853a69e73e867a2598fa71", "fusion_lat": 0.0, "is_reserved": 0, "lat": 38.929417, "fusion_lon": 0.0, "is_disabled": 0}, {"rental_uris": {"android": "https://dc.lft.to/lastmile_qr_scan", "ios": "https://dc.lft.to/lastmile_qr_scan"}, "type": "electric_scooter", "lon": -77.0262365, "name": "40f45ac68f07deedbc431ac88d0aa88f", "bike_id": "40f45ac68f07deedbc431ac88d0aa88f", "fusion_lat": 0.0, "is_reserved": 0, "lat": 38.897198833333334, "fusion_lon": 0.0, "is_disabled": 0}, {"rental_uris": {"android": "https://dc.lft.to/lastmile_qr_scan", "ios": "https://dc.lft.to/lastmile_qr_scan"}, "type": "electric_scooter", "lon": -77.0465115, "name": "1a70327b5755d3c0206ea14010e11c9d", "bike_id": "1a70327b5755d3c0206ea14010e11c9d", "fusion_lat": 0.0, "is_reserved": 0, "lat": 38.9156375, "fusion_lon": 0.0, "is_disabled": 0}, {"rental_uris": {"android": "https://dc.lft.to/lastmile_qr_scan", "ios": "https://dc.lft.to/lastmile_qr_scan"}, "type": "electric_bike", "lon": -77.13173033333334, "name": "b0732f3539dda997c924aaa459bd405f", "bike_id": "b0732f3539dda997c924aaa459bd405f", "fusion_lat": 0.0, "is_reserved": 0, "lat": 38.86904966666667, "fusion_lon": 0.0, "is_disabled": 0}, {"rental_uris": {"android": "https://dc.lft.to/lastmile_qr_scan", "ios": "https://dc.lft.to/lastmile_qr_scan"}, "type": "electric_scooter", "lon": -77.03482466666667, "name": "aa821789732d56e1c17ce9e7b04920bc", "bike_id": "aa821789732d56e1c17ce9e7b04920bc", "fusion_lat": 0.0, "is_reserved": 0, "lat": 38.902682, "fusion_lon": 0.0, "is_disabled": 0},