{"data": {"bikes": [{"fusion_lat": 0.0, "name": "f90819e0e17962845b1c645bc5e8f5d7", "is_disabled": 0, "rental_uris": {"android": "https://dc.lft.to/lastmile_qr_scan", "ios": "https://dc.lft.to/lastmile_qr_scan"}, "fusion_lon": 0.0, "lat": 38.92941866666666, "bike_id": "f90819e0e17962845b1c645bc5e8f5d7", "type": "electric_scooter", "is_reserved": 0, "lon": -77.03470583333333}, {"fusion_lat": 0.0, "name": "6712a3ad8611a8f883bdb046b77ef023", "is_disabled": 0, "rental_uris": {"android": "https://dc.lft.to/lastmile_qr_scan", "ios": "https://dc.lft.to/lastmile_qr_scan"}, "fusion_lon": 0.0, "lat": 38.85307866666667, "bike_id": "6712a3ad8611a8f883bdb046b77ef023", "type": "electric_bike", "is_reserved": 0, "lon": -77.046027}, {"fusion_lat": 0.0, "name": "13fde7ac50568ce2ed194103f06870d4", "is_disabled": 0, "rental_uris": {"android": "https://dc.lft.to/lastmile_qr_scan", "ios": "https://dc.lft.to/lastmile_qr_scan"}, "fusion_lon": 0.0, "lat": 38.89728266666667, "bike_id": "13fde7ac50568ce2ed194103f06870d4", "type": "electric_scooter", "is_reserved": 0, "lon": -77.04354}, {"fusion_lat": 0.0, "name": "3e81b4259c1a58aee37567d4c48555d2", "is_disabled": 0, "rental_uris": {"android": "https://dc.lft.to/lastmile_qr_scan", "ios": "https://dc.lft.to/lastmile_qr_scan"}, "fusion_lon": 0.0, "lat": 38.92820966666667, "bike_id": "3e81b4259c1a58aee37567d4c48555d2", "type": "electric_scooter", "is_reserved": 0, "lon": -77.03279616666667}, {"fusion_lat": 0.0, "name": "3d93fc6bd2d35992691fe38d3fcd7a3d", "is_disabled": 0, "rental_uris": {"android": "https://dc.lft.to/lastmile_qr_scan", "ios": "https://dc.lft.to/lastmile_qr_scan"}, "fusion_lon": 0.0, "lat": 38.90635416666667, "bike_id": "3d93fc6bd2d35992691fe38d3fcd7a3d", "type": "electric_scooter", "is_reserved": 0, "lon": -77.0315145}, {"fusion_lat": 0.0, "name": "f222b5697da471cfab9603f5026d2b36", "is_disabled": 0, "rental_uris": {"android": "https://dc.lft.to/lastmile_qr_scan", "ios": "https://dc.lft.to/lastmile_qr_scan"}, "fusion_lon": 0.0, "lat": 38.9038595, "bike_id": "f222b5697da471cfab9603f5026d2b36", "type": "electric_scooter", "is_reserved": 0, "lon": -77.06114516666666}, {"fusion_lat": 0.0, "name": "dd87854a92fcf454f5e0d21e1cdca319", "is_disabled": 0, "rental_uris": {"android": "https://dc.lft.to/lastmile_qr_scan", "ios": "https://dc.lft.to/lastmile_qr_scan"}, "fusion_lon": 0.0, "lat": 38.916922, "bike_id": "dd87854a92fcf454f5e0d21e1cdca319", "type": "electric_scooter", "is_reserved": 0, "lon": -77.037644}, {"fusion_lat": 0.0, "name": "192e74da45c57504eadb713df220c9d0", "is_disabled": 0, "rental_uris": {"android": "https://dc.lft.to/lastmile_qr_scan", "ios": "https://dc.lft.to/lastmile_qr_scan"}, "fusion_lon": 0.0, "lat": 38.84282133333333, "bike_id": "192e74da45c57504eadb713df220c9d0", "type": "electric_bike", "is_reserved": 0, "lon": -77.04493366666667}, {"fusion_lat": 0.0, "name": "096aa6ea5806112d06660e143f371af3", "is_disabled": 0, "rental_uris": {"android": "https://dc.lft.to/lastmile_qr_scan", "ios": "https://dc.lft.to/lastmile_qr_scan"}, "fusion_lon": 0.0, "lat": 38.910969333333334, "bike_id": "096aa6ea5806112d06660e143f371af3", "type": "electric_scooter", "is_reserved": 0, "lon": -77.03201583333333}, {"fusion_lat": 0.0, "name": "3ebcaad6b65f6867fdf0fbdf24bbd0a1", "is_disabled": 0, "rental_uris": {"android": "https://dc.lft.to/lastmile_qr_scan", "ios": "https://dc.lft.to/lastmile_qr_scan"}, "fusion_lon": 0.0, "lat": 38.886593833333336, "bike_id": "3ebcaad6b65f6867fdf0fbdf24bbd0a1", "type": "electric_bike", "is_reserved": 0, "lon": -77.16232583333333}, {"fusion_lat": 0.0, "name": "a618b86d0d6a4ee7096b9dd41f144d87", "is_disabled": 0, "rental_uris": {"android": "https://dc.lft.to/lastmile_qr_scan", "ios": "https://dc.lft.to/lastmile_qr_scan"}, "fusion_lon": 0.0, "lat": 38.909533333333336, "bike_id": "a618b86d0d6a4ee7096b9dd41f144d87", "type": "electric_scooter", "is_reserved": 0, "lon": -77.0249305}, {"fusion_lat": 0.0, "name": "1238692ac0a92512256800138ec0fc19", "is_disabled": 0, "rental_uris": {"android": "https://dc.lft.to/lastmile_qr_scan", "ios": "https://dc.lft.to/lastmile_qr_scan"}, "fusion_lon": 0.0, "lat": 38.91752733333333, "bike_id": "1238692ac0a92512256800138ec0fc19", "type": "electric_scooter", "is_reserved": 0, "lon": -77.0415895}, {"fusion_lat": 0.0, "name": "da62b07c09c70ff479c85669250e348c", "is_disabled": 0, "rental_uris": {"android": "https://dc.lft.to/lastmile_qr_scan", "ios": "https://dc.lft.to/lastmile_qr_scan"}, "fusion_lon": 0.0, "lat": 38.8924015, "bike_id": "da62b07c09c70ff479c85669250e348c", "type": "electric_scooter", "is_reserved": 0, "lon": -77.03349716666666}, {"fusion_lat": 0.0, "name": "fbada2aa582a669f3ff9e8703b786436", "is_disabled": 0, "rental_uris": {"android": "https://dc.lft.to/lastmile_qr_scan", "ios": "https://dc.lft.to/lastmile_qr_scan"}, "fusion_lon": 0.0, "lat": 38.91129566666667, "bike_id": "fbada2aa582a669f3ff9e8703b786436", "type": "electric_scooter", "is_reserved": 0, "lon": -77.02197883333334}, {"fusion_lat": 0.0, "name": "19c9301eeff509d709764520d27cacac", "is_disabled": 0, "rental_uris": {"android": "https://dc.lft.to/lastmile_qr_scan", "ios": "https://dc.lft.to/lastmile_qr_scan"}, "fusion_lon": 0.0, "lat": 38.876662333333336, "bike_id": "19c9301eeff509d709764520d27cacac", "type": "electric_scooter", "is_reserved": 0, "lon": -77.01759983333334}, {"fusion_lat": 0.0, "name": "b41c086736d0b3fc3023ef5c953cd01b", "is_disabled": 0, "rental_uris": {"android": "https://dc.lft.to/lastmile_qr_scan", "ios": "https://dc.lft.to/lastmile_qr_scan"}, "fusion_lon": 0.0, "lat": 38.904005833333336, "bike_id": "b41c086736d0b3fc3023ef5c953cd01b", "type": "electric_scooter", "is_reserved": 0, "lon": -77.0677595}, {"fusion_lat": 0.0, "name": "0d07816b68d8322d7ac2f4fdd70b4ef1", "is_disabled": 0, "rental_uris": {"android": "https://dc.lft.to/lastmile_qr_scan", "ios": "https://dc.lft.to/lastmile_qr_scan"}, "fusion_lon": 0.0, "lat": 38.88654533333333, "bike_id": "0d07816b68d8322d7ac2f4fdd70b4ef1", "type": "electric_scooter", "is_reserved": 0, "lon": -77.03389333333334}, {"fusion_lat": 0.0, "name": "9ed92eb9947ed65d051f781961e63ec6", "is_disabled": 0, "rental_uris": {"android": "https://dc.lft.to/lastmile_qr_scan", "ios": "https://dc.lft.to/lastmile_qr_scan"}, "fusion_lon": 0.0, "lat": 38.879321166666664, "bike_id": "9ed92eb9947ed65d051f781961e63ec6", "type": "electric_scooter", "is_reserved": 0, "lon": -77.02387716666667}, {"fusion_lat": 0.0, "name": "9ac2cd05a54ef0062969f7a12d4987c4", "is_disabled": 0, "rental_uris": {"android": "https://dc.lft.to/lastmile_qr_scan", "ios": "https://dc.lft.to/lastmile_qr_scan"}, "fusion_lon": 0.0, "lat": 38.92167883333333, "bike_id": "9ac2cd05a54ef0062969f7a12d4987c4", "type": "electric_scooter", "is_reserved": 0, "lon": -76.99806966666667}, {"fusion_lat": 0.0, "name": "0282522a27f82748a56ff56d03cd94d9", "is_disabled": 0, "rental_uris": {"android": "https://dc.lft.to/lastmile_qr_scan", "ios": "https://dc.lft.to/lastmile_qr_scan"}, "fusion_lon": 0.0, "lat": 38.8632615, "bike_id": "0282522a27f82748a56ff56d03cd94d9", "type": "electric_bike", "is_reserved": 0, "lon": -76.9872395}, {"fusion_lat": 0.0, "name": "b0d514d8363b119e600eccfb44b4eea5", "is_disabled": 0, "rental_uris": {"android": "https://dc.lft.to/lastmile_qr_scan", "ios": "https://dc.lft.to/lastmile_qr_scan"}, "fusion_lon": 0.0, "lat": 38.90927216666667, "bike_id": "b0d514d8363b119e600eccfb44b4eea5", "type": "electric_scooter", "is_reserved": 0, "lon": -77.04579016666666}, {"fusion_lat": 0.0, "name": "87ba1a119e154dd9109c2323e9ab3560", "is_disabled": 0, "rental_uris": {"android": "https://dc.lft.to/lastmile_qr_scan", "ios": "https://dc.lft.to/lastmile_qr_scan"}, "fusion_lon": 0.0, "lat": 38.92046033333333, "bike_id": "87ba1a119e154dd9109c2323e9ab3560", "type": "electric_scooter", "is_reserved": 0, "lon": -77.0341715}, {"fusion_lat": 0.0, "name": "63d848d57200e6d4da72ba9bbbebe4cd", "is_disabled": 0, "rental_uris": {"android": "https://dc.lft.to/lastmile_qr_scan", "ios": "https://dc.lft.to/lastmile_qr_scan"}, "fusion_lon": 0.0, "lat": 38.91597816666667, "bike_id": "63d848d57200e6d4da72ba9bbbebe4cd", "type": "electric_scooter", "is_reserved": 0, "lon": -77.02209116666667}, {"fusion_lat": 0.0, "name": "d06beb81a679dd4aa101a5d2608e8820", "is_disabled": 0, "rental_uris": {"android": "https://dc.lft.to/lastmile_qr_scan", "ios": "https://dc.lft.to/lastmile_qr_scan"}, "fusion_lon": 0.0, "lat": 38.92449033333333, "bike_id": "d06beb81a679dd4aa101a5d2608e8820", "type": "electric_scooter", "is_reserved": 0, "lon": -77.0296975}, {"fusion_lat": 0.0, "name": "6a90b841d441bdd74ac08cf321d58817", "is_disabled": 0, "rental_uris": {"android": "https://dc.lft.to/lastmile_qr_scan", "ios": "https://dc.lft.to/lastmile_qr_scan"}, "fusion_lon": 0.0, "lat": 38.8794615, "bike_id": "6a90b841d441bdd74ac08cf321d58817", "type": "electric_scooter", "is_reserved": 0, "lon": -77.00883666666667}, {"fusion_lat": 0.0, "name": "fc42f6467b3bc7cc0587960bd34d6670", "is_disabled": 0, "rental_uris": {"android": "https://dc.lft.to/lastmile_qr_scan", "ios": "https://dc.lft.to/lastmile_qr_scan"}, "fusion_lon": 0.0, "lat": 38.884107, "bike_id": "fc42f6467b3bc7cc0587960bd34d6670", "type": "electric_bike", "is_reserved": 0, "lon": -76.95418833333333}, {"fusion_lat": 0.0, "name": "b8769ad7ace796f106b1f4f66c0bb29c", "is_disabled": 0, "rental_uris": {"android": "https://dc.lft.to/lastmile_qr_scan", "ios": "https://dc.lft.to/lastmile_qr_scan"}, "fusion_lon": 0.0, "lat": 38.877935, "bike_id": "b8769ad7ace796f106b1f4f66c0bb29c", "type": "electric_scooter", "is_reserved": 0, "lon": -77.001315}, {"fusion_lat": 0.0, "name": "11bb7d810d5d6a34c2f29e2e2321118e", "is_disabled": 0, "rental_uris": {"android": "https://dc.lft.to/lastmile_qr_scan", "ios": "https://dc.lft.to/lastmile_qr_scan"}, "fusion_lon": 0.0, "lat": 38.887078, "bike_id": "11bb7d810d5d6a34c2f29e2e2321118e", "type": "electric_scooter", "is_reserved": 0, "lon": -76.9967605}, {"fusion_lat": 0.0, "name": "97ec3d8d2b35ab864cd8e8f3322e709a", "is_disabled": 0, "rental_uris": {"android": "https://dc.lft.to/lastmile_qr_scan", "ios": "https://dc.lft.to/lastmile_qr_scan"}, "fusion_lon": 0.0, "lat": 38.886268333333334, "bike_id": "97ec3d8d2b35ab864cd8e8f3322e709a", "type": "electric_scooter", "is_reserved": 0, "lon": -76.99612033333334}, {"fusion_lat": 0.0, "name": "e16e84deb8e22e67572bd3211e137870", "is_disabled": 0, "rental_uris": {"android": "https://dc.lft.to/lastmile_qr_scan", "ios": "https://dc.lft.to/lastmile_qr_scan"}, "fusion_lon": 0.0, "lat": 38.89614433333333, "bike_id": "e16e84deb8e22e67572bd3211e137870", "type": "electric_scooter", "is_reserved": 0, "lon": -77.0262455}, {"fusion_lat": 0.0, "name": "7302121202d5c8ba12022ec3b587e2c4", "is_disabled": 0, "rental_uris": {"android": "https://dc.lft.to/lastmile_qr_scan", "ios": "https://dc.lft.to/lastmile_qr_scan"}, "fusion_lon": 0.0, "lat": 38.90029233333333, "bike_id": "7302121202d5c8ba12022ec3b587e2c4", "type": "electric_scooter", "is_reserved": 0, "lon": -76.99869416666667}, {"fusion_lat": 0.0, "name": "816c10527a87f8d8e1c749b5788bb9aa", "is_disabled": 0, "rental_uris": {"android": "https://dc.lft.to/lastmile_qr_scan", "ios": "https://dc.lft.to/lastmile_qr_scan"}, "fusion_lon": 0.0, "lat": 38.928016666666664, "bike_id": "816c10527a87f8d8e1c749b5788bb9aa", "type": "electric_scooter", "is_reserved": 0, "lon": -77.05389066666666}, {"fusion_lat": 0.0, "name": "5b3ffa902563e3216d583c5839003d0e", "is_disabled": 0, "rental_uris": {"android": "https://dc.lft.to/lastmile_qr_scan", "ios": "https://dc.lft.to/lastmile_qr_scan"}, "fusion_lon": 0.0, "lat": 38.919279, "bike_id": "5b3ffa902563e3216d583c5839003d0e", "type": "electric_scooter", "is_reserved": 0, "lon": -77.0707145}, {"fusion_lat": 0.0, "name": "9a45f3c78a6ddde5fa7f759ff527216d", "is_disabled": 0, "rental_uris": {"android": "https://dc.lft.to/lastmile_qr_scan", "ios": "https://dc.lft.to/lastmile_qr_scan"}, "fusion_lon": 0.0, "lat": 38.892405833333335, "bike_id": "9a45f3c78a6ddde5fa7f759ff527216d", "type": "electric_scooter", "is_reserved": 0, "lon": -77.02208133333333}, {"fusion_lat": 0.0, "name": "61c3bcf4bce15ca2dd6412d726b8cd79", "is_disabled": 0, "rental_uris": {"android": "https://dc.lft.to/lastmile_qr_scan", "ios": "https://dc.lft.to/lastmile_qr_scan"}, "fusion_lon": 0.0, "lat": 38.9101855, "bike_id": "61c3bcf4bce15ca2dd6412d726b8cd79", "type": "electric_scooter", "is_reserved": 0, "lon": -77.0091615}, {"fusion_lat": 0.0, "name": "0f50dfc347fc05b26e2b94235b21ff73", "is_disabled": 0, "rental_uris": {"android": "https://dc.lft.to/lastmile_qr_scan", "ios": "https://dc.lft.to/lastmile_qr_scan"}, "fusion_lon": 0.0, "lat": 38.90571083333333, "bike_id": "0f50dfc347fc05b26e2b94235b21ff73", "type": "electric_scooter", "is_reserved": 0, "lon": -77.0027375}, {"fusion_lat": 0.0, "name": "6c439852995b6de8125065be07735e77", "is_disabled": 0, "rental_uris": {"android": "https://dc.lft.to/lastmile_qr_scan", "ios": "https://dc.lft.to/lastmile_qr_scan"}, "fusion_lon": 0.0, "lat": 38.90385883333333, "bike_id": "6c439852995b6de8125065be07735e77", "type": "electric_scooter", "is_reserved": 0, "lon": -77.04211016666666}, {"fusion_lat": 0.0, "name": "296ccb17a95ac54ed010cd1c1a3d4891", "is_disabled": 0, "rental_uris": {"android": "https://dc.lft.to/lastmile_qr_scan", "ios": "https://dc.lft.to/lastmile_qr_scan"}, "fusion_lon": 0.0, "lat": 38.914016333333336, "bike_id": "296ccb17a95ac54ed010cd1c1a3d4891", "type": "electric_scooter", "is_reserved": 0, "lon": -77.0322125}, {"fusion_lat": 0.0, "name": "cb7865b54f1d4aa5ffec3cbf1ef42cc7", "is_disabled": 0, "rental_uris": {"android": "https://dc.lft.to/lastmile_qr_scan", "ios": "https://dc.lft.to/lastmile_qr_scan"}, "fusion_lon": 0.0, "lat": 38.800174166666665, "bike_id": "cb7865b54f1d4aa5ffec3cbf1ef42cc7", "type": "electric_bike", "is_reserved": 0, "lon": -77.05480616666667}, {"fusion_lat": 0.0, "name": "50b12801cd4ecded97772c58ebe31c7b", "is_disabled": 0, "rental_uris": {"android": "https://dc.lft.to/lastmile_qr_scan", "ios": "https://dc.lft.to/lastmile_qr_scan"}, "fusion_lon": 0.0, "lat": 38.8968485, "bike_id": "50b12801cd4ecded97772c58ebe31c7b", "type": "electric_scooter", "is_reserved": 0, "lon": -76.93712083333334}, {"fusion_lat": 0.0, "name": "8fb6c2e7a70ad30f552587f4c3de10cb", "is_disabled": 0, "rental_uris": {"android": "https://dc.lft.to/lastmile_qr_scan", "ios": "https://dc.lft.to/lastmile_qr_scan"}, "fusion_lon": 0.0, "lat": 38.906146666666665, "bike_id": "8fb6c2e7a70ad30f552587f4c3de10cb", "type": "electric_scooter", "is_reserved": 0, "lon": -77.02405866666666}, {"fusion_lat": 0.0, "name": "0c9fdf2e0adf068247f194136b952a02", "is_disabled": 0, "rental_uris": {"android": "https://dc.lft.to/lastmile_qr_scan", "ios": "https://dc.lft.to/lastmile_qr_scan"}, "fusion_lon": 0.0, "lat": 38.917211333333334, "bike_id": "0c9fdf2e0adf068247f194136b952a02", "type": "electric_scooter", "is_reserved": 0, "lon": -77.038575}, {"fusion_lat": 0.0, "name": "4e2265765e82a0c0bb88581e044500eb", "is_disabled": 0, "rental_uris": {"android": "https://dc.lft.to/lastmile_qr_scan", "ios": "https://dc.lft.to/lastmile_qr_scan"}, "fusion_lon": 0.0, "lat": 38.906716333333335, "bike_id": "4e2265765e82a0c0bb88581e044500eb", "type": "electric_scooter", "is_reserved": 0, "lon": -77.07125583333334}, {"fusion_lat": 0.0, "name": "e216ba97f32b5b1cc5bd3e7858c7621a", "is_disabled": 0, "rental_uris": {"android": "https://dc.lft.to/lastmile_qr_scan", "ios": "https://dc.lft.to/lastmile_qr_scan"}, "fusion_lon": 0.0, "lat": 38.91766783333333, "bike_id": "e216ba97f32b5b1cc5bd3e7858c7621a", "type": "electric_scooter", "is_reserved": 0, "lon": -77.0477515}, {"fusion_lat": 0.0, "name": "6a85bab16e4c483e17f806e9d9cd0da7", "is_disabled": 0, "rental_uris": {"android": "https://dc.lft.to/lastmile_qr_scan", "ios": "https://dc.lft.to/lastmile_qr_scan"}, "fusion_lon": 0.0, "lat": 38.936566666666664, "bike_id": "6a85bab16e4c483e17f806e9d9cd0da7", "type": "electric_scooter", "is_reserved": 0, "lon": -77.05499216666666}, {"fusion_lat": 0.0, "name": "7bb3b3797f58c1beaba128b77d204293", "is_disabled": 0, "rental_uris": {"android": "https://dc.lft.to/lastmile_qr_scan", "ios": "https://dc.lft.to/lastmile_qr_scan"}, "fusion_lon": 0.0, "lat": 38.88615016666667, "bike_id": "7bb3b3797f58c1beaba128b77d204293", "type": "electric_scooter", "is_reserved": 0, "lon": -77.01971}, {"fusion_lat": 0.0, "name": "3b4aef1d672547d9fbb7c5d18bf96633", "is_disabled": 0, "rental_uris": {"android": "https://dc.lft.to/lastmile_qr_scan", "ios": "https://dc.lft.to/lastmile_qr_scan"}, "fusion_lon": 0.0, "lat": 38.90388316666667, "bike_id": "3b4aef1d672547d9fbb7c5d18bf96633", "type": "electric_scooter", "is_reserved": 0, "lon": -77.017761}, {"fusion_lat": 0.0, "name": "de41342d14981ee4fa72da67abe36475", "is_disabled": 0, "rental_uris": {"android": "https://dc.lft.to/lastmile_qr_scan", "ios": "https://dc.lft.to/lastmile_qr_scan"}, "fusion_lon": 0.0, "lat": 38.978828, "bike_id": "de41342d14981ee4fa72da67abe36475", "type": "electric_bike", "is_reserved": 0, "lon": -77.0603555}, {"fusion_lat": 0.0, "name": "26ea243b2ebd4bda8af4ca8303cc077f", "is_disabled": 0, "rental_uris": {"android": "https://dc.lft.to/lastmile_qr_scan", "ios": "https://dc.lft.to/lastmile_qr_scan"}, "fusion_lon": 0.0, "lat": 38.913031333333336, "bike_id": "26ea243b2ebd4bda8af4ca8303cc077f", "type": "electric_bike", "is_reserved": 0, "lon": -77.0285795}, {"fusion_lat": 0.0, "name": "2419a9bf712ed52fbe025e6dee09d2fc", "is_disabled": 0, "rental_uris": {"android": "https://dc.lft.to/lastmile_qr_scan", "ios": "https://dc.lft.to/lastmile_qr_scan"}, "fusion_lon": 0.0, "lat": 38.83934433333334, "bike_id": "2419a9bf712ed52fbe025e6dee09d2fc", "type": "electric_bike", "is_reserved": 0, "lon": -77.078993}, {"fusion_lat": 0.0, "name": "748e696e717daecb3f78818975df2770", "is_disabled": 0, "rental_uris": {"android": "https://dc.lft.to/lastmile_qr_scan", "ios": "https://dc.lft.to/lastmile_qr_scan"}, "fusion_lon": 0.0, "lat": 38.8827065, "bike_id": "748e696e717daecb3f78818975df2770", "type": "electric_scooter", "is_reserved": 0, "lon": -76.99018116666667}, {"fusion_lat": 0.0, "name": "6bfb8d5a02407429b0c99c26a43fe773", "is_disabled": 0, "rental_uris": {"android": "https://dc.lft.to/lastmile_qr_scan", "ios": "https://dc.lft.to/lastmile_qr_scan"}, "fusion_lon": 0.0, "lat": 38.90134283333333, "bike_id": "6bfb8d5a02407429b0c99c26a43fe773", "type": "electric_scooter", "is_reserved": 0, "lon": -76.98659066666667}, {"fusion_lat": 0.0, "name": "fc3770706947e8eeb51d368175fab407", "is_disabled": 0, "rental_uris": {"android": "https://dc.lft.to/lastmile_qr_scan", "ios": "https://dc.lft.to/lastmile_qr_scan"}, "fusion_lon": 0.0, "lat": 38.8979695, "bike_id": "fc3770706947e8eeb51d368175fab407", "type": "electric_scooter", "is_reserved": 0, "lon": -77.0296695}, {"fusion_lat": 0.0, "name": "04d8511e63a5082c42b4baa771107114", "is_disabled": 0, "rental_uris": {"android": "https://dc.lft.to/lastmile_qr_scan", "ios": "https://dc.lft.to/lastmile_qr_scan"}, "fusion_lon": 0.0, "lat": 38.916990166666665, "bike_id": "04d8511e63a5082c42b4baa771107114", "type": "electric_scooter", "is_reserved": 0, "lon": -77.02736083333333}, {"fusion_lat": 0.0, "name": "46c10d00f5a68b3120bee0b3a5ee543f", "is_disabled": 0, "rental_uris": {"android": "https://dc.lft.to/lastmile_qr_scan", "ios": "https://dc.lft.to/lastmile_qr_scan"}, "fusion_lon": 0.0, "lat": 38.90395183333333, "bike_id": "46c10d00f5a68b3120bee0b3a5ee543f", "type": "electric_scooter", "is_reserved": 0, "lon": -77.03878066666667}, {"fusion_lat": 0.0, "name": "96395f52f031213315c93839d1049882", "is_disabled": 0, "rental_uris": {"android": "https://dc.lft.to/lastmile_qr_scan", "ios": "https://dc.lft.to/lastmile_qr_scan"}, "fusion_lon": 0.0, "lat": 38.918477833333334, "bike_id": "96395f52f031213315c93839d1049882", "type": "electric_scooter", "is_reserved": 0, "lon": -76.96544166666666}, {"fusion_lat": 0.0, "name": "56115f93d9b4be75a20f017f4655b8e0", "is_disabled": 0, "rental_uris": {"android": "https://dc.lft.to/lastmile_qr_scan", "ios": "https://dc.lft.to/lastmile_qr_scan"}, "fusion_lon": 0.0, "lat": 38.916568166666664, "bike_id": "56115f93d9b4be75a20f017f4655b8e0", "type": "electric_scooter", "is_reserved": 0, "lon": -77.02822283333333}, {"fusion_lat": 0.0, "name": "7b0b8fdb0e61e205d0d7ca07828b9dd2", "is_disabled": 0, "rental_uris": {"android": "https://dc.lft.to/lastmile_qr_scan", "ios": "https://dc.lft.to/lastmile_qr_scan"}, "fusion_lon": 0.0, "lat": 38.9582695, "bike_id": "7b0b8fdb0e61e205d0d7ca07828b9dd2", "type": "electric_bike", "is_reserved": 0, "lon": -77.01518533333333}, {"fusion_lat": 0.0, "name": "3365408581dc81332acd5f15ac7b3bac", "is_disabled": 0, "rental_uris": {"android": "https://dc.lft.to/lastmile_qr_scan", "ios": "https://dc.lft.to/lastmile_qr_scan"}, "fusion_lon": 0.0, "lat": 38.92075066666666, "bike_id": "3365408581dc81332acd5f15ac7b3bac", "type": "electric_scooter", "is_reserved": 0, "lon": -77.024144}, {"fusion_lat": 0.0, "name": "c43c21231ea3e0d4ce2d74409608693f", "is_disabled": 0, "rental_uris": {"android": "https://dc.lft.to/lastmile_qr_scan", "ios": "https://dc.lft.to/lastmile_qr_scan"}, "fusion_lon": 0.0, "lat": 38.90715866666667, "bike_id": "c43c21231ea3e0d4ce2d74409608693f", "type": "electric_scooter", "is_reserved": 0, "lon": -77.0037775}, {"fusion_lat": 0.0, "name": "d3c336a9469d38bdec6712d03a2930c7", "is_disabled": 0, "rental_uris": {"android": "https://dc.lft.to/lastmile_qr_scan", "ios": "https://dc.lft.to/lastmile_qr_scan"}, "fusion_lon": 0.0, "lat": 38.920869, "bike_id": "d3c336a9469d38bdec6712d03a2930c7", "type": "electric_scooter", "is_reserved": 0, "lon": -77.0242045}, {"fusion_lat": 0.0, "name": "12e20786044c837f5e8fc3d360bcb317", "is_disabled": 0, "rental_uris": {"android": "https://dc.lft.to/lastmile_qr_scan", "ios": "https://dc.lft.to/lastmile_qr_scan"}, "fusion_lon": 0.0, "lat": 38.98476683333333, "bike_id": "12e20786044c837f5e8fc3d360bcb317", "type": "electric_scooter", "is_reserved": 0, "lon": -77.026405}, {"fusion_lat": 0.0, "name": "bda2547a7f6d18308e6474ba7e936132", "is_disabled": 0, "rental_uris": {"android": "https://dc.lft.to/lastmile_qr_scan", "ios": "https://dc.lft.to/lastmile_qr_scan"}, "fusion_lon": 0.0, "lat": 38.9169885, "bike_id": "bda2547a7f6d18308e6474ba7e936132", "type": "electric_scooter", "is_reserved": 0, "lon": -77.028717}, {"fusion_lat": 0.0, "name": "0ae292faf5a501b76a75c4160d8b62cf", "is_disabled": 0, "rental_uris": {"android": "https://dc.lft.to/lastmile_qr_scan", "ios": "https://dc.lft.to/lastmile_qr_scan"}, "fusion_lon": 0.0, "lat": 38.8876505, "bike_id": "0ae292faf5a501b76a75c4160d8b62cf", "type": "electric_scooter", "is_reserved": 0, "lon": -76.99466066666666}, {"fusion_lat": 0.0, "name": "56710d9ad683fb76b658afe0169163cb", "is_disabled": 0, "rental_uris": {"android": "https://dc.lft.to/lastmile_qr_scan", "ios": "https://dc.lft.to/lastmile_qr_scan"}, "fusion_lon": 0.0, "lat": 38.92160116666667, "bike_id": "56710d9ad683fb76b658afe0169163cb", "type": "electric_scooter", "is_reserved": 0, "lon": -77.0366715}, {"fusion_lat": 0.0, "name": "214f181a76b2b68c6bca72093376dbd1", "is_disabled": 0, "rental_uris": {"android": "https://dc.lft.to/lastmile_qr_scan", "ios": "https://dc.lft.to/lastmile_qr_scan"}, "fusion_lon": 0.0, "lat": 38.898519666666665, "bike_id": "214f181a76b2b68c6bca72093376dbd1", "type": "electric_scooter", "is_reserved": 0, "lon": -77.02193833333334}, {"fusion_lat": 0.0, "name": "12ab59f5c589246595e5d7c55005bd61", "is_disabled": 0, "rental_uris": {"android": "https://dc.lft.to/lastmile_qr_scan", "ios": "https://dc.lft.to/lastmile_qr_scan"}, "fusion_lon": 0.0, "lat": 38.95636966666667, "bike_id": "12ab59f5c589246595e5d7c55005bd61", "type": "electric_scooter", "is_reserved": 0, "lon": -77.03302433333333}, {"fusion_lat": 0.0, "name": "cde5a87a90576e229d95898f36bf0de7", "is_disabled": 0, "rental_uris": {"android": "https://dc.lft.to/lastmile_qr_scan", "ios": "https://dc.lft.to/lastmile_qr_scan"}, "fusion_lon": 0.0, "lat": 38.930759333333334, "bike_id": "cde5a87a90576e229d95898f36bf0de7", "type": "electric_scooter", "is_reserved": 0, "lon": -77.03158683333334}, {"fusion_lat": 0.0, "name": "126429f28643c050bce6b4681b426941", "is_disabled": 0, "rental_uris": {"android": "https://dc.lft.to/lastmile_qr_scan", "ios": "https://dc.lft.to/lastmile_qr_scan"}, "fusion_lon": 0.0, "lat": 38.91458883333333, "bike_id": "126429f28643c050bce6b4681b426941", "type": "electric_scooter", "is_reserved": 0, "lon": -77.00214633333333}, {"fusion_lat": 0.0, "name": "3aa3d289295fe7eb87ca63c3dfe25784", "is_disabled": 0, "rental_uris": {"android": "https://dc.lft.to/lastmile_qr_scan", "ios": "https://dc.lft.to/lastmile_qr_scan"}, "fusion_lon": 0.0, "lat": 38.908198166666665, "bike_id": "3aa3d289295fe7eb87ca63c3dfe25784", "type": "electric_scooter", "is_reserved": 0, "lon": -77.03855716666666}, {"fusion_lat": 0.0, "name": "1e3a4b2022acdd2f998796cde1f28d65", "is_disabled": 0, "rental_uris": {"android": "https://dc.lft.to/lastmile_qr_scan", "ios": "https://dc.lft.to/lastmile_qr_scan"}, "fusion_lon": 0.0, "lat": 38.902115333333334, "bike_id": "1e3a4b2022acdd2f998796cde1f28d65", "type": "electric_scooter", "is_reserved": 0, "lon": -77.02362316666667}, {"fusion_lat": 0.0, "name": "ed9f52338bfc941806adc6ae24db5871", "is_disabled": 0, "rental_uris": {"android": "https://dc.lft.to/lastmile_qr_scan", "ios": "https://dc.lft.to/lastmile_qr_scan"}, "fusion_lon": 0.0, "lat": 38.9101565, "bike_id": "ed9f52338bfc941806adc6ae24db5871", "type": "electric_scooter", "is_reserved": 0, "lon": -77.03858616666666}, {"fusion_lat": 0.0, "name": "8a9c20b15b053378235018e6d94583fa", "is_disabled": 0, "rental_uris": {"android": "https://dc.lft.to/lastmile_qr_scan", "ios": "https://dc.lft.to/lastmile_qr_scan"}, "fusion_lon": 0.0, "lat": 38.9390095, "bike_id": "8a9c20b15b053378235018e6d94583fa", "type": "electric_scooter", "is_reserved": 0, "lon": -77.0331855}, {"fusion_lat": 0.0, "name": "ffe32e441c898caf5d2d623211639849", "is_disabled": 0, "rental_uris": {"android": "https://dc.lft.to/lastmile_qr_scan", "ios": "https://dc.lft.to/lastmile_qr_scan"}, "fusion_lon": 0.0, "lat": 38.8824535, "bike_id": "ffe32e441c898caf5d2d623211639849", "type": "electric_bike", "is_reserved": 0, "lon": -76.96262933333334}, {"fusion_lat": 0.0, "name": "f2f19bc022d2df95a1e7bc16472cc063", "is_disabled": 0, "rental_uris": {"android": "https://dc.lft.to/lastmile_qr_scan", "ios": "https://dc.lft.to/lastmile_qr_scan"}, "fusion_lon": 0.0, "lat": 38.899274, "bike_id": "f2f19bc022d2df95a1e7bc16472cc063", "type": "electric_scooter", "is_reserved": 0, "lon": -77.02716333333333}, {"fusion_lat": 0.0, "name": "100f271cc3f8cc94c00154189e06e8cb", "is_disabled": 0, "rental_uris": {"android": "https://dc.lft.to/lastmile_qr_scan", "ios": "https://dc.lft.to/lastmile_qr_scan"}, "fusion_lon": 0.0, "lat": 38.9012635, "bike_id": "100f271cc3f8cc94c00154189e06e8cb", "type": "electric_scooter", "is_reserved": 0, "lon": -77.03646283333333}, {"fusion_lat": 0.0, "name": "64eedf8c638166f27166a307dc09b1f7", "is_disabled": 0, "rental_uris": {"android": "https://dc.lft.to/lastmile_qr_scan", "ios": "https://dc.lft.to/lastmile_qr_scan"}, "fusion_lon": 0.0, "lat": 38.98818583333333, "bike_id": "64eedf8c638166f27166a307dc09b1f7", "type": "electric_bike", "is_reserved": 0, "lon": -77.02650683333333}, {"fusion_lat": 0.0, "name": "60da7d0f7f2cc1e496ace5a92ecabb60", "is_disabled": 0, "rental_uris": {"android": "https://dc.lft.to/lastmile_qr_scan", "ios": "https://dc.lft.to/lastmile_qr_scan"}, "fusion_lon": 0.0, "lat": 38.903862333333336, "bike_id": "60da7d0f7f2cc1e496ace5a92ecabb60", "type": "electric_scooter", "is_reserved": 0, "lon": -77.0438805}, {"fusion_lat": 0.0, "name": "7d54f18cfe2456e4d459770774a4ca88", "is_disabled": 0, "rental_uris": {"android": "https://dc.lft.to/lastmile_qr_scan", "ios": "https://dc.lft.to/lastmile_qr_scan"}, "fusion_lon": 0.0, "lat": 38.92795866666667, "bike_id": "7d54f18cfe2456e4d459770774a4ca88", "type": "electric_scooter", "is_reserved": 0, "lon": -76.95556783333333}, {"fusion_lat": 0.0, "name": "dbbede6afbaa5e27641e1f7588098f31", "is_disabled": 0, "rental_uris": {"android": "https://dc.lft.to/lastmile_qr_scan", "ios": "https://dc.lft.to/lastmile_qr_scan"}, "fusion_lon": 0.0, "lat": 38.92726316666667, "bike_id": "dbbede6afbaa5e27641e1f7588098f31", "type": "electric_scooter", "is_reserved": 0, "lon": -77.06012316666667}, {"fusion_lat": 0.0, "name": "23614a85153ad4f6c5d8c5fcebcdb65a", "is_disabled": 0, "rental_uris": {"android": "https://dc.lft.to/lastmile_qr_scan", "ios": "https://dc.lft.to/lastmile_qr_scan"}, "fusion_lon": 0.0, "lat": 38.92441933333333, "bike_id": "23614a85153ad4f6c5d8c5fcebcdb65a", "type": "electric_scooter", "is_reserved": 0, "lon": -77.05253116666667}, {"fusion_lat": 0.0, "name": "7d2cf981c3cd112961f802dee4cbe628", "is_disabled": 0, "rental_uris": {"android": "https://dc.lft.to/lastmile_qr_scan", "ios": "https://dc.lft.to/lastmile_qr_scan"}, "fusion_lon": 0.0, "lat": 38.94921383333333, "bike_id": "7d2cf981c3cd112961f802dee4cbe628", "type": "electric_scooter", "is_reserved": 0, "lon": -77.01854533333334}, {"fusion_lat": 0.0, "name": "bdc73924762aa15a0237413c95bd33ba", "is_disabled": 0, "rental_uris": {"android": "https://dc.lft.to/lastmile_qr_scan", "ios": "https://dc.lft.to/lastmile_qr_scan"}, "fusion_lon": 0.0, "lat": 38.90963333333333, "bike_id": "bdc73924762aa15a0237413c95bd33ba", "type": "electric_scooter", "is_reserved": 0, "lon": -77.0322925}, {"fusion_lat": 0.0, "name": "5893c05b33bfac2783aa2311c327138f", "is_disabled": 0, "rental_uris": {"android": "https://dc.lft.to/lastmile_qr_scan", "ios": "https://dc.lft.to/lastmile_qr_scan"}, "fusion_lon": 0.0, "lat": 38.904881, "bike_id": "5893c05b33bfac2783aa2311c327138f", "type": "electric_scooter", "is_reserved": 0, "lon": -76.94967016666666}, {"fusion_lat": 0.0, "name": "9e9a448b4aff22c55cdb33ca2ec3f80e", "is_disabled": 0, "rental_uris": {"android": "https://dc.lft.to/lastmile_qr_scan", "ios": "https://dc.lft.to/lastmile_qr_scan"}, "fusion_lon": 0.0, "lat": 38.88083966666667, "bike_id": "9e9a448b4aff22c55cdb33ca2ec3f80e", "type": "electric_scooter", "is_reserved": 0, "lon": -77.02577983333333}, {"fusion_lat": 0.0, "name": "4fe3c11e12f8d0d98187f1a81ccc96c7", "is_disabled": 0, "rental_uris": {"android": "https://dc.lft.to/lastmile_qr_scan", "ios": "https://dc.lft.to/lastmile_qr_scan"}, "fusion_lon": 0.0, "lat": 38.91191533333333, "bike_id": "4fe3c11e12f8d0d98187f1a81ccc96c7", "type": "electric_scooter", "is_reserved": 0, "lon": -77.04141533333333}, {"fusion_lat": 0.0, "name": "243993dab6d53660ab4d5e0458f94ede", "is_disabled": 0, "rental_uris": {"android": "https://dc.lft.to/lastmile_qr_scan", "ios": "https://dc.lft.to/lastmile_qr_scan"}, "fusion_lon": 0.0, "lat": 38.8960535, "bike_id": "243993dab6d53660ab4d5e0458f94ede", "type": "electric_scooter", "is_reserved": 0, "lon": -77.0111125}, {"fusion_lat": 0.0, "name": "804360925ee21ace807670f84a0129e2", "is_disabled": 0, "rental_uris": {"android": "https://dc.lft.to/lastmile_qr_scan", "ios": "https://dc.lft.to/lastmile_qr_scan"}, "fusion_lon": 0.0, "lat": 38.87569516666667, "bike_id": "804360925ee21ace807670f84a0129e2", "type": "electric_scooter", "is_reserved": 0, "lon": -77.00941166666667}, {"fusion_lat": 0.0, "name": "f88ad027f7079fee27477ec0f6626f43", "is_disabled": 0, "rental_uris": {"android": "https://dc.lft.to/lastmile_qr_scan", "ios": "https://dc.lft.to/lastmile_qr_scan"}, "fusion_lon": 0.0, "lat": 38.857701, "bike_id": "f88ad027f7079fee27477ec0f6626f43", "type": "electric_bike", "is_reserved": 0, "lon": -76.98765566666667}, {"fusion_lat": 0.0, "name": "02e5d501b4964926ea9f79003e09bc03", "is_disabled": 0, "rental_uris": {"android": "https://dc.lft.to/lastmile_qr_scan", "ios": "https://dc.lft.to/lastmile_qr_scan"}, "fusion_lon": 0.0, "lat": 38.913454333333334, "bike_id": "02e5d501b4964926ea9f79003e09bc03", "type": "electric_scooter", "is_reserved": 0, "lon": -77.03197433333334}, {"fusion_lat": 0.0, "name": "105f8c3236568b1cccc72e26166f8202", "is_disabled": 0, "rental_uris": {"android": "https://dc.lft.to/lastmile_qr_scan", "ios": "https://dc.lft.to/lastmile_qr_scan"}, "fusion_lon": 0.0, "lat": 38.88387133333333, "bike_id": "105f8c3236568b1cccc72e26166f8202", "type": "electric_scooter", "is_reserved": 0, "lon": -76.930444}, {"fusion_lat": 0.0, "name": "25535863f7f4f97cb95d445d68445cf4", "is_disabled": 0, "rental_uris": {"android": "https://dc.lft.to/lastmile_qr_scan", "ios": "https://dc.lft.to/lastmile_qr_scan"}, "fusion_lon": 0.0, "lat": 38.91693466666667, "bike_id": "25535863f7f4f97cb95d445d68445cf4", "type": "electric_scooter", "is_reserved": 0, "lon": -77.02598833333333}, {"fusion_lat": 0.0, "name": "78187cfff697f9482a0d8e71e2364c32", "is_disabled": 0, "rental_uris": {"android": "https://dc.lft.to/lastmile_qr_scan", "ios": "https://dc.lft.to/lastmile_qr_scan"}, "fusion_lon": 0.0, "lat": 38.8972305, "bike_id": "78187cfff697f9482a0d8e71e2364c32", "type": "electric_scooter", "is_reserved": 0, "lon": -77.02887083333333}, {"fusion_lat": 0.0, "name": "2dadcdcb1291a86c018a81e314ef532c", "is_disabled": 0, "rental_uris": {"android": "https://dc.lft.to/lastmile_qr_scan", "ios": "https://dc.lft.to/lastmile_qr_scan"}, "fusion_lon": 0.0, "lat": 38.93396716666667, "bike_id": "2dadcdcb1291a86c018a81e314ef532c", "type": "electric_scooter", "is_reserved": 0, "lon": -77.0285}, {"fusion_lat": 0.0, "name": "fc825d2a1831617c7d068fd5db452650", "is_disabled": 0, "rental_uris": {"android": "https://dc.lft.to/lastmile_qr_scan", "ios": "https://dc.lft.to/lastmile_qr_scan"}, "fusion_lon": 0.0, "lat": 38.940861, "bike_id": "fc825d2a1831617c7d068fd5db452650", "type": "electric_scooter", "is_reserved": 0, "lon": -77.06180966666666}, {"fusion_lat": 0.0, "name": "071e44421f570fc546c13489d4184479", "is_disabled": 0, "rental_uris": {"android": "https://dc.lft.to/lastmile_qr_scan", "ios": "https://dc.lft.to/lastmile_qr_scan"}, "fusion_lon": 0.0, "lat": 38.933592833333336, "bike_id": "071e44421f570fc546c13489d4184479", "type": "electric_scooter", "is_reserved": 0, "lon": -77.0343535}, {"fusion_lat": 0.0, "name": "b815b1836a448c096c60b1e39a353aa6", "is_disabled": 0, "rental_uris": {"android": "https://dc.lft.to/lastmile_qr_scan", "ios": "https://dc.lft.to/lastmile_qr_scan"}, "fusion_lon": 0.0, "lat": 38.900959666666665, "bike_id": "b815b1836a448c096c60b1e39a353aa6", "type": "electric_scooter", "is_reserved": 0, "lon": -77.03487633333333}, {"fusion_lat": 0.0, "name": "ff1f00f7a19ca0b307b843f22911a0f5", "is_disabled": 0, "rental_uris": {"android": "https://dc.lft.to/lastmile_qr_scan", "ios": "https://dc.lft.to/lastmile_qr_scan"}, "fusion_lon": 0.0, "lat": 38.847559, "bike_id": "ff1f00f7a19ca0b307b843f22911a0f5", "type": "electric_scooter", "is_reserved": 0, "lon": -76.9949745}, {"fusion_lat": 0.0, "name": "77e42f8416fa408fb4f7c449928ad771", "is_disabled": 0, "rental_uris": {"android": "https://dc.lft.to/lastmile_qr_scan", "ios": "https://dc.lft.to/lastmile_qr_scan"}, "fusion_lon": 0.0, "lat": 38.91471666666666, "bike_id": "77e42f8416fa408fb4f7c449928ad771", "type": "electric_scooter", "is_reserved": 0, "lon": -77.0240135}, {"fusion_lat": 0.0, "name": "3b149a71e92fa689497be6010e4cdab9", "is_disabled": 0, "rental_uris": {"android": "https://dc.lft.to/lastmile_qr_scan", "ios": "https://dc.lft.to/lastmile_qr_scan"}, "fusion_lon": 0.0, "lat": 38.874074, "bike_id": "3b149a71e92fa689497be6010e4cdab9", "type": "electric_scooter", "is_reserved": 0, "lon": -76.99996683333333}, {"fusion_lat": 0.0, "name": "1ed63e4907897238d5e23efe0ca641ae", "is_disabled": 0, "rental_uris": {"android": "https://dc.lft.to/lastmile_qr_scan", "ios": "https://dc.lft.to/lastmile_qr_scan"}, "fusion_lon": 0.0, "lat": 38.91682816666667, "bike_id": "1ed63e4907897238d5e23efe0ca641ae", "type": "electric_scooter", "is_reserved": 0, "lon": -77.02897616666667}, {"fusion_lat": 0.0, "name": "883126635bca2757faaaf577687d1a49", "is_disabled": 0, "rental_uris": {"android": "https://dc.lft.to/lastmile_qr_scan", "ios": "https://dc.lft.to/lastmile_qr_scan"}, "fusion_lon": 0.0, "lat": 38.904147333333334, "bike_id": "883126635bca2757faaaf577687d1a49", "type": "electric_scooter", "is_reserved": 0, "lon": -77.02350316666667}, {"fusion_lat": 0.0, "name": "5bc85412a6cbecdd6fc2ca50c3d6b81e", "is_disabled": 0, "rental_uris": {"android": "https://dc.lft.to/lastmile_qr_scan", "ios": "https://dc.lft.to/lastmile_qr_scan"}, "fusion_lon": 0.0, "lat": 38.89617166666667, "bike_id": "5bc85412a6cbecdd6fc2ca50c3d6b81e", "type": "electric_scooter", "is_reserved": 0, "lon": -77.00911933333333}, {"fusion_lat": 0.0, "name": "c2841083ec44bd75d555741a6c3b6742", "is_disabled": 0, "rental_uris": {"android": "https://dc.lft.to/lastmile_qr_scan", "ios": "https://dc.lft.to/lastmile_qr_scan"}, "fusion_lon": 0.0, "lat": 38.935258166666664, "bike_id": "c2841083ec44bd75d555741a6c3b6742", "type": "electric_scooter", "is_reserved": 0, "lon": -77.072652}, {"fusion_lat": 0.0, "name": "68ebbc8b76b29784e9c0b1c19a643a97", "is_disabled": 0, "rental_uris": {"android": "https://dc.lft.to/lastmile_qr_scan", "ios": "https://dc.lft.to/lastmile_qr_scan"}, "fusion_lon": 0.0, "lat": 38.87888733333333, "bike_id": "68ebbc8b76b29784e9c0b1c19a643a97", "type": "electric_scooter", "is_reserved": 0, "lon": -77.02248483333334}, {"fusion_lat": 0.0, "name": "70ad6b69f69fb4a6ba478afcd07afc69", "is_disabled": 0, "rental_uris": {"android": "https://dc.lft.to/lastmile_qr_scan", "ios": "https://dc.lft.to/lastmile_qr_scan"}, "fusion_lon": 0.0, "lat": 39.05251416666667, "bike_id": "70ad6b69f69fb4a6ba478afcd07afc69", "type": "electric_bike", "is_reserved": 0, "lon": -77.08070316666667}, {"fusion_lat": 0.0, "name": "c5ab72648ea4e0c1c34998e91d214798", "is_disabled": 0, "rental_uris": {"android": "https://dc.lft.to/lastmile_qr_scan", "ios": "https://dc.lft.to/lastmile_qr_scan"}, "fusion_lon": 0.0, "lat": 38.898727, "bike_id": "c5ab72648ea4e0c1c34998e91d214798", "type": "electric_scooter", "is_reserved": 0, "lon": -76.931856}, {"fusion_lat": 0.0, "name": "4ba2cb6410d8cc7e8950f5e3affc5edc", "is_disabled": 0, "rental_uris": {"android": "https://dc.lft.to/lastmile_qr_scan", "ios": "https://dc.lft.to/lastmile_qr_scan"}, "fusion_lon": 0.0, "lat": 38.90537283333333, "bike_id": "4ba2cb6410d8cc7e8950f5e3affc5edc", "type": "electric_scooter", "is_reserved": 0, "lon": -77.02204483333334}, {"fusion_lat": 0.0, "name": "f6ec9dbc3b7ff07556a7ca157d2cc334", "is_disabled": 0, "rental_uris": {"android": "https://dc.lft.to/lastmile_qr_scan", "ios": "https://dc.lft.to/lastmile_qr_scan"}, "fusion_lon": 0.0, "lat": 38.883272, "bike_id": "f6ec9dbc3b7ff07556a7ca157d2cc334", "type": "electric_scooter", "is_reserved": 0, "lon": -77.01716016666667}, {"fusion_lat": 0.0, "name": "97182ecbc8f997ef5a27d37cde867e5a", "is_disabled": 0, "rental_uris": {"android": "https://dc.lft.to/lastmile_qr_scan", "ios": "https://dc.lft.to/lastmile_qr_scan"}, "fusion_lon": 0.0, "lat": 38.944055166666665, "bike_id": "97182ecbc8f997ef5a27d37cde867e5a", "type": "electric_scooter", "is_reserved": 0, "lon": -77.0362605}, {"fusion_lat": 0.0, "name": "c31fc733fdbe33ea519c202a8b7928c1", "is_disabled": 0, "rental_uris": {"android": "https://dc.lft.to/lastmile_qr_scan", "ios": "https://dc.lft.to/lastmile_qr_scan"}, "fusion_lon": 0.0, "lat": 38.917068666666665, "bike_id": "c31fc733fdbe33ea519c202a8b7928c1", "type": "electric_scooter", "is_reserved": 0, "lon": -77.00114816666667}, {"fusion_lat": 0.0, "name": "73f45c51ef5c49651f3d46e53b6c2fee", "is_disabled": 0, "rental_uris": {"android": "https://dc.lft.to/lastmile_qr_scan", "ios": "https://dc.lft.to/lastmile_qr_scan"}, "fusion_lon": 0.0, "lat": 38.922581666666666, "bike_id": "73f45c51ef5c49651f3d46e53b6c2fee", "type": "electric_scooter", "is_reserved": 0, "lon": -77.01841633333333}, {"fusion_lat": 0.0, "name": "49c84cf1fe4fc8741aff8770370bc188", "is_disabled": 0, "rental_uris": {"android": "https://dc.lft.to/lastmile_qr_scan", "ios": "https://dc.lft.to/lastmile_qr_scan"}, "fusion_lon": 0.0, "lat": 38.93320033333333, "bike_id": "49c84cf1fe4fc8741aff8770370bc188", "type": "electric_scooter", "is_reserved": 0, "lon": -77.027617}, {"fusion_lat": 0.0, "name": "258f5fbd4c092ec60eaa295ea47e6047", "is_disabled": 0, "rental_uris": {"android": "https://dc.lft.to/lastmile_qr_scan", "ios": "https://dc.lft.to/lastmile_qr_scan"}, "fusion_lon": 0.0, "lat": 38.90012316666667, "bike_id": "258f5fbd4c092ec60eaa295ea47e6047", "type": "electric_scooter", "is_reserved": 0, "lon": -77.00042783333333}, {"fusion_lat": 0.0, "name": "3b2c3e212ca1a797b0df0c95c55dd0fa", "is_disabled": 0, "rental_uris": {"android": "https://dc.lft.to/lastmile_qr_scan", "ios": "https://dc.lft.to/lastmile_qr_scan"}, "fusion_lon": 0.0, "lat": 38.915982166666666, "bike_id": "3b2c3e212ca1a797b0df0c95c55dd0fa", "type": "electric_scooter", "is_reserved": 0, "lon": -77.032179}, {"fusion_lat": 0.0, "name": "1fde72c987ac59d35fdc6d949f6ce80f", "is_disabled": 0, "rental_uris": {"android": "https://dc.lft.to/lastmile_qr_scan", "ios": "https://dc.lft.to/lastmile_qr_scan"}, "fusion_lon": 0.0, "lat": 38.92025833333334, "bike_id": "1fde72c987ac59d35fdc6d949f6ce80f", "type": "electric_scooter", "is_reserved": 0, "lon": -76.9957005}, {"fusion_lat": 0.0, "name": "091b658ae4579864e6d1ce0599ef38fe", "is_disabled": 0, "rental_uris": {"android": "https://dc.lft.to/lastmile_qr_scan", "ios": "https://dc.lft.to/lastmile_qr_scan"}, "fusion_lon": 0.0, "lat": 38.92865166666667, "bike_id": "091b658ae4579864e6d1ce0599ef38fe", "type": "electric_scooter", "is_reserved": 0, "lon": -77.03482233333334}, {"fusion_lat": 0.0, "name": "abc4235d17bca21e293b989739d5eda6", "is_disabled": 0, "rental_uris": {"android": "https://dc.lft.to/lastmile_qr_scan", "ios": "https://dc.lft.to/lastmile_qr_scan"}, "fusion_lon": 0.0, "lat": 38.92079416666667, "bike_id": "abc4235d17bca21e293b989739d5eda6", "type": "electric_scooter", "is_reserved": 0, "lon": -77.02520416666667}, {"fusion_lat": 0.0, "name": "4db6727b403aedb41395c48f9d4542cf", "is_disabled": 0, "rental_uris": {"android": "https://dc.lft.to/lastmile_qr_scan", "ios": "https://dc.lft.to/lastmile_qr_scan"}, "fusion_lon": 0.0, "lat": 38.90030466666666, "bike_id": "4db6727b403aedb41395c48f9d4542cf", "type": "electric_scooter", "is_reserved": 0, "lon": -76.9955365}, {"fusion_lat": 0.0, "name": "65338bc833beae2cc51f0f89612cc360", "is_disabled": 0, "rental_uris": {"android": "https://dc.lft.to/lastmile_qr_scan", "ios": "https://dc.lft.to/lastmile_qr_scan"}, "fusion_lon": 0.0, "lat": 38.90502733333334, "bike_id": "65338bc833beae2cc51f0f89612cc360", "type": "electric_scooter", "is_reserved": 0, "lon": -77.029532}, {"fusion_lat": 0.0, "name": "f23debe6077ed7549baeb409e91bfac2", "is_disabled": 0, "rental_uris": {"android": "https://dc.lft.to/lastmile_qr_scan", "ios": "https://dc.lft.to/lastmile_qr_scan"}, "fusion_lon": 0.0, "lat": 38.92872666666667, "bike_id": "f23debe6077ed7549baeb409e91bfac2", "type": "electric_scooter", "is_reserved": 0, "lon": -77.03795466666666}, {"fusion_lat": 0.0, "name": "954937ad3dd39ee48bef3e654d30d139", "is_disabled": 0, "rental_uris": {"android": "https://dc.lft.to/lastmile_qr_scan", "ios": "https://dc.lft.to/lastmile_qr_scan"}, "fusion_lon": 0.0, "lat": 38.92105466666667, "bike_id": "954937ad3dd39ee48bef3e654d30d139", "type": "electric_scooter", "is_reserved": 0, "lon": -77.074761}, {"fusion_lat": 0.0, "name": "a90db84eccef393420125cfb24101ed5", "is_disabled": 0, "rental_uris": {"android": "https://dc.lft.to/lastmile_qr_scan", "ios": "https://dc.lft.to/lastmile_qr_scan"}, "fusion_lon": 0.0, "lat": 38.87386516666667, "bike_id": "a90db84eccef393420125cfb24101ed5", "type": "electric_scooter", "is_reserved": 0, "lon": -77.00029416666666}, {"fusion_lat": 0.0, "name": "ca04f70d1bd9f8742f33538055e24b29", "is_disabled": 0, "rental_uris": {"android": "https://dc.lft.to/lastmile_qr_scan", "ios": "https://dc.lft.to/lastmile_qr_scan"}, "fusion_lon": 0.0, "lat": 38.900524833333336, "bike_id": "ca04f70d1bd9f8742f33538055e24b29", "type": "electric_scooter", "is_reserved": 0, "lon": -77.04891466666666}, {"fusion_lat": 0.0, "name": "e9e83042a3c63499a69155783ce8d181", "is_disabled": 0, "rental_uris": {"android": "https://dc.lft.to/lastmile_qr_scan", "ios": "https://dc.lft.to/lastmile_qr_scan"}, "fusion_lon": 0.0, "lat": 38.9295995, "bike_id": "e9e83042a3c63499a69155783ce8d181", "type": "electric_scooter", "is_reserved": 0, "lon": -76.99172466666667}, {"fusion_lat": 0.0, "name": "758ee99614ab8e12e62b6ba0324af682", "is_disabled": 0, "rental_uris": {"android": "https://dc.lft.to/lastmile_qr_scan", "ios": "https://dc.lft.to/lastmile_qr_scan"}, "fusion_lon": 0.0, "lat": 38.83156366666667, "bike_id": "758ee99614ab8e12e62b6ba0324af682", "type": "electric_bike", "is_reserved": 0, "lon": -76.99579166666666}, {"fusion_lat": 0.0, "name": "fa9c78d2f3c7251a41bc3650bfa6d212", "is_disabled": 0, "rental_uris": {"android": "https://dc.lft.to/lastmile_qr_scan", "ios": "https://dc.lft.to/lastmile_qr_scan"}, "fusion_lon": 0.0, "lat": 38.91319816666667, "bike_id": "fa9c78d2f3c7251a41bc3650bfa6d212", "type": "electric_scooter", "is_reserved": 0, "lon": -77.01205866666666}, {"fusion_lat": 0.0, "name": "953f0976480448b1039cd7691328a0a1", "is_disabled": 0, "rental_uris": {"android": "https://dc.lft.to/lastmile_qr_scan", "ios": "https://dc.lft.to/lastmile_qr_scan"}, "fusion_lon": 0.0, "lat": 38.922573, "bike_id": "953f0976480448b1039cd7691328a0a1", "type": "electric_scooter", "is_reserved": 0, "lon": -77.00912983333333}, {"fusion_lat": 0.0, "name": "fe6f6cfd603d3ebc0c7e802f0b651ea5", "is_disabled": 0, "rental_uris": {"android": "https://dc.lft.to/lastmile_qr_scan", "ios": "https://dc.lft.to/lastmile_qr_scan"}, "fusion_lon": 0.0, "lat": 38.900377, "bike_id": "fe6f6cfd603d3ebc0c7e802f0b651ea5", "type": "electric_bike", "is_reserved": 0, "lon": -76.97228033333333}, {"fusion_lat": 0.0, "name": "a78c88ecc2c9ac70474c98eb22eb6c97", "is_disabled": 0, "rental_uris": {"android": "https://dc.lft.to/lastmile_qr_scan", "ios": "https://dc.lft.to/lastmile_qr_scan"}, "fusion_lon": 0.0, "lat": 38.933072833333334, "bike_id": "a78c88ecc2c9ac70474c98eb22eb6c97", "type": "electric_scooter", "is_reserved": 0, "lon": -77.03264633333333}, {"fusion_lat": 0.0, "name": "9bb391507fe13e82824a5cfe3514668a", "is_disabled": 0, "rental_uris": {"android": "https://dc.lft.to/lastmile_qr_scan", "ios": "https://dc.lft.to/lastmile_qr_scan"}, "fusion_lon": 0.0, "lat": 38.877087, "bike_id": "9bb391507fe13e82824a5cfe3514668a", "type": "electric_scooter", "is_reserved": 0, "lon": -77.00414616666667}, {"fusion_lat": 0.0, "name": "3a160a040ba633e6aa797ccb3cf30ea1", "is_disabled": 0, "rental_uris": {"android": "https://dc.lft.to/lastmile_qr_scan", "ios": "https://dc.lft.to/lastmile_qr_scan"}, "fusion_lon": 0.0, "lat": 38.93170416666667, "bike_id": "3a160a040ba633e6aa797ccb3cf30ea1", "type": "electric_scooter", "is_reserved": 0, "lon": -77.03801266666666}, {"fusion_lat": 0.0, "name": "64afe4c43f69f1647cfd64899fcfcafd", "is_disabled": 0, "rental_uris": {"android": "https://dc.lft.to/lastmile_qr_scan", "ios": "https://dc.lft.to/lastmile_qr_scan"}, "fusion_lon": 0.0, "lat": 38.96679816666666, "bike_id": "64afe4c43f69f1647cfd64899fcfcafd", "type": "electric_bike", "is_reserved": 0, "lon": -77.02305216666667}, {"fusion_lat": 0.0, "name": "86fa1caaccc22357806cdeaf6d8e569d", "is_disabled": 0, "rental_uris": {"android": "https://dc.lft.to/lastmile_qr_scan", "ios": "https://dc.lft.to/lastmile_qr_scan"}, "fusion_lon": 0.0, "lat": 38.916860666666665, "bike_id": "86fa1caaccc22357806cdeaf6d8e569d", "type": "electric_scooter", "is_reserved": 0, "lon": -77.0312425}, {"fusion_lat": 0.0, "name": "bd02d003726a562f424305e37b2a47ae", "is_disabled": 0, "rental_uris": {"android": "https://dc.lft.to/lastmile_qr_scan", "ios": "https://dc.lft.to/lastmile_qr_scan"}, "fusion_lon": 0.0, "lat": 38.92008633333333, "bike_id": "bd02d003726a562f424305e37b2a47ae", "type": "electric_scooter", "is_reserved": 0, "lon": -77.02179483333333}, {"fusion_lat": 0.0, "name": "e12e1caf0b69525d481775fa40216214", "is_disabled": 0, "rental_uris": {"android": "https://dc.lft.to/lastmile_qr_scan", "ios": "https://dc.lft.to/lastmile_qr_scan"}, "fusion_lon": 0.0, "lat": 38.90984133333333, "bike_id": "e12e1caf0b69525d481775fa40216214", "type": "electric_scooter", "is_reserved": 0, "lon": -77.03376783333333}, {"fusion_lat": 0.0, "name": "ad70affd0ef2b8fdbd22ff0daf27bb9b", "is_disabled": 0, "rental_uris": {"android": "https://dc.lft.to/lastmile_qr_scan", "ios": "https://dc.lft.to/lastmile_qr_scan"}, "fusion_lon": 0.0, "lat": 38.9169355, "bike_id": "ad70affd0ef2b8fdbd22ff0daf27bb9b", "type": "electric_scooter", "is_reserved": 0, "lon": -77.035069}, {"fusion_lat": 0.0, "name": "67ee54f335ec7f67a9ed4ee63ed09743", "is_disabled": 0, "rental_uris": {"android": "https://dc.lft.to/lastmile_qr_scan", "ios": "https://dc.lft.to/lastmile_qr_scan"}, "fusion_lon": 0.0, "lat": 38.88512083333333, "bike_id": "67ee54f335ec7f67a9ed4ee63ed09743", "type": "electric_scooter", "is_reserved": 0, "lon": -77.011138}, {"fusion_lat": 0.0, "name": "1c6732b7d0ad0d4c1d46c6bc59a6a43f", "is_disabled": 0, "rental_uris": {"android": "https://dc.lft.to/lastmile_qr_scan", "ios": "https://dc.lft.to/lastmile_qr_scan"}, "fusion_lon": 0.0, "lat": 38.924723666666665, "bike_id": "1c6732b7d0ad0d4c1d46c6bc59a6a43f", "type": "electric_scooter", "is_reserved": 0, "lon": -77.02273983333333}, {"fusion_lat": 0.0, "name": "27ad2e8d12548646f7b78f28859627ea", "is_disabled": 0, "rental_uris": {"android": "https://dc.lft.to/lastmile_qr_scan", "ios": "https://dc.lft.to/lastmile_qr_scan"}, "fusion_lon": 0.0, "lat": 38.905203, "bike_id": "27ad2e8d12548646f7b78f28859627ea", "type": "electric_scooter", "is_reserved": 0, "lon": -77.04683216666666}, {"fusion_lat": 0.0, "name": "f5af4c0e975a817ff0b6246e8aa177f8", "is_disabled": 0, "rental_uris": {"android": "https://dc.lft.to/lastmile_qr_scan", "ios": "https://dc.lft.to/lastmile_qr_scan"}, "fusion_lon": 0.0, "lat": 38.904367666666666, "bike_id": "f5af4c0e975a817ff0b6246e8aa177f8", "type": "electric_scooter", "is_reserved": 0, "lon": -77.02503133333333}, {"fusion_lat": 0.0, "name": "98f987c7940af9e54e9cd31dcf3a029d", "is_disabled": 0, "rental_uris": {"android": "https://dc.lft.to/lastmile_qr_scan", "ios": "https://dc.lft.to/lastmile_qr_scan"}, "fusion_lon": 0.0, "lat": 38.914360333333335, "bike_id": "98f987c7940af9e54e9cd31dcf3a029d", "type": "electric_scooter", "is_reserved": 0, "lon": -76.993559}, {"fusion_lat": 0.0, "name": "897547717b9a1165cf88341b696b1d6e", "is_disabled": 0, "rental_uris": {"android": "https://dc.lft.to/lastmile_qr_scan", "ios": "https://dc.lft.to/lastmile_qr_scan"}, "fusion_lon": 0.0, "lat": 38.918216, "bike_id": "897547717b9a1165cf88341b696b1d6e", "type": "electric_scooter", "is_reserved": 0, "lon": -77.025278}, {"fusion_lat": 0.0, "name": "03afdb6ab846952d646fba1e1ad5f532", "is_disabled": 0, "rental_uris": {"android": "https://dc.lft.to/lastmile_qr_scan", "ios": "https://dc.lft.to/lastmile_qr_scan"}, "fusion_lon": 0.0, "lat": 38.90365033333333, "bike_id": "03afdb6ab846952d646fba1e1ad5f532", "type": "electric_scooter", "is_reserved": 0, "lon": -77.007384}, {"fusion_lat": 0.0, "name": "c2ecae4e90edf8862780b45689fc8d23", "is_disabled": 0, "rental_uris": {"android": "https://dc.lft.to/lastmile_qr_scan", "ios": "https://dc.lft.to/lastmile_qr_scan"}, "fusion_lon": 0.0, "lat": 38.924611166666665, "bike_id": "c2ecae4e90edf8862780b45689fc8d23", "type": "electric_scooter", "is_reserved": 0, "lon": -77.080254}, {"fusion_lat": 0.0, "name": "bba85d0afeba3a2c70532b447b1e6cf8", "is_disabled": 0, "rental_uris": {"android": "https://dc.lft.to/lastmile_qr_scan", "ios": "https://dc.lft.to/lastmile_qr_scan"}, "fusion_lon": 0.0, "lat": 38.967292666666665, "bike_id": "bba85d0afeba3a2c70532b447b1e6cf8", "type": "electric_scooter", "is_reserved": 0, "lon": -77.00918616666667}, {"fusion_lat": 0.0, "name": "eac7a9d2d6015c3d7d935b512edeb03c", "is_disabled": 0, "rental_uris": {"android": "https://dc.lft.to/lastmile_qr_scan", "ios": "https://dc.lft.to/lastmile_qr_scan"}, "fusion_lon": 0.0, "lat": 38.904991333333335, "bike_id": "eac7a9d2d6015c3d7d935b512edeb03c", "type": "electric_scooter", "is_reserved": 0, "lon": -77.05750716666667}, {"fusion_lat": 0.0, "name": "d09c2ba8d6b760a5e938e23db098a918", "is_disabled": 0, "rental_uris": {"android": "https://dc.lft.to/lastmile_qr_scan", "ios": "https://dc.lft.to/lastmile_qr_scan"}, "fusion_lon": 0.0, "lat": 38.89255583333333, "bike_id": "d09c2ba8d6b760a5e938e23db098a918", "type": "electric_bike", "is_reserved": 0, "lon": -76.9511735}, {"fusion_lat": 0.0, "name": "a8cc8bd3db91717e2868cdc22b0377fe", "is_disabled": 0, "rental_uris": {"android": "https://dc.lft.to/lastmile_qr_scan", "ios": "https://dc.lft.to/lastmile_qr_scan"}, "fusion_lon": 0.0, "lat": 38.89630533333333, "bike_id": "a8cc8bd3db91717e2868cdc22b0377fe", "type": "electric_scooter", "is_reserved": 0, "lon": -77.02654016666666}, {"fusion_lat": 0.0, "name": "f543908df505b5476359c6b1218d99de", "is_disabled": 0, "rental_uris": {"android": "https://dc.lft.to/lastmile_qr_scan", "ios": "https://dc.lft.to/lastmile_qr_scan"}, "fusion_lon": 0.0, "lat": 38.95245533333333, "bike_id": "f543908df505b5476359c6b1218d99de", "type": "electric_scooter", "is_reserved": 0, "lon": -77.0237685}, {"fusion_lat": 0.0, "name": "62286b0a16bf4888f276f932b35703c4", "is_disabled": 0, "rental_uris": {"android": "https://dc.lft.to/lastmile_qr_scan", "ios": "https://dc.lft.to/lastmile_qr_scan"}, "fusion_lon": 0.0, "lat": 38.905653, "bike_id": "62286b0a16bf4888f276f932b35703c4", "type": "electric_scooter", "is_reserved": 0, "lon": -77.042958}, {"fusion_lat": 0.0, "name": "d3f2ab06f705f425d75b8119ce468cb1", "is_disabled": 0, "rental_uris": {"android": "https://dc.lft.to/lastmile_qr_scan", "ios": "https://dc.lft.to/lastmile_qr_scan"}, "fusion_lon": 0.0, "lat": 38.89346666666667, "bike_id": "d3f2ab06f705f425d75b8119ce468cb1", "type": "electric_scooter", "is_reserved": 0, "lon": -77.00071533333333}, {"fusion_lat": 0.0, "name": "6d4b0b88621e75824f8397b9bc1aea43", "is_disabled": 0, "rental_uris": {"android": "https://dc.lft.to/lastmile_qr_scan", "ios": "https://dc.lft.to/lastmile_qr_scan"}, "fusion_lon": 0.0, "lat": 38.919140166666665, "bike_id": "6d4b0b88621e75824f8397b9bc1aea43", "type": "electric_scooter", "is_reserved": 0, "lon": -77.02616216666667}, {"fusion_lat": 0.0, "name": "cb8b0a4bac70f724cd7a9f49a9c03879", "is_disabled": 0, "rental_uris": {"android": "https://dc.lft.to/lastmile_qr_scan", "ios": "https://dc.lft.to/lastmile_qr_scan"}, "fusion_lon": 0.0, "lat": 38.883314666666664, "bike_id": "cb8b0a4bac70f724cd7a9f49a9c03879", "type": "electric_scooter", "is_reserved": 0, "lon": -77.01820366666666}, {"fusion_lat": 0.0, "name": "ce5df7dee407f6e24c4330962969dfd6", "is_disabled": 0, "rental_uris": {"android": "https://dc.lft.to/lastmile_qr_scan", "ios": "https://dc.lft.to/lastmile_qr_scan"}, "fusion_lon": 0.0, "lat": 38.90995133333333, "bike_id": "ce5df7dee407f6e24c4330962969dfd6", "type": "electric_scooter", "is_reserved": 0, "lon": -77.0308815}, {"fusion_lat": 0.0, "name": "3ce96d3b37eed77e1a659eb434a8d7ce", "is_disabled": 0, "rental_uris": {"android": "https://dc.lft.to/lastmile_qr_scan", "ios": "https://dc.lft.to/lastmile_qr_scan"}, "fusion_lon": 0.0, "lat": 38.91326083333333, "bike_id": "3ce96d3b37eed77e1a659eb434a8d7ce", "type": "electric_scooter", "is_reserved": 0, "lon": -77.031829}, {"fusion_lat": 0.0, "name": "45b21619e3ee4f128b6548a4040a7339", "is_disabled": 0, "rental_uris": {"android": "https://dc.lft.to/lastmile_qr_scan", "ios": "https://dc.lft.to/lastmile_qr_scan"}, "fusion_lon": 0.0, "lat": 38.806768166666664, "bike_id": "45b21619e3ee4f128b6548a4040a7339", "type": "electric_bike", "is_reserved": 0, "lon": -77.069207}, {"fusion_lat": 0.0, "name": "badf7589f0b83e7e0e35415f7c90f518", "is_disabled": 0, "rental_uris": {"android": "https://dc.lft.to/lastmile_qr_scan", "ios": "https://dc.lft.to/lastmile_qr_scan"}, "fusion_lon": 0.0, "lat": 38.905268166666666, "bike_id": "badf7589f0b83e7e0e35415f7c90f518", "type": "electric_scooter", "is_reserved": 0, "lon": -77.05935966666667}, {"fusion_lat": 0.0, "name": "78da46bc88feaec9254f609d7226ac6d", "is_disabled": 0, "rental_uris": {"android": "https://dc.lft.to/lastmile_qr_scan", "ios": "https://dc.lft.to/lastmile_qr_scan"}, "fusion_lon": 0.0, "lat": 38.908883, "bike_id": "78da46bc88feaec9254f609d7226ac6d", "type": "electric_scooter", "is_reserved": 0, "lon": -77.0432465}, {"fusion_lat": 0.0, "name": "e1a8eaa1aa551740121736713df9802d", "is_disabled": 0, "rental_uris": {"android": "https://dc.lft.to/lastmile_qr_scan", "ios": "https://dc.lft.to/lastmile_qr_scan"}, "fusion_lon": 0.0, "lat": 38.92934533333333, "bike_id": "e1a8eaa1aa551740121736713df9802d", "type": "electric_scooter", "is_reserved": 0, "lon": -77.032875}, {"fusion_lat": 0.0, "name": "902a73306d2c9e2722f4b616fd3db790", "is_disabled": 0, "rental_uris": {"android": "https://dc.lft.to/lastmile_qr_scan", "ios": "https://dc.lft.to/lastmile_qr_scan"}, "fusion_lon": 0.0, "lat": 38.870354, "bike_id": "902a73306d2c9e2722f4b616fd3db790", "type": "electric_scooter", "is_reserved": 0, "lon": -77.0097275}, {"fusion_lat": 0.0, "name": "8701b060cdf5a5928a25753b600403ad", "is_disabled": 0, "rental_uris": {"android": "https://dc.lft.to/lastmile_qr_scan", "ios": "https://dc.lft.to/lastmile_qr_scan"}, "fusion_lon": 0.0, "lat": 38.9170395, "bike_id": "8701b060cdf5a5928a25753b600403ad", "type": "electric_scooter", "is_reserved": 0, "lon": -77.042746}, {"fusion_lat": 0.0, "name": "b26e49c314c3771acbdefb0fd4f7af1f", "is_disabled": 0, "rental_uris": {"android": "https://dc.lft.to/lastmile_qr_scan", "ios": "https://dc.lft.to/lastmile_qr_scan"}, "fusion_lon": 0.0, "lat": 38.92555133333333, "bike_id": "b26e49c314c3771acbdefb0fd4f7af1f", "type": "electric_scooter", "is_reserved": 0, "lon": -76.98318566666667}, {"fusion_lat": 0.0, "name": "c08f986706ff43d0ff85aff12476310a", "is_disabled": 0, "rental_uris": {"android": "https://dc.lft.to/lastmile_qr_scan", "ios": "https://dc.lft.to/lastmile_qr_scan"}, "fusion_lon": 0.0, "lat": 38.90236066666667, "bike_id": "c08f986706ff43d0ff85aff12476310a", "type": "electric_scooter", "is_reserved": 0, "lon": -77.05901366666667}, {"fusion_lat": 0.0, "name": "761c0891dae4ce32dc43224d82f2be47", "is_disabled": 0, "rental_uris": {"android": "https://dc.lft.to/lastmile_qr_scan", "ios": "https://dc.lft.to/lastmile_qr_scan"}, "fusion_lon": 0.0, "lat": 38.9073035, "bike_id": "761c0891dae4ce32dc43224d82f2be47", "type": "electric_scooter", "is_reserved": 0, "lon": -77.02959866666667}, {"fusion_lat": 0.0, "name": "0fa2d0192e0e3a61c082787007b79ff8", "is_disabled": 0, "rental_uris": {"android": "https://dc.lft.to/lastmile_qr_scan", "ios": "https://dc.lft.to/lastmile_qr_scan"}, "fusion_lon": 0.0, "lat": 38.896224333333336, "bike_id": "0fa2d0192e0e3a61c082787007b79ff8", "type": "electric_bike", "is_reserved": 0, "lon": -77.021729}, {"fusion_lat": 0.0, "name": "125ad39396b5e7bd0e17ff3f1b47eea4", "is_disabled": 0, "rental_uris": {"android": "https://dc.lft.to/lastmile_qr_scan", "ios": "https://dc.lft.to/lastmile_qr_scan"}, "fusion_lon": 0.0, "lat": 38.88451083333333, "bike_id": "125ad39396b5e7bd0e17ff3f1b47eea4", "type": "electric_scooter", "is_reserved": 0, "lon": -76.99390516666666}, {"fusion_lat": 0.0, "name": "d33c0e91d8ddd2eb1288ffb283a83430", "is_disabled": 0, "rental_uris": {"android": "https://dc.lft.to/lastmile_qr_scan", "ios": "https://dc.lft.to/lastmile_qr_scan"}, "fusion_lon": 0.0, "lat": 38.90713866666667, "bike_id": "d33c0e91d8ddd2eb1288ffb283a83430", "type": "electric_scooter", "is_reserved": 0, "lon": -77.05051033333334}, {"fusion_lat": 0.0, "name": "79f754e425b1b53c84a9d11ea940ca42", "is_disabled": 0, "rental_uris": {"android": "https://dc.lft.to/lastmile_qr_scan", "ios": "https://dc.lft.to/lastmile_qr_scan"}, "fusion_lon": 0.0, "lat": 38.89560216666667, "bike_id": "79f754e425b1b53c84a9d11ea940ca42", "type": "electric_scooter", "is_reserved": 0, "lon": -77.0258265}, {"fusion_lat": 0.0, "name": "f638d2d18b08707017eda284ece8eb61", "is_disabled": 0, "rental_uris": {"android": "https://dc.lft.to/lastmile_qr_scan", "ios": "https://dc.lft.to/lastmile_qr_scan"}, "fusion_lon": 0.0, "lat": 38.90655733333333, "bike_id": "f638d2d18b08707017eda284ece8eb61", "type": "electric_scooter", "is_reserved": 0, "lon": -77.00924583333334}, {"fusion_lat": 0.0, "name": "e119b96c356278b6dfab64bc78ca5ff3", "is_disabled": 0, "rental_uris": {"android": "https://dc.lft.to/lastmile_qr_scan", "ios": "https://dc.lft.to/lastmile_qr_scan"}, "fusion_lon": 0.0, "lat": 38.9043905, "bike_id": "e119b96c356278b6dfab64bc78ca5ff3", "type": "electric_scooter", "is_reserved": 0, "lon": -77.0297645}, {"fusion_lat": 0.0, "name": "19a106849177dc9d1fac68b7b84adc6f", "is_disabled": 0, "rental_uris": {"android": "https://dc.lft.to/lastmile_qr_scan", "ios": "https://dc.lft.to/lastmile_qr_scan"}, "fusion_lon": 0.0, "lat": 38.90377433333333, "bike_id": "19a106849177dc9d1fac68b7b84adc6f", "type": "electric_scooter", "is_reserved": 0, "lon": -77.00732566666667}, {"fusion_lat": 0.0, "name": "2e093ff4d7bede05729d32356dbe1972", "is_disabled": 0, "rental_uris": {"android": "https://dc.lft.to/lastmile_qr_scan", "ios": "https://dc.lft.to/lastmile_qr_scan"}, "fusion_lon": 0.0, "lat": 38.98391016666667, "bike_id": "2e093ff4d7bede05729d32356dbe1972", "type": "electric_scooter", "is_reserved": 0, "lon": -77.0263125}, {"fusion_lat": 0.0, "name": "6ecc21df2d2dfda67f1dbfdad87c19e8", "is_disabled": 0, "rental_uris": {"android": "https://dc.lft.to/lastmile_qr_scan", "ios": "https://dc.lft.to/lastmile_qr_scan"}, "fusion_lon": 0.0, "lat": 38.9089845, "bike_id": "6ecc21df2d2dfda67f1dbfdad87c19e8", "type": "electric_scooter", "is_reserved": 0, "lon": -77.03210766666666}, {"fusion_lat": 0.0, "name": "7bcd71657dfc76d0fdcf48257430b5d4", "is_disabled": 0, "rental_uris": {"android": "https://dc.lft.to/lastmile_qr_scan", "ios": "https://dc.lft.to/lastmile_qr_scan"}, "fusion_lon": 0.0, "lat": 38.94523733333333, "bike_id": "7bcd71657dfc76d0fdcf48257430b5d4", "type": "electric_scooter", "is_reserved": 0, "lon": -77.02273133333334}, {"fusion_lat": 0.0, "name": "b15be3dde69ade87c13d9d8d1150e828", "is_disabled": 0, "rental_uris": {"android": "https://dc.lft.to/lastmile_qr_scan", "ios": "https://dc.lft.to/lastmile_qr_scan"}, "fusion_lon": 0.0, "lat": 38.904995666666665, "bike_id": "b15be3dde69ade87c13d9d8d1150e828", "type": "electric_scooter", "is_reserved": 0, "lon": -77.02947366666666}, {"fusion_lat": 0.0, "name": "10fc59194069a0df073d909887b915f0", "is_disabled": 0, "rental_uris": {"android": "https://dc.lft.to/lastmile_qr_scan", "ios": "https://dc.lft.to/lastmile_qr_scan"}, "fusion_lon": 0.0, "lat": 38.921512, "bike_id": "10fc59194069a0df073d909887b915f0", "type": "electric_scooter", "is_reserved": 0, "lon": -77.0386885}, {"fusion_lat": 0.0, "name": "72a0ecbd0e46d01f324d3e42aeb54127", "is_disabled": 0, "rental_uris": {"android": "https://dc.lft.to/lastmile_qr_scan", "ios": "https://dc.lft.to/lastmile_qr_scan"}, "fusion_lon": 0.0, "lat": 38.9190325, "bike_id": "72a0ecbd0e46d01f324d3e42aeb54127", "type": "electric_scooter", "is_reserved": 0, "lon": -77.01220116666667}, {"fusion_lat": 0.0, "name": "eb58e509786ecc185bd8a8b205c9ba32", "is_disabled": 0, "rental_uris": {"android": "https://dc.lft.to/lastmile_qr_scan", "ios": "https://dc.lft.to/lastmile_qr_scan"}, "fusion_lon": 0.0, "lat": 38.890172, "bike_id": "eb58e509786ecc185bd8a8b205c9ba32", "type": "electric_scooter", "is_reserved": 0, "lon": -76.93720166666667}, {"fusion_lat": 0.0, "name": "971a53d6183b54c723f4e664a865bd0b", "is_disabled": 0, "rental_uris": {"android": "https://dc.lft.to/lastmile_qr_scan", "ios": "https://dc.lft.to/lastmile_qr_scan"}, "fusion_lon": 0.0, "lat": 38.93500816666667, "bike_id": "971a53d6183b54c723f4e664a865bd0b", "type": "electric_scooter", "is_reserved": 0, "lon": -77.07364933333334}, {"fusion_lat": 0.0, "name": "51dc322eaa7c67a14d4c4273b807acb2", "is_disabled": 0, "rental_uris": {"android": "https://dc.lft.to/lastmile_qr_scan", "ios": "https://dc.lft.to/lastmile_qr_scan"}, "fusion_lon": 0.0, "lat": 38.93084116666667, "bike_id": "51dc322eaa7c67a14d4c4273b807acb2", "type": "electric_scooter", "is_reserved": 0, "lon": -76.9961505}, {"fusion_lat": 0.0, "name": "df1dbc0de8957bb63f1bbeff41aedb6e", "is_disabled": 0, "rental_uris": {"android": "https://dc.lft.to/lastmile_qr_scan", "ios": "https://dc.lft.to/lastmile_qr_scan"}, "fusion_lon": 0.0, "lat": 38.950587, "bike_id": "df1dbc0de8957bb63f1bbeff41aedb6e", "type": "electric_scooter", "is_reserved": 0, "lon": -77.08026683333334}, {"fusion_lat": 0.0, "name": "352ab8ef3ba73c93ec8b7f506321bf73", "is_disabled": 0, "rental_uris": {"android": "https://dc.lft.to/lastmile_qr_scan", "ios": "https://dc.lft.to/lastmile_qr_scan"}, "fusion_lon": 0.0, "lat": 38.95624733333333, "bike_id": "352ab8ef3ba73c93ec8b7f506321bf73", "type": "electric_scooter", "is_reserved": 0, "lon": -77.0329015}, {"fusion_lat": 0.0, "name": "311ac7333c93d78d74166e1aad570997", "is_disabled": 0, "rental_uris": {"android": "https://dc.lft.to/lastmile_qr_scan", "ios": "https://dc.lft.to/lastmile_qr_scan"}, "fusion_lon": 0.0, "lat": 38.921574666666665, "bike_id": "311ac7333c93d78d74166e1aad570997", "type": "electric_scooter", "is_reserved": 0, "lon": -77.0366825}, {"fusion_lat": 0.0, "name": "21ab2944cef624a5fd0a86964639c669", "is_disabled": 0, "rental_uris": {"android": "https://dc.lft.to/lastmile_qr_scan", "ios": "https://dc.lft.to/lastmile_qr_scan"}, "fusion_lon": 0.0, "lat": 38.95110233333333, "bike_id": "21ab2944cef624a5fd0a86964639c669", "type": "electric_scooter", "is_reserved": 0, "lon": -77.0585985}, {"fusion_lat": 0.0, "name": "4b0d9207b4585df065fa5925da155bda", "is_disabled": 0, "rental_uris": {"android": "https://dc.lft.to/lastmile_qr_scan", "ios": "https://dc.lft.to/lastmile_qr_scan"}, "fusion_lon": 0.0, "lat": 38.8198565, "bike_id": "4b0d9207b4585df065fa5925da155bda", "type": "electric_bike", "is_reserved": 0, "lon": -76.99774083333334}, {"fusion_lat": 0.0, "name": "b76de964b07d56df42cd5c731ab703e8", "is_disabled": 0, "rental_uris": {"android": "https://dc.lft.to/lastmile_qr_scan", "ios": "https://dc.lft.to/lastmile_qr_scan"}, "fusion_lon": 0.0, "lat": 38.91555133333333, "bike_id": "b76de964b07d56df42cd5c731ab703e8", "type": "electric_scooter", "is_reserved": 0, "lon": -77.034755}, {"fusion_lat": 0.0, "name": "ba41cc1aa88a2b5c5f675a94c4f78518", "is_disabled": 0, "rental_uris": {"android": "https://dc.lft.to/lastmile_qr_scan", "ios": "https://dc.lft.to/lastmile_qr_scan"}, "fusion_lon": 0.0, "lat": 38.911044, "bike_id": "ba41cc1aa88a2b5c5f675a94c4f78518", "type": "electric_scooter", "is_reserved": 0, "lon": -77.04485616666666}, {"fusion_lat": 0.0, "name": "53c3d77b0db1f5090d3a3386bc3b3310", "is_disabled": 0, "rental_uris": {"android": "https://dc.lft.to/lastmile_qr_scan", "ios": "https://dc.lft.to/lastmile_qr_scan"}, "fusion_lon": 0.0, "lat": 38.86628916666667, "bike_id": "53c3d77b0db1f5090d3a3386bc3b3310", "type": "electric_scooter", "is_reserved": 0, "lon": -76.98713116666667}, {"fusion_lat": 0.0, "name": "ae6fda32718e09dcc16bfd348108ff2a", "is_disabled": 0, "rental_uris": {"android": "https://dc.lft.to/lastmile_qr_scan", "ios": "https://dc.lft.to/lastmile_qr_scan"}, "fusion_lon": 0.0, "lat": 38.90241416666667, "bike_id": "ae6fda32718e09dcc16bfd348108ff2a", "type": "electric_scooter", "is_reserved": 0, "lon": -77.00197516666667}, {"fusion_lat": 0.0, "name": "4a1a5c91321d787d842e6a9299742840", "is_disabled": 0, "rental_uris": {"android": "https://dc.lft.to/lastmile_qr_scan", "ios": "https://dc.lft.to/lastmile_qr_scan"}, "fusion_lon": 0.0, "lat": 38.900623, "bike_id": "4a1a5c91321d787d842e6a9299742840", "type": "electric_scooter", "is_reserved": 0, "lon": -77.05425916666667}, {"fusion_lat": 0.0, "name": "5b746ab3e5168d7fb2ff610d4bda086c", "is_disabled": 0, "rental_uris": {"android": "https://dc.lft.to/lastmile_qr_scan", "ios": "https://dc.lft.to/lastmile_qr_scan"}, "fusion_lon": 0.0, "lat": 38.92869783333333, "bike_id": "5b746ab3e5168d7fb2ff610d4bda086c", "type": "electric_scooter", "is_reserved": 0, "lon": -77.01360366666667}, {"fusion_lat": 0.0, "name": "088d14c063170142b6701d26fd663846", "is_disabled": 0, "rental_uris": {"android": "https://dc.lft.to/lastmile_qr_scan", "ios": "https://dc.lft.to/lastmile_qr_scan"}, "fusion_lon": 0.0, "lat": 38.886118833333335, "bike_id": "088d14c063170142b6701d26fd663846", "type": "electric_scooter", "is_reserved": 0, "lon": -77.01249383333334}, {"fusion_lat": 0.0, "name": "1c25ce3cdc00cdc71d91b0fb94fe77fd", "is_disabled": 0, "rental_uris": {"android": "https://dc.lft.to/lastmile_qr_scan", "ios": "https://dc.lft.to/lastmile_qr_scan"}, "fusion_lon": 0.0, "lat": 38.90512016666667, "bike_id": "1c25ce3cdc00cdc71d91b0fb94fe77fd", "type": "electric_scooter", "is_reserved": 0, "lon": -77.06886283333333}, {"fusion_lat": 0.0, "name": "52606debcf183d9f32c589f1b8d35125", "is_disabled": 0, "rental_uris": {"android": "https://dc.lft.to/lastmile_qr_scan", "ios": "https://dc.lft.to/lastmile_qr_scan"}, "fusion_lon": 0.0, "lat": 38.92217016666667, "bike_id": "52606debcf183d9f32c589f1b8d35125", "type": "electric_scooter", "is_reserved": 0, "lon": -77.01822933333334}, {"fusion_lat": 0.0, "name": "5bebe4c471f0b9adbdfb113cf846f118", "is_disabled": 0, "rental_uris": {"android": "https://dc.lft.to/lastmile_qr_scan", "ios": "https://dc.lft.to/lastmile_qr_scan"}, "fusion_lon": 0.0, "lat": 38.916920166666664, "bike_id": "5bebe4c471f0b9adbdfb113cf846f118", "type": "electric_scooter", "is_reserved": 0, "lon": -77.0289095}, {"fusion_lat": 0.0, "name": "e15aaa9df9e6e50f987cfdd24626b340", "is_disabled": 0, "rental_uris": {"android": "https://dc.lft.to/lastmile_qr_scan", "ios": "https://dc.lft.to/lastmile_qr_scan"}, "fusion_lon": 0.0, "lat": 38.9154165, "bike_id": "e15aaa9df9e6e50f987cfdd24626b340", "type": "electric_scooter", "is_reserved": 0, "lon": -76.98368033333334}, {"fusion_lat": 0.0, "name": "ca2088990a4ef67ad5ce451b93360558", "is_disabled": 0, "rental_uris": {"android": "https://dc.lft.to/lastmile_qr_scan", "ios": "https://dc.lft.to/lastmile_qr_scan"}, "fusion_lon": 0.0, "lat": 38.923169333333334, "bike_id": "ca2088990a4ef67ad5ce451b93360558", "type": "electric_scooter", "is_reserved": 0, "lon": -77.02898483333334}, {"fusion_lat": 0.0, "name": "86f8662067e005fd1ccc88dc295b410f", "is_disabled": 0, "rental_uris": {"android": "https://dc.lft.to/lastmile_qr_scan", "ios": "https://dc.lft.to/lastmile_qr_scan"}, "fusion_lon": 0.0, "lat": 38.933127166666665, "bike_id": "86f8662067e005fd1ccc88dc295b410f", "type": "electric_scooter", "is_reserved": 0, "lon": -77.027548}, {"fusion_lat": 0.0, "name": "7b4b306bdf2bdf0b8d71aba07bf3ea71", "is_disabled": 0, "rental_uris": {"android": "https://dc.lft.to/lastmile_qr_scan", "ios": "https://dc.lft.to/lastmile_qr_scan"}, "fusion_lon": 0.0, "lat": 38.91659333333333, "bike_id": "7b4b306bdf2bdf0b8d71aba07bf3ea71", "type": "electric_scooter", "is_reserved": 0, "lon": -77.0282125}, {"fusion_lat": 0.0, "name": "a20397ac737506c335eded2c591ce51b", "is_disabled": 0, "rental_uris": {"android": "https://dc.lft.to/lastmile_qr_scan", "ios": "https://dc.lft.to/lastmile_qr_scan"}, "fusion_lon": 0.0, "lat": 38.886261833333336, "bike_id": "a20397ac737506c335eded2c591ce51b", "type": "electric_scooter", "is_reserved": 0, "lon": -77.01944433333334}, {"fusion_lat": 0.0, "name": "cd864f6f89e8576ac8566d037ee5b782", "is_disabled": 0, "rental_uris": {"android": "https://dc.lft.to/lastmile_qr_scan", "ios": "https://dc.lft.to/lastmile_qr_scan"}, "fusion_lon": 0.0, "lat": 38.919221, "bike_id": "cd864f6f89e8576ac8566d037ee5b782", "type": "electric_scooter", "is_reserved": 0, "lon": -77.00970166666667}, {"fusion_lat": 0.0, "name": "24ccb251a5cae6d656ac419c44fcd295", "is_disabled": 0, "rental_uris": {"android": "https://dc.lft.to/lastmile_qr_scan", "ios": "https://dc.lft.to/lastmile_qr_scan"}, "fusion_lon": 0.0, "lat": 38.89607616666667, "bike_id": "24ccb251a5cae6d656ac419c44fcd295", "type": "electric_scooter", "is_reserved": 0, "lon": -77.00923016666667}, {"fusion_lat": 0.0, "name": "ef074f8aeb5a16998d5691825dc168d6", "is_disabled": 0, "rental_uris": {"android": "https://dc.lft.to/lastmile_qr_scan", "ios": "https://dc.lft.to/lastmile_qr_scan"}, "fusion_lon": 0.0, "lat": 38.90195666666666, "bike_id": "ef074f8aeb5a16998d5691825dc168d6", "type": "electric_scooter", "is_reserved": 0, "lon": -76.97858383333333}, {"fusion_lat": 0.0, "name": "bacb1279c8e70e789b99365dfa4dee76", "is_disabled": 0, "rental_uris": {"android": "https://dc.lft.to/lastmile_qr_scan", "ios": "https://dc.lft.to/lastmile_qr_scan"}, "fusion_lon": 0.0, "lat": 38.903777166666664, "bike_id": "bacb1279c8e70e789b99365dfa4dee76", "type": "electric_scooter", "is_reserved": 0, "lon": -77.03983633333333}, {"fusion_lat": 0.0, "name": "c4442114c85097cc2c1bfd366c1990d3", "is_disabled": 0, "rental_uris": {"android": "https://dc.lft.to/lastmile_qr_scan", "ios": "https://dc.lft.to/lastmile_qr_scan"}, "fusion_lon": 0.0, "lat": 38.9223895, "bike_id": "c4442114c85097cc2c1bfd366c1990d3", "type": "electric_scooter", "is_reserved": 0, "lon": -77.035236}, {"fusion_lat": 0.0, "name": "ac97e239185df4c6c92e4ec293a75519", "is_disabled": 0, "rental_uris": {"android": "https://dc.lft.to/lastmile_qr_scan", "ios": "https://dc.lft.to/lastmile_qr_scan"}, "fusion_lon": 0.0, "lat": 38.90551, "bike_id": "ac97e239185df4c6c92e4ec293a75519", "type": "electric_scooter", "is_reserved": 0, "lon": -77.00586583333333}, {"fusion_lat": 0.0, "name": "a77802337267b5bfb3bcceca9a469b29", "is_disabled": 0, "rental_uris": {"android": "https://dc.lft.to/lastmile_qr_scan", "ios": "https://dc.lft.to/lastmile_qr_scan"}, "fusion_lon": 0.0, "lat": 38.912643333333335, "bike_id": "a77802337267b5bfb3bcceca9a469b29", "type": "electric_scooter", "is_reserved": 0, "lon": -77.03246533333333}, {"fusion_lat": 0.0, "name": "748ec67a43705abf538fde2ec55fefe9", "is_disabled": 0, "rental_uris": {"android": "https://dc.lft.to/lastmile_qr_scan", "ios": "https://dc.lft.to/lastmile_qr_scan"}, "fusion_lon": 0.0, "lat": 38.9134145, "bike_id": "748ec67a43705abf538fde2ec55fefe9", "type": "electric_bike", "is_reserved": 0, "lon": -76.9889545}, {"fusion_lat": 0.0, "name": "4f13ca27536f945542b508ed68fbaf68", "is_disabled": 0, "rental_uris": {"android": "https://dc.lft.to/lastmile_qr_scan", "ios": "https://dc.lft.to/lastmile_qr_scan"}, "fusion_lon": 0.0, "lat": 38.89839383333333, "bike_id": "4f13ca27536f945542b508ed68fbaf68", "type": "electric_scooter", "is_reserved": 0, "lon": -77.02392316666666}, {"fusion_lat": 0.0, "name": "71988d4c52506069fd0e16521563a031", "is_disabled": 0, "rental_uris": {"android": "https://dc.lft.to/lastmile_qr_scan", "ios": "https://dc.lft.to/lastmile_qr_scan"}, "fusion_lon": 0.0, "lat": 38.88811333333334, "bike_id": "71988d4c52506069fd0e16521563a031", "type": "electric_scooter", "is_reserved": 0, "lon": -76.98357733333333}, {"fusion_lat": 0.0, "name": "38628ef203264a7200bd7fc12516c314", "is_disabled": 0, "rental_uris": {"android": "https://dc.lft.to/lastmile_qr_scan", "ios": "https://dc.lft.to/lastmile_qr_scan"}, "fusion_lon": 0.0, "lat": 38.90217483333333, "bike_id": "38628ef203264a7200bd7fc12516c314", "type": "electric_scooter", "is_reserved": 0, "lon": -77.02279266666666}, {"fusion_lat": 0.0, "name": "f28ed3cfaed4db0657ba9757f7885bb7", "is_disabled": 0, "rental_uris": {"android": "https://dc.lft.to/lastmile_qr_scan", "ios": "https://dc.lft.to/lastmile_qr_scan"}, "fusion_lon": 0.0, "lat": 38.919790666666664, "bike_id": "f28ed3cfaed4db0657ba9757f7885bb7", "type": "electric_scooter", "is_reserved": 0, "lon": -77.02411333333333}, {"fusion_lat": 0.0, "name": "be7b75c80f7d195f61ad7f762a0d06a5", "is_disabled": 0, "rental_uris": {"android": "https://dc.lft.to/lastmile_qr_scan", "ios": "https://dc.lft.to/lastmile_qr_scan"}, "fusion_lon": 0.0, "lat": 38.941659666666666, "bike_id": "be7b75c80f7d195f61ad7f762a0d06a5", "type": "electric_scooter", "is_reserved": 0, "lon": -77.02511866666667}, {"fusion_lat": 0.0, "name": "e4a6ede57a1a95e35b8b24da970bab1e", "is_disabled": 0, "rental_uris": {"android": "https://dc.lft.to/lastmile_qr_scan", "ios": "https://dc.lft.to/lastmile_qr_scan"}, "fusion_lon": 0.0, "lat": 38.92680266666667, "bike_id": "e4a6ede57a1a95e35b8b24da970bab1e", "type": "electric_scooter", "is_reserved": 0, "lon": -77.031416}, {"fusion_lat": 0.0, "name": "85a10007062a727a9b2ca899380261e7", "is_disabled": 0, "rental_uris": {"android": "https://dc.lft.to/lastmile_qr_scan", "ios": "https://dc.lft.to/lastmile_qr_scan"}, "fusion_lon": 0.0, "lat": 38.91684216666667, "bike_id": "85a10007062a727a9b2ca899380261e7", "type": "electric_scooter", "is_reserved": 0, "lon": -77.02852866666667}, {"fusion_lat": 0.0, "name": "7d9c250ae4c8e22af68b5d38195e61d5", "is_disabled": 0, "rental_uris": {"android": "https://dc.lft.to/lastmile_qr_scan", "ios": "https://dc.lft.to/lastmile_qr_scan"}, "fusion_lon": 0.0, "lat": 38.8763525, "bike_id": "7d9c250ae4c8e22af68b5d38195e61d5", "type": "electric_scooter", "is_reserved": 0, "lon": -77.00950616666667}, {"fusion_lat": 0.0, "name": "4b94a212c66df20f76462a521d5d1349", "is_disabled": 0, "rental_uris": {"android": "https://dc.lft.to/lastmile_qr_scan", "ios": "https://dc.lft.to/lastmile_qr_scan"}, "fusion_lon": 0.0, "lat": 38.91805166666666, "bike_id": "4b94a212c66df20f76462a521d5d1349", "type": "electric_scooter", "is_reserved": 0, "lon": -77.03339966666667}, {"fusion_lat": 0.0, "name": "510ddb729b217f368d9c4c7b3ec398e0", "is_disabled": 0, "rental_uris": {"android": "https://dc.lft.to/lastmile_qr_scan", "ios": "https://dc.lft.to/lastmile_qr_scan"}, "fusion_lon": 0.0, "lat": 38.923646833333336, "bike_id": "510ddb729b217f368d9c4c7b3ec398e0", "type": "electric_scooter", "is_reserved": 0, "lon": -77.01952683333333}, {"fusion_lat": 0.0, "name": "c66154f0c8c86805d4b79de2acb25bc6", "is_disabled": 0, "rental_uris": {"android": "https://dc.lft.to/lastmile_qr_scan", "ios": "https://dc.lft.to/lastmile_qr_scan"}, "fusion_lon": 0.0, "lat": 38.8793245, "bike_id": "c66154f0c8c86805d4b79de2acb25bc6", "type": "electric_scooter", "is_reserved": 0, "lon": -77.023868}, {"fusion_lat": 0.0, "name": "78b1056b0efddfb12cb1dddae61a6556", "is_disabled": 0, "rental_uris": {"android": "https://dc.lft.to/lastmile_qr_scan", "ios": "https://dc.lft.to/lastmile_qr_scan"}, "fusion_lon": 0.0, "lat": 38.919065, "bike_id": "78b1056b0efddfb12cb1dddae61a6556", "type": "electric_scooter", "is_reserved": 0, "lon": -77.01221883333334}, {"fusion_lat": 0.0, "name": "a5e5b4e1726981374e3e40c7e94eb267", "is_disabled": 0, "rental_uris": {"android": "https://dc.lft.to/lastmile_qr_scan", "ios": "https://dc.lft.to/lastmile_qr_scan"}, "fusion_lon": 0.0, "lat": 38.9261585, "bike_id": "a5e5b4e1726981374e3e40c7e94eb267", "type": "electric_scooter", "is_reserved": 0, "lon": -77.02213}, {"fusion_lat": 0.0, "name": "63c2f9207c4bf492d853559f72dae47a", "is_disabled": 0, "rental_uris": {"android": "https://dc.lft.to/lastmile_qr_scan", "ios": "https://dc.lft.to/lastmile_qr_scan"}, "fusion_lon": 0.0, "lat": 38.94018166666667, "bike_id": "63c2f9207c4bf492d853559f72dae47a", "type": "electric_scooter", "is_reserved": 0, "lon": -77.02773416666666}, {"fusion_lat": 0.0, "name": "e734adfc931724bd752d10d57841b1e3", "is_disabled": 0, "rental_uris": {"android": "https://dc.lft.to/lastmile_qr_scan", "ios": "https://dc.lft.to/lastmile_qr_scan"}, "fusion_lon": 0.0, "lat": 38.8875665, "bike_id": "e734adfc931724bd752d10d57841b1e3", "type": "electric_scooter", "is_reserved": 0, "lon": -77.00171433333334}, {"fusion_lat": 0.0, "name": "8964f2a5fc61f0f73236739fdefadb48", "is_disabled": 0, "rental_uris": {"android": "https://dc.lft.to/lastmile_qr_scan", "ios": "https://dc.lft.to/lastmile_qr_scan"}, "fusion_lon": 0.0, "lat": 38.9193435, "bike_id": "8964f2a5fc61f0f73236739fdefadb48", "type": "electric_scooter", "is_reserved": 0, "lon": -77.0249085}, {"fusion_lat": 0.0, "name": "a45f8ce61d97a86bd90ebf31c74f5c06", "is_disabled": 0, "rental_uris": {"android": "https://dc.lft.to/lastmile_qr_scan", "ios": "https://dc.lft.to/lastmile_qr_scan"}, "fusion_lon": 0.0, "lat": 38.93711833333333, "bike_id": "a45f8ce61d97a86bd90ebf31c74f5c06", "type": "electric_scooter", "is_reserved": 0, "lon": -77.0242705}, {"fusion_lat": 0.0, "name": "ececc59eb5ae4184b327d22c4ab4017e", "is_disabled": 0, "rental_uris": {"android": "https://dc.lft.to/lastmile_qr_scan", "ios": "https://dc.lft.to/lastmile_qr_scan"}, "fusion_lon": 0.0, "lat": 38.906295666666665, "bike_id": "ececc59eb5ae4184b327d22c4ab4017e", "type": "electric_scooter", "is_reserved": 0, "lon": -77.03966016666666}, {"fusion_lat": 0.0, "name": "8a37ec09e9defacbca27db5b4722fa22", "is_disabled": 0, "rental_uris": {"android": "https://dc.lft.to/lastmile_qr_scan", "ios": "https://dc.lft.to/lastmile_qr_scan"}, "fusion_lon": 0.0, "lat": 38.889899166666666, "bike_id": "8a37ec09e9defacbca27db5b4722fa22", "type": "electric_scooter", "is_reserved": 0, "lon": -76.98414683333333}, {"fusion_lat": 0.0, "name": "9f5cda479545ea26be7fc11b54af244c", "is_disabled": 0, "rental_uris": {"android": "https://dc.lft.to/lastmile_qr_scan", "ios": "https://dc.lft.to/lastmile_qr_scan"}, "fusion_lon": 0.0, "lat": 38.927934, "bike_id": "9f5cda479545ea26be7fc11b54af244c", "type": "electric_scooter", "is_reserved": 0, "lon": -77.055312}, {"fusion_lat": 0.0, "name": "02621e076b5ae2fcbf62732bed14478e", "is_disabled": 0, "rental_uris": {"android": "https://dc.lft.to/lastmile_qr_scan", "ios": "https://dc.lft.to/lastmile_qr_scan"}, "fusion_lon": 0.0, "lat": 38.916908166666666, "bike_id": "02621e076b5ae2fcbf62732bed14478e", "type": "electric_scooter", "is_reserved": 0, "lon": -77.03768566666666}, {"fusion_lat": 0.0, "name": "abcd7d4252b8d1c5d16f3f0020b9a18c", "is_disabled": 0, "rental_uris": {"android": "https://dc.lft.to/lastmile_qr_scan", "ios": "https://dc.lft.to/lastmile_qr_scan"}, "fusion_lon": 0.0, "lat": 38.88796816666667, "bike_id": "abcd7d4252b8d1c5d16f3f0020b9a18c", "type": "electric_bike", "is_reserved": 0, "lon": -76.9300025}, {"fusion_lat": 0.0, "name": "be9c2d6df7e067e3523534d4dd46aa61", "is_disabled": 0, "rental_uris": {"android": "https://dc.lft.to/lastmile_qr_scan", "ios": "https://dc.lft.to/lastmile_qr_scan"}, "fusion_lon": 0.0, "lat": 38.85698433333334, "bike_id": "be9c2d6df7e067e3523534d4dd46aa61", "type": "electric_scooter", "is_reserved": 0, "lon": -76.99592733333333}, {"fusion_lat": 0.0, "name": "2d58548a0dcceaf3df478d752fd27af8", "is_disabled": 0, "rental_uris": {"android": "https://dc.lft.to/lastmile_qr_scan", "ios": "https://dc.lft.to/lastmile_qr_scan"}, "fusion_lon": 0.0, "lat": 38.89989683333334, "bike_id": "2d58548a0dcceaf3df478d752fd27af8", "type": "electric_scooter", "is_reserved": 0, "lon": -76.98440216666667}, {"fusion_lat": 0.0, "name": "884a50871375ba2185bad82c4f5364e8", "is_disabled": 0, "rental_uris": {"android": "https://dc.lft.to/lastmile_qr_scan", "ios": "https://dc.lft.to/lastmile_qr_scan"}, "fusion_lon": 0.0, "lat": 38.923436, "bike_id": "884a50871375ba2185bad82c4f5364e8", "type": "electric_scooter", "is_reserved": 0, "lon": -77.0354045}, {"fusion_lat": 0.0, "name": "c988c52603212a2fbdda78e203d9a8dc", "is_disabled": 0, "rental_uris": {"android": "https://dc.lft.to/lastmile_qr_scan", "ios": "https://dc.lft.to/lastmile_qr_scan"}, "fusion_lon": 0.0, "lat": 38.910418166666666, "bike_id": "c988c52603212a2fbdda78e203d9a8dc", "type": "electric_scooter", "is_reserved": 0, "lon": -77.03828116666666}, {"fusion_lat": 0.0, "name": "617ae6a9520ae7072a2126b0fbab44b6", "is_disabled": 0, "rental_uris": {"android": "https://dc.lft.to/lastmile_qr_scan", "ios": "https://dc.lft.to/lastmile_qr_scan"}, "fusion_lon": 0.0, "lat": 38.90527933333333, "bike_id": "617ae6a9520ae7072a2126b0fbab44b6", "type": "electric_scooter", "is_reserved": 0, "lon": -77.059306}, {"fusion_lat": 0.0, "name": "1ad9ebe5dedce13284b718b9d5a5cc62", "is_disabled": 0, "rental_uris": {"android": "https://dc.lft.to/lastmile_qr_scan", "ios": "https://dc.lft.to/lastmile_qr_scan"}, "fusion_lon": 0.0, "lat": 38.900280333333335, "bike_id": "1ad9ebe5dedce13284b718b9d5a5cc62", "type": "electric_scooter", "is_reserved": 0, "lon": -77.001909}, {"fusion_lat": 0.0, "name": "d19c0dc19b638ed153559f5fff72d6be", "is_disabled": 0, "rental_uris": {"android": "https://dc.lft.to/lastmile_qr_scan", "ios": "https://dc.lft.to/lastmile_qr_scan"}, "fusion_lon": 0.0, "lat": 38.92987183333334, "bike_id": "d19c0dc19b638ed153559f5fff72d6be", "type": "electric_scooter", "is_reserved": 0, "lon": -77.02526666666667}, {"fusion_lat": 0.0, "name": "a6e91824081d05fee78ceace105cda00", "is_disabled": 0, "rental_uris": {"android": "https://dc.lft.to/lastmile_qr_scan", "ios": "https://dc.lft.to/lastmile_qr_scan"}, "fusion_lon": 0.0, "lat": 38.91264233333333, "bike_id": "a6e91824081d05fee78ceace105cda00", "type": "electric_scooter", "is_reserved": 0, "lon": -77.04450616666666}, {"fusion_lat": 0.0, "name": "8719b5c53c96cc0ecdacd5b75e99aa3a", "is_disabled": 0, "rental_uris": {"android": "https://dc.lft.to/lastmile_qr_scan", "ios": "https://dc.lft.to/lastmile_qr_scan"}, "fusion_lon": 0.0, "lat": 38.92361566666666, "bike_id": "8719b5c53c96cc0ecdacd5b75e99aa3a", "type": "electric_scooter", "is_reserved": 0, "lon": -77.043242}, {"fusion_lat": 0.0, "name": "6eae0e875f2d90519684b2f140ffffd1", "is_disabled": 0, "rental_uris": {"android": "https://dc.lft.to/lastmile_qr_scan", "ios": "https://dc.lft.to/lastmile_qr_scan"}, "fusion_lon": 0.0, "lat": 38.91639266666667, "bike_id": "6eae0e875f2d90519684b2f140ffffd1", "type": "electric_scooter", "is_reserved": 0, "lon": -77.04796016666667}, {"fusion_lat": 0.0, "name": "e6c94e2ded9971ac4c75ab30c23aacd2", "is_disabled": 0, "rental_uris": {"android": "https://dc.lft.to/lastmile_qr_scan", "ios": "https://dc.lft.to/lastmile_qr_scan"}, "fusion_lon": 0.0, "lat": 39.03609633333333, "bike_id": "e6c94e2ded9971ac4c75ab30c23aacd2", "type": "electric_bike", "is_reserved": 0, "lon": -77.0554985}, {"fusion_lat": 0.0, "name": "21521cb572b71125a352157e7f04c3d4", "is_disabled": 0, "rental_uris": {"android": "https://dc.lft.to/lastmile_qr_scan", "ios": "https://dc.lft.to/lastmile_qr_scan"}, "fusion_lon": 0.0, "lat": 38.93513766666667, "bike_id": "21521cb572b71125a352157e7f04c3d4", "type": "electric_scooter", "is_reserved": 0, "lon": -77.03348183333334}, {"fusion_lat": 0.0, "name": "76523a93403d52eb1d79cfc45f90790c", "is_disabled": 0, "rental_uris": {"android": "https://dc.lft.to/lastmile_qr_scan", "ios": "https://dc.lft.to/lastmile_qr_scan"}, "fusion_lon": 0.0, "lat": 38.93195883333333, "bike_id": "76523a93403d52eb1d79cfc45f90790c", "type": "electric_bike", "is_reserved": 0, "lon": -77.229282}, {"fusion_lat": 0.0, "name": "847c8d0cb5480dd099f63bf3c1d73e09", "is_disabled": 0, "rental_uris": {"android": "https://dc.lft.to/lastmile_qr_scan", "ios": "https://dc.lft.to/lastmile_qr_scan"}, "fusion_lon": 0.0, "lat": 38.9247785, "bike_id": "847c8d0cb5480dd099f63bf3c1d73e09", "type": "electric_scooter", "is_reserved": 0, "lon": -77.026361}, {"fusion_lat": 0.0, "name": "9c2e1b67dd205cce125570add3569c41", "is_disabled": 0, "rental_uris": {"android": "https://dc.lft.to/lastmile_qr_scan", "ios": "https://dc.lft.to/lastmile_qr_scan"}, "fusion_lon": 0.0, "lat": 38.92867, "bike_id": "9c2e1b67dd205cce125570add3569c41", "type": "electric_scooter", "is_reserved": 0, "lon": -77.03368633333334}, {"fusion_lat": 0.0, "name": "e975f2232084fbcda774ab3bb3eaa785", "is_disabled": 0, "rental_uris": {"android": "https://dc.lft.to/lastmile_qr_scan", "ios": "https://dc.lft.to/lastmile_qr_scan"}, "fusion_lon": 0.0, "lat": 38.9141405, "bike_id": "e975f2232084fbcda774ab3bb3eaa785", "type": "electric_scooter", "is_reserved": 0, "lon": -77.039959}, {"fusion_lat": 0.0, "name": "12699cb929bf1d410c47617ab22f221a", "is_disabled": 0, "rental_uris": {"android": "https://dc.lft.to/lastmile_qr_scan", "ios": "https://dc.lft.to/lastmile_qr_scan"}, "fusion_lon": 0.0, "lat": 38.8787975, "bike_id": "12699cb929bf1d410c47617ab22f221a", "type": "electric_scooter", "is_reserved": 0, "lon": -77.0230585}, {"fusion_lat": 0.0, "name": "42d5b7da75b36d789a3e627062fddab7", "is_disabled": 0, "rental_uris": {"android": "https://dc.lft.to/lastmile_qr_scan", "ios": "https://dc.lft.to/lastmile_qr_scan"}, "fusion_lon": 0.0, "lat": 38.92243366666667, "bike_id": "42d5b7da75b36d789a3e627062fddab7", "type": "electric_scooter", "is_reserved": 0, "lon": -77.07477083333333}, {"fusion_lat": 0.0, "name": "f8bb1cc72a83ef9de22aa990f4e2cd17", "is_disabled": 0, "rental_uris": {"android": "https://dc.lft.to/lastmile_qr_scan", "ios": "https://dc.lft.to/lastmile_qr_scan"}, "fusion_lon": 0.0, "lat": 38.88505983333334, "bike_id": "f8bb1cc72a83ef9de22aa990f4e2cd17", "type": "electric_scooter", "is_reserved": 0, "lon": -77.00069066666667}, {"fusion_lat": 0.0, "name": "a00013d25479d338d5c015951c0aaea2", "is_disabled": 0, "rental_uris": {"android": "https://dc.lft.to/lastmile_qr_scan", "ios": "https://dc.lft.to/lastmile_qr_scan"}, "fusion_lon": 0.0, "lat": 38.89642966666667, "bike_id": "a00013d25479d338d5c015951c0aaea2", "type": "electric_scooter", "is_reserved": 0, "lon": -77.03221616666667}, {"fusion_lat": 0.0, "name": "10ccdf05af37cb7667ff5870d3b269db", "is_disabled": 0, "rental_uris": {"android": "https://dc.lft.to/lastmile_qr_scan", "ios": "https://dc.lft.to/lastmile_qr_scan"}, "fusion_lon": 0.0, "lat": 38.919995166666666, "bike_id": "10ccdf05af37cb7667ff5870d3b269db", "type": "electric_scooter", "is_reserved": 0, "lon": -77.02391083333333}, {"fusion_lat": 0.0, "name": "7d56e2d2ba901db92d8d3a5291ead54c", "is_disabled": 0, "rental_uris": {"android": "https://dc.lft.to/lastmile_qr_scan", "ios": "https://dc.lft.to/lastmile_qr_scan"}, "fusion_lon": 0.0, "lat": 38.917255833333336, "bike_id": "7d56e2d2ba901db92d8d3a5291ead54c", "type": "electric_scooter", "is_reserved": 0, "lon": -77.02396966666667}, {"fusion_lat": 0.0, "name": "181fc5d775fbd78af35cc6d7d82ac89f", "is_disabled": 0, "rental_uris": {"android": "https://dc.lft.to/lastmile_qr_scan", "ios": "https://dc.lft.to/lastmile_qr_scan"}, "fusion_lon": 0.0, "lat": 38.9171265, "bike_id": "181fc5d775fbd78af35cc6d7d82ac89f", "type": "electric_scooter", "is_reserved": 0, "lon": -77.02957666666667}, {"fusion_lat": 0.0, "name": "a5ca1dca71a986501b5a1739dd3e7f09", "is_disabled": 0, "rental_uris": {"android": "https://dc.lft.to/lastmile_qr_scan", "ios": "https://dc.lft.to/lastmile_qr_scan"}, "fusion_lon": 0.0, "lat": 38.91517366666667, "bike_id": "a5ca1dca71a986501b5a1739dd3e7f09", "type": "electric_scooter", "is_reserved": 0, "lon": -77.01329383333334}, {"fusion_lat": 0.0, "name": "000f8e02819c0f4e2a81775f1c264444", "is_disabled": 0, "rental_uris": {"android": "https://dc.lft.to/lastmile_qr_scan", "ios": "https://dc.lft.to/lastmile_qr_scan"}, "fusion_lon": 0.0, "lat": 38.930202333333334, "bike_id": "000f8e02819c0f4e2a81775f1c264444", "type": "electric_scooter", "is_reserved": 0, "lon": -77.0379085}, {"fusion_lat": 0.0, "name": "1af52c5f77a17fe4fffdf911b7d50dc0", "is_disabled": 0, "rental_uris": {"android": "https://dc.lft.to/lastmile_qr_scan", "ios": "https://dc.lft.to/lastmile_qr_scan"}, "fusion_lon": 0.0, "lat": 38.922294666666666, "bike_id": "1af52c5f77a17fe4fffdf911b7d50dc0", "type": "electric_scooter", "is_reserved": 0, "lon": -77.04647216666666}, {"fusion_lat": 0.0, "name": "4581ff6ed3dea6cd98db2f15ea1e1a43", "is_disabled": 0, "rental_uris": {"android": "https://dc.lft.to/lastmile_qr_scan", "ios": "https://dc.lft.to/lastmile_qr_scan"}, "fusion_lon": 0.0, "lat": 38.953101333333336, "bike_id": "4581ff6ed3dea6cd98db2f15ea1e1a43", "type": "electric_scooter", "is_reserved": 0, "lon": -77.0225}, {"fusion_lat": 0.0, "name": "4e92ffed402ceeaffd282e653dabdc6c", "is_disabled": 0, "rental_uris": {"android": "https://dc.lft.to/lastmile_qr_scan", "ios": "https://dc.lft.to/lastmile_qr_scan"}, "fusion_lon": 0.0, "lat": 38.9054645, "bike_id": "4e92ffed402ceeaffd282e653dabdc6c", "type": "electric_scooter", "is_reserved": 0, "lon": -77.0466085}, {"fusion_lat": 0.0, "name": "d696db1dfdf72fb112d0c542c90273e5", "is_disabled": 0, "rental_uris": {"android": "https://dc.lft.to/lastmile_qr_scan", "ios": "https://dc.lft.to/lastmile_qr_scan"}, "fusion_lon": 0.0, "lat": 38.85520066666667, "bike_id": "d696db1dfdf72fb112d0c542c90273e5", "type": "electric_bike", "is_reserved": 0, "lon": -77.120189}, {"fusion_lat": 0.0, "name": "8dc7c5bf6fc542052e3ba5734fe9bd37", "is_disabled": 0, "rental_uris": {"android": "https://dc.lft.to/lastmile_qr_scan", "ios": "https://dc.lft.to/lastmile_qr_scan"}, "fusion_lon": 0.0, "lat": 38.992272666666665, "bike_id": "8dc7c5bf6fc542052e3ba5734fe9bd37", "type": "electric_bike", "is_reserved": 0, "lon": -76.94431933333334}, {"fusion_lat": 0.0, "name": "6ffbb59976bb01f1f0ee433f89deaa7f", "is_disabled": 0, "rental_uris": {"android": "https://dc.lft.to/lastmile_qr_scan", "ios": "https://dc.lft.to/lastmile_qr_scan"}, "fusion_lon": 0.0, "lat": 38.900146166666666, "bike_id": "6ffbb59976bb01f1f0ee433f89deaa7f", "type": "electric_scooter", "is_reserved": 0, "lon": -77.01245966666667}, {"fusion_lat": 0.0, "name": "b8cd25099af12a01333593d4d300eb1a", "is_disabled": 0, "rental_uris": {"android": "https://dc.lft.to/lastmile_qr_scan", "ios": "https://dc.lft.to/lastmile_qr_scan"}, "fusion_lon": 0.0, "lat": 38.92451716666667, "bike_id": "b8cd25099af12a01333593d4d300eb1a", "type": "electric_scooter", "is_reserved": 0, "lon": -77.04023433333333}, {"fusion_lat": 0.0, "name": "05392ac0185dee1f6e0a2de01aae9b81", "is_disabled": 0, "rental_uris": {"android": "https://dc.lft.to/lastmile_qr_scan", "ios": "https://dc.lft.to/lastmile_qr_scan"}, "fusion_lon": 0.0, "lat": 38.9050445, "bike_id": "05392ac0185dee1f6e0a2de01aae9b81", "type": "electric_scooter", "is_reserved": 0, "lon": -77.06510733333333}, {"fusion_lat": 0.0, "name": "39fa4836f67c6e8f114349af8ff77e42", "is_disabled": 0, "rental_uris": {"android": "https://dc.lft.to/lastmile_qr_scan", "ios": "https://dc.lft.to/lastmile_qr_scan"}, "fusion_lon": 0.0, "lat": 38.89325733333333, "bike_id": "39fa4836f67c6e8f114349af8ff77e42", "type": "electric_scooter", "is_reserved": 0, "lon": -77.02248466666667}, {"fusion_lat": 0.0, "name": "44a35a3ffe4a5fa35bb4b0bb8100f693", "is_disabled": 0, "rental_uris": {"android": "https://dc.lft.to/lastmile_qr_scan", "ios": "https://dc.lft.to/lastmile_qr_scan"}, "fusion_lon": 0.0, "lat": 38.897385166666666, "bike_id": "44a35a3ffe4a5fa35bb4b0bb8100f693", "type": "electric_scooter", "is_reserved": 0, "lon": -77.00332716666666}, {"fusion_lat": 0.0, "name": "e3f88e842b15e083ebf1b5c9cf44721f", "is_disabled": 0, "rental_uris": {"android": "https://dc.lft.to/lastmile_qr_scan", "ios": "https://dc.lft.to/lastmile_qr_scan"}, "fusion_lon": 0.0, "lat": 38.92076983333333, "bike_id": "e3f88e842b15e083ebf1b5c9cf44721f", "type": "electric_bike", "is_reserved": 0, "lon": -76.989459}, {"fusion_lat": 0.0, "name": "99402890adb51841ee70aa0823c34091", "is_disabled": 0, "rental_uris": {"android": "https://dc.lft.to/lastmile_qr_scan", "ios": "https://dc.lft.to/lastmile_qr_scan"}, "fusion_lon": 0.0, "lat": 38.885192833333335, "bike_id": "99402890adb51841ee70aa0823c34091", "type": "electric_scooter", "is_reserved": 0, "lon": -77.01526566666666}, {"fusion_lat": 0.0, "name": "f5eba3cc596051781e329efdc73389a1", "is_disabled": 0, "rental_uris": {"android": "https://dc.lft.to/lastmile_qr_scan", "ios": "https://dc.lft.to/lastmile_qr_scan"}, "fusion_lon": 0.0, "lat": 38.928229, "bike_id": "f5eba3cc596051781e329efdc73389a1", "type": "electric_scooter", "is_reserved": 0, "lon": -77.02260866666667}, {"fusion_lat": 0.0, "name": "e811578c5139fb46cd3ff8589055cce7", "is_disabled": 0, "rental_uris": {"android": "https://dc.lft.to/lastmile_qr_scan", "ios": "https://dc.lft.to/lastmile_qr_scan"}, "fusion_lon": 0.0, "lat": 38.8872685, "bike_id": "e811578c5139fb46cd3ff8589055cce7", "type": "electric_scooter", "is_reserved": 0, "lon": -76.98354666666667}, {"fusion_lat": 0.0, "name": "d8bd7e49fa66f0611022a363d73e27b3", "is_disabled": 0, "rental_uris": {"android": "https://dc.lft.to/lastmile_qr_scan", "ios": "https://dc.lft.to/lastmile_qr_scan"}, "fusion_lon": 0.0, "lat": 38.902665999999996, "bike_id": "d8bd7e49fa66f0611022a363d73e27b3", "type": "electric_scooter", "is_reserved": 0, "lon": -77.0173605}, {"fusion_lat": 0.0, "name": "427890f2c00b319cc53bd1f08746e92a", "is_disabled": 0, "rental_uris": {"android": "https://dc.lft.to/lastmile_qr_scan", "ios": "https://dc.lft.to/lastmile_qr_scan"}, "fusion_lon": 0.0, "lat": 38.9365105, "bike_id": "427890f2c00b319cc53bd1f08746e92a", "type": "electric_scooter", "is_reserved": 0, "lon": -77.03050533333334}, {"fusion_lat": 0.0, "name": "a193a0513980621be33db2c49a896339", "is_disabled": 0, "rental_uris": {"android": "https://dc.lft.to/lastmile_qr_scan", "ios": "https://dc.lft.to/lastmile_qr_scan"}, "fusion_lon": 0.0, "lat": 38.906993166666666, "bike_id": "a193a0513980621be33db2c49a896339", "type": "electric_scooter", "is_reserved": 0, "lon": -76.99978483333334}, {"fusion_lat": 0.0, "name": "71babb6fc58306e5362d3c613ac5fe63", "is_disabled": 0, "rental_uris": {"android": "https://dc.lft.to/lastmile_qr_scan", "ios": "https://dc.lft.to/lastmile_qr_scan"}, "fusion_lon": 0.0, "lat": 38.94230016666667, "bike_id": "71babb6fc58306e5362d3c613ac5fe63", "type": "electric_scooter", "is_reserved": 0, "lon": -77.01387483333333}, {"fusion_lat": 0.0, "name": "96259a8a33bf6b92388f700c5919bae7", "is_disabled": 0, "rental_uris": {"android": "https://dc.lft.to/lastmile_qr_scan", "ios": "https://dc.lft.to/lastmile_qr_scan"}, "fusion_lon": 0.0, "lat": 38.90773766666667, "bike_id": "96259a8a33bf6b92388f700c5919bae7", "type": "electric_scooter", "is_reserved": 0, "lon": -77.0386065}, {"fusion_lat": 0.0, "name": "fd4d44d38e2be5dddd152e4541706c1c", "is_disabled": 0, "rental_uris": {"android": "https://dc.lft.to/lastmile_qr_scan", "ios": "https://dc.lft.to/lastmile_qr_scan"}, "fusion_lon": 0.0, "lat": 38.93393616666667, "bike_id": "fd4d44d38e2be5dddd152e4541706c1c", "type": "electric_scooter", "is_reserved": 0, "lon": -77.05771666666666}, {"fusion_lat": 0.0, "name": "3b2343623230f94565620da13d2943e4", "is_disabled": 0, "rental_uris": {"android": "https://dc.lft.to/lastmile_qr_scan", "ios": "https://dc.lft.to/lastmile_qr_scan"}, "fusion_lon": 0.0, "lat": 38.874704, "bike_id": "3b2343623230f94565620da13d2943e4", "type": "electric_scooter", "is_reserved": 0, "lon": -77.0170175}, {"fusion_lat": 0.0, "name": "27f1ea790d2f91dc23dc4d58a70fdea3", "is_disabled": 0, "rental_uris": {"android": "https://dc.lft.to/lastmile_qr_scan", "ios": "https://dc.lft.to/lastmile_qr_scan"}, "fusion_lon": 0.0, "lat": 38.91798383333333, "bike_id": "27f1ea790d2f91dc23dc4d58a70fdea3", "type": "electric_scooter", "is_reserved": 0, "lon": -77.03209733333334}, {"fusion_lat": 0.0, "name": "d8f40462ed40d94a077553474bbf2888", "is_disabled": 0, "rental_uris": {"android": "https://dc.lft.to/lastmile_qr_scan", "ios": "https://dc.lft.to/lastmile_qr_scan"}, "fusion_lon": 0.0, "lat": 38.914343333333335, "bike_id": "d8f40462ed40d94a077553474bbf2888", "type": "electric_scooter", "is_reserved": 0, "lon": -77.02212633333333}, {"fusion_lat": 0.0, "name": "92b16126ee8a77eaa2fb328c0cbbf965", "is_disabled": 0, "rental_uris": {"android": "https://dc.lft.to/lastmile_qr_scan", "ios": "https://dc.lft.to/lastmile_qr_scan"}, "fusion_lon": 0.0, "lat": 38.90553766666667, "bike_id": "92b16126ee8a77eaa2fb328c0cbbf965", "type": "electric_scooter", "is_reserved": 0, "lon": -77.0346735}, {"fusion_lat": 0.0, "name": "436485753394b5d25666bb5cfbbce2eb", "is_disabled": 0, "rental_uris": {"android": "https://dc.lft.to/lastmile_qr_scan", "ios": "https://dc.lft.to/lastmile_qr_scan"}, "fusion_lon": 0.0, "lat": 38.9056335, "bike_id": "436485753394b5d25666bb5cfbbce2eb", "type": "electric_scooter", "is_reserved": 0, "lon": -77.02959166666666}, {"fusion_lat": 0.0, "name": "bbb02f1289af7990193df03c8e7c3c72", "is_disabled": 0, "rental_uris": {"android": "https://dc.lft.to/lastmile_qr_scan", "ios": "https://dc.lft.to/lastmile_qr_scan"}, "fusion_lon": 0.0, "lat": 38.9066775, "bike_id": "bbb02f1289af7990193df03c8e7c3c72", "type": "electric_scooter", "is_reserved": 0, "lon": -77.075072},