{"data": {"bikes": [{"bike_id": "74ce40ab37e630eba4ece45d31e7aae8", "lat": 38.93473516666667, "is_reserved": 0, "fusion_lat": 0.0, "rental_uris": {"android": "https://dc.lft.to/lastmile_qr_scan", "ios": "https://dc.lft.to/lastmile_qr_scan"}, "fusion_lon": 0.0, "name": "74ce40ab37e630eba4ece45d31e7aae8", "lon": -77.022286, "is_disabled": 0, "type": "electric_scooter"}, {"bike_id": "8d63d4539083b86d185c6ca053e12b59", "lat": 38.93225433333333, "is_reserved": 0, "fusion_lat": 0.0, "rental_uris": {"android": "https://dc.lft.to/lastmile_qr_scan", "ios": "https://dc.lft.to/lastmile_qr_scan"}, "fusion_lon": 0.0, "name": "8d63d4539083b86d185c6ca053e12b59", "lon": -77.03860816666666, "is_disabled": 0, "type": "electric_scooter"}, {"bike_id": "15c76cec738db26a88943012eb534713", "lat": 38.90802733333334, "is_reserved": 0, "fusion_lat": 0.0, "rental_uris": {"android": "https://dc.lft.to/lastmile_qr_scan", "ios": "https://dc.lft.to/lastmile_qr_scan"}, "fusion_lon": 0.0, "name": "15c76cec738db26a88943012eb534713", "lon": -77.03057133333333, "is_disabled": 0, "type": "electric_scooter"}, {"bike_id": "5862e83041f34b7ec29ac8f0eb8058e5", "lat": 38.9221645, "is_reserved": 0, "fusion_lat": 0.0, "rental_uris": {"android": "https://dc.lft.to/lastmile_qr_scan", "ios": "https://dc.lft.to/lastmile_qr_scan"}, "fusion_lon": 0.0, "name": "5862e83041f34b7ec29ac8f0eb8058e5", "lon": -77.201396, "is_disabled": 0, "type": "electric_bike"}, {"bike_id": "0e1d2668a3e55f265082d18a2e9c7b5a", "lat": 38.8986665, "is_reserved": 0, "fusion_lat": 0.0, "rental_uris": {"android": "https://dc.lft.to/lastmile_qr_scan", "ios": "https://dc.lft.to/lastmile_qr_scan"}, "fusion_lon": 0.0, "name": "0e1d2668a3e55f265082d18a2e9c7b5a", "lon": -76.94641116666666, "is_disabled": 0, "type": "electric_scooter"}, {"bike_id": "77bdbc30eb53401b2770c82ee738d236", "lat": 38.87062916666667, "is_reserved": 0, "fusion_lat": 0.0, "rental_uris": {"android": "https://dc.lft.to/lastmile_qr_scan", "ios": "https://dc.lft.to/lastmile_qr_scan"}, "fusion_lon": 0.0, "name": "77bdbc30eb53401b2770c82ee738d236", "lon": -76.97100083333333, "is_disabled": 0, "type": "electric_scooter"}, {"bike_id": "b69c60c89eb918f383429beca5c853ad", "lat": 38.8614585, "is_reserved": 0, "fusion_lat": 0.0, "rental_uris": {"android": "https://dc.lft.to/lastmile_qr_scan", "ios": "https://dc.lft.to/lastmile_qr_scan"}, "fusion_lon": 0.0, "name": "b69c60c89eb918f383429beca5c853ad", "lon": -77.09145216666667, "is_disabled": 0, "type": "electric_bike"}, {"bike_id": "d19c0b5621bf27aefd2f4f3b93473f15", "lat": 38.88840033333334, "is_reserved": 0, "fusion_lat": 0.0, "rental_uris": {"android": "https://dc.lft.to/lastmile_qr_scan", "ios": "https://dc.lft.to/lastmile_qr_scan"}, "fusion_lon": 0.0, "name": "d19c0b5621bf27aefd2f4f3b93473f15", "lon": -77.049029, "is_disabled": 0, "type": "electric_scooter"}, {"bike_id": "54302d939db7d2faafde58c7505eadbe", "lat": 38.93389, "is_reserved": 0, "fusion_lat": 0.0, "rental_uris": {"android": "https://dc.lft.to/lastmile_qr_scan", "ios": "https://dc.lft.to/lastmile_qr_scan"}, "fusion_lon": 0.0, "name": "54302d939db7d2faafde58c7505eadbe", "lon": -77.05741633333334, "is_disabled": 0, "type": "electric_scooter"}, {"bike_id": "5db6c931a4b1e2156198d3a90e6c4c77", "lat": 38.907282333333335, "is_reserved": 0, "fusion_lat": 0.0, "rental_uris": {"android": "https://dc.lft.to/lastmile_qr_scan", "ios": "https://dc.lft.to/lastmile_qr_scan"}, "fusion_lon": 0.0, "name": "5db6c931a4b1e2156198d3a90e6c4c77", "lon": -77.02378283333333, "is_disabled": 0, "type": "electric_scooter"}, {"bike_id": "e27c4d5e2e45c0f7ac478dae6991796a", "lat": 38.922776166666665, "is_reserved": 0, "fusion_lat": 0.0, "rental_uris": {"android": "https://dc.lft.to/lastmile_qr_scan", "ios": "https://dc.lft.to/lastmile_qr_scan"}, "fusion_lon": 0.0, "name": "e27c4d5e2e45c0f7ac478dae6991796a", "lon": -77.03653116666666, "is_disabled": 0, "type": "electric_scooter"}, {"bike_id": "65f02d54340b573448a7676f5b83bf57", "lat": 38.9028895, "is_reserved": 0, "fusion_lat": 0.0, "rental_uris": {"android": "https://dc.lft.to/lastmile_qr_scan", "ios": "https://dc.lft.to/lastmile_qr_scan"}, "fusion_lon": 0.0, "name": "65f02d54340b573448a7676f5b83bf57", "lon": -77.05805066666667, "is_disabled": 0, "type": "electric_scooter"}, {"bike_id": "7013980e8a9cd6807346f0eb6623002c", "lat": 38.89327816666667, "is_reserved": 0, "fusion_lat": 0.0, "rental_uris": {"android": "https://dc.lft.to/lastmile_qr_scan", "ios": "https://dc.lft.to/lastmile_qr_scan"}, "fusion_lon": 0.0, "name": "7013980e8a9cd6807346f0eb6623002c", "lon": -77.04674333333334, "is_disabled": 0, "type": "electric_scooter"}, {"bike_id": "9d45c47792dd1f91d0cf53be6673654e", "lat": 38.9110995, "is_reserved": 0, "fusion_lat": 0.0, "rental_uris": {"android": "https://dc.lft.to/lastmile_qr_scan", "ios": "https://dc.lft.to/lastmile_qr_scan"}, "fusion_lon": 0.0, "name": "9d45c47792dd1f91d0cf53be6673654e", "lon": -77.04364733333334, "is_disabled": 0, "type": "electric_scooter"}, {"bike_id": "e481ce2530ed2973010337bbb46fb5f9", "lat": 38.94290983333333, "is_reserved": 0, "fusion_lat": 0.0, "rental_uris": {"android": "https://dc.lft.to/lastmile_qr_scan", "ios": "https://dc.lft.to/lastmile_qr_scan"}, "fusion_lon": 0.0, "name": "e481ce2530ed2973010337bbb46fb5f9", "lon": -77.02175583333333, "is_disabled": 0, "type": "electric_scooter"}, {"bike_id": "6995f5e991dc903884c35e706e87e2b6", "lat": 38.906463333333335, "is_reserved": 0, "fusion_lat": 0.0, "rental_uris": {"android": "https://dc.lft.to/lastmile_qr_scan", "ios": "https://dc.lft.to/lastmile_qr_scan"}, "fusion_lon": 0.0, "name": "6995f5e991dc903884c35e706e87e2b6", "lon": -77.034629, "is_disabled": 0, "type": "electric_scooter"}, {"bike_id": "6da6c5c7ce675b3871653c3c6e51ea45", "lat": 38.915484666666664, "is_reserved": 0, "fusion_lat": 0.0, "rental_uris": {"android": "https://dc.lft.to/lastmile_qr_scan", "ios": "https://dc.lft.to/lastmile_qr_scan"}, "fusion_lon": 0.0, "name": "6da6c5c7ce675b3871653c3c6e51ea45", "lon": -77.0445445, "is_disabled": 0, "type": "electric_scooter"}, {"bike_id": "ce4c820ef36f3fea0933b46efadd6325", "lat": 38.919004, "is_reserved": 0, "fusion_lat": 0.0, "rental_uris": {"android": "https://dc.lft.to/lastmile_qr_scan", "ios": "https://dc.lft.to/lastmile_qr_scan"}, "fusion_lon": 0.0, "name": "ce4c820ef36f3fea0933b46efadd6325", "lon": -77.01685433333333, "is_disabled": 0, "type": "electric_scooter"}, {"bike_id": "302866959d51ebbf88a5f39b1abea322", "lat": 38.92144183333333, "is_reserved": 0, "fusion_lat": 0.0, "rental_uris": {"android": "https://dc.lft.to/lastmile_qr_scan", "ios": "https://dc.lft.to/lastmile_qr_scan"}, "fusion_lon": 0.0, "name": "302866959d51ebbf88a5f39b1abea322", "lon": -77.03513016666666, "is_disabled": 0, "type": "electric_scooter"}, {"bike_id": "418f871a9bbd59c016bfab4058db8cb4", "lat": 38.873760833333336, "is_reserved": 0, "fusion_lat": 0.0, "rental_uris": {"android": "https://dc.lft.to/lastmile_qr_scan", "ios": "https://dc.lft.to/lastmile_qr_scan"}, "fusion_lon": 0.0, "name": "418f871a9bbd59c016bfab4058db8cb4", "lon": -77.00114266666667, "is_disabled": 0, "type": "electric_scooter"}, {"bike_id": "3d19cbaa2d72603ba426a1d0133bfc14", "lat": 38.934253166666664, "is_reserved": 0, "fusion_lat": 0.0, "rental_uris": {"android": "https://dc.lft.to/lastmile_qr_scan", "ios": "https://dc.lft.to/lastmile_qr_scan"}, "fusion_lon": 0.0, "name": "3d19cbaa2d72603ba426a1d0133bfc14", "lon": -77.0400195, "is_disabled": 0, "type": "electric_scooter"}, {"bike_id": "5d7ee53abe3f40fbba4bb13cf5df2f0e", "lat": 38.90722866666667, "is_reserved": 0, "fusion_lat": 0.0, "rental_uris": {"android": "https://dc.lft.to/lastmile_qr_scan", "ios": "https://dc.lft.to/lastmile_qr_scan"}, "fusion_lon": 0.0, "name": "5d7ee53abe3f40fbba4bb13cf5df2f0e", "lon": -77.03201216666666, "is_disabled": 0, "type": "electric_scooter"}, {"bike_id": "b5de97201b455246105018de35863e54", "lat": 38.901116, "is_reserved": 0, "fusion_lat": 0.0, "rental_uris": {"android": "https://dc.lft.to/lastmile_qr_scan", "ios": "https://dc.lft.to/lastmile_qr_scan"}, "fusion_lon": 0.0, "name": "b5de97201b455246105018de35863e54", "lon": -77.044808, "is_disabled": 0, "type": "electric_scooter"}, {"bike_id": "beb855abe179a29d96ee34198970bfee", "lat": 38.892916166666666, "is_reserved": 0, "fusion_lat": 0.0, "rental_uris": {"android": "https://dc.lft.to/lastmile_qr_scan", "ios": "https://dc.lft.to/lastmile_qr_scan"}, "fusion_lon": 0.0, "name": "beb855abe179a29d96ee34198970bfee", "lon": -77.04481766666666, "is_disabled": 0, "type": "electric_scooter"}, {"bike_id": "cf206b0dd42504a6d60ed6300079dab7", "lat": 38.897409333333336, "is_reserved": 0, "fusion_lat": 0.0, "rental_uris": {"android": "https://dc.lft.to/lastmile_qr_scan", "ios": "https://dc.lft.to/lastmile_qr_scan"}, "fusion_lon": 0.0, "name": "cf206b0dd42504a6d60ed6300079dab7", "lon": -77.02461683333334, "is_disabled": 0, "type": "electric_scooter"}, {"bike_id": "8d32f0c15cef8a49f96f9d061fb53104", "lat": 38.9236435, "is_reserved": 0, "fusion_lat": 0.0, "rental_uris": {"android": "https://dc.lft.to/lastmile_qr_scan", "ios": "https://dc.lft.to/lastmile_qr_scan"}, "fusion_lon": 0.0, "name": "8d32f0c15cef8a49f96f9d061fb53104", "lon": -77.043309, "is_disabled": 0, "type": "electric_scooter"}, {"bike_id": "4cb69fbaec011809bfd50e9a6f4f6c88", "lat": 38.907629166666666, "is_reserved": 0, "fusion_lat": 0.0, "rental_uris": {"android": "https://dc.lft.to/lastmile_qr_scan", "ios": "https://dc.lft.to/lastmile_qr_scan"}, "fusion_lon": 0.0, "name": "4cb69fbaec011809bfd50e9a6f4f6c88", "lon": -77.0170025, "is_disabled": 0, "type": "electric_scooter"}, {"bike_id": "387c1473a7a6e228a4d40bd457a50dda", "lat": 38.932131, "is_reserved": 0, "fusion_lat": 0.0, "rental_uris": {"android": "https://dc.lft.to/lastmile_qr_scan", "ios": "https://dc.lft.to/lastmile_qr_scan"}, "fusion_lon": 0.0, "name": "387c1473a7a6e228a4d40bd457a50dda", "lon": -77.0326645, "is_disabled": 0, "type": "electric_scooter"}, {"bike_id": "20acb008cb231320a3638e885c7d0bbc", "lat": 38.87483833333334, "is_reserved": 0, "fusion_lat": 0.0, "rental_uris": {"android": "https://dc.lft.to/lastmile_qr_scan", "ios": "https://dc.lft.to/lastmile_qr_scan"}, "fusion_lon": 0.0, "name": "20acb008cb231320a3638e885c7d0bbc", "lon": -76.96530183333333, "is_disabled": 0, "type": "electric_bike"}, {"bike_id": "4546ec088ce013c0221cb089838aed8f", "lat": 38.89529683333333, "is_reserved": 0, "fusion_lat": 0.0, "rental_uris": {"android": "https://dc.lft.to/lastmile_qr_scan", "ios": "https://dc.lft.to/lastmile_qr_scan"}, "fusion_lon": 0.0, "name": "4546ec088ce013c0221cb089838aed8f", "lon": -77.03353416666667, "is_disabled": 0, "type": "electric_scooter"}, {"bike_id": "f7230b136e4879c84f72f7ae40555e4d", "lat": 38.89863833333333, "is_reserved": 0, "fusion_lat": 0.0, "rental_uris": {"android": "https://dc.lft.to/lastmile_qr_scan", "ios": "https://dc.lft.to/lastmile_qr_scan"}, "fusion_lon": 0.0, "name": "f7230b136e4879c84f72f7ae40555e4d", "lon": -76.94640583333333, "is_disabled": 0, "type": "electric_scooter"}, {"bike_id": "6e49b8cbf04816b17b17e61c66e59ffb", "lat": 38.952836166666664, "is_reserved": 0, "fusion_lat": 0.0, "rental_uris": {"android": "https://dc.lft.to/lastmile_qr_scan", "ios": "https://dc.lft.to/lastmile_qr_scan"}, "fusion_lon": 0.0, "name": "6e49b8cbf04816b17b17e61c66e59ffb", "lon": -77.01798083333334, "is_disabled": 0, "type": "electric_scooter"}, {"bike_id": "4596e86a501c8fed5cf639be691d4a8b", "lat": 38.91914, "is_reserved": 0, "fusion_lat": 0.0, "rental_uris": {"android": "https://dc.lft.to/lastmile_qr_scan", "ios": "https://dc.lft.to/lastmile_qr_scan"}, "fusion_lon": 0.0, "name": "4596e86a501c8fed5cf639be691d4a8b", "lon": -77.033389, "is_disabled": 0, "type": "electric_scooter"}, {"bike_id": "0d265e5df3e3195fcd2b58a8ae8300ac", "lat": 38.89476166666667, "is_reserved": 0, "fusion_lat": 0.0, "rental_uris": {"android": "https://dc.lft.to/lastmile_qr_scan", "ios": "https://dc.lft.to/lastmile_qr_scan"}, "fusion_lon": 0.0, "name": "0d265e5df3e3195fcd2b58a8ae8300ac", "lon": -76.9486195, "is_disabled": 0, "type": "electric_scooter"}, {"bike_id": "4144a3dd6ad886d55fbe0da35c63e0dc", "lat": 38.915663333333335, "is_reserved": 0, "fusion_lat": 0.0, "rental_uris": {"android": "https://dc.lft.to/lastmile_qr_scan", "ios": "https://dc.lft.to/lastmile_qr_scan"}, "fusion_lon": 0.0, "name": "4144a3dd6ad886d55fbe0da35c63e0dc", "lon": -77.020076, "is_disabled": 0, "type": "electric_scooter"}, {"bike_id": "059fb085da4100614fc99cc85c04384e", "lat": 38.89552166666667, "is_reserved": 0, "fusion_lat": 0.0, "rental_uris": {"android": "https://dc.lft.to/lastmile_qr_scan", "ios": "https://dc.lft.to/lastmile_qr_scan"}, "fusion_lon": 0.0, "name": "059fb085da4100614fc99cc85c04384e", "lon": -77.01108616666667, "is_disabled": 0, "type": "electric_scooter"}, {"bike_id": "dcce6c7bca2da86916a7556d5ca00702", "lat": 38.88746416666667, "is_reserved": 0, "fusion_lat": 0.0, "rental_uris": {"android": "https://dc.lft.to/lastmile_qr_scan", "ios": "https://dc.lft.to/lastmile_qr_scan"}, "fusion_lon": 0.0, "name": "dcce6c7bca2da86916a7556d5ca00702", "lon": -77.01724283333333, "is_disabled": 0, "type": "electric_scooter"}, {"bike_id": "f7ced5f2396a55670d2600afdc40eb1d", "lat": 38.916133, "is_reserved": 0, "fusion_lat": 0.0, "rental_uris": {"android": "https://dc.lft.to/lastmile_qr_scan", "ios": "https://dc.lft.to/lastmile_qr_scan"}, "fusion_lon": 0.0, "name": "f7ced5f2396a55670d2600afdc40eb1d", "lon": -77.02314133333333, "is_disabled": 0, "type": "electric_scooter"}, {"bike_id": "4f3302bdaf3c00538b886977909aa480", "lat": 38.901104833333335, "is_reserved": 0, "fusion_lat": 0.0, "rental_uris": {"android": "https://dc.lft.to/lastmile_qr_scan", "ios": "https://dc.lft.to/lastmile_qr_scan"}, "fusion_lon": 0.0, "name": "4f3302bdaf3c00538b886977909aa480", "lon": -77.04232566666667, "is_disabled": 0, "type": "electric_scooter"}, {"bike_id": "122d263b85a3fd26acf921345cd1f7a3", "lat": 38.906222666666665, "is_reserved": 0, "fusion_lat": 0.0, "rental_uris": {"android": "https://dc.lft.to/lastmile_qr_scan", "ios": "https://dc.lft.to/lastmile_qr_scan"}, "fusion_lon": 0.0, "name": "122d263b85a3fd26acf921345cd1f7a3", "lon": -77.04882866666667, "is_disabled": 0, "type": "electric_scooter"}, {"bike_id": "4f698f71339b94b6efe1c34658374fb9", "lat": 38.90425366666667, "is_reserved": 0, "fusion_lat": 0.0, "rental_uris": {"android": "https://dc.lft.to/lastmile_qr_scan", "ios": "https://dc.lft.to/lastmile_qr_scan"}, "fusion_lon": 0.0, "name": "4f698f71339b94b6efe1c34658374fb9", "lon": -76.97904333333334, "is_disabled": 0, "type": "electric_scooter"}, {"bike_id": "6febbfd4639ab1a2eeaec18cc6d8758b", "lat": 38.928708, "is_reserved": 0, "fusion_lat": 0.0, "rental_uris": {"android": "https://dc.lft.to/lastmile_qr_scan", "ios": "https://dc.lft.to/lastmile_qr_scan"}, "fusion_lon": 0.0, "name": "6febbfd4639ab1a2eeaec18cc6d8758b", "lon": -77.03346383333333, "is_disabled": 0, "type": "electric_scooter"}, {"bike_id": "f5c7251e4c859c56add8a650c5eb6c86", "lat": 38.89943616666667, "is_reserved": 0, "fusion_lat": 0.0, "rental_uris": {"android": "https://dc.lft.to/lastmile_qr_scan", "ios": "https://dc.lft.to/lastmile_qr_scan"}, "fusion_lon": 0.0, "name": "f5c7251e4c859c56add8a650c5eb6c86", "lon": -77.0718295, "is_disabled": 0, "type": "electric_scooter"}, {"bike_id": "225778598e6abb7fecd2e8906cb988ec", "lat": 38.95789516666667, "is_reserved": 0, "fusion_lat": 0.0, "rental_uris": {"android": "https://dc.lft.to/lastmile_qr_scan", "ios": "https://dc.lft.to/lastmile_qr_scan"}, "fusion_lon": 0.0, "name": "225778598e6abb7fecd2e8906cb988ec", "lon": -77.0322745, "is_disabled": 0, "type": "electric_scooter"}, {"bike_id": "e4883a8a18cf543968a51038f8ffc54b", "lat": 38.917435833333336, "is_reserved": 0, "fusion_lat": 0.0, "rental_uris": {"android": "https://dc.lft.to/lastmile_qr_scan", "ios": "https://dc.lft.to/lastmile_qr_scan"}, "fusion_lon": 0.0, "name": "e4883a8a18cf543968a51038f8ffc54b", "lon": -77.0318455, "is_disabled": 0, "type": "electric_scooter"}, {"bike_id": "0e0fcdc4f74bcab752e27d8809cd1061", "lat": 38.8843805, "is_reserved": 0, "fusion_lat": 0.0, "rental_uris": {"android": "https://dc.lft.to/lastmile_qr_scan", "ios": "https://dc.lft.to/lastmile_qr_scan"}, "fusion_lon": 0.0, "name": "0e0fcdc4f74bcab752e27d8809cd1061", "lon": -77.024678, "is_disabled": 0, "type": "electric_scooter"}, {"bike_id": "fc6cc6d5e833866ae50f52540c9d1631", "lat": 38.91682216666667, "is_reserved": 0, "fusion_lat": 0.0, "rental_uris": {"android": "https://dc.lft.to/lastmile_qr_scan", "ios": "https://dc.lft.to/lastmile_qr_scan"}, "fusion_lon": 0.0, "name": "fc6cc6d5e833866ae50f52540c9d1631", "lon": -77.02959783333333, "is_disabled": 0, "type": "electric_scooter"}, {"bike_id": "75eb88ffc9408ce1b5acb167e86af065", "lat": 38.897571666666664, "is_reserved": 0, "fusion_lat": 0.0, "rental_uris": {"android": "https://dc.lft.to/lastmile_qr_scan", "ios": "https://dc.lft.to/lastmile_qr_scan"}, "fusion_lon": 0.0, "name": "75eb88ffc9408ce1b5acb167e86af065", "lon": -77.02469533333333, "is_disabled": 0, "type": "electric_scooter"}, {"bike_id": "ec5bcb45f90e21e68ecd71dd76c18966", "lat": 38.872461333333334, "is_reserved": 0, "fusion_lat": 0.0, "rental_uris": {"android": "https://dc.lft.to/lastmile_qr_scan", "ios": "https://dc.lft.to/lastmile_qr_scan"}, "fusion_lon": 0.0, "name": "ec5bcb45f90e21e68ecd71dd76c18966", "lon": -76.9773045, "is_disabled": 0, "type": "electric_scooter"}, {"bike_id": "387673dbe2b40e3403dc14fa818f7778", "lat": 38.9095385, "is_reserved": 0, "fusion_lat": 0.0, "rental_uris": {"android": "https://dc.lft.to/lastmile_qr_scan", "ios": "https://dc.lft.to/lastmile_qr_scan"}, "fusion_lon": 0.0, "name": "387673dbe2b40e3403dc14fa818f7778", "lon": -77.02414416666667, "is_disabled": 0, "type": "electric_scooter"}, {"bike_id": "e3cd1cf7c61637f5fa2a291b013b67f2", "lat": 38.9111325, "is_reserved": 0, "fusion_lat": 0.0, "rental_uris": {"android": "https://dc.lft.to/lastmile_qr_scan", "ios": "https://dc.lft.to/lastmile_qr_scan"}, "fusion_lon": 0.0, "name": "e3cd1cf7c61637f5fa2a291b013b67f2", "lon": -77.04505683333333, "is_disabled": 0, "type": "electric_scooter"}, {"bike_id": "5597df762c126319f8b59730fba45fa6", "lat": 38.9739875, "is_reserved": 0, "fusion_lat": 0.0, "rental_uris": {"android": "https://dc.lft.to/lastmile_qr_scan", "ios": "https://dc.lft.to/lastmile_qr_scan"}, "fusion_lon": 0.0, "name": "5597df762c126319f8b59730fba45fa6", "lon": -77.06455383333333, "is_disabled": 0, "type": "electric_bike"}, {"bike_id": "36b71d01f7c5c987c7cf1e361b87aaef", "lat": 38.9329435, "is_reserved": 0, "fusion_lat": 0.0, "rental_uris": {"android": "https://dc.lft.to/lastmile_qr_scan", "ios": "https://dc.lft.to/lastmile_qr_scan"}, "fusion_lon": 0.0, "name": "36b71d01f7c5c987c7cf1e361b87aaef", "lon": -77.0854545, "is_disabled": 0, "type": "electric_scooter"}, {"bike_id": "8c75d9d5426c805233e9a209ebca0b9e", "lat": 38.885326, "is_reserved": 0, "fusion_lat": 0.0, "rental_uris": {"android": "https://dc.lft.to/lastmile_qr_scan", "ios": "https://dc.lft.to/lastmile_qr_scan"}, "fusion_lon": 0.0, "name": "8c75d9d5426c805233e9a209ebca0b9e", "lon": -76.998251, "is_disabled": 0, "type": "electric_scooter"}, {"bike_id": "94ae1ab5e588269ea399004e09ae16a4", "lat": 38.91554166666667, "is_reserved": 0, "fusion_lat": 0.0, "rental_uris": {"android": "https://dc.lft.to/lastmile_qr_scan", "ios": "https://dc.lft.to/lastmile_qr_scan"}, "fusion_lon": 0.0, "name": "94ae1ab5e588269ea399004e09ae16a4", "lon": -77.00646216666667, "is_disabled": 0, "type": "electric_scooter"}, {"bike_id": "af74617dec48b1b4a22e823cda849601", "lat": 38.90113433333333, "is_reserved": 0, "fusion_lat": 0.0, "rental_uris": {"android": "https://dc.lft.to/lastmile_qr_scan", "ios": "https://dc.lft.to/lastmile_qr_scan"}, "fusion_lon": 0.0, "name": "af74617dec48b1b4a22e823cda849601", "lon": -77.02796483333333, "is_disabled": 0, "type": "electric_scooter"}, {"bike_id": "73ff1fb073ba367abebc02c0ab8d1c9c", "lat": 38.911787333333336, "is_reserved": 0, "fusion_lat": 0.0, "rental_uris": {"android": "https://dc.lft.to/lastmile_qr_scan", "ios": "https://dc.lft.to/lastmile_qr_scan"}, "fusion_lon": 0.0, "name": "73ff1fb073ba367abebc02c0ab8d1c9c", "lon": -77.0120785, "is_disabled": 0, "type": "electric_scooter"}, {"bike_id": "5329f30e93f1a151977f2e1218b9919a", "lat": 38.89729466666667, "is_reserved": 0, "fusion_lat": 0.0, "rental_uris": {"android": "https://dc.lft.to/lastmile_qr_scan", "ios": "https://dc.lft.to/lastmile_qr_scan"}, "fusion_lon": 0.0, "name": "5329f30e93f1a151977f2e1218b9919a", "lon": -77.02885733333333, "is_disabled": 0, "type": "electric_scooter"}, {"bike_id": "eb6411bcfe311d0a21b79bb148082b74", "lat": 38.87334833333333, "is_reserved": 0, "fusion_lat": 0.0, "rental_uris": {"android": "https://dc.lft.to/lastmile_qr_scan", "ios": "https://dc.lft.to/lastmile_qr_scan"}, "fusion_lon": 0.0, "name": "eb6411bcfe311d0a21b79bb148082b74", "lon": -77.00070483333333, "is_disabled": 0, "type": "electric_scooter"}, {"bike_id": "888e25666ccce9cdf62e8f55fab06f5e", "lat": 38.92607566666667, "is_reserved": 0, "fusion_lat": 0.0, "rental_uris": {"android": "https://dc.lft.to/lastmile_qr_scan", "ios": "https://dc.lft.to/lastmile_qr_scan"}, "fusion_lon": 0.0, "name": "888e25666ccce9cdf62e8f55fab06f5e", "lon": -77.024193, "is_disabled": 0, "type": "electric_scooter"}, {"bike_id": "ae24ede6dcc59763699cf8487682cb1c", "lat": 38.937318, "is_reserved": 0, "fusion_lat": 0.0, "rental_uris": {"android": "https://dc.lft.to/lastmile_qr_scan", "ios": "https://dc.lft.to/lastmile_qr_scan"}, "fusion_lon": 0.0, "name": "ae24ede6dcc59763699cf8487682cb1c", "lon": -77.03264283333333, "is_disabled": 0, "type": "electric_scooter"}, {"bike_id": "39760cf29e3291485c96d60bfcaf7e7b", "lat": 38.924429333333336, "is_reserved": 0, "fusion_lat": 0.0, "rental_uris": {"android": "https://dc.lft.to/lastmile_qr_scan", "ios": "https://dc.lft.to/lastmile_qr_scan"}, "fusion_lon": 0.0, "name": "39760cf29e3291485c96d60bfcaf7e7b", "lon": -77.05200766666667, "is_disabled": 0, "type": "electric_scooter"}, {"bike_id": "bddef3ac628ba4009ef93bb96e8eba9b", "lat": 38.934565, "is_reserved": 0, "fusion_lat": 0.0, "rental_uris": {"android": "https://dc.lft.to/lastmile_qr_scan", "ios": "https://dc.lft.to/lastmile_qr_scan"}, "fusion_lon": 0.0, "name": "bddef3ac628ba4009ef93bb96e8eba9b", "lon": -77.02776933333334, "is_disabled": 0, "type": "electric_scooter"}, {"bike_id": "7ed263dfe7c57764ddeebcba0a1234d6", "lat": 38.91408666666667, "is_reserved": 0, "fusion_lat": 0.0, "rental_uris": {"android": "https://dc.lft.to/lastmile_qr_scan", "ios": "https://dc.lft.to/lastmile_qr_scan"}, "fusion_lon": 0.0, "name": "7ed263dfe7c57764ddeebcba0a1234d6", "lon": -77.013186, "is_disabled": 0, "type": "electric_scooter"}, {"bike_id": "476b5561d111ed8451be3debe978c484", "lat": 38.8674785, "is_reserved": 0, "fusion_lat": 0.0, "rental_uris": {"android": "https://dc.lft.to/lastmile_qr_scan", "ios": "https://dc.lft.to/lastmile_qr_scan"}, "fusion_lon": 0.0, "name": "476b5561d111ed8451be3debe978c484", "lon": -76.97859, "is_disabled": 0, "type": "electric_scooter"}, {"bike_id": "26313f407ac9a28edcbbd44def327c5d", "lat": 38.914213, "is_reserved": 0, "fusion_lat": 0.0, "rental_uris": {"android": "https://dc.lft.to/lastmile_qr_scan", "ios": "https://dc.lft.to/lastmile_qr_scan"}, "fusion_lon": 0.0, "name": "26313f407ac9a28edcbbd44def327c5d", "lon": -77.01803116666666, "is_disabled": 0, "type": "electric_scooter"}, {"bike_id": "bb3485f59c37ea29fc60e382729024c8", "lat": 38.9155315, "is_reserved": 0, "fusion_lat": 0.0, "rental_uris": {"android": "https://dc.lft.to/lastmile_qr_scan", "ios": "https://dc.lft.to/lastmile_qr_scan"}, "fusion_lon": 0.0, "name": "bb3485f59c37ea29fc60e382729024c8", "lon": -77.02210266666667, "is_disabled": 0, "type": "electric_scooter"}, {"bike_id": "355f686ad569da22d50534919315694a", "lat": 38.925951166666664, "is_reserved": 0, "fusion_lat": 0.0, "rental_uris": {"android": "https://dc.lft.to/lastmile_qr_scan", "ios": "https://dc.lft.to/lastmile_qr_scan"}, "fusion_lon": 0.0, "name": "355f686ad569da22d50534919315694a", "lon": -77.02388983333333, "is_disabled": 0, "type": "electric_scooter"}, {"bike_id": "d4683b827c733bd4cc9e311d7bc66427", "lat": 38.9223415, "is_reserved": 0, "fusion_lat": 0.0, "rental_uris": {"android": "https://dc.lft.to/lastmile_qr_scan", "ios": "https://dc.lft.to/lastmile_qr_scan"}, "fusion_lon": 0.0, "name": "d4683b827c733bd4cc9e311d7bc66427", "lon": -77.0352325, "is_disabled": 0, "type": "electric_scooter"}, {"bike_id": "6cdaeb570802cebf1b24846713b930ad", "lat": 38.873717666666664, "is_reserved": 0, "fusion_lat": 0.0, "rental_uris": {"android": "https://dc.lft.to/lastmile_qr_scan", "ios": "https://dc.lft.to/lastmile_qr_scan"}, "fusion_lon": 0.0, "name": "6cdaeb570802cebf1b24846713b930ad", "lon": -77.00125083333333, "is_disabled": 0, "type": "electric_scooter"}, {"bike_id": "d1e59dfce8d87b9c347227aad6b624d9", "lat": 38.923134833333336, "is_reserved": 0, "fusion_lat": 0.0, "rental_uris": {"android": "https://dc.lft.to/lastmile_qr_scan", "ios": "https://dc.lft.to/lastmile_qr_scan"}, "fusion_lon": 0.0, "name": "d1e59dfce8d87b9c347227aad6b624d9", "lon": -77.038129, "is_disabled": 0, "type": "electric_scooter"}, {"bike_id": "d58a8e739940862dc0cfefa1140b0476", "lat": 38.924008, "is_reserved": 0, "fusion_lat": 0.0, "rental_uris": {"android": "https://dc.lft.to/lastmile_qr_scan", "ios": "https://dc.lft.to/lastmile_qr_scan"}, "fusion_lon": 0.0, "name": "d58a8e739940862dc0cfefa1140b0476", "lon": -77.012235, "is_disabled": 0, "type": "electric_scooter"}, {"bike_id": "8f5398d3486ba9914fbf301ea9c58c06", "lat": 39.0510445, "is_reserved": 0, "fusion_lat": 0.0, "rental_uris": {"android": "https://dc.lft.to/lastmile_qr_scan", "ios": "https://dc.lft.to/lastmile_qr_scan"}, "fusion_lon": 0.0, "name": "8f5398d3486ba9914fbf301ea9c58c06", "lon": -77.11743683333333, "is_disabled": 0, "type": "electric_bike"}, {"bike_id": "e8ecb0c4aa6ead65d176269e4f6b1a75", "lat": 38.895072666666664, "is_reserved": 0, "fusion_lat": 0.0, "rental_uris": {"android": "https://dc.lft.to/lastmile_qr_scan", "ios": "https://dc.lft.to/lastmile_qr_scan"}, "fusion_lon": 0.0, "name": "e8ecb0c4aa6ead65d176269e4f6b1a75", "lon": -77.04336666666667, "is_disabled": 0, "type": "electric_scooter"}, {"bike_id": "32e36d4675743334c230a5eee557acd4", "lat": 38.956368166666664, "is_reserved": 0, "fusion_lat": 0.0, "rental_uris": {"android": "https://dc.lft.to/lastmile_qr_scan", "ios": "https://dc.lft.to/lastmile_qr_scan"}, "fusion_lon": 0.0, "name": "32e36d4675743334c230a5eee557acd4", "lon": -77.03629416666666, "is_disabled": 0, "type": "electric_scooter"}, {"bike_id": "68920961e0c8476d3dd511a02f294dea", "lat": 38.88399233333333, "is_reserved": 0, "fusion_lat": 0.0, "rental_uris": {"android": "https://dc.lft.to/lastmile_qr_scan", "ios": "https://dc.lft.to/lastmile_qr_scan"}, "fusion_lon": 0.0, "name": "68920961e0c8476d3dd511a02f294dea", "lon": -76.960593, "is_disabled": 0, "type": "electric_bike"}, {"bike_id": "83dc13aa2f54d4657f086bb16421f8a2", "lat": 38.90837483333333, "is_reserved": 0, "fusion_lat": 0.0, "rental_uris": {"android": "https://dc.lft.to/lastmile_qr_scan", "ios": "https://dc.lft.to/lastmile_qr_scan"}, "fusion_lon": 0.0, "name": "83dc13aa2f54d4657f086bb16421f8a2", "lon": -77.0010015, "is_disabled": 0, "type": "electric_scooter"}, {"bike_id": "eadde403406e45e35bace80bfbc6a314", "lat": 38.90789816666667, "is_reserved": 0, "fusion_lat": 0.0, "rental_uris": {"android": "https://dc.lft.to/lastmile_qr_scan", "ios": "https://dc.lft.to/lastmile_qr_scan"}, "fusion_lon": 0.0, "name": "eadde403406e45e35bace80bfbc6a314", "lon": -77.026929, "is_disabled": 0, "type": "electric_scooter"}, {"bike_id": "4499a475d15f4e059efb9fe1b9a5cf40", "lat": 38.9371255, "is_reserved": 0, "fusion_lat": 0.0, "rental_uris": {"android": "https://dc.lft.to/lastmile_qr_scan", "ios": "https://dc.lft.to/lastmile_qr_scan"}, "fusion_lon": 0.0, "name": "4499a475d15f4e059efb9fe1b9a5cf40", "lon": -77.03634466666666, "is_disabled": 0, "type": "electric_scooter"}, {"bike_id": "3eea62f044037f43e6c404abbfd1848a", "lat": 38.9156405, "is_reserved": 0, "fusion_lat": 0.0, "rental_uris": {"android": "https://dc.lft.to/lastmile_qr_scan", "ios": "https://dc.lft.to/lastmile_qr_scan"}, "fusion_lon": 0.0, "name": "3eea62f044037f43e6c404abbfd1848a", "lon": -77.03047166666667, "is_disabled": 0, "type": "electric_scooter"}, {"bike_id": "bc0411560d9b506747007391af89e855", "lat": 38.90978283333333, "is_reserved": 0, "fusion_lat": 0.0, "rental_uris": {"android": "https://dc.lft.to/lastmile_qr_scan", "ios": "https://dc.lft.to/lastmile_qr_scan"}, "fusion_lon": 0.0, "name": "bc0411560d9b506747007391af89e855", "lon": -77.03441316666667, "is_disabled": 0, "type": "electric_scooter"}, {"bike_id": "d824339821465aa9b6872f82b5fae4f8", "lat": 38.89241833333333, "is_reserved": 0, "fusion_lat": 0.0, "rental_uris": {"android": "https://dc.lft.to/lastmile_qr_scan", "ios": "https://dc.lft.to/lastmile_qr_scan"}, "fusion_lon": 0.0, "name": "d824339821465aa9b6872f82b5fae4f8", "lon": -77.03348833333334, "is_disabled": 0, "type": "electric_scooter"}, {"bike_id": "ef04b49763642afd90a6abd51bfa5a34", "lat": 38.8854235, "is_reserved": 0, "fusion_lat": 0.0, "rental_uris": {"android": "https://dc.lft.to/lastmile_qr_scan", "ios": "https://dc.lft.to/lastmile_qr_scan"}, "fusion_lon": 0.0, "name": "ef04b49763642afd90a6abd51bfa5a34", "lon": -77.00580566666666, "is_disabled": 0, "type": "electric_scooter"}, {"bike_id": "b86762f66f6a1714b4d0a5ebad3809cc", "lat": 38.93398783333333, "is_reserved": 0, "fusion_lat": 0.0, "rental_uris": {"android": "https://dc.lft.to/lastmile_qr_scan", "ios": "https://dc.lft.to/lastmile_qr_scan"}, "fusion_lon": 0.0, "name": "b86762f66f6a1714b4d0a5ebad3809cc", "lon": -77.02210233333334, "is_disabled": 0, "type": "electric_scooter"}, {"bike_id": "97232411cba3e10f8aa26d2c70072a24", "lat": 38.992185166666665, "is_reserved": 0, "fusion_lat": 0.0, "rental_uris": {"android": "https://dc.lft.to/lastmile_qr_scan", "ios": "https://dc.lft.to/lastmile_qr_scan"}, "fusion_lon": 0.0, "name": "97232411cba3e10f8aa26d2c70072a24", "lon": -76.94438166666667, "is_disabled": 0, "type": "electric_bike"}, {"bike_id": "e6eab4fdcbbb2d8172af4163f2ee22cd", "lat": 38.90526766666667, "is_reserved": 0, "fusion_lat": 0.0, "rental_uris": {"android": "https://dc.lft.to/lastmile_qr_scan", "ios": "https://dc.lft.to/lastmile_qr_scan"}, "fusion_lon": 0.0, "name": "e6eab4fdcbbb2d8172af4163f2ee22cd", "lon": -77.06606016666667, "is_disabled": 0, "type": "electric_scooter"}, {"bike_id": "3505194c1a9d7234ca0287c36a4ab6cb", "lat": 38.92776083333333, "is_reserved": 0, "fusion_lat": 0.0, "rental_uris": {"android": "https://dc.lft.to/lastmile_qr_scan", "ios": "https://dc.lft.to/lastmile_qr_scan"}, "fusion_lon": 0.0, "name": "3505194c1a9d7234ca0287c36a4ab6cb", "lon": -77.02735766666666, "is_disabled": 0, "type": "electric_scooter"}, {"bike_id": "9bd486ec537328c29b2010e12b734d10", "lat": 38.906924333333336, "is_reserved": 0, "fusion_lat": 0.0, "rental_uris": {"android": "https://dc.lft.to/lastmile_qr_scan", "ios": "https://dc.lft.to/lastmile_qr_scan"}, "fusion_lon": 0.0, "name": "9bd486ec537328c29b2010e12b734d10", "lon": -77.02603583333334, "is_disabled": 0, "type": "electric_scooter"}, {"bike_id": "6a517e064d64e425e0086feafe720795", "lat": 38.85478916666667, "is_reserved": 0, "fusion_lat": 0.0, "rental_uris": {"android": "https://dc.lft.to/lastmile_qr_scan", "ios": "https://dc.lft.to/lastmile_qr_scan"}, "fusion_lon": 0.0, "name": "6a517e064d64e425e0086feafe720795", "lon": -77.11606116666667, "is_disabled": 0, "type": "electric_bike"}, {"bike_id": "76357baaf22dc866dca4a9c518739309", "lat": 38.905606666666664, "is_reserved": 0, "fusion_lat": 0.0, "rental_uris": {"android": "https://dc.lft.to/lastmile_qr_scan", "ios": "https://dc.lft.to/lastmile_qr_scan"}, "fusion_lon": 0.0, "name": "76357baaf22dc866dca4a9c518739309", "lon": -77.016826, "is_disabled": 0, "type": "electric_scooter"}, {"bike_id": "f845c89f6bec001001ef89c1e1414fd8", "lat": 38.8556265, "is_reserved": 0, "fusion_lat": 0.0, "rental_uris": {"android": "https://dc.lft.to/lastmile_qr_scan", "ios": "https://dc.lft.to/lastmile_qr_scan"}, "fusion_lon": 0.0, "name": "f845c89f6bec001001ef89c1e1414fd8", "lon": -77.11318983333334, "is_disabled": 0, "type": "electric_bike"}, {"bike_id": "988f8d37bc18a2dfe697021e9db65b9e", "lat": 38.915727333333336, "is_reserved": 0, "fusion_lat": 0.0, "rental_uris": {"android": "https://dc.lft.to/lastmile_qr_scan", "ios": "https://dc.lft.to/lastmile_qr_scan"}, "fusion_lon": 0.0, "name": "988f8d37bc18a2dfe697021e9db65b9e", "lon": -77.03834583333334, "is_disabled": 0, "type": "electric_scooter"}, {"bike_id": "32e71eac4b4ff37115ccbb8946f71226", "lat": 38.90752666666667, "is_reserved": 0, "fusion_lat": 0.0, "rental_uris": {"android": "https://dc.lft.to/lastmile_qr_scan", "ios": "https://dc.lft.to/lastmile_qr_scan"}, "fusion_lon": 0.0, "name": "32e71eac4b4ff37115ccbb8946f71226", "lon": -77.04158733333334, "is_disabled": 0, "type": "electric_scooter"}, {"bike_id": "bd3b1940aec3840cc0f230854047630c", "lat": 38.91404133333333, "is_reserved": 0, "fusion_lat": 0.0, "rental_uris": {"android": "https://dc.lft.to/lastmile_qr_scan", "ios": "https://dc.lft.to/lastmile_qr_scan"}, "fusion_lon": 0.0, "name": "bd3b1940aec3840cc0f230854047630c", "lon": -77.0200955, "is_disabled": 0, "type": "electric_scooter"}, {"bike_id": "d34a7bfd4c8f77b7a84ac65b94a1fa56", "lat": 38.88975933333333, "is_reserved": 0, "fusion_lat": 0.0, "rental_uris": {"android": "https://dc.lft.to/lastmile_qr_scan", "ios": "https://dc.lft.to/lastmile_qr_scan"}, "fusion_lon": 0.0, "name": "d34a7bfd4c8f77b7a84ac65b94a1fa56", "lon": -76.9993825, "is_disabled": 0, "type": "electric_scooter"}, {"bike_id": "3aa6d55f84d3262a91d1c67b34020e20", "lat": 38.9296035, "is_reserved": 0, "fusion_lat": 0.0, "rental_uris": {"android": "https://dc.lft.to/lastmile_qr_scan", "ios": "https://dc.lft.to/lastmile_qr_scan"}, "fusion_lon": 0.0, "name": "3aa6d55f84d3262a91d1c67b34020e20", "lon": -77.011491, "is_disabled": 0, "type": "electric_scooter"}, {"bike_id": "41e78076322f6e35b550b75bb32da8aa", "lat": 38.905709333333334, "is_reserved": 0, "fusion_lat": 0.0, "rental_uris": {"android": "https://dc.lft.to/lastmile_qr_scan", "ios": "https://dc.lft.to/lastmile_qr_scan"}, "fusion_lon": 0.0, "name": "41e78076322f6e35b550b75bb32da8aa", "lon": -77.02531566666667, "is_disabled": 0, "type": "electric_scooter"}, {"bike_id": "7d8498a41b46776f55a5d61070e33fa6", "lat": 38.84147983333333, "is_reserved": 0, "fusion_lat": 0.0, "rental_uris": {"android": "https://dc.lft.to/lastmile_qr_scan", "ios": "https://dc.lft.to/lastmile_qr_scan"}, "fusion_lon": 0.0, "name": "7d8498a41b46776f55a5d61070e33fa6", "lon": -77.114702, "is_disabled": 0, "type": "electric_bike"}, {"bike_id": "674c92ba0def26837c224637014408f1", "lat": 38.860251, "is_reserved": 0, "fusion_lat": 0.0, "rental_uris": {"android": "https://dc.lft.to/lastmile_qr_scan", "ios": "https://dc.lft.to/lastmile_qr_scan"}, "fusion_lon": 0.0, "name": "674c92ba0def26837c224637014408f1", "lon": -76.996862, "is_disabled": 0, "type": "electric_scooter"}, {"bike_id": "7b332e4971773630e94c38c1e985d9bf", "lat": 38.876533, "is_reserved": 0, "fusion_lat": 0.0, "rental_uris": {"android": "https://dc.lft.to/lastmile_qr_scan", "ios": "https://dc.lft.to/lastmile_qr_scan"}, "fusion_lon": 0.0, "name": "7b332e4971773630e94c38c1e985d9bf", "lon": -77.00442633333333, "is_disabled": 0, "type": "electric_scooter"}, {"bike_id": "6f56836f50789acf672f7ee76f99217a", "lat": 38.9111895, "is_reserved": 0, "fusion_lat": 0.0, "rental_uris": {"android": "https://dc.lft.to/lastmile_qr_scan", "ios": "https://dc.lft.to/lastmile_qr_scan"}, "fusion_lon": 0.0, "name": "6f56836f50789acf672f7ee76f99217a", "lon": -77.04319766666667, "is_disabled": 0, "type": "electric_scooter"}, {"bike_id": "7cd0a9df527b9e21b4b15cab797d7bea", "lat": 38.920692833333334, "is_reserved": 0, "fusion_lat": 0.0, "rental_uris": {"android": "https://dc.lft.to/lastmile_qr_scan", "ios": "https://dc.lft.to/lastmile_qr_scan"}, "fusion_lon": 0.0, "name": "7cd0a9df527b9e21b4b15cab797d7bea", "lon": -77.04250566666667, "is_disabled": 0, "type": "electric_scooter"}, {"bike_id": "454d0ecd6de3e40d2bdbe68de17bf7a5", "lat": 38.89623066666667, "is_reserved": 0, "fusion_lat": 0.0, "rental_uris": {"android": "https://dc.lft.to/lastmile_qr_scan", "ios": "https://dc.lft.to/lastmile_qr_scan"}, "fusion_lon": 0.0, "name": "454d0ecd6de3e40d2bdbe68de17bf7a5", "lon": -77.0225165, "is_disabled": 0, "type": "electric_scooter"}, {"bike_id": "082a74f64184c015c58fb2c142dd5a24", "lat": 38.904206333333335, "is_reserved": 0, "fusion_lat": 0.0, "rental_uris": {"android": "https://dc.lft.to/lastmile_qr_scan", "ios": "https://dc.lft.to/lastmile_qr_scan"}, "fusion_lon": 0.0, "name": "082a74f64184c015c58fb2c142dd5a24", "lon": -77.0435055, "is_disabled": 0, "type": "electric_scooter"}, {"bike_id": "75092e9bbe551a859d0b75b62d2038e0", "lat": 38.87735033333333, "is_reserved": 0, "fusion_lat": 0.0, "rental_uris": {"android": "https://dc.lft.to/lastmile_qr_scan", "ios": "https://dc.lft.to/lastmile_qr_scan"}, "fusion_lon": 0.0, "name": "75092e9bbe551a859d0b75b62d2038e0", "lon": -77.02149216666666, "is_disabled": 0, "type": "electric_scooter"}, {"bike_id": "7530e9b12296cd96d0d78542745b8223", "lat": 38.88853433333333, "is_reserved": 0, "fusion_lat": 0.0, "rental_uris": {"android": "https://dc.lft.to/lastmile_qr_scan", "ios": "https://dc.lft.to/lastmile_qr_scan"}, "fusion_lon": 0.0, "name": "7530e9b12296cd96d0d78542745b8223", "lon": -77.00055116666667, "is_disabled": 0, "type": "electric_scooter"}, {"bike_id": "2d0d09ebf5877bbf2a7540373ef4ddf2", "lat": 38.950742, "is_reserved": 0, "fusion_lat": 0.0, "rental_uris": {"android": "https://dc.lft.to/lastmile_qr_scan", "ios": "https://dc.lft.to/lastmile_qr_scan"}, "fusion_lon": 0.0, "name": "2d0d09ebf5877bbf2a7540373ef4ddf2", "lon": -77.0298865, "is_disabled": 0, "type": "electric_scooter"}, {"bike_id": "7ee119b96883acd79d3629e403c0737b", "lat": 38.911708, "is_reserved": 0, "fusion_lat": 0.0, "rental_uris": {"android": "https://dc.lft.to/lastmile_qr_scan", "ios": "https://dc.lft.to/lastmile_qr_scan"}, "fusion_lon": 0.0, "name": "7ee119b96883acd79d3629e403c0737b", "lon": -77.031868, "is_disabled": 0, "type": "electric_scooter"}, {"bike_id": "259233832fa78fffbb5a7f84741cfa06", "lat": 38.91667916666667, "is_reserved": 0, "fusion_lat": 0.0, "rental_uris": {"android": "https://dc.lft.to/lastmile_qr_scan", "ios": "https://dc.lft.to/lastmile_qr_scan"}, "fusion_lon": 0.0, "name": "259233832fa78fffbb5a7f84741cfa06", "lon": -77.02333933333334, "is_disabled": 0, "type": "electric_scooter"}, {"bike_id": "6618045489326597bc92938c90e8223d", "lat": 38.9072755, "is_reserved": 0, "fusion_lat": 0.0, "rental_uris": {"android": "https://dc.lft.to/lastmile_qr_scan", "ios": "https://dc.lft.to/lastmile_qr_scan"}, "fusion_lon": 0.0, "name": "6618045489326597bc92938c90e8223d", "lon": -77.02376616666666, "is_disabled": 0, "type": "electric_scooter"}, {"bike_id": "d52fd0a8cd4da6416ccf18e791aebf8f", "lat": 38.926238833333336, "is_reserved": 0, "fusion_lat": 0.0, "rental_uris": {"android": "https://dc.lft.to/lastmile_qr_scan", "ios": "https://dc.lft.to/lastmile_qr_scan"}, "fusion_lon": 0.0, "name": "d52fd0a8cd4da6416ccf18e791aebf8f", "lon": -77.03706416666667, "is_disabled": 0, "type": "electric_scooter"}, {"bike_id": "571e5ea83267f990c75194e71235f4ef", "lat": 38.93861966666667, "is_reserved": 0, "fusion_lat": 0.0, "rental_uris": {"android": "https://dc.lft.to/lastmile_qr_scan", "ios": "https://dc.lft.to/lastmile_qr_scan"}, "fusion_lon": 0.0, "name": "571e5ea83267f990c75194e71235f4ef", "lon": -77.03407416666667, "is_disabled": 0, "type": "electric_scooter"}, {"bike_id": "51957d5699852db35a05a9c2b52b7108", "lat": 38.90855116666667, "is_reserved": 0, "fusion_lat": 0.0, "rental_uris": {"android": "https://dc.lft.to/lastmile_qr_scan", "ios": "https://dc.lft.to/lastmile_qr_scan"}, "fusion_lon": 0.0, "name": "51957d5699852db35a05a9c2b52b7108", "lon": -76.99801683333334, "is_disabled": 0, "type": "electric_scooter"}, {"bike_id": "acfa10017d68dad2f2828513e7c3a4bf", "lat": 38.876541333333336, "is_reserved": 0, "fusion_lat": 0.0, "rental_uris": {"android": "https://dc.lft.to/lastmile_qr_scan", "ios": "https://dc.lft.to/lastmile_qr_scan"}, "fusion_lon": 0.0, "name": "acfa10017d68dad2f2828513e7c3a4bf", "lon": -76.93136416666667, "is_disabled": 0, "type": "electric_scooter"}, {"bike_id": "378dbd3c6d40f3714bbddb3481501699", "lat": 38.90770116666667, "is_reserved": 0, "fusion_lat": 0.0, "rental_uris": {"android": "https://dc.lft.to/lastmile_qr_scan", "ios": "https://dc.lft.to/lastmile_qr_scan"}, "fusion_lon": 0.0, "name": "378dbd3c6d40f3714bbddb3481501699", "lon": -77.03470133333333, "is_disabled": 0, "type": "electric_scooter"}, {"bike_id": "3436dfd2d3e5725eae933cb62bfdab53", "lat": 38.908102666666665, "is_reserved": 0, "fusion_lat": 0.0, "rental_uris": {"android": "https://dc.lft.to/lastmile_qr_scan", "ios": "https://dc.lft.to/lastmile_qr_scan"}, "fusion_lon": 0.0, "name": "3436dfd2d3e5725eae933cb62bfdab53", "lon": -77.03446233333334, "is_disabled": 0, "type": "electric_scooter"}, {"bike_id": "f2b4a189268c4ce5457adb5c287a15cd", "lat": 38.91706283333333, "is_reserved": 0, "fusion_lat": 0.0, "rental_uris": {"android": "https://dc.lft.to/lastmile_qr_scan", "ios": "https://dc.lft.to/lastmile_qr_scan"}, "fusion_lon": 0.0, "name": "f2b4a189268c4ce5457adb5c287a15cd", "lon": -77.034757, "is_disabled": 0, "type": "electric_scooter"}, {"bike_id": "d56914006dd45e9c65c9bded32052322", "lat": 38.899412833333336, "is_reserved": 0, "fusion_lat": 0.0, "rental_uris": {"android": "https://dc.lft.to/lastmile_qr_scan", "ios": "https://dc.lft.to/lastmile_qr_scan"}, "fusion_lon": 0.0, "name": "d56914006dd45e9c65c9bded32052322", "lon": -77.03149333333333, "is_disabled": 0, "type": "electric_scooter"}, {"bike_id": "e91596b2fd5a184cf23ba2f55767eb44", "lat": 38.917430833333334, "is_reserved": 0, "fusion_lat": 0.0, "rental_uris": {"android": "https://dc.lft.to/lastmile_qr_scan", "ios": "https://dc.lft.to/lastmile_qr_scan"}, "fusion_lon": 0.0, "name": "e91596b2fd5a184cf23ba2f55767eb44", "lon": -77.03185083333334, "is_disabled": 0, "type": "electric_scooter"}, {"bike_id": "dd2d95173dd36dedda6ed7895d373be6", "lat": 38.9162735, "is_reserved": 0, "fusion_lat": 0.0, "rental_uris": {"android": "https://dc.lft.to/lastmile_qr_scan", "ios": "https://dc.lft.to/lastmile_qr_scan"}, "fusion_lon": 0.0, "name": "dd2d95173dd36dedda6ed7895d373be6", "lon": -77.030448, "is_disabled": 0, "type": "electric_scooter"}, {"bike_id": "75ef6bce92344b6129109b00bde452a4", "lat": 38.92195, "is_reserved": 0, "fusion_lat": 0.0, "rental_uris": {"android": "https://dc.lft.to/lastmile_qr_scan", "ios": "https://dc.lft.to/lastmile_qr_scan"}, "fusion_lon": 0.0, "name": "75ef6bce92344b6129109b00bde452a4", "lon": -77.03402116666666, "is_disabled": 0, "type": "electric_scooter"}, {"bike_id": "9bd1980a9b17d2a37fed727a49a54b5d", "lat": 38.873427, "is_reserved": 0, "fusion_lat": 0.0, "rental_uris": {"android": "https://dc.lft.to/lastmile_qr_scan", "ios": "https://dc.lft.to/lastmile_qr_scan"}, "fusion_lon": 0.0, "name": "9bd1980a9b17d2a37fed727a49a54b5d", "lon": -77.00069366666666, "is_disabled": 0, "type": "electric_scooter"}, {"bike_id": "89ded326ceb0692615dbbf5fc5eec5f3", "lat": 38.90357766666666, "is_reserved": 0, "fusion_lat": 0.0, "rental_uris": {"android": "https://dc.lft.to/lastmile_qr_scan", "ios": "https://dc.lft.to/lastmile_qr_scan"}, "fusion_lon": 0.0, "name": "89ded326ceb0692615dbbf5fc5eec5f3", "lon": -77.00350933333333, "is_disabled": 0, "type": "electric_scooter"}, {"bike_id": "2b262e47ee5e051d12090e23fa7420f2", "lat": 38.91022133333333, "is_reserved": 0, "fusion_lat": 0.0, "rental_uris": {"android": "https://dc.lft.to/lastmile_qr_scan", "ios": "https://dc.lft.to/lastmile_qr_scan"}, "fusion_lon": 0.0, "name": "2b262e47ee5e051d12090e23fa7420f2", "lon": -77.027644, "is_disabled": 0, "type": "electric_scooter"}, {"bike_id": "9f439722a3ced021a7469d60ff259e46", "lat": 38.90639916666667, "is_reserved": 0, "fusion_lat": 0.0, "rental_uris": {"android": "https://dc.lft.to/lastmile_qr_scan", "ios": "https://dc.lft.to/lastmile_qr_scan"}, "fusion_lon": 0.0, "name": "9f439722a3ced021a7469d60ff259e46", "lon": -77.016425, "is_disabled": 0, "type": "electric_scooter"}, {"bike_id": "16e055f9b2080ed9fc05a5980ce9f7bc", "lat": 38.950039833333335, "is_reserved": 0, "fusion_lat": 0.0, "rental_uris": {"android": "https://dc.lft.to/lastmile_qr_scan", "ios": "https://dc.lft.to/lastmile_qr_scan"}, "fusion_lon": 0.0, "name": "16e055f9b2080ed9fc05a5980ce9f7bc", "lon": -77.01845016666667, "is_disabled": 0, "type": "electric_scooter"}, {"bike_id": "cdf03925f244b4ed28ec729460df8310", "lat": 38.894836166666664, "is_reserved": 0, "fusion_lat": 0.0, "rental_uris": {"android": "https://dc.lft.to/lastmile_qr_scan", "ios": "https://dc.lft.to/lastmile_qr_scan"}, "fusion_lon": 0.0, "name": "cdf03925f244b4ed28ec729460df8310", "lon": -77.021808, "is_disabled": 0, "type": "electric_scooter"}, {"bike_id": "936b6178b201ed9a04866043195f70af", "lat": 38.90550616666667, "is_reserved": 0, "fusion_lat": 0.0, "rental_uris": {"android": "https://dc.lft.to/lastmile_qr_scan", "ios": "https://dc.lft.to/lastmile_qr_scan"}, "fusion_lon": 0.0, "name": "936b6178b201ed9a04866043195f70af", "lon": -77.04469966666667, "is_disabled": 0, "type": "electric_scooter"}, {"bike_id": "d030c8a366bcaa2cd29e8c9ab838ddac", "lat": 38.924738833333336, "is_reserved": 0, "fusion_lat": 0.0, "rental_uris": {"android": "https://dc.lft.to/lastmile_qr_scan", "ios": "https://dc.lft.to/lastmile_qr_scan"}, "fusion_lon": 0.0, "name": "d030c8a366bcaa2cd29e8c9ab838ddac", "lon": -77.0289235, "is_disabled": 0, "type": "electric_scooter"}, {"bike_id": "d770ba2d3362d01eb3965015969c822a", "lat": 38.917393, "is_reserved": 0, "fusion_lat": 0.0, "rental_uris": {"android": "https://dc.lft.to/lastmile_qr_scan", "ios": "https://dc.lft.to/lastmile_qr_scan"}, "fusion_lon": 0.0, "name": "d770ba2d3362d01eb3965015969c822a", "lon": -77.02117683333333, "is_disabled": 0, "type": "electric_scooter"}, {"bike_id": "caf89ea66e290f7379bc8648e87ad13b", "lat": 38.8935565, "is_reserved": 0, "fusion_lat": 0.0, "rental_uris": {"android": "https://dc.lft.to/lastmile_qr_scan", "ios": "https://dc.lft.to/lastmile_qr_scan"}, "fusion_lon": 0.0, "name": "caf89ea66e290f7379bc8648e87ad13b", "lon": -77.02222016666667, "is_disabled": 0, "type": "electric_scooter"}, {"bike_id": "befb0900b9b41d04b5be6c4b297dd848", "lat": 38.85645916666667, "is_reserved": 0, "fusion_lat": 0.0, "rental_uris": {"android": "https://dc.lft.to/lastmile_qr_scan", "ios": "https://dc.lft.to/lastmile_qr_scan"}, "fusion_lon": 0.0, "name": "befb0900b9b41d04b5be6c4b297dd848", "lon": -77.1126755, "is_disabled": 0, "type": "electric_bike"}, {"bike_id": "bdaa2bea8b83e699272151806533591e", "lat": 38.9269375, "is_reserved": 0, "fusion_lat": 0.0, "rental_uris": {"android": "https://dc.lft.to/lastmile_qr_scan", "ios": "https://dc.lft.to/lastmile_qr_scan"}, "fusion_lon": 0.0, "name": "bdaa2bea8b83e699272151806533591e", "lon": -77.03563266666667, "is_disabled": 0, "type": "electric_scooter"}, {"bike_id": "c754bb32c0fcd4e130b4eafe7a106523", "lat": 38.90684733333333, "is_reserved": 0, "fusion_lat": 0.0, "rental_uris": {"android": "https://dc.lft.to/lastmile_qr_scan", "ios": "https://dc.lft.to/lastmile_qr_scan"}, "fusion_lon": 0.0, "name": "c754bb32c0fcd4e130b4eafe7a106523", "lon": -77.06076683333333, "is_disabled": 0, "type": "electric_scooter"}, {"bike_id": "082e9eee907cca0415237997e380f64a", "lat": 38.84433083333333, "is_reserved": 0, "fusion_lat": 0.0, "rental_uris": {"android": "https://dc.lft.to/lastmile_qr_scan", "ios": "https://dc.lft.to/lastmile_qr_scan"}, "fusion_lon": 0.0, "name": "082e9eee907cca0415237997e380f64a", "lon": -76.99870666666666, "is_disabled": 0, "type": "electric_scooter"}, {"bike_id": "c4f9aa7245cf23a93c81ff6ae3bea52f", "lat": 38.9262135, "is_reserved": 0, "fusion_lat": 0.0, "rental_uris": {"android": "https://dc.lft.to/lastmile_qr_scan", "ios": "https://dc.lft.to/lastmile_qr_scan"}, "fusion_lon": 0.0, "name": "c4f9aa7245cf23a93c81ff6ae3bea52f", "lon": -77.037814, "is_disabled": 0, "type": "electric_scooter"}, {"bike_id": "067c49c14fa02faea7dc166c2bcde2d1", "lat": 38.916659833333334, "is_reserved": 0, "fusion_lat": 0.0, "rental_uris": {"android": "https://dc.lft.to/lastmile_qr_scan", "ios": "https://dc.lft.to/lastmile_qr_scan"}, "fusion_lon": 0.0, "name": "067c49c14fa02faea7dc166c2bcde2d1", "lon": -76.9817665, "is_disabled": 0, "type": "electric_scooter"}, {"bike_id": "35423853ba30d85369484fbeba874607", "lat": 38.90899433333333, "is_reserved": 0, "fusion_lat": 0.0, "rental_uris": {"android": "https://dc.lft.to/lastmile_qr_scan", "ios": "https://dc.lft.to/lastmile_qr_scan"}, "fusion_lon": 0.0, "name": "35423853ba30d85369484fbeba874607", "lon": -77.032071, "is_disabled": 0, "type": "electric_scooter"}, {"bike_id": "548ecc79aa55f8ce03422eb9930ebd6a", "lat": 38.9071295, "is_reserved": 0, "fusion_lat": 0.0, "rental_uris": {"android": "https://dc.lft.to/lastmile_qr_scan", "ios": "https://dc.lft.to/lastmile_qr_scan"}, "fusion_lon": 0.0, "name": "548ecc79aa55f8ce03422eb9930ebd6a", "lon": -77.00222166666667, "is_disabled": 0, "type": "electric_scooter"}, {"bike_id": "18bad374f325ee1f5095018b3d0c265d", "lat": 38.892429166666666, "is_reserved": 0, "fusion_lat": 0.0, "rental_uris": {"android": "https://dc.lft.to/lastmile_qr_scan", "ios": "https://dc.lft.to/lastmile_qr_scan"}, "fusion_lon": 0.0, "name": "18bad374f325ee1f5095018b3d0c265d", "lon": -77.04509233333333, "is_disabled": 0, "type": "electric_scooter"}, {"bike_id": "1307ae67bd8dc463f9575f1e112a787b", "lat": 38.878137833333334, "is_reserved": 0, "fusion_lat": 0.0, "rental_uris": {"android": "https://dc.lft.to/lastmile_qr_scan", "ios": "https://dc.lft.to/lastmile_qr_scan"}, "fusion_lon": 0.0, "name": "1307ae67bd8dc463f9575f1e112a787b", "lon": -76.97174016666666, "is_disabled": 0, "type": "electric_scooter"}, {"bike_id": "a236851395fc19099facfc42b9fe44bc", "lat": 38.900132166666666, "is_reserved": 0, "fusion_lat": 0.0, "rental_uris": {"android": "https://dc.lft.to/lastmile_qr_scan", "ios": "https://dc.lft.to/lastmile_qr_scan"}, "fusion_lon": 0.0, "name": "a236851395fc19099facfc42b9fe44bc", "lon": -77.021706, "is_disabled": 0, "type": "electric_scooter"}, {"bike_id": "61c671cf130f543995d066e460008f52", "lat": 38.990955666666665, "is_reserved": 0, "fusion_lat": 0.0, "rental_uris": {"android": "https://dc.lft.to/lastmile_qr_scan", "ios": "https://dc.lft.to/lastmile_qr_scan"}, "fusion_lon": 0.0, "name": "61c671cf130f543995d066e460008f52", "lon": -76.99365, "is_disabled": 0, "type": "electric_bike"}, {"bike_id": "3d3d2f20db85e77fb3623792f75b0842", "lat": 38.85894966666667, "is_reserved": 0, "fusion_lat": 0.0, "rental_uris": {"android": "https://dc.lft.to/lastmile_qr_scan", "ios": "https://dc.lft.to/lastmile_qr_scan"}, "fusion_lon": 0.0, "name": "3d3d2f20db85e77fb3623792f75b0842", "lon": -76.99732883333333, "is_disabled": 0, "type": "electric_scooter"}, {"bike_id": "6c113e4f5a71db60f27e8655687f48db", "lat": 38.915660833333334, "is_reserved": 0, "fusion_lat": 0.0, "rental_uris": {"android": "https://dc.lft.to/lastmile_qr_scan", "ios": "https://dc.lft.to/lastmile_qr_scan"}, "fusion_lon": 0.0, "name": "6c113e4f5a71db60f27e8655687f48db", "lon": -77.031451, "is_disabled": 0, "type": "electric_scooter"}, {"bike_id": "0076dc787ebf3f275293d9eac5f44814", "lat": 38.883116333333334, "is_reserved": 0, "fusion_lat": 0.0, "rental_uris": {"android": "https://dc.lft.to/lastmile_qr_scan", "ios": "https://dc.lft.to/lastmile_qr_scan"}, "fusion_lon": 0.0, "name": "0076dc787ebf3f275293d9eac5f44814", "lon": -77.00348283333334, "is_disabled": 0, "type": "electric_scooter"}, {"bike_id": "0615a0c4ddb573b781dd9c2cb7016472", "lat": 38.892221166666666, "is_reserved": 0, "fusion_lat": 0.0, "rental_uris": {"android": "https://dc.lft.to/lastmile_qr_scan", "ios": "https://dc.lft.to/lastmile_qr_scan"}, "fusion_lon": 0.0, "name": "0615a0c4ddb573b781dd9c2cb7016472", "lon": -77.0486415, "is_disabled": 0, "type": "electric_scooter"}, {"bike_id": "59fa93c195902668c4c0c79a6d2b650b", "lat": 38.884988, "is_reserved": 0, "fusion_lat": 0.0, "rental_uris": {"android": "https://dc.lft.to/lastmile_qr_scan", "ios": "https://dc.lft.to/lastmile_qr_scan"}, "fusion_lon": 0.0, "name": "59fa93c195902668c4c0c79a6d2b650b", "lon": -77.00730333333334, "is_disabled": 0, "type": "electric_scooter"}, {"bike_id": "65d2c6d6027deb1873adbec88ac5e1ea", "lat": 38.926440166666666, "is_reserved": 0, "fusion_lat": 0.0, "rental_uris": {"android": "https://dc.lft.to/lastmile_qr_scan", "ios": "https://dc.lft.to/lastmile_qr_scan"}, "fusion_lon": 0.0, "name": "65d2c6d6027deb1873adbec88ac5e1ea", "lon": -76.98429366666667, "is_disabled": 0, "type": "electric_bike"}, {"bike_id": "bbf5d81518cc0d4e9d8fb0ece9e04324", "lat": 38.94198933333333, "is_reserved": 0, "fusion_lat": 0.0, "rental_uris": {"android": "https://dc.lft.to/lastmile_qr_scan", "ios": "https://dc.lft.to/lastmile_qr_scan"}, "fusion_lon": 0.0, "name": "bbf5d81518cc0d4e9d8fb0ece9e04324", "lon": -77.02436716666666, "is_disabled": 0, "type": "electric_scooter"}, {"bike_id": "1cec907e160a12745147a042667e787d", "lat": 38.924549166666665, "is_reserved": 0, "fusion_lat": 0.0, "rental_uris": {"android": "https://dc.lft.to/lastmile_qr_scan", "ios": "https://dc.lft.to/lastmile_qr_scan"}, "fusion_lon": 0.0, "name": "1cec907e160a12745147a042667e787d", "lon": -77.2256285, "is_disabled": 0, "type": "electric_bike"}, {"bike_id": "a9dcf24fb5c5351cdc82b72aff4af2dc", "lat": 38.902061, "is_reserved": 0, "fusion_lat": 0.0, "rental_uris": {"android": "https://dc.lft.to/lastmile_qr_scan", "ios": "https://dc.lft.to/lastmile_qr_scan"}, "fusion_lon": 0.0, "name": "a9dcf24fb5c5351cdc82b72aff4af2dc", "lon": -76.97410966666666, "is_disabled": 0, "type": "electric_bike"}, {"bike_id": "436080d10c84653b63253e2ce46dbff2", "lat": 38.9069235, "is_reserved": 0, "fusion_lat": 0.0, "rental_uris": {"android": "https://dc.lft.to/lastmile_qr_scan", "ios": "https://dc.lft.to/lastmile_qr_scan"}, "fusion_lon": 0.0, "name": "436080d10c84653b63253e2ce46dbff2", "lon": -77.023811, "is_disabled": 0, "type": "electric_scooter"}, {"bike_id": "0a49459c4d8c604f31feeeb35f038140", "lat": 38.90657083333333, "is_reserved": 0, "fusion_lat": 0.0, "rental_uris": {"android": "https://dc.lft.to/lastmile_qr_scan", "ios": "https://dc.lft.to/lastmile_qr_scan"}, "fusion_lon": 0.0, "name": "0a49459c4d8c604f31feeeb35f038140", "lon": -77.00979416666667, "is_disabled": 0, "type": "electric_scooter"}, {"bike_id": "13a5819d0d7abe2bb35927d5f3ac4719", "lat": 38.92728416666667, "is_reserved": 0, "fusion_lat": 0.0, "rental_uris": {"android": "https://dc.lft.to/lastmile_qr_scan", "ios": "https://dc.lft.to/lastmile_qr_scan"}, "fusion_lon": 0.0, "name": "13a5819d0d7abe2bb35927d5f3ac4719", "lon": -77.00561383333333, "is_disabled": 0, "type": "electric_scooter"}, {"bike_id": "0988fe257b06476fab531e0095723f89", "lat": 38.903666333333334, "is_reserved": 0, "fusion_lat": 0.0, "rental_uris": {"android": "https://dc.lft.to/lastmile_qr_scan", "ios": "https://dc.lft.to/lastmile_qr_scan"}, "fusion_lon": 0.0, "name": "0988fe257b06476fab531e0095723f89", "lon": -77.02933383333334, "is_disabled": 0, "type": "electric_scooter"}, {"bike_id": "cc02e296e03cc469363e910e0e0e1fa1", "lat": 38.90530566666666, "is_reserved": 0, "fusion_lat": 0.0, "rental_uris": {"android": "https://dc.lft.to/lastmile_qr_scan", "ios": "https://dc.lft.to/lastmile_qr_scan"}, "fusion_lon": 0.0, "name": "cc02e296e03cc469363e910e0e0e1fa1", "lon": -77.0417675, "is_disabled": 0, "type": "electric_scooter"}, {"bike_id": "fc436a6342e6ed53a2f5ee10d375a48a", "lat": 38.95628583333333, "is_reserved": 0, "fusion_lat": 0.0, "rental_uris": {"android": "https://dc.lft.to/lastmile_qr_scan", "ios": "https://dc.lft.to/lastmile_qr_scan"}, "fusion_lon": 0.0, "name": "fc436a6342e6ed53a2f5ee10d375a48a", "lon": -77.0243475, "is_disabled": 0, "type": "electric_scooter"}, {"bike_id": "0d8f6def242fc3f3a232c74e20889c96", "lat": 38.91682733333333, "is_reserved": 0, "fusion_lat": 0.0, "rental_uris": {"android": "https://dc.lft.to/lastmile_qr_scan", "ios": "https://dc.lft.to/lastmile_qr_scan"}, "fusion_lon": 0.0, "name": "0d8f6def242fc3f3a232c74e20889c96", "lon": -77.029585, "is_disabled": 0, "type": "electric_scooter"}, {"bike_id": "258b3cc7913faf638e9be9999ee909a7", "lat": 38.936711, "is_reserved": 0, "fusion_lat": 0.0, "rental_uris": {"android": "https://dc.lft.to/lastmile_qr_scan", "ios": "https://dc.lft.to/lastmile_qr_scan"}, "fusion_lon": 0.0, "name": "258b3cc7913faf638e9be9999ee909a7", "lon": -76.95207833333333, "is_disabled": 0, "type": "electric_bike"}, {"bike_id": "9917e934453ed00b4f5a267e3d8625ff", "lat": 38.897274333333336, "is_reserved": 0, "fusion_lat": 0.0, "rental_uris": {"android": "https://dc.lft.to/lastmile_qr_scan", "ios": "https://dc.lft.to/lastmile_qr_scan"}, "fusion_lon": 0.0, "name": "9917e934453ed00b4f5a267e3d8625ff", "lon": -77.02166716666666, "is_disabled": 0, "type": "electric_scooter"}, {"bike_id": "fcdb28f6b2b9761145acfd820ef492c1", "lat": 38.914730666666664, "is_reserved": 0, "fusion_lat": 0.0, "rental_uris": {"android": "https://dc.lft.to/lastmile_qr_scan", "ios": "https://dc.lft.to/lastmile_qr_scan"}, "fusion_lon": 0.0, "name": "fcdb28f6b2b9761145acfd820ef492c1", "lon": -77.04349516666667, "is_disabled": 0, "type": "electric_scooter"}, {"bike_id": "594427a9e302814809fad1833ab786bd", "lat": 38.92335516666667, "is_reserved": 0, "fusion_lat": 0.0, "rental_uris": {"android": "https://dc.lft.to/lastmile_qr_scan", "ios": "https://dc.lft.to/lastmile_qr_scan"}, "fusion_lon": 0.0, "name": "594427a9e302814809fad1833ab786bd", "lon": -77.05333966666667, "is_disabled": 0, "type": "electric_scooter"}, {"bike_id": "0451bbafc7f8488fdbf7a1ec488f073a", "lat": 38.90687833333333, "is_reserved": 0, "fusion_lat": 0.0, "rental_uris": {"android": "https://dc.lft.to/lastmile_qr_scan", "ios": "https://dc.lft.to/lastmile_qr_scan"}, "fusion_lon": 0.0, "name": "0451bbafc7f8488fdbf7a1ec488f073a", "lon": -77.0381305, "is_disabled": 0, "type": "electric_scooter"}, {"bike_id": "4b8fcc67cdde9a7c878259849dffa1f0", "lat": 38.905625666666666, "is_reserved": 0, "fusion_lat": 0.0, "rental_uris": {"android": "https://dc.lft.to/lastmile_qr_scan", "ios": "https://dc.lft.to/lastmile_qr_scan"}, "fusion_lon": 0.0, "name": "4b8fcc67cdde9a7c878259849dffa1f0", "lon": -77.02175733333333, "is_disabled": 0, "type": "electric_scooter"}, {"bike_id": "8c0635166326e9c99b7ea01ecf69e3be", "lat": 38.91874266666667, "is_reserved": 0, "fusion_lat": 0.0, "rental_uris": {"android": "https://dc.lft.to/lastmile_qr_scan", "ios": "https://dc.lft.to/lastmile_qr_scan"}, "fusion_lon": 0.0, "name": "8c0635166326e9c99b7ea01ecf69e3be", "lon": -77.01474733333333, "is_disabled": 0, "type": "electric_scooter"}, {"bike_id": "886989225c5a225eb68ccc9b83bef0c4", "lat": 38.92975633333333, "is_reserved": 0, "fusion_lat": 0.0, "rental_uris": {"android": "https://dc.lft.to/lastmile_qr_scan", "ios": "https://dc.lft.to/lastmile_qr_scan"}, "fusion_lon": 0.0, "name": "886989225c5a225eb68ccc9b83bef0c4", "lon": -77.013025, "is_disabled": 0, "type": "electric_scooter"}, {"bike_id": "8f993e31af4d4e6ff661c8038be645a3", "lat": 38.893628166666666, "is_reserved": 0, "fusion_lat": 0.0, "rental_uris": {"android": "https://dc.lft.to/lastmile_qr_scan", "ios": "https://dc.lft.to/lastmile_qr_scan"}, "fusion_lon": 0.0, "name": "8f993e31af4d4e6ff661c8038be645a3", "lon": -77.03154783333333, "is_disabled": 0, "type": "electric_scooter"}, {"bike_id": "0c01923e0b0ed59b82baeab9e80d7f18", "lat": 38.9005975, "is_reserved": 0, "fusion_lat": 0.0, "rental_uris": {"android": "https://dc.lft.to/lastmile_qr_scan", "ios": "https://dc.lft.to/lastmile_qr_scan"}, "fusion_lon": 0.0, "name": "0c01923e0b0ed59b82baeab9e80d7f18", "lon": -77.00063283333333, "is_disabled": 0, "type": "electric_scooter"}, {"bike_id": "8991e06d3046ed8053a9c69b796d5849", "lat": 38.897424666666666, "is_reserved": 0, "fusion_lat": 0.0, "rental_uris": {"android": "https://dc.lft.to/lastmile_qr_scan", "ios": "https://dc.lft.to/lastmile_qr_scan"}, "fusion_lon": 0.0, "name": "8991e06d3046ed8053a9c69b796d5849", "lon": -76.9472855, "is_disabled": 0, "type": "electric_scooter"}, {"bike_id": "187d696118023d8e6f51eb2ed7f71af4", "lat": 38.92026633333333, "is_reserved": 0, "fusion_lat": 0.0, "rental_uris": {"android": "https://dc.lft.to/lastmile_qr_scan", "ios": "https://dc.lft.to/lastmile_qr_scan"}, "fusion_lon": 0.0, "name": "187d696118023d8e6f51eb2ed7f71af4", "lon": -77.071526, "is_disabled": 0, "type": "electric_scooter"}, {"bike_id": "a7d88f8581e308c072baff0cb7348669", "lat": 38.93730033333333, "is_reserved": 0, "fusion_lat": 0.0, "rental_uris": {"android": "https://dc.lft.to/lastmile_qr_scan", "ios": "https://dc.lft.to/lastmile_qr_scan"}, "fusion_lon": 0.0, "name": "a7d88f8581e308c072baff0cb7348669", "lon": -77.03262083333334, "is_disabled": 0, "type": "electric_scooter"}, {"bike_id": "37f9460f6dd4fafb4119b598ae7d0763", "lat": 38.91854166666667, "is_reserved": 0, "fusion_lat": 0.0, "rental_uris": {"android": "https://dc.lft.to/lastmile_qr_scan", "ios": "https://dc.lft.to/lastmile_qr_scan"}, "fusion_lon": 0.0, "name": "37f9460f6dd4fafb4119b598ae7d0763", "lon": -77.03218516666666, "is_disabled": 0, "type": "electric_scooter"}, {"bike_id": "ebcd59d21e196879a77acb743b3d20c0", "lat": 38.897158833333336, "is_reserved": 0, "fusion_lat": 0.0, "rental_uris": {"android": "https://dc.lft.to/lastmile_qr_scan", "ios": "https://dc.lft.to/lastmile_qr_scan"}, "fusion_lon": 0.0, "name": "ebcd59d21e196879a77acb743b3d20c0", "lon": -77.03120716666666, "is_disabled": 0, "type": "electric_scooter"}, {"bike_id": "95eecdd7826216b2132ba01c8a2f1825", "lat": 38.88686883333333, "is_reserved": 0, "fusion_lat": 0.0, "rental_uris": {"android": "https://dc.lft.to/lastmile_qr_scan", "ios": "https://dc.lft.to/lastmile_qr_scan"}, "fusion_lon": 0.0, "name": "95eecdd7826216b2132ba01c8a2f1825", "lon": -76.97637666666667, "is_disabled": 0, "type": "electric_scooter"}, {"bike_id": "692d6da97dcf09590f29933c6269e2e9", "lat": 38.89743966666666, "is_reserved": 0, "fusion_lat": 0.0, "rental_uris": {"android": "https://dc.lft.to/lastmile_qr_scan", "ios": "https://dc.lft.to/lastmile_qr_scan"}, "fusion_lon": 0.0, "name": "692d6da97dcf09590f29933c6269e2e9", "lon": -77.025743, "is_disabled": 0, "type": "electric_scooter"}, {"bike_id": "da51fcf8e93b76dccc1338228039fed5", "lat": 38.9870075, "is_reserved": 0, "fusion_lat": 0.0, "rental_uris": {"android": "https://dc.lft.to/lastmile_qr_scan", "ios": "https://dc.lft.to/lastmile_qr_scan"}, "fusion_lon": 0.0, "name": "da51fcf8e93b76dccc1338228039fed5", "lon": -77.02985583333333, "is_disabled": 0, "type": "electric_scooter"}, {"bike_id": "1fd4852b679752260031d06ee90b24cd", "lat": 38.90667216666667, "is_reserved": 0, "fusion_lat": 0.0, "rental_uris": {"android": "https://dc.lft.to/lastmile_qr_scan", "ios": "https://dc.lft.to/lastmile_qr_scan"}, "fusion_lon": 0.0, "name": "1fd4852b679752260031d06ee90b24cd", "lon": -77.00962166666666, "is_disabled": 0, "type": "electric_scooter"}, {"bike_id": "0a027adf28de3713c9098f58ad5b1e67", "lat": 38.90161116666667, "is_reserved": 0, "fusion_lat": 0.0, "rental_uris": {"android": "https://dc.lft.to/lastmile_qr_scan", "ios": "https://dc.lft.to/lastmile_qr_scan"}, "fusion_lon": 0.0, "name": "0a027adf28de3713c9098f58ad5b1e67", "lon": -77.0317675, "is_disabled": 0, "type": "electric_scooter"}, {"bike_id": "b330e3e784da845740419cefa09818be", "lat": 38.93250783333333, "is_reserved": 0, "fusion_lat": 0.0, "rental_uris": {"android": "https://dc.lft.to/lastmile_qr_scan", "ios": "https://dc.lft.to/lastmile_qr_scan"}, "fusion_lon": 0.0, "name": "b330e3e784da845740419cefa09818be", "lon": -76.995151, "is_disabled": 0, "type": "electric_scooter"}, {"bike_id": "4ff2f4832bdaa61bf39aab84eb5bcc82", "lat": 38.886584166666665, "is_reserved": 0, "fusion_lat": 0.0, "rental_uris": {"android": "https://dc.lft.to/lastmile_qr_scan", "ios": "https://dc.lft.to/lastmile_qr_scan"}, "fusion_lon": 0.0, "name": "4ff2f4832bdaa61bf39aab84eb5bcc82", "lon": -77.02831866666666, "is_disabled": 0, "type": "electric_scooter"}, {"bike_id": "f82757303305fc439c0f24c0bd8af651", "lat": 38.910168, "is_reserved": 0, "fusion_lat": 0.0, "rental_uris": {"android": "https://dc.lft.to/lastmile_qr_scan", "ios": "https://dc.lft.to/lastmile_qr_scan"}, "fusion_lon": 0.0, "name": "f82757303305fc439c0f24c0bd8af651", "lon": -77.02850016666666, "is_disabled": 0, "type": "electric_scooter"}, {"bike_id": "8f73f78d2328bc2962c95662e754f306", "lat": 38.94828166666667, "is_reserved": 0, "fusion_lat": 0.0, "rental_uris": {"android": "https://dc.lft.to/lastmile_qr_scan", "ios": "https://dc.lft.to/lastmile_qr_scan"}, "fusion_lon": 0.0, "name": "8f73f78d2328bc2962c95662e754f306", "lon": -77.025525, "is_disabled": 0, "type": "electric_scooter"}, {"bike_id": "779faccd15b1a2a0dcb45c69155b0a13", "lat": 38.8788865, "is_reserved": 0, "fusion_lat": 0.0, "rental_uris": {"android": "https://dc.lft.to/lastmile_qr_scan", "ios": "https://dc.lft.to/lastmile_qr_scan"}, "fusion_lon": 0.0, "name": "779faccd15b1a2a0dcb45c69155b0a13", "lon": -77.02247066666666, "is_disabled": 0, "type": "electric_scooter"}, {"bike_id": "95559f0c31c65966a37064b754b04341", "lat": 38.9233125, "is_reserved": 0, "fusion_lat": 0.0, "rental_uris": {"android": "https://dc.lft.to/lastmile_qr_scan", "ios": "https://dc.lft.to/lastmile_qr_scan"}, "fusion_lon": 0.0, "name": "95559f0c31c65966a37064b754b04341", "lon": -77.04187966666667, "is_disabled": 0, "type": "electric_scooter"}, {"bike_id": "e1409be32e4d6dfb8828802fec7b36ae", "lat": 38.931428833333335, "is_reserved": 0, "fusion_lat": 0.0, "rental_uris": {"android": "https://dc.lft.to/lastmile_qr_scan", "ios": "https://dc.lft.to/lastmile_qr_scan"}, "fusion_lon": 0.0, "name": "e1409be32e4d6dfb8828802fec7b36ae", "lon": -77.04254816666666, "is_disabled": 0, "type": "electric_scooter"}, {"bike_id": "8bc01ef7d62e13be80d2d9ab7f4bff70", "lat": 38.91835316666667, "is_reserved": 0, "fusion_lat": 0.0, "rental_uris": {"android": "https://dc.lft.to/lastmile_qr_scan", "ios": "https://dc.lft.to/lastmile_qr_scan"}, "fusion_lon": 0.0, "name": "8bc01ef7d62e13be80d2d9ab7f4bff70", "lon": -77.035287, "is_disabled": 0, "type": "electric_scooter"}, {"bike_id": "19895918f273a73899559637501d6d6b", "lat": 38.89613333333333, "is_reserved": 0, "fusion_lat": 0.0, "rental_uris": {"android": "https://dc.lft.to/lastmile_qr_scan", "ios": "https://dc.lft.to/lastmile_qr_scan"}, "fusion_lon": 0.0, "name": "19895918f273a73899559637501d6d6b", "lon": -77.04454283333334, "is_disabled": 0, "type": "electric_scooter"}, {"bike_id": "caa792eed37ae05e140a592241c5a66e", "lat": 38.8670365, "is_reserved": 0, "fusion_lat": 0.0, "rental_uris": {"android": "https://dc.lft.to/lastmile_qr_scan", "ios": "https://dc.lft.to/lastmile_qr_scan"}, "fusion_lon": 0.0, "name": "caa792eed37ae05e140a592241c5a66e", "lon": -76.98711766666666, "is_disabled": 0, "type": "electric_scooter"}, {"bike_id": "4fd7530207ea38a8f0989a70c4ceade5", "lat": 38.917101333333335, "is_reserved": 0, "fusion_lat": 0.0, "rental_uris": {"android": "https://dc.lft.to/lastmile_qr_scan", "ios": "https://dc.lft.to/lastmile_qr_scan"}, "fusion_lon": 0.0, "name": "4fd7530207ea38a8f0989a70c4ceade5", "lon": -77.0287405, "is_disabled": 0, "type": "electric_scooter"}, {"bike_id": "8db326147b76f7bda3720224a6e299b6", "lat": 38.920481, "is_reserved": 0, "fusion_lat": 0.0, "rental_uris": {"android": "https://dc.lft.to/lastmile_qr_scan", "ios": "https://dc.lft.to/lastmile_qr_scan"}, "fusion_lon": 0.0, "name": "8db326147b76f7bda3720224a6e299b6", "lon": -77.04186183333333, "is_disabled": 0, "type": "electric_scooter"}, {"bike_id": "dfbc3fe0293577502db5d89836aa5b9a", "lat": 38.915454833333335, "is_reserved": 0, "fusion_lat": 0.0, "rental_uris": {"android": "https://dc.lft.to/lastmile_qr_scan", "ios": "https://dc.lft.to/lastmile_qr_scan"}, "fusion_lon": 0.0, "name": "dfbc3fe0293577502db5d89836aa5b9a", "lon": -77.04459566666667, "is_disabled": 0, "type": "electric_scooter"}, {"bike_id": "11cc396b39f2d57ed3a08a8cebf6d2a5", "lat": 39.024342833333336, "is_reserved": 0, "fusion_lat": 0.0, "rental_uris": {"android": "https://dc.lft.to/lastmile_qr_scan", "ios": "https://dc.lft.to/lastmile_qr_scan"}, "fusion_lon": 0.0, "name": "11cc396b39f2d57ed3a08a8cebf6d2a5", "lon": -77.1310375, "is_disabled": 0, "type": "electric_bike"}, {"bike_id": "d93f91e4135fab4da574caa4506022e1", "lat": 38.904191833333336, "is_reserved": 0, "fusion_lat": 0.0, "rental_uris": {"android": "https://dc.lft.to/lastmile_qr_scan", "ios": "https://dc.lft.to/lastmile_qr_scan"}, "fusion_lon": 0.0, "name": "d93f91e4135fab4da574caa4506022e1", "lon": -77.04830866666667, "is_disabled": 0, "type": "electric_scooter"}, {"bike_id": "69c88fa83f1ad56844733ad66224f658", "lat": 38.934602166666664, "is_reserved": 0, "fusion_lat": 0.0, "rental_uris": {"android": "https://dc.lft.to/lastmile_qr_scan", "ios": "https://dc.lft.to/lastmile_qr_scan"}, "fusion_lon": 0.0, "name": "69c88fa83f1ad56844733ad66224f658", "lon": -76.9644255, "is_disabled": 0, "type": "electric_scooter"}, {"bike_id": "8a0deb971488e4a81403a2bd28848f81", "lat": 38.9148825, "is_reserved": 0, "fusion_lat": 0.0, "rental_uris": {"android": "https://dc.lft.to/lastmile_qr_scan", "ios": "https://dc.lft.to/lastmile_qr_scan"}, "fusion_lon": 0.0, "name": "8a0deb971488e4a81403a2bd28848f81", "lon": -77.04545983333334, "is_disabled": 0, "type": "electric_scooter"}, {"bike_id": "409293f84b2423a5434b8468cbb1ecab", "lat": 38.89849366666667, "is_reserved": 0, "fusion_lat": 0.0, "rental_uris": {"android": "https://dc.lft.to/lastmile_qr_scan", "ios": "https://dc.lft.to/lastmile_qr_scan"}, "fusion_lon": 0.0, "name": "409293f84b2423a5434b8468cbb1ecab", "lon": -77.05307933333333, "is_disabled": 0, "type": "electric_bike"}, {"bike_id": "9f61d0e1e0a0080d9f5a8b4b3dc53fcc", "lat": 38.9308635, "is_reserved": 0, "fusion_lat": 0.0, "rental_uris": {"android": "https://dc.lft.to/lastmile_qr_scan", "ios": "https://dc.lft.to/lastmile_qr_scan"}, "fusion_lon": 0.0, "name": "9f61d0e1e0a0080d9f5a8b4b3dc53fcc", "lon": -77.03738666666666, "is_disabled": 0, "type": "electric_scooter"}, {"bike_id": "293888072cbc5d17bdf1217fc06e3c04", "lat": 38.917661333333335, "is_reserved": 0, "fusion_lat": 0.0, "rental_uris": {"android": "https://dc.lft.to/lastmile_qr_scan", "ios": "https://dc.lft.to/lastmile_qr_scan"}, "fusion_lon": 0.0, "name": "293888072cbc5d17bdf1217fc06e3c04", "lon": -77.02304883333333, "is_disabled": 0, "type": "electric_scooter"}, {"bike_id": "851cf5060272d5d3a425482d9fc33b94", "lat": 38.904711, "is_reserved": 0, "fusion_lat": 0.0, "rental_uris": {"android": "https://dc.lft.to/lastmile_qr_scan", "ios": "https://dc.lft.to/lastmile_qr_scan"}, "fusion_lon": 0.0, "name": "851cf5060272d5d3a425482d9fc33b94", "lon": -77.0280555, "is_disabled": 0, "type": "electric_scooter"}, {"bike_id": "55a68c9df6638afbfb9993084ffadeab", "lat": 38.908638333333336, "is_reserved": 0, "fusion_lat": 0.0, "rental_uris": {"android": "https://dc.lft.to/lastmile_qr_scan", "ios": "https://dc.lft.to/lastmile_qr_scan"}, "fusion_lon": 0.0, "name": "55a68c9df6638afbfb9993084ffadeab", "lon": -76.99135383333333, "is_disabled": 0, "type": "electric_bike"}, {"bike_id": "7944068c0e489e8b93f5a23f7ace3afa", "lat": 38.92733116666667, "is_reserved": 0, "fusion_lat": 0.0, "rental_uris": {"android": "https://dc.lft.to/lastmile_qr_scan", "ios": "https://dc.lft.to/lastmile_qr_scan"}, "fusion_lon": 0.0, "name": "7944068c0e489e8b93f5a23f7ace3afa", "lon": -77.03432533333333, "is_disabled": 0, "type": "electric_scooter"}, {"bike_id": "9bd2c449678321b030ae228ebd15195a", "lat": 38.90731016666667, "is_reserved": 0, "fusion_lat": 0.0, "rental_uris": {"android": "https://dc.lft.to/lastmile_qr_scan", "ios": "https://dc.lft.to/lastmile_qr_scan"}, "fusion_lon": 0.0, "name": "9bd2c449678321b030ae228ebd15195a", "lon": -77.0238065, "is_disabled": 0, "type": "electric_scooter"}, {"bike_id": "2ad4532a263b8bf28babfcfb040dd59d", "lat": 38.907694166666666, "is_reserved": 0, "fusion_lat": 0.0, "rental_uris": {"android": "https://dc.lft.to/lastmile_qr_scan", "ios": "https://dc.lft.to/lastmile_qr_scan"}, "fusion_lon": 0.0, "name": "2ad4532a263b8bf28babfcfb040dd59d", "lon": -77.03473066666666, "is_disabled": 0, "type": "electric_scooter"}, {"bike_id": "560c664fbe6119e88c6ed215aed70c9c", "lat": 38.87645966666667, "is_reserved": 0, "fusion_lat": 0.0, "rental_uris": {"android": "https://dc.lft.to/lastmile_qr_scan", "ios": "https://dc.lft.to/lastmile_qr_scan"}, "fusion_lon": 0.0, "name": "560c664fbe6119e88c6ed215aed70c9c", "lon": -76.96510233333333, "is_disabled": 0, "type": "electric_scooter"}, {"bike_id": "a4fae6ecc02f4ea01d80018f8bc6bff3", "lat": 38.91556883333333, "is_reserved": 0, "fusion_lat": 0.0, "rental_uris": {"android": "https://dc.lft.to/lastmile_qr_scan", "ios": "https://dc.lft.to/lastmile_qr_scan"}, "fusion_lon": 0.0, "name": "a4fae6ecc02f4ea01d80018f8bc6bff3", "lon": -77.03340433333334, "is_disabled": 0, "type": "electric_scooter"}, {"bike_id": "2077b3b2cdce027827b2e806970f8045", "lat": 38.901377833333335, "is_reserved": 0, "fusion_lat": 0.0, "rental_uris": {"android": "https://dc.lft.to/lastmile_qr_scan", "ios": "https://dc.lft.to/lastmile_qr_scan"}, "fusion_lon": 0.0, "name": "2077b3b2cdce027827b2e806970f8045", "lon": -76.99159116666667, "is_disabled": 0, "type": "electric_scooter"}, {"bike_id": "76868a9f427671710883911182ee5d50", "lat": 38.928226, "is_reserved": 0, "fusion_lat": 0.0, "rental_uris": {"android": "https://dc.lft.to/lastmile_qr_scan", "ios": "https://dc.lft.to/lastmile_qr_scan"}, "fusion_lon": 0.0, "name": "76868a9f427671710883911182ee5d50", "lon": -77.01416766666667, "is_disabled": 0, "type": "electric_scooter"}, {"bike_id": "b35d8a4b9289f8633aa5bb57b993f362", "lat": 38.887602333333334, "is_reserved": 0, "fusion_lat": 0.0, "rental_uris": {"android": "https://dc.lft.to/lastmile_qr_scan", "ios": "https://dc.lft.to/lastmile_qr_scan"}, "fusion_lon": 0.0, "name": "b35d8a4b9289f8633aa5bb57b993f362", "lon": -76.90078183333333, "is_disabled": 0, "type": "electric_bike"}, {"bike_id": "85514bbc845e7b1de3207e70585e0942", "lat": 38.90563983333333, "is_reserved": 0, "fusion_lat": 0.0, "rental_uris": {"android": "https://dc.lft.to/lastmile_qr_scan", "ios": "https://dc.lft.to/lastmile_qr_scan"}, "fusion_lon": 0.0, "name": "85514bbc845e7b1de3207e70585e0942", "lon": -77.02731533333333, "is_disabled": 0, "type": "electric_scooter"}, {"bike_id": "0fe112392692d54b07c976c231549884", "lat": 38.923247833333335, "is_reserved": 0, "fusion_lat": 0.0, "rental_uris": {"android": "https://dc.lft.to/lastmile_qr_scan", "ios": "https://dc.lft.to/lastmile_qr_scan"}, "fusion_lon": 0.0, "name": "0fe112392692d54b07c976c231549884", "lon": -77.02134783333334, "is_disabled": 0, "type": "electric_scooter"}, {"bike_id": "f9e4929c6da6301d0c26b16c7bcec91f", "lat": 38.90441533333333, "is_reserved": 0, "fusion_lat": 0.0, "rental_uris": {"android": "https://dc.lft.to/lastmile_qr_scan", "ios": "https://dc.lft.to/lastmile_qr_scan"}, "fusion_lon": 0.0, "name": "f9e4929c6da6301d0c26b16c7bcec91f", "lon": -77.0533395, "is_disabled": 0, "type": "electric_scooter"}, {"bike_id": "566deb3c74dd68b89ef1f7c40d65b267", "lat": 38.921488333333336, "is_reserved": 0, "fusion_lat": 0.0, "rental_uris": {"android": "https://dc.lft.to/lastmile_qr_scan", "ios": "https://dc.lft.to/lastmile_qr_scan"}, "fusion_lon": 0.0, "name": "566deb3c74dd68b89ef1f7c40d65b267", "lon": -77.03339966666667, "is_disabled": 0, "type": "electric_scooter"}, {"bike_id": "8dc529fae73bb2cb05d6ab0bea8954e9", "lat": 38.8624745, "is_reserved": 0, "fusion_lat": 0.0, "rental_uris": {"android": "https://dc.lft.to/lastmile_qr_scan", "ios": "https://dc.lft.to/lastmile_qr_scan"}, "fusion_lon": 0.0, "name": "8dc529fae73bb2cb05d6ab0bea8954e9", "lon": -76.99264466666666, "is_disabled": 0, "type": "electric_scooter"}, {"bike_id": "cc62ac11a2935896eac8641b8a17c0a8", "lat": 38.9099055, "is_reserved": 0, "fusion_lat": 0.0, "rental_uris": {"android": "https://dc.lft.to/lastmile_qr_scan", "ios": "https://dc.lft.to/lastmile_qr_scan"}, "fusion_lon": 0.0, "name": "cc62ac11a2935896eac8641b8a17c0a8", "lon": -77.0219375, "is_disabled": 0, "type": "electric_scooter"}, {"bike_id": "6bb4b58fb3cb97bea2bf0ecad839114b", "lat": 38.88438083333333, "is_reserved": 0, "fusion_lat": 0.0, "rental_uris": {"android": "https://dc.lft.to/lastmile_qr_scan", "ios": "https://dc.lft.to/lastmile_qr_scan"}, "fusion_lon": 0.0, "name": "6bb4b58fb3cb97bea2bf0ecad839114b", "lon": -77.00347833333333, "is_disabled": 0, "type": "electric_scooter"}, {"bike_id": "1a684adfafb4ed0b3d14b66580f12dad", "lat": 38.90320116666667, "is_reserved": 0, "fusion_lat": 0.0, "rental_uris": {"android": "https://dc.lft.to/lastmile_qr_scan", "ios": "https://dc.lft.to/lastmile_qr_scan"}, "fusion_lon": 0.0, "name": "1a684adfafb4ed0b3d14b66580f12dad", "lon": -77.0162185, "is_disabled": 0, "type": "electric_scooter"}, {"bike_id": "42016140cf5a9337595a88dfabb2d671", "lat": 38.9630295, "is_reserved": 0, "fusion_lat": 0.0, "rental_uris": {"android": "https://dc.lft.to/lastmile_qr_scan", "ios": "https://dc.lft.to/lastmile_qr_scan"}, "fusion_lon": 0.0, "name": "42016140cf5a9337595a88dfabb2d671", "lon": -77.01117133333334, "is_disabled": 0, "type": "electric_bike"}, {"bike_id": "bbe315ffdffa8feb4fc14775fc7a02a6", "lat": 38.90500933333333, "is_reserved": 0, "fusion_lat": 0.0, "rental_uris": {"android": "https://dc.lft.to/lastmile_qr_scan", "ios": "https://dc.lft.to/lastmile_qr_scan"}, "fusion_lon": 0.0, "name": "bbe315ffdffa8feb4fc14775fc7a02a6", "lon": -77.04485416666667, "is_disabled": 0, "type": "electric_scooter"}, {"bike_id": "51eaf11afb2cf18df07ba7e6728dab11", "lat": 38.91830383333333, "is_reserved": 0, "fusion_lat": 0.0, "rental_uris": {"android": "https://dc.lft.to/lastmile_qr_scan", "ios": "https://dc.lft.to/lastmile_qr_scan"}, "fusion_lon": 0.0, "name": "51eaf11afb2cf18df07ba7e6728dab11", "lon": -77.03214033333333, "is_disabled": 0, "type": "electric_scooter"}, {"bike_id": "b551a48a15d0f78b57e77285a6e04109", "lat": 38.9022295, "is_reserved": 0, "fusion_lat": 0.0, "rental_uris": {"android": "https://dc.lft.to/lastmile_qr_scan", "ios": "https://dc.lft.to/lastmile_qr_scan"}, "fusion_lon": 0.0, "name": "b551a48a15d0f78b57e77285a6e04109", "lon": -77.05997016666667, "is_disabled": 0, "type": "electric_scooter"}, {"bike_id": "18fe6cdf34f068c29bb812348dbacf50", "lat": 38.86246716666667, "is_reserved": 0, "fusion_lat": 0.0, "rental_uris": {"android": "https://dc.lft.to/lastmile_qr_scan", "ios": "https://dc.lft.to/lastmile_qr_scan"}, "fusion_lon": 0.0, "name": "18fe6cdf34f068c29bb812348dbacf50", "lon": -76.99502066666666, "is_disabled": 0, "type": "electric_scooter"}, {"bike_id": "46130614e4535e144664e0f8b4fe7a7f", "lat": 38.91865883333333, "is_reserved": 0, "fusion_lat": 0.0, "rental_uris": {"android": "https://dc.lft.to/lastmile_qr_scan", "ios": "https://dc.lft.to/lastmile_qr_scan"}, "fusion_lon": 0.0, "name": "46130614e4535e144664e0f8b4fe7a7f", "lon": -77.04065133333333, "is_disabled": 0, "type": "electric_scooter"}, {"bike_id": "c68e43abb095bf7ad0ccbd31da582a11", "lat": 38.93912183333333, "is_reserved": 0, "fusion_lat": 0.0, "rental_uris": {"android": "https://dc.lft.to/lastmile_qr_scan", "ios": "https://dc.lft.to/lastmile_qr_scan"}, "fusion_lon": 0.0, "name": "c68e43abb095bf7ad0ccbd31da582a11", "lon": -77.060449, "is_disabled": 0, "type": "electric_scooter"}, {"bike_id": "d520dc1b35e600c93fc9cb32c1a28563", "lat": 38.915818333333334, "is_reserved": 0, "fusion_lat": 0.0, "rental_uris": {"android": "https://dc.lft.to/lastmile_qr_scan", "ios": "https://dc.lft.to/lastmile_qr_scan"}, "fusion_lon": 0.0, "name": "d520dc1b35e600c93fc9cb32c1a28563", "lon": -77.03202183333333, "is_disabled": 0, "type": "electric_scooter"}, {"bike_id": "30974ee5f629ca98ed53ad4a1c186876", "lat": 38.900155166666664, "is_reserved": 0, "fusion_lat": 0.0, "rental_uris": {"android": "https://dc.lft.to/lastmile_qr_scan", "ios": "https://dc.lft.to/lastmile_qr_scan"}, "fusion_lon": 0.0, "name": "30974ee5f629ca98ed53ad4a1c186876", "lon": -77.01190583333333, "is_disabled": 0, "type": "electric_scooter"}, {"bike_id": "13495e679d0f5a28955584dae2e8c775", "lat": 38.86507183333333, "is_reserved": 0, "fusion_lat": 0.0, "rental_uris": {"android": "https://dc.lft.to/lastmile_qr_scan", "ios": "https://dc.lft.to/lastmile_qr_scan"}, "fusion_lon": 0.0, "name": "13495e679d0f5a28955584dae2e8c775", "lon": -76.990071, "is_disabled": 0, "type": "electric_scooter"}, {"bike_id": "3f0427b7e504873acf2886144f9b8eb7", "lat": 38.862512, "is_reserved": 0, "fusion_lat": 0.0, "rental_uris": {"android": "https://dc.lft.to/lastmile_qr_scan", "ios": "https://dc.lft.to/lastmile_qr_scan"}, "fusion_lon": 0.0, "name": "3f0427b7e504873acf2886144f9b8eb7", "lon": -76.99558116666667, "is_disabled": 0, "type": "electric_scooter"}, {"bike_id": "8269722bb16bfdef3e8cc6785d5a39c1", "lat": 38.92197916666667, "is_reserved": 0, "fusion_lat": 0.0, "rental_uris": {"android": "https://dc.lft.to/lastmile_qr_scan", "ios": "https://dc.lft.to/lastmile_qr_scan"}, "fusion_lon": 0.0, "name": "8269722bb16bfdef3e8cc6785d5a39c1", "lon": -77.040098, "is_disabled": 0, "type": "electric_scooter"}, {"bike_id": "f219add160b612bf344244ec356a4cab", "lat": 38.877202, "is_reserved": 0, "fusion_lat": 0.0, "rental_uris": {"android": "https://dc.lft.to/lastmile_qr_scan", "ios": "https://dc.lft.to/lastmile_qr_scan"}, "fusion_lon": 0.0, "name": "f219add160b612bf344244ec356a4cab", "lon": -77.0027125, "is_disabled": 0, "type": "electric_scooter"}, {"bike_id": "de75d3cb331f73965065bd5ec4ff6392", "lat": 38.887492333333334, "is_reserved": 0, "fusion_lat": 0.0, "rental_uris": {"android": "https://dc.lft.to/lastmile_qr_scan", "ios": "https://dc.lft.to/lastmile_qr_scan"}, "fusion_lon": 0.0, "name": "de75d3cb331f73965065bd5ec4ff6392", "lon": -76.90087016666666, "is_disabled": 0, "type": "electric_bike"}, {"bike_id": "49628b67fcb636c12e9e36db491ade51", "lat": 38.92647083333333, "is_reserved": 0, "fusion_lat": 0.0, "rental_uris": {"android": "https://dc.lft.to/lastmile_qr_scan", "ios": "https://dc.lft.to/lastmile_qr_scan"}, "fusion_lon": 0.0, "name": "49628b67fcb636c12e9e36db491ade51", "lon": -77.03544466666666, "is_disabled": 0, "type": "electric_scooter"}, {"bike_id": "c2b54dc711873a9f27639aaca967a177", "lat": 38.88708033333333, "is_reserved": 0, "fusion_lat": 0.0, "rental_uris": {"android": "https://dc.lft.to/lastmile_qr_scan", "ios": "https://dc.lft.to/lastmile_qr_scan"}, "fusion_lon": 0.0, "name": "c2b54dc711873a9f27639aaca967a177", "lon": -77.01375016666667, "is_disabled": 0, "type": "electric_scooter"}, {"bike_id": "fea90e4faad70a2660b9974191cf7c42", "lat": 38.905695333333334, "is_reserved": 0, "fusion_lat": 0.0, "rental_uris": {"android": "https://dc.lft.to/lastmile_qr_scan", "ios": "https://dc.lft.to/lastmile_qr_scan"}, "fusion_lon": 0.0, "name": "fea90e4faad70a2660b9974191cf7c42", "lon": -76.97624533333334, "is_disabled": 0, "type": "electric_scooter"}, {"bike_id": "1e622b12fd1ff0f14ce9e05bf6bb31d7", "lat": 38.89730483333334, "is_reserved": 0, "fusion_lat": 0.0, "rental_uris": {"android": "https://dc.lft.to/lastmile_qr_scan", "ios": "https://dc.lft.to/lastmile_qr_scan"}, "fusion_lon": 0.0, "name": "1e622b12fd1ff0f14ce9e05bf6bb31d7", "lon": -77.02166933333334, "is_disabled": 0, "type": "electric_scooter"}, {"bike_id": "284779d842d0455d91dbed8822206ecb", "lat": 38.912668333333336, "is_reserved": 0, "fusion_lat": 0.0, "rental_uris": {"android": "https://dc.lft.to/lastmile_qr_scan", "ios": "https://dc.lft.to/lastmile_qr_scan"}, "fusion_lon": 0.0, "name": "284779d842d0455d91dbed8822206ecb", "lon": -77.02213466666667, "is_disabled": 0, "type": "electric_scooter"}, {"bike_id": "172a06174f0fc6b4687719b0104614bf", "lat": 38.89927566666667, "is_reserved": 0, "fusion_lat": 0.0, "rental_uris": {"android": "https://dc.lft.to/lastmile_qr_scan", "ios": "https://dc.lft.to/lastmile_qr_scan"}, "fusion_lon": 0.0, "name": "172a06174f0fc6b4687719b0104614bf", "lon": -77.04006383333333, "is_disabled": 0, "type": "electric_scooter"}, {"bike_id": "4f9f3bb33ae983269fac21e295e7e31b", "lat": 38.89247816666666, "is_reserved": 0, "fusion_lat": 0.0, "rental_uris": {"android": "https://dc.lft.to/lastmile_qr_scan", "ios": "https://dc.lft.to/lastmile_qr_scan"}, "fusion_lon": 0.0, "name": "4f9f3bb33ae983269fac21e295e7e31b", "lon": -77.04879833333334, "is_disabled": 0, "type": "electric_scooter"}, {"bike_id": "d0e16cc0381c728b2c2c3a6166d1bc50", "lat": 38.90751083333333, "is_reserved": 0, "fusion_lat": 0.0, "rental_uris": {"android": "https://dc.lft.to/lastmile_qr_scan", "ios": "https://dc.lft.to/lastmile_qr_scan"}, "fusion_lon": 0.0, "name": "d0e16cc0381c728b2c2c3a6166d1bc50", "lon": -77.03202883333333, "is_disabled": 0, "type": "electric_scooter"}, {"bike_id": "ef6aaa5de5e5569509389f9ee8a47e5c", "lat": 38.9335675, "is_reserved": 0, "fusion_lat": 0.0, "rental_uris": {"android": "https://dc.lft.to/lastmile_qr_scan", "ios": "https://dc.lft.to/lastmile_qr_scan"}, "fusion_lon": 0.0, "name": "ef6aaa5de5e5569509389f9ee8a47e5c", "lon": -77.08577883333334, "is_disabled": 0, "type": "electric_scooter"}, {"bike_id": "f7fdfd30561e5cce6bd4c6b2578f96e8", "lat": 38.875041, "is_reserved": 0, "fusion_lat": 0.0, "rental_uris": {"android": "https://dc.lft.to/lastmile_qr_scan", "ios": "https://dc.lft.to/lastmile_qr_scan"}, "fusion_lon": 0.0, "name": "f7fdfd30561e5cce6bd4c6b2578f96e8", "lon": -77.0123255, "is_disabled": 0, "type": "electric_scooter"}, {"bike_id": "1b1897ecbd30a92fa65814e561e2c18b", "lat": 38.87864183333333, "is_reserved": 0, "fusion_lat": 0.0, "rental_uris": {"android": "https://dc.lft.to/lastmile_qr_scan", "ios": "https://dc.lft.to/lastmile_qr_scan"}, "fusion_lon": 0.0, "name": "1b1897ecbd30a92fa65814e561e2c18b", "lon": -77.0176555, "is_disabled": 0, "type": "electric_scooter"}, {"bike_id": "524c144ae84061a9d3e1bd30e459fdfb", "lat": 38.920725833333336, "is_reserved": 0, "fusion_lat": 0.0, "rental_uris": {"android": "https://dc.lft.to/lastmile_qr_scan", "ios": "https://dc.lft.to/lastmile_qr_scan"}, "fusion_lon": 0.0, "name": "524c144ae84061a9d3e1bd30e459fdfb", "lon": -77.023707, "is_disabled": 0, "type": "electric_scooter"}, {"bike_id": "699702f06bd3ac150f03d6ae6cc9bd7c", "lat": 38.9015055, "is_reserved": 0, "fusion_lat": 0.0, "rental_uris": {"android": "https://dc.lft.to/lastmile_qr_scan", "ios": "https://dc.lft.to/lastmile_qr_scan"}, "fusion_lon": 0.0, "name": "699702f06bd3ac150f03d6ae6cc9bd7c", "lon": -77.05915533333334, "is_disabled": 0, "type": "electric_scooter"}, {"bike_id": "0413bd9a0eba2482ccebe5bd901ebcd9", "lat": 38.917649833333336, "is_reserved": 0, "fusion_lat": 0.0, "rental_uris": {"android": "https://dc.lft.to/lastmile_qr_scan", "ios": "https://dc.lft.to/lastmile_qr_scan"}, "fusion_lon": 0.0, "name": "0413bd9a0eba2482ccebe5bd901ebcd9", "lon": -77.02957866666667, "is_disabled": 0, "type": "electric_scooter"}, {"bike_id": "e5bb70b5c1f7910803314151526d41d7", "lat": 38.865029166666666, "is_reserved": 0, "fusion_lat": 0.0, "rental_uris": {"android": "https://dc.lft.to/lastmile_qr_scan", "ios": "https://dc.lft.to/lastmile_qr_scan"}, "fusion_lon": 0.0, "name": "e5bb70b5c1f7910803314151526d41d7", "lon": -76.9900855, "is_disabled": 0, "type": "electric_scooter"}, {"bike_id": "849cd0b5e8a731e2be40e1905437ce31", "lat": 38.80905716666667, "is_reserved": 0, "fusion_lat": 0.0, "rental_uris": {"android": "https://dc.lft.to/lastmile_qr_scan", "ios": "https://dc.lft.to/lastmile_qr_scan"}, "fusion_lon": 0.0, "name": "849cd0b5e8a731e2be40e1905437ce31", "lon": -77.086577, "is_disabled": 0, "type": "electric_bike"}, {"bike_id": "69c14b180bf6560fa27e95663fce3e97", "lat": 38.89235266666667, "is_reserved": 0, "fusion_lat": 0.0, "rental_uris": {"android": "https://dc.lft.to/lastmile_qr_scan", "ios": "https://dc.lft.to/lastmile_qr_scan"}, "fusion_lon": 0.0, "name": "69c14b180bf6560fa27e95663fce3e97", "lon": -76.95327, "is_disabled": 0, "type": "electric_scooter"}, {"bike_id": "e72dbed1020bb8308df14b5e89091826", "lat": 38.900954, "is_reserved": 0, "fusion_lat": 0.0, "rental_uris": {"android": "https://dc.lft.to/lastmile_qr_scan", "ios": "https://dc.lft.to/lastmile_qr_scan"}, "fusion_lon": 0.0, "name": "e72dbed1020bb8308df14b5e89091826", "lon": -76.98345516666667, "is_disabled": 0, "type": "electric_scooter"}, {"bike_id": "6cda76eee6dd13890852b68eb68f4797", "lat": 38.902718666666665, "is_reserved": 0, "fusion_lat": 0.0, "rental_uris": {"android": "https://dc.lft.to/lastmile_qr_scan", "ios": "https://dc.lft.to/lastmile_qr_scan"}, "fusion_lon": 0.0, "name": "6cda76eee6dd13890852b68eb68f4797", "lon": -77.03959666666667, "is_disabled": 0, "type": "electric_scooter"}, {"bike_id": "ec8a150320bc822ca1a2ccf8fba4bab8", "lat": 38.88464966666667, "is_reserved": 0, "fusion_lat": 0.0, "rental_uris": {"android": "https://dc.lft.to/lastmile_qr_scan", "ios": "https://dc.lft.to/lastmile_qr_scan"}, "fusion_lon": 0.0, "name": "ec8a150320bc822ca1a2ccf8fba4bab8", "lon": -77.00051816666667, "is_disabled": 0, "type": "electric_scooter"}, {"bike_id": "66456c1fcb4ce4022d827f18e67eda82", "lat": 38.898625833333334, "is_reserved": 0, "fusion_lat": 0.0, "rental_uris": {"android": "https://dc.lft.to/lastmile_qr_scan", "ios": "https://dc.lft.to/lastmile_qr_scan"}, "fusion_lon": 0.0, "name": "66456c1fcb4ce4022d827f18e67eda82", "lon": -77.01245966666667, "is_disabled": 0, "type": "electric_scooter"}, {"bike_id": "60fadc212c8838e598251876a0e44f34", "lat": 38.8999555, "is_reserved": 0, "fusion_lat": 0.0, "rental_uris": {"android": "https://dc.lft.to/lastmile_qr_scan", "ios": "https://dc.lft.to/lastmile_qr_scan"}, "fusion_lon": 0.0, "name": "60fadc212c8838e598251876a0e44f34", "lon": -77.02711816666667, "is_disabled": 0, "type": "electric_scooter"}, {"bike_id": "00786500f16577250628e5fb26b8862a", "lat": 38.918066, "is_reserved": 0, "fusion_lat": 0.0, "rental_uris": {"android": "https://dc.lft.to/lastmile_qr_scan", "ios": "https://dc.lft.to/lastmile_qr_scan"}, "fusion_lon": 0.0, "name": "00786500f16577250628e5fb26b8862a", "lon": -77.03075266666667, "is_disabled": 0, "type": "electric_scooter"}, {"bike_id": "debd9e2406ca553d1e271a38cf131dff", "lat": 38.9061605, "is_reserved": 0, "fusion_lat": 0.0, "rental_uris": {"android": "https://dc.lft.to/lastmile_qr_scan", "ios": "https://dc.lft.to/lastmile_qr_scan"}, "fusion_lon": 0.0, "name": "debd9e2406ca553d1e271a38cf131dff", "lon": -77.04874783333334, "is_disabled": 0, "type": "electric_scooter"}, {"bike_id": "226164b8c161712b3d7d22583868f0f8", "lat": 38.90299266666667, "is_reserved": 0, "fusion_lat": 0.0, "rental_uris": {"android": "https://dc.lft.to/lastmile_qr_scan", "ios": "https://dc.lft.to/lastmile_qr_scan"}, "fusion_lon": 0.0, "name": "226164b8c161712b3d7d22583868f0f8", "lon": -77.046976, "is_disabled": 0, "type": "electric_scooter"}, {"bike_id": "f7d30ee5b6d53fe1e5ceb2d90ffdbd91", "lat": 38.896990833333334, "is_reserved": 0, "fusion_lat": 0.0, "rental_uris": {"android": "https://dc.lft.to/lastmile_qr_scan", "ios": "https://dc.lft.to/lastmile_qr_scan"}, "fusion_lon": 0.0, "name": "f7d30ee5b6d53fe1e5ceb2d90ffdbd91", "lon": -77.0282875, "is_disabled": 0, "type": "electric_scooter"}, {"bike_id": "2de9b086d6dd8e767c08b1eb98538269", "lat": 38.89654766666666, "is_reserved": 0, "fusion_lat": 0.0, "rental_uris": {"android": "https://dc.lft.to/lastmile_qr_scan", "ios": "https://dc.lft.to/lastmile_qr_scan"}, "fusion_lon": 0.0, "name": "2de9b086d6dd8e767c08b1eb98538269", "lon": -77.027043, "is_disabled": 0, "type": "electric_scooter"}, {"bike_id": "b8786bf8d206ad2d5ca07a5413f15440", "lat": 38.9400035, "is_reserved": 0, "fusion_lat": 0.0, "rental_uris": {"android": "https://dc.lft.to/lastmile_qr_scan", "ios": "https://dc.lft.to/lastmile_qr_scan"}, "fusion_lon": 0.0, "name": "b8786bf8d206ad2d5ca07a5413f15440", "lon": -77.03806333333333, "is_disabled": 0, "type": "electric_scooter"}, {"bike_id": "d9605eab31697ff9189d698369b1122d", "lat": 38.92233433333333, "is_reserved": 0, "fusion_lat": 0.0, "rental_uris": {"android": "https://dc.lft.to/lastmile_qr_scan", "ios": "https://dc.lft.to/lastmile_qr_scan"}, "fusion_lon": 0.0, "name": "d9605eab31697ff9189d698369b1122d", "lon": -77.0437655, "is_disabled": 0, "type": "electric_scooter"}, {"bike_id": "005a6cc548aa65906bcafba57daf53fe", "lat": 38.89656866666667, "is_reserved": 0, "fusion_lat": 0.0, "rental_uris": {"android": "https://dc.lft.to/lastmile_qr_scan", "ios": "https://dc.lft.to/lastmile_qr_scan"}, "fusion_lon": 0.0, "name": "005a6cc548aa65906bcafba57daf53fe", "lon": -77.05024483333334, "is_disabled": 0, "type": "electric_scooter"}, {"bike_id": "6ca195e19bce56f20e33b44cb06b1d0e", "lat": 38.8975075, "is_reserved": 0, "fusion_lat": 0.0, "rental_uris": {"android": "https://dc.lft.to/lastmile_qr_scan", "ios": "https://dc.lft.to/lastmile_qr_scan"}, "fusion_lon": 0.0, "name": "6ca195e19bce56f20e33b44cb06b1d0e", "lon": -77.02739116666666, "is_disabled": 0, "type": "electric_scooter"}, {"bike_id": "1eb091489a65460fd99b2bfe748ea856", "lat": 38.92217133333333, "is_reserved": 0, "fusion_lat": 0.0, "rental_uris": {"android": "https://dc.lft.to/lastmile_qr_scan", "ios": "https://dc.lft.to/lastmile_qr_scan"}, "fusion_lon": 0.0, "name": "1eb091489a65460fd99b2bfe748ea856", "lon": -77.01815516666667, "is_disabled": 0, "type": "electric_scooter"}, {"bike_id": "4c2d250fe04d1febe65512b54022f5fe", "lat": 38.90627216666667, "is_reserved": 0, "fusion_lat": 0.0, "rental_uris": {"android": "https://dc.lft.to/lastmile_qr_scan", "ios": "https://dc.lft.to/lastmile_qr_scan"}, "fusion_lon": 0.0, "name": "4c2d250fe04d1febe65512b54022f5fe", "lon": -77.04884166666666, "is_disabled": 0, "type": "electric_scooter"}, {"bike_id": "55edbd71eea085a6c2c13535e25f0d97", "lat": 38.9147, "is_reserved": 0, "fusion_lat": 0.0, "rental_uris": {"android": "https://dc.lft.to/lastmile_qr_scan", "ios": "https://dc.lft.to/lastmile_qr_scan"}, "fusion_lon": 0.0, "name": "55edbd71eea085a6c2c13535e25f0d97", "lon": -77.04594083333333, "is_disabled": 0, "type": "electric_scooter"}, {"bike_id": "a91dbf0ed66ecd7748cf0318b33a607a", "lat": 38.90601, "is_reserved": 0, "fusion_lat": 0.0, "rental_uris": {"android": "https://dc.lft.to/lastmile_qr_scan", "ios": "https://dc.lft.to/lastmile_qr_scan"}, "fusion_lon": 0.0, "name": "a91dbf0ed66ecd7748cf0318b33a607a", "lon": -77.0270405, "is_disabled": 0, "type": "electric_scooter"}, {"bike_id": "bcdfa84919eb0231636efea9be99f522", "lat": 38.91562183333333, "is_reserved": 0, "fusion_lat": 0.0, "rental_uris": {"android": "https://dc.lft.to/lastmile_qr_scan", "ios": "https://dc.lft.to/lastmile_qr_scan"}, "fusion_lon": 0.0, "name": "bcdfa84919eb0231636efea9be99f522", "lon": -77.03578466666667, "is_disabled": 0, "type": "electric_scooter"}, {"bike_id": "ba6409aacbc42cd7d663e477e2692de1", "lat": 38.9262275, "is_reserved": 0, "fusion_lat": 0.0, "rental_uris": {"android": "https://dc.lft.to/lastmile_qr_scan", "ios": "https://dc.lft.to/lastmile_qr_scan"}, "fusion_lon": 0.0, "name": "ba6409aacbc42cd7d663e477e2692de1", "lon": -77.041998, "is_disabled": 0, "type": "electric_scooter"}, {"bike_id": "094e723cb2b19e211d3248080ec746bd", "lat": 38.902824333333335, "is_reserved": 0, "fusion_lat": 0.0, "rental_uris": {"android": "https://dc.lft.to/lastmile_qr_scan", "ios": "https://dc.lft.to/lastmile_qr_scan"}, "fusion_lon": 0.0, "name": "094e723cb2b19e211d3248080ec746bd", "lon": -77.03355783333333, "is_disabled": 0, "type": "electric_scooter"}, {"bike_id": "7e541fe1d13b460ccba7d9d659d94b68", "lat": 38.936501666666665, "is_reserved": 0, "fusion_lat": 0.0, "rental_uris": {"android": "https://dc.lft.to/lastmile_qr_scan", "ios": "https://dc.lft.to/lastmile_qr_scan"}, "fusion_lon": 0.0, "name": "7e541fe1d13b460ccba7d9d659d94b68", "lon": -77.03352483333333, "is_disabled": 0, "type": "electric_scooter"}, {"bike_id": "0f3c56eeb2504dc667d4ddde04d229c4", "lat": 38.89917633333334, "is_reserved": 0, "fusion_lat": 0.0, "rental_uris": {"android": "https://dc.lft.to/lastmile_qr_scan", "ios": "https://dc.lft.to/lastmile_qr_scan"}, "fusion_lon": 0.0, "name": "0f3c56eeb2504dc667d4ddde04d229c4", "lon": -76.93374566666667, "is_disabled": 0, "type": "electric_scooter"}, {"bike_id": "0afce009b74f5b030c9800e2e1db3822", "lat": 38.89220316666667, "is_reserved": 0, "fusion_lat": 0.0, "rental_uris": {"android": "https://dc.lft.to/lastmile_qr_scan", "ios": "https://dc.lft.to/lastmile_qr_scan"}, "fusion_lon": 0.0, "name": "0afce009b74f5b030c9800e2e1db3822", "lon": -77.04372733333334, "is_disabled": 0, "type": "electric_scooter"}, {"bike_id": "5efe74ed05ab60112c96d84181f358a0", "lat": 38.90648, "is_reserved": 0, "fusion_lat": 0.0, "rental_uris": {"android": "https://dc.lft.to/lastmile_qr_scan", "ios": "https://dc.lft.to/lastmile_qr_scan"}, "fusion_lon": 0.0, "name": "5efe74ed05ab60112c96d84181f358a0", "lon": -77.04861416666667, "is_disabled": 0, "type": "electric_scooter"}, {"bike_id": "a5906e4db6e4e1e0d4df359a06f47b4f", "lat": 38.890329666666666, "is_reserved": 0, "fusion_lat": 0.0, "rental_uris": {"android": "https://dc.lft.to/lastmile_qr_scan", "ios": "https://dc.lft.to/lastmile_qr_scan"}, "fusion_lon": 0.0, "name": "a5906e4db6e4e1e0d4df359a06f47b4f", "lon": -76.93755483333334, "is_disabled": 0, "type": "electric_scooter"}, {"bike_id": "8cc8fe213376fd51a2f4958722ea945f", "lat": 38.8787935, "is_reserved": 0, "fusion_lat": 0.0, "rental_uris": {"android": "https://dc.lft.to/lastmile_qr_scan", "ios": "https://dc.lft.to/lastmile_qr_scan"}, "fusion_lon": 0.0, "name": "8cc8fe213376fd51a2f4958722ea945f", "lon": -77.02231766666667, "is_disabled": 0, "type": "electric_scooter"}, {"bike_id": "cfe5eaf2bf7e0698bd741288c88cbe68", "lat": 38.81512816666667, "is_reserved": 0, "fusion_lat": 0.0, "rental_uris": {"android": "https://dc.lft.to/lastmile_qr_scan", "ios": "https://dc.lft.to/lastmile_qr_scan"}, "fusion_lon": 0.0, "name": "cfe5eaf2bf7e0698bd741288c88cbe68", "lon": -77.12659416666666, "is_disabled": 0, "type": "electric_bike"}, {"bike_id": "37b878cb439f89bb5b0897e33a00c580", "lat": 38.87310983333333, "is_reserved": 0, "fusion_lat": 0.0, "rental_uris": {"android": "https://dc.lft.to/lastmile_qr_scan", "ios": "https://dc.lft.to/lastmile_qr_scan"}, "fusion_lon": 0.0, "name": "37b878cb439f89bb5b0897e33a00c580", "lon": -77.00152533333333, "is_disabled": 0, "type": "electric_scooter"}, {"bike_id": "ca34ccd9d617774ddb90bad6aa721213", "lat": 38.9239235, "is_reserved": 0, "fusion_lat": 0.0, "rental_uris": {"android": "https://dc.lft.to/lastmile_qr_scan", "ios": "https://dc.lft.to/lastmile_qr_scan"}, "fusion_lon": 0.0, "name": "ca34ccd9d617774ddb90bad6aa721213", "lon": -77.04453566666666, "is_disabled": 0, "type": "electric_scooter"}, {"bike_id": "b82ffad551f699477ee71b2db44117a3", "lat": 38.8959755, "is_reserved": 0, "fusion_lat": 0.0, "rental_uris": {"android": "https://dc.lft.to/lastmile_qr_scan", "ios": "https://dc.lft.to/lastmile_qr_scan"}, "fusion_lon": 0.0, "name": "b82ffad551f699477ee71b2db44117a3", "lon": -77.00692883333333, "is_disabled": 0, "type": "electric_scooter"}, {"bike_id": "a7d230007c254c403371f0e0a7b4f06e", "lat": 38.796035, "is_reserved": 0, "fusion_lat": 0.0, "rental_uris": {"android": "https://dc.lft.to/lastmile_qr_scan", "ios": "https://dc.lft.to/lastmile_qr_scan"}, "fusion_lon": 0.0, "name": "a7d230007c254c403371f0e0a7b4f06e", "lon": -76.997449, "is_disabled": 0, "type": "electric_bike"}, {"bike_id": "8c3861462aa2913916834d372b230e2c", "lat": 38.89863783333333, "is_reserved": 0, "fusion_lat": 0.0, "rental_uris": {"android": "https://dc.lft.to/lastmile_qr_scan", "ios": "https://dc.lft.to/lastmile_qr_scan"}, "fusion_lon": 0.0, "name": "8c3861462aa2913916834d372b230e2c", "lon": -76.94637783333333, "is_disabled": 0, "type": "electric_scooter"}, {"bike_id": "82cadf31340dfbdcf8c56a61142a8242", "lat": 38.908250833333334, "is_reserved": 0, "fusion_lat": 0.0, "rental_uris": {"android": "https://dc.lft.to/lastmile_qr_scan", "ios": "https://dc.lft.to/lastmile_qr_scan"}, "fusion_lon": 0.0, "name": "82cadf31340dfbdcf8c56a61142a8242", "lon": -77.02201716666667, "is_disabled": 0, "type": "electric_scooter"},