{"data": {"bikes": [{"is_disabled": 0, "fusion_lon": 0.0, "fusion_lat": 0.0, "lat": 38.94079833333333, "type": "electric_scooter", "lon": -77.0614015, "bike_id": "d12028de5a54419dbb0db56f05be75c7", "rental_uris": {"android": "https://dc.lft.to/lastmile_qr_scan", "ios": "https://dc.lft.to/lastmile_qr_scan"}, "name": "d12028de5a54419dbb0db56f05be75c7", "is_reserved": 0}, {"is_disabled": 0, "fusion_lon": 0.0, "fusion_lat": 0.0, "lat": 38.86465166666667, "type": "electric_scooter", "lon": -76.996156, "bike_id": "05c25febc6a2c2b54098a9c364003226", "rental_uris": {"android": "https://dc.lft.to/lastmile_qr_scan", "ios": "https://dc.lft.to/lastmile_qr_scan"}, "name": "05c25febc6a2c2b54098a9c364003226", "is_reserved": 0}, {"is_disabled": 0, "fusion_lon": 0.0, "fusion_lat": 0.0, "lat": 38.880025, "type": "electric_scooter", "lon": -77.02424, "bike_id": "0feef9a0c94ff9c7cb53b33c2d6a8069", "rental_uris": {"android": "https://dc.lft.to/lastmile_qr_scan", "ios": "https://dc.lft.to/lastmile_qr_scan"}, "name": "0feef9a0c94ff9c7cb53b33c2d6a8069", "is_reserved": 0}, {"is_disabled": 0, "fusion_lon": 0.0, "fusion_lat": 0.0, "lat": 38.8749405, "type": "electric_scooter", "lon": -76.99796233333333, "bike_id": "961c26fd49aa2adb65bf8f248803d76a", "rental_uris": {"android": "https://dc.lft.to/lastmile_qr_scan", "ios": "https://dc.lft.to/lastmile_qr_scan"}, "name": "961c26fd49aa2adb65bf8f248803d76a", "is_reserved": 0}, {"is_disabled": 0, "fusion_lon": 0.0, "fusion_lat": 0.0, "lat": 38.91592883333333, "type": "electric_scooter", "lon": -77.02304833333334, "bike_id": "ec66887fb070bd1d960591f7b7c56edb", "rental_uris": {"android": "https://dc.lft.to/lastmile_qr_scan", "ios": "https://dc.lft.to/lastmile_qr_scan"}, "name": "ec66887fb070bd1d960591f7b7c56edb", "is_reserved": 0}, {"is_disabled": 0, "fusion_lon": 0.0, "fusion_lat": 0.0, "lat": 38.95213483333333, "type": "electric_scooter", "lon": -77.03630933333334, "bike_id": "4be08af155e5b127293a0da214708670", "rental_uris": {"android": "https://dc.lft.to/lastmile_qr_scan", "ios": "https://dc.lft.to/lastmile_qr_scan"}, "name": "4be08af155e5b127293a0da214708670", "is_reserved": 0}, {"is_disabled": 0, "fusion_lon": 0.0, "fusion_lat": 0.0, "lat": 38.9072765, "type": "electric_scooter", "lon": -77.02413466666667, "bike_id": "f3cab10bdfd149216e179158b126346b", "rental_uris": {"android": "https://dc.lft.to/lastmile_qr_scan", "ios": "https://dc.lft.to/lastmile_qr_scan"}, "name": "f3cab10bdfd149216e179158b126346b", "is_reserved": 0}, {"is_disabled": 0, "fusion_lon": 0.0, "fusion_lat": 0.0, "lat": 38.902569666666665, "type": "electric_scooter", "lon": -77.00014383333334, "bike_id": "0eddb98e179f8fdbae05dfcb3b3c45d7", "rental_uris": {"android": "https://dc.lft.to/lastmile_qr_scan", "ios": "https://dc.lft.to/lastmile_qr_scan"}, "name": "0eddb98e179f8fdbae05dfcb3b3c45d7", "is_reserved": 0}, {"is_disabled": 0, "fusion_lon": 0.0, "fusion_lat": 0.0, "lat": 38.9307085, "type": "electric_scooter", "lon": -77.03804083333333, "bike_id": "d3e53f085c827978eeaf3c43645ebeab", "rental_uris": {"android": "https://dc.lft.to/lastmile_qr_scan", "ios": "https://dc.lft.to/lastmile_qr_scan"}, "name": "d3e53f085c827978eeaf3c43645ebeab", "is_reserved": 0}, {"is_disabled": 0, "fusion_lon": 0.0, "fusion_lat": 0.0, "lat": 38.9072255, "type": "electric_scooter", "lon": -77.03436116666667, "bike_id": "47a238194f2d1e0ea94098f6bdb63a64", "rental_uris": {"android": "https://dc.lft.to/lastmile_qr_scan", "ios": "https://dc.lft.to/lastmile_qr_scan"}, "name": "47a238194f2d1e0ea94098f6bdb63a64", "is_reserved": 0}, {"is_disabled": 0, "fusion_lon": 0.0, "fusion_lat": 0.0, "lat": 38.96015, "type": "electric_scooter", "lon": -77.03313366666667, "bike_id": "46e89ce13f19f423fd993281e037f0aa", "rental_uris": {"android": "https://dc.lft.to/lastmile_qr_scan", "ios": "https://dc.lft.to/lastmile_qr_scan"}, "name": "46e89ce13f19f423fd993281e037f0aa", "is_reserved": 0}, {"is_disabled": 0, "fusion_lon": 0.0, "fusion_lat": 0.0, "lat": 38.9276455, "type": "electric_scooter", "lon": -77.0279185, "bike_id": "f056f5ef79d96a3563bc2f3c0ce4207a", "rental_uris": {"android": "https://dc.lft.to/lastmile_qr_scan", "ios": "https://dc.lft.to/lastmile_qr_scan"}, "name": "f056f5ef79d96a3563bc2f3c0ce4207a", "is_reserved": 0}, {"is_disabled": 0, "fusion_lon": 0.0, "fusion_lat": 0.0, "lat": 38.9181805, "type": "electric_scooter", "lon": -77.03134133333333, "bike_id": "9c8bc9c014e97d1615725a407f0e8d44", "rental_uris": {"android": "https://dc.lft.to/lastmile_qr_scan", "ios": "https://dc.lft.to/lastmile_qr_scan"}, "name": "9c8bc9c014e97d1615725a407f0e8d44", "is_reserved": 0}, {"is_disabled": 0, "fusion_lon": 0.0, "fusion_lat": 0.0, "lat": 38.862354833333335, "type": "electric_scooter", "lon": -76.9948745, "bike_id": "289bae685694ee4d4400b53b3e986bb2", "rental_uris": {"android": "https://dc.lft.to/lastmile_qr_scan", "ios": "https://dc.lft.to/lastmile_qr_scan"}, "name": "289bae685694ee4d4400b53b3e986bb2", "is_reserved": 0}, {"is_disabled": 0, "fusion_lon": 0.0, "fusion_lat": 0.0, "lat": 38.90952866666667, "type": "electric_scooter", "lon": -77.02184666666666, "bike_id": "0a7204c4d99efa8b534403c7e46a4ac8", "rental_uris": {"android": "https://dc.lft.to/lastmile_qr_scan", "ios": "https://dc.lft.to/lastmile_qr_scan"}, "name": "0a7204c4d99efa8b534403c7e46a4ac8", "is_reserved": 0}, {"is_disabled": 0, "fusion_lon": 0.0, "fusion_lat": 0.0, "lat": 38.915708, "type": "electric_scooter", "lon": -77.031902, "bike_id": "4a763754bec1b655d02b3b1f92daf3df", "rental_uris": {"android": "https://dc.lft.to/lastmile_qr_scan", "ios": "https://dc.lft.to/lastmile_qr_scan"}, "name": "4a763754bec1b655d02b3b1f92daf3df", "is_reserved": 0}, {"is_disabled": 0, "fusion_lon": 0.0, "fusion_lat": 0.0, "lat": 38.90977483333333, "type": "electric_scooter", "lon": -77.03845983333333, "bike_id": "be0137d3c091c76ab990822a22d19d12", "rental_uris": {"android": "https://dc.lft.to/lastmile_qr_scan", "ios": "https://dc.lft.to/lastmile_qr_scan"}, "name": "be0137d3c091c76ab990822a22d19d12", "is_reserved": 0}, {"is_disabled": 0, "fusion_lon": 0.0, "fusion_lat": 0.0, "lat": 38.84619416666666, "type": "electric_scooter", "lon": -76.99629166666666, "bike_id": "952d7797ab23d92986495aafaa9f4f8e", "rental_uris": {"android": "https://dc.lft.to/lastmile_qr_scan", "ios": "https://dc.lft.to/lastmile_qr_scan"}, "name": "952d7797ab23d92986495aafaa9f4f8e", "is_reserved": 0}, {"is_disabled": 0, "fusion_lon": 0.0, "fusion_lat": 0.0, "lat": 38.92439666666667, "type": "electric_scooter", "lon": -77.02614133333333, "bike_id": "1cfba76a11aa5ff128097bb7e3958591", "rental_uris": {"android": "https://dc.lft.to/lastmile_qr_scan", "ios": "https://dc.lft.to/lastmile_qr_scan"}, "name": "1cfba76a11aa5ff128097bb7e3958591", "is_reserved": 0}, {"is_disabled": 0, "fusion_lon": 0.0, "fusion_lat": 0.0, "lat": 38.92107583333333, "type": "electric_scooter", "lon": -77.01764983333334, "bike_id": "e7e60a08b68ca19e9a445c1aeaba2f67", "rental_uris": {"android": "https://dc.lft.to/lastmile_qr_scan", "ios": "https://dc.lft.to/lastmile_qr_scan"}, "name": "e7e60a08b68ca19e9a445c1aeaba2f67", "is_reserved": 0}, {"is_disabled": 0, "fusion_lon": 0.0, "fusion_lat": 0.0, "lat": 38.8551125, "type": "electric_bike", "lon": -76.9583445, "bike_id": "58d81eee97404113245f80f712479665", "rental_uris": {"android": "https://dc.lft.to/lastmile_qr_scan", "ios": "https://dc.lft.to/lastmile_qr_scan"}, "name": "58d81eee97404113245f80f712479665", "is_reserved": 0}, {"is_disabled": 0, "fusion_lon": 0.0, "fusion_lat": 0.0, "lat": 38.90785833333333, "type": "electric_scooter", "lon": -77.03188916666667, "bike_id": "e190262c6311df8bf35992a98e922449", "rental_uris": {"android": "https://dc.lft.to/lastmile_qr_scan", "ios": "https://dc.lft.to/lastmile_qr_scan"}, "name": "e190262c6311df8bf35992a98e922449", "is_reserved": 0}, {"is_disabled": 0, "fusion_lon": 0.0, "fusion_lat": 0.0, "lat": 38.915637, "type": "electric_scooter", "lon": -77.007671, "bike_id": "f3a9e2373138d30a1d4714e6ebf739e0", "rental_uris": {"android": "https://dc.lft.to/lastmile_qr_scan", "ios": "https://dc.lft.to/lastmile_qr_scan"}, "name": "f3a9e2373138d30a1d4714e6ebf739e0", "is_reserved": 0}, {"is_disabled": 0, "fusion_lon": 0.0, "fusion_lat": 0.0, "lat": 38.909622666666664, "type": "electric_scooter", "lon": -77.0157085, "bike_id": "b4bf147de823da9bb9027c9c4d3758f4", "rental_uris": {"android": "https://dc.lft.to/lastmile_qr_scan", "ios": "https://dc.lft.to/lastmile_qr_scan"}, "name": "b4bf147de823da9bb9027c9c4d3758f4", "is_reserved": 0}, {"is_disabled": 0, "fusion_lon": 0.0, "fusion_lat": 0.0, "lat": 38.897218, "type": "electric_scooter", "lon": -77.04792816666667, "bike_id": "ae28aa5130e153c4e5b489c83dfe5cb9", "rental_uris": {"android": "https://dc.lft.to/lastmile_qr_scan", "ios": "https://dc.lft.to/lastmile_qr_scan"}, "name": "ae28aa5130e153c4e5b489c83dfe5cb9", "is_reserved": 0}, {"is_disabled": 0, "fusion_lon": 0.0, "fusion_lat": 0.0, "lat": 38.924747333333336, "type": "electric_scooter", "lon": -77.0348195, "bike_id": "235ea3490c47ec87eced37286f01ca68", "rental_uris": {"android": "https://dc.lft.to/lastmile_qr_scan", "ios": "https://dc.lft.to/lastmile_qr_scan"}, "name": "235ea3490c47ec87eced37286f01ca68", "is_reserved": 0}, {"is_disabled": 0, "fusion_lon": 0.0, "fusion_lat": 0.0, "lat": 38.92756416666667, "type": "electric_scooter", "lon": -77.00590566666666, "bike_id": "6bddb604ca6a691f247af65fe0d4f18d", "rental_uris": {"android": "https://dc.lft.to/lastmile_qr_scan", "ios": "https://dc.lft.to/lastmile_qr_scan"}, "name": "6bddb604ca6a691f247af65fe0d4f18d", "is_reserved": 0}, {"is_disabled": 0, "fusion_lon": 0.0, "fusion_lat": 0.0, "lat": 38.885040833333335, "type": "electric_scooter", "lon": -76.99652233333333, "bike_id": "08fe9f028023383e740f0b6f57e65afb", "rental_uris": {"android": "https://dc.lft.to/lastmile_qr_scan", "ios": "https://dc.lft.to/lastmile_qr_scan"}, "name": "08fe9f028023383e740f0b6f57e65afb", "is_reserved": 0}, {"is_disabled": 0, "fusion_lon": 0.0, "fusion_lat": 0.0, "lat": 38.90393183333333, "type": "electric_scooter", "lon": -76.990054, "bike_id": "0b25b4baf846b868e7bc03cc75577cfc", "rental_uris": {"android": "https://dc.lft.to/lastmile_qr_scan", "ios": "https://dc.lft.to/lastmile_qr_scan"}, "name": "0b25b4baf846b868e7bc03cc75577cfc", "is_reserved": 0}, {"is_disabled": 0, "fusion_lon": 0.0, "fusion_lat": 0.0, "lat": 38.91935216666667, "type": "electric_scooter", "lon": -76.98075066666667, "bike_id": "8cc7907b8e511c23c15b91b2e5c29907", "rental_uris": {"android": "https://dc.lft.to/lastmile_qr_scan", "ios": "https://dc.lft.to/lastmile_qr_scan"}, "name": "8cc7907b8e511c23c15b91b2e5c29907", "is_reserved": 0}, {"is_disabled": 0, "fusion_lon": 0.0, "fusion_lat": 0.0, "lat": 38.92339416666667, "type": "electric_scooter", "lon": -77.04188166666667, "bike_id": "b942d5cae73e5d6f93f5eea06dc8a0e7", "rental_uris": {"android": "https://dc.lft.to/lastmile_qr_scan", "ios": "https://dc.lft.to/lastmile_qr_scan"}, "name": "b942d5cae73e5d6f93f5eea06dc8a0e7", "is_reserved": 0}, {"is_disabled": 0, "fusion_lon": 0.0, "fusion_lat": 0.0, "lat": 38.89481266666667, "type": "electric_scooter", "lon": -77.0228425, "bike_id": "e8209351fc70d137cb0fe13966e884ce", "rental_uris": {"android": "https://dc.lft.to/lastmile_qr_scan", "ios": "https://dc.lft.to/lastmile_qr_scan"}, "name": "e8209351fc70d137cb0fe13966e884ce", "is_reserved": 0}, {"is_disabled": 0, "fusion_lon": 0.0, "fusion_lat": 0.0, "lat": 38.9452525, "type": "electric_scooter", "lon": -77.02980233333334, "bike_id": "0f06e800779a06377cd9142d859d9638", "rental_uris": {"android": "https://dc.lft.to/lastmile_qr_scan", "ios": "https://dc.lft.to/lastmile_qr_scan"}, "name": "0f06e800779a06377cd9142d859d9638", "is_reserved": 0}, {"is_disabled": 0, "fusion_lon": 0.0, "fusion_lat": 0.0, "lat": 38.906851, "type": "electric_scooter", "lon": -77.03113183333333, "bike_id": "b8eb4fa99520233e2db86101e3540b88", "rental_uris": {"android": "https://dc.lft.to/lastmile_qr_scan", "ios": "https://dc.lft.to/lastmile_qr_scan"}, "name": "b8eb4fa99520233e2db86101e3540b88", "is_reserved": 0}, {"is_disabled": 0, "fusion_lon": 0.0, "fusion_lat": 0.0, "lat": 38.916912833333335, "type": "electric_scooter", "lon": -77.02989716666667, "bike_id": "aaeff3d68234dfdaff49e16ae1f971bc", "rental_uris": {"android": "https://dc.lft.to/lastmile_qr_scan", "ios": "https://dc.lft.to/lastmile_qr_scan"}, "name": "aaeff3d68234dfdaff49e16ae1f971bc", "is_reserved": 0}, {"is_disabled": 0, "fusion_lon": 0.0, "fusion_lat": 0.0, "lat": 38.88369316666667, "type": "electric_scooter", "lon": -76.9237645, "bike_id": "0e49a611ddaaffeae9a932c44516dc96", "rental_uris": {"android": "https://dc.lft.to/lastmile_qr_scan", "ios": "https://dc.lft.to/lastmile_qr_scan"}, "name": "0e49a611ddaaffeae9a932c44516dc96", "is_reserved": 0}, {"is_disabled": 0, "fusion_lon": 0.0, "fusion_lat": 0.0, "lat": 38.8996505, "type": "electric_scooter", "lon": -77.05568616666666, "bike_id": "a60943142b8c7452c657c22b12f6c6b1", "rental_uris": {"android": "https://dc.lft.to/lastmile_qr_scan", "ios": "https://dc.lft.to/lastmile_qr_scan"}, "name": "a60943142b8c7452c657c22b12f6c6b1", "is_reserved": 0}, {"is_disabled": 0, "fusion_lon": 0.0, "fusion_lat": 0.0, "lat": 38.918030333333334, "type": "electric_scooter", "lon": -77.03433916666667, "bike_id": "b935fcc6f7014df94bcc01f54d757024", "rental_uris": {"android": "https://dc.lft.to/lastmile_qr_scan", "ios": "https://dc.lft.to/lastmile_qr_scan"}, "name": "b935fcc6f7014df94bcc01f54d757024", "is_reserved": 0}, {"is_disabled": 0, "fusion_lon": 0.0, "fusion_lat": 0.0, "lat": 38.91624233333334, "type": "electric_scooter", "lon": -77.04084683333333, "bike_id": "de9f29f592d781afea8ca0565ccd5593", "rental_uris": {"android": "https://dc.lft.to/lastmile_qr_scan", "ios": "https://dc.lft.to/lastmile_qr_scan"}, "name": "de9f29f592d781afea8ca0565ccd5593", "is_reserved": 0}, {"is_disabled": 0, "fusion_lon": 0.0, "fusion_lat": 0.0, "lat": 38.923111666666664, "type": "electric_scooter", "lon": -77.03641666666667, "bike_id": "431edf8cccc563a90f5fa95a2553bef8", "rental_uris": {"android": "https://dc.lft.to/lastmile_qr_scan", "ios": "https://dc.lft.to/lastmile_qr_scan"}, "name": "431edf8cccc563a90f5fa95a2553bef8", "is_reserved": 0}, {"is_disabled": 0, "fusion_lon": 0.0, "fusion_lat": 0.0, "lat": 38.898263166666666, "type": "electric_scooter", "lon": -77.04329166666666, "bike_id": "976555dd68cf5914b6dacfba9fc8d2bb", "rental_uris": {"android": "https://dc.lft.to/lastmile_qr_scan", "ios": "https://dc.lft.to/lastmile_qr_scan"}, "name": "976555dd68cf5914b6dacfba9fc8d2bb", "is_reserved": 0}, {"is_disabled": 0, "fusion_lon": 0.0, "fusion_lat": 0.0, "lat": 38.920191, "type": "electric_scooter", "lon": -77.01871616666666, "bike_id": "4a9d1c53fbfe2db97dd7af83d0a7407b", "rental_uris": {"android": "https://dc.lft.to/lastmile_qr_scan", "ios": "https://dc.lft.to/lastmile_qr_scan"}, "name": "4a9d1c53fbfe2db97dd7af83d0a7407b", "is_reserved": 0}, {"is_disabled": 0, "fusion_lon": 0.0, "fusion_lat": 0.0, "lat": 38.8635995, "type": "electric_scooter", "lon": -76.99067816666667, "bike_id": "c3fddab477f95c4dd9630ca4b3966194", "rental_uris": {"android": "https://dc.lft.to/lastmile_qr_scan", "ios": "https://dc.lft.to/lastmile_qr_scan"}, "name": "c3fddab477f95c4dd9630ca4b3966194", "is_reserved": 0}, {"is_disabled": 0, "fusion_lon": 0.0, "fusion_lat": 0.0, "lat": 38.905812833333336, "type": "electric_scooter", "lon": -77.04873483333333, "bike_id": "501a4dbcc974cb287858aefa30b42852", "rental_uris": {"android": "https://dc.lft.to/lastmile_qr_scan", "ios": "https://dc.lft.to/lastmile_qr_scan"}, "name": "501a4dbcc974cb287858aefa30b42852", "is_reserved": 0}, {"is_disabled": 0, "fusion_lon": 0.0, "fusion_lat": 0.0, "lat": 38.901857, "type": "electric_scooter", "lon": -77.05023816666667, "bike_id": "abf789c883fc430730de0cbfc1767f99", "rental_uris": {"android": "https://dc.lft.to/lastmile_qr_scan", "ios": "https://dc.lft.to/lastmile_qr_scan"}, "name": "abf789c883fc430730de0cbfc1767f99", "is_reserved": 0}, {"is_disabled": 0, "fusion_lon": 0.0, "fusion_lat": 0.0, "lat": 38.93459816666667, "type": "electric_scooter", "lon": -77.073004, "bike_id": "c1390d25220928ae4d4bea51e60af3da", "rental_uris": {"android": "https://dc.lft.to/lastmile_qr_scan", "ios": "https://dc.lft.to/lastmile_qr_scan"}, "name": "c1390d25220928ae4d4bea51e60af3da", "is_reserved": 0}, {"is_disabled": 0, "fusion_lon": 0.0, "fusion_lat": 0.0, "lat": 38.874310333333334, "type": "electric_bike", "lon": -77.00885516666666, "bike_id": "f129385d1d590de869fa6cf347f39001", "rental_uris": {"android": "https://dc.lft.to/lastmile_qr_scan", "ios": "https://dc.lft.to/lastmile_qr_scan"}, "name": "f129385d1d590de869fa6cf347f39001", "is_reserved": 0}, {"is_disabled": 0, "fusion_lon": 0.0, "fusion_lat": 0.0, "lat": 38.89260916666667, "type": "electric_scooter", "lon": -76.94159183333333, "bike_id": "6fe951e0bfe03c47e039ca92b0b7ebf5", "rental_uris": {"android": "https://dc.lft.to/lastmile_qr_scan", "ios": "https://dc.lft.to/lastmile_qr_scan"}, "name": "6fe951e0bfe03c47e039ca92b0b7ebf5", "is_reserved": 0}, {"is_disabled": 0, "fusion_lon": 0.0, "fusion_lat": 0.0, "lat": 38.909492166666666, "type": "electric_scooter", "lon": -77.0152595, "bike_id": "f34defe9d30f16d9c4ed7718d8f9b38c", "rental_uris": {"android": "https://dc.lft.to/lastmile_qr_scan", "ios": "https://dc.lft.to/lastmile_qr_scan"}, "name": "f34defe9d30f16d9c4ed7718d8f9b38c", "is_reserved": 0}, {"is_disabled": 0, "fusion_lon": 0.0, "fusion_lat": 0.0, "lat": 38.89216916666667, "type": "electric_scooter", "lon": -77.02259216666667, "bike_id": "ba923dad8b0703de976d6f228db87253", "rental_uris": {"android": "https://dc.lft.to/lastmile_qr_scan", "ios": "https://dc.lft.to/lastmile_qr_scan"}, "name": "ba923dad8b0703de976d6f228db87253", "is_reserved": 0}, {"is_disabled": 0, "fusion_lon": 0.0, "fusion_lat": 0.0, "lat": 38.906515, "type": "electric_scooter", "lon": -77.02534866666667, "bike_id": "e5d3d5bf76db3a3f81698e8a8991b0ee", "rental_uris": {"android": "https://dc.lft.to/lastmile_qr_scan", "ios": "https://dc.lft.to/lastmile_qr_scan"}, "name": "e5d3d5bf76db3a3f81698e8a8991b0ee", "is_reserved": 0}, {"is_disabled": 0, "fusion_lon": 0.0, "fusion_lat": 0.0, "lat": 38.89355066666667, "type": "electric_scooter", "lon": -77.0222425, "bike_id": "12c1abdda7d7e12f3b8fc099c19d9f19", "rental_uris": {"android": "https://dc.lft.to/lastmile_qr_scan", "ios": "https://dc.lft.to/lastmile_qr_scan"}, "name": "12c1abdda7d7e12f3b8fc099c19d9f19", "is_reserved": 0}, {"is_disabled": 0, "fusion_lon": 0.0, "fusion_lat": 0.0, "lat": 38.923784, "type": "electric_scooter", "lon": -77.027594, "bike_id": "7b610cc7914c4927c4df0bd0068f82f0", "rental_uris": {"android": "https://dc.lft.to/lastmile_qr_scan", "ios": "https://dc.lft.to/lastmile_qr_scan"}, "name": "7b610cc7914c4927c4df0bd0068f82f0", "is_reserved": 0}, {"is_disabled": 0, "fusion_lon": 0.0, "fusion_lat": 0.0, "lat": 38.877607166666664, "type": "electric_scooter", "lon": -77.001335, "bike_id": "af65fa67ab34679bb1334b95d1195d17", "rental_uris": {"android": "https://dc.lft.to/lastmile_qr_scan", "ios": "https://dc.lft.to/lastmile_qr_scan"}, "name": "af65fa67ab34679bb1334b95d1195d17", "is_reserved": 0}, {"is_disabled": 0, "fusion_lon": 0.0, "fusion_lat": 0.0, "lat": 38.90270966666667, "type": "electric_scooter", "lon": -77.0365805, "bike_id": "0cbdea257816ec54a0ea0f4efcd2fa73", "rental_uris": {"android": "https://dc.lft.to/lastmile_qr_scan", "ios": "https://dc.lft.to/lastmile_qr_scan"}, "name": "0cbdea257816ec54a0ea0f4efcd2fa73", "is_reserved": 0}, {"is_disabled": 0, "fusion_lon": 0.0, "fusion_lat": 0.0, "lat": 38.89852166666667, "type": "electric_bike", "lon": -76.9318975, "bike_id": "c28b20ec875c2c2bdcffec34ac64b30d", "rental_uris": {"android": "https://dc.lft.to/lastmile_qr_scan", "ios": "https://dc.lft.to/lastmile_qr_scan"}, "name": "c28b20ec875c2c2bdcffec34ac64b30d", "is_reserved": 0}, {"is_disabled": 0, "fusion_lon": 0.0, "fusion_lat": 0.0, "lat": 38.925681166666664, "type": "electric_scooter", "lon": -77.08057366666667, "bike_id": "4ce40116835e3db57fe76f61a39642d9", "rental_uris": {"android": "https://dc.lft.to/lastmile_qr_scan", "ios": "https://dc.lft.to/lastmile_qr_scan"}, "name": "4ce40116835e3db57fe76f61a39642d9", "is_reserved": 0}, {"is_disabled": 0, "fusion_lon": 0.0, "fusion_lat": 0.0, "lat": 38.939642, "type": "electric_bike", "lon": -77.36095766666666, "bike_id": "02d395dee2675d285e9281fe8f503df6", "rental_uris": {"android": "https://dc.lft.to/lastmile_qr_scan", "ios": "https://dc.lft.to/lastmile_qr_scan"}, "name": "02d395dee2675d285e9281fe8f503df6", "is_reserved": 0}, {"is_disabled": 0, "fusion_lon": 0.0, "fusion_lat": 0.0, "lat": 38.92463, "type": "electric_scooter", "lon": -77.078671, "bike_id": "51a9e854d4bf20648523d46c13e3911b", "rental_uris": {"android": "https://dc.lft.to/lastmile_qr_scan", "ios": "https://dc.lft.to/lastmile_qr_scan"}, "name": "51a9e854d4bf20648523d46c13e3911b", "is_reserved": 0}, {"is_disabled": 0, "fusion_lon": 0.0, "fusion_lat": 0.0, "lat": 38.877564666666665, "type": "electric_bike", "lon": -76.97993866666667, "bike_id": "ce9159fdc171943f6d9645f446215649", "rental_uris": {"android": "https://dc.lft.to/lastmile_qr_scan", "ios": "https://dc.lft.to/lastmile_qr_scan"}, "name": "ce9159fdc171943f6d9645f446215649", "is_reserved": 0}, {"is_disabled": 0, "fusion_lon": 0.0, "fusion_lat": 0.0, "lat": 38.8995045, "type": "electric_scooter", "lon": -77.03917916666667, "bike_id": "c205bf5e4368334ab870a5c3c59a4d12", "rental_uris": {"android": "https://dc.lft.to/lastmile_qr_scan", "ios": "https://dc.lft.to/lastmile_qr_scan"}, "name": "c205bf5e4368334ab870a5c3c59a4d12", "is_reserved": 0}, {"is_disabled": 0, "fusion_lon": 0.0, "fusion_lat": 0.0, "lat": 38.9015045, "type": "electric_scooter", "lon": -77.05002416666666, "bike_id": "c27b322fe9465685a0a4052c2a166a8e", "rental_uris": {"android": "https://dc.lft.to/lastmile_qr_scan", "ios": "https://dc.lft.to/lastmile_qr_scan"}, "name": "c27b322fe9465685a0a4052c2a166a8e", "is_reserved": 0}, {"is_disabled": 0, "fusion_lon": 0.0, "fusion_lat": 0.0, "lat": 38.914655, "type": "electric_scooter", "lon": -76.9844545, "bike_id": "716cff9995880dce453e2559fd7bd6c6", "rental_uris": {"android": "https://dc.lft.to/lastmile_qr_scan", "ios": "https://dc.lft.to/lastmile_qr_scan"}, "name": "716cff9995880dce453e2559fd7bd6c6", "is_reserved": 0}, {"is_disabled": 0, "fusion_lon": 0.0, "fusion_lat": 0.0, "lat": 38.895229666666665, "type": "electric_scooter", "lon": -77.0485225, "bike_id": "e767253c300387bdcf97f333475b3462", "rental_uris": {"android": "https://dc.lft.to/lastmile_qr_scan", "ios": "https://dc.lft.to/lastmile_qr_scan"}, "name": "e767253c300387bdcf97f333475b3462", "is_reserved": 0}, {"is_disabled": 0, "fusion_lon": 0.0, "fusion_lat": 0.0, "lat": 38.905756333333336, "type": "electric_scooter", "lon": -77.05587516666667, "bike_id": "5dd0236474a17591f719326803f8b718", "rental_uris": {"android": "https://dc.lft.to/lastmile_qr_scan", "ios": "https://dc.lft.to/lastmile_qr_scan"}, "name": "5dd0236474a17591f719326803f8b718", "is_reserved": 0}, {"is_disabled": 0, "fusion_lon": 0.0, "fusion_lat": 0.0, "lat": 38.940783, "type": "electric_scooter", "lon": -77.02904516666666, "bike_id": "1dbfe67696722aff593d30e02625aae5", "rental_uris": {"android": "https://dc.lft.to/lastmile_qr_scan", "ios": "https://dc.lft.to/lastmile_qr_scan"}, "name": "1dbfe67696722aff593d30e02625aae5", "is_reserved": 0}, {"is_disabled": 0, "fusion_lon": 0.0, "fusion_lat": 0.0, "lat": 38.90732216666667, "type": "electric_scooter", "lon": -77.02968566666667, "bike_id": "bc8987f497eac8cccc01b0d8e6904496", "rental_uris": {"android": "https://dc.lft.to/lastmile_qr_scan", "ios": "https://dc.lft.to/lastmile_qr_scan"}, "name": "bc8987f497eac8cccc01b0d8e6904496", "is_reserved": 0}, {"is_disabled": 0, "fusion_lon": 0.0, "fusion_lat": 0.0, "lat": 38.92104066666667, "type": "electric_scooter", "lon": -77.0177225, "bike_id": "448f1ea2c6e01cfaaacff2ab045bfc0d", "rental_uris": {"android": "https://dc.lft.to/lastmile_qr_scan", "ios": "https://dc.lft.to/lastmile_qr_scan"}, "name": "448f1ea2c6e01cfaaacff2ab045bfc0d", "is_reserved": 0}, {"is_disabled": 0, "fusion_lon": 0.0, "fusion_lat": 0.0, "lat": 38.91800683333334, "type": "electric_scooter", "lon": -77.0239495, "bike_id": "2d842e3196647b021ea5e54cbe082d7b", "rental_uris": {"android": "https://dc.lft.to/lastmile_qr_scan", "ios": "https://dc.lft.to/lastmile_qr_scan"}, "name": "2d842e3196647b021ea5e54cbe082d7b", "is_reserved": 0}, {"is_disabled": 0, "fusion_lon": 0.0, "fusion_lat": 0.0, "lat": 38.91914366666666, "type": "electric_scooter", "lon": -77.02795283333333, "bike_id": "dad997575c2625b3468a8bbd1dc1476a", "rental_uris": {"android": "https://dc.lft.to/lastmile_qr_scan", "ios": "https://dc.lft.to/lastmile_qr_scan"}, "name": "dad997575c2625b3468a8bbd1dc1476a", "is_reserved": 0}, {"is_disabled": 0, "fusion_lon": 0.0, "fusion_lat": 0.0, "lat": 38.91477583333333, "type": "electric_scooter", "lon": -77.03182166666667, "bike_id": "ddb6b11769775f70b3ed58b898f3be1e", "rental_uris": {"android": "https://dc.lft.to/lastmile_qr_scan", "ios": "https://dc.lft.to/lastmile_qr_scan"}, "name": "ddb6b11769775f70b3ed58b898f3be1e", "is_reserved": 0}, {"is_disabled": 0, "fusion_lon": 0.0, "fusion_lat": 0.0, "lat": 38.897453, "type": "electric_scooter", "lon": -77.02181583333333, "bike_id": "6960cf9b64f6409b31ab3d9b677238f9", "rental_uris": {"android": "https://dc.lft.to/lastmile_qr_scan", "ios": "https://dc.lft.to/lastmile_qr_scan"}, "name": "6960cf9b64f6409b31ab3d9b677238f9", "is_reserved": 0}, {"is_disabled": 0, "fusion_lon": 0.0, "fusion_lat": 0.0, "lat": 38.923648166666666, "type": "electric_scooter", "lon": -77.0438425, "bike_id": "3687efe5876cd5a99846e38ed93705a7", "rental_uris": {"android": "https://dc.lft.to/lastmile_qr_scan", "ios": "https://dc.lft.to/lastmile_qr_scan"}, "name": "3687efe5876cd5a99846e38ed93705a7", "is_reserved": 0}, {"is_disabled": 0, "fusion_lon": 0.0, "fusion_lat": 0.0, "lat": 38.907656, "type": "electric_scooter", "lon": -77.03204283333334, "bike_id": "f596c25c59a81abdf37f492ffd716b95", "rental_uris": {"android": "https://dc.lft.to/lastmile_qr_scan", "ios": "https://dc.lft.to/lastmile_qr_scan"}, "name": "f596c25c59a81abdf37f492ffd716b95", "is_reserved": 0}, {"is_disabled": 0, "fusion_lon": 0.0, "fusion_lat": 0.0, "lat": 38.90315966666667, "type": "electric_scooter", "lon": -77.03669433333333, "bike_id": "fe90f7604b7da78991c37ea3207663ca", "rental_uris": {"android": "https://dc.lft.to/lastmile_qr_scan", "ios": "https://dc.lft.to/lastmile_qr_scan"}, "name": "fe90f7604b7da78991c37ea3207663ca", "is_reserved": 0}, {"is_disabled": 0, "fusion_lon": 0.0, "fusion_lat": 0.0, "lat": 38.89586933333333, "type": "electric_scooter", "lon": -77.0231415, "bike_id": "75da503081f966d47b26a3fbf03bf83d", "rental_uris": {"android": "https://dc.lft.to/lastmile_qr_scan", "ios": "https://dc.lft.to/lastmile_qr_scan"}, "name": "75da503081f966d47b26a3fbf03bf83d", "is_reserved": 0}, {"is_disabled": 0, "fusion_lon": 0.0, "fusion_lat": 0.0, "lat": 38.863477833333334, "type": "electric_scooter", "lon": -76.98259883333333, "bike_id": "1aee786afc1d6f5e3f8d9d8c6571fd76", "rental_uris": {"android": "https://dc.lft.to/lastmile_qr_scan", "ios": "https://dc.lft.to/lastmile_qr_scan"}, "name": "1aee786afc1d6f5e3f8d9d8c6571fd76", "is_reserved": 0}, {"is_disabled": 0, "fusion_lon": 0.0, "fusion_lat": 0.0, "lat": 38.95626683333333, "type": "electric_scooter", "lon": -77.024581, "bike_id": "bc52127294a991cb22f28db6400d03ab", "rental_uris": {"android": "https://dc.lft.to/lastmile_qr_scan", "ios": "https://dc.lft.to/lastmile_qr_scan"}, "name": "bc52127294a991cb22f28db6400d03ab", "is_reserved": 0}, {"is_disabled": 0, "fusion_lon": 0.0, "fusion_lat": 0.0, "lat": 38.903578333333336, "type": "electric_scooter", "lon": -77.0072925, "bike_id": "f093f026088a44976b8f5857da46fff7", "rental_uris": {"android": "https://dc.lft.to/lastmile_qr_scan", "ios": "https://dc.lft.to/lastmile_qr_scan"}, "name": "f093f026088a44976b8f5857da46fff7", "is_reserved": 0}, {"is_disabled": 0, "fusion_lon": 0.0, "fusion_lat": 0.0, "lat": 38.915926666666664, "type": "electric_scooter", "lon": -77.0234585, "bike_id": "cf6267598f995f21ef25af52e32f6fe3", "rental_uris": {"android": "https://dc.lft.to/lastmile_qr_scan", "ios": "https://dc.lft.to/lastmile_qr_scan"}, "name": "cf6267598f995f21ef25af52e32f6fe3", "is_reserved": 0}, {"is_disabled": 0, "fusion_lon": 0.0, "fusion_lat": 0.0, "lat": 38.907538, "type": "electric_scooter", "lon": -77.0383895, "bike_id": "5d0495ffa311766f89d2feabd87b737a", "rental_uris": {"android": "https://dc.lft.to/lastmile_qr_scan", "ios": "https://dc.lft.to/lastmile_qr_scan"}, "name": "5d0495ffa311766f89d2feabd87b737a", "is_reserved": 0}, {"is_disabled": 0, "fusion_lon": 0.0, "fusion_lat": 0.0, "lat": 38.88005866666666, "type": "electric_scooter", "lon": -77.02419633333334, "bike_id": "c179edf76b4dde2f16f23e6eae34b8ee", "rental_uris": {"android": "https://dc.lft.to/lastmile_qr_scan", "ios": "https://dc.lft.to/lastmile_qr_scan"}, "name": "c179edf76b4dde2f16f23e6eae34b8ee", "is_reserved": 0}, {"is_disabled": 0, "fusion_lon": 0.0, "fusion_lat": 0.0, "lat": 38.91634066666667, "type": "electric_scooter", "lon": -77.04622183333333, "bike_id": "ce0330e04413613574e24ca45985854b", "rental_uris": {"android": "https://dc.lft.to/lastmile_qr_scan", "ios": "https://dc.lft.to/lastmile_qr_scan"}, "name": "ce0330e04413613574e24ca45985854b", "is_reserved": 0}, {"is_disabled": 0, "fusion_lon": 0.0, "fusion_lat": 0.0, "lat": 38.9180475, "type": "electric_scooter", "lon": -77.02446166666667, "bike_id": "c5ed1f899e5ead45e61609ccd229e4db", "rental_uris": {"android": "https://dc.lft.to/lastmile_qr_scan", "ios": "https://dc.lft.to/lastmile_qr_scan"}, "name": "c5ed1f899e5ead45e61609ccd229e4db", "is_reserved": 0}, {"is_disabled": 0, "fusion_lon": 0.0, "fusion_lat": 0.0, "lat": 38.924373833333334, "type": "electric_scooter", "lon": -77.040313, "bike_id": "d1cd62c6a45fe3977dffbc48fee5c15c", "rental_uris": {"android": "https://dc.lft.to/lastmile_qr_scan", "ios": "https://dc.lft.to/lastmile_qr_scan"}, "name": "d1cd62c6a45fe3977dffbc48fee5c15c", "is_reserved": 0}, {"is_disabled": 0, "fusion_lon": 0.0, "fusion_lat": 0.0, "lat": 38.93046966666667, "type": "electric_scooter", "lon": -77.036147, "bike_id": "077256689e6d6d410295143554889922", "rental_uris": {"android": "https://dc.lft.to/lastmile_qr_scan", "ios": "https://dc.lft.to/lastmile_qr_scan"}, "name": "077256689e6d6d410295143554889922", "is_reserved": 0}, {"is_disabled": 0, "fusion_lon": 0.0, "fusion_lat": 0.0, "lat": 38.920340333333336, "type": "electric_scooter", "lon": -77.02582966666667, "bike_id": "7fd9ba98248ec22cf0c590c8f3a78999", "rental_uris": {"android": "https://dc.lft.to/lastmile_qr_scan", "ios": "https://dc.lft.to/lastmile_qr_scan"}, "name": "7fd9ba98248ec22cf0c590c8f3a78999", "is_reserved": 0}, {"is_disabled": 0, "fusion_lon": 0.0, "fusion_lat": 0.0, "lat": 38.89740666666667, "type": "electric_scooter", "lon": -77.01002983333333, "bike_id": "d73bc71a39e0aadc59982db3f6c08e08", "rental_uris": {"android": "https://dc.lft.to/lastmile_qr_scan", "ios": "https://dc.lft.to/lastmile_qr_scan"}, "name": "d73bc71a39e0aadc59982db3f6c08e08", "is_reserved": 0}, {"is_disabled": 0, "fusion_lon": 0.0, "fusion_lat": 0.0, "lat": 38.9327455, "type": "electric_scooter", "lon": -76.996889, "bike_id": "fdc74dcc30992af0affbf26bad2ef25d", "rental_uris": {"android": "https://dc.lft.to/lastmile_qr_scan", "ios": "https://dc.lft.to/lastmile_qr_scan"}, "name": "fdc74dcc30992af0affbf26bad2ef25d", "is_reserved": 0}, {"is_disabled": 0, "fusion_lon": 0.0, "fusion_lat": 0.0, "lat": 38.89429916666667, "type": "electric_scooter", "lon": -77.0109195, "bike_id": "d2158f7d45fe81f73cde14c34dfc7312", "rental_uris": {"android": "https://dc.lft.to/lastmile_qr_scan", "ios": "https://dc.lft.to/lastmile_qr_scan"}, "name": "d2158f7d45fe81f73cde14c34dfc7312", "is_reserved": 0}, {"is_disabled": 0, "fusion_lon": 0.0, "fusion_lat": 0.0, "lat": 38.934675666666664, "type": "electric_scooter", "lon": -77.0688205, "bike_id": "24d0f9fe4e068f84af392531a50d905c", "rental_uris": {"android": "https://dc.lft.to/lastmile_qr_scan", "ios": "https://dc.lft.to/lastmile_qr_scan"}, "name": "24d0f9fe4e068f84af392531a50d905c", "is_reserved": 0}, {"is_disabled": 0, "fusion_lon": 0.0, "fusion_lat": 0.0, "lat": 38.97257966666667, "type": "electric_bike", "lon": -76.9916865, "bike_id": "4035b0f805f1b8cc514f94510d9be597", "rental_uris": {"android": "https://dc.lft.to/lastmile_qr_scan", "ios": "https://dc.lft.to/lastmile_qr_scan"}, "name": "4035b0f805f1b8cc514f94510d9be597", "is_reserved": 0}, {"is_disabled": 0, "fusion_lon": 0.0, "fusion_lat": 0.0, "lat": 38.8393145, "type": "electric_bike", "lon": -77.079035, "bike_id": "d0377956619020f7fece2d9e88eec74d", "rental_uris": {"android": "https://dc.lft.to/lastmile_qr_scan", "ios": "https://dc.lft.to/lastmile_qr_scan"}, "name": "d0377956619020f7fece2d9e88eec74d", "is_reserved": 0}, {"is_disabled": 0, "fusion_lon": 0.0, "fusion_lat": 0.0, "lat": 38.895115833333335, "type": "electric_scooter", "lon": -77.0109475, "bike_id": "c7eed6b2edf2fbb9c5622c8ef2695281", "rental_uris": {"android": "https://dc.lft.to/lastmile_qr_scan", "ios": "https://dc.lft.to/lastmile_qr_scan"}, "name": "c7eed6b2edf2fbb9c5622c8ef2695281", "is_reserved": 0}, {"is_disabled": 0, "fusion_lon": 0.0, "fusion_lat": 0.0, "lat": 38.9176385, "type": "electric_scooter", "lon": -77.04736616666666, "bike_id": "c4a0a5ee7f726404e1843b916399f304", "rental_uris": {"android": "https://dc.lft.to/lastmile_qr_scan", "ios": "https://dc.lft.to/lastmile_qr_scan"}, "name": "c4a0a5ee7f726404e1843b916399f304", "is_reserved": 0}, {"is_disabled": 0, "fusion_lon": 0.0, "fusion_lat": 0.0, "lat": 38.91913866666667, "type": "electric_scooter", "lon": -77.03397066666666, "bike_id": "f3bb392229083e4c63614cf2b7e4e8a2", "rental_uris": {"android": "https://dc.lft.to/lastmile_qr_scan", "ios": "https://dc.lft.to/lastmile_qr_scan"}, "name": "f3bb392229083e4c63614cf2b7e4e8a2", "is_reserved": 0}, {"is_disabled": 0, "fusion_lon": 0.0, "fusion_lat": 0.0, "lat": 38.985007, "type": "electric_bike", "lon": -76.982113, "bike_id": "ab76512b709d55d4ff56efd61300843f", "rental_uris": {"android": "https://dc.lft.to/lastmile_qr_scan", "ios": "https://dc.lft.to/lastmile_qr_scan"}, "name": "ab76512b709d55d4ff56efd61300843f", "is_reserved": 0}, {"is_disabled": 0, "fusion_lon": 0.0, "fusion_lat": 0.0, "lat": 38.9050195, "type": "electric_scooter", "lon": -77.02492133333334, "bike_id": "3a0e3259dd2a551b6e3a5b4ba9f29947", "rental_uris": {"android": "https://dc.lft.to/lastmile_qr_scan", "ios": "https://dc.lft.to/lastmile_qr_scan"}, "name": "3a0e3259dd2a551b6e3a5b4ba9f29947", "is_reserved": 0}, {"is_disabled": 0, "fusion_lon": 0.0, "fusion_lat": 0.0, "lat": 38.91810916666667, "type": "electric_scooter", "lon": -77.03220033333334, "bike_id": "711e53d1404ff4e2bfa1b9c8d5e70a1a", "rental_uris": {"android": "https://dc.lft.to/lastmile_qr_scan", "ios": "https://dc.lft.to/lastmile_qr_scan"}, "name": "711e53d1404ff4e2bfa1b9c8d5e70a1a", "is_reserved": 0}, {"is_disabled": 0, "fusion_lon": 0.0, "fusion_lat": 0.0, "lat": 38.903741833333335, "type": "electric_scooter", "lon": -77.032218, "bike_id": "f8d86f34a80096e43c4b0f02a0bf69a8", "rental_uris": {"android": "https://dc.lft.to/lastmile_qr_scan", "ios": "https://dc.lft.to/lastmile_qr_scan"}, "name": "f8d86f34a80096e43c4b0f02a0bf69a8", "is_reserved": 0}, {"is_disabled": 0, "fusion_lon": 0.0, "fusion_lat": 0.0, "lat": 38.9155915, "type": "electric_scooter", "lon": -77.01024116666666, "bike_id": "6a9fbafc7eed5325d9f7a5c9bfeb18a9", "rental_uris": {"android": "https://dc.lft.to/lastmile_qr_scan", "ios": "https://dc.lft.to/lastmile_qr_scan"}, "name": "6a9fbafc7eed5325d9f7a5c9bfeb18a9", "is_reserved": 0}, {"is_disabled": 0, "fusion_lon": 0.0, "fusion_lat": 0.0, "lat": 38.90910866666667, "type": "electric_scooter", "lon": -77.02302816666666, "bike_id": "6db07ee8d72e33e9a66b195009718fcf", "rental_uris": {"android": "https://dc.lft.to/lastmile_qr_scan", "ios": "https://dc.lft.to/lastmile_qr_scan"}, "name": "6db07ee8d72e33e9a66b195009718fcf", "is_reserved": 0}, {"is_disabled": 0, "fusion_lon": 0.0, "fusion_lat": 0.0, "lat": 38.9170695, "type": "electric_scooter", "lon": -77.00116883333334, "bike_id": "6f09ee0656639e3bd6e35584e79c36dd", "rental_uris": {"android": "https://dc.lft.to/lastmile_qr_scan", "ios": "https://dc.lft.to/lastmile_qr_scan"}, "name": "6f09ee0656639e3bd6e35584e79c36dd", "is_reserved": 0}, {"is_disabled": 0, "fusion_lon": 0.0, "fusion_lat": 0.0, "lat": 38.91795583333333, "type": "electric_scooter", "lon": -77.02397366666666, "bike_id": "1af46f72874f08243e7a9ee3e870703c", "rental_uris": {"android": "https://dc.lft.to/lastmile_qr_scan", "ios": "https://dc.lft.to/lastmile_qr_scan"}, "name": "1af46f72874f08243e7a9ee3e870703c", "is_reserved": 0}, {"is_disabled": 0, "fusion_lon": 0.0, "fusion_lat": 0.0, "lat": 38.99089433333333, "type": "electric_bike", "lon": -76.87495416666667, "bike_id": "616d880d7033f9af60513459803869c3", "rental_uris": {"android": "https://dc.lft.to/lastmile_qr_scan", "ios": "https://dc.lft.to/lastmile_qr_scan"}, "name": "616d880d7033f9af60513459803869c3", "is_reserved": 0}, {"is_disabled": 0, "fusion_lon": 0.0, "fusion_lat": 0.0, "lat": 38.89220916666667, "type": "electric_scooter", "lon": -77.0322235, "bike_id": "a4233c5123c9695a8edf84b6b6fb9838", "rental_uris": {"android": "https://dc.lft.to/lastmile_qr_scan", "ios": "https://dc.lft.to/lastmile_qr_scan"}, "name": "a4233c5123c9695a8edf84b6b6fb9838", "is_reserved": 0}, {"is_disabled": 0, "fusion_lon": 0.0, "fusion_lat": 0.0, "lat": 38.8896495, "type": "electric_bike", "lon": -76.94863166666667, "bike_id": "1dcafded01f00daa2b292d321e0e1022", "rental_uris": {"android": "https://dc.lft.to/lastmile_qr_scan", "ios": "https://dc.lft.to/lastmile_qr_scan"}, "name": "1dcafded01f00daa2b292d321e0e1022", "is_reserved": 0}, {"is_disabled": 0, "fusion_lon": 0.0, "fusion_lat": 0.0, "lat": 38.93292833333334, "type": "electric_scooter", "lon": -77.02391616666667, "bike_id": "3b68c671c052d696ef87217ef92b33ff", "rental_uris": {"android": "https://dc.lft.to/lastmile_qr_scan", "ios": "https://dc.lft.to/lastmile_qr_scan"}, "name": "3b68c671c052d696ef87217ef92b33ff", "is_reserved": 0}, {"is_disabled": 0, "fusion_lon": 0.0, "fusion_lat": 0.0, "lat": 38.97570866666667, "type": "electric_bike", "lon": -76.9640565, "bike_id": "e10441eff6df4cb9932b51182feeeff0", "rental_uris": {"android": "https://dc.lft.to/lastmile_qr_scan", "ios": "https://dc.lft.to/lastmile_qr_scan"}, "name": "e10441eff6df4cb9932b51182feeeff0", "is_reserved": 0}, {"is_disabled": 0, "fusion_lon": 0.0, "fusion_lat": 0.0, "lat": 38.90776616666667, "type": "electric_scooter", "lon": -77.03257966666666, "bike_id": "cc9c11c66616f9e3903e70bc368027fd", "rental_uris": {"android": "https://dc.lft.to/lastmile_qr_scan", "ios": "https://dc.lft.to/lastmile_qr_scan"}, "name": "cc9c11c66616f9e3903e70bc368027fd", "is_reserved": 0}, {"is_disabled": 0, "fusion_lon": 0.0, "fusion_lat": 0.0, "lat": 38.888247166666666, "type": "electric_bike", "lon": -77.12741483333333, "bike_id": "25be6cee722b2d75f532f13a34ba9a65", "rental_uris": {"android": "https://dc.lft.to/lastmile_qr_scan", "ios": "https://dc.lft.to/lastmile_qr_scan"}, "name": "25be6cee722b2d75f532f13a34ba9a65", "is_reserved": 0}, {"is_disabled": 0, "fusion_lon": 0.0, "fusion_lat": 0.0, "lat": 38.90827916666667, "type": "electric_bike", "lon": -76.94157666666666, "bike_id": "797370378d17b36cb8b09bdeabcdc0db", "rental_uris": {"android": "https://dc.lft.to/lastmile_qr_scan", "ios": "https://dc.lft.to/lastmile_qr_scan"}, "name": "797370378d17b36cb8b09bdeabcdc0db", "is_reserved": 0}, {"is_disabled": 0, "fusion_lon": 0.0, "fusion_lat": 0.0, "lat": 38.88737366666667, "type": "electric_scooter", "lon": -77.0227285, "bike_id": "ead946a9883dffad0e98bfb2b6f353aa", "rental_uris": {"android": "https://dc.lft.to/lastmile_qr_scan", "ios": "https://dc.lft.to/lastmile_qr_scan"}, "name": "ead946a9883dffad0e98bfb2b6f353aa", "is_reserved": 0}, {"is_disabled": 0, "fusion_lon": 0.0, "fusion_lat": 0.0, "lat": 38.919950166666666, "type": "electric_scooter", "lon": -77.0328665, "bike_id": "34aefbb21400dbd65c4ba95c3f06f9dc", "rental_uris": {"android": "https://dc.lft.to/lastmile_qr_scan", "ios": "https://dc.lft.to/lastmile_qr_scan"}, "name": "34aefbb21400dbd65c4ba95c3f06f9dc", "is_reserved": 0}, {"is_disabled": 0, "fusion_lon": 0.0, "fusion_lat": 0.0, "lat": 38.96048583333334, "type": "electric_scooter", "lon": -77.085717, "bike_id": "23b5b8b0a01761848fefffd0736e0089", "rental_uris": {"android": "https://dc.lft.to/lastmile_qr_scan", "ios": "https://dc.lft.to/lastmile_qr_scan"}, "name": "23b5b8b0a01761848fefffd0736e0089", "is_reserved": 0}, {"is_disabled": 0, "fusion_lon": 0.0, "fusion_lat": 0.0, "lat": 38.895527333333334, "type": "electric_scooter", "lon": -76.94877316666667, "bike_id": "9e95de938204bfb4d7fa8bca471dc914", "rental_uris": {"android": "https://dc.lft.to/lastmile_qr_scan", "ios": "https://dc.lft.to/lastmile_qr_scan"}, "name": "9e95de938204bfb4d7fa8bca471dc914", "is_reserved": 0}, {"is_disabled": 0, "fusion_lon": 0.0, "fusion_lat": 0.0, "lat": 38.86522516666667, "type": "electric_scooter", "lon": -76.989686, "bike_id": "2bcd1dc8a51a0de8f8e1bf2f5a67d7dc", "rental_uris": {"android": "https://dc.lft.to/lastmile_qr_scan", "ios": "https://dc.lft.to/lastmile_qr_scan"}, "name": "2bcd1dc8a51a0de8f8e1bf2f5a67d7dc", "is_reserved": 0}, {"is_disabled": 0, "fusion_lon": 0.0, "fusion_lat": 0.0, "lat": 38.901922, "type": "electric_scooter", "lon": -77.05029333333333, "bike_id": "94ce85d92a0da43f1f93bc4aa1cc8e68", "rental_uris": {"android": "https://dc.lft.to/lastmile_qr_scan", "ios": "https://dc.lft.to/lastmile_qr_scan"}, "name": "94ce85d92a0da43f1f93bc4aa1cc8e68", "is_reserved": 0}, {"is_disabled": 0, "fusion_lon": 0.0, "fusion_lat": 0.0, "lat": 38.893285, "type": "electric_scooter", "lon": -77.02126616666666, "bike_id": "4e61de8be952d95643243ff62fb7cc36", "rental_uris": {"android": "https://dc.lft.to/lastmile_qr_scan", "ios": "https://dc.lft.to/lastmile_qr_scan"}, "name": "4e61de8be952d95643243ff62fb7cc36", "is_reserved": 0}, {"is_disabled": 0, "fusion_lon": 0.0, "fusion_lat": 0.0, "lat": 38.93156533333333, "type": "electric_scooter", "lon": -77.041347, "bike_id": "0f5fa2d1f81a7093572388b7c2b4607b", "rental_uris": {"android": "https://dc.lft.to/lastmile_qr_scan", "ios": "https://dc.lft.to/lastmile_qr_scan"}, "name": "0f5fa2d1f81a7093572388b7c2b4607b", "is_reserved": 0}, {"is_disabled": 0, "fusion_lon": 0.0, "fusion_lat": 0.0, "lat": 38.903708333333334, "type": "electric_scooter", "lon": -77.039854, "bike_id": "967080adcc9678bec9da50e28c67a61f", "rental_uris": {"android": "https://dc.lft.to/lastmile_qr_scan", "ios": "https://dc.lft.to/lastmile_qr_scan"}, "name": "967080adcc9678bec9da50e28c67a61f", "is_reserved": 0}, {"is_disabled": 0, "fusion_lon": 0.0, "fusion_lat": 0.0, "lat": 38.908607333333336, "type": "electric_scooter", "lon": -77.030105, "bike_id": "d99bdaead5613ea0010a624da408027d", "rental_uris": {"android": "https://dc.lft.to/lastmile_qr_scan", "ios": "https://dc.lft.to/lastmile_qr_scan"}, "name": "d99bdaead5613ea0010a624da408027d", "is_reserved": 0}, {"is_disabled": 0, "fusion_lon": 0.0, "fusion_lat": 0.0, "lat": 39.02297566666667, "type": "electric_bike", "lon": -77.021025, "bike_id": "b0505458946b623fec0c28bd3deaf8e1", "rental_uris": {"android": "https://dc.lft.to/lastmile_qr_scan", "ios": "https://dc.lft.to/lastmile_qr_scan"}, "name": "b0505458946b623fec0c28bd3deaf8e1", "is_reserved": 0}, {"is_disabled": 0, "fusion_lon": 0.0, "fusion_lat": 0.0, "lat": 38.89841883333333, "type": "electric_scooter", "lon": -76.94497016666666, "bike_id": "84edd44017649bdd1f51eefb530e3213", "rental_uris": {"android": "https://dc.lft.to/lastmile_qr_scan", "ios": "https://dc.lft.to/lastmile_qr_scan"}, "name": "84edd44017649bdd1f51eefb530e3213", "is_reserved": 0}, {"is_disabled": 0, "fusion_lon": 0.0, "fusion_lat": 0.0, "lat": 38.912578833333335, "type": "electric_scooter", "lon": -77.03678716666667, "bike_id": "e8f0421b59e3e0fd8833fe3643087606", "rental_uris": {"android": "https://dc.lft.to/lastmile_qr_scan", "ios": "https://dc.lft.to/lastmile_qr_scan"}, "name": "e8f0421b59e3e0fd8833fe3643087606", "is_reserved": 0}, {"is_disabled": 0, "fusion_lon": 0.0, "fusion_lat": 0.0, "lat": 38.88878183333333, "type": "electric_bike", "lon": -77.02858716666667, "bike_id": "5528a3f39674c5cc378edc34a5d56418", "rental_uris": {"android": "https://dc.lft.to/lastmile_qr_scan", "ios": "https://dc.lft.to/lastmile_qr_scan"}, "name": "5528a3f39674c5cc378edc34a5d56418", "is_reserved": 0}, {"is_disabled": 0, "fusion_lon": 0.0, "fusion_lat": 0.0, "lat": 38.91340483333333, "type": "electric_scooter", "lon": -77.04861383333333, "bike_id": "8efa38bee32ce3a9f03adf331e6f9e4b", "rental_uris": {"android": "https://dc.lft.to/lastmile_qr_scan", "ios": "https://dc.lft.to/lastmile_qr_scan"}, "name": "8efa38bee32ce3a9f03adf331e6f9e4b", "is_reserved": 0}, {"is_disabled": 0, "fusion_lon": 0.0, "fusion_lat": 0.0, "lat": 38.95177666666667, "type": "electric_scooter", "lon": -77.05653716666667, "bike_id": "52d5ccf835300ce630c7e69768b0bc42", "rental_uris": {"android": "https://dc.lft.to/lastmile_qr_scan", "ios": "https://dc.lft.to/lastmile_qr_scan"}, "name": "52d5ccf835300ce630c7e69768b0bc42", "is_reserved": 0}, {"is_disabled": 0, "fusion_lon": 0.0, "fusion_lat": 0.0, "lat": 38.8287305, "type": "electric_bike", "lon": -77.1122045, "bike_id": "929564230b7196da77015dd12e7563cf", "rental_uris": {"android": "https://dc.lft.to/lastmile_qr_scan", "ios": "https://dc.lft.to/lastmile_qr_scan"}, "name": "929564230b7196da77015dd12e7563cf", "is_reserved": 0}, {"is_disabled": 0, "fusion_lon": 0.0, "fusion_lat": 0.0, "lat": 38.8319185, "type": "electric_bike", "lon": -77.07679966666667, "bike_id": "2a7ea4aea81af38bd1e485eb9793388d", "rental_uris": {"android": "https://dc.lft.to/lastmile_qr_scan", "ios": "https://dc.lft.to/lastmile_qr_scan"}, "name": "2a7ea4aea81af38bd1e485eb9793388d", "is_reserved": 0}, {"is_disabled": 0, "fusion_lon": 0.0, "fusion_lat": 0.0, "lat": 38.955571, "type": "electric_bike", "lon": -76.93544383333334, "bike_id": "ef997e4c66fbadbc81abeb888d7251a1", "rental_uris": {"android": "https://dc.lft.to/lastmile_qr_scan", "ios": "https://dc.lft.to/lastmile_qr_scan"}, "name": "ef997e4c66fbadbc81abeb888d7251a1", "is_reserved": 0}, {"is_disabled": 0, "fusion_lon": 0.0, "fusion_lat": 0.0, "lat": 38.909679, "type": "electric_scooter", "lon": -77.02288383333334, "bike_id": "320daf26bbe1e3ec502c3bdb813cd460", "rental_uris": {"android": "https://dc.lft.to/lastmile_qr_scan", "ios": "https://dc.lft.to/lastmile_qr_scan"}, "name": "320daf26bbe1e3ec502c3bdb813cd460", "is_reserved": 0}, {"is_disabled": 0, "fusion_lon": 0.0, "fusion_lat": 0.0, "lat": 38.925936666666665, "type": "electric_scooter", "lon": -77.05529416666667, "bike_id": "7fc95148c341f4a1a07184c658ee8e76", "rental_uris": {"android": "https://dc.lft.to/lastmile_qr_scan", "ios": "https://dc.lft.to/lastmile_qr_scan"}, "name": "7fc95148c341f4a1a07184c658ee8e76", "is_reserved": 0}, {"is_disabled": 0, "fusion_lon": 0.0, "fusion_lat": 0.0, "lat": 38.915606833333335, "type": "electric_scooter", "lon": -77.038079, "bike_id": "b00d9be2f92e2d0ca4f2ae83785b6058", "rental_uris": {"android": "https://dc.lft.to/lastmile_qr_scan", "ios": "https://dc.lft.to/lastmile_qr_scan"}, "name": "b00d9be2f92e2d0ca4f2ae83785b6058", "is_reserved": 0}, {"is_disabled": 0, "fusion_lon": 0.0, "fusion_lat": 0.0, "lat": 38.83317916666667, "type": "electric_scooter", "lon": -77.000108, "bike_id": "4f9d39342d615e57c27692237a114cee", "rental_uris": {"android": "https://dc.lft.to/lastmile_qr_scan", "ios": "https://dc.lft.to/lastmile_qr_scan"}, "name": "4f9d39342d615e57c27692237a114cee", "is_reserved": 0}, {"is_disabled": 0, "fusion_lon": 0.0, "fusion_lat": 0.0, "lat": 38.88672916666667, "type": "electric_scooter", "lon": -77.00200233333334, "bike_id": "1b532263841f5a71653e61183bc1f6b6", "rental_uris": {"android": "https://dc.lft.to/lastmile_qr_scan", "ios": "https://dc.lft.to/lastmile_qr_scan"}, "name": "1b532263841f5a71653e61183bc1f6b6", "is_reserved": 0}, {"is_disabled": 0, "fusion_lon": 0.0, "fusion_lat": 0.0, "lat": 38.87477283333333, "type": "electric_scooter", "lon": -77.0106995, "bike_id": "9c29db248193f26b86dbc91f93c4df19", "rental_uris": {"android": "https://dc.lft.to/lastmile_qr_scan", "ios": "https://dc.lft.to/lastmile_qr_scan"}, "name": "9c29db248193f26b86dbc91f93c4df19", "is_reserved": 0}, {"is_disabled": 0, "fusion_lon": 0.0, "fusion_lat": 0.0, "lat": 38.94195833333333, "type": "electric_scooter", "lon": -77.02412433333333, "bike_id": "9c0cc2cad5c87701270203b2dabd41b0", "rental_uris": {"android": "https://dc.lft.to/lastmile_qr_scan", "ios": "https://dc.lft.to/lastmile_qr_scan"}, "name": "9c0cc2cad5c87701270203b2dabd41b0", "is_reserved": 0}, {"is_disabled": 0, "fusion_lon": 0.0, "fusion_lat": 0.0, "lat": 38.92552083333333, "type": "electric_scooter", "lon": -77.02560333333334, "bike_id": "ca315bd85fe5a1c503b69dd5ff18a1b6", "rental_uris": {"android": "https://dc.lft.to/lastmile_qr_scan", "ios": "https://dc.lft.to/lastmile_qr_scan"}, "name": "ca315bd85fe5a1c503b69dd5ff18a1b6", "is_reserved": 0}, {"is_disabled": 0, "fusion_lon": 0.0, "fusion_lat": 0.0, "lat": 38.90669783333333, "type": "electric_scooter", "lon": -77.02709516666667, "bike_id": "ab789c1da002632e2bd70447ab6f7312", "rental_uris": {"android": "https://dc.lft.to/lastmile_qr_scan", "ios": "https://dc.lft.to/lastmile_qr_scan"}, "name": "ab789c1da002632e2bd70447ab6f7312", "is_reserved": 0}, {"is_disabled": 0, "fusion_lon": 0.0, "fusion_lat": 0.0, "lat": 38.905702166666664, "type": "electric_scooter", "lon": -77.04663933333333, "bike_id": "5c9ccc438f13dc11700e3db47afc4363", "rental_uris": {"android": "https://dc.lft.to/lastmile_qr_scan", "ios": "https://dc.lft.to/lastmile_qr_scan"}, "name": "5c9ccc438f13dc11700e3db47afc4363", "is_reserved": 0}, {"is_disabled": 0, "fusion_lon": 0.0, "fusion_lat": 0.0, "lat": 38.89476416666667, "type": "electric_scooter", "lon": -77.02199566666667, "bike_id": "8e79bff1cb28e97adbaf36fbf6e9e823", "rental_uris": {"android": "https://dc.lft.to/lastmile_qr_scan", "ios": "https://dc.lft.to/lastmile_qr_scan"}, "name": "8e79bff1cb28e97adbaf36fbf6e9e823", "is_reserved": 0}, {"is_disabled": 0, "fusion_lon": 0.0, "fusion_lat": 0.0, "lat": 38.9000565, "type": "electric_scooter", "lon": -77.03977966666666, "bike_id": "10b5dff14a757081c25de250b6c77c0a", "rental_uris": {"android": "https://dc.lft.to/lastmile_qr_scan", "ios": "https://dc.lft.to/lastmile_qr_scan"}, "name": "10b5dff14a757081c25de250b6c77c0a", "is_reserved": 0}, {"is_disabled": 0, "fusion_lon": 0.0, "fusion_lat": 0.0, "lat": 38.91260533333333, "type": "electric_scooter", "lon": -77.03681316666666, "bike_id": "6dda2503e1a0622ff4588b8e1876dfe4", "rental_uris": {"android": "https://dc.lft.to/lastmile_qr_scan", "ios": "https://dc.lft.to/lastmile_qr_scan"}, "name": "6dda2503e1a0622ff4588b8e1876dfe4", "is_reserved": 0}, {"is_disabled": 0, "fusion_lon": 0.0, "fusion_lat": 0.0, "lat": 38.90245783333334, "type": "electric_bike", "lon": -76.97014666666666, "bike_id": "546cefc5f550a40a689628753ab67b8e", "rental_uris": {"android": "https://dc.lft.to/lastmile_qr_scan", "ios": "https://dc.lft.to/lastmile_qr_scan"}, "name": "546cefc5f550a40a689628753ab67b8e", "is_reserved": 0}, {"is_disabled": 0, "fusion_lon": 0.0, "fusion_lat": 0.0, "lat": 38.905474, "type": "electric_scooter", "lon": -77.0271885, "bike_id": "6cff91779642890beea32f3bc377e8c4", "rental_uris": {"android": "https://dc.lft.to/lastmile_qr_scan", "ios": "https://dc.lft.to/lastmile_qr_scan"}, "name": "6cff91779642890beea32f3bc377e8c4", "is_reserved": 0}, {"is_disabled": 0, "fusion_lon": 0.0, "fusion_lat": 0.0, "lat": 38.89842316666667, "type": "electric_scooter", "lon": -77.0335015, "bike_id": "f39f580905fb6668d8587a4f3e355657", "rental_uris": {"android": "https://dc.lft.to/lastmile_qr_scan", "ios": "https://dc.lft.to/lastmile_qr_scan"}, "name": "f39f580905fb6668d8587a4f3e355657", "is_reserved": 0}, {"is_disabled": 0, "fusion_lon": 0.0, "fusion_lat": 0.0, "lat": 38.90713366666667, "type": "electric_scooter", "lon": -77.03253666666667, "bike_id": "97442ae6f44874fa0673e210eeb446dd", "rental_uris": {"android": "https://dc.lft.to/lastmile_qr_scan", "ios": "https://dc.lft.to/lastmile_qr_scan"}, "name": "97442ae6f44874fa0673e210eeb446dd", "is_reserved": 0}, {"is_disabled": 0, "fusion_lon": 0.0, "fusion_lat": 0.0, "lat": 38.8925925, "type": "electric_scooter", "lon": -77.03187833333334, "bike_id": "0d3f436d7964e611b3059d0d81b8dbba", "rental_uris": {"android": "https://dc.lft.to/lastmile_qr_scan", "ios": "https://dc.lft.to/lastmile_qr_scan"}, "name": "0d3f436d7964e611b3059d0d81b8dbba", "is_reserved": 0}, {"is_disabled": 0, "fusion_lon": 0.0, "fusion_lat": 0.0, "lat": 38.9299585, "type": "electric_scooter", "lon": -77.02181483333334, "bike_id": "7b25f12ece401072cc904c48a93059b0", "rental_uris": {"android": "https://dc.lft.to/lastmile_qr_scan", "ios": "https://dc.lft.to/lastmile_qr_scan"}, "name": "7b25f12ece401072cc904c48a93059b0", "is_reserved": 0}, {"is_disabled": 0, "fusion_lon": 0.0, "fusion_lat": 0.0, "lat": 38.922658, "type": "electric_scooter", "lon": -76.9939055, "bike_id": "1d120818f463389d62993ad27cc2fb34", "rental_uris": {"android": "https://dc.lft.to/lastmile_qr_scan", "ios": "https://dc.lft.to/lastmile_qr_scan"}, "name": "1d120818f463389d62993ad27cc2fb34", "is_reserved": 0}, {"is_disabled": 0, "fusion_lon": 0.0, "fusion_lat": 0.0, "lat": 38.9232785, "type": "electric_scooter", "lon": -77.03613133333333, "bike_id": "8bca400faef57375a7f05c16c94466ca", "rental_uris": {"android": "https://dc.lft.to/lastmile_qr_scan", "ios": "https://dc.lft.to/lastmile_qr_scan"}, "name": "8bca400faef57375a7f05c16c94466ca", "is_reserved": 0}, {"is_disabled": 0, "fusion_lon": 0.0, "fusion_lat": 0.0, "lat": 38.8484095, "type": "electric_bike", "lon": -77.080533, "bike_id": "25ebf73af1aa8377ae1b7b7bffb65792", "rental_uris": {"android": "https://dc.lft.to/lastmile_qr_scan", "ios": "https://dc.lft.to/lastmile_qr_scan"}, "name": "25ebf73af1aa8377ae1b7b7bffb65792", "is_reserved": 0}, {"is_disabled": 0, "fusion_lon": 0.0, "fusion_lat": 0.0, "lat": 38.90568966666667, "type": "electric_scooter", "lon": -77.04665133333333, "bike_id": "5185a9080b16bfe3771870bedac0cb36", "rental_uris": {"android": "https://dc.lft.to/lastmile_qr_scan", "ios": "https://dc.lft.to/lastmile_qr_scan"}, "name": "5185a9080b16bfe3771870bedac0cb36", "is_reserved": 0}, {"is_disabled": 0, "fusion_lon": 0.0, "fusion_lat": 0.0, "lat": 38.970488, "type": "electric_bike", "lon": -77.030814, "bike_id": "0a81624dd81214f6690057074304df3d", "rental_uris": {"android": "https://dc.lft.to/lastmile_qr_scan", "ios": "https://dc.lft.to/lastmile_qr_scan"}, "name": "0a81624dd81214f6690057074304df3d", "is_reserved": 0}, {"is_disabled": 0, "fusion_lon": 0.0, "fusion_lat": 0.0, "lat": 38.91726666666667, "type": "electric_scooter", "lon": -77.0417395, "bike_id": "e59b87ebb91c82d75ce90abd036125e4", "rental_uris": {"android": "https://dc.lft.to/lastmile_qr_scan", "ios": "https://dc.lft.to/lastmile_qr_scan"}, "name": "e59b87ebb91c82d75ce90abd036125e4", "is_reserved": 0}, {"is_disabled": 0, "fusion_lon": 0.0, "fusion_lat": 0.0, "lat": 38.9339815, "type": "electric_scooter", "lon": -77.02725916666667, "bike_id": "4551acca5fd1f1d7a8a9145c120335cf", "rental_uris": {"android": "https://dc.lft.to/lastmile_qr_scan", "ios": "https://dc.lft.to/lastmile_qr_scan"}, "name": "4551acca5fd1f1d7a8a9145c120335cf", "is_reserved": 0}, {"is_disabled": 0, "fusion_lon": 0.0, "fusion_lat": 0.0, "lat": 38.89515566666667, "type": "electric_scooter", "lon": -77.02822583333334, "bike_id": "e142a45c5dfa369ff70a707b5b3c7284", "rental_uris": {"android": "https://dc.lft.to/lastmile_qr_scan", "ios": "https://dc.lft.to/lastmile_qr_scan"}, "name": "e142a45c5dfa369ff70a707b5b3c7284", "is_reserved": 0}, {"is_disabled": 0, "fusion_lon": 0.0, "fusion_lat": 0.0, "lat": 38.90051666666667, "type": "electric_scooter", "lon": -77.03450133333334, "bike_id": "e876a9f3b7446ca417b9d51a56ef4819", "rental_uris": {"android": "https://dc.lft.to/lastmile_qr_scan", "ios": "https://dc.lft.to/lastmile_qr_scan"}, "name": "e876a9f3b7446ca417b9d51a56ef4819", "is_reserved": 0}, {"is_disabled": 0, "fusion_lon": 0.0, "fusion_lat": 0.0, "lat": 38.89671216666667, "type": "electric_scooter", "lon": -76.947153, "bike_id": "70d3800ce14f1c90d93f30aaf1078e23", "rental_uris": {"android": "https://dc.lft.to/lastmile_qr_scan", "ios": "https://dc.lft.to/lastmile_qr_scan"}, "name": "70d3800ce14f1c90d93f30aaf1078e23", "is_reserved": 0}, {"is_disabled": 0, "fusion_lon": 0.0, "fusion_lat": 0.0, "lat": 38.875748333333334, "type": "electric_scooter", "lon": -77.01988233333333, "bike_id": "1f49c6feada6f09a1c683aa29c99d2a5", "rental_uris": {"android": "https://dc.lft.to/lastmile_qr_scan", "ios": "https://dc.lft.to/lastmile_qr_scan"}, "name": "1f49c6feada6f09a1c683aa29c99d2a5", "is_reserved": 0}, {"is_disabled": 0, "fusion_lon": 0.0, "fusion_lat": 0.0, "lat": 38.90619433333333, "type": "electric_scooter", "lon": -77.02804516666667, "bike_id": "0b7497b73b9ccf8121494f06d1c20d5d", "rental_uris": {"android": "https://dc.lft.to/lastmile_qr_scan", "ios": "https://dc.lft.to/lastmile_qr_scan"}, "name": "0b7497b73b9ccf8121494f06d1c20d5d", "is_reserved": 0}, {"is_disabled": 0, "fusion_lon": 0.0, "fusion_lat": 0.0, "lat": 38.89366916666667, "type": "electric_scooter", "lon": -77.02264866666667, "bike_id": "9917e710a20f9c4c2d20299218d5c621", "rental_uris": {"android": "https://dc.lft.to/lastmile_qr_scan", "ios": "https://dc.lft.to/lastmile_qr_scan"}, "name": "9917e710a20f9c4c2d20299218d5c621", "is_reserved": 0}, {"is_disabled": 0, "fusion_lon": 0.0, "fusion_lat": 0.0, "lat": 38.91992316666666, "type": "electric_scooter", "lon": -77.03220783333333, "bike_id": "9c3823fe2b6227433ada7afca28c542c", "rental_uris": {"android": "https://dc.lft.to/lastmile_qr_scan", "ios": "https://dc.lft.to/lastmile_qr_scan"}, "name": "9c3823fe2b6227433ada7afca28c542c", "is_reserved": 0}, {"is_disabled": 0, "fusion_lon": 0.0, "fusion_lat": 0.0, "lat": 38.900249, "type": "electric_scooter", "lon": -77.0238025, "bike_id": "c5feb55eee6820ae95cc64e5275b4a7b", "rental_uris": {"android": "https://dc.lft.to/lastmile_qr_scan", "ios": "https://dc.lft.to/lastmile_qr_scan"}, "name": "c5feb55eee6820ae95cc64e5275b4a7b", "is_reserved": 0}, {"is_disabled": 0, "fusion_lon": 0.0, "fusion_lat": 0.0, "lat": 38.907138, "type": "electric_scooter", "lon": -77.03067866666666, "bike_id": "04dfbb5c92c5c0936a7f96771e08ce5c", "rental_uris": {"android": "https://dc.lft.to/lastmile_qr_scan", "ios": "https://dc.lft.to/lastmile_qr_scan"}, "name": "04dfbb5c92c5c0936a7f96771e08ce5c", "is_reserved": 0}, {"is_disabled": 0, "fusion_lon": 0.0, "fusion_lat": 0.0, "lat": 38.89642966666667, "type": "electric_scooter", "lon": -77.04351983333333, "bike_id": "88c448a681926e090cb922ef9df5012b", "rental_uris": {"android": "https://dc.lft.to/lastmile_qr_scan", "ios": "https://dc.lft.to/lastmile_qr_scan"}, "name": "88c448a681926e090cb922ef9df5012b", "is_reserved": 0}, {"is_disabled": 0, "fusion_lon": 0.0, "fusion_lat": 0.0, "lat": 38.90142083333333, "type": "electric_scooter", "lon": -77.04150766666666, "bike_id": "b95ea4439b115d722c1b26bedd30bd8f", "rental_uris": {"android": "https://dc.lft.to/lastmile_qr_scan", "ios": "https://dc.lft.to/lastmile_qr_scan"}, "name": "b95ea4439b115d722c1b26bedd30bd8f", "is_reserved": 0}, {"is_disabled": 0, "fusion_lon": 0.0, "fusion_lat": 0.0, "lat": 38.827242, "type": "electric_bike", "lon": -77.00861733333333, "bike_id": "6eeb2777a25a0c05cba92097630149b1", "rental_uris": {"android": "https://dc.lft.to/lastmile_qr_scan", "ios": "https://dc.lft.to/lastmile_qr_scan"}, "name": "6eeb2777a25a0c05cba92097630149b1", "is_reserved": 0}, {"is_disabled": 0, "fusion_lon": 0.0, "fusion_lat": 0.0, "lat": 38.8976135, "type": "electric_scooter", "lon": -77.02199633333333, "bike_id": "1b5e8f90bbecdee0d65c7e1f64ef95ea", "rental_uris": {"android": "https://dc.lft.to/lastmile_qr_scan", "ios": "https://dc.lft.to/lastmile_qr_scan"}, "name": "1b5e8f90bbecdee0d65c7e1f64ef95ea", "is_reserved": 0}, {"is_disabled": 0, "fusion_lon": 0.0, "fusion_lat": 0.0, "lat": 38.888622833333336, "type": "electric_scooter", "lon": -76.97737583333333, "bike_id": "e0858000a6b38e5bf99fa122abd66a21", "rental_uris": {"android": "https://dc.lft.to/lastmile_qr_scan", "ios": "https://dc.lft.to/lastmile_qr_scan"}, "name": "e0858000a6b38e5bf99fa122abd66a21", "is_reserved": 0}, {"is_disabled": 0, "fusion_lon": 0.0, "fusion_lat": 0.0, "lat": 38.909868, "type": "electric_scooter", "lon": -77.02866466666667, "bike_id": "a54556c89341dc3e41233c04c5cfc6bb", "rental_uris": {"android": "https://dc.lft.to/lastmile_qr_scan", "ios": "https://dc.lft.to/lastmile_qr_scan"}, "name": "a54556c89341dc3e41233c04c5cfc6bb", "is_reserved": 0}, {"is_disabled": 0, "fusion_lon": 0.0, "fusion_lat": 0.0, "lat": 38.89842933333333, "type": "electric_scooter", "lon": -77.03351883333333, "bike_id": "74da549bd561355f85b7807fee59629a", "rental_uris": {"android": "https://dc.lft.to/lastmile_qr_scan", "ios": "https://dc.lft.to/lastmile_qr_scan"}, "name": "74da549bd561355f85b7807fee59629a", "is_reserved": 0}, {"is_disabled": 0, "fusion_lon": 0.0, "fusion_lat": 0.0, "lat": 38.935314166666664, "type": "electric_scooter", "lon": -77.02380266666667, "bike_id": "fc50106b3a08d94306609a444c37b46a", "rental_uris": {"android": "https://dc.lft.to/lastmile_qr_scan", "ios": "https://dc.lft.to/lastmile_qr_scan"}, "name": "fc50106b3a08d94306609a444c37b46a", "is_reserved": 0}, {"is_disabled": 0, "fusion_lon": 0.0, "fusion_lat": 0.0, "lat": 38.91546816666666, "type": "electric_scooter", "lon": -77.041727, "bike_id": "a17f4228fc5540cf458a863cd2deb00a", "rental_uris": {"android": "https://dc.lft.to/lastmile_qr_scan", "ios": "https://dc.lft.to/lastmile_qr_scan"}, "name": "a17f4228fc5540cf458a863cd2deb00a", "is_reserved": 0}, {"is_disabled": 0, "fusion_lon": 0.0, "fusion_lat": 0.0, "lat": 38.894776, "type": "electric_scooter", "lon": -77.02196483333333, "bike_id": "7454a4849e52568be3bfcbdc9fe337ab", "rental_uris": {"android": "https://dc.lft.to/lastmile_qr_scan", "ios": "https://dc.lft.to/lastmile_qr_scan"}, "name": "7454a4849e52568be3bfcbdc9fe337ab", "is_reserved": 0}, {"is_disabled": 0, "fusion_lon": 0.0, "fusion_lat": 0.0, "lat": 38.90198133333333, "type": "electric_scooter", "lon": -77.03949666666666, "bike_id": "70da44622086ec627b7c709f060c2547", "rental_uris": {"android": "https://dc.lft.to/lastmile_qr_scan", "ios": "https://dc.lft.to/lastmile_qr_scan"}, "name": "70da44622086ec627b7c709f060c2547", "is_reserved": 0}, {"is_disabled": 0, "fusion_lon": 0.0, "fusion_lat": 0.0, "lat": 38.911988, "type": "electric_scooter", "lon": -76.98482183333333, "bike_id": "70395b5e251782f4fbb50cf43b95af9b", "rental_uris": {"android": "https://dc.lft.to/lastmile_qr_scan", "ios": "https://dc.lft.to/lastmile_qr_scan"}, "name": "70395b5e251782f4fbb50cf43b95af9b", "is_reserved": 0}, {"is_disabled": 0, "fusion_lon": 0.0, "fusion_lat": 0.0, "lat": 38.97059383333333, "type": "electric_bike", "lon": -76.96053066666667, "bike_id": "ee7a1152b91e9e78cd48f861bb9eac23", "rental_uris": {"android": "https://dc.lft.to/lastmile_qr_scan", "ios": "https://dc.lft.to/lastmile_qr_scan"}, "name": "ee7a1152b91e9e78cd48f861bb9eac23", "is_reserved": 0}, {"is_disabled": 0, "fusion_lon": 0.0, "fusion_lat": 0.0, "lat": 38.88753766666667, "type": "electric_scooter", "lon": -77.0022675, "bike_id": "b5255983c0f59bf9afaab40c290e6ebf", "rental_uris": {"android": "https://dc.lft.to/lastmile_qr_scan", "ios": "https://dc.lft.to/lastmile_qr_scan"}, "name": "b5255983c0f59bf9afaab40c290e6ebf", "is_reserved": 0}, {"is_disabled": 0, "fusion_lon": 0.0, "fusion_lat": 0.0, "lat": 38.948033333333335, "type": "electric_bike", "lon": -76.97214283333334, "bike_id": "b080e5c9ab8552e63f98802da9b7cab8", "rental_uris": {"android": "https://dc.lft.to/lastmile_qr_scan", "ios": "https://dc.lft.to/lastmile_qr_scan"}, "name": "b080e5c9ab8552e63f98802da9b7cab8", "is_reserved": 0}, {"is_disabled": 0, "fusion_lon": 0.0, "fusion_lat": 0.0, "lat": 38.90183, "type": "electric_scooter", "lon": -77.050266, "bike_id": "9d12b3ec31bad4acdb473043bbe03174", "rental_uris": {"android": "https://dc.lft.to/lastmile_qr_scan", "ios": "https://dc.lft.to/lastmile_qr_scan"}, "name": "9d12b3ec31bad4acdb473043bbe03174", "is_reserved": 0}, {"is_disabled": 0, "fusion_lon": 0.0, "fusion_lat": 0.0, "lat": 38.8850275, "type": "electric_scooter", "lon": -77.00331233333333, "bike_id": "f00bc974d9ba0612a241e64d3e59842c", "rental_uris": {"android": "https://dc.lft.to/lastmile_qr_scan", "ios": "https://dc.lft.to/lastmile_qr_scan"}, "name": "f00bc974d9ba0612a241e64d3e59842c", "is_reserved": 0}, {"is_disabled": 0, "fusion_lon": 0.0, "fusion_lat": 0.0, "lat": 38.924843833333334, "type": "electric_scooter", "lon": -77.02696833333333, "bike_id": "b4eb0e163ba972b492e8f60311c1db14", "rental_uris": {"android": "https://dc.lft.to/lastmile_qr_scan", "ios": "https://dc.lft.to/lastmile_qr_scan"}, "name": "b4eb0e163ba972b492e8f60311c1db14", "is_reserved": 0}, {"is_disabled": 0, "fusion_lon": 0.0, "fusion_lat": 0.0, "lat": 38.88568766666667, "type": "electric_scooter", "lon": -77.0006695, "bike_id": "c5e89ae8b988eb688f58ef47d5048999", "rental_uris": {"android": "https://dc.lft.to/lastmile_qr_scan", "ios": "https://dc.lft.to/lastmile_qr_scan"}, "name": "c5e89ae8b988eb688f58ef47d5048999", "is_reserved": 0}, {"is_disabled": 0, "fusion_lon": 0.0, "fusion_lat": 0.0, "lat": 38.901694666666664, "type": "electric_scooter", "lon": -76.9938125, "bike_id": "bdc91cf2d926c2182f59d134d9d1c9cf", "rental_uris": {"android": "https://dc.lft.to/lastmile_qr_scan", "ios": "https://dc.lft.to/lastmile_qr_scan"}, "name": "bdc91cf2d926c2182f59d134d9d1c9cf", "is_reserved": 0}, {"is_disabled": 0, "fusion_lon": 0.0, "fusion_lat": 0.0, "lat": 38.9173055, "type": "electric_scooter", "lon": -76.99180866666667, "bike_id": "825a2872c62965f0f1a21470eb645251", "rental_uris": {"android": "https://dc.lft.to/lastmile_qr_scan", "ios": "https://dc.lft.to/lastmile_qr_scan"}, "name": "825a2872c62965f0f1a21470eb645251", "is_reserved": 0}, {"is_disabled": 0, "fusion_lon": 0.0, "fusion_lat": 0.0, "lat": 38.87543866666667, "type": "electric_scooter", "lon": -77.0053765, "bike_id": "e701d55405f2d2e22d2946def2c0a0c4", "rental_uris": {"android": "https://dc.lft.to/lastmile_qr_scan", "ios": "https://dc.lft.to/lastmile_qr_scan"}, "name": "e701d55405f2d2e22d2946def2c0a0c4", "is_reserved": 0}, {"is_disabled": 0, "fusion_lon": 0.0, "fusion_lat": 0.0, "lat": 38.8952645, "type": "electric_scooter", "lon": -77.0283685, "bike_id": "12c0606447e825e1ad635a44739b7cc1", "rental_uris": {"android": "https://dc.lft.to/lastmile_qr_scan", "ios": "https://dc.lft.to/lastmile_qr_scan"}, "name": "12c0606447e825e1ad635a44739b7cc1", "is_reserved": 0}, {"is_disabled": 0, "fusion_lon": 0.0, "fusion_lat": 0.0, "lat": 38.952099, "type": "electric_scooter", "lon": -77.03631633333333, "bike_id": "e5016f4dce68b6ef954ccf829231b71e", "rental_uris": {"android": "https://dc.lft.to/lastmile_qr_scan", "ios": "https://dc.lft.to/lastmile_qr_scan"}, "name": "e5016f4dce68b6ef954ccf829231b71e", "is_reserved": 0}, {"is_disabled": 0, "fusion_lon": 0.0, "fusion_lat": 0.0, "lat": 38.98826583333334, "type": "electric_bike", "lon": -76.9875555, "bike_id": "623da41f9a80a1113fbdf537edca001c", "rental_uris": {"android": "https://dc.lft.to/lastmile_qr_scan", "ios": "https://dc.lft.to/lastmile_qr_scan"}, "name": "623da41f9a80a1113fbdf537edca001c", "is_reserved": 0}, {"is_disabled": 0, "fusion_lon": 0.0, "fusion_lat": 0.0, "lat": 38.90700133333333, "type": "electric_scooter", "lon": -77.0269115, "bike_id": "9c4146eceff5e7af55c9ad678f578f7a", "rental_uris": {"android": "https://dc.lft.to/lastmile_qr_scan", "ios": "https://dc.lft.to/lastmile_qr_scan"}, "name": "9c4146eceff5e7af55c9ad678f578f7a", "is_reserved": 0}, {"is_disabled": 0, "fusion_lon": 0.0, "fusion_lat": 0.0, "lat": 38.909631833333336, "type": "electric_scooter", "lon": -77.03281083333333, "bike_id": "1080a42d19bf48e88142d7793d05c5f7", "rental_uris": {"android": "https://dc.lft.to/lastmile_qr_scan", "ios": "https://dc.lft.to/lastmile_qr_scan"}, "name": "1080a42d19bf48e88142d7793d05c5f7", "is_reserved": 0}, {"is_disabled": 0, "fusion_lon": 0.0, "fusion_lat": 0.0, "lat": 38.920335666666666, "type": "electric_scooter", "lon": -77.02586183333334, "bike_id": "5328a6d7b397ed4db90744bb70573fcb", "rental_uris": {"android": "https://dc.lft.to/lastmile_qr_scan", "ios": "https://dc.lft.to/lastmile_qr_scan"}, "name": "5328a6d7b397ed4db90744bb70573fcb", "is_reserved": 0}, {"is_disabled": 0, "fusion_lon": 0.0, "fusion_lat": 0.0, "lat": 38.88513, "type": "electric_scooter", "lon": -76.998475, "bike_id": "1af394252a57c6bfd44c00b29183e4d8", "rental_uris": {"android": "https://dc.lft.to/lastmile_qr_scan", "ios": "https://dc.lft.to/lastmile_qr_scan"}, "name": "1af394252a57c6bfd44c00b29183e4d8", "is_reserved": 0}, {"is_disabled": 0, "fusion_lon": 0.0, "fusion_lat": 0.0, "lat": 38.928873333333335, "type": "electric_scooter", "lon": -77.02310083333333, "bike_id": "cb905fdb818175a125272bfeab54eaa1", "rental_uris": {"android": "https://dc.lft.to/lastmile_qr_scan", "ios": "https://dc.lft.to/lastmile_qr_scan"}, "name": "cb905fdb818175a125272bfeab54eaa1", "is_reserved": 0}, {"is_disabled": 0, "fusion_lon": 0.0, "fusion_lat": 0.0, "lat": 38.842911, "type": "electric_scooter", "lon": -76.99948833333333, "bike_id": "a0b7abe6a723ce357160d206b616dffc", "rental_uris": {"android": "https://dc.lft.to/lastmile_qr_scan", "ios": "https://dc.lft.to/lastmile_qr_scan"}, "name": "a0b7abe6a723ce357160d206b616dffc", "is_reserved": 0}, {"is_disabled": 0, "fusion_lon": 0.0, "fusion_lat": 0.0, "lat": 38.94048866666667, "type": "electric_scooter", "lon": -77.0250075, "bike_id": "86f397f07f82bfa977037b4f0b6e04d4", "rental_uris": {"android": "https://dc.lft.to/lastmile_qr_scan", "ios": "https://dc.lft.to/lastmile_qr_scan"}, "name": "86f397f07f82bfa977037b4f0b6e04d4", "is_reserved": 0}, {"is_disabled": 0, "fusion_lon": 0.0, "fusion_lat": 0.0, "lat": 38.899562333333336, "type": "electric_scooter", "lon": -77.05218716666667, "bike_id": "75d0b74f897d689544f9cd72ef8f49c3", "rental_uris": {"android": "https://dc.lft.to/lastmile_qr_scan", "ios": "https://dc.lft.to/lastmile_qr_scan"}, "name": "75d0b74f897d689544f9cd72ef8f49c3", "is_reserved": 0}, {"is_disabled": 0, "fusion_lon": 0.0, "fusion_lat": 0.0, "lat": 38.841105, "type": "electric_bike", "lon": -77.08945283333334, "bike_id": "2caf081b74f072924895977b89bbd776", "rental_uris": {"android": "https://dc.lft.to/lastmile_qr_scan", "ios": "https://dc.lft.to/lastmile_qr_scan"}, "name": "2caf081b74f072924895977b89bbd776", "is_reserved": 0}, {"is_disabled": 0, "fusion_lon": 0.0, "fusion_lat": 0.0, "lat": 38.942968666666665, "type": "electric_scooter", "lon": -77.033553, "bike_id": "446bdcd48a2ea008523328c86a0631df", "rental_uris": {"android": "https://dc.lft.to/lastmile_qr_scan", "ios": "https://dc.lft.to/lastmile_qr_scan"}, "name": "446bdcd48a2ea008523328c86a0631df", "is_reserved": 0}, {"is_disabled": 0, "fusion_lon": 0.0, "fusion_lat": 0.0, "lat": 38.9644685, "type": "electric_bike", "lon": -76.97726283333333, "bike_id": "121139de774fd76e0bddb20338428764", "rental_uris": {"android": "https://dc.lft.to/lastmile_qr_scan", "ios": "https://dc.lft.to/lastmile_qr_scan"}, "name": "121139de774fd76e0bddb20338428764", "is_reserved": 0}, {"is_disabled": 0, "fusion_lon": 0.0, "fusion_lat": 0.0, "lat": 38.887451166666665, "type": "electric_scooter", "lon": -77.016089, "bike_id": "895867811f231e096759821564db53b7", "rental_uris": {"android": "https://dc.lft.to/lastmile_qr_scan", "ios": "https://dc.lft.to/lastmile_qr_scan"}, "name": "895867811f231e096759821564db53b7", "is_reserved": 0}, {"is_disabled": 0, "fusion_lon": 0.0, "fusion_lat": 0.0, "lat": 39.0299995, "type": "electric_bike", "lon": -77.106528, "bike_id": "b60d39fdad64bbf71d411e91d9fad707", "rental_uris": {"android": "https://dc.lft.to/lastmile_qr_scan", "ios": "https://dc.lft.to/lastmile_qr_scan"}, "name": "b60d39fdad64bbf71d411e91d9fad707", "is_reserved": 0}, {"is_disabled": 0, "fusion_lon": 0.0, "fusion_lat": 0.0, "lat": 38.90735316666667, "type": "electric_scooter", "lon": -77.03835183333334, "bike_id": "b4f1e6e93209a64271fdd871970b6d95", "rental_uris": {"android": "https://dc.lft.to/lastmile_qr_scan", "ios": "https://dc.lft.to/lastmile_qr_scan"}, "name": "b4f1e6e93209a64271fdd871970b6d95", "is_reserved": 0}, {"is_disabled": 0, "fusion_lon": 0.0, "fusion_lat": 0.0, "lat": 38.893529666666666, "type": "electric_scooter", "lon": -77.02224883333334, "bike_id": "09699b5e0ab78eb0833566903d731433", "rental_uris": {"android": "https://dc.lft.to/lastmile_qr_scan", "ios": "https://dc.lft.to/lastmile_qr_scan"}, "name": "09699b5e0ab78eb0833566903d731433", "is_reserved": 0}, {"is_disabled": 0, "fusion_lon": 0.0, "fusion_lat": 0.0, "lat": 38.903789, "type": "electric_scooter", "lon": -77.05022583333333, "bike_id": "22d9956750cbcf1e31682efa74b46dea", "rental_uris": {"android": "https://dc.lft.to/lastmile_qr_scan", "ios": "https://dc.lft.to/lastmile_qr_scan"}, "name": "22d9956750cbcf1e31682efa74b46dea", "is_reserved": 0}, {"is_disabled": 0, "fusion_lon": 0.0, "fusion_lat": 0.0, "lat": 38.9241695, "type": "electric_scooter", "lon": -77.0415365, "bike_id": "e72f1efb418c9b9d59417e0c2ea4667f", "rental_uris": {"android": "https://dc.lft.to/lastmile_qr_scan", "ios": "https://dc.lft.to/lastmile_qr_scan"}, "name": "e72f1efb418c9b9d59417e0c2ea4667f", "is_reserved": 0}, {"is_disabled": 0, "fusion_lon": 0.0, "fusion_lat": 0.0, "lat": 38.93000416666667, "type": "electric_scooter", "lon": -77.078369, "bike_id": "95c64ce9f5eacc3f8b511d57a79eeb26", "rental_uris": {"android": "https://dc.lft.to/lastmile_qr_scan", "ios": "https://dc.lft.to/lastmile_qr_scan"}, "name": "95c64ce9f5eacc3f8b511d57a79eeb26", "is_reserved": 0}, {"is_disabled": 0, "fusion_lon": 0.0, "fusion_lat": 0.0, "lat": 38.95397366666667, "type": "electric_scooter", "lon": -77.02751316666667, "bike_id": "e0a27c1ae384664922541a5929697e10", "rental_uris": {"android": "https://dc.lft.to/lastmile_qr_scan", "ios": "https://dc.lft.to/lastmile_qr_scan"}, "name": "e0a27c1ae384664922541a5929697e10", "is_reserved": 0}, {"is_disabled": 0, "fusion_lon": 0.0, "fusion_lat": 0.0, "lat": 38.90528466666667, "type": "electric_scooter", "lon": -77.059974, "bike_id": "7938810cd7389b873473edac61538802", "rental_uris": {"android": "https://dc.lft.to/lastmile_qr_scan", "ios": "https://dc.lft.to/lastmile_qr_scan"}, "name": "7938810cd7389b873473edac61538802", "is_reserved": 0}, {"is_disabled": 0, "fusion_lon": 0.0, "fusion_lat": 0.0, "lat": 38.89229016666667, "type": "electric_scooter", "lon": -77.04999566666666, "bike_id": "6d5edc8d884df807ecee40d984377a9a", "rental_uris": {"android": "https://dc.lft.to/lastmile_qr_scan", "ios": "https://dc.lft.to/lastmile_qr_scan"}, "name": "6d5edc8d884df807ecee40d984377a9a", "is_reserved": 0}, {"is_disabled": 0, "fusion_lon": 0.0, "fusion_lat": 0.0, "lat": 38.879970666666665, "type": "electric_bike", "lon": -76.91597366666667, "bike_id": "10dbc16a0714b58c47b1965c1592b0ae", "rental_uris": {"android": "https://dc.lft.to/lastmile_qr_scan", "ios": "https://dc.lft.to/lastmile_qr_scan"}, "name": "10dbc16a0714b58c47b1965c1592b0ae", "is_reserved": 0}, {"is_disabled": 0, "fusion_lon": 0.0, "fusion_lat": 0.0, "lat": 38.8583415, "type": "electric_bike", "lon": -76.99282116666667, "bike_id": "bb6abfea0b6e8a8dcac542851857148f", "rental_uris": {"android": "https://dc.lft.to/lastmile_qr_scan", "ios": "https://dc.lft.to/lastmile_qr_scan"}, "name": "bb6abfea0b6e8a8dcac542851857148f", "is_reserved": 0}, {"is_disabled": 0, "fusion_lon": 0.0, "fusion_lat": 0.0, "lat": 38.90263, "type": "electric_scooter", "lon": -77.03439633333333, "bike_id": "d98f71d3b7ad6707e0c919f48a47b2ec", "rental_uris": {"android": "https://dc.lft.to/lastmile_qr_scan", "ios": "https://dc.lft.to/lastmile_qr_scan"}, "name": "d98f71d3b7ad6707e0c919f48a47b2ec", "is_reserved": 0}, {"is_disabled": 0, "fusion_lon": 0.0, "fusion_lat": 0.0, "lat": 38.90720916666667, "type": "electric_bike", "lon": -77.0395345, "bike_id": "5d99353657aee39ca8a157dc93a8677f", "rental_uris": {"android": "https://dc.lft.to/lastmile_qr_scan", "ios": "https://dc.lft.to/lastmile_qr_scan"}, "name": "5d99353657aee39ca8a157dc93a8677f", "is_reserved": 0}, {"is_disabled": 0, "fusion_lon": 0.0, "fusion_lat": 0.0, "lat": 38.892230833333336, "type": "electric_scooter", "lon": -77.03337983333333, "bike_id": "d91d9421ccae6a18b7d500c3630606d7", "rental_uris": {"android": "https://dc.lft.to/lastmile_qr_scan", "ios": "https://dc.lft.to/lastmile_qr_scan"}, "name": "d91d9421ccae6a18b7d500c3630606d7", "is_reserved": 0}, {"is_disabled": 0, "fusion_lon": 0.0, "fusion_lat": 0.0, "lat": 38.916194, "type": "electric_scooter", "lon": -77.04598983333334, "bike_id": "d4767b94a26900f5d83d81330448223f", "rental_uris": {"android": "https://dc.lft.to/lastmile_qr_scan", "ios": "https://dc.lft.to/lastmile_qr_scan"}, "name": "d4767b94a26900f5d83d81330448223f", "is_reserved": 0}, {"is_disabled": 0, "fusion_lon": 0.0, "fusion_lat": 0.0, "lat": 38.96646, "type": "electric_bike", "lon": -76.93021466666667, "bike_id": "50217cd8b760a34ad0e9122711ff4ae0", "rental_uris": {"android": "https://dc.lft.to/lastmile_qr_scan", "ios": "https://dc.lft.to/lastmile_qr_scan"}, "name": "50217cd8b760a34ad0e9122711ff4ae0", "is_reserved": 0}, {"is_disabled": 0, "fusion_lon": 0.0, "fusion_lat": 0.0, "lat": 38.91485733333333, "type": "electric_scooter", "lon": -77.03242133333333, "bike_id": "fc303e3c3ece4281475edfc9e8d704eb", "rental_uris": {"android": "https://dc.lft.to/lastmile_qr_scan", "ios": "https://dc.lft.to/lastmile_qr_scan"}, "name": "fc303e3c3ece4281475edfc9e8d704eb", "is_reserved": 0}, {"is_disabled": 0, "fusion_lon": 0.0, "fusion_lat": 0.0, "lat": 38.880656333333334, "type": "electric_scooter", "lon": -77.0166835, "bike_id": "3d41165972ea05f8be5a457443dc21ec", "rental_uris": {"android": "https://dc.lft.to/lastmile_qr_scan", "ios": "https://dc.lft.to/lastmile_qr_scan"}, "name": "3d41165972ea05f8be5a457443dc21ec", "is_reserved": 0}, {"is_disabled": 0, "fusion_lon": 0.0, "fusion_lat": 0.0, "lat": 38.8997125, "type": "electric_scooter", "lon": -77.02162, "bike_id": "82826af0f88cbf1696a263db6efa9639", "rental_uris": {"android": "https://dc.lft.to/lastmile_qr_scan", "ios": "https://dc.lft.to/lastmile_qr_scan"}, "name": "82826af0f88cbf1696a263db6efa9639", "is_reserved": 0}, {"is_disabled": 0, "fusion_lon": 0.0, "fusion_lat": 0.0, "lat": 38.95374483333333, "type": "electric_scooter", "lon": -77.025584, "bike_id": "108af809304891f290ffb282ae71ddab", "rental_uris": {"android": "https://dc.lft.to/lastmile_qr_scan", "ios": "https://dc.lft.to/lastmile_qr_scan"}, "name": "108af809304891f290ffb282ae71ddab", "is_reserved": 0}, {"is_disabled": 0, "fusion_lon": 0.0, "fusion_lat": 0.0, "lat": 38.92247366666667, "type": "electric_scooter", "lon": -77.0308745, "bike_id": "b47840a708f2bb1a314f813e19bc7a5b", "rental_uris": {"android": "https://dc.lft.to/lastmile_qr_scan", "ios": "https://dc.lft.to/lastmile_qr_scan"}, "name": "b47840a708f2bb1a314f813e19bc7a5b", "is_reserved": 0}, {"is_disabled": 0, "fusion_lon": 0.0, "fusion_lat": 0.0, "lat": 38.9074915, "type": "electric_scooter", "lon": -77.0230055, "bike_id": "1bf4163c48474da8347580ab92f385f3", "rental_uris": {"android": "https://dc.lft.to/lastmile_qr_scan", "ios": "https://dc.lft.to/lastmile_qr_scan"}, "name": "1bf4163c48474da8347580ab92f385f3", "is_reserved": 0}, {"is_disabled": 0, "fusion_lon": 0.0, "fusion_lat": 0.0, "lat": 38.965014833333335, "type": "electric_scooter", "lon": -77.02479816666667, "bike_id": "172010ac5c0e66b946e1377aedf2dd86", "rental_uris": {"android": "https://dc.lft.to/lastmile_qr_scan", "ios": "https://dc.lft.to/lastmile_qr_scan"}, "name": "172010ac5c0e66b946e1377aedf2dd86", "is_reserved": 0}, {"is_disabled": 0, "fusion_lon": 0.0, "fusion_lat": 0.0, "lat": 38.90265433333333, "type": "electric_scooter", "lon": -77.05328883333334, "bike_id": "e1752844dbf7bba6680eb995614596a9", "rental_uris": {"android": "https://dc.lft.to/lastmile_qr_scan", "ios": "https://dc.lft.to/lastmile_qr_scan"}, "name": "e1752844dbf7bba6680eb995614596a9", "is_reserved": 0}, {"is_disabled": 0, "fusion_lon": 0.0, "fusion_lat": 0.0, "lat": 38.89562983333333, "type": "electric_scooter", "lon": -77.02180016666667, "bike_id": "3d93f79ffc3ac1e67f3646b086c94fbf", "rental_uris": {"android": "https://dc.lft.to/lastmile_qr_scan", "ios": "https://dc.lft.to/lastmile_qr_scan"}, "name": "3d93f79ffc3ac1e67f3646b086c94fbf", "is_reserved": 0}, {"is_disabled": 0, "fusion_lon": 0.0, "fusion_lat": 0.0, "lat": 38.8926315, "type": "electric_scooter", "lon": -77.0319555, "bike_id": "3f3f72566b3dd3b46f062b15e6c1c661", "rental_uris": {"android": "https://dc.lft.to/lastmile_qr_scan", "ios": "https://dc.lft.to/lastmile_qr_scan"}, "name": "3f3f72566b3dd3b46f062b15e6c1c661", "is_reserved": 0}, {"is_disabled": 0, "fusion_lon": 0.0, "fusion_lat": 0.0, "lat": 38.896528333333336, "type": "electric_scooter", "lon": -77.01195683333333, "bike_id": "e2a826747924241ede6b462c051ebaa7", "rental_uris": {"android": "https://dc.lft.to/lastmile_qr_scan", "ios": "https://dc.lft.to/lastmile_qr_scan"}, "name": "e2a826747924241ede6b462c051ebaa7", "is_reserved": 0}, {"is_disabled": 0, "fusion_lon": 0.0, "fusion_lat": 0.0, "lat": 38.918176833333334, "type": "electric_scooter", "lon": -77.04175066666667, "bike_id": "c452e290b78e38c5f74b6711301ffbe7", "rental_uris": {"android": "https://dc.lft.to/lastmile_qr_scan", "ios": "https://dc.lft.to/lastmile_qr_scan"}, "name": "c452e290b78e38c5f74b6711301ffbe7", "is_reserved": 0}, {"is_disabled": 0, "fusion_lon": 0.0, "fusion_lat": 0.0, "lat": 38.872922, "type": "electric_scooter", "lon": -77.00980866666667, "bike_id": "2ee267bfa928abc2730190372b86bfaa", "rental_uris": {"android": "https://dc.lft.to/lastmile_qr_scan", "ios": "https://dc.lft.to/lastmile_qr_scan"}, "name": "2ee267bfa928abc2730190372b86bfaa", "is_reserved": 0}, {"is_disabled": 0, "fusion_lon": 0.0, "fusion_lat": 0.0, "lat": 38.88484066666667, "type": "electric_scooter", "lon": -76.92966416666667, "bike_id": "8164f0e8fe950eb42739cac943f15eb6", "rental_uris": {"android": "https://dc.lft.to/lastmile_qr_scan", "ios": "https://dc.lft.to/lastmile_qr_scan"}, "name": "8164f0e8fe950eb42739cac943f15eb6", "is_reserved": 0}, {"is_disabled": 0, "fusion_lon": 0.0, "fusion_lat": 0.0, "lat": 38.921569833333336, "type": "electric_scooter", "lon": -77.03405616666667, "bike_id": "a4476b0129c68931c580cb36ffedb9d1", "rental_uris": {"android": "https://dc.lft.to/lastmile_qr_scan", "ios": "https://dc.lft.to/lastmile_qr_scan"}, "name": "a4476b0129c68931c580cb36ffedb9d1", "is_reserved": 0}, {"is_disabled": 0, "fusion_lon": 0.0, "fusion_lat": 0.0, "lat": 38.9076835, "type": "electric_scooter", "lon": -77.031986, "bike_id": "dc08418e20fcecc46bc3a03821495bb8", "rental_uris": {"android": "https://dc.lft.to/lastmile_qr_scan", "ios": "https://dc.lft.to/lastmile_qr_scan"}, "name": "dc08418e20fcecc46bc3a03821495bb8", "is_reserved": 0}, {"is_disabled": 0, "fusion_lon": 0.0, "fusion_lat": 0.0, "lat": 38.9363475, "type": "electric_scooter", "lon": -77.036624, "bike_id": "07e8014767ff2745c035fc22d3451c15", "rental_uris": {"android": "https://dc.lft.to/lastmile_qr_scan", "ios": "https://dc.lft.to/lastmile_qr_scan"}, "name": "07e8014767ff2745c035fc22d3451c15", "is_reserved": 0}, {"is_disabled": 0, "fusion_lon": 0.0, "fusion_lat": 0.0, "lat": 38.9453845, "type": "electric_bike", "lon": -77.02705316666666, "bike_id": "e6a512b7ee79e20fa0a86025ac56d7bd", "rental_uris": {"android": "https://dc.lft.to/lastmile_qr_scan", "ios": "https://dc.lft.to/lastmile_qr_scan"}, "name": "e6a512b7ee79e20fa0a86025ac56d7bd", "is_reserved": 0}, {"is_disabled": 0, "fusion_lon": 0.0, "fusion_lat": 0.0, "lat": 38.89370616666667, "type": "electric_scooter", "lon": -76.95000733333333, "bike_id": "9fa7ba0470a8460a67f25dd08422156a", "rental_uris": {"android": "https://dc.lft.to/lastmile_qr_scan", "ios": "https://dc.lft.to/lastmile_qr_scan"}, "name": "9fa7ba0470a8460a67f25dd08422156a", "is_reserved": 0}, {"is_disabled": 0, "fusion_lon": 0.0, "fusion_lat": 0.0, "lat": 38.9197745, "type": "electric_scooter", "lon": -77.00019, "bike_id": "bff9b4b45f5538eb5ea92db64e74b984", "rental_uris": {"android": "https://dc.lft.to/lastmile_qr_scan", "ios": "https://dc.lft.to/lastmile_qr_scan"}, "name": "bff9b4b45f5538eb5ea92db64e74b984", "is_reserved": 0}, {"is_disabled": 0, "fusion_lon": 0.0, "fusion_lat": 0.0, "lat": 38.924459166666665, "type": "electric_bike", "lon": -76.9683735, "bike_id": "4fe119f38efbff5717ec691be7a1262c", "rental_uris": {"android": "https://dc.lft.to/lastmile_qr_scan", "ios": "https://dc.lft.to/lastmile_qr_scan"}, "name": "4fe119f38efbff5717ec691be7a1262c", "is_reserved": 0}, {"is_disabled": 0, "fusion_lon": 0.0, "fusion_lat": 0.0, "lat": 39.105635666666664, "type": "electric_bike", "lon": -77.15266583333333, "bike_id": "adc9d5942321f239f1ddcde98dbb7859", "rental_uris": {"android": "https://dc.lft.to/lastmile_qr_scan", "ios": "https://dc.lft.to/lastmile_qr_scan"}, "name": "adc9d5942321f239f1ddcde98dbb7859", "is_reserved": 0}, {"is_disabled": 0, "fusion_lon": 0.0, "fusion_lat": 0.0, "lat": 38.90266116666667, "type": "electric_scooter", "lon": -77.04254816666666, "bike_id": "746e29863c8a3766833a247dea179b4d", "rental_uris": {"android": "https://dc.lft.to/lastmile_qr_scan", "ios": "https://dc.lft.to/lastmile_qr_scan"}, "name": "746e29863c8a3766833a247dea179b4d", "is_reserved": 0}, {"is_disabled": 0, "fusion_lon": 0.0, "fusion_lat": 0.0, "lat": 38.92082766666667, "type": "electric_scooter", "lon": -76.99413683333333, "bike_id": "26043c62ea2acaed3da43b89c6343d82", "rental_uris": {"android": "https://dc.lft.to/lastmile_qr_scan", "ios": "https://dc.lft.to/lastmile_qr_scan"}, "name": "26043c62ea2acaed3da43b89c6343d82", "is_reserved": 0}, {"is_disabled": 0, "fusion_lon": 0.0, "fusion_lat": 0.0, "lat": 38.88877166666666, "type": "electric_scooter", "lon": -77.0285645, "bike_id": "bd4b57c50d3d759ecf7e469e923b8017", "rental_uris": {"android": "https://dc.lft.to/lastmile_qr_scan", "ios": "https://dc.lft.to/lastmile_qr_scan"}, "name": "bd4b57c50d3d759ecf7e469e923b8017", "is_reserved": 0}, {"is_disabled": 0, "fusion_lon": 0.0, "fusion_lat": 0.0, "lat": 38.918522333333335, "type": "electric_scooter", "lon": -77.02952133333334, "bike_id": "21c7d0d6cf37eb7b60338ad94c625bb5", "rental_uris": {"android": "https://dc.lft.to/lastmile_qr_scan", "ios": "https://dc.lft.to/lastmile_qr_scan"}, "name": "21c7d0d6cf37eb7b60338ad94c625bb5", "is_reserved": 0}, {"is_disabled": 0, "fusion_lon": 0.0, "fusion_lat": 0.0, "lat": 38.96928666666667, "type": "electric_bike", "lon": -77.026264, "bike_id": "15ae6fe7e8f602e618b9487d573508d5", "rental_uris": {"android": "https://dc.lft.to/lastmile_qr_scan", "ios": "https://dc.lft.to/lastmile_qr_scan"}, "name": "15ae6fe7e8f602e618b9487d573508d5", "is_reserved": 0}, {"is_disabled": 0, "fusion_lon": 0.0, "fusion_lat": 0.0, "lat": 38.932774333333334, "type": "electric_scooter", "lon": -76.99685316666667, "bike_id": "0426d6f199a3c510edbc83b5d9696fd2", "rental_uris": {"android": "https://dc.lft.to/lastmile_qr_scan", "ios": "https://dc.lft.to/lastmile_qr_scan"}, "name": "0426d6f199a3c510edbc83b5d9696fd2", "is_reserved": 0}, {"is_disabled": 0, "fusion_lon": 0.0, "fusion_lat": 0.0, "lat": 38.88753216666667, "type": "electric_scooter", "lon": -76.99615566666667, "bike_id": "b7c4d0858405d71547718d0d1a6938d8", "rental_uris": {"android": "https://dc.lft.to/lastmile_qr_scan", "ios": "https://dc.lft.to/lastmile_qr_scan"}, "name": "b7c4d0858405d71547718d0d1a6938d8", "is_reserved": 0}, {"is_disabled": 0, "fusion_lon": 0.0, "fusion_lat": 0.0, "lat": 38.89908283333333, "type": "electric_scooter", "lon": -76.93389416666666, "bike_id": "077cbfdf98402eee7e9e887b989e24cc", "rental_uris": {"android": "https://dc.lft.to/lastmile_qr_scan", "ios": "https://dc.lft.to/lastmile_qr_scan"}, "name": "077cbfdf98402eee7e9e887b989e24cc", "is_reserved": 0}, {"is_disabled": 0, "fusion_lon": 0.0, "fusion_lat": 0.0, "lat": 38.916785, "type": "electric_scooter", "lon": -77.0297205, "bike_id": "cfd95a5442695b289429a5af7d897e34", "rental_uris": {"android": "https://dc.lft.to/lastmile_qr_scan", "ios": "https://dc.lft.to/lastmile_qr_scan"}, "name": "cfd95a5442695b289429a5af7d897e34", "is_reserved": 0}, {"is_disabled": 0, "fusion_lon": 0.0, "fusion_lat": 0.0, "lat": 38.905392666666664, "type": "electric_scooter", "lon": -77.056957, "bike_id": "70e5adddebe02e9913246478175a2121", "rental_uris": {"android": "https://dc.lft.to/lastmile_qr_scan", "ios": "https://dc.lft.to/lastmile_qr_scan"}, "name": "70e5adddebe02e9913246478175a2121", "is_reserved": 0}, {"is_disabled": 0, "fusion_lon": 0.0, "fusion_lat": 0.0, "lat": 38.876798, "type": "electric_scooter", "lon": -77.017833, "bike_id": "9332243e9fed88ba4ed05dd911e9cfaf", "rental_uris": {"android": "https://dc.lft.to/lastmile_qr_scan", "ios": "https://dc.lft.to/lastmile_qr_scan"}, "name": "9332243e9fed88ba4ed05dd911e9cfaf", "is_reserved": 0}, {"is_disabled": 0, "fusion_lon": 0.0, "fusion_lat": 0.0, "lat": 38.911796333333335, "type": "electric_scooter", "lon": -77.03923083333333, "bike_id": "dc36a4064713f591dd2a7fcce564cfe6", "rental_uris": {"android": "https://dc.lft.to/lastmile_qr_scan", "ios": "https://dc.lft.to/lastmile_qr_scan"}, "name": "dc36a4064713f591dd2a7fcce564cfe6", "is_reserved": 0}, {"is_disabled": 0, "fusion_lon": 0.0, "fusion_lat": 0.0, "lat": 38.892070333333336, "type": "electric_scooter", "lon": -76.98800633333333, "bike_id": "2dbaff938152090cd4c8eddb7d4e641f", "rental_uris": {"android": "https://dc.lft.to/lastmile_qr_scan", "ios": "https://dc.lft.to/lastmile_qr_scan"}, "name": "2dbaff938152090cd4c8eddb7d4e641f", "is_reserved": 0}, {"is_disabled": 0, "fusion_lon": 0.0, "fusion_lat": 0.0, "lat": 38.9243165, "type": "electric_scooter", "lon": -77.05616733333333, "bike_id": "7e4fba80f6f95878e083faad2c099f45", "rental_uris": {"android": "https://dc.lft.to/lastmile_qr_scan", "ios": "https://dc.lft.to/lastmile_qr_scan"}, "name": "7e4fba80f6f95878e083faad2c099f45", "is_reserved": 0}, {"is_disabled": 0, "fusion_lon": 0.0, "fusion_lat": 0.0, "lat": 38.91647616666667, "type": "electric_scooter", "lon": -77.03444166666667, "bike_id": "23a90959670780133cd371300ec5df87", "rental_uris": {"android": "https://dc.lft.to/lastmile_qr_scan", "ios": "https://dc.lft.to/lastmile_qr_scan"}, "name": "23a90959670780133cd371300ec5df87", "is_reserved": 0}, {"is_disabled": 0, "fusion_lon": 0.0, "fusion_lat": 0.0, "lat": 38.9865995, "type": "electric_scooter", "lon": -77.02642516666667, "bike_id": "01474f04a203ff17254ee80b17772bcf", "rental_uris": {"android": "https://dc.lft.to/lastmile_qr_scan", "ios": "https://dc.lft.to/lastmile_qr_scan"}, "name": "01474f04a203ff17254ee80b17772bcf", "is_reserved": 0}, {"is_disabled": 0, "fusion_lon": 0.0, "fusion_lat": 0.0, "lat": 38.91481183333333, "type": "electric_scooter", "lon": -77.04409866666667, "bike_id": "4a5ad2794826ff1f0443591d78768a38", "rental_uris": {"android": "https://dc.lft.to/lastmile_qr_scan", "ios": "https://dc.lft.to/lastmile_qr_scan"}, "name": "4a5ad2794826ff1f0443591d78768a38", "is_reserved": 0}, {"is_disabled": 0, "fusion_lon": 0.0, "fusion_lat": 0.0, "lat": 38.90558266666667, "type": "electric_scooter", "lon": -77.04173766666666, "bike_id": "9385637883e552dd2dd04161af727ee7", "rental_uris": {"android": "https://dc.lft.to/lastmile_qr_scan", "ios": "https://dc.lft.to/lastmile_qr_scan"}, "name": "9385637883e552dd2dd04161af727ee7", "is_reserved": 0}, {"is_disabled": 0, "fusion_lon": 0.0, "fusion_lat": 0.0, "lat": 38.931890333333335, "type": "electric_bike", "lon": -77.2293765, "bike_id": "25a9e948932808e1ebc457e64a809547", "rental_uris": {"android": "https://dc.lft.to/lastmile_qr_scan", "ios": "https://dc.lft.to/lastmile_qr_scan"}, "name": "25a9e948932808e1ebc457e64a809547", "is_reserved": 0}, {"is_disabled": 0, "fusion_lon": 0.0, "fusion_lat": 0.0, "lat": 38.920527166666666, "type": "electric_scooter", "lon": -76.998718, "bike_id": "8fed325b182d44f3a02807dba6863c4d", "rental_uris": {"android": "https://dc.lft.to/lastmile_qr_scan", "ios": "https://dc.lft.to/lastmile_qr_scan"}, "name": "8fed325b182d44f3a02807dba6863c4d", "is_reserved": 0}, {"is_disabled": 0, "fusion_lon": 0.0, "fusion_lat": 0.0, "lat": 38.992498166666664, "type": "electric_bike", "lon": -77.0499795, "bike_id": "e956029b549da3a164e6dc0eddf350e0", "rental_uris": {"android": "https://dc.lft.to/lastmile_qr_scan", "ios": "https://dc.lft.to/lastmile_qr_scan"}, "name": "e956029b549da3a164e6dc0eddf350e0", "is_reserved": 0}, {"is_disabled": 0, "fusion_lon": 0.0, "fusion_lat": 0.0, "lat": 38.917561666666664, "type": "electric_scooter", "lon": -77.03605866666666, "bike_id": "9a29e14451894f3d03b483caf0f65fd9", "rental_uris": {"android": "https://dc.lft.to/lastmile_qr_scan", "ios": "https://dc.lft.to/lastmile_qr_scan"}, "name": "9a29e14451894f3d03b483caf0f65fd9", "is_reserved": 0}, {"is_disabled": 0, "fusion_lon": 0.0, "fusion_lat": 0.0, "lat": 38.90866783333333, "type": "electric_scooter", "lon": -77.04347366666667, "bike_id": "52d804d4c70610b8e3bc8b58577aef43", "rental_uris": {"android": "https://dc.lft.to/lastmile_qr_scan", "ios": "https://dc.lft.to/lastmile_qr_scan"}, "name": "52d804d4c70610b8e3bc8b58577aef43", "is_reserved": 0}, {"is_disabled": 0, "fusion_lon": 0.0, "fusion_lat": 0.0, "lat": 38.95079716666667, "type": "electric_scooter", "lon": -77.02875816666666, "bike_id": "6b84bdf8f8f6e59bb1ea0a22164a3614", "rental_uris": {"android": "https://dc.lft.to/lastmile_qr_scan", "ios": "https://dc.lft.to/lastmile_qr_scan"}, "name": "6b84bdf8f8f6e59bb1ea0a22164a3614", "is_reserved": 0}, {"is_disabled": 0, "fusion_lon": 0.0, "fusion_lat": 0.0, "lat": 38.962774833333334, "type": "electric_bike", "lon": -77.02871283333333, "bike_id": "a7cc5397d5a1507ba9bf23411ed56cad", "rental_uris": {"android": "https://dc.lft.to/lastmile_qr_scan", "ios": "https://dc.lft.to/lastmile_qr_scan"}, "name": "a7cc5397d5a1507ba9bf23411ed56cad", "is_reserved": 0}, {"is_disabled": 0, "fusion_lon": 0.0, "fusion_lat": 0.0, "lat": 38.93068016666667, "type": "electric_scooter", "lon": -77.03194783333333, "bike_id": "a027a8868eb8de583aabc1947f324948", "rental_uris": {"android": "https://dc.lft.to/lastmile_qr_scan", "ios": "https://dc.lft.to/lastmile_qr_scan"}, "name": "a027a8868eb8de583aabc1947f324948", "is_reserved": 0}, {"is_disabled": 0, "fusion_lon": 0.0, "fusion_lat": 0.0, "lat": 38.823895, "type": "electric_scooter", "lon": -77.00687666666667, "bike_id": "f2d7df908f25783c215dd1553c748c28", "rental_uris": {"android": "https://dc.lft.to/lastmile_qr_scan", "ios": "https://dc.lft.to/lastmile_qr_scan"}, "name": "f2d7df908f25783c215dd1553c748c28", "is_reserved": 0}, {"is_disabled": 0, "fusion_lon": 0.0, "fusion_lat": 0.0, "lat": 38.91051816666667, "type": "electric_scooter", "lon": -77.054401, "bike_id": "eaa7a3eb80297e8ebd8a8a75ab54e233", "rental_uris": {"android": "https://dc.lft.to/lastmile_qr_scan", "ios": "https://dc.lft.to/lastmile_qr_scan"}, "name": "eaa7a3eb80297e8ebd8a8a75ab54e233", "is_reserved": 0}, {"is_disabled": 0, "fusion_lon": 0.0, "fusion_lat": 0.0, "lat": 38.904632666666664, "type": "electric_scooter", "lon": -77.0356065, "bike_id": "8e233f6358263e7679ee9d965e3d281e", "rental_uris": {"android": "https://dc.lft.to/lastmile_qr_scan", "ios": "https://dc.lft.to/lastmile_qr_scan"}, "name": "8e233f6358263e7679ee9d965e3d281e", "is_reserved": 0}, {"is_disabled": 0, "fusion_lon": 0.0, "fusion_lat": 0.0, "lat": 38.897210333333334, "type": "electric_scooter", "lon": -77.030248, "bike_id": "137435392d1ab1b73cc025f3b0d811b0", "rental_uris": {"android": "https://dc.lft.to/lastmile_qr_scan", "ios": "https://dc.lft.to/lastmile_qr_scan"}, "name": "137435392d1ab1b73cc025f3b0d811b0", "is_reserved": 0}, {"is_disabled": 0, "fusion_lon": 0.0, "fusion_lat": 0.0, "lat": 38.945762333333334, "type": "electric_bike", "lon": -76.98776683333334, "bike_id": "654623bd0c374ab8102a8f6006299287", "rental_uris": {"android": "https://dc.lft.to/lastmile_qr_scan", "ios": "https://dc.lft.to/lastmile_qr_scan"}, "name": "654623bd0c374ab8102a8f6006299287", "is_reserved": 0}, {"is_disabled": 0, "fusion_lon": 0.0, "fusion_lat": 0.0, "lat": 38.91180216666667, "type": "electric_scooter", "lon": -77.04162366666667, "bike_id": "69218153fde7c33ebf87e93ad68b556f", "rental_uris": {"android": "https://dc.lft.to/lastmile_qr_scan", "ios": "https://dc.lft.to/lastmile_qr_scan"}, "name": "69218153fde7c33ebf87e93ad68b556f", "is_reserved": 0}, {"is_disabled": 0, "fusion_lon": 0.0, "fusion_lat": 0.0, "lat": 38.93641216666666, "type": "electric_bike", "lon": -76.9545385, "bike_id": "bc022274f69427a67a706102643fced6", "rental_uris": {"android": "https://dc.lft.to/lastmile_qr_scan", "ios": "https://dc.lft.to/lastmile_qr_scan"}, "name": "bc022274f69427a67a706102643fced6", "is_reserved": 0}, {"is_disabled": 0, "fusion_lon": 0.0, "fusion_lat": 0.0, "lat": 38.90982983333333, "type": "electric_scooter", "lon": -77.03366133333333, "bike_id": "9a12b8d23694df037d715bb9964c1b3b", "rental_uris": {"android": "https://dc.lft.to/lastmile_qr_scan", "ios": "https://dc.lft.to/lastmile_qr_scan"}, "name": "9a12b8d23694df037d715bb9964c1b3b", "is_reserved": 0}, {"is_disabled": 0, "fusion_lon": 0.0, "fusion_lat": 0.0, "lat": 38.921601333333335, "type": "electric_scooter", "lon": -77.03359433333334, "bike_id": "f43124607067bf57a3bf00952b5f440f", "rental_uris": {"android": "https://dc.lft.to/lastmile_qr_scan", "ios": "https://dc.lft.to/lastmile_qr_scan"}, "name": "f43124607067bf57a3bf00952b5f440f", "is_reserved": 0}, {"is_disabled": 0, "fusion_lon": 0.0, "fusion_lat": 0.0, "lat": 38.9014035, "type": "electric_scooter", "lon": -77.02647533333334, "bike_id": "e052d2da67c930bfdf058434f898048d", "rental_uris": {"android": "https://dc.lft.to/lastmile_qr_scan", "ios": "https://dc.lft.to/lastmile_qr_scan"}, "name": "e052d2da67c930bfdf058434f898048d", "is_reserved": 0}, {"is_disabled": 0, "fusion_lon": 0.0, "fusion_lat": 0.0, "lat": 38.90466683333333, "type": "electric_scooter", "lon": -77.03462916666666, "bike_id": "432e03e90a5fa85010c7f30976fb782a", "rental_uris": {"android": "https://dc.lft.to/lastmile_qr_scan", "ios": "https://dc.lft.to/lastmile_qr_scan"}, "name": "432e03e90a5fa85010c7f30976fb782a", "is_reserved": 0}, {"is_disabled": 0, "fusion_lon": 0.0, "fusion_lat": 0.0, "lat": 38.92045516666667, "type": "electric_scooter", "lon": -77.04192316666666, "bike_id": "e45ae46777bfea28772f866f41d8b164", "rental_uris": {"android": "https://dc.lft.to/lastmile_qr_scan", "ios": "https://dc.lft.to/lastmile_qr_scan"}, "name": "e45ae46777bfea28772f866f41d8b164", "is_reserved": 0}, {"is_disabled": 0, "fusion_lon": 0.0, "fusion_lat": 0.0, "lat": 39.026852833333336, "type": "electric_bike", "lon": -77.12597616666666, "bike_id": "6197a3bcb10cd1993d07da1fb8ee26b4", "rental_uris": {"android": "https://dc.lft.to/lastmile_qr_scan", "ios": "https://dc.lft.to/lastmile_qr_scan"}, "name": "6197a3bcb10cd1993d07da1fb8ee26b4", "is_reserved": 0}, {"is_disabled": 0, "fusion_lon": 0.0, "fusion_lat": 0.0, "lat": 38.898434333333334, "type": "electric_scooter", "lon": -77.03351083333334, "bike_id": "2d35ebe0a22a8203bd777b77a52c95b3", "rental_uris": {"android": "https://dc.lft.to/lastmile_qr_scan", "ios": "https://dc.lft.to/lastmile_qr_scan"}, "name": "2d35ebe0a22a8203bd777b77a52c95b3", "is_reserved": 0}, {"is_disabled": 0, "fusion_lon": 0.0, "fusion_lat": 0.0, "lat": 38.913970666666664, "type": "electric_scooter", "lon": -77.02386183333333, "bike_id": "c488efc52511c7538aedd3f027ece5e7", "rental_uris": {"android": "https://dc.lft.to/lastmile_qr_scan", "ios": "https://dc.lft.to/lastmile_qr_scan"}, "name": "c488efc52511c7538aedd3f027ece5e7", "is_reserved": 0},