{"data": {"bikes": [{"bike_id": "e1d4bd1ccef1f7d43da2cd494d7d7aeb", "type": "electric_scooter", "is_disabled": 0, "lat": 38.83829183333334, "rental_uris": {"ios": "https://dc.lft.to/lastmile_qr_scan", "android": "https://dc.lft.to/lastmile_qr_scan"}, "is_reserved": 0, "fusion_lon": 0.0, "fusion_lat": 0.0, "lon": -77.00270166666667, "name": "e1d4bd1ccef1f7d43da2cd494d7d7aeb"}, {"bike_id": "056a41defcad5a3938b5ddfe65215143", "type": "electric_scooter", "is_disabled": 0, "lat": 38.9024295, "rental_uris": {"ios": "https://dc.lft.to/lastmile_qr_scan", "android": "https://dc.lft.to/lastmile_qr_scan"}, "is_reserved": 0, "fusion_lon": 0.0, "fusion_lat": 0.0, "lon": -77.01685983333333, "name": "056a41defcad5a3938b5ddfe65215143"}, {"bike_id": "38c3d6fd56a87886dc5cf0f236201b2b", "type": "electric_scooter", "is_disabled": 0, "lat": 38.9148835, "rental_uris": {"ios": "https://dc.lft.to/lastmile_qr_scan", "android": "https://dc.lft.to/lastmile_qr_scan"}, "is_reserved": 0, "fusion_lon": 0.0, "fusion_lat": 0.0, "lon": -76.985719, "name": "38c3d6fd56a87886dc5cf0f236201b2b"}, {"bike_id": "d42656b6c47525d2df491004ce9b0ac2", "type": "electric_scooter", "is_disabled": 0, "lat": 38.90718616666667, "rental_uris": {"ios": "https://dc.lft.to/lastmile_qr_scan", "android": "https://dc.lft.to/lastmile_qr_scan"}, "is_reserved": 0, "fusion_lon": 0.0, "fusion_lat": 0.0, "lon": -77.0344065, "name": "d42656b6c47525d2df491004ce9b0ac2"}, {"bike_id": "0c8a620524bef13865a3ff43f8f09926", "type": "electric_scooter", "is_disabled": 0, "lat": 38.9215555, "rental_uris": {"ios": "https://dc.lft.to/lastmile_qr_scan", "android": "https://dc.lft.to/lastmile_qr_scan"}, "is_reserved": 0, "fusion_lon": 0.0, "fusion_lat": 0.0, "lon": -77.033193, "name": "0c8a620524bef13865a3ff43f8f09926"}, {"bike_id": "d631ca820fc3ded89b56041e600f0e2d", "type": "electric_scooter", "is_disabled": 0, "lat": 38.90010433333333, "rental_uris": {"ios": "https://dc.lft.to/lastmile_qr_scan", "android": "https://dc.lft.to/lastmile_qr_scan"}, "is_reserved": 0, "fusion_lon": 0.0, "fusion_lat": 0.0, "lon": -77.01031383333333, "name": "d631ca820fc3ded89b56041e600f0e2d"}, {"bike_id": "e08baea792c714cc6e1c338eafadf3e7", "type": "electric_scooter", "is_disabled": 0, "lat": 38.92250633333333, "rental_uris": {"ios": "https://dc.lft.to/lastmile_qr_scan", "android": "https://dc.lft.to/lastmile_qr_scan"}, "is_reserved": 0, "fusion_lon": 0.0, "fusion_lat": 0.0, "lon": -77.02839716666666, "name": "e08baea792c714cc6e1c338eafadf3e7"}, {"bike_id": "921a44b4e5056cb9db2c43009a837066", "type": "electric_scooter", "is_disabled": 0, "lat": 38.902549666666665, "rental_uris": {"ios": "https://dc.lft.to/lastmile_qr_scan", "android": "https://dc.lft.to/lastmile_qr_scan"}, "is_reserved": 0, "fusion_lon": 0.0, "fusion_lat": 0.0, "lon": -76.986574, "name": "921a44b4e5056cb9db2c43009a837066"}, {"bike_id": "4951cc44a93f8190e315de2db56155d5", "type": "electric_scooter", "is_disabled": 0, "lat": 38.896782333333334, "rental_uris": {"ios": "https://dc.lft.to/lastmile_qr_scan", "android": "https://dc.lft.to/lastmile_qr_scan"}, "is_reserved": 0, "fusion_lon": 0.0, "fusion_lat": 0.0, "lon": -77.02373966666667, "name": "4951cc44a93f8190e315de2db56155d5"}, {"bike_id": "bd431001cd59789a8ef8e23fd9a4634e", "type": "electric_scooter", "is_disabled": 0, "lat": 38.885837, "rental_uris": {"ios": "https://dc.lft.to/lastmile_qr_scan", "android": "https://dc.lft.to/lastmile_qr_scan"}, "is_reserved": 0, "fusion_lon": 0.0, "fusion_lat": 0.0, "lon": -77.02836733333334, "name": "bd431001cd59789a8ef8e23fd9a4634e"}, {"bike_id": "440cf00c4e47aa587990374cc932189b", "type": "electric_scooter", "is_disabled": 0, "lat": 38.90784083333333, "rental_uris": {"ios": "https://dc.lft.to/lastmile_qr_scan", "android": "https://dc.lft.to/lastmile_qr_scan"}, "is_reserved": 0, "fusion_lon": 0.0, "fusion_lat": 0.0, "lon": -77.010805, "name": "440cf00c4e47aa587990374cc932189b"}, {"bike_id": "c961b11c991851037d63aae54e71c914", "type": "electric_scooter", "is_disabled": 0, "lat": 38.95534816666667, "rental_uris": {"ios": "https://dc.lft.to/lastmile_qr_scan", "android": "https://dc.lft.to/lastmile_qr_scan"}, "is_reserved": 0, "fusion_lon": 0.0, "fusion_lat": 0.0, "lon": -77.02775933333334, "name": "c961b11c991851037d63aae54e71c914"}, {"bike_id": "22fa0fc59e2812f78842ea0061386940", "type": "electric_scooter", "is_disabled": 0, "lat": 38.92051583333333, "rental_uris": {"ios": "https://dc.lft.to/lastmile_qr_scan", "android": "https://dc.lft.to/lastmile_qr_scan"}, "is_reserved": 0, "fusion_lon": 0.0, "fusion_lat": 0.0, "lon": -77.024382, "name": "22fa0fc59e2812f78842ea0061386940"}, {"bike_id": "e76d0d370e55a9d5c2d8fba0fd963868", "type": "electric_scooter", "is_disabled": 0, "lat": 38.965525166666666, "rental_uris": {"ios": "https://dc.lft.to/lastmile_qr_scan", "android": "https://dc.lft.to/lastmile_qr_scan"}, "is_reserved": 0, "fusion_lon": 0.0, "fusion_lat": 0.0, "lon": -77.03622166666666, "name": "e76d0d370e55a9d5c2d8fba0fd963868"}, {"bike_id": "f2ac8905bdc7a2a5586adc8bc8325bfa", "type": "electric_scooter", "is_disabled": 0, "lat": 38.902331333333336, "rental_uris": {"ios": "https://dc.lft.to/lastmile_qr_scan", "android": "https://dc.lft.to/lastmile_qr_scan"}, "is_reserved": 0, "fusion_lon": 0.0, "fusion_lat": 0.0, "lon": -77.0412005, "name": "f2ac8905bdc7a2a5586adc8bc8325bfa"}, {"bike_id": "1353206340a4ab87831f8b6dcb75c0fa", "type": "electric_scooter", "is_disabled": 0, "lat": 38.90012733333333, "rental_uris": {"ios": "https://dc.lft.to/lastmile_qr_scan", "android": "https://dc.lft.to/lastmile_qr_scan"}, "is_reserved": 0, "fusion_lon": 0.0, "fusion_lat": 0.0, "lon": -76.98531016666666, "name": "1353206340a4ab87831f8b6dcb75c0fa"}, {"bike_id": "40cd5026aaea55feaeedc2389c97f610", "type": "electric_scooter", "is_disabled": 0, "lat": 38.90647533333333, "rental_uris": {"ios": "https://dc.lft.to/lastmile_qr_scan", "android": "https://dc.lft.to/lastmile_qr_scan"}, "is_reserved": 0, "fusion_lon": 0.0, "fusion_lat": 0.0, "lon": -77.029484, "name": "40cd5026aaea55feaeedc2389c97f610"}, {"bike_id": "98655730f5e1c394bfe992ba9cdcb4c2", "type": "electric_scooter", "is_disabled": 0, "lat": 38.929126, "rental_uris": {"ios": "https://dc.lft.to/lastmile_qr_scan", "android": "https://dc.lft.to/lastmile_qr_scan"}, "is_reserved": 0, "fusion_lon": 0.0, "fusion_lat": 0.0, "lon": -77.031668, "name": "98655730f5e1c394bfe992ba9cdcb4c2"}, {"bike_id": "fbd64b4191a855d73a77dcf2be9dff16", "type": "electric_scooter", "is_disabled": 0, "lat": 38.9386735, "rental_uris": {"ios": "https://dc.lft.to/lastmile_qr_scan", "android": "https://dc.lft.to/lastmile_qr_scan"}, "is_reserved": 0, "fusion_lon": 0.0, "fusion_lat": 0.0, "lon": -77.0778625, "name": "fbd64b4191a855d73a77dcf2be9dff16"}, {"bike_id": "4d44967e99200372ead4a58f7a5a24ad", "type": "electric_scooter", "is_disabled": 0, "lat": 38.92223166666667, "rental_uris": {"ios": "https://dc.lft.to/lastmile_qr_scan", "android": "https://dc.lft.to/lastmile_qr_scan"}, "is_reserved": 0, "fusion_lon": 0.0, "fusion_lat": 0.0, "lon": -77.023733, "name": "4d44967e99200372ead4a58f7a5a24ad"}, {"bike_id": "ad97ed047ab16d1b01d0771fa3a0fef6", "type": "electric_scooter", "is_disabled": 0, "lat": 38.9071805, "rental_uris": {"ios": "https://dc.lft.to/lastmile_qr_scan", "android": "https://dc.lft.to/lastmile_qr_scan"}, "is_reserved": 0, "fusion_lon": 0.0, "fusion_lat": 0.0, "lon": -77.0225235, "name": "ad97ed047ab16d1b01d0771fa3a0fef6"}, {"bike_id": "8803b0cb33cb0bb407aa1eec482b8d94", "type": "electric_scooter", "is_disabled": 0, "lat": 38.9231925, "rental_uris": {"ios": "https://dc.lft.to/lastmile_qr_scan", "android": "https://dc.lft.to/lastmile_qr_scan"}, "is_reserved": 0, "fusion_lon": 0.0, "fusion_lat": 0.0, "lon": -77.046411, "name": "8803b0cb33cb0bb407aa1eec482b8d94"}, {"bike_id": "113558e4e61331011195c3766c30df40", "type": "electric_scooter", "is_disabled": 0, "lat": 38.843186833333334, "rental_uris": {"ios": "https://dc.lft.to/lastmile_qr_scan", "android": "https://dc.lft.to/lastmile_qr_scan"}, "is_reserved": 0, "fusion_lon": 0.0, "fusion_lat": 0.0, "lon": -76.9991975, "name": "113558e4e61331011195c3766c30df40"}, {"bike_id": "7ea44804ca4debe0eaa70db06da42046", "type": "electric_scooter", "is_disabled": 0, "lat": 38.9140005, "rental_uris": {"ios": "https://dc.lft.to/lastmile_qr_scan", "android": "https://dc.lft.to/lastmile_qr_scan"}, "is_reserved": 0, "fusion_lon": 0.0, "fusion_lat": 0.0, "lon": -77.01791616666667, "name": "7ea44804ca4debe0eaa70db06da42046"}, {"bike_id": "2deddce2f5b263945914aa1148165799", "type": "electric_scooter", "is_disabled": 0, "lat": 38.89544, "rental_uris": {"ios": "https://dc.lft.to/lastmile_qr_scan", "android": "https://dc.lft.to/lastmile_qr_scan"}, "is_reserved": 0, "fusion_lon": 0.0, "fusion_lat": 0.0, "lon": -76.98863, "name": "2deddce2f5b263945914aa1148165799"}, {"bike_id": "d08c3b36731efb13265529e37f55dc3f", "type": "electric_scooter", "is_disabled": 0, "lat": 38.902617666666664, "rental_uris": {"ios": "https://dc.lft.to/lastmile_qr_scan", "android": "https://dc.lft.to/lastmile_qr_scan"}, "is_reserved": 0, "fusion_lon": 0.0, "fusion_lat": 0.0, "lon": -77.0025665, "name": "d08c3b36731efb13265529e37f55dc3f"}, {"bike_id": "739e65afdea4cffb7a04e5dac145f7b6", "type": "electric_scooter", "is_disabled": 0, "lat": 38.91111, "rental_uris": {"ios": "https://dc.lft.to/lastmile_qr_scan", "android": "https://dc.lft.to/lastmile_qr_scan"}, "is_reserved": 0, "fusion_lon": 0.0, "fusion_lat": 0.0, "lon": -77.0490495, "name": "739e65afdea4cffb7a04e5dac145f7b6"}, {"bike_id": "34aec499c01a91132e72e6d588b9246d", "type": "electric_scooter", "is_disabled": 0, "lat": 38.902461833333334, "rental_uris": {"ios": "https://dc.lft.to/lastmile_qr_scan", "android": "https://dc.lft.to/lastmile_qr_scan"}, "is_reserved": 0, "fusion_lon": 0.0, "fusion_lat": 0.0, "lon": -77.046833, "name": "34aec499c01a91132e72e6d588b9246d"}, {"bike_id": "6462bba992b66425b4a9f3ae25b563f5", "type": "electric_scooter", "is_disabled": 0, "lat": 38.84539933333333, "rental_uris": {"ios": "https://dc.lft.to/lastmile_qr_scan", "android": "https://dc.lft.to/lastmile_qr_scan"}, "is_reserved": 0, "fusion_lon": 0.0, "fusion_lat": 0.0, "lon": -76.98545483333334, "name": "6462bba992b66425b4a9f3ae25b563f5"}, {"bike_id": "92024a91136b0551536f64506cc39ee1", "type": "electric_bike", "is_disabled": 0, "lat": 38.86515466666667, "rental_uris": {"ios": "https://dc.lft.to/lastmile_qr_scan", "android": "https://dc.lft.to/lastmile_qr_scan"}, "is_reserved": 0, "fusion_lon": 0.0, "fusion_lat": 0.0, "lon": -76.97339016666666, "name": "92024a91136b0551536f64506cc39ee1"}, {"bike_id": "c9bc5763765245a9fd03f1c9dbe37a7e", "type": "electric_bike", "is_disabled": 0, "lat": 38.90464866666667, "rental_uris": {"ios": "https://dc.lft.to/lastmile_qr_scan", "android": "https://dc.lft.to/lastmile_qr_scan"}, "is_reserved": 0, "fusion_lon": 0.0, "fusion_lat": 0.0, "lon": -77.04841083333334, "name": "c9bc5763765245a9fd03f1c9dbe37a7e"}, {"bike_id": "9cc6fe841d2b05c0447106f6e86f5b50", "type": "electric_scooter", "is_disabled": 0, "lat": 38.908489, "rental_uris": {"ios": "https://dc.lft.to/lastmile_qr_scan", "android": "https://dc.lft.to/lastmile_qr_scan"}, "is_reserved": 0, "fusion_lon": 0.0, "fusion_lat": 0.0, "lon": -77.02712533333333, "name": "9cc6fe841d2b05c0447106f6e86f5b50"}, {"bike_id": "3dfc003181a826fce33f793575062668", "type": "electric_scooter", "is_disabled": 0, "lat": 38.9126565, "rental_uris": {"ios": "https://dc.lft.to/lastmile_qr_scan", "android": "https://dc.lft.to/lastmile_qr_scan"}, "is_reserved": 0, "fusion_lon": 0.0, "fusion_lat": 0.0, "lon": -77.0301835, "name": "3dfc003181a826fce33f793575062668"}, {"bike_id": "3df0088fb823e208153f10b39daacf97", "type": "electric_scooter", "is_disabled": 0, "lat": 38.9178875, "rental_uris": {"ios": "https://dc.lft.to/lastmile_qr_scan", "android": "https://dc.lft.to/lastmile_qr_scan"}, "is_reserved": 0, "fusion_lon": 0.0, "fusion_lat": 0.0, "lon": -77.036323, "name": "3df0088fb823e208153f10b39daacf97"}, {"bike_id": "06ef47cc0cca734a0a4b607e4b533bf8", "type": "electric_scooter", "is_disabled": 0, "lat": 38.92241766666667, "rental_uris": {"ios": "https://dc.lft.to/lastmile_qr_scan", "android": "https://dc.lft.to/lastmile_qr_scan"}, "is_reserved": 0, "fusion_lon": 0.0, "fusion_lat": 0.0, "lon": -77.03521566666667, "name": "06ef47cc0cca734a0a4b607e4b533bf8"}, {"bike_id": "401770f7dd42e7c36f35f31d4a15ddde", "type": "electric_scooter", "is_disabled": 0, "lat": 38.8899995, "rental_uris": {"ios": "https://dc.lft.to/lastmile_qr_scan", "android": "https://dc.lft.to/lastmile_qr_scan"}, "is_reserved": 0, "fusion_lon": 0.0, "fusion_lat": 0.0, "lon": -77.04903233333333, "name": "401770f7dd42e7c36f35f31d4a15ddde"}, {"bike_id": "10cf116b62df6d7dcd69530d9432f580", "type": "electric_scooter", "is_disabled": 0, "lat": 38.949003833333336, "rental_uris": {"ios": "https://dc.lft.to/lastmile_qr_scan", "android": "https://dc.lft.to/lastmile_qr_scan"}, "is_reserved": 0, "fusion_lon": 0.0, "fusion_lat": 0.0, "lon": -77.02072533333333, "name": "10cf116b62df6d7dcd69530d9432f580"}, {"bike_id": "dffd7a8a1b434e5491bffd20da5eee6a", "type": "electric_scooter", "is_disabled": 0, "lat": 38.844362333333336, "rental_uris": {"ios": "https://dc.lft.to/lastmile_qr_scan", "android": "https://dc.lft.to/lastmile_qr_scan"}, "is_reserved": 0, "fusion_lon": 0.0, "fusion_lat": 0.0, "lon": -76.99866283333333, "name": "dffd7a8a1b434e5491bffd20da5eee6a"}, {"bike_id": "01115ad349da50115504e93a10058740", "type": "electric_scooter", "is_disabled": 0, "lat": 38.9155855, "rental_uris": {"ios": "https://dc.lft.to/lastmile_qr_scan", "android": "https://dc.lft.to/lastmile_qr_scan"}, "is_reserved": 0, "fusion_lon": 0.0, "fusion_lat": 0.0, "lon": -77.02645283333334, "name": "01115ad349da50115504e93a10058740"}, {"bike_id": "0a43f45da507e27f3829329e349647a2", "type": "electric_scooter", "is_disabled": 0, "lat": 38.878456666666665, "rental_uris": {"ios": "https://dc.lft.to/lastmile_qr_scan", "android": "https://dc.lft.to/lastmile_qr_scan"}, "is_reserved": 0, "fusion_lon": 0.0, "fusion_lat": 0.0, "lon": -76.98621533333333, "name": "0a43f45da507e27f3829329e349647a2"}, {"bike_id": "f39050893fd06805b1c121900d30a22a", "type": "electric_scooter", "is_disabled": 0, "lat": 38.932924166666666, "rental_uris": {"ios": "https://dc.lft.to/lastmile_qr_scan", "android": "https://dc.lft.to/lastmile_qr_scan"}, "is_reserved": 0, "fusion_lon": 0.0, "fusion_lat": 0.0, "lon": -77.03547983333333, "name": "f39050893fd06805b1c121900d30a22a"}, {"bike_id": "fefb6b5a06cc63cc2e4bb8fd33143cf0", "type": "electric_scooter", "is_disabled": 0, "lat": 38.889379166666664, "rental_uris": {"ios": "https://dc.lft.to/lastmile_qr_scan", "android": "https://dc.lft.to/lastmile_qr_scan"}, "is_reserved": 0, "fusion_lon": 0.0, "fusion_lat": 0.0, "lon": -76.9357235, "name": "fefb6b5a06cc63cc2e4bb8fd33143cf0"}, {"bike_id": "6f47309127377f88c2a172906fcd031a", "type": "electric_scooter", "is_disabled": 0, "lat": 38.88038916666667, "rental_uris": {"ios": "https://dc.lft.to/lastmile_qr_scan", "android": "https://dc.lft.to/lastmile_qr_scan"}, "is_reserved": 0, "fusion_lon": 0.0, "fusion_lat": 0.0, "lon": -77.00548133333334, "name": "6f47309127377f88c2a172906fcd031a"}, {"bike_id": "5188ff9114f207fd23dc3911d3164bb5", "type": "electric_scooter", "is_disabled": 0, "lat": 38.91816983333333, "rental_uris": {"ios": "https://dc.lft.to/lastmile_qr_scan", "android": "https://dc.lft.to/lastmile_qr_scan"}, "is_reserved": 0, "fusion_lon": 0.0, "fusion_lat": 0.0, "lon": -77.02497633333333, "name": "5188ff9114f207fd23dc3911d3164bb5"}, {"bike_id": "c44ad213c2753b6fd1060bf80fd1a7c1", "type": "electric_scooter", "is_disabled": 0, "lat": 38.8464265, "rental_uris": {"ios": "https://dc.lft.to/lastmile_qr_scan", "android": "https://dc.lft.to/lastmile_qr_scan"}, "is_reserved": 0, "fusion_lon": 0.0, "fusion_lat": 0.0, "lon": -76.99128683333333, "name": "c44ad213c2753b6fd1060bf80fd1a7c1"}, {"bike_id": "4e5a29713fdf3cd2167b3133187656f2", "type": "electric_scooter", "is_disabled": 0, "lat": 38.93512033333333, "rental_uris": {"ios": "https://dc.lft.to/lastmile_qr_scan", "android": "https://dc.lft.to/lastmile_qr_scan"}, "is_reserved": 0, "fusion_lon": 0.0, "fusion_lat": 0.0, "lon": -77.03673866666666, "name": "4e5a29713fdf3cd2167b3133187656f2"}, {"bike_id": "bece29adf569baa59e108e62521d6899", "type": "electric_scooter", "is_disabled": 0, "lat": 38.91926266666667, "rental_uris": {"ios": "https://dc.lft.to/lastmile_qr_scan", "android": "https://dc.lft.to/lastmile_qr_scan"}, "is_reserved": 0, "fusion_lon": 0.0, "fusion_lat": 0.0, "lon": -77.03420083333333, "name": "bece29adf569baa59e108e62521d6899"}, {"bike_id": "057519cf9bd8efed8b887abc2322dfa4", "type": "electric_scooter", "is_disabled": 0, "lat": 38.8886255, "rental_uris": {"ios": "https://dc.lft.to/lastmile_qr_scan", "android": "https://dc.lft.to/lastmile_qr_scan"}, "is_reserved": 0, "fusion_lon": 0.0, "fusion_lat": 0.0, "lon": -76.99145866666667, "name": "057519cf9bd8efed8b887abc2322dfa4"}, {"bike_id": "548cf5ec75476968c9567cf1c83b5eaa", "type": "electric_scooter", "is_disabled": 0, "lat": 38.920528833333336, "rental_uris": {"ios": "https://dc.lft.to/lastmile_qr_scan", "android": "https://dc.lft.to/lastmile_qr_scan"}, "is_reserved": 0, "fusion_lon": 0.0, "fusion_lat": 0.0, "lon": -77.0242905, "name": "548cf5ec75476968c9567cf1c83b5eaa"}, {"bike_id": "d76b44c6b98436196a7bc3e29787c004", "type": "electric_bike", "is_disabled": 0, "lat": 38.821794833333335, "rental_uris": {"ios": "https://dc.lft.to/lastmile_qr_scan", "android": "https://dc.lft.to/lastmile_qr_scan"}, "is_reserved": 0, "fusion_lon": 0.0, "fusion_lat": 0.0, "lon": -76.99513816666666, "name": "d76b44c6b98436196a7bc3e29787c004"}, {"bike_id": "92df88406765feac827a4e722e2ab05f", "type": "electric_bike", "is_disabled": 0, "lat": 39.0430625, "rental_uris": {"ios": "https://dc.lft.to/lastmile_qr_scan", "android": "https://dc.lft.to/lastmile_qr_scan"}, "is_reserved": 0, "fusion_lon": 0.0, "fusion_lat": 0.0, "lon": -77.051588, "name": "92df88406765feac827a4e722e2ab05f"}, {"bike_id": "8cfcff144b7d1d9a738f81fd0b923939", "type": "electric_scooter", "is_disabled": 0, "lat": 38.893614, "rental_uris": {"ios": "https://dc.lft.to/lastmile_qr_scan", "android": "https://dc.lft.to/lastmile_qr_scan"}, "is_reserved": 0, "fusion_lon": 0.0, "fusion_lat": 0.0, "lon": -76.94930566666666, "name": "8cfcff144b7d1d9a738f81fd0b923939"}, {"bike_id": "ed2fd35cf787629317373f9389aecb80", "type": "electric_scooter", "is_disabled": 0, "lat": 38.920333, "rental_uris": {"ios": "https://dc.lft.to/lastmile_qr_scan", "android": "https://dc.lft.to/lastmile_qr_scan"}, "is_reserved": 0, "fusion_lon": 0.0, "fusion_lat": 0.0, "lon": -77.04083233333333, "name": "ed2fd35cf787629317373f9389aecb80"}, {"bike_id": "eeed3bd38a935a2898659ff806592b02", "type": "electric_scooter", "is_disabled": 0, "lat": 38.87162333333333, "rental_uris": {"ios": "https://dc.lft.to/lastmile_qr_scan", "android": "https://dc.lft.to/lastmile_qr_scan"}, "is_reserved": 0, "fusion_lon": 0.0, "fusion_lat": 0.0, "lon": -77.01353116666667, "name": "eeed3bd38a935a2898659ff806592b02"}, {"bike_id": "121cb2eb104a42bfcae3126652ae5e72", "type": "electric_scooter", "is_disabled": 0, "lat": 38.92669566666667, "rental_uris": {"ios": "https://dc.lft.to/lastmile_qr_scan", "android": "https://dc.lft.to/lastmile_qr_scan"}, "is_reserved": 0, "fusion_lon": 0.0, "fusion_lat": 0.0, "lon": -77.030271, "name": "121cb2eb104a42bfcae3126652ae5e72"}, {"bike_id": "f43640cc0abc5a1bec72ae4616e1e367", "type": "electric_scooter", "is_disabled": 0, "lat": 38.90423083333334, "rental_uris": {"ios": "https://dc.lft.to/lastmile_qr_scan", "android": "https://dc.lft.to/lastmile_qr_scan"}, "is_reserved": 0, "fusion_lon": 0.0, "fusion_lat": 0.0, "lon": -77.04873833333333, "name": "f43640cc0abc5a1bec72ae4616e1e367"}, {"bike_id": "50c83ac86cb75b67c78af4d484518b59", "type": "electric_scooter", "is_disabled": 0, "lat": 38.9280785, "rental_uris": {"ios": "https://dc.lft.to/lastmile_qr_scan", "android": "https://dc.lft.to/lastmile_qr_scan"}, "is_reserved": 0, "fusion_lon": 0.0, "fusion_lat": 0.0, "lon": -77.031938, "name": "50c83ac86cb75b67c78af4d484518b59"}, {"bike_id": "3fce55d9e38f0fc5d97b880e2e438ce2", "type": "electric_scooter", "is_disabled": 0, "lat": 38.905954, "rental_uris": {"ios": "https://dc.lft.to/lastmile_qr_scan", "android": "https://dc.lft.to/lastmile_qr_scan"}, "is_reserved": 0, "fusion_lon": 0.0, "fusion_lat": 0.0, "lon": -77.04115366666667, "name": "3fce55d9e38f0fc5d97b880e2e438ce2"}, {"bike_id": "1b526403ea28aa3cbd12583f44cbd46c", "type": "electric_scooter", "is_disabled": 0, "lat": 38.90558016666667, "rental_uris": {"ios": "https://dc.lft.to/lastmile_qr_scan", "android": "https://dc.lft.to/lastmile_qr_scan"}, "is_reserved": 0, "fusion_lon": 0.0, "fusion_lat": 0.0, "lon": -77.06523983333334, "name": "1b526403ea28aa3cbd12583f44cbd46c"}, {"bike_id": "30303ae0a56092f0ef61099a85c45cd6", "type": "electric_scooter", "is_disabled": 0, "lat": 38.90363266666667, "rental_uris": {"ios": "https://dc.lft.to/lastmile_qr_scan", "android": "https://dc.lft.to/lastmile_qr_scan"}, "is_reserved": 0, "fusion_lon": 0.0, "fusion_lat": 0.0, "lon": -76.9994525, "name": "30303ae0a56092f0ef61099a85c45cd6"}, {"bike_id": "19945baaa468252b22121907c016a2ff", "type": "electric_scooter", "is_disabled": 0, "lat": 38.909759, "rental_uris": {"ios": "https://dc.lft.to/lastmile_qr_scan", "android": "https://dc.lft.to/lastmile_qr_scan"}, "is_reserved": 0, "fusion_lon": 0.0, "fusion_lat": 0.0, "lon": -77.04529916666667, "name": "19945baaa468252b22121907c016a2ff"}, {"bike_id": "6828d31cb252c32cf451a5cc0ae2baa4", "type": "electric_scooter", "is_disabled": 0, "lat": 38.92786666666667, "rental_uris": {"ios": "https://dc.lft.to/lastmile_qr_scan", "android": "https://dc.lft.to/lastmile_qr_scan"}, "is_reserved": 0, "fusion_lon": 0.0, "fusion_lat": 0.0, "lon": -77.02206066666666, "name": "6828d31cb252c32cf451a5cc0ae2baa4"}, {"bike_id": "86e80f0bb3b43d351c42b8361d12c4c2", "type": "electric_bike", "is_disabled": 0, "lat": 38.88954716666667, "rental_uris": {"ios": "https://dc.lft.to/lastmile_qr_scan", "android": "https://dc.lft.to/lastmile_qr_scan"}, "is_reserved": 0, "fusion_lon": 0.0, "fusion_lat": 0.0, "lon": -77.09136783333334, "name": "86e80f0bb3b43d351c42b8361d12c4c2"}, {"bike_id": "9977c951fac1dbb1466dd78b6a19d62b", "type": "electric_scooter", "is_disabled": 0, "lat": 38.91179666666667, "rental_uris": {"ios": "https://dc.lft.to/lastmile_qr_scan", "android": "https://dc.lft.to/lastmile_qr_scan"}, "is_reserved": 0, "fusion_lon": 0.0, "fusion_lat": 0.0, "lon": -77.06855366666667, "name": "9977c951fac1dbb1466dd78b6a19d62b"}, {"bike_id": "fb65efedad0923e13ebb60b9eed701dc", "type": "electric_scooter", "is_disabled": 0, "lat": 38.905983, "rental_uris": {"ios": "https://dc.lft.to/lastmile_qr_scan", "android": "https://dc.lft.to/lastmile_qr_scan"}, "is_reserved": 0, "fusion_lon": 0.0, "fusion_lat": 0.0, "lon": -77.0731055, "name": "fb65efedad0923e13ebb60b9eed701dc"}, {"bike_id": "36f9d501e1014171a9445320a7a5d3de", "type": "electric_scooter", "is_disabled": 0, "lat": 38.921646833333334, "rental_uris": {"ios": "https://dc.lft.to/lastmile_qr_scan", "android": "https://dc.lft.to/lastmile_qr_scan"}, "is_reserved": 0, "fusion_lon": 0.0, "fusion_lat": 0.0, "lon": -77.03842666666667, "name": "36f9d501e1014171a9445320a7a5d3de"}, {"bike_id": "7fb717f23b147d329d6e2555bfe26396", "type": "electric_scooter", "is_disabled": 0, "lat": 38.89689, "rental_uris": {"ios": "https://dc.lft.to/lastmile_qr_scan", "android": "https://dc.lft.to/lastmile_qr_scan"}, "is_reserved": 0, "fusion_lon": 0.0, "fusion_lat": 0.0, "lon": -76.99964266666667, "name": "7fb717f23b147d329d6e2555bfe26396"}, {"bike_id": "565571020990ce3b1d8b0cef79dba4b2", "type": "electric_bike", "is_disabled": 0, "lat": 38.836102833333335, "rental_uris": {"ios": "https://dc.lft.to/lastmile_qr_scan", "android": "https://dc.lft.to/lastmile_qr_scan"}, "is_reserved": 0, "fusion_lon": 0.0, "fusion_lat": 0.0, "lon": -77.00377216666666, "name": "565571020990ce3b1d8b0cef79dba4b2"}, {"bike_id": "dcc99c33e90dd59ff5765b6a5b757029", "type": "electric_scooter", "is_disabled": 0, "lat": 38.904744, "rental_uris": {"ios": "https://dc.lft.to/lastmile_qr_scan", "android": "https://dc.lft.to/lastmile_qr_scan"}, "is_reserved": 0, "fusion_lon": 0.0, "fusion_lat": 0.0, "lon": -77.02943583333334, "name": "dcc99c33e90dd59ff5765b6a5b757029"}, {"bike_id": "8ccd9358224a6984e6ed728f087f973a", "type": "electric_scooter", "is_disabled": 0, "lat": 38.922338, "rental_uris": {"ios": "https://dc.lft.to/lastmile_qr_scan", "android": "https://dc.lft.to/lastmile_qr_scan"}, "is_reserved": 0, "fusion_lon": 0.0, "fusion_lat": 0.0, "lon": -76.97342916666666, "name": "8ccd9358224a6984e6ed728f087f973a"}, {"bike_id": "3ce6fd5372be663295b5818b810369f7", "type": "electric_bike", "is_disabled": 0, "lat": 38.8999685, "rental_uris": {"ios": "https://dc.lft.to/lastmile_qr_scan", "android": "https://dc.lft.to/lastmile_qr_scan"}, "is_reserved": 0, "fusion_lon": 0.0, "fusion_lat": 0.0, "lon": -77.0754725, "name": "3ce6fd5372be663295b5818b810369f7"}, {"bike_id": "e099a023d2ea0c02bbae19d525e07ffb", "type": "electric_scooter", "is_disabled": 0, "lat": 38.922775666666666, "rental_uris": {"ios": "https://dc.lft.to/lastmile_qr_scan", "android": "https://dc.lft.to/lastmile_qr_scan"}, "is_reserved": 0, "fusion_lon": 0.0, "fusion_lat": 0.0, "lon": -76.99458, "name": "e099a023d2ea0c02bbae19d525e07ffb"}, {"bike_id": "a5c9c62ab8b9511b449bdba4757225cf", "type": "electric_scooter", "is_disabled": 0, "lat": 38.92248716666667, "rental_uris": {"ios": "https://dc.lft.to/lastmile_qr_scan", "android": "https://dc.lft.to/lastmile_qr_scan"}, "is_reserved": 0, "fusion_lon": 0.0, "fusion_lat": 0.0, "lon": -77.03908, "name": "a5c9c62ab8b9511b449bdba4757225cf"}, {"bike_id": "9284b39b890cb2b73797f3a8879addca", "type": "electric_scooter", "is_disabled": 0, "lat": 38.90555616666666, "rental_uris": {"ios": "https://dc.lft.to/lastmile_qr_scan", "android": "https://dc.lft.to/lastmile_qr_scan"}, "is_reserved": 0, "fusion_lon": 0.0, "fusion_lat": 0.0, "lon": -76.99616733333333, "name": "9284b39b890cb2b73797f3a8879addca"}, {"bike_id": "83929d6a148b61f653562171683a2da4", "type": "electric_scooter", "is_disabled": 0, "lat": 38.9197295, "rental_uris": {"ios": "https://dc.lft.to/lastmile_qr_scan", "android": "https://dc.lft.to/lastmile_qr_scan"}, "is_reserved": 0, "fusion_lon": 0.0, "fusion_lat": 0.0, "lon": -77.04217033333333, "name": "83929d6a148b61f653562171683a2da4"}, {"bike_id": "700d37deff6a05de94ca30980283c6fe", "type": "electric_scooter", "is_disabled": 0, "lat": 38.924893, "rental_uris": {"ios": "https://dc.lft.to/lastmile_qr_scan", "android": "https://dc.lft.to/lastmile_qr_scan"}, "is_reserved": 0, "fusion_lon": 0.0, "fusion_lat": 0.0, "lon": -77.0521835, "name": "700d37deff6a05de94ca30980283c6fe"}, {"bike_id": "9d47b5bb34306f6a58870b363e474310", "type": "electric_scooter", "is_disabled": 0, "lat": 38.926542833333336, "rental_uris": {"ios": "https://dc.lft.to/lastmile_qr_scan", "android": "https://dc.lft.to/lastmile_qr_scan"}, "is_reserved": 0, "fusion_lon": 0.0, "fusion_lat": 0.0, "lon": -77.02451683333334, "name": "9d47b5bb34306f6a58870b363e474310"}, {"bike_id": "fed0c736972f732434272450225e46cb", "type": "electric_scooter", "is_disabled": 0, "lat": 38.88429466666667, "rental_uris": {"ios": "https://dc.lft.to/lastmile_qr_scan", "android": "https://dc.lft.to/lastmile_qr_scan"}, "is_reserved": 0, "fusion_lon": 0.0, "fusion_lat": 0.0, "lon": -76.9575415, "name": "fed0c736972f732434272450225e46cb"}, {"bike_id": "23e7630d4ee3c3660586f566febe4ed2", "type": "electric_bike", "is_disabled": 0, "lat": 38.804180833333334, "rental_uris": {"ios": "https://dc.lft.to/lastmile_qr_scan", "android": "https://dc.lft.to/lastmile_qr_scan"}, "is_reserved": 0, "fusion_lon": 0.0, "fusion_lat": 0.0, "lon": -77.055516, "name": "23e7630d4ee3c3660586f566febe4ed2"}, {"bike_id": "d36ba9a3814f2acfa7860d1ff655140f", "type": "electric_bike", "is_disabled": 0, "lat": 38.89063866666667, "rental_uris": {"ios": "https://dc.lft.to/lastmile_qr_scan", "android": "https://dc.lft.to/lastmile_qr_scan"}, "is_reserved": 0, "fusion_lon": 0.0, "fusion_lat": 0.0, "lon": -77.086254, "name": "d36ba9a3814f2acfa7860d1ff655140f"}, {"bike_id": "ff23719993b42c4aa4b91d9679368f7c", "type": "electric_scooter", "is_disabled": 0, "lat": 38.90567433333333, "rental_uris": {"ios": "https://dc.lft.to/lastmile_qr_scan", "android": "https://dc.lft.to/lastmile_qr_scan"}, "is_reserved": 0, "fusion_lon": 0.0, "fusion_lat": 0.0, "lon": -77.00576616666666, "name": "ff23719993b42c4aa4b91d9679368f7c"}, {"bike_id": "30b7d1917a891ee5b6847e02daf8ac40", "type": "electric_bike", "is_disabled": 0, "lat": 38.95335333333333, "rental_uris": {"ios": "https://dc.lft.to/lastmile_qr_scan", "android": "https://dc.lft.to/lastmile_qr_scan"}, "is_reserved": 0, "fusion_lon": 0.0, "fusion_lat": 0.0, "lon": -76.98243266666667, "name": "30b7d1917a891ee5b6847e02daf8ac40"}, {"bike_id": "79be302116ddc0db9b5f1eb316381402", "type": "electric_bike", "is_disabled": 0, "lat": 38.877301, "rental_uris": {"ios": "https://dc.lft.to/lastmile_qr_scan", "android": "https://dc.lft.to/lastmile_qr_scan"}, "is_reserved": 0, "fusion_lon": 0.0, "fusion_lat": 0.0, "lon": -77.0035665, "name": "79be302116ddc0db9b5f1eb316381402"}, {"bike_id": "8bb96a405df3ec2a526d441d28821214", "type": "electric_bike", "is_disabled": 0, "lat": 38.94513516666667, "rental_uris": {"ios": "https://dc.lft.to/lastmile_qr_scan", "android": "https://dc.lft.to/lastmile_qr_scan"}, "is_reserved": 0, "fusion_lon": 0.0, "fusion_lat": 0.0, "lon": -77.006747, "name": "8bb96a405df3ec2a526d441d28821214"}, {"bike_id": "5fe68fa5011b4fba755944fd3f076a1a", "type": "electric_scooter", "is_disabled": 0, "lat": 38.90725916666667, "rental_uris": {"ios": "https://dc.lft.to/lastmile_qr_scan", "android": "https://dc.lft.to/lastmile_qr_scan"}, "is_reserved": 0, "fusion_lon": 0.0, "fusion_lat": 0.0, "lon": -77.01022616666667, "name": "5fe68fa5011b4fba755944fd3f076a1a"}, {"bike_id": "d14159221181e2f7bfda7e41c1fc6e47", "type": "electric_bike", "is_disabled": 0, "lat": 38.81170783333334, "rental_uris": {"ios": "https://dc.lft.to/lastmile_qr_scan", "android": "https://dc.lft.to/lastmile_qr_scan"}, "is_reserved": 0, "fusion_lon": 0.0, "fusion_lat": 0.0, "lon": -77.069631, "name": "d14159221181e2f7bfda7e41c1fc6e47"}, {"bike_id": "23f02a4ac59f6e394804e538be4c0de8", "type": "electric_scooter", "is_disabled": 0, "lat": 38.92343416666667, "rental_uris": {"ios": "https://dc.lft.to/lastmile_qr_scan", "android": "https://dc.lft.to/lastmile_qr_scan"}, "is_reserved": 0, "fusion_lon": 0.0, "fusion_lat": 0.0, "lon": -77.03906, "name": "23f02a4ac59f6e394804e538be4c0de8"}, {"bike_id": "e284951b2dc0f0c6ece57eb782c2caca", "type": "electric_bike", "is_disabled": 0, "lat": 38.943671333333334, "rental_uris": {"ios": "https://dc.lft.to/lastmile_qr_scan", "android": "https://dc.lft.to/lastmile_qr_scan"}, "is_reserved": 0, "fusion_lon": 0.0, "fusion_lat": 0.0, "lon": -76.96781183333333, "name": "e284951b2dc0f0c6ece57eb782c2caca"}, {"bike_id": "9db780f5ca4fafee4b05ecdfa5edd79a", "type": "electric_scooter", "is_disabled": 0, "lat": 38.86213766666667, "rental_uris": {"ios": "https://dc.lft.to/lastmile_qr_scan", "android": "https://dc.lft.to/lastmile_qr_scan"}, "is_reserved": 0, "fusion_lon": 0.0, "fusion_lat": 0.0, "lon": -76.994672, "name": "9db780f5ca4fafee4b05ecdfa5edd79a"}, {"bike_id": "96f6b3077fea8169682b8a91bc06b98f", "type": "electric_scooter", "is_disabled": 0, "lat": 38.89541933333334, "rental_uris": {"ios": "https://dc.lft.to/lastmile_qr_scan", "android": "https://dc.lft.to/lastmile_qr_scan"}, "is_reserved": 0, "fusion_lon": 0.0, "fusion_lat": 0.0, "lon": -76.94923933333334, "name": "96f6b3077fea8169682b8a91bc06b98f"}, {"bike_id": "481a95c0f9b7d5b3e05767cf0e4f826b", "type": "electric_scooter", "is_disabled": 0, "lat": 38.93841616666667, "rental_uris": {"ios": "https://dc.lft.to/lastmile_qr_scan", "android": "https://dc.lft.to/lastmile_qr_scan"}, "is_reserved": 0, "fusion_lon": 0.0, "fusion_lat": 0.0, "lon": -77.03382033333334, "name": "481a95c0f9b7d5b3e05767cf0e4f826b"}, {"bike_id": "9d6ee3e36433d714583c300287fb6838", "type": "electric_scooter", "is_disabled": 0, "lat": 38.917713, "rental_uris": {"ios": "https://dc.lft.to/lastmile_qr_scan", "android": "https://dc.lft.to/lastmile_qr_scan"}, "is_reserved": 0, "fusion_lon": 0.0, "fusion_lat": 0.0, "lon": -77.04767866666667, "name": "9d6ee3e36433d714583c300287fb6838"}, {"bike_id": "2c98ba4339559cf98ab10c63d7e4eca1", "type": "electric_scooter", "is_disabled": 0, "lat": 38.9245825, "rental_uris": {"ios": "https://dc.lft.to/lastmile_qr_scan", "android": "https://dc.lft.to/lastmile_qr_scan"}, "is_reserved": 0, "fusion_lon": 0.0, "fusion_lat": 0.0, "lon": -77.03265216666667, "name": "2c98ba4339559cf98ab10c63d7e4eca1"}, {"bike_id": "7d2c5ca8e44eb2400df72c806af4ec09", "type": "electric_scooter", "is_disabled": 0, "lat": 38.95631516666667, "rental_uris": {"ios": "https://dc.lft.to/lastmile_qr_scan", "android": "https://dc.lft.to/lastmile_qr_scan"}, "is_reserved": 0, "fusion_lon": 0.0, "fusion_lat": 0.0, "lon": -77.0361685, "name": "7d2c5ca8e44eb2400df72c806af4ec09"}, {"bike_id": "6836d3d85d7876409a47e590e7755583", "type": "electric_scooter", "is_disabled": 0, "lat": 38.8990175, "rental_uris": {"ios": "https://dc.lft.to/lastmile_qr_scan", "android": "https://dc.lft.to/lastmile_qr_scan"}, "is_reserved": 0, "fusion_lon": 0.0, "fusion_lat": 0.0, "lon": -77.03939133333333, "name": "6836d3d85d7876409a47e590e7755583"}, {"bike_id": "1d95612b943d233327f2302ee9de9a93", "type": "electric_scooter", "is_disabled": 0, "lat": 38.923301, "rental_uris": {"ios": "https://dc.lft.to/lastmile_qr_scan", "android": "https://dc.lft.to/lastmile_qr_scan"}, "is_reserved": 0, "fusion_lon": 0.0, "fusion_lat": 0.0, "lon": -77.0376405, "name": "1d95612b943d233327f2302ee9de9a93"}, {"bike_id": "e1df78ad94746c08c96cccbb68489177", "type": "electric_bike", "is_disabled": 0, "lat": 38.93175, "rental_uris": {"ios": "https://dc.lft.to/lastmile_qr_scan", "android": "https://dc.lft.to/lastmile_qr_scan"}, "is_reserved": 0, "fusion_lon": 0.0, "fusion_lat": 0.0, "lon": -77.03547633333334, "name": "e1df78ad94746c08c96cccbb68489177"}, {"bike_id": "4303ecba3681509e9a791af3b84aff6b", "type": "electric_scooter", "is_disabled": 0, "lat": 38.923289, "rental_uris": {"ios": "https://dc.lft.to/lastmile_qr_scan", "android": "https://dc.lft.to/lastmile_qr_scan"}, "is_reserved": 0, "fusion_lon": 0.0, "fusion_lat": 0.0, "lon": -77.03543266666667, "name": "4303ecba3681509e9a791af3b84aff6b"}, {"bike_id": "025b7fcc86980d096a51c4831ffabe19", "type": "electric_bike", "is_disabled": 0, "lat": 38.974026333333335, "rental_uris": {"ios": "https://dc.lft.to/lastmile_qr_scan", "android": "https://dc.lft.to/lastmile_qr_scan"}, "is_reserved": 0, "fusion_lon": 0.0, "fusion_lat": 0.0, "lon": -77.06453266666666, "name": "025b7fcc86980d096a51c4831ffabe19"}, {"bike_id": "c43f71d9d1c3f8aee4f77e2d3f425797", "type": "electric_scooter", "is_disabled": 0, "lat": 38.9030265, "rental_uris": {"ios": "https://dc.lft.to/lastmile_qr_scan", "android": "https://dc.lft.to/lastmile_qr_scan"}, "is_reserved": 0, "fusion_lon": 0.0, "fusion_lat": 0.0, "lon": -77.06525366666666, "name": "c43f71d9d1c3f8aee4f77e2d3f425797"}, {"bike_id": "c9cef66c33564fc259861ef2688a1cc4", "type": "electric_scooter", "is_disabled": 0, "lat": 38.90585983333333, "rental_uris": {"ios": "https://dc.lft.to/lastmile_qr_scan", "android": "https://dc.lft.to/lastmile_qr_scan"}, "is_reserved": 0, "fusion_lon": 0.0, "fusion_lat": 0.0, "lon": -77.02689733333334, "name": "c9cef66c33564fc259861ef2688a1cc4"}, {"bike_id": "67c55cf3c8a874d6493e1dc7c7732b9a", "type": "electric_scooter", "is_disabled": 0, "lat": 38.88535366666667, "rental_uris": {"ios": "https://dc.lft.to/lastmile_qr_scan", "android": "https://dc.lft.to/lastmile_qr_scan"}, "is_reserved": 0, "fusion_lon": 0.0, "fusion_lat": 0.0, "lon": -76.99818883333333, "name": "67c55cf3c8a874d6493e1dc7c7732b9a"}, {"bike_id": "41d7d0e613b6ef272bc72765407e5a44", "type": "electric_scooter", "is_disabled": 0, "lat": 38.901228833333334, "rental_uris": {"ios": "https://dc.lft.to/lastmile_qr_scan", "android": "https://dc.lft.to/lastmile_qr_scan"}, "is_reserved": 0, "fusion_lon": 0.0, "fusion_lat": 0.0, "lon": -76.92954, "name": "41d7d0e613b6ef272bc72765407e5a44"}, {"bike_id": "339c4bbf7814a23c1c720af71393b7f8", "type": "electric_scooter", "is_disabled": 0, "lat": 38.897767333333334, "rental_uris": {"ios": "https://dc.lft.to/lastmile_qr_scan", "android": "https://dc.lft.to/lastmile_qr_scan"}, "is_reserved": 0, "fusion_lon": 0.0, "fusion_lat": 0.0, "lon": -77.05158783333333, "name": "339c4bbf7814a23c1c720af71393b7f8"}, {"bike_id": "921ee9adffd74ebc67b01e0a08b0995e", "type": "electric_scooter", "is_disabled": 0, "lat": 38.947160333333336, "rental_uris": {"ios": "https://dc.lft.to/lastmile_qr_scan", "android": "https://dc.lft.to/lastmile_qr_scan"}, "is_reserved": 0, "fusion_lon": 0.0, "fusion_lat": 0.0, "lon": -77.02776833333333, "name": "921ee9adffd74ebc67b01e0a08b0995e"}, {"bike_id": "cfc2bfe3fafc100fd4ed1a8a02ed149c", "type": "electric_scooter", "is_disabled": 0, "lat": 38.86700666666667, "rental_uris": {"ios": "https://dc.lft.to/lastmile_qr_scan", "android": "https://dc.lft.to/lastmile_qr_scan"}, "is_reserved": 0, "fusion_lon": 0.0, "fusion_lat": 0.0, "lon": -76.9871315, "name": "cfc2bfe3fafc100fd4ed1a8a02ed149c"}, {"bike_id": "f0a80302fa8494f9b007c84dcf021d0d", "type": "electric_scooter", "is_disabled": 0, "lat": 38.862064, "rental_uris": {"ios": "https://dc.lft.to/lastmile_qr_scan", "android": "https://dc.lft.to/lastmile_qr_scan"}, "is_reserved": 0, "fusion_lon": 0.0, "fusion_lat": 0.0, "lon": -76.99466566666666, "name": "f0a80302fa8494f9b007c84dcf021d0d"}, {"bike_id": "726e961cde0635a83400ae3cdb8a6de3", "type": "electric_scooter", "is_disabled": 0, "lat": 38.899332333333334, "rental_uris": {"ios": "https://dc.lft.to/lastmile_qr_scan", "android": "https://dc.lft.to/lastmile_qr_scan"}, "is_reserved": 0, "fusion_lon": 0.0, "fusion_lat": 0.0, "lon": -77.00360716666667, "name": "726e961cde0635a83400ae3cdb8a6de3"}, {"bike_id": "27960e042e7427bec5c04ea7638aeb21", "type": "electric_scooter", "is_disabled": 0, "lat": 38.857558166666664, "rental_uris": {"ios": "https://dc.lft.to/lastmile_qr_scan", "android": "https://dc.lft.to/lastmile_qr_scan"}, "is_reserved": 0, "fusion_lon": 0.0, "fusion_lat": 0.0, "lon": -76.9930475, "name": "27960e042e7427bec5c04ea7638aeb21"}, {"bike_id": "e6499458d2c91d57e6b834a45856b298", "type": "electric_scooter", "is_disabled": 0, "lat": 38.938201, "rental_uris": {"ios": "https://dc.lft.to/lastmile_qr_scan", "android": "https://dc.lft.to/lastmile_qr_scan"}, "is_reserved": 0, "fusion_lon": 0.0, "fusion_lat": 0.0, "lon": -77.027141, "name": "e6499458d2c91d57e6b834a45856b298"}, {"bike_id": "9f3c62c80a45a3a8522d738e46ab0da9", "type": "electric_scooter", "is_disabled": 0, "lat": 38.8948835, "rental_uris": {"ios": "https://dc.lft.to/lastmile_qr_scan", "android": "https://dc.lft.to/lastmile_qr_scan"}, "is_reserved": 0, "fusion_lon": 0.0, "fusion_lat": 0.0, "lon": -76.99515016666666, "name": "9f3c62c80a45a3a8522d738e46ab0da9"}, {"bike_id": "2ae0bced18bd08cd60bcffd6b3dcbc17", "type": "electric_scooter", "is_disabled": 0, "lat": 38.92361666666667, "rental_uris": {"ios": "https://dc.lft.to/lastmile_qr_scan", "android": "https://dc.lft.to/lastmile_qr_scan"}, "is_reserved": 0, "fusion_lon": 0.0, "fusion_lat": 0.0, "lon": -77.03539066666667, "name": "2ae0bced18bd08cd60bcffd6b3dcbc17"}, {"bike_id": "c327a7578fac375d6edb0bc24002c1ad", "type": "electric_scooter", "is_disabled": 0, "lat": 38.93135133333333, "rental_uris": {"ios": "https://dc.lft.to/lastmile_qr_scan", "android": "https://dc.lft.to/lastmile_qr_scan"}, "is_reserved": 0, "fusion_lon": 0.0, "fusion_lat": 0.0, "lon": -77.05721966666667, "name": "c327a7578fac375d6edb0bc24002c1ad"}, {"bike_id": "518bf7fade0a55ba249f4b9a476fc343", "type": "electric_scooter", "is_disabled": 0, "lat": 38.92282566666667, "rental_uris": {"ios": "https://dc.lft.to/lastmile_qr_scan", "android": "https://dc.lft.to/lastmile_qr_scan"}, "is_reserved": 0, "fusion_lon": 0.0, "fusion_lat": 0.0, "lon": -77.01887516666666, "name": "518bf7fade0a55ba249f4b9a476fc343"}, {"bike_id": "1709b42c6ac5d9c36911f024d6e2d3b3", "type": "electric_scooter", "is_disabled": 0, "lat": 38.9337315, "rental_uris": {"ios": "https://dc.lft.to/lastmile_qr_scan", "android": "https://dc.lft.to/lastmile_qr_scan"}, "is_reserved": 0, "fusion_lon": 0.0, "fusion_lat": 0.0, "lon": -77.05734683333333, "name": "1709b42c6ac5d9c36911f024d6e2d3b3"}, {"bike_id": "a7690e50f82e2329a244f71302a2571b", "type": "electric_scooter", "is_disabled": 0, "lat": 38.905274166666665, "rental_uris": {"ios": "https://dc.lft.to/lastmile_qr_scan", "android": "https://dc.lft.to/lastmile_qr_scan"}, "is_reserved": 0, "fusion_lon": 0.0, "fusion_lat": 0.0, "lon": -76.98621616666667, "name": "a7690e50f82e2329a244f71302a2571b"}, {"bike_id": "00fc4bd06d540a0708e5b63e085537cc", "type": "electric_bike", "is_disabled": 0, "lat": 38.906231, "rental_uris": {"ios": "https://dc.lft.to/lastmile_qr_scan", "android": "https://dc.lft.to/lastmile_qr_scan"}, "is_reserved": 0, "fusion_lon": 0.0, "fusion_lat": 0.0, "lon": -76.98595883333333, "name": "00fc4bd06d540a0708e5b63e085537cc"}, {"bike_id": "f1a1606177c0ff16f5f7b0d20df3de25", "type": "electric_scooter", "is_disabled": 0, "lat": 38.862414333333334, "rental_uris": {"ios": "https://dc.lft.to/lastmile_qr_scan", "android": "https://dc.lft.to/lastmile_qr_scan"}, "is_reserved": 0, "fusion_lon": 0.0, "fusion_lat": 0.0, "lon": -76.995077, "name": "f1a1606177c0ff16f5f7b0d20df3de25"}, {"bike_id": "e39eab7ee2c959e54a5d5fe9843e40b8", "type": "electric_scooter", "is_disabled": 0, "lat": 38.94225, "rental_uris": {"ios": "https://dc.lft.to/lastmile_qr_scan", "android": "https://dc.lft.to/lastmile_qr_scan"}, "is_reserved": 0, "fusion_lon": 0.0, "fusion_lat": 0.0, "lon": -77.01440883333333, "name": "e39eab7ee2c959e54a5d5fe9843e40b8"}, {"bike_id": "9bb97bf2ad7cc17eb72a0ffb475153a1", "type": "electric_scooter", "is_disabled": 0, "lat": 38.92173666666667, "rental_uris": {"ios": "https://dc.lft.to/lastmile_qr_scan", "android": "https://dc.lft.to/lastmile_qr_scan"}, "is_reserved": 0, "fusion_lon": 0.0, "fusion_lat": 0.0, "lon": -77.0385145, "name": "9bb97bf2ad7cc17eb72a0ffb475153a1"}, {"bike_id": "299bd0e85cbaafc5e1fec16564e031da", "type": "electric_scooter", "is_disabled": 0, "lat": 38.909650166666665, "rental_uris": {"ios": "https://dc.lft.to/lastmile_qr_scan", "android": "https://dc.lft.to/lastmile_qr_scan"}, "is_reserved": 0, "fusion_lon": 0.0, "fusion_lat": 0.0, "lon": -77.0227175, "name": "299bd0e85cbaafc5e1fec16564e031da"}, {"bike_id": "886a5a7e011c32a4d290bf325d81f546", "type": "electric_scooter", "is_disabled": 0, "lat": 38.91694066666667, "rental_uris": {"ios": "https://dc.lft.to/lastmile_qr_scan", "android": "https://dc.lft.to/lastmile_qr_scan"}, "is_reserved": 0, "fusion_lon": 0.0, "fusion_lat": 0.0, "lon": -77.02596033333333, "name": "886a5a7e011c32a4d290bf325d81f546"}, {"bike_id": "a6855b5d3218752050e6e5ae1eedccf4", "type": "electric_bike", "is_disabled": 0, "lat": 38.829535166666666, "rental_uris": {"ios": "https://dc.lft.to/lastmile_qr_scan", "android": "https://dc.lft.to/lastmile_qr_scan"}, "is_reserved": 0, "fusion_lon": 0.0, "fusion_lat": 0.0, "lon": -77.12356266666667, "name": "a6855b5d3218752050e6e5ae1eedccf4"}, {"bike_id": "d1e03f3482a28c2134c815062c7b6400", "type": "electric_scooter", "is_disabled": 0, "lat": 38.914007833333336, "rental_uris": {"ios": "https://dc.lft.to/lastmile_qr_scan", "android": "https://dc.lft.to/lastmile_qr_scan"}, "is_reserved": 0, "fusion_lon": 0.0, "fusion_lat": 0.0, "lon": -76.98188883333333, "name": "d1e03f3482a28c2134c815062c7b6400"}, {"bike_id": "9a166cc33c308b1d986d4d9fe07c4e75", "type": "electric_scooter", "is_disabled": 0, "lat": 38.91927716666667, "rental_uris": {"ios": "https://dc.lft.to/lastmile_qr_scan", "android": "https://dc.lft.to/lastmile_qr_scan"}, "is_reserved": 0, "fusion_lon": 0.0, "fusion_lat": 0.0, "lon": -77.031841, "name": "9a166cc33c308b1d986d4d9fe07c4e75"}, {"bike_id": "f7908da526dd3ca0c3201006b8b0ade4", "type": "electric_bike", "is_disabled": 0, "lat": 38.993281833333334, "rental_uris": {"ios": "https://dc.lft.to/lastmile_qr_scan", "android": "https://dc.lft.to/lastmile_qr_scan"}, "is_reserved": 0, "fusion_lon": 0.0, "fusion_lat": 0.0, "lon": -76.9461335, "name": "f7908da526dd3ca0c3201006b8b0ade4"}, {"bike_id": "4911bca7674cf79222e11c839c215b36", "type": "electric_bike", "is_disabled": 0, "lat": 38.85525033333333, "rental_uris": {"ios": "https://dc.lft.to/lastmile_qr_scan", "android": "https://dc.lft.to/lastmile_qr_scan"}, "is_reserved": 0, "fusion_lon": 0.0, "fusion_lat": 0.0, "lon": -77.12007666666666, "name": "4911bca7674cf79222e11c839c215b36"}, {"bike_id": "bde5dbde47fde4de1463cc5eb78511a5", "type": "electric_scooter", "is_disabled": 0, "lat": 38.93360883333333, "rental_uris": {"ios": "https://dc.lft.to/lastmile_qr_scan", "android": "https://dc.lft.to/lastmile_qr_scan"}, "is_reserved": 0, "fusion_lon": 0.0, "fusion_lat": 0.0, "lon": -77.07356016666667, "name": "bde5dbde47fde4de1463cc5eb78511a5"}, {"bike_id": "69bfe98a2659575eed2708b385986225", "type": "electric_scooter", "is_disabled": 0, "lat": 38.907810833333336, "rental_uris": {"ios": "https://dc.lft.to/lastmile_qr_scan", "android": "https://dc.lft.to/lastmile_qr_scan"}, "is_reserved": 0, "fusion_lon": 0.0, "fusion_lat": 0.0, "lon": -77.0022, "name": "69bfe98a2659575eed2708b385986225"}, {"bike_id": "1f992d1e988e83bed1a7d79208f5ad25", "type": "electric_scooter", "is_disabled": 0, "lat": 38.90307033333333, "rental_uris": {"ios": "https://dc.lft.to/lastmile_qr_scan", "android": "https://dc.lft.to/lastmile_qr_scan"}, "is_reserved": 0, "fusion_lon": 0.0, "fusion_lat": 0.0, "lon": -77.04953866666666, "name": "1f992d1e988e83bed1a7d79208f5ad25"}, {"bike_id": "20978d4df133accc72c5d82be946cd02", "type": "electric_scooter", "is_disabled": 0, "lat": 38.9023495, "rental_uris": {"ios": "https://dc.lft.to/lastmile_qr_scan", "android": "https://dc.lft.to/lastmile_qr_scan"}, "is_reserved": 0, "fusion_lon": 0.0, "fusion_lat": 0.0, "lon": -77.04039066666667, "name": "20978d4df133accc72c5d82be946cd02"}, {"bike_id": "9df7106547018103e5b5b369d3b97f95", "type": "electric_scooter", "is_disabled": 0, "lat": 38.936059166666666, "rental_uris": {"ios": "https://dc.lft.to/lastmile_qr_scan", "android": "https://dc.lft.to/lastmile_qr_scan"}, "is_reserved": 0, "fusion_lon": 0.0, "fusion_lat": 0.0, "lon": -77.03657983333333, "name": "9df7106547018103e5b5b369d3b97f95"}, {"bike_id": "0bb14ba47620d939384cce0cff505f0c", "type": "electric_scooter", "is_disabled": 0, "lat": 38.93540766666667, "rental_uris": {"ios": "https://dc.lft.to/lastmile_qr_scan", "android": "https://dc.lft.to/lastmile_qr_scan"}, "is_reserved": 0, "fusion_lon": 0.0, "fusion_lat": 0.0, "lon": -77.058216, "name": "0bb14ba47620d939384cce0cff505f0c"}, {"bike_id": "019c8f0ad32c76ab08e30a24fd5c9b3f", "type": "electric_scooter", "is_disabled": 0, "lat": 38.915991166666664, "rental_uris": {"ios": "https://dc.lft.to/lastmile_qr_scan", "android": "https://dc.lft.to/lastmile_qr_scan"}, "is_reserved": 0, "fusion_lon": 0.0, "fusion_lat": 0.0, "lon": -77.03214366666667, "name": "019c8f0ad32c76ab08e30a24fd5c9b3f"}, {"bike_id": "8a429e8744a76b2efca6a7f806d934da", "type": "electric_scooter", "is_disabled": 0, "lat": 38.92215733333333, "rental_uris": {"ios": "https://dc.lft.to/lastmile_qr_scan", "android": "https://dc.lft.to/lastmile_qr_scan"}, "is_reserved": 0, "fusion_lon": 0.0, "fusion_lat": 0.0, "lon": -77.03659183333333, "name": "8a429e8744a76b2efca6a7f806d934da"}, {"bike_id": "f9cbf628a5ddf77467239910d5c30d53", "type": "electric_scooter", "is_disabled": 0, "lat": 38.90412516666667, "rental_uris": {"ios": "https://dc.lft.to/lastmile_qr_scan", "android": "https://dc.lft.to/lastmile_qr_scan"}, "is_reserved": 0, "fusion_lon": 0.0, "fusion_lat": 0.0, "lon": -76.97332816666666, "name": "f9cbf628a5ddf77467239910d5c30d53"}, {"bike_id": "67b05a52babc81a91683ebb99192ad1e", "type": "electric_scooter", "is_disabled": 0, "lat": 38.86688816666667, "rental_uris": {"ios": "https://dc.lft.to/lastmile_qr_scan", "android": "https://dc.lft.to/lastmile_qr_scan"}, "is_reserved": 0, "fusion_lon": 0.0, "fusion_lat": 0.0, "lon": -76.9858295, "name": "67b05a52babc81a91683ebb99192ad1e"}, {"bike_id": "63cbea9da7aed5f71e804f01694e073b", "type": "electric_scooter", "is_disabled": 0, "lat": 38.896252, "rental_uris": {"ios": "https://dc.lft.to/lastmile_qr_scan", "android": "https://dc.lft.to/lastmile_qr_scan"}, "is_reserved": 0, "fusion_lon": 0.0, "fusion_lat": 0.0, "lon": -77.010732, "name": "63cbea9da7aed5f71e804f01694e073b"}, {"bike_id": "bd2d43077c31ab67b98123e96db1c63d", "type": "electric_scooter", "is_disabled": 0, "lat": 38.898367666666665, "rental_uris": {"ios": "https://dc.lft.to/lastmile_qr_scan", "android": "https://dc.lft.to/lastmile_qr_scan"}, "is_reserved": 0, "fusion_lon": 0.0, "fusion_lat": 0.0, "lon": -76.91952933333333, "name": "bd2d43077c31ab67b98123e96db1c63d"}, {"bike_id": "14ea0d771ec7d520899c58db8d9f7c16", "type": "electric_scooter", "is_disabled": 0, "lat": 38.923244333333336, "rental_uris": {"ios": "https://dc.lft.to/lastmile_qr_scan", "android": "https://dc.lft.to/lastmile_qr_scan"}, "is_reserved": 0, "fusion_lon": 0.0, "fusion_lat": 0.0, "lon": -77.02135116666666, "name": "14ea0d771ec7d520899c58db8d9f7c16"}, {"bike_id": "453f8bb95bdd7b1c3b6d7cabc3feaf89", "type": "electric_scooter", "is_disabled": 0, "lat": 38.923892333333335, "rental_uris": {"ios": "https://dc.lft.to/lastmile_qr_scan", "android": "https://dc.lft.to/lastmile_qr_scan"}, "is_reserved": 0, "fusion_lon": 0.0, "fusion_lat": 0.0, "lon": -77.04470083333334, "name": "453f8bb95bdd7b1c3b6d7cabc3feaf89"}, {"bike_id": "0a3051592022579b169b24c4f44f6cea", "type": "electric_scooter", "is_disabled": 0, "lat": 38.9170935, "rental_uris": {"ios": "https://dc.lft.to/lastmile_qr_scan", "android": "https://dc.lft.to/lastmile_qr_scan"}, "is_reserved": 0, "fusion_lon": 0.0, "fusion_lat": 0.0, "lon": -77.09580266666667, "name": "0a3051592022579b169b24c4f44f6cea"}, {"bike_id": "29310049e36a3053f635edf475de95ec", "type": "electric_scooter", "is_disabled": 0, "lat": 38.92008283333333, "rental_uris": {"ios": "https://dc.lft.to/lastmile_qr_scan", "android": "https://dc.lft.to/lastmile_qr_scan"}, "is_reserved": 0, "fusion_lon": 0.0, "fusion_lat": 0.0, "lon": -76.98498933333333, "name": "29310049e36a3053f635edf475de95ec"}, {"bike_id": "b8127fd7a85fb4a8a05377873a1764d4", "type": "electric_bike", "is_disabled": 0, "lat": 38.912515, "rental_uris": {"ios": "https://dc.lft.to/lastmile_qr_scan", "android": "https://dc.lft.to/lastmile_qr_scan"}, "is_reserved": 0, "fusion_lon": 0.0, "fusion_lat": 0.0, "lon": -77.08737083333334, "name": "b8127fd7a85fb4a8a05377873a1764d4"}, {"bike_id": "21392639ed4c9cc6f845d7d5317adbe0", "type": "electric_scooter", "is_disabled": 0, "lat": 38.88392783333333, "rental_uris": {"ios": "https://dc.lft.to/lastmile_qr_scan", "android": "https://dc.lft.to/lastmile_qr_scan"}, "is_reserved": 0, "fusion_lon": 0.0, "fusion_lat": 0.0, "lon": -77.01771766666667, "name": "21392639ed4c9cc6f845d7d5317adbe0"}, {"bike_id": "ca49799522c3781a8a02c802339fa3a8", "type": "electric_scooter", "is_disabled": 0, "lat": 38.92809666666667, "rental_uris": {"ios": "https://dc.lft.to/lastmile_qr_scan", "android": "https://dc.lft.to/lastmile_qr_scan"}, "is_reserved": 0, "fusion_lon": 0.0, "fusion_lat": 0.0, "lon": -77.03593783333334, "name": "ca49799522c3781a8a02c802339fa3a8"}, {"bike_id": "74084c8284b0d6fd9fde073698ecc26f", "type": "electric_scooter", "is_disabled": 0, "lat": 38.92595516666667, "rental_uris": {"ios": "https://dc.lft.to/lastmile_qr_scan", "android": "https://dc.lft.to/lastmile_qr_scan"}, "is_reserved": 0, "fusion_lon": 0.0, "fusion_lat": 0.0, "lon": -77.037556, "name": "74084c8284b0d6fd9fde073698ecc26f"}, {"bike_id": "e724637352f886aaed82045fe8493f8d", "type": "electric_bike", "is_disabled": 0, "lat": 38.937799, "rental_uris": {"ios": "https://dc.lft.to/lastmile_qr_scan", "android": "https://dc.lft.to/lastmile_qr_scan"}, "is_reserved": 0, "fusion_lon": 0.0, "fusion_lat": 0.0, "lon": -77.01911133333333, "name": "e724637352f886aaed82045fe8493f8d"}, {"bike_id": "40de8e559d4de184865d2a196c501426", "type": "electric_scooter", "is_disabled": 0, "lat": 38.957326333333334, "rental_uris": {"ios": "https://dc.lft.to/lastmile_qr_scan", "android": "https://dc.lft.to/lastmile_qr_scan"}, "is_reserved": 0, "fusion_lon": 0.0, "fusion_lat": 0.0, "lon": -77.0240305, "name": "40de8e559d4de184865d2a196c501426"}, {"bike_id": "0ec0a1bedd890ae49c38e228bfbd58e8", "type": "electric_scooter", "is_disabled": 0, "lat": 38.92279966666667, "rental_uris": {"ios": "https://dc.lft.to/lastmile_qr_scan", "android": "https://dc.lft.to/lastmile_qr_scan"}, "is_reserved": 0, "fusion_lon": 0.0, "fusion_lat": 0.0, "lon": -76.9945815, "name": "0ec0a1bedd890ae49c38e228bfbd58e8"}, {"bike_id": "957e15aa876c6e97e564a80741bf0a25", "type": "electric_scooter", "is_disabled": 0, "lat": 38.92770483333334, "rental_uris": {"ios": "https://dc.lft.to/lastmile_qr_scan", "android": "https://dc.lft.to/lastmile_qr_scan"}, "is_reserved": 0, "fusion_lon": 0.0, "fusion_lat": 0.0, "lon": -76.98759166666666, "name": "957e15aa876c6e97e564a80741bf0a25"}, {"bike_id": "6c311a2a7c6ecbd5426df5f442b8a6fb", "type": "electric_scooter", "is_disabled": 0, "lat": 38.92765333333333, "rental_uris": {"ios": "https://dc.lft.to/lastmile_qr_scan", "android": "https://dc.lft.to/lastmile_qr_scan"}, "is_reserved": 0, "fusion_lon": 0.0, "fusion_lat": 0.0, "lon": -77.02849533333334, "name": "6c311a2a7c6ecbd5426df5f442b8a6fb"}, {"bike_id": "5280b8e70574b93567ebc2fd687d04cf", "type": "electric_scooter", "is_disabled": 0, "lat": 38.89801116666667, "rental_uris": {"ios": "https://dc.lft.to/lastmile_qr_scan", "android": "https://dc.lft.to/lastmile_qr_scan"}, "is_reserved": 0, "fusion_lon": 0.0, "fusion_lat": 0.0, "lon": -77.021997, "name": "5280b8e70574b93567ebc2fd687d04cf"}, {"bike_id": "afd5a25a8078ce261123a0ec77ab462e", "type": "electric_scooter", "is_disabled": 0, "lat": 38.92916683333333, "rental_uris": {"ios": "https://dc.lft.to/lastmile_qr_scan", "android": "https://dc.lft.to/lastmile_qr_scan"}, "is_reserved": 0, "fusion_lon": 0.0, "fusion_lat": 0.0, "lon": -77.02091133333333, "name": "afd5a25a8078ce261123a0ec77ab462e"}, {"bike_id": "13967249e9ca92553d48b00ded08c92b", "type": "electric_scooter", "is_disabled": 0, "lat": 38.920447, "rental_uris": {"ios": "https://dc.lft.to/lastmile_qr_scan", "android": "https://dc.lft.to/lastmile_qr_scan"}, "is_reserved": 0, "fusion_lon": 0.0, "fusion_lat": 0.0, "lon": -77.02435533333333, "name": "13967249e9ca92553d48b00ded08c92b"}, {"bike_id": "de0f80aa7f793fd3851b2c3c2afae283", "type": "electric_scooter", "is_disabled": 0, "lat": 38.90509866666667, "rental_uris": {"ios": "https://dc.lft.to/lastmile_qr_scan", "android": "https://dc.lft.to/lastmile_qr_scan"}, "is_reserved": 0, "fusion_lon": 0.0, "fusion_lat": 0.0, "lon": -77.06386966666666, "name": "de0f80aa7f793fd3851b2c3c2afae283"}, {"bike_id": "8bb1f318b67f0037a2adf898e7976a8f", "type": "electric_scooter", "is_disabled": 0, "lat": 38.92774033333333, "rental_uris": {"ios": "https://dc.lft.to/lastmile_qr_scan", "android": "https://dc.lft.to/lastmile_qr_scan"}, "is_reserved": 0, "fusion_lon": 0.0, "fusion_lat": 0.0, "lon": -77.02915766666666, "name": "8bb1f318b67f0037a2adf898e7976a8f"}, {"bike_id": "13b59922d9fa138dbbca335734a19413", "type": "electric_scooter", "is_disabled": 0, "lat": 38.90536066666667, "rental_uris": {"ios": "https://dc.lft.to/lastmile_qr_scan", "android": "https://dc.lft.to/lastmile_qr_scan"}, "is_reserved": 0, "fusion_lon": 0.0, "fusion_lat": 0.0, "lon": -77.05900866666667, "name": "13b59922d9fa138dbbca335734a19413"}, {"bike_id": "1a1fcb1e078d1ee9500bf04ef6378f6f", "type": "electric_scooter", "is_disabled": 0, "lat": 38.909568666666665, "rental_uris": {"ios": "https://dc.lft.to/lastmile_qr_scan", "android": "https://dc.lft.to/lastmile_qr_scan"}, "is_reserved": 0, "fusion_lon": 0.0, "fusion_lat": 0.0, "lon": -77.02601816666666, "name": "1a1fcb1e078d1ee9500bf04ef6378f6f"}, {"bike_id": "58edfa0f26e9c07d7a5998dafa411f64", "type": "electric_bike", "is_disabled": 0, "lat": 38.86620933333333, "rental_uris": {"ios": "https://dc.lft.to/lastmile_qr_scan", "android": "https://dc.lft.to/lastmile_qr_scan"}, "is_reserved": 0, "fusion_lon": 0.0, "fusion_lat": 0.0, "lon": -76.94566933333333, "name": "58edfa0f26e9c07d7a5998dafa411f64"}, {"bike_id": "68df38788610790b8fcd9b0aabe1055a", "type": "electric_scooter", "is_disabled": 0, "lat": 38.90822266666667, "rental_uris": {"ios": "https://dc.lft.to/lastmile_qr_scan", "android": "https://dc.lft.to/lastmile_qr_scan"}, "is_reserved": 0, "fusion_lon": 0.0, "fusion_lat": 0.0, "lon": -77.02972933333334, "name": "68df38788610790b8fcd9b0aabe1055a"}, {"bike_id": "862159596d25b2a694f863774e6b01f0", "type": "electric_scooter", "is_disabled": 0, "lat": 38.898866166666664, "rental_uris": {"ios": "https://dc.lft.to/lastmile_qr_scan", "android": "https://dc.lft.to/lastmile_qr_scan"}, "is_reserved": 0, "fusion_lon": 0.0, "fusion_lat": 0.0, "lon": -76.9317395, "name": "862159596d25b2a694f863774e6b01f0"}, {"bike_id": "98982be61f3b3bd4ce0a29a9e843b803", "type": "electric_scooter", "is_disabled": 0, "lat": 38.9127175, "rental_uris": {"ios": "https://dc.lft.to/lastmile_qr_scan", "android": "https://dc.lft.to/lastmile_qr_scan"}, "is_reserved": 0, "fusion_lon": 0.0, "fusion_lat": 0.0, "lon": -77.01887366666666, "name": "98982be61f3b3bd4ce0a29a9e843b803"}, {"bike_id": "a4d1cc58648c102506d60b160730ce3f", "type": "electric_scooter", "is_disabled": 0, "lat": 38.90776733333333, "rental_uris": {"ios": "https://dc.lft.to/lastmile_qr_scan", "android": "https://dc.lft.to/lastmile_qr_scan"}, "is_reserved": 0, "fusion_lon": 0.0, "fusion_lat": 0.0, "lon": -77.07167733333333, "name": "a4d1cc58648c102506d60b160730ce3f"}, {"bike_id": "83671a28b3710f56a22bda0c26a3d346", "type": "electric_scooter", "is_disabled": 0, "lat": 38.918329166666666, "rental_uris": {"ios": "https://dc.lft.to/lastmile_qr_scan", "android": "https://dc.lft.to/lastmile_qr_scan"}, "is_reserved": 0, "fusion_lon": 0.0, "fusion_lat": 0.0, "lon": -77.0245505, "name": "83671a28b3710f56a22bda0c26a3d346"}, {"bike_id": "36b01d79b57f1861de4fab8ca4905861", "type": "electric_scooter", "is_disabled": 0, "lat": 38.94786116666667, "rental_uris": {"ios": "https://dc.lft.to/lastmile_qr_scan", "android": "https://dc.lft.to/lastmile_qr_scan"}, "is_reserved": 0, "fusion_lon": 0.0, "fusion_lat": 0.0, "lon": -77.07934716666666, "name": "36b01d79b57f1861de4fab8ca4905861"}, {"bike_id": "eb8a0e3b415a224b8e26440af6d9ebcd", "type": "electric_scooter", "is_disabled": 0, "lat": 38.923332333333335, "rental_uris": {"ios": "https://dc.lft.to/lastmile_qr_scan", "android": "https://dc.lft.to/lastmile_qr_scan"}, "is_reserved": 0, "fusion_lon": 0.0, "fusion_lat": 0.0, "lon": -77.05372383333334, "name": "eb8a0e3b415a224b8e26440af6d9ebcd"}, {"bike_id": "c1822446ed2b753753635aab62b90f90", "type": "electric_scooter", "is_disabled": 0, "lat": 38.94215283333333, "rental_uris": {"ios": "https://dc.lft.to/lastmile_qr_scan", "android": "https://dc.lft.to/lastmile_qr_scan"}, "is_reserved": 0, "fusion_lon": 0.0, "fusion_lat": 0.0, "lon": -77.02584633333333, "name": "c1822446ed2b753753635aab62b90f90"}, {"bike_id": "c2d919b7eb0aebdbb842d11555c80eba", "type": "electric_scooter", "is_disabled": 0, "lat": 38.907377833333335, "rental_uris": {"ios": "https://dc.lft.to/lastmile_qr_scan", "android": "https://dc.lft.to/lastmile_qr_scan"}, "is_reserved": 0, "fusion_lon": 0.0, "fusion_lat": 0.0, "lon": -77.009404, "name": "c2d919b7eb0aebdbb842d11555c80eba"}, {"bike_id": "ad439e7e5f0f6ff1fbfbd55f52b8069c", "type": "electric_scooter", "is_disabled": 0, "lat": 38.936977666666664, "rental_uris": {"ios": "https://dc.lft.to/lastmile_qr_scan", "android": "https://dc.lft.to/lastmile_qr_scan"}, "is_reserved": 0, "fusion_lon": 0.0, "fusion_lat": 0.0, "lon": -77.056643, "name": "ad439e7e5f0f6ff1fbfbd55f52b8069c"}, {"bike_id": "5f65511e5de9be5f241b4286e3e10927", "type": "electric_bike", "is_disabled": 0, "lat": 39.056359666666665, "rental_uris": {"ios": "https://dc.lft.to/lastmile_qr_scan", "android": "https://dc.lft.to/lastmile_qr_scan"}, "is_reserved": 0, "fusion_lon": 0.0, "fusion_lat": 0.0, "lon": -77.1252165, "name": "5f65511e5de9be5f241b4286e3e10927"}, {"bike_id": "3cccc25844e2ea83afca7d909f7a6339", "type": "electric_scooter", "is_disabled": 0, "lat": 38.892332333333336, "rental_uris": {"ios": "https://dc.lft.to/lastmile_qr_scan", "android": "https://dc.lft.to/lastmile_qr_scan"}, "is_reserved": 0, "fusion_lon": 0.0, "fusion_lat": 0.0, "lon": -77.04998433333333, "name": "3cccc25844e2ea83afca7d909f7a6339"}, {"bike_id": "a9fed4bb9587bc09eabf6508e0f511f4", "type": "electric_scooter", "is_disabled": 0, "lat": 38.89499966666666, "rental_uris": {"ios": "https://dc.lft.to/lastmile_qr_scan", "android": "https://dc.lft.to/lastmile_qr_scan"}, "is_reserved": 0, "fusion_lon": 0.0, "fusion_lat": 0.0, "lon": -77.00211733333333, "name": "a9fed4bb9587bc09eabf6508e0f511f4"}, {"bike_id": "911a154cf3e33db38ffe8757c7716993", "type": "electric_scooter", "is_disabled": 0, "lat": 38.91118316666667, "rental_uris": {"ios": "https://dc.lft.to/lastmile_qr_scan", "android": "https://dc.lft.to/lastmile_qr_scan"}, "is_reserved": 0, "fusion_lon": 0.0, "fusion_lat": 0.0, "lon": -77.03251166666666, "name": "911a154cf3e33db38ffe8757c7716993"}, {"bike_id": "436d4f6a4ed98d6d5689d12d3b55e1b2", "type": "electric_scooter", "is_disabled": 0, "lat": 38.91071683333333, "rental_uris": {"ios": "https://dc.lft.to/lastmile_qr_scan", "android": "https://dc.lft.to/lastmile_qr_scan"}, "is_reserved": 0, "fusion_lon": 0.0, "fusion_lat": 0.0, "lon": -77.026029, "name": "436d4f6a4ed98d6d5689d12d3b55e1b2"}, {"bike_id": "67d0b0468883cc8b6260475c3b3839a2", "type": "electric_scooter", "is_disabled": 0, "lat": 38.89225366666667, "rental_uris": {"ios": "https://dc.lft.to/lastmile_qr_scan", "android": "https://dc.lft.to/lastmile_qr_scan"}, "is_reserved": 0, "fusion_lon": 0.0, "fusion_lat": 0.0, "lon": -77.0397445, "name": "67d0b0468883cc8b6260475c3b3839a2"}, {"bike_id": "756e47fac5f56cda79f66f82b5685a9b", "type": "electric_scooter", "is_disabled": 0, "lat": 38.91079966666667, "rental_uris": {"ios": "https://dc.lft.to/lastmile_qr_scan", "android": "https://dc.lft.to/lastmile_qr_scan"}, "is_reserved": 0, "fusion_lon": 0.0, "fusion_lat": 0.0, "lon": -77.02191316666666, "name": "756e47fac5f56cda79f66f82b5685a9b"}, {"bike_id": "66d9f65255b6c51354decde82fc226f1", "type": "electric_scooter", "is_disabled": 0, "lat": 38.898282, "rental_uris": {"ios": "https://dc.lft.to/lastmile_qr_scan", "android": "https://dc.lft.to/lastmile_qr_scan"}, "is_reserved": 0, "fusion_lon": 0.0, "fusion_lat": 0.0, "lon": -77.0455205, "name": "66d9f65255b6c51354decde82fc226f1"}, {"bike_id": "25b36e21b1090fab3c9110ca844d18e0", "type": "electric_scooter", "is_disabled": 0, "lat": 38.92153233333333, "rental_uris": {"ios": "https://dc.lft.to/lastmile_qr_scan", "android": "https://dc.lft.to/lastmile_qr_scan"}, "is_reserved": 0, "fusion_lon": 0.0, "fusion_lat": 0.0, "lon": -77.03874666666667, "name": "25b36e21b1090fab3c9110ca844d18e0"}, {"bike_id": "11324c7b2de0bd1ed3d36ab1d9fdd4dd", "type": "electric_scooter", "is_disabled": 0, "lat": 38.9291555, "rental_uris": {"ios": "https://dc.lft.to/lastmile_qr_scan", "android": "https://dc.lft.to/lastmile_qr_scan"}, "is_reserved": 0, "fusion_lon": 0.0, "fusion_lat": 0.0, "lon": -77.03259933333334, "name": "11324c7b2de0bd1ed3d36ab1d9fdd4dd"}, {"bike_id": "7575869dcefa5de1de1f091bffd9b199", "type": "electric_bike", "is_disabled": 0, "lat": 38.941225, "rental_uris": {"ios": "https://dc.lft.to/lastmile_qr_scan", "android": "https://dc.lft.to/lastmile_qr_scan"}, "is_reserved": 0, "fusion_lon": 0.0, "fusion_lat": 0.0, "lon": -77.06191333333334, "name": "7575869dcefa5de1de1f091bffd9b199"}, {"bike_id": "77ae66f9293cb8035c223f1bf2c8abf4", "type": "electric_scooter", "is_disabled": 0, "lat": 38.9226765, "rental_uris": {"ios": "https://dc.lft.to/lastmile_qr_scan", "android": "https://dc.lft.to/lastmile_qr_scan"}, "is_reserved": 0, "fusion_lon": 0.0, "fusion_lat": 0.0, "lon": -77.033942, "name": "77ae66f9293cb8035c223f1bf2c8abf4"}, {"bike_id": "ecf55d0923c498ad4ea6ac5a703571e5", "type": "electric_scooter", "is_disabled": 0, "lat": 38.9072375, "rental_uris": {"ios": "https://dc.lft.to/lastmile_qr_scan", "android": "https://dc.lft.to/lastmile_qr_scan"}, "is_reserved": 0, "fusion_lon": 0.0, "fusion_lat": 0.0, "lon": -77.0343725, "name": "ecf55d0923c498ad4ea6ac5a703571e5"}, {"bike_id": "d7cdd56ada84ab8d718c97deb2f94197", "type": "electric_scooter", "is_disabled": 0, "lat": 38.905727, "rental_uris": {"ios": "https://dc.lft.to/lastmile_qr_scan", "android": "https://dc.lft.to/lastmile_qr_scan"}, "is_reserved": 0, "fusion_lon": 0.0, "fusion_lat": 0.0, "lon": -77.02215716666667, "name": "d7cdd56ada84ab8d718c97deb2f94197"}, {"bike_id": "6869e7bde53fcab2d32b1ddd77c8f24f", "type": "electric_scooter", "is_disabled": 0, "lat": 38.90040533333333, "rental_uris": {"ios": "https://dc.lft.to/lastmile_qr_scan", "android": "https://dc.lft.to/lastmile_qr_scan"}, "is_reserved": 0, "fusion_lon": 0.0, "fusion_lat": 0.0, "lon": -77.03510533333333, "name": "6869e7bde53fcab2d32b1ddd77c8f24f"}, {"bike_id": "79a418291f3210735dbd198f4acd41c9", "type": "electric_scooter", "is_disabled": 0, "lat": 38.91032916666666, "rental_uris": {"ios": "https://dc.lft.to/lastmile_qr_scan", "android": "https://dc.lft.to/lastmile_qr_scan"}, "is_reserved": 0, "fusion_lon": 0.0, "fusion_lat": 0.0, "lon": -77.02813333333333, "name": "79a418291f3210735dbd198f4acd41c9"}, {"bike_id": "945757a277ddcda572c0c3b0e35c1aaf", "type": "electric_scooter", "is_disabled": 0, "lat": 38.92516833333333, "rental_uris": {"ios": "https://dc.lft.to/lastmile_qr_scan", "android": "https://dc.lft.to/lastmile_qr_scan"}, "is_reserved": 0, "fusion_lon": 0.0, "fusion_lat": 0.0, "lon": -77.02252933333334, "name": "945757a277ddcda572c0c3b0e35c1aaf"}, {"bike_id": "6003382b03d075a030419f5a22f44c9a", "type": "electric_scooter", "is_disabled": 0, "lat": 38.91807933333333, "rental_uris": {"ios": "https://dc.lft.to/lastmile_qr_scan", "android": "https://dc.lft.to/lastmile_qr_scan"}, "is_reserved": 0, "fusion_lon": 0.0, "fusion_lat": 0.0, "lon": -77.02430116666666, "name": "6003382b03d075a030419f5a22f44c9a"}, {"bike_id": "7892144c60bb3ceb22455698320a5992", "type": "electric_scooter", "is_disabled": 0, "lat": 38.8976185, "rental_uris": {"ios": "https://dc.lft.to/lastmile_qr_scan", "android": "https://dc.lft.to/lastmile_qr_scan"}, "is_reserved": 0, "fusion_lon": 0.0, "fusion_lat": 0.0, "lon": -77.0269905, "name": "7892144c60bb3ceb22455698320a5992"}, {"bike_id": "cf5bda77c11ad51a7dce476d5cf50add", "type": "electric_scooter", "is_disabled": 0, "lat": 38.910979, "rental_uris": {"ios": "https://dc.lft.to/lastmile_qr_scan", "android": "https://dc.lft.to/lastmile_qr_scan"}, "is_reserved": 0, "fusion_lon": 0.0, "fusion_lat": 0.0, "lon": -77.02812933333334, "name": "cf5bda77c11ad51a7dce476d5cf50add"}, {"bike_id": "e488447d81a4fe1a8fdebb926fd3107f", "type": "electric_scooter", "is_disabled": 0, "lat": 38.91641216666667, "rental_uris": {"ios": "https://dc.lft.to/lastmile_qr_scan", "android": "https://dc.lft.to/lastmile_qr_scan"}, "is_reserved": 0, "fusion_lon": 0.0, "fusion_lat": 0.0, "lon": -77.0004225, "name": "e488447d81a4fe1a8fdebb926fd3107f"}, {"bike_id": "dac30d1b6d8b1eaffdbb223e5c19c1ce", "type": "electric_scooter", "is_disabled": 0, "lat": 38.9054585, "rental_uris": {"ios": "https://dc.lft.to/lastmile_qr_scan", "android": "https://dc.lft.to/lastmile_qr_scan"}, "is_reserved": 0, "fusion_lon": 0.0, "fusion_lat": 0.0, "lon": -77.00703366666667, "name": "dac30d1b6d8b1eaffdbb223e5c19c1ce"}, {"bike_id": "8ff46c2f50b3923b8f46c9d38bc3fd2f", "type": "electric_scooter", "is_disabled": 0, "lat": 38.900756, "rental_uris": {"ios": "https://dc.lft.to/lastmile_qr_scan", "android": "https://dc.lft.to/lastmile_qr_scan"}, "is_reserved": 0, "fusion_lon": 0.0, "fusion_lat": 0.0, "lon": -76.9273525, "name": "8ff46c2f50b3923b8f46c9d38bc3fd2f"}, {"bike_id": "6c56a056829d932a191653b740a44f21", "type": "electric_scooter", "is_disabled": 0, "lat": 38.9042155, "rental_uris": {"ios": "https://dc.lft.to/lastmile_qr_scan", "android": "https://dc.lft.to/lastmile_qr_scan"}, "is_reserved": 0, "fusion_lon": 0.0, "fusion_lat": 0.0, "lon": -76.990673, "name": "6c56a056829d932a191653b740a44f21"}, {"bike_id": "eef1bef1e7d5f062659c8d79a61d9dc9", "type": "electric_scooter", "is_disabled": 0, "lat": 38.92039333333334, "rental_uris": {"ios": "https://dc.lft.to/lastmile_qr_scan", "android": "https://dc.lft.to/lastmile_qr_scan"}, "is_reserved": 0, "fusion_lon": 0.0, "fusion_lat": 0.0, "lon": -77.0240125, "name": "eef1bef1e7d5f062659c8d79a61d9dc9"}, {"bike_id": "997afd2e53995c7531d62634c0276c4d", "type": "electric_scooter", "is_disabled": 0, "lat": 38.90398616666667, "rental_uris": {"ios": "https://dc.lft.to/lastmile_qr_scan", "android": "https://dc.lft.to/lastmile_qr_scan"}, "is_reserved": 0, "fusion_lon": 0.0, "fusion_lat": 0.0, "lon": -77.06783983333334, "name": "997afd2e53995c7531d62634c0276c4d"}, {"bike_id": "10be20ea8be2b819c1e89be32554fe0e", "type": "electric_scooter", "is_disabled": 0, "lat": 38.889919666666664, "rental_uris": {"ios": "https://dc.lft.to/lastmile_qr_scan", "android": "https://dc.lft.to/lastmile_qr_scan"}, "is_reserved": 0, "fusion_lon": 0.0, "fusion_lat": 0.0, "lon": -77.00118016666667, "name": "10be20ea8be2b819c1e89be32554fe0e"}, {"bike_id": "865e29111a488bf49c87c4f53cabefd7", "type": "electric_scooter", "is_disabled": 0, "lat": 38.917879666666664, "rental_uris": {"ios": "https://dc.lft.to/lastmile_qr_scan", "android": "https://dc.lft.to/lastmile_qr_scan"}, "is_reserved": 0, "fusion_lon": 0.0, "fusion_lat": 0.0, "lon": -77.04062933333333, "name": "865e29111a488bf49c87c4f53cabefd7"}, {"bike_id": "db32048c7f09621abf5fb1a8a9b076a3", "type": "electric_scooter", "is_disabled": 0, "lat": 38.918614, "rental_uris": {"ios": "https://dc.lft.to/lastmile_qr_scan", "android": "https://dc.lft.to/lastmile_qr_scan"}, "is_reserved": 0, "fusion_lon": 0.0, "fusion_lat": 0.0, "lon": -77.0251795, "name": "db32048c7f09621abf5fb1a8a9b076a3"}, {"bike_id": "b32cb73711a41abf39541448629b7f8d", "type": "electric_scooter", "is_disabled": 0, "lat": 38.9083195, "rental_uris": {"ios": "https://dc.lft.to/lastmile_qr_scan", "android": "https://dc.lft.to/lastmile_qr_scan"}, "is_reserved": 0, "fusion_lon": 0.0, "fusion_lat": 0.0, "lon": -77.02689933333333, "name": "b32cb73711a41abf39541448629b7f8d"}, {"bike_id": "3138b497a98278818865422f666d62ae", "type": "electric_scooter", "is_disabled": 0, "lat": 38.917844, "rental_uris": {"ios": "https://dc.lft.to/lastmile_qr_scan", "android": "https://dc.lft.to/lastmile_qr_scan"}, "is_reserved": 0, "fusion_lon": 0.0, "fusion_lat": 0.0, "lon": -77.03660533333333, "name": "3138b497a98278818865422f666d62ae"}, {"bike_id": "b94f495b0cc283c1bae2af00e9a458ee", "type": "electric_scooter", "is_disabled": 0, "lat": 38.90285433333333, "rental_uris": {"ios": "https://dc.lft.to/lastmile_qr_scan", "android": "https://dc.lft.to/lastmile_qr_scan"}, "is_reserved": 0, "fusion_lon": 0.0, "fusion_lat": 0.0, "lon": -77.03645866666666, "name": "b94f495b0cc283c1bae2af00e9a458ee"}, {"bike_id": "dc1a68256bf8f460ee7b2574f92db119", "type": "electric_scooter", "is_disabled": 0, "lat": 38.88433666666667, "rental_uris": {"ios": "https://dc.lft.to/lastmile_qr_scan", "android": "https://dc.lft.to/lastmile_qr_scan"}, "is_reserved": 0, "fusion_lon": 0.0, "fusion_lat": 0.0, "lon": -76.95746516666667, "name": "dc1a68256bf8f460ee7b2574f92db119"}, {"bike_id": "3264462be3bf049f085ac7e89f39280a", "type": "electric_scooter", "is_disabled": 0, "lat": 38.92864016666667, "rental_uris": {"ios": "https://dc.lft.to/lastmile_qr_scan", "android": "https://dc.lft.to/lastmile_qr_scan"}, "is_reserved": 0, "fusion_lon": 0.0, "fusion_lat": 0.0, "lon": -77.02308083333334, "name": "3264462be3bf049f085ac7e89f39280a"}, {"bike_id": "30611144a923aaca4978981ed9bdaabb", "type": "electric_scooter", "is_disabled": 0, "lat": 38.87473466666667, "rental_uris": {"ios": "https://dc.lft.to/lastmile_qr_scan", "android": "https://dc.lft.to/lastmile_qr_scan"}, "is_reserved": 0, "fusion_lon": 0.0, "fusion_lat": 0.0, "lon": -77.010694, "name": "30611144a923aaca4978981ed9bdaabb"}, {"bike_id": "170490c5a9844258db5125828c5a3dec", "type": "electric_scooter", "is_disabled": 0, "lat": 38.957379, "rental_uris": {"ios": "https://dc.lft.to/lastmile_qr_scan", "android": "https://dc.lft.to/lastmile_qr_scan"}, "is_reserved": 0, "fusion_lon": 0.0, "fusion_lat": 0.0, "lon": -77.02417816666667, "name": "170490c5a9844258db5125828c5a3dec"}, {"bike_id": "45b5636346d47d96bc81fceba3f5ee18", "type": "electric_scooter", "is_disabled": 0, "lat": 38.887419666666666, "rental_uris": {"ios": "https://dc.lft.to/lastmile_qr_scan", "android": "https://dc.lft.to/lastmile_qr_scan"}, "is_reserved": 0, "fusion_lon": 0.0, "fusion_lat": 0.0, "lon": -77.0152695, "name": "45b5636346d47d96bc81fceba3f5ee18"}, {"bike_id": "4d6fe8c1f72b262249d7a075b68440ac", "type": "electric_scooter", "is_disabled": 0, "lat": 38.917471166666665, "rental_uris": {"ios": "https://dc.lft.to/lastmile_qr_scan", "android": "https://dc.lft.to/lastmile_qr_scan"}, "is_reserved": 0, "fusion_lon": 0.0, "fusion_lat": 0.0, "lon": -77.03187883333334, "name": "4d6fe8c1f72b262249d7a075b68440ac"}, {"bike_id": "0197b9a4b270b6be025f4584d34b54ab", "type": "electric_bike", "is_disabled": 0, "lat": 38.8385345, "rental_uris": {"ios": "https://dc.lft.to/lastmile_qr_scan", "android": "https://dc.lft.to/lastmile_qr_scan"}, "is_reserved": 0, "fusion_lon": 0.0, "fusion_lat": 0.0, "lon": -77.05038466666667, "name": "0197b9a4b270b6be025f4584d34b54ab"}, {"bike_id": "d715a8f819d385e74d09e4a57ea74f5e", "type": "electric_scooter", "is_disabled": 0, "lat": 38.91112016666666, "rental_uris": {"ios": "https://dc.lft.to/lastmile_qr_scan", "android": "https://dc.lft.to/lastmile_qr_scan"}, "is_reserved": 0, "fusion_lon": 0.0, "fusion_lat": 0.0, "lon": -77.01006183333334, "name": "d715a8f819d385e74d09e4a57ea74f5e"}, {"bike_id": "dc6e2c946f1108a5ddebc5df6c15c40c", "type": "electric_scooter", "is_disabled": 0, "lat": 38.91725483333333, "rental_uris": {"ios": "https://dc.lft.to/lastmile_qr_scan", "android": "https://dc.lft.to/lastmile_qr_scan"}, "is_reserved": 0, "fusion_lon": 0.0, "fusion_lat": 0.0, "lon": -77.03658983333334, "name": "dc6e2c946f1108a5ddebc5df6c15c40c"}, {"bike_id": "53610cf1aa5cc74bfe867987a952768f", "type": "electric_scooter", "is_disabled": 0, "lat": 38.9038555, "rental_uris": {"ios": "https://dc.lft.to/lastmile_qr_scan", "android": "https://dc.lft.to/lastmile_qr_scan"}, "is_reserved": 0, "fusion_lon": 0.0, "fusion_lat": 0.0, "lon": -76.98200366666667, "name": "53610cf1aa5cc74bfe867987a952768f"}, {"bike_id": "0b3e32c635e95616d893d472fe7e24b4", "type": "electric_scooter", "is_disabled": 0, "lat": 38.93759516666667, "rental_uris": {"ios": "https://dc.lft.to/lastmile_qr_scan", "android": "https://dc.lft.to/lastmile_qr_scan"}, "is_reserved": 0, "fusion_lon": 0.0, "fusion_lat": 0.0, "lon": -77.02476566666667, "name": "0b3e32c635e95616d893d472fe7e24b4"}, {"bike_id": "5cdefc797cd547105774ac10482a1210", "type": "electric_scooter", "is_disabled": 0, "lat": 38.9365775, "rental_uris": {"ios": "https://dc.lft.to/lastmile_qr_scan", "android": "https://dc.lft.to/lastmile_qr_scan"}, "is_reserved": 0, "fusion_lon": 0.0, "fusion_lat": 0.0, "lon": -77.02638616666667, "name": "5cdefc797cd547105774ac10482a1210"}, {"bike_id": "a34beae607543b65a111736263c6dd04", "type": "electric_scooter", "is_disabled": 0, "lat": 38.92767633333333, "rental_uris": {"ios": "https://dc.lft.to/lastmile_qr_scan", "android": "https://dc.lft.to/lastmile_qr_scan"}, "is_reserved": 0, "fusion_lon": 0.0, "fusion_lat": 0.0, "lon": -77.0563655, "name": "a34beae607543b65a111736263c6dd04"}, {"bike_id": "c1f08068dcd2f81ea78dae2edd816a2b", "type": "electric_scooter", "is_disabled": 0, "lat": 38.911069499999996, "rental_uris": {"ios": "https://dc.lft.to/lastmile_qr_scan", "android": "https://dc.lft.to/lastmile_qr_scan"}, "is_reserved": 0, "fusion_lon": 0.0, "fusion_lat": 0.0, "lon": -77.00211733333333, "name": "c1f08068dcd2f81ea78dae2edd816a2b"}, {"bike_id": "e8c3958a9c1036a531ccfba2c38f0b28", "type": "electric_scooter", "is_disabled": 0, "lat": 38.909778, "rental_uris": {"ios": "https://dc.lft.to/lastmile_qr_scan", "android": "https://dc.lft.to/lastmile_qr_scan"}, "is_reserved": 0, "fusion_lon": 0.0, "fusion_lat": 0.0, "lon": -77.0280205, "name": "e8c3958a9c1036a531ccfba2c38f0b28"}, {"bike_id": "7f725a53786d56fa023cd8b782990b6e", "type": "electric_scooter", "is_disabled": 0, "lat": 38.923796833333334, "rental_uris": {"ios": "https://dc.lft.to/lastmile_qr_scan", "android": "https://dc.lft.to/lastmile_qr_scan"}, "is_reserved": 0, "fusion_lon": 0.0, "fusion_lat": 0.0, "lon": -77.02987933333333, "name": "7f725a53786d56fa023cd8b782990b6e"}, {"bike_id": "1130fc45392666f28a7cd6d0d46d31c9", "type": "electric_scooter", "is_disabled": 0, "lat": 38.9112155, "rental_uris": {"ios": "https://dc.lft.to/lastmile_qr_scan", "android": "https://dc.lft.to/lastmile_qr_scan"}, "is_reserved": 0, "fusion_lon": 0.0, "fusion_lat": 0.0, "lon": -77.0373145, "name": "1130fc45392666f28a7cd6d0d46d31c9"}, {"bike_id": "cff0cabd5a8da3a46baf88315fa4b4e3", "type": "electric_scooter", "is_disabled": 0, "lat": 38.88210483333334, "rental_uris": {"ios": "https://dc.lft.to/lastmile_qr_scan", "android": "https://dc.lft.to/lastmile_qr_scan"}, "is_reserved": 0, "fusion_lon": 0.0, "fusion_lat": 0.0, "lon": -76.98920766666667, "name": "cff0cabd5a8da3a46baf88315fa4b4e3"}, {"bike_id": "ae6e439fdebfc50c9a16d447af45c9d7", "type": "electric_bike", "is_disabled": 0, "lat": 38.93363516666667, "rental_uris": {"ios": "https://dc.lft.to/lastmile_qr_scan", "android": "https://dc.lft.to/lastmile_qr_scan"}, "is_reserved": 0, "fusion_lon": 0.0, "fusion_lat": 0.0, "lon": -77.0242145, "name": "ae6e439fdebfc50c9a16d447af45c9d7"}, {"bike_id": "31910545897d2fe15c8d8ac8b226d8fc", "type": "electric_bike", "is_disabled": 0, "lat": 38.939690666666664, "rental_uris": {"ios": "https://dc.lft.to/lastmile_qr_scan", "android": "https://dc.lft.to/lastmile_qr_scan"}, "is_reserved": 0, "fusion_lon": 0.0, "fusion_lat": 0.0, "lon": -77.05259983333333, "name": "31910545897d2fe15c8d8ac8b226d8fc"}, {"bike_id": "54faf56359a39ae04afbd8667b71a36a", "type": "electric_scooter", "is_disabled": 0, "lat": 38.9007285, "rental_uris": {"ios": "https://dc.lft.to/lastmile_qr_scan", "android": "https://dc.lft.to/lastmile_qr_scan"}, "is_reserved": 0, "fusion_lon": 0.0, "fusion_lat": 0.0, "lon": -77.04841133333333, "name": "54faf56359a39ae04afbd8667b71a36a"}, {"bike_id": "120502e51a5f667b82c12eb72f89d4ec", "type": "electric_scooter", "is_disabled": 0, "lat": 38.89878133333333, "rental_uris": {"ios": "https://dc.lft.to/lastmile_qr_scan", "android": "https://dc.lft.to/lastmile_qr_scan"}, "is_reserved": 0, "fusion_lon": 0.0, "fusion_lat": 0.0, "lon": -76.93185833333334, "name": "120502e51a5f667b82c12eb72f89d4ec"}, {"bike_id": "28dd44783abed7f9da3c1e11fe7baf7a", "type": "electric_scooter", "is_disabled": 0, "lat": 38.924767, "rental_uris": {"ios": "https://dc.lft.to/lastmile_qr_scan", "android": "https://dc.lft.to/lastmile_qr_scan"}, "is_reserved": 0, "fusion_lon": 0.0, "fusion_lat": 0.0, "lon": -77.0283485, "name": "28dd44783abed7f9da3c1e11fe7baf7a"}, {"bike_id": "e50fa26e8bba6fa84f9154ecc02b6077", "type": "electric_scooter", "is_disabled": 0, "lat": 38.91809583333333, "rental_uris": {"ios": "https://dc.lft.to/lastmile_qr_scan", "android": "https://dc.lft.to/lastmile_qr_scan"}, "is_reserved": 0, "fusion_lon": 0.0, "fusion_lat": 0.0, "lon": -77.03624266666667, "name": "e50fa26e8bba6fa84f9154ecc02b6077"}, {"bike_id": "11985779fc7102e57fc3a2aeecc6cebb", "type": "electric_scooter", "is_disabled": 0, "lat": 38.926026666666665, "rental_uris": {"ios": "https://dc.lft.to/lastmile_qr_scan", "android": "https://dc.lft.to/lastmile_qr_scan"}, "is_reserved": 0, "fusion_lon": 0.0, "fusion_lat": 0.0, "lon": -77.02438283333333, "name": "11985779fc7102e57fc3a2aeecc6cebb"}, {"bike_id": "ad441c8b109db31d2e6cff7492ea882f", "type": "electric_scooter", "is_disabled": 0, "lat": 38.88532933333333, "rental_uris": {"ios": "https://dc.lft.to/lastmile_qr_scan", "android": "https://dc.lft.to/lastmile_qr_scan"}, "is_reserved": 0, "fusion_lon": 0.0, "fusion_lat": 0.0, "lon": -76.998281, "name": "ad441c8b109db31d2e6cff7492ea882f"}, {"bike_id": "024b22f63a42cf24cce5f4cf0f24d17b", "type": "electric_scooter", "is_disabled": 0, "lat": 38.9115535, "rental_uris": {"ios": "https://dc.lft.to/lastmile_qr_scan", "android": "https://dc.lft.to/lastmile_qr_scan"}, "is_reserved": 0, "fusion_lon": 0.0, "fusion_lat": 0.0, "lon": -77.02954833333334, "name": "024b22f63a42cf24cce5f4cf0f24d17b"}, {"bike_id": "4b6c61783557843699485cd0801ae0c0", "type": "electric_scooter", "is_disabled": 0, "lat": 38.917711, "rental_uris": {"ios": "https://dc.lft.to/lastmile_qr_scan", "android": "https://dc.lft.to/lastmile_qr_scan"}, "is_reserved": 0, "fusion_lon": 0.0, "fusion_lat": 0.0, "lon": -77.015068, "name": "4b6c61783557843699485cd0801ae0c0"}, {"bike_id": "803b3dcd7c185aa3dbcfb4326c281cfb", "type": "electric_scooter", "is_disabled": 0, "lat": 38.9221575, "rental_uris": {"ios": "https://dc.lft.to/lastmile_qr_scan", "android": "https://dc.lft.to/lastmile_qr_scan"}, "is_reserved": 0, "fusion_lon": 0.0, "fusion_lat": 0.0, "lon": -77.02212816666666, "name": "803b3dcd7c185aa3dbcfb4326c281cfb"}, {"bike_id": "694199491270af33f7724ad765c5acf5", "type": "electric_scooter", "is_disabled": 0, "lat": 38.906827666666665, "rental_uris": {"ios": "https://dc.lft.to/lastmile_qr_scan", "android": "https://dc.lft.to/lastmile_qr_scan"}, "is_reserved": 0, "fusion_lon": 0.0, "fusion_lat": 0.0, "lon": -77.05316866666666, "name": "694199491270af33f7724ad765c5acf5"}, {"bike_id": "908991c2dcb64a295139aa7c3a58f6e3", "type": "electric_scooter", "is_disabled": 0, "lat": 38.90249, "rental_uris": {"ios": "https://dc.lft.to/lastmile_qr_scan", "android": "https://dc.lft.to/lastmile_qr_scan"}, "is_reserved": 0, "fusion_lon": 0.0, "fusion_lat": 0.0, "lon": -77.04340466666666, "name": "908991c2dcb64a295139aa7c3a58f6e3"}, {"bike_id": "8bc3d572fefaba04dd0641a7a1941ebe", "type": "electric_bike", "is_disabled": 0, "lat": 38.809097333333334, "rental_uris": {"ios": "https://dc.lft.to/lastmile_qr_scan", "android": "https://dc.lft.to/lastmile_qr_scan"}, "is_reserved": 0, "fusion_lon": 0.0, "fusion_lat": 0.0, "lon": -77.086524, "name": "8bc3d572fefaba04dd0641a7a1941ebe"}, {"bike_id": "2b1fe594ad131730452d5c050e6e0e54", "type": "electric_scooter", "is_disabled": 0, "lat": 38.90982316666667, "rental_uris": {"ios": "https://dc.lft.to/lastmile_qr_scan", "android": "https://dc.lft.to/lastmile_qr_scan"}, "is_reserved": 0, "fusion_lon": 0.0, "fusion_lat": 0.0, "lon": -77.033409, "name": "2b1fe594ad131730452d5c050e6e0e54"}, {"bike_id": "2e14930ea421939901bc7864a1e696a1", "type": "electric_scooter", "is_disabled": 0, "lat": 38.93378583333333, "rental_uris": {"ios": "https://dc.lft.to/lastmile_qr_scan", "android": "https://dc.lft.to/lastmile_qr_scan"}, "is_reserved": 0, "fusion_lon": 0.0, "fusion_lat": 0.0, "lon": -77.05726883333334, "name": "2e14930ea421939901bc7864a1e696a1"}, {"bike_id": "b73ba20553c3ae539087d80b0963e7cc", "type": "electric_scooter", "is_disabled": 0, "lat": 38.892432166666666, "rental_uris": {"ios": "https://dc.lft.to/lastmile_qr_scan", "android": "https://dc.lft.to/lastmile_qr_scan"}, "is_reserved": 0, "fusion_lon": 0.0, "fusion_lat": 0.0, "lon": -76.953313, "name": "b73ba20553c3ae539087d80b0963e7cc"}, {"bike_id": "6c9e8dd876dad99aeb8b390148feb6c9", "type": "electric_scooter", "is_disabled": 0, "lat": 38.89745383333333, "rental_uris": {"ios": "https://dc.lft.to/lastmile_qr_scan", "android": "https://dc.lft.to/lastmile_qr_scan"}, "is_reserved": 0, "fusion_lon": 0.0, "fusion_lat": 0.0, "lon": -77.00006216666667, "name": "6c9e8dd876dad99aeb8b390148feb6c9"}, {"bike_id": "bd40b2f54145af5a32acb3fb57a09cba", "type": "electric_scooter", "is_disabled": 0, "lat": 38.895472833333336, "rental_uris": {"ios": "https://dc.lft.to/lastmile_qr_scan", "android": "https://dc.lft.to/lastmile_qr_scan"}, "is_reserved": 0, "fusion_lon": 0.0, "fusion_lat": 0.0, "lon": -76.92950866666666, "name": "bd40b2f54145af5a32acb3fb57a09cba"}, {"bike_id": "905bbb8f9c936b3a1719bde940047359", "type": "electric_scooter", "is_disabled": 0, "lat": 38.931192833333334, "rental_uris": {"ios": "https://dc.lft.to/lastmile_qr_scan", "android": "https://dc.lft.to/lastmile_qr_scan"}, "is_reserved": 0, "fusion_lon": 0.0, "fusion_lat": 0.0, "lon": -77.03036883333333, "name": "905bbb8f9c936b3a1719bde940047359"}, {"bike_id": "092475e45417fed41599eb10f93f6026", "type": "electric_scooter", "is_disabled": 0, "lat": 38.872893166666664, "rental_uris": {"ios": "https://dc.lft.to/lastmile_qr_scan", "android": "https://dc.lft.to/lastmile_qr_scan"}, "is_reserved": 0, "fusion_lon": 0.0, "fusion_lat": 0.0, "lon": -76.97737583333333, "name": "092475e45417fed41599eb10f93f6026"}, {"bike_id": "266fce46b685e220414b40521ab3725c", "type": "electric_scooter", "is_disabled": 0, "lat": 38.92053333333333, "rental_uris": {"ios": "https://dc.lft.to/lastmile_qr_scan", "android": "https://dc.lft.to/lastmile_qr_scan"}, "is_reserved": 0, "fusion_lon": 0.0, "fusion_lat": 0.0, "lon": -77.03387116666667, "name": "266fce46b685e220414b40521ab3725c"}, {"bike_id": "db6d28f094b4baed2d0d22e7eaaeaf20", "type": "electric_scooter", "is_disabled": 0, "lat": 38.913052666666665, "rental_uris": {"ios": "https://dc.lft.to/lastmile_qr_scan", "android": "https://dc.lft.to/lastmile_qr_scan"}, "is_reserved": 0, "fusion_lon": 0.0, "fusion_lat": 0.0, "lon": -77.0466265, "name": "db6d28f094b4baed2d0d22e7eaaeaf20"}, {"bike_id": "b02287eb64008624e5dfbe7ed4581864", "type": "electric_scooter", "is_disabled": 0, "lat": 38.9097885, "rental_uris": {"ios": "https://dc.lft.to/lastmile_qr_scan", "android": "https://dc.lft.to/lastmile_qr_scan"}, "is_reserved": 0, "fusion_lon": 0.0, "fusion_lat": 0.0, "lon": -77.03337433333333, "name": "b02287eb64008624e5dfbe7ed4581864"}, {"bike_id": "c99f98b6972d21b3988c14bebe8d7466", "type": "electric_scooter", "is_disabled": 0, "lat": 38.894981333333334, "rental_uris": {"ios": "https://dc.lft.to/lastmile_qr_scan", "android": "https://dc.lft.to/lastmile_qr_scan"}, "is_reserved": 0, "fusion_lon": 0.0, "fusion_lat": 0.0, "lon": -77.000638, "name": "c99f98b6972d21b3988c14bebe8d7466"}, {"bike_id": "c9c1d2ea1ff80dc0146e7b2591a62bda", "type": "electric_scooter", "is_disabled": 0, "lat": 38.913364666666666, "rental_uris": {"ios": "https://dc.lft.to/lastmile_qr_scan", "android": "https://dc.lft.to/lastmile_qr_scan"}, "is_reserved": 0, "fusion_lon": 0.0, "fusion_lat": 0.0, "lon": -77.039891, "name": "c9c1d2ea1ff80dc0146e7b2591a62bda"}, {"bike_id": "f2da4469c767aef635c639b227c48adc", "type": "electric_scooter", "is_disabled": 0, "lat": 38.84317183333334, "rental_uris": {"ios": "https://dc.lft.to/lastmile_qr_scan", "android": "https://dc.lft.to/lastmile_qr_scan"}, "is_reserved": 0, "fusion_lon": 0.0, "fusion_lat": 0.0, "lon": -76.99931183333334, "name": "f2da4469c767aef635c639b227c48adc"}, {"bike_id": "633a138431a6c13779770e46c35cd6c8", "type": "electric_scooter", "is_disabled": 0, "lat": 38.90094883333333, "rental_uris": {"ios": "https://dc.lft.to/lastmile_qr_scan", "android": "https://dc.lft.to/lastmile_qr_scan"}, "is_reserved": 0, "fusion_lon": 0.0, "fusion_lat": 0.0, "lon": -77.03852083333334, "name": "633a138431a6c13779770e46c35cd6c8"}, {"bike_id": "1a80e63d1e8b0aba38769b197e973459", "type": "electric_scooter", "is_disabled": 0, "lat": 38.914734333333335, "rental_uris": {"ios": "https://dc.lft.to/lastmile_qr_scan", "android": "https://dc.lft.to/lastmile_qr_scan"}, "is_reserved": 0, "fusion_lon": 0.0, "fusion_lat": 0.0, "lon": -77.00206666666666, "name": "1a80e63d1e8b0aba38769b197e973459"}, {"bike_id": "bdc5bf9e30f3494c0a44d01f107c5657", "type": "electric_scooter", "is_disabled": 0, "lat": 38.91985616666667, "rental_uris": {"ios": "https://dc.lft.to/lastmile_qr_scan", "android": "https://dc.lft.to/lastmile_qr_scan"}, "is_reserved": 0, "fusion_lon": 0.0, "fusion_lat": 0.0, "lon": -77.017927, "name": "bdc5bf9e30f3494c0a44d01f107c5657"}, {"bike_id": "bfd88d96dfa6cdd6652a192c2637572e", "type": "electric_scooter", "is_disabled": 0, "lat": 38.92367316666667, "rental_uris": {"ios": "https://dc.lft.to/lastmile_qr_scan", "android": "https://dc.lft.to/lastmile_qr_scan"}, "is_reserved": 0, "fusion_lon": 0.0, "fusion_lat": 0.0, "lon": -77.05127066666667, "name": "bfd88d96dfa6cdd6652a192c2637572e"}, {"bike_id": "0e5534d03ad1eef25fa897c6b230f4e1", "type": "electric_scooter", "is_disabled": 0, "lat": 38.912611, "rental_uris": {"ios": "https://dc.lft.to/lastmile_qr_scan", "android": "https://dc.lft.to/lastmile_qr_scan"}, "is_reserved": 0, "fusion_lon": 0.0, "fusion_lat": 0.0, "lon": -77.06789916666666, "name": "0e5534d03ad1eef25fa897c6b230f4e1"}, {"bike_id": "67984ef115c6b35a092a7bbbd8450f54", "type": "electric_bike", "is_disabled": 0, "lat": 38.895693666666666, "rental_uris": {"ios": "https://dc.lft.to/lastmile_qr_scan", "android": "https://dc.lft.to/lastmile_qr_scan"}, "is_reserved": 0, "fusion_lon": 0.0, "fusion_lat": 0.0, "lon": -77.127354, "name": "67984ef115c6b35a092a7bbbd8450f54"}, {"bike_id": "3cea6ca2f267e7e06e86d1cd153f6150", "type": "electric_scooter", "is_disabled": 0, "lat": 38.8647985, "rental_uris": {"ios": "https://dc.lft.to/lastmile_qr_scan", "android": "https://dc.lft.to/lastmile_qr_scan"}, "is_reserved": 0, "fusion_lon": 0.0, "fusion_lat": 0.0, "lon": -77.000068, "name": "3cea6ca2f267e7e06e86d1cd153f6150"}, {"bike_id": "6360ce7fa301dab340b273404ababa1f", "type": "electric_bike", "is_disabled": 0, "lat": 38.836086, "rental_uris": {"ios": "https://dc.lft.to/lastmile_qr_scan", "android": "https://dc.lft.to/lastmile_qr_scan"}, "is_reserved": 0, "fusion_lon": 0.0, "fusion_lat": 0.0, "lon": -77.00379716666667, "name": "6360ce7fa301dab340b273404ababa1f"}, {"bike_id": "7dfae9ef6b34b03e8224b1e10d0b9210", "type": "electric_scooter", "is_disabled": 0, "lat": 38.939448166666665, "rental_uris": {"ios": "https://dc.lft.to/lastmile_qr_scan", "android": "https://dc.lft.to/lastmile_qr_scan"}, "is_reserved": 0, "fusion_lon": 0.0, "fusion_lat": 0.0, "lon": -77.0725265, "name": "7dfae9ef6b34b03e8224b1e10d0b9210"}, {"bike_id": "5fe887d45faa982c1478275429528d18", "type": "electric_scooter", "is_disabled": 0, "lat": 38.9227665, "rental_uris": {"ios": "https://dc.lft.to/lastmile_qr_scan", "android": "https://dc.lft.to/lastmile_qr_scan"}, "is_reserved": 0, "fusion_lon": 0.0, "fusion_lat": 0.0, "lon": -77.03668183333333, "name": "5fe887d45faa982c1478275429528d18"}, {"bike_id": "2791dda7c8ec9dc58454da022536414f", "type": "electric_scooter", "is_disabled": 0, "lat": 38.9112095, "rental_uris": {"ios": "https://dc.lft.to/lastmile_qr_scan", "android": "https://dc.lft.to/lastmile_qr_scan"}, "is_reserved": 0, "fusion_lon": 0.0, "fusion_lat": 0.0, "lon": -77.04525683333334, "name": "2791dda7c8ec9dc58454da022536414f"}, {"bike_id": "a8a7a2d0ec1f9b705ffad106db170363", "type": "electric_scooter", "is_disabled": 0, "lat": 38.92864216666667, "rental_uris": {"ios": "https://dc.lft.to/lastmile_qr_scan", "android": "https://dc.lft.to/lastmile_qr_scan"}, "is_reserved": 0, "fusion_lon": 0.0, "fusion_lat": 0.0, "lon": -77.03360316666667, "name": "a8a7a2d0ec1f9b705ffad106db170363"}, {"bike_id": "7c4da11065ea88235fab5698eae5c53f", "type": "electric_scooter", "is_disabled": 0, "lat": 38.91689783333333, "rental_uris": {"ios": "https://dc.lft.to/lastmile_qr_scan", "android": "https://dc.lft.to/lastmile_qr_scan"}, "is_reserved": 0, "fusion_lon": 0.0, "fusion_lat": 0.0, "lon": -77.031545, "name": "7c4da11065ea88235fab5698eae5c53f"}, {"bike_id": "78faae1c06bf2e51ea446a0e8a7a1e9a", "type": "electric_scooter", "is_disabled": 0, "lat": 38.908528, "rental_uris": {"ios": "https://dc.lft.to/lastmile_qr_scan", "android": "https://dc.lft.to/lastmile_qr_scan"}, "is_reserved": 0, "fusion_lon": 0.0, "fusion_lat": 0.0, "lon": -77.02225483333334, "name": "78faae1c06bf2e51ea446a0e8a7a1e9a"}, {"bike_id": "8b6b9b8bcfd68810d4465fb2e8cfca56", "type": "electric_scooter", "is_disabled": 0, "lat": 38.9199745, "rental_uris": {"ios": "https://dc.lft.to/lastmile_qr_scan", "android": "https://dc.lft.to/lastmile_qr_scan"}, "is_reserved": 0, "fusion_lon": 0.0, "fusion_lat": 0.0, "lon": -77.01791, "name": "8b6b9b8bcfd68810d4465fb2e8cfca56"}, {"bike_id": "e9004bdf6add17d37400da61aef8bab5", "type": "electric_scooter", "is_disabled": 0, "lat": 38.89918333333333, "rental_uris": {"ios": "https://dc.lft.to/lastmile_qr_scan", "android": "https://dc.lft.to/lastmile_qr_scan"}, "is_reserved": 0, "fusion_lon": 0.0, "fusion_lat": 0.0, "lon": -76.9336805, "name": "e9004bdf6add17d37400da61aef8bab5"}, {"bike_id": "961e4b968805642ee4ea3bebeb8923ee", "type": "electric_scooter", "is_disabled": 0, "lat": 38.93461516666667, "rental_uris": {"ios": "https://dc.lft.to/lastmile_qr_scan", "android": "https://dc.lft.to/lastmile_qr_scan"}, "is_reserved": 0, "fusion_lon": 0.0, "fusion_lat": 0.0, "lon": -77.04532933333333, "name": "961e4b968805642ee4ea3bebeb8923ee"}, {"bike_id": "b35e10c22ad913920eb9a521b4c8a990", "type": "electric_scooter", "is_disabled": 0, "lat": 38.906277, "rental_uris": {"ios": "https://dc.lft.to/lastmile_qr_scan", "android": "https://dc.lft.to/lastmile_qr_scan"}, "is_reserved": 0, "fusion_lon": 0.0, "fusion_lat": 0.0, "lon": -77.05556883333334, "name": "b35e10c22ad913920eb9a521b4c8a990"}, {"bike_id": "ddfec2616b1288d2f77d5941a016bd69", "type": "electric_scooter", "is_disabled": 0, "lat": 38.9024505, "rental_uris": {"ios": "https://dc.lft.to/lastmile_qr_scan", "android": "https://dc.lft.to/lastmile_qr_scan"}, "is_reserved": 0, "fusion_lon": 0.0, "fusion_lat": 0.0, "lon": -77.00195566666666, "name": "ddfec2616b1288d2f77d5941a016bd69"}, {"bike_id": "b1935a65a6defd3edf4d207a4278f215", "type": "electric_scooter", "is_disabled": 0, "lat": 38.902368833333334, "rental_uris": {"ios": "https://dc.lft.to/lastmile_qr_scan", "android": "https://dc.lft.to/lastmile_qr_scan"}, "is_reserved": 0, "fusion_lon": 0.0, "fusion_lat": 0.0, "lon": -77.04108033333333, "name": "b1935a65a6defd3edf4d207a4278f215"}, {"bike_id": "2569c4802b7e096e794d7e7c380f2134", "type": "electric_scooter", "is_disabled": 0, "lat": 38.87606, "rental_uris": {"ios": "https://dc.lft.to/lastmile_qr_scan", "android": "https://dc.lft.to/lastmile_qr_scan"}, "is_reserved": 0, "fusion_lon": 0.0, "fusion_lat": 0.0, "lon": -77.0137785, "name": "2569c4802b7e096e794d7e7c380f2134"}, {"bike_id": "41fd9a95310acf98a1cc89136558ad26", "type": "electric_bike", "is_disabled": 0, "lat": 38.85728983333333, "rental_uris": {"ios": "https://dc.lft.to/lastmile_qr_scan", "android": "https://dc.lft.to/lastmile_qr_scan"}, "is_reserved": 0, "fusion_lon": 0.0, "fusion_lat": 0.0, "lon": -77.079678, "name": "41fd9a95310acf98a1cc89136558ad26"}, {"bike_id": "f83c28c3ffbdb3c2ada5417277800732", "type": "electric_scooter", "is_disabled": 0, "lat": 38.8770435, "rental_uris": {"ios": "https://dc.lft.to/lastmile_qr_scan", "android": "https://dc.lft.to/lastmile_qr_scan"}, "is_reserved": 0, "fusion_lon": 0.0, "fusion_lat": 0.0, "lon": -77.01659966666666, "name": "f83c28c3ffbdb3c2ada5417277800732"}, {"bike_id": "b0d839541d16f4ea51acb6dafe53b98a", "type": "electric_scooter", "is_disabled": 0, "lat": 38.9142555, "rental_uris": {"ios": "https://dc.lft.to/lastmile_qr_scan", "android": "https://dc.lft.to/lastmile_qr_scan"}, "is_reserved": 0, "fusion_lon": 0.0, "fusion_lat": 0.0, "lon": -77.06923416666666, "name": "b0d839541d16f4ea51acb6dafe53b98a"}, {"bike_id": "5d9684c0e6a672862002867591dcf14e", "type": "electric_bike", "is_disabled": 0, "lat": 38.93689466666667, "rental_uris": {"ios": "https://dc.lft.to/lastmile_qr_scan", "android": "https://dc.lft.to/lastmile_qr_scan"}, "is_reserved": 0, "fusion_lon": 0.0, "fusion_lat": 0.0, "lon": -77.05641516666667, "name": "5d9684c0e6a672862002867591dcf14e"}, {"bike_id": "e9fbaeef6303aed27531a87eb6385ea4", "type": "electric_scooter", "is_disabled": 0, "lat": 38.8953465, "rental_uris": {"ios": "https://dc.lft.to/lastmile_qr_scan", "android": "https://dc.lft.to/lastmile_qr_scan"}, "is_reserved": 0, "fusion_lon": 0.0, "fusion_lat": 0.0, "lon": -77.0111675, "name": "e9fbaeef6303aed27531a87eb6385ea4"}, {"bike_id": "2efb5f310529a8725b78ae6aaee6c067", "type": "electric_scooter", "is_disabled": 0, "lat": 38.935885666666664, "rental_uris": {"ios": "https://dc.lft.to/lastmile_qr_scan", "android": "https://dc.lft.to/lastmile_qr_scan"}, "is_reserved": 0, "fusion_lon": 0.0, "fusion_lat": 0.0, "lon": -77.03805, "name": "2efb5f310529a8725b78ae6aaee6c067"}, {"bike_id": "8da0701eed15a8f482fafac623875818", "type": "electric_scooter", "is_disabled": 0, "lat": 38.925718333333336, "rental_uris": {"ios": "https://dc.lft.to/lastmile_qr_scan", "android": "https://dc.lft.to/lastmile_qr_scan"}, "is_reserved": 0, "fusion_lon": 0.0, "fusion_lat": 0.0, "lon": -77.04009066666667, "name": "8da0701eed15a8f482fafac623875818"}, {"bike_id": "e277cfda6bf3e222847b1fa2986c337b", "type": "electric_scooter", "is_disabled": 0, "lat": 38.933643833333335, "rental_uris": {"ios": "https://dc.lft.to/lastmile_qr_scan", "android": "https://dc.lft.to/lastmile_qr_scan"}, "is_reserved": 0, "fusion_lon": 0.0, "fusion_lat": 0.0, "lon": -77.06209833333334, "name": "e277cfda6bf3e222847b1fa2986c337b"}, {"bike_id": "a1640b281a466e603d249b77af4b83e7", "type": "electric_bike", "is_disabled": 0, "lat": 38.87301016666667, "rental_uris": {"ios": "https://dc.lft.to/lastmile_qr_scan", "android": "https://dc.lft.to/lastmile_qr_scan"}, "is_reserved": 0, "fusion_lon": 0.0, "fusion_lat": 0.0, "lon": -77.139216, "name": "a1640b281a466e603d249b77af4b83e7"}, {"bike_id": "0635e0e9a0ae7e86837b446dbdda1296", "type": "electric_scooter", "is_disabled": 0, "lat": 38.905746, "rental_uris": {"ios": "https://dc.lft.to/lastmile_qr_scan", "android": "https://dc.lft.to/lastmile_qr_scan"}, "is_reserved": 0, "fusion_lon": 0.0, "fusion_lat": 0.0, "lon": -77.022123, "name": "0635e0e9a0ae7e86837b446dbdda1296"}, {"bike_id": "17919fca1d0087c3c433cfdf9aa2b021", "type": "electric_scooter", "is_disabled": 0, "lat": 38.93867766666666, "rental_uris": {"ios": "https://dc.lft.to/lastmile_qr_scan", "android": "https://dc.lft.to/lastmile_qr_scan"}, "is_reserved": 0, "fusion_lon": 0.0, "fusion_lat": 0.0, "lon": -77.02700966666667, "name": "17919fca1d0087c3c433cfdf9aa2b021"}, {"bike_id": "595ee0630366c21a7f62f8e4d587ad00", "type": "electric_scooter", "is_disabled": 0, "lat": 38.92867566666666, "rental_uris": {"ios": "https://dc.lft.to/lastmile_qr_scan", "android": "https://dc.lft.to/lastmile_qr_scan"}, "is_reserved": 0, "fusion_lon": 0.0, "fusion_lat": 0.0, "lon": -77.03425716666666, "name": "595ee0630366c21a7f62f8e4d587ad00"}, {"bike_id": "d4f68ecfe55148cd48b43298c9032052", "type": "electric_scooter", "is_disabled": 0, "lat": 38.95316116666667, "rental_uris": {"ios": "https://dc.lft.to/lastmile_qr_scan", "android": "https://dc.lft.to/lastmile_qr_scan"}, "is_reserved": 0, "fusion_lon": 0.0, "fusion_lat": 0.0, "lon": -77.06978566666666, "name": "d4f68ecfe55148cd48b43298c9032052"}, {"bike_id": "3c0450e371dcd2815e94c696a6e0df28", "type": "electric_scooter", "is_disabled": 0, "lat": 38.91141116666667, "rental_uris": {"ios": "https://dc.lft.to/lastmile_qr_scan", "android": "https://dc.lft.to/lastmile_qr_scan"}, "is_reserved": 0, "fusion_lon": 0.0, "fusion_lat": 0.0, "lon": -76.990111, "name": "3c0450e371dcd2815e94c696a6e0df28"}, {"bike_id": "ae0c42ec0dee2b3dc62a836448c693fa", "type": "electric_scooter", "is_disabled": 0, "lat": 38.89969133333334, "rental_uris": {"ios": "https://dc.lft.to/lastmile_qr_scan", "android": "https://dc.lft.to/lastmile_qr_scan"},