{"data": {"bikes": [{"rental_uris": {"android": "https://dc.lft.to/lastmile_qr_scan", "ios": "https://dc.lft.to/lastmile_qr_scan"}, "lon": -77.03839333333333, "name": "55ed6889bb131c22737345bdf62fb3fe", "lat": 38.909728666666666, "is_reserved": 0, "fusion_lat": 0.0, "bike_id": "55ed6889bb131c22737345bdf62fb3fe", "type": "electric_scooter", "is_disabled": 0, "fusion_lon": 0.0}, {"rental_uris": {"android": "https://dc.lft.to/lastmile_qr_scan", "ios": "https://dc.lft.to/lastmile_qr_scan"}, "lon": -76.97955183333333, "name": "a9989a1b752cd68fa1f2c47d04ad774d", "lat": 38.904299, "is_reserved": 0, "fusion_lat": 0.0, "bike_id": "a9989a1b752cd68fa1f2c47d04ad774d", "type": "electric_scooter", "is_disabled": 0, "fusion_lon": 0.0}, {"rental_uris": {"android": "https://dc.lft.to/lastmile_qr_scan", "ios": "https://dc.lft.to/lastmile_qr_scan"}, "lon": -77.05402883333333, "name": "f2045e45ae0b29f76c0cbf1de639e34e", "lat": 38.804477, "is_reserved": 0, "fusion_lat": 0.0, "bike_id": "f2045e45ae0b29f76c0cbf1de639e34e", "type": "electric_bike", "is_disabled": 0, "fusion_lon": 0.0}, {"rental_uris": {"android": "https://dc.lft.to/lastmile_qr_scan", "ios": "https://dc.lft.to/lastmile_qr_scan"}, "lon": -77.0416855, "name": "fe0746c02f72913ca996bb3c189e8872", "lat": 38.8985275, "is_reserved": 0, "fusion_lat": 0.0, "bike_id": "fe0746c02f72913ca996bb3c189e8872", "type": "electric_scooter", "is_disabled": 0, "fusion_lon": 0.0}, {"rental_uris": {"android": "https://dc.lft.to/lastmile_qr_scan", "ios": "https://dc.lft.to/lastmile_qr_scan"}, "lon": -77.01488216666667, "name": "40e12af0b76a6a6d31c3afba6ea01085", "lat": 38.92680983333333, "is_reserved": 0, "fusion_lat": 0.0, "bike_id": "40e12af0b76a6a6d31c3afba6ea01085", "type": "electric_scooter", "is_disabled": 0, "fusion_lon": 0.0}, {"rental_uris": {"android": "https://dc.lft.to/lastmile_qr_scan", "ios": "https://dc.lft.to/lastmile_qr_scan"}, "lon": -77.0344435, "name": "9adc710d4ccbac1c67f44ac103612857", "lat": 38.90979266666667, "is_reserved": 0, "fusion_lat": 0.0, "bike_id": "9adc710d4ccbac1c67f44ac103612857", "type": "electric_scooter", "is_disabled": 0, "fusion_lon": 0.0}, {"rental_uris": {"android": "https://dc.lft.to/lastmile_qr_scan", "ios": "https://dc.lft.to/lastmile_qr_scan"}, "lon": -76.9074335, "name": "77e58ed21029bf962b522eac5c1ab2c7", "lat": 38.8961675, "is_reserved": 0, "fusion_lat": 0.0, "bike_id": "77e58ed21029bf962b522eac5c1ab2c7", "type": "electric_bike", "is_disabled": 0, "fusion_lon": 0.0}, {"rental_uris": {"android": "https://dc.lft.to/lastmile_qr_scan", "ios": "https://dc.lft.to/lastmile_qr_scan"}, "lon": -77.0230305, "name": "724d25388a1551135fa5117a5ab3aa87", "lat": 38.908659, "is_reserved": 0, "fusion_lat": 0.0, "bike_id": "724d25388a1551135fa5117a5ab3aa87", "type": "electric_scooter", "is_disabled": 0, "fusion_lon": 0.0}, {"rental_uris": {"android": "https://dc.lft.to/lastmile_qr_scan", "ios": "https://dc.lft.to/lastmile_qr_scan"}, "lon": -77.04531516666667, "name": "31ca7cb608e016385ee162cfc2b80327", "lat": 38.916063666666666, "is_reserved": 0, "fusion_lat": 0.0, "bike_id": "31ca7cb608e016385ee162cfc2b80327", "type": "electric_scooter", "is_disabled": 0, "fusion_lon": 0.0}, {"rental_uris": {"android": "https://dc.lft.to/lastmile_qr_scan", "ios": "https://dc.lft.to/lastmile_qr_scan"}, "lon": -77.0315805, "name": "313890b63e46bc37489f85f781af5295", "lat": 38.89537516666667, "is_reserved": 0, "fusion_lat": 0.0, "bike_id": "313890b63e46bc37489f85f781af5295", "type": "electric_scooter", "is_disabled": 0, "fusion_lon": 0.0}, {"rental_uris": {"android": "https://dc.lft.to/lastmile_qr_scan", "ios": "https://dc.lft.to/lastmile_qr_scan"}, "lon": -77.03338066666667, "name": "642f0acf6215637ca87455f207306c42", "lat": 38.93579866666666, "is_reserved": 0, "fusion_lat": 0.0, "bike_id": "642f0acf6215637ca87455f207306c42", "type": "electric_scooter", "is_disabled": 0, "fusion_lon": 0.0}, {"rental_uris": {"android": "https://dc.lft.to/lastmile_qr_scan", "ios": "https://dc.lft.to/lastmile_qr_scan"}, "lon": -77.0456215, "name": "2d10ebb17a84afe796f6eb7b1ecda790", "lat": 38.908569666666665, "is_reserved": 0, "fusion_lat": 0.0, "bike_id": "2d10ebb17a84afe796f6eb7b1ecda790", "type": "electric_scooter", "is_disabled": 0, "fusion_lon": 0.0}, {"rental_uris": {"android": "https://dc.lft.to/lastmile_qr_scan", "ios": "https://dc.lft.to/lastmile_qr_scan"}, "lon": -77.03819733333333, "name": "84585b4261685418e62261f0f8c5e75e", "lat": 38.90282366666667, "is_reserved": 0, "fusion_lat": 0.0, "bike_id": "84585b4261685418e62261f0f8c5e75e", "type": "electric_scooter", "is_disabled": 0, "fusion_lon": 0.0}, {"rental_uris": {"android": "https://dc.lft.to/lastmile_qr_scan", "ios": "https://dc.lft.to/lastmile_qr_scan"}, "lon": -77.04771733333334, "name": "f66ed73bb8bd4235091aa51710974b6b", "lat": 38.917577333333334, "is_reserved": 0, "fusion_lat": 0.0, "bike_id": "f66ed73bb8bd4235091aa51710974b6b", "type": "electric_scooter", "is_disabled": 0, "fusion_lon": 0.0}, {"rental_uris": {"android": "https://dc.lft.to/lastmile_qr_scan", "ios": "https://dc.lft.to/lastmile_qr_scan"}, "lon": -77.04309833333333, "name": "c8e34b5e8d87de694151a6b34f2e11ff", "lat": 38.9232865, "is_reserved": 0, "fusion_lat": 0.0, "bike_id": "c8e34b5e8d87de694151a6b34f2e11ff", "type": "electric_scooter", "is_disabled": 0, "fusion_lon": 0.0}, {"rental_uris": {"android": "https://dc.lft.to/lastmile_qr_scan", "ios": "https://dc.lft.to/lastmile_qr_scan"}, "lon": -77.05272283333333, "name": "b01edccd9633cb919f5903b9312af68b", "lat": 38.9101615, "is_reserved": 0, "fusion_lat": 0.0, "bike_id": "b01edccd9633cb919f5903b9312af68b", "type": "electric_scooter", "is_disabled": 0, "fusion_lon": 0.0}, {"rental_uris": {"android": "https://dc.lft.to/lastmile_qr_scan", "ios": "https://dc.lft.to/lastmile_qr_scan"}, "lon": -77.0431025, "name": "db68d9a160b51393420034f26ccc82a1", "lat": 38.903809, "is_reserved": 0, "fusion_lat": 0.0, "bike_id": "db68d9a160b51393420034f26ccc82a1", "type": "electric_scooter", "is_disabled": 0, "fusion_lon": 0.0}, {"rental_uris": {"android": "https://dc.lft.to/lastmile_qr_scan", "ios": "https://dc.lft.to/lastmile_qr_scan"}, "lon": -76.9927625, "name": "0ac2ebb94f3d59e64a8891ed195141ef", "lat": 38.972583166666666, "is_reserved": 0, "fusion_lat": 0.0, "bike_id": "0ac2ebb94f3d59e64a8891ed195141ef", "type": "electric_bike", "is_disabled": 0, "fusion_lon": 0.0}, {"rental_uris": {"android": "https://dc.lft.to/lastmile_qr_scan", "ios": "https://dc.lft.to/lastmile_qr_scan"}, "lon": -77.044814, "name": "e6536b037b64b436b5864a701899b976", "lat": 38.9027805, "is_reserved": 0, "fusion_lat": 0.0, "bike_id": "e6536b037b64b436b5864a701899b976", "type": "electric_scooter", "is_disabled": 0, "fusion_lon": 0.0}, {"rental_uris": {"android": "https://dc.lft.to/lastmile_qr_scan", "ios": "https://dc.lft.to/lastmile_qr_scan"}, "lon": -76.9962315, "name": "38dd62f67ab4050f76dbdf0d48f54e55", "lat": 38.95069816666667, "is_reserved": 0, "fusion_lat": 0.0, "bike_id": "38dd62f67ab4050f76dbdf0d48f54e55", "type": "electric_scooter", "is_disabled": 0, "fusion_lon": 0.0}, {"rental_uris": {"android": "https://dc.lft.to/lastmile_qr_scan", "ios": "https://dc.lft.to/lastmile_qr_scan"}, "lon": -77.03383566666666, "name": "263d9ca622bf4d49816633b9778c941d", "lat": 38.925341333333336, "is_reserved": 0, "fusion_lat": 0.0, "bike_id": "263d9ca622bf4d49816633b9778c941d", "type": "electric_scooter", "is_disabled": 0, "fusion_lon": 0.0}, {"rental_uris": {"android": "https://dc.lft.to/lastmile_qr_scan", "ios": "https://dc.lft.to/lastmile_qr_scan"}, "lon": -77.0534075, "name": "0c85ae1f9f96dd51caea14d13137167b", "lat": 39.04083883333333, "is_reserved": 0, "fusion_lat": 0.0, "bike_id": "0c85ae1f9f96dd51caea14d13137167b", "type": "electric_bike", "is_disabled": 0, "fusion_lon": 0.0}, {"rental_uris": {"android": "https://dc.lft.to/lastmile_qr_scan", "ios": "https://dc.lft.to/lastmile_qr_scan"}, "lon": -77.0863785, "name": "bb367ba59ca31c21e7f9a0edb1f34c3e", "lat": 38.8806435, "is_reserved": 0, "fusion_lat": 0.0, "bike_id": "bb367ba59ca31c21e7f9a0edb1f34c3e", "type": "electric_bike", "is_disabled": 0, "fusion_lon": 0.0}, {"rental_uris": {"android": "https://dc.lft.to/lastmile_qr_scan", "ios": "https://dc.lft.to/lastmile_qr_scan"}, "lon": -77.00767483333334, "name": "5ec8b914f3e534a3f71d5ed233c951e1", "lat": 38.871272, "is_reserved": 0, "fusion_lat": 0.0, "bike_id": "5ec8b914f3e534a3f71d5ed233c951e1", "type": "electric_scooter", "is_disabled": 0, "fusion_lon": 0.0}, {"rental_uris": {"android": "https://dc.lft.to/lastmile_qr_scan", "ios": "https://dc.lft.to/lastmile_qr_scan"}, "lon": -77.032873, "name": "e08b30957724c57baa5ba17d78096071", "lat": 38.922773, "is_reserved": 0, "fusion_lat": 0.0, "bike_id": "e08b30957724c57baa5ba17d78096071", "type": "electric_scooter", "is_disabled": 0, "fusion_lon": 0.0}, {"rental_uris": {"android": "https://dc.lft.to/lastmile_qr_scan", "ios": "https://dc.lft.to/lastmile_qr_scan"}, "lon": -77.02347016666667, "name": "90881a037ffe0d75084e922e6ccd9c76", "lat": 38.9271755, "is_reserved": 0, "fusion_lat": 0.0, "bike_id": "90881a037ffe0d75084e922e6ccd9c76", "type": "electric_scooter", "is_disabled": 0, "fusion_lon": 0.0}, {"rental_uris": {"android": "https://dc.lft.to/lastmile_qr_scan", "ios": "https://dc.lft.to/lastmile_qr_scan"}, "lon": -77.0324405, "name": "8e4aedc3896e104af054a5afa1712a70", "lat": 38.92727, "is_reserved": 0, "fusion_lat": 0.0, "bike_id": "8e4aedc3896e104af054a5afa1712a70", "type": "electric_scooter", "is_disabled": 0, "fusion_lon": 0.0}, {"rental_uris": {"android": "https://dc.lft.to/lastmile_qr_scan", "ios": "https://dc.lft.to/lastmile_qr_scan"}, "lon": -77.02698433333333, "name": "9e2e9fd97d08d826f87caa84636cb0da", "lat": 38.9182695, "is_reserved": 0, "fusion_lat": 0.0, "bike_id": "9e2e9fd97d08d826f87caa84636cb0da", "type": "electric_scooter", "is_disabled": 0, "fusion_lon": 0.0}, {"rental_uris": {"android": "https://dc.lft.to/lastmile_qr_scan", "ios": "https://dc.lft.to/lastmile_qr_scan"}, "lon": -77.00761316666667, "name": "0e99daf74bf08a49fd58474db9bb6713", "lat": 38.99780833333333, "is_reserved": 0, "fusion_lat": 0.0, "bike_id": "0e99daf74bf08a49fd58474db9bb6713", "type": "electric_bike", "is_disabled": 0, "fusion_lon": 0.0}, {"rental_uris": {"android": "https://dc.lft.to/lastmile_qr_scan", "ios": "https://dc.lft.to/lastmile_qr_scan"}, "lon": -76.98377916666666, "name": "4a62861c1d0879b666085110e6205de6", "lat": 38.91507466666667, "is_reserved": 0, "fusion_lat": 0.0, "bike_id": "4a62861c1d0879b666085110e6205de6", "type": "electric_scooter", "is_disabled": 0, "fusion_lon": 0.0}, {"rental_uris": {"android": "https://dc.lft.to/lastmile_qr_scan", "ios": "https://dc.lft.to/lastmile_qr_scan"}, "lon": -77.005771, "name": "46f5e197ff835ceeef6c2483100d7a7f", "lat": 38.875712166666666, "is_reserved": 0, "fusion_lat": 0.0, "bike_id": "46f5e197ff835ceeef6c2483100d7a7f", "type": "electric_scooter", "is_disabled": 0, "fusion_lon": 0.0}, {"rental_uris": {"android": "https://dc.lft.to/lastmile_qr_scan", "ios": "https://dc.lft.to/lastmile_qr_scan"}, "lon": -77.0326995, "name": "96742699cedbda9a173c773ccf354acd", "lat": 38.93883433333333, "is_reserved": 0, "fusion_lat": 0.0, "bike_id": "96742699cedbda9a173c773ccf354acd", "type": "electric_scooter", "is_disabled": 0, "fusion_lon": 0.0}, {"rental_uris": {"android": "https://dc.lft.to/lastmile_qr_scan", "ios": "https://dc.lft.to/lastmile_qr_scan"}, "lon": -77.02951516666667, "name": "69a1af489227b38f322d9cf38059f2de", "lat": 38.916822, "is_reserved": 0, "fusion_lat": 0.0, "bike_id": "69a1af489227b38f322d9cf38059f2de", "type": "electric_scooter", "is_disabled": 0, "fusion_lon": 0.0}, {"rental_uris": {"android": "https://dc.lft.to/lastmile_qr_scan", "ios": "https://dc.lft.to/lastmile_qr_scan"}, "lon": -77.03449966666666, "name": "d6cc8c6631b057dc40ac78d2cd1a5195", "lat": 38.90948016666667, "is_reserved": 0, "fusion_lat": 0.0, "bike_id": "d6cc8c6631b057dc40ac78d2cd1a5195", "type": "electric_scooter", "is_disabled": 0, "fusion_lon": 0.0}, {"rental_uris": {"android": "https://dc.lft.to/lastmile_qr_scan", "ios": "https://dc.lft.to/lastmile_qr_scan"}, "lon": -77.01274033333333, "name": "e1187b83fd96acbe714a2d6caf7ddfb2", "lat": 38.86475566666667, "is_reserved": 0, "fusion_lat": 0.0, "bike_id": "e1187b83fd96acbe714a2d6caf7ddfb2", "type": "electric_bike", "is_disabled": 0, "fusion_lon": 0.0}, {"rental_uris": {"android": "https://dc.lft.to/lastmile_qr_scan", "ios": "https://dc.lft.to/lastmile_qr_scan"}, "lon": -77.03643366666667, "name": "e38defe8afce394fb5b0b5a4e4812f7d", "lat": 38.91613566666667, "is_reserved": 0, "fusion_lat": 0.0, "bike_id": "e38defe8afce394fb5b0b5a4e4812f7d", "type": "electric_scooter", "is_disabled": 0, "fusion_lon": 0.0}, {"rental_uris": {"android": "https://dc.lft.to/lastmile_qr_scan", "ios": "https://dc.lft.to/lastmile_qr_scan"}, "lon": -77.02156866666667, "name": "254a96f626a6c56546bb8cd1e4b1db38", "lat": 38.94131866666667, "is_reserved": 0, "fusion_lat": 0.0, "bike_id": "254a96f626a6c56546bb8cd1e4b1db38", "type": "electric_scooter", "is_disabled": 0, "fusion_lon": 0.0}, {"rental_uris": {"android": "https://dc.lft.to/lastmile_qr_scan", "ios": "https://dc.lft.to/lastmile_qr_scan"}, "lon": -77.04350933333333, "name": "3606e90dd6f81f46ca9025570d2d45c7", "lat": 38.908772166666665, "is_reserved": 0, "fusion_lat": 0.0, "bike_id": "3606e90dd6f81f46ca9025570d2d45c7", "type": "electric_scooter", "is_disabled": 0, "fusion_lon": 0.0}, {"rental_uris": {"android": "https://dc.lft.to/lastmile_qr_scan", "ios": "https://dc.lft.to/lastmile_qr_scan"}, "lon": -77.0684745, "name": "3a1d3d568f17a4ef438bbe1e2063ba39", "lat": 38.91727433333333, "is_reserved": 0, "fusion_lat": 0.0, "bike_id": "3a1d3d568f17a4ef438bbe1e2063ba39", "type": "electric_scooter", "is_disabled": 0, "fusion_lon": 0.0}, {"rental_uris": {"android": "https://dc.lft.to/lastmile_qr_scan", "ios": "https://dc.lft.to/lastmile_qr_scan"}, "lon": -77.22890616666666, "name": "02636e11f1705d881510f84c2d8c7d12", "lat": 38.90958533333333, "is_reserved": 0, "fusion_lat": 0.0, "bike_id": "02636e11f1705d881510f84c2d8c7d12", "type": "electric_bike", "is_disabled": 0, "fusion_lon": 0.0}, {"rental_uris": {"android": "https://dc.lft.to/lastmile_qr_scan", "ios": "https://dc.lft.to/lastmile_qr_scan"}, "lon": -77.01505483333334, "name": "767bd6c2f804e0c916278222f019aa84", "lat": 38.89015666666667, "is_reserved": 0, "fusion_lat": 0.0, "bike_id": "767bd6c2f804e0c916278222f019aa84", "type": "electric_scooter", "is_disabled": 0, "fusion_lon": 0.0}, {"rental_uris": {"android": "https://dc.lft.to/lastmile_qr_scan", "ios": "https://dc.lft.to/lastmile_qr_scan"}, "lon": -76.9896825, "name": "bde500f908fdfe3cca5984c1494084be", "lat": 38.901431333333335, "is_reserved": 0, "fusion_lat": 0.0, "bike_id": "bde500f908fdfe3cca5984c1494084be", "type": "electric_scooter", "is_disabled": 0, "fusion_lon": 0.0}, {"rental_uris": {"android": "https://dc.lft.to/lastmile_qr_scan", "ios": "https://dc.lft.to/lastmile_qr_scan"}, "lon": -77.01779266666667, "name": "d8c63a85a41b646405ec864f3de35010", "lat": 38.94421083333334, "is_reserved": 0, "fusion_lat": 0.0, "bike_id": "d8c63a85a41b646405ec864f3de35010", "type": "electric_scooter", "is_disabled": 0, "fusion_lon": 0.0}, {"rental_uris": {"android": "https://dc.lft.to/lastmile_qr_scan", "ios": "https://dc.lft.to/lastmile_qr_scan"}, "lon": -76.9888065, "name": "ef3d471603c45172933fc7dea6439e0c", "lat": 38.8666, "is_reserved": 0, "fusion_lat": 0.0, "bike_id": "ef3d471603c45172933fc7dea6439e0c", "type": "electric_scooter", "is_disabled": 0, "fusion_lon": 0.0}, {"rental_uris": {"android": "https://dc.lft.to/lastmile_qr_scan", "ios": "https://dc.lft.to/lastmile_qr_scan"}, "lon": -77.01209666666666, "name": "3007bf2dd3c46a88d9aa28be61470ac4", "lat": 38.9212015, "is_reserved": 0, "fusion_lat": 0.0, "bike_id": "3007bf2dd3c46a88d9aa28be61470ac4", "type": "electric_scooter", "is_disabled": 0, "fusion_lon": 0.0}, {"rental_uris": {"android": "https://dc.lft.to/lastmile_qr_scan", "ios": "https://dc.lft.to/lastmile_qr_scan"}, "lon": -77.0441325, "name": "f9a479a045fe6eb1ca2a801f8e558f37", "lat": 38.93421583333333, "is_reserved": 0, "fusion_lat": 0.0, "bike_id": "f9a479a045fe6eb1ca2a801f8e558f37", "type": "electric_scooter", "is_disabled": 0, "fusion_lon": 0.0}, {"rental_uris": {"android": "https://dc.lft.to/lastmile_qr_scan", "ios": "https://dc.lft.to/lastmile_qr_scan"}, "lon": -77.030977, "name": "7f47120a48d1f11364b1ffc5763d9a6d", "lat": 38.92382283333333, "is_reserved": 0, "fusion_lat": 0.0, "bike_id": "7f47120a48d1f11364b1ffc5763d9a6d", "type": "electric_scooter", "is_disabled": 0, "fusion_lon": 0.0}, {"rental_uris": {"android": "https://dc.lft.to/lastmile_qr_scan", "ios": "https://dc.lft.to/lastmile_qr_scan"}, "lon": -77.03333383333333, "name": "aaaeb3d1b01d0449d31449e3f84c2802", "lat": 38.898361666666666, "is_reserved": 0, "fusion_lat": 0.0, "bike_id": "aaaeb3d1b01d0449d31449e3f84c2802", "type": "electric_scooter", "is_disabled": 0, "fusion_lon": 0.0}, {"rental_uris": {"android": "https://dc.lft.to/lastmile_qr_scan", "ios": "https://dc.lft.to/lastmile_qr_scan"}, "lon": -77.029673, "name": "d8d21b5a13f7d6565990e9cd872c45d0", "lat": 38.906061666666666, "is_reserved": 0, "fusion_lat": 0.0, "bike_id": "d8d21b5a13f7d6565990e9cd872c45d0", "type": "electric_scooter", "is_disabled": 0, "fusion_lon": 0.0}, {"rental_uris": {"android": "https://dc.lft.to/lastmile_qr_scan", "ios": "https://dc.lft.to/lastmile_qr_scan"}, "lon": -77.02956316666666, "name": "39992dc3c289f81a3cd52e1d04ff2ff7", "lat": 38.90498266666667, "is_reserved": 0, "fusion_lat": 0.0, "bike_id": "39992dc3c289f81a3cd52e1d04ff2ff7", "type": "electric_scooter", "is_disabled": 0, "fusion_lon": 0.0}, {"rental_uris": {"android": "https://dc.lft.to/lastmile_qr_scan", "ios": "https://dc.lft.to/lastmile_qr_scan"}, "lon": -77.038105, "name": "c007a9512cfe7b9294b246becfb5c772", "lat": 38.931150833333334, "is_reserved": 0, "fusion_lat": 0.0, "bike_id": "c007a9512cfe7b9294b246becfb5c772", "type": "electric_scooter", "is_disabled": 0, "fusion_lon": 0.0}, {"rental_uris": {"android": "https://dc.lft.to/lastmile_qr_scan", "ios": "https://dc.lft.to/lastmile_qr_scan"}, "lon": -77.05143233333334, "name": "31fc1edf9cc2171b19e86c3c167f74a5", "lat": 38.905109, "is_reserved": 0, "fusion_lat": 0.0, "bike_id": "31fc1edf9cc2171b19e86c3c167f74a5", "type": "electric_scooter", "is_disabled": 0, "fusion_lon": 0.0}, {"rental_uris": {"android": "https://dc.lft.to/lastmile_qr_scan", "ios": "https://dc.lft.to/lastmile_qr_scan"}, "lon": -77.0254035, "name": "7c0ac711e26fd7b27141dae6958004e0", "lat": 38.93096383333334, "is_reserved": 0, "fusion_lat": 0.0, "bike_id": "7c0ac711e26fd7b27141dae6958004e0", "type": "electric_scooter", "is_disabled": 0, "fusion_lon": 0.0}, {"rental_uris": {"android": "https://dc.lft.to/lastmile_qr_scan", "ios": "https://dc.lft.to/lastmile_qr_scan"}, "lon": -77.02171016666667, "name": "d0a33dbc3a1ac9dcfa14cfff5b453bc8", "lat": 38.91941466666667, "is_reserved": 0, "fusion_lat": 0.0, "bike_id": "d0a33dbc3a1ac9dcfa14cfff5b453bc8", "type": "electric_scooter", "is_disabled": 0, "fusion_lon": 0.0}, {"rental_uris": {"android": "https://dc.lft.to/lastmile_qr_scan", "ios": "https://dc.lft.to/lastmile_qr_scan"}, "lon": -76.99026266666667, "name": "f8369cce7cba1c7526b0aaa5f53a8df2", "lat": 38.901504, "is_reserved": 0, "fusion_lat": 0.0, "bike_id": "f8369cce7cba1c7526b0aaa5f53a8df2", "type": "electric_scooter", "is_disabled": 0, "fusion_lon": 0.0}, {"rental_uris": {"android": "https://dc.lft.to/lastmile_qr_scan", "ios": "https://dc.lft.to/lastmile_qr_scan"}, "lon": -76.966796, "name": "3ce750e715c3585a0cb08040f02c57e4", "lat": 38.855989666666666, "is_reserved": 0, "fusion_lat": 0.0, "bike_id": "3ce750e715c3585a0cb08040f02c57e4", "type": "electric_scooter", "is_disabled": 0, "fusion_lon": 0.0}, {"rental_uris": {"android": "https://dc.lft.to/lastmile_qr_scan", "ios": "https://dc.lft.to/lastmile_qr_scan"}, "lon": -77.017608, "name": "0d546945b8e8f01b973ede9aa714b8de", "lat": 38.9026795, "is_reserved": 0, "fusion_lat": 0.0, "bike_id": "0d546945b8e8f01b973ede9aa714b8de", "type": "electric_scooter", "is_disabled": 0, "fusion_lon": 0.0}, {"rental_uris": {"android": "https://dc.lft.to/lastmile_qr_scan", "ios": "https://dc.lft.to/lastmile_qr_scan"}, "lon": -77.02291083333333, "name": "5439dcdab6bb858f892440f0d66ea1fc", "lat": 38.89707833333333, "is_reserved": 0, "fusion_lat": 0.0, "bike_id": "5439dcdab6bb858f892440f0d66ea1fc", "type": "electric_scooter", "is_disabled": 0, "fusion_lon": 0.0}, {"rental_uris": {"android": "https://dc.lft.to/lastmile_qr_scan", "ios": "https://dc.lft.to/lastmile_qr_scan"}, "lon": -77.05033433333334, "name": "c610d7e5ccdb65acea8304bef5dc4dea", "lat": 38.923599, "is_reserved": 0, "fusion_lat": 0.0, "bike_id": "c610d7e5ccdb65acea8304bef5dc4dea", "type": "electric_scooter", "is_disabled": 0, "fusion_lon": 0.0}, {"rental_uris": {"android": "https://dc.lft.to/lastmile_qr_scan", "ios": "https://dc.lft.to/lastmile_qr_scan"}, "lon": -77.0178615, "name": "1b3cf3fc2dae4052e7ebe9527bd39a7b", "lat": 38.920307333333334, "is_reserved": 0, "fusion_lat": 0.0, "bike_id": "1b3cf3fc2dae4052e7ebe9527bd39a7b", "type": "electric_scooter", "is_disabled": 0, "fusion_lon": 0.0}, {"rental_uris": {"android": "https://dc.lft.to/lastmile_qr_scan", "ios": "https://dc.lft.to/lastmile_qr_scan"}, "lon": -77.02722283333334, "name": "77c61a74fbf9d16e4d9b252fd60b5831", "lat": 38.925705666666666, "is_reserved": 0, "fusion_lat": 0.0, "bike_id": "77c61a74fbf9d16e4d9b252fd60b5831", "type": "electric_scooter", "is_disabled": 0, "fusion_lon": 0.0}, {"rental_uris": {"android": "https://dc.lft.to/lastmile_qr_scan", "ios": "https://dc.lft.to/lastmile_qr_scan"}, "lon": -77.03261833333333, "name": "2b1da0ffad6ca5899daca89887d9d263", "lat": 38.92783766666667, "is_reserved": 0, "fusion_lat": 0.0, "bike_id": "2b1da0ffad6ca5899daca89887d9d263", "type": "electric_bike", "is_disabled": 0, "fusion_lon": 0.0}, {"rental_uris": {"android": "https://dc.lft.to/lastmile_qr_scan", "ios": "https://dc.lft.to/lastmile_qr_scan"}, "lon": -76.99968866666667, "name": "7a38acd83f0ecd84f2af889b133ff779", "lat": 38.908492833333334, "is_reserved": 0, "fusion_lat": 0.0, "bike_id": "7a38acd83f0ecd84f2af889b133ff779", "type": "electric_scooter", "is_disabled": 0, "fusion_lon": 0.0}, {"rental_uris": {"android": "https://dc.lft.to/lastmile_qr_scan", "ios": "https://dc.lft.to/lastmile_qr_scan"}, "lon": -77.01103, "name": "a5d8970ba11fb5534bde9c9208cc5979", "lat": 38.90729483333333, "is_reserved": 0, "fusion_lat": 0.0, "bike_id": "a5d8970ba11fb5534bde9c9208cc5979", "type": "electric_scooter", "is_disabled": 0, "fusion_lon": 0.0}, {"rental_uris": {"android": "https://dc.lft.to/lastmile_qr_scan", "ios": "https://dc.lft.to/lastmile_qr_scan"}, "lon": -77.0448825, "name": "fa8dff0724afe06ffd75efc001ec8482", "lat": 38.902914833333334, "is_reserved": 0, "fusion_lat": 0.0, "bike_id": "fa8dff0724afe06ffd75efc001ec8482", "type": "electric_scooter", "is_disabled": 0, "fusion_lon": 0.0}, {"rental_uris": {"android": "https://dc.lft.to/lastmile_qr_scan", "ios": "https://dc.lft.to/lastmile_qr_scan"}, "lon": -76.9785585, "name": "31e64746599bbbe0c77d7d2b85a66a24", "lat": 38.84467033333333, "is_reserved": 0, "fusion_lat": 0.0, "bike_id": "31e64746599bbbe0c77d7d2b85a66a24", "type": "electric_bike", "is_disabled": 0, "fusion_lon": 0.0}, {"rental_uris": {"android": "https://dc.lft.to/lastmile_qr_scan", "ios": "https://dc.lft.to/lastmile_qr_scan"}, "lon": -77.03157466666667, "name": "9fc78e2d4d2b310b6998d462dd8c5fcb", "lat": 38.89535866666667, "is_reserved": 0, "fusion_lat": 0.0, "bike_id": "9fc78e2d4d2b310b6998d462dd8c5fcb", "type": "electric_scooter", "is_disabled": 0, "fusion_lon": 0.0}, {"rental_uris": {"android": "https://dc.lft.to/lastmile_qr_scan", "ios": "https://dc.lft.to/lastmile_qr_scan"}, "lon": -77.01153, "name": "f21dc1ef5fb67d66492c9c3738f9ff71", "lat": 38.92026033333333, "is_reserved": 0, "fusion_lat": 0.0, "bike_id": "f21dc1ef5fb67d66492c9c3738f9ff71", "type": "electric_scooter", "is_disabled": 0, "fusion_lon": 0.0}, {"rental_uris": {"android": "https://dc.lft.to/lastmile_qr_scan", "ios": "https://dc.lft.to/lastmile_qr_scan"}, "lon": -77.02101616666667, "name": "4eec79dbce86137bd8a977852d0c0253", "lat": 38.921116833333336, "is_reserved": 0, "fusion_lat": 0.0, "bike_id": "4eec79dbce86137bd8a977852d0c0253", "type": "electric_scooter", "is_disabled": 0, "fusion_lon": 0.0}, {"rental_uris": {"android": "https://dc.lft.to/lastmile_qr_scan", "ios": "https://dc.lft.to/lastmile_qr_scan"}, "lon": -77.034481, "name": "0a47ba65aa54906006a44dffbb35b757", "lat": 38.909474, "is_reserved": 0, "fusion_lat": 0.0, "bike_id": "0a47ba65aa54906006a44dffbb35b757", "type": "electric_scooter", "is_disabled": 0, "fusion_lon": 0.0}, {"rental_uris": {"android": "https://dc.lft.to/lastmile_qr_scan", "ios": "https://dc.lft.to/lastmile_qr_scan"}, "lon": -77.05758033333333, "name": "bb4f36046c5db9f56a8fa2ba8e3f1d12", "lat": 38.92422766666667, "is_reserved": 0, "fusion_lat": 0.0, "bike_id": "bb4f36046c5db9f56a8fa2ba8e3f1d12", "type": "electric_scooter", "is_disabled": 0, "fusion_lon": 0.0}, {"rental_uris": {"android": "https://dc.lft.to/lastmile_qr_scan", "ios": "https://dc.lft.to/lastmile_qr_scan"}, "lon": -77.02204516666667, "name": "a87d9c65b5024404882abed60b071538", "lat": 38.905784, "is_reserved": 0, "fusion_lat": 0.0, "bike_id": "a87d9c65b5024404882abed60b071538", "type": "electric_scooter", "is_disabled": 0, "fusion_lon": 0.0}, {"rental_uris": {"android": "https://dc.lft.to/lastmile_qr_scan", "ios": "https://dc.lft.to/lastmile_qr_scan"}, "lon": -77.01855833333333, "name": "c9cb56012f65bdfbd240331d684ed968", "lat": 38.97366483333333, "is_reserved": 0, "fusion_lat": 0.0, "bike_id": "c9cb56012f65bdfbd240331d684ed968", "type": "electric_scooter", "is_disabled": 0, "fusion_lon": 0.0}, {"rental_uris": {"android": "https://dc.lft.to/lastmile_qr_scan", "ios": "https://dc.lft.to/lastmile_qr_scan"}, "lon": -77.02616383333333, "name": "6b0e823ca022e29cea772f7855e0252a", "lat": 38.89639366666667, "is_reserved": 0, "fusion_lat": 0.0, "bike_id": "6b0e823ca022e29cea772f7855e0252a", "type": "electric_scooter", "is_disabled": 0, "fusion_lon": 0.0}, {"rental_uris": {"android": "https://dc.lft.to/lastmile_qr_scan", "ios": "https://dc.lft.to/lastmile_qr_scan"}, "lon": -77.02722333333334, "name": "34feb1ac3e2ad4e7b66f9b77747df305", "lat": 38.906747833333334, "is_reserved": 0, "fusion_lat": 0.0, "bike_id": "34feb1ac3e2ad4e7b66f9b77747df305", "type": "electric_scooter", "is_disabled": 0, "fusion_lon": 0.0}, {"rental_uris": {"android": "https://dc.lft.to/lastmile_qr_scan", "ios": "https://dc.lft.to/lastmile_qr_scan"}, "lon": -77.03633616666667, "name": "e45b44c84c182df07695672f57d9a74c", "lat": 38.927380666666664, "is_reserved": 0, "fusion_lat": 0.0, "bike_id": "e45b44c84c182df07695672f57d9a74c", "type": "electric_scooter", "is_disabled": 0, "fusion_lon": 0.0}, {"rental_uris": {"android": "https://dc.lft.to/lastmile_qr_scan", "ios": "https://dc.lft.to/lastmile_qr_scan"}, "lon": -77.01691066666666, "name": "c90da1ed1412db35e15520bb12b75b18", "lat": 38.901208833333335, "is_reserved": 0, "fusion_lat": 0.0, "bike_id": "c90da1ed1412db35e15520bb12b75b18", "type": "electric_scooter", "is_disabled": 0, "fusion_lon": 0.0}, {"rental_uris": {"android": "https://dc.lft.to/lastmile_qr_scan", "ios": "https://dc.lft.to/lastmile_qr_scan"}, "lon": -77.03262166666667, "name": "8561838e069390306052a35969ba2550", "lat": 38.91107933333333, "is_reserved": 0, "fusion_lat": 0.0, "bike_id": "8561838e069390306052a35969ba2550", "type": "electric_scooter", "is_disabled": 0, "fusion_lon": 0.0}, {"rental_uris": {"android": "https://dc.lft.to/lastmile_qr_scan", "ios": "https://dc.lft.to/lastmile_qr_scan"}, "lon": -76.9656075, "name": "9d0bb74a1adb6164d83e0d16d0383bfa", "lat": 38.918465, "is_reserved": 0, "fusion_lat": 0.0, "bike_id": "9d0bb74a1adb6164d83e0d16d0383bfa", "type": "electric_scooter", "is_disabled": 0, "fusion_lon": 0.0}, {"rental_uris": {"android": "https://dc.lft.to/lastmile_qr_scan", "ios": "https://dc.lft.to/lastmile_qr_scan"}, "lon": -77.02204133333333, "name": "3487ee9aef52d20977c897ace9e2559f", "lat": 38.914421833333336, "is_reserved": 0, "fusion_lat": 0.0, "bike_id": "3487ee9aef52d20977c897ace9e2559f", "type": "electric_scooter", "is_disabled": 0, "fusion_lon": 0.0}, {"rental_uris": {"android": "https://dc.lft.to/lastmile_qr_scan", "ios": "https://dc.lft.to/lastmile_qr_scan"}, "lon": -77.0600405, "name": "7396aa96d456dd7b348c3535a09f02ef", "lat": 38.93636516666667, "is_reserved": 0, "fusion_lat": 0.0, "bike_id": "7396aa96d456dd7b348c3535a09f02ef", "type": "electric_scooter", "is_disabled": 0, "fusion_lon": 0.0}, {"rental_uris": {"android": "https://dc.lft.to/lastmile_qr_scan", "ios": "https://dc.lft.to/lastmile_qr_scan"}, "lon": -76.98360216666667, "name": "60b5c006ccb8327ebff625fc29b9da3f", "lat": 38.88292583333333, "is_reserved": 0, "fusion_lat": 0.0, "bike_id": "60b5c006ccb8327ebff625fc29b9da3f", "type": "electric_scooter", "is_disabled": 0, "fusion_lon": 0.0}, {"rental_uris": {"android": "https://dc.lft.to/lastmile_qr_scan", "ios": "https://dc.lft.to/lastmile_qr_scan"}, "lon": -77.0141075, "name": "1b8f6b203642aa5e77b597926527b5e1", "lat": 38.89601833333333, "is_reserved": 0, "fusion_lat": 0.0, "bike_id": "1b8f6b203642aa5e77b597926527b5e1", "type": "electric_scooter", "is_disabled": 0, "fusion_lon": 0.0}, {"rental_uris": {"android": "https://dc.lft.to/lastmile_qr_scan", "ios": "https://dc.lft.to/lastmile_qr_scan"}, "lon": -77.013532, "name": "af03e7b1a399aac115960d9bd427496b", "lat": 38.91852183333334, "is_reserved": 0, "fusion_lat": 0.0, "bike_id": "af03e7b1a399aac115960d9bd427496b", "type": "electric_scooter", "is_disabled": 0, "fusion_lon": 0.0}, {"rental_uris": {"android": "https://dc.lft.to/lastmile_qr_scan", "ios": "https://dc.lft.to/lastmile_qr_scan"}, "lon": -77.012856, "name": "f7baf0daae5bb1a68fcd9bfe1f27c90d", "lat": 39.00381083333333, "is_reserved": 0, "fusion_lat": 0.0, "bike_id": "f7baf0daae5bb1a68fcd9bfe1f27c90d", "type": "electric_bike", "is_disabled": 0, "fusion_lon": 0.0}, {"rental_uris": {"android": "https://dc.lft.to/lastmile_qr_scan", "ios": "https://dc.lft.to/lastmile_qr_scan"}, "lon": -77.01557283333334, "name": "4b9b9faaea660c12c8232c646cdff65e", "lat": 38.9267605, "is_reserved": 0, "fusion_lat": 0.0, "bike_id": "4b9b9faaea660c12c8232c646cdff65e", "type": "electric_scooter", "is_disabled": 0, "fusion_lon": 0.0}, {"rental_uris": {"android": "https://dc.lft.to/lastmile_qr_scan", "ios": "https://dc.lft.to/lastmile_qr_scan"}, "lon": -77.027145, "name": "2074c960811dd06197c85d92dbc422ef", "lat": 38.92639166666667, "is_reserved": 0, "fusion_lat": 0.0, "bike_id": "2074c960811dd06197c85d92dbc422ef", "type": "electric_scooter", "is_disabled": 0, "fusion_lon": 0.0}, {"rental_uris": {"android": "https://dc.lft.to/lastmile_qr_scan", "ios": "https://dc.lft.to/lastmile_qr_scan"}, "lon": -77.000328, "name": "2cb7ed0e28bf03c9e27af42de0e79705", "lat": 38.874347, "is_reserved": 0, "fusion_lat": 0.0, "bike_id": "2cb7ed0e28bf03c9e27af42de0e79705", "type": "electric_scooter", "is_disabled": 0, "fusion_lon": 0.0}, {"rental_uris": {"android": "https://dc.lft.to/lastmile_qr_scan", "ios": "https://dc.lft.to/lastmile_qr_scan"}, "lon": -77.02429433333333, "name": "93b0b16f12a644b1d78c8d21d2d55372", "lat": 38.92095233333333, "is_reserved": 0, "fusion_lat": 0.0, "bike_id": "93b0b16f12a644b1d78c8d21d2d55372", "type": "electric_scooter", "is_disabled": 0, "fusion_lon": 0.0}, {"rental_uris": {"android": "https://dc.lft.to/lastmile_qr_scan", "ios": "https://dc.lft.to/lastmile_qr_scan"}, "lon": -77.043458, "name": "7c5843a4f5335629e7c4347f16f15b33", "lat": 38.90389733333333, "is_reserved": 0, "fusion_lat": 0.0, "bike_id": "7c5843a4f5335629e7c4347f16f15b33", "type": "electric_scooter", "is_disabled": 0, "fusion_lon": 0.0}, {"rental_uris": {"android": "https://dc.lft.to/lastmile_qr_scan", "ios": "https://dc.lft.to/lastmile_qr_scan"}, "lon": -77.050001, "name": "e400786e7c37c95a572a0afafd0aa5c2", "lat": 38.8923135, "is_reserved": 0, "fusion_lat": 0.0, "bike_id": "e400786e7c37c95a572a0afafd0aa5c2", "type": "electric_scooter", "is_disabled": 0, "fusion_lon": 0.0}, {"rental_uris": {"android": "https://dc.lft.to/lastmile_qr_scan", "ios": "https://dc.lft.to/lastmile_qr_scan"}, "lon": -77.00074516666666, "name": "e66a745dc17fbc2dbc3eed7009026bb1", "lat": 38.90142083333333, "is_reserved": 0, "fusion_lat": 0.0, "bike_id": "e66a745dc17fbc2dbc3eed7009026bb1", "type": "electric_scooter", "is_disabled": 0, "fusion_lon": 0.0}, {"rental_uris": {"android": "https://dc.lft.to/lastmile_qr_scan", "ios": "https://dc.lft.to/lastmile_qr_scan"}, "lon": -77.02683066666667, "name": "af70f96eb645fb3a98368667dd93b2cf", "lat": 38.897285333333336, "is_reserved": 0, "fusion_lat": 0.0, "bike_id": "af70f96eb645fb3a98368667dd93b2cf", "type": "electric_scooter", "is_disabled": 0, "fusion_lon": 0.0}, {"rental_uris": {"android": "https://dc.lft.to/lastmile_qr_scan", "ios": "https://dc.lft.to/lastmile_qr_scan"}, "lon": -77.044813, "name": "191c7d10a99b042cc51a957c99155abc", "lat": 38.895203, "is_reserved": 0, "fusion_lat": 0.0, "bike_id": "191c7d10a99b042cc51a957c99155abc", "type": "electric_scooter", "is_disabled": 0, "fusion_lon": 0.0}, {"rental_uris": {"android": "https://dc.lft.to/lastmile_qr_scan", "ios": "https://dc.lft.to/lastmile_qr_scan"}, "lon": -77.046928, "name": "97439a925227f44587d9d20d44914187", "lat": 38.89222633333333, "is_reserved": 0, "fusion_lat": 0.0, "bike_id": "97439a925227f44587d9d20d44914187", "type": "electric_scooter", "is_disabled": 0, "fusion_lon": 0.0}, {"rental_uris": {"android": "https://dc.lft.to/lastmile_qr_scan", "ios": "https://dc.lft.to/lastmile_qr_scan"}, "lon": -77.0192025, "name": "7bdd288b7f8f5edcb00d2182c61d7aab", "lat": 38.921463833333334, "is_reserved": 0, "fusion_lat": 0.0, "bike_id": "7bdd288b7f8f5edcb00d2182c61d7aab", "type": "electric_scooter", "is_disabled": 0, "fusion_lon": 0.0}, {"rental_uris": {"android": "https://dc.lft.to/lastmile_qr_scan", "ios": "https://dc.lft.to/lastmile_qr_scan"}, "lon": -77.03800366666667, "name": "6b4b3aecf0134892adf3431e9493b50d", "lat": 38.93602283333333, "is_reserved": 0, "fusion_lat": 0.0, "bike_id": "6b4b3aecf0134892adf3431e9493b50d", "type": "electric_scooter", "is_disabled": 0, "fusion_lon": 0.0}, {"rental_uris": {"android": "https://dc.lft.to/lastmile_qr_scan", "ios": "https://dc.lft.to/lastmile_qr_scan"}, "lon": -77.04303383333334, "name": "5791b8cc2678705bcc63ca225413ebd5", "lat": 38.931842, "is_reserved": 0, "fusion_lat": 0.0, "bike_id": "5791b8cc2678705bcc63ca225413ebd5", "type": "electric_scooter", "is_disabled": 0, "fusion_lon": 0.0}, {"rental_uris": {"android": "https://dc.lft.to/lastmile_qr_scan", "ios": "https://dc.lft.to/lastmile_qr_scan"}, "lon": -77.018216, "name": "baee34987d8e215e9ce460a5bfc45a78", "lat": 38.922707, "is_reserved": 0, "fusion_lat": 0.0, "bike_id": "baee34987d8e215e9ce460a5bfc45a78", "type": "electric_scooter", "is_disabled": 0, "fusion_lon": 0.0}, {"rental_uris": {"android": "https://dc.lft.to/lastmile_qr_scan", "ios": "https://dc.lft.to/lastmile_qr_scan"}, "lon": -76.9887545, "name": "ea48170d8eea2a5814ca9a060c0a1b26", "lat": 38.857711, "is_reserved": 0, "fusion_lat": 0.0, "bike_id": "ea48170d8eea2a5814ca9a060c0a1b26", "type": "electric_scooter", "is_disabled": 0, "fusion_lon": 0.0}, {"rental_uris": {"android": "https://dc.lft.to/lastmile_qr_scan", "ios": "https://dc.lft.to/lastmile_qr_scan"}, "lon": -77.036421, "name": "627262337d5f8d52185533bf8c4a34cd", "lat": 38.917326, "is_reserved": 0, "fusion_lat": 0.0, "bike_id": "627262337d5f8d52185533bf8c4a34cd", "type": "electric_scooter", "is_disabled": 0, "fusion_lon": 0.0}, {"rental_uris": {"android": "https://dc.lft.to/lastmile_qr_scan", "ios": "https://dc.lft.to/lastmile_qr_scan"}, "lon": -77.02373633333333, "name": "511c8139cd1d089842de5e02d84883ac", "lat": 38.920574333333334, "is_reserved": 0, "fusion_lat": 0.0, "bike_id": "511c8139cd1d089842de5e02d84883ac", "type": "electric_scooter", "is_disabled": 0, "fusion_lon": 0.0}, {"rental_uris": {"android": "https://dc.lft.to/lastmile_qr_scan", "ios": "https://dc.lft.to/lastmile_qr_scan"}, "lon": -77.03283483333334, "name": "2dfd0a61608d646044880a19874b7d1b", "lat": 38.9481495, "is_reserved": 0, "fusion_lat": 0.0, "bike_id": "2dfd0a61608d646044880a19874b7d1b", "type": "electric_scooter", "is_disabled": 0, "fusion_lon": 0.0}, {"rental_uris": {"android": "https://dc.lft.to/lastmile_qr_scan", "ios": "https://dc.lft.to/lastmile_qr_scan"}, "lon": -76.99810283333333, "name": "0e8ffa82b21ad3477474e70643453f9c", "lat": 38.901416833333336, "is_reserved": 0, "fusion_lat": 0.0, "bike_id": "0e8ffa82b21ad3477474e70643453f9c", "type": "electric_scooter", "is_disabled": 0, "fusion_lon": 0.0}, {"rental_uris": {"android": "https://dc.lft.to/lastmile_qr_scan", "ios": "https://dc.lft.to/lastmile_qr_scan"}, "lon": -76.955876, "name": "e3a202f6e61ae1883faa5a12e51c359a", "lat": 38.88607366666667, "is_reserved": 0, "fusion_lat": 0.0, "bike_id": "e3a202f6e61ae1883faa5a12e51c359a", "type": "electric_scooter", "is_disabled": 0, "fusion_lon": 0.0}, {"rental_uris": {"android": "https://dc.lft.to/lastmile_qr_scan", "ios": "https://dc.lft.to/lastmile_qr_scan"}, "lon": -77.001225, "name": "acee5f2889e72463f2bf710fe42670c5", "lat": 38.90566066666667, "is_reserved": 0, "fusion_lat": 0.0, "bike_id": "acee5f2889e72463f2bf710fe42670c5", "type": "electric_scooter", "is_disabled": 0, "fusion_lon": 0.0}, {"rental_uris": {"android": "https://dc.lft.to/lastmile_qr_scan", "ios": "https://dc.lft.to/lastmile_qr_scan"}, "lon": -76.95892216666667, "name": "ae07399c0e9d1a2a2b4e77fa0e58118b", "lat": 38.881934, "is_reserved": 0, "fusion_lat": 0.0, "bike_id": "ae07399c0e9d1a2a2b4e77fa0e58118b", "type": "electric_scooter", "is_disabled": 0, "fusion_lon": 0.0}, {"rental_uris": {"android": "https://dc.lft.to/lastmile_qr_scan", "ios": "https://dc.lft.to/lastmile_qr_scan"}, "lon": -77.12738583333334, "name": "e4b57f069e3386650ffe07e9a35f4fa0", "lat": 38.895672, "is_reserved": 0, "fusion_lat": 0.0, "bike_id": "e4b57f069e3386650ffe07e9a35f4fa0", "type": "electric_bike", "is_disabled": 0, "fusion_lon": 0.0}, {"rental_uris": {"android": "https://dc.lft.to/lastmile_qr_scan", "ios": "https://dc.lft.to/lastmile_qr_scan"}, "lon": -77.048505, "name": "38be047dd29ba1d7608baa31832010f0", "lat": 38.91645333333334, "is_reserved": 0, "fusion_lat": 0.0, "bike_id": "38be047dd29ba1d7608baa31832010f0", "type": "electric_scooter", "is_disabled": 0, "fusion_lon": 0.0}, {"rental_uris": {"android": "https://dc.lft.to/lastmile_qr_scan", "ios": "https://dc.lft.to/lastmile_qr_scan"}, "lon": -77.02951583333333, "name": "ca4eb8610af563368796bb68af2b7e34", "lat": 38.90499616666666, "is_reserved": 0, "fusion_lat": 0.0, "bike_id": "ca4eb8610af563368796bb68af2b7e34", "type": "electric_scooter", "is_disabled": 0, "fusion_lon": 0.0}, {"rental_uris": {"android": "https://dc.lft.to/lastmile_qr_scan", "ios": "https://dc.lft.to/lastmile_qr_scan"}, "lon": -77.011552, "name": "c487377f25c418a772b32c2062eda497", "lat": 38.900160666666665, "is_reserved": 0, "fusion_lat": 0.0, "bike_id": "c487377f25c418a772b32c2062eda497", "type": "electric_scooter", "is_disabled": 0, "fusion_lon": 0.0}, {"rental_uris": {"android": "https://dc.lft.to/lastmile_qr_scan", "ios": "https://dc.lft.to/lastmile_qr_scan"}, "lon": -77.03363766666666, "name": "ab313ff6542bc96d30a7ca5fb0a8eeb3", "lat": 38.912715166666665, "is_reserved": 0, "fusion_lat": 0.0, "bike_id": "ab313ff6542bc96d30a7ca5fb0a8eeb3", "type": "electric_scooter", "is_disabled": 0, "fusion_lon": 0.0}, {"rental_uris": {"android": "https://dc.lft.to/lastmile_qr_scan", "ios": "https://dc.lft.to/lastmile_qr_scan"}, "lon": -76.97333483333334, "name": "a7e25a619bee3f426516dbb0ce02ce47", "lat": 38.904088333333334, "is_reserved": 0, "fusion_lat": 0.0, "bike_id": "a7e25a619bee3f426516dbb0ce02ce47", "type": "electric_scooter", "is_disabled": 0, "fusion_lon": 0.0}, {"rental_uris": {"android": "https://dc.lft.to/lastmile_qr_scan", "ios": "https://dc.lft.to/lastmile_qr_scan"}, "lon": -77.06118, "name": "9ad13e426612cc56128f6dd154cfeeac", "lat": 38.904818, "is_reserved": 0, "fusion_lat": 0.0, "bike_id": "9ad13e426612cc56128f6dd154cfeeac", "type": "electric_scooter", "is_disabled": 0, "fusion_lon": 0.0}, {"rental_uris": {"android": "https://dc.lft.to/lastmile_qr_scan", "ios": "https://dc.lft.to/lastmile_qr_scan"}, "lon": -77.0591465, "name": "0f204b1384e836553e547a89aa6f159f", "lat": 38.904475166666664, "is_reserved": 0, "fusion_lat": 0.0, "bike_id": "0f204b1384e836553e547a89aa6f159f", "type": "electric_scooter", "is_disabled": 0, "fusion_lon": 0.0}, {"rental_uris": {"android": "https://dc.lft.to/lastmile_qr_scan", "ios": "https://dc.lft.to/lastmile_qr_scan"}, "lon": -77.03860933333333, "name": "75010c38ff09c4a0a28cc111d08b9d28", "lat": 38.907816833333335, "is_reserved": 0, "fusion_lat": 0.0, "bike_id": "75010c38ff09c4a0a28cc111d08b9d28", "type": "electric_scooter", "is_disabled": 0, "fusion_lon": 0.0}, {"rental_uris": {"android": "https://dc.lft.to/lastmile_qr_scan", "ios": "https://dc.lft.to/lastmile_qr_scan"}, "lon": -77.01662316666666, "name": "c7452cb16a2ab3bd4e34b2d79d4e80c4", "lat": 38.900469, "is_reserved": 0, "fusion_lat": 0.0, "bike_id": "c7452cb16a2ab3bd4e34b2d79d4e80c4", "type": "electric_scooter", "is_disabled": 0, "fusion_lon": 0.0}, {"rental_uris": {"android": "https://dc.lft.to/lastmile_qr_scan", "ios": "https://dc.lft.to/lastmile_qr_scan"}, "lon": -76.9949115, "name": "d5afae2db476f1dfcc41496cac475594", "lat": 38.901087833333335, "is_reserved": 0, "fusion_lat": 0.0, "bike_id": "d5afae2db476f1dfcc41496cac475594", "type": "electric_scooter", "is_disabled": 0, "fusion_lon": 0.0}, {"rental_uris": {"android": "https://dc.lft.to/lastmile_qr_scan", "ios": "https://dc.lft.to/lastmile_qr_scan"}, "lon": -77.0343295, "name": "109e2f4750b51e4a525bd7a651231bed", "lat": 38.93327983333333, "is_reserved": 0, "fusion_lat": 0.0, "bike_id": "109e2f4750b51e4a525bd7a651231bed", "type": "electric_scooter", "is_disabled": 0, "fusion_lon": 0.0}, {"rental_uris": {"android": "https://dc.lft.to/lastmile_qr_scan", "ios": "https://dc.lft.to/lastmile_qr_scan"}, "lon": -76.973767, "name": "1fdcba4dc2d25254152a266db12bae9d", "lat": 38.85736216666667, "is_reserved": 0, "fusion_lat": 0.0, "bike_id": "1fdcba4dc2d25254152a266db12bae9d", "type": "electric_scooter", "is_disabled": 0, "fusion_lon": 0.0}, {"rental_uris": {"android": "https://dc.lft.to/lastmile_qr_scan", "ios": "https://dc.lft.to/lastmile_qr_scan"}, "lon": -77.01764883333334, "name": "e0a0288cddee04eddd3a00200d9901ea", "lat": 38.9026845, "is_reserved": 0, "fusion_lat": 0.0, "bike_id": "e0a0288cddee04eddd3a00200d9901ea", "type": "electric_scooter", "is_disabled": 0, "fusion_lon": 0.0}, {"rental_uris": {"android": "https://dc.lft.to/lastmile_qr_scan", "ios": "https://dc.lft.to/lastmile_qr_scan"}, "lon": -77.02682533333333, "name": "c558c08b16104d6281cf20686b2d75ed", "lat": 38.89730133333333, "is_reserved": 0, "fusion_lat": 0.0, "bike_id": "c558c08b16104d6281cf20686b2d75ed", "type": "electric_scooter", "is_disabled": 0, "fusion_lon": 0.0}, {"rental_uris": {"android": "https://dc.lft.to/lastmile_qr_scan", "ios": "https://dc.lft.to/lastmile_qr_scan"}, "lon": -77.01374283333334, "name": "9fb86d22512d854cabb9e26c136d7eea", "lat": 38.88707433333333, "is_reserved": 0, "fusion_lat": 0.0, "bike_id": "9fb86d22512d854cabb9e26c136d7eea", "type": "electric_scooter", "is_disabled": 0, "fusion_lon": 0.0}, {"rental_uris": {"android": "https://dc.lft.to/lastmile_qr_scan", "ios": "https://dc.lft.to/lastmile_qr_scan"}, "lon": -77.037944, "name": "2e784ff7a2e70867145039b5a10e590f", "lat": 38.935965, "is_reserved": 0, "fusion_lat": 0.0, "bike_id": "2e784ff7a2e70867145039b5a10e590f", "type": "electric_scooter", "is_disabled": 0, "fusion_lon": 0.0}, {"rental_uris": {"android": "https://dc.lft.to/lastmile_qr_scan", "ios": "https://dc.lft.to/lastmile_qr_scan"}, "lon": -77.0175185, "name": "c23e3ef518811e897dee227f95584796", "lat": 38.902743666666666, "is_reserved": 0, "fusion_lat": 0.0, "bike_id": "c23e3ef518811e897dee227f95584796", "type": "electric_scooter", "is_disabled": 0, "fusion_lon": 0.0}, {"rental_uris": {"android": "https://dc.lft.to/lastmile_qr_scan", "ios": "https://dc.lft.to/lastmile_qr_scan"}, "lon": -77.02575783333333, "name": "ddd603589207823c9514ac8bf94ba3c4", "lat": 38.92047483333333, "is_reserved": 0, "fusion_lat": 0.0, "bike_id": "ddd603589207823c9514ac8bf94ba3c4", "type": "electric_scooter", "is_disabled": 0, "fusion_lon": 0.0}, {"rental_uris": {"android": "https://dc.lft.to/lastmile_qr_scan", "ios": "https://dc.lft.to/lastmile_qr_scan"}, "lon": -76.98725183333333, "name": "9740a0f5c1e44981c5e005448a31201b", "lat": 38.855951166666664, "is_reserved": 0, "fusion_lat": 0.0, "bike_id": "9740a0f5c1e44981c5e005448a31201b", "type": "electric_scooter", "is_disabled": 0, "fusion_lon": 0.0}, {"rental_uris": {"android": "https://dc.lft.to/lastmile_qr_scan", "ios": "https://dc.lft.to/lastmile_qr_scan"}, "lon": -77.03501316666667, "name": "45039cdc41cfe67212308f436447417f", "lat": 38.921565333333334, "is_reserved": 0, "fusion_lat": 0.0, "bike_id": "45039cdc41cfe67212308f436447417f", "type": "electric_scooter", "is_disabled": 0, "fusion_lon": 0.0}, {"rental_uris": {"android": "https://dc.lft.to/lastmile_qr_scan", "ios": "https://dc.lft.to/lastmile_qr_scan"}, "lon": -77.00611066666667, "name": "4f75789bf7e6003c890ca14a799c034e", "lat": 38.875621833333334, "is_reserved": 0, "fusion_lat": 0.0, "bike_id": "4f75789bf7e6003c890ca14a799c034e", "type": "electric_scooter", "is_disabled": 0, "fusion_lon": 0.0}, {"rental_uris": {"android": "https://dc.lft.to/lastmile_qr_scan", "ios": "https://dc.lft.to/lastmile_qr_scan"}, "lon": -77.029563, "name": "9c0542760d307eb56662b5f61ea1c5e7", "lat": 38.90868583333334, "is_reserved": 0, "fusion_lat": 0.0, "bike_id": "9c0542760d307eb56662b5f61ea1c5e7", "type": "electric_scooter", "is_disabled": 0, "fusion_lon": 0.0}, {"rental_uris": {"android": "https://dc.lft.to/lastmile_qr_scan", "ios": "https://dc.lft.to/lastmile_qr_scan"}, "lon": -77.0329365, "name": "8251729be789b7a64051d45ee4be2ddb", "lat": 38.9205835, "is_reserved": 0, "fusion_lat": 0.0, "bike_id": "8251729be789b7a64051d45ee4be2ddb", "type": "electric_scooter", "is_disabled": 0, "fusion_lon": 0.0}, {"rental_uris": {"android": "https://dc.lft.to/lastmile_qr_scan", "ios": "https://dc.lft.to/lastmile_qr_scan"}, "lon": -77.04580366666667, "name": "c38fdc53cac4bb3cc974591a6da7a3a1", "lat": 38.92144666666667, "is_reserved": 0, "fusion_lat": 0.0, "bike_id": "c38fdc53cac4bb3cc974591a6da7a3a1", "type": "electric_scooter", "is_disabled": 0, "fusion_lon": 0.0}, {"rental_uris": {"android": "https://dc.lft.to/lastmile_qr_scan", "ios": "https://dc.lft.to/lastmile_qr_scan"}, "lon": -77.02413533333333, "name": "66502393351321e3dbe2d1e48a30053d", "lat": 38.892233166666664, "is_reserved": 0, "fusion_lat": 0.0, "bike_id": "66502393351321e3dbe2d1e48a30053d", "type": "electric_scooter", "is_disabled": 0, "fusion_lon": 0.0}, {"rental_uris": {"android": "https://dc.lft.to/lastmile_qr_scan", "ios": "https://dc.lft.to/lastmile_qr_scan"}, "lon": -77.03680583333333, "name": "723d225d83fe4131d9e3776cc0b73430", "lat": 38.9392225, "is_reserved": 0, "fusion_lat": 0.0, "bike_id": "723d225d83fe4131d9e3776cc0b73430", "type": "electric_scooter", "is_disabled": 0, "fusion_lon": 0.0}, {"rental_uris": {"android": "https://dc.lft.to/lastmile_qr_scan", "ios": "https://dc.lft.to/lastmile_qr_scan"}, "lon": -77.02283083333333, "name": "4742e1dd56c985cc9f41361307ada6fb", "lat": 38.927121666666665, "is_reserved": 0, "fusion_lat": 0.0, "bike_id": "4742e1dd56c985cc9f41361307ada6fb", "type": "electric_scooter", "is_disabled": 0, "fusion_lon": 0.0}, {"rental_uris": {"android": "https://dc.lft.to/lastmile_qr_scan", "ios": "https://dc.lft.to/lastmile_qr_scan"}, "lon": -77.04407116666667, "name": "384c2ab0d405cb77205c01f23ee90f4d", "lat": 38.8976275, "is_reserved": 0, "fusion_lat": 0.0, "bike_id": "384c2ab0d405cb77205c01f23ee90f4d", "type": "electric_scooter", "is_disabled": 0, "fusion_lon": 0.0}, {"rental_uris": {"android": "https://dc.lft.to/lastmile_qr_scan", "ios": "https://dc.lft.to/lastmile_qr_scan"}, "lon": -77.04088983333334, "name": "5c28145e4a2c0993e48cb92699440695", "lat": 38.91492216666666, "is_reserved": 0, "fusion_lat": 0.0, "bike_id": "5c28145e4a2c0993e48cb92699440695", "type": "electric_scooter", "is_disabled": 0, "fusion_lon": 0.0}, {"rental_uris": {"android": "https://dc.lft.to/lastmile_qr_scan", "ios": "https://dc.lft.to/lastmile_qr_scan"}, "lon": -77.03644183333333, "name": "08d11610f528cac07295b3060cf2dee4", "lat": 38.916500166666665, "is_reserved": 0, "fusion_lat": 0.0, "bike_id": "08d11610f528cac07295b3060cf2dee4", "type": "electric_scooter", "is_disabled": 0, "fusion_lon": 0.0}, {"rental_uris": {"android": "https://dc.lft.to/lastmile_qr_scan", "ios": "https://dc.lft.to/lastmile_qr_scan"}, "lon": -77.02511983333333, "name": "0c2be37a8a43aa039109749c1f385e1d", "lat": 38.91807683333333, "is_reserved": 0, "fusion_lat": 0.0, "bike_id": "0c2be37a8a43aa039109749c1f385e1d", "type": "electric_scooter", "is_disabled": 0, "fusion_lon": 0.0}, {"rental_uris": {"android": "https://dc.lft.to/lastmile_qr_scan", "ios": "https://dc.lft.to/lastmile_qr_scan"}, "lon": -77.024106, "name": "03cd4a4fb377ec0d4ddb31fa0ead580a", "lat": 38.89676033333333, "is_reserved": 0, "fusion_lat": 0.0, "bike_id": "03cd4a4fb377ec0d4ddb31fa0ead580a", "type": "electric_bike", "is_disabled": 0, "fusion_lon": 0.0}, {"rental_uris": {"android": "https://dc.lft.to/lastmile_qr_scan", "ios": "https://dc.lft.to/lastmile_qr_scan"}, "lon": -77.016497, "name": "19c94012cd5d4b0d6fc7eb2e0dd6dfde", "lat": 38.90370566666667, "is_reserved": 0, "fusion_lat": 0.0, "bike_id": "19c94012cd5d4b0d6fc7eb2e0dd6dfde", "type": "electric_scooter", "is_disabled": 0, "fusion_lon": 0.0}, {"rental_uris": {"android": "https://dc.lft.to/lastmile_qr_scan", "ios": "https://dc.lft.to/lastmile_qr_scan"}, "lon": -77.02439016666666, "name": "e922f84826547ffc5588bbb78f696e1f", "lat": 38.92058733333333, "is_reserved": 0, "fusion_lat": 0.0, "bike_id": "e922f84826547ffc5588bbb78f696e1f", "type": "electric_scooter", "is_disabled": 0, "fusion_lon": 0.0}, {"rental_uris": {"android": "https://dc.lft.to/lastmile_qr_scan", "ios": "https://dc.lft.to/lastmile_qr_scan"}, "lon": -77.03814766666666, "name": "50e4964ccf7266752e3da5332c6d3a80", "lat": 38.903321166666665, "is_reserved": 0, "fusion_lat": 0.0, "bike_id": "50e4964ccf7266752e3da5332c6d3a80", "type": "electric_scooter", "is_disabled": 0, "fusion_lon": 0.0}, {"rental_uris": {"android": "https://dc.lft.to/lastmile_qr_scan", "ios": "https://dc.lft.to/lastmile_qr_scan"}, "lon": -77.03954483333334, "name": "0db26536435dda7fe5419e778a52ebe6", "lat": 38.89240816666667, "is_reserved": 0, "fusion_lat": 0.0, "bike_id": "0db26536435dda7fe5419e778a52ebe6", "type": "electric_scooter", "is_disabled": 0, "fusion_lon": 0.0}, {"rental_uris": {"android": "https://dc.lft.to/lastmile_qr_scan", "ios": "https://dc.lft.to/lastmile_qr_scan"}, "lon": -77.04529933333333, "name": "361cb5ecfd252111dc4f977da06de577", "lat": 38.894713333333335, "is_reserved": 0, "fusion_lat": 0.0, "bike_id": "361cb5ecfd252111dc4f977da06de577", "type": "electric_scooter", "is_disabled": 0, "fusion_lon": 0.0}, {"rental_uris": {"android": "https://dc.lft.to/lastmile_qr_scan", "ios": "https://dc.lft.to/lastmile_qr_scan"}, "lon": -76.904226, "name": "dd5a69e573286f45bac85836b1fb7fb7", "lat": 38.940517, "is_reserved": 0, "fusion_lat": 0.0, "bike_id": "dd5a69e573286f45bac85836b1fb7fb7", "type": "electric_bike", "is_disabled": 0, "fusion_lon": 0.0}, {"rental_uris": {"android": "https://dc.lft.to/lastmile_qr_scan", "ios": "https://dc.lft.to/lastmile_qr_scan"}, "lon": -77.01715183333333, "name": "11908dc202e3e6f844f8f780590b4865", "lat": 38.87936, "is_reserved": 0, "fusion_lat": 0.0, "bike_id": "11908dc202e3e6f844f8f780590b4865", "type": "electric_scooter", "is_disabled": 0, "fusion_lon": 0.0}, {"rental_uris": {"android": "https://dc.lft.to/lastmile_qr_scan", "ios": "https://dc.lft.to/lastmile_qr_scan"}, "lon": -77.0021555, "name": "eea88777597bdbaa3c6e5587cb98c0fd", "lat": 38.895194333333336, "is_reserved": 0, "fusion_lat": 0.0, "bike_id": "eea88777597bdbaa3c6e5587cb98c0fd", "type": "electric_scooter", "is_disabled": 0, "fusion_lon": 0.0}, {"rental_uris": {"android": "https://dc.lft.to/lastmile_qr_scan", "ios": "https://dc.lft.to/lastmile_qr_scan"}, "lon": -77.03266466666666, "name": "5fd9c425c30a317c1a8efbe54abecb22", "lat": 38.93983266666667, "is_reserved": 0, "fusion_lat": 0.0, "bike_id": "5fd9c425c30a317c1a8efbe54abecb22", "type": "electric_scooter", "is_disabled": 0, "fusion_lon": 0.0}, {"rental_uris": {"android": "https://dc.lft.to/lastmile_qr_scan", "ios": "https://dc.lft.to/lastmile_qr_scan"}, "lon": -77.0263095, "name": "4116e03d90ed0f831eec674c3a728a2a", "lat": 38.8877005, "is_reserved": 0, "fusion_lat": 0.0, "bike_id": "4116e03d90ed0f831eec674c3a728a2a", "type": "electric_scooter", "is_disabled": 0, "fusion_lon": 0.0}, {"rental_uris": {"android": "https://dc.lft.to/lastmile_qr_scan", "ios": "https://dc.lft.to/lastmile_qr_scan"}, "lon": -77.02501, "name": "749d48d6362e6c35155767359a98078d", "lat": 38.904165666666664, "is_reserved": 0, "fusion_lat": 0.0, "bike_id": "749d48d6362e6c35155767359a98078d", "type": "electric_scooter", "is_disabled": 0, "fusion_lon": 0.0}, {"rental_uris": {"android": "https://dc.lft.to/lastmile_qr_scan", "ios": "https://dc.lft.to/lastmile_qr_scan"}, "lon": -76.99249633333334, "name": "3598170b9c464f441d6e65b93fe9d4d4", "lat": 38.8943005, "is_reserved": 0, "fusion_lat": 0.0, "bike_id": "3598170b9c464f441d6e65b93fe9d4d4", "type": "electric_scooter", "is_disabled": 0, "fusion_lon": 0.0}, {"rental_uris": {"android": "https://dc.lft.to/lastmile_qr_scan", "ios": "https://dc.lft.to/lastmile_qr_scan"}, "lon": -77.00940416666667, "name": "87b66ab80f0815b481aedd4d3e27f6f9", "lat": 38.905700333333336, "is_reserved": 0, "fusion_lat": 0.0, "bike_id": "87b66ab80f0815b481aedd4d3e27f6f9", "type": "electric_scooter", "is_disabled": 0, "fusion_lon": 0.0}, {"rental_uris": {"android": "https://dc.lft.to/lastmile_qr_scan", "ios": "https://dc.lft.to/lastmile_qr_scan"}, "lon": -77.02378083333333, "name": "fdb1fe80d85a61905b3c219e85c4dfb7", "lat": 38.952443333333335, "is_reserved": 0, "fusion_lat": 0.0, "bike_id": "fdb1fe80d85a61905b3c219e85c4dfb7", "type": "electric_scooter", "is_disabled": 0, "fusion_lon": 0.0}, {"rental_uris": {"android": "https://dc.lft.to/lastmile_qr_scan", "ios": "https://dc.lft.to/lastmile_qr_scan"}, "lon": -77.07033633333333, "name": "7d78c7f34deda6d347763a4bda12ccaf", "lat": 38.92254483333333, "is_reserved": 0, "fusion_lat": 0.0, "bike_id": "7d78c7f34deda6d347763a4bda12ccaf", "type": "electric_scooter", "is_disabled": 0, "fusion_lon": 0.0}, {"rental_uris": {"android": "https://dc.lft.to/lastmile_qr_scan", "ios": "https://dc.lft.to/lastmile_qr_scan"}, "lon": -77.0182375, "name": "870c2fc29e7b73e164dc54612f957ff8", "lat": 38.908195666666664, "is_reserved": 0, "fusion_lat": 0.0, "bike_id": "870c2fc29e7b73e164dc54612f957ff8", "type": "electric_bike", "is_disabled": 0, "fusion_lon": 0.0}, {"rental_uris": {"android": "https://dc.lft.to/lastmile_qr_scan", "ios": "https://dc.lft.to/lastmile_qr_scan"}, "lon": -76.983234, "name": "e14e8f1b23327e99b003486b6f443099", "lat": 38.904387, "is_reserved": 0, "fusion_lat": 0.0, "bike_id": "e14e8f1b23327e99b003486b6f443099", "type": "electric_scooter", "is_disabled": 0, "fusion_lon": 0.0}, {"rental_uris": {"android": "https://dc.lft.to/lastmile_qr_scan", "ios": "https://dc.lft.to/lastmile_qr_scan"}, "lon": -77.03479916666667, "name": "343c1ef0c822085341327830c915e366", "lat": 38.917055500000004, "is_reserved": 0, "fusion_lat": 0.0, "bike_id": "343c1ef0c822085341327830c915e366", "type": "electric_scooter", "is_disabled": 0, "fusion_lon": 0.0}, {"rental_uris": {"android": "https://dc.lft.to/lastmile_qr_scan", "ios": "https://dc.lft.to/lastmile_qr_scan"}, "lon": -77.04576066666667, "name": "428ba5850db960891122634da9ac9e42", "lat": 38.90866233333333, "is_reserved": 0, "fusion_lat": 0.0, "bike_id": "428ba5850db960891122634da9ac9e42", "type": "electric_scooter", "is_disabled": 0, "fusion_lon": 0.0}, {"rental_uris": {"android": "https://dc.lft.to/lastmile_qr_scan", "ios": "https://dc.lft.to/lastmile_qr_scan"}, "lon": -77.075248, "name": "63221e01e354f69099f2dec4c316a651", "lat": 38.939616, "is_reserved": 0, "fusion_lat": 0.0, "bike_id": "63221e01e354f69099f2dec4c316a651", "type": "electric_scooter", "is_disabled": 0, "fusion_lon": 0.0}, {"rental_uris": {"android": "https://dc.lft.to/lastmile_qr_scan", "ios": "https://dc.lft.to/lastmile_qr_scan"}, "lon": -77.02404016666667, "name": "7b1325b37e864ef690823309f9ded877", "lat": 38.957324, "is_reserved": 0, "fusion_lat": 0.0, "bike_id": "7b1325b37e864ef690823309f9ded877", "type": "electric_scooter", "is_disabled": 0, "fusion_lon": 0.0}, {"rental_uris": {"android": "https://dc.lft.to/lastmile_qr_scan", "ios": "https://dc.lft.to/lastmile_qr_scan"}, "lon": -77.00348016666666, "name": "91b9b42a9c41c3094ba5db2eea1e5bd8", "lat": 38.89462133333333, "is_reserved": 0, "fusion_lat": 0.0, "bike_id": "91b9b42a9c41c3094ba5db2eea1e5bd8", "type": "electric_scooter", "is_disabled": 0, "fusion_lon": 0.0}, {"rental_uris": {"android": "https://dc.lft.to/lastmile_qr_scan", "ios": "https://dc.lft.to/lastmile_qr_scan"}, "lon": -77.01883883333333, "name": "82189b3f300ed2aadfb94885e665d409", "lat": 38.905583666666665, "is_reserved": 0, "fusion_lat": 0.0, "bike_id": "82189b3f300ed2aadfb94885e665d409", "type": "electric_scooter", "is_disabled": 0, "fusion_lon": 0.0}, {"rental_uris": {"android": "https://dc.lft.to/lastmile_qr_scan", "ios": "https://dc.lft.to/lastmile_qr_scan"}, "lon": -77.03473716666667, "name": "7296149ee0f4e0a717f1d9d8b897d073", "lat": 38.90685533333333, "is_reserved": 0, "fusion_lat": 0.0, "bike_id": "7296149ee0f4e0a717f1d9d8b897d073", "type": "electric_scooter", "is_disabled": 0, "fusion_lon": 0.0}, {"rental_uris": {"android": "https://dc.lft.to/lastmile_qr_scan", "ios": "https://dc.lft.to/lastmile_qr_scan"}, "lon": -77.05067166666667, "name": "680141b243c823623d2bf4965230f5d5", "lat": 38.90069183333333, "is_reserved": 0, "fusion_lat": 0.0, "bike_id": "680141b243c823623d2bf4965230f5d5", "type": "electric_scooter", "is_disabled": 0, "fusion_lon": 0.0}, {"rental_uris": {"android": "https://dc.lft.to/lastmile_qr_scan", "ios": "https://dc.lft.to/lastmile_qr_scan"}, "lon": -77.04487333333333, "name": "982a5538d8ace24321f68909b6e9ff6d", "lat": 38.897482833333335, "is_reserved": 0, "fusion_lat": 0.0, "bike_id": "982a5538d8ace24321f68909b6e9ff6d", "type": "electric_scooter", "is_disabled": 0, "fusion_lon": 0.0}, {"rental_uris": {"android": "https://dc.lft.to/lastmile_qr_scan", "ios": "https://dc.lft.to/lastmile_qr_scan"}, "lon": -76.9903885, "name": "211a571839396fe93ae9343559b016b0", "lat": 38.863909166666666, "is_reserved": 0, "fusion_lat": 0.0, "bike_id": "211a571839396fe93ae9343559b016b0", "type": "electric_scooter", "is_disabled": 0, "fusion_lon": 0.0}, {"rental_uris": {"android": "https://dc.lft.to/lastmile_qr_scan", "ios": "https://dc.lft.to/lastmile_qr_scan"}, "lon": -76.99238933333334, "name": "0b72852b4aeb58dabd384c33384aeea2", "lat": 38.90795033333333, "is_reserved": 0, "fusion_lat": 0.0, "bike_id": "0b72852b4aeb58dabd384c33384aeea2", "type": "electric_scooter", "is_disabled": 0, "fusion_lon": 0.0}, {"rental_uris": {"android": "https://dc.lft.to/lastmile_qr_scan", "ios": "https://dc.lft.to/lastmile_qr_scan"}, "lon": -77.03827966666667, "name": "6f0bcf7619d092536ee4592a72a33a96", "lat": 38.90281566666667, "is_reserved": 0, "fusion_lat": 0.0, "bike_id": "6f0bcf7619d092536ee4592a72a33a96", "type": "electric_scooter", "is_disabled": 0, "fusion_lon": 0.0}, {"rental_uris": {"android": "https://dc.lft.to/lastmile_qr_scan", "ios": "https://dc.lft.to/lastmile_qr_scan"}, "lon": -77.03504916666667, "name": "b8440f9682e9a5b727eadae309f4e37b", "lat": 38.92870933333333, "is_reserved": 0, "fusion_lat": 0.0, "bike_id": "b8440f9682e9a5b727eadae309f4e37b", "type": "electric_scooter", "is_disabled": 0, "fusion_lon": 0.0}, {"rental_uris": {"android": "https://dc.lft.to/lastmile_qr_scan", "ios": "https://dc.lft.to/lastmile_qr_scan"}, "lon": -77.01200316666667, "name": "6f97f03544fa25000a8effb327d772c5", "lat": 38.91566683333333, "is_reserved": 0, "fusion_lat": 0.0, "bike_id": "6f97f03544fa25000a8effb327d772c5", "type": "electric_scooter", "is_disabled": 0, "fusion_lon": 0.0}, {"rental_uris": {"android": "https://dc.lft.to/lastmile_qr_scan", "ios": "https://dc.lft.to/lastmile_qr_scan"}, "lon": -76.98375833333333, "name": "65becb2969e89ca1e66cd30f53c8cbbf", "lat": 38.86033066666667, "is_reserved": 0, "fusion_lat": 0.0, "bike_id": "65becb2969e89ca1e66cd30f53c8cbbf", "type": "electric_scooter", "is_disabled": 0, "fusion_lon": 0.0}, {"rental_uris": {"android": "https://dc.lft.to/lastmile_qr_scan", "ios": "https://dc.lft.to/lastmile_qr_scan"}, "lon": -77.029381, "name": "f40bb1d81e158e34ff0aa45868fe3f1d", "lat": 38.898161333333334, "is_reserved": 0, "fusion_lat": 0.0, "bike_id": "f40bb1d81e158e34ff0aa45868fe3f1d", "type": "electric_scooter", "is_disabled": 0, "fusion_lon": 0.0}, {"rental_uris": {"android": "https://dc.lft.to/lastmile_qr_scan", "ios": "https://dc.lft.to/lastmile_qr_scan"}, "lon": -76.947043, "name": "e626f25d8504a09123704b603a1c9445", "lat": 38.89730383333333, "is_reserved": 0, "fusion_lat": 0.0, "bike_id": "e626f25d8504a09123704b603a1c9445", "type": "electric_scooter", "is_disabled": 0, "fusion_lon": 0.0}, {"rental_uris": {"android": "https://dc.lft.to/lastmile_qr_scan", "ios": "https://dc.lft.to/lastmile_qr_scan"}, "lon": -77.03664533333334, "name": "4cda7f8d740abd153563ffcc17510436", "lat": 38.92248816666667, "is_reserved": 0, "fusion_lat": 0.0, "bike_id": "4cda7f8d740abd153563ffcc17510436", "type": "electric_scooter", "is_disabled": 0, "fusion_lon": 0.0}, {"rental_uris": {"android": "https://dc.lft.to/lastmile_qr_scan", "ios": "https://dc.lft.to/lastmile_qr_scan"}, "lon": -77.02224433333333, "name": "27b8e7fc583bd21789f0eed1066a5d20", "lat": 38.898823166666666, "is_reserved": 0, "fusion_lat": 0.0, "bike_id": "27b8e7fc583bd21789f0eed1066a5d20", "type": "electric_scooter", "is_disabled": 0, "fusion_lon": 0.0}, {"rental_uris": {"android": "https://dc.lft.to/lastmile_qr_scan", "ios": "https://dc.lft.to/lastmile_qr_scan"}, "lon": -77.04000933333333, "name": "dce8dad07c755cfc67b45acf13603c49", "lat": 38.93356883333333, "is_reserved": 0, "fusion_lat": 0.0, "bike_id": "dce8dad07c755cfc67b45acf13603c49", "type": "electric_bike", "is_disabled": 0, "fusion_lon": 0.0}, {"rental_uris": {"android": "https://dc.lft.to/lastmile_qr_scan", "ios": "https://dc.lft.to/lastmile_qr_scan"}, "lon": -77.1177155, "name": "11ec268723205390b561e6d3b6785a61", "lat": 39.051027833333336, "is_reserved": 0, "fusion_lat": 0.0, "bike_id": "11ec268723205390b561e6d3b6785a61", "type": "electric_bike", "is_disabled": 0, "fusion_lon": 0.0}, {"rental_uris": {"android": "https://dc.lft.to/lastmile_qr_scan", "ios": "https://dc.lft.to/lastmile_qr_scan"}, "lon": -77.007522, "name": "3874b6aaa0bf6d3442b650d100261ef6", "lat": 38.898264833333336, "is_reserved": 0, "fusion_lat": 0.0, "bike_id": "3874b6aaa0bf6d3442b650d100261ef6", "type": "electric_scooter", "is_disabled": 0, "fusion_lon": 0.0}, {"rental_uris": {"android": "https://dc.lft.to/lastmile_qr_scan", "ios": "https://dc.lft.to/lastmile_qr_scan"}, "lon": -76.96057816666666, "name": "1290f4bbad8cf03a6c24c3b05767325c", "lat": 38.88399883333334, "is_reserved": 0, "fusion_lat": 0.0, "bike_id": "1290f4bbad8cf03a6c24c3b05767325c", "type": "electric_bike", "is_disabled": 0, "fusion_lon": 0.0}, {"rental_uris": {"android": "https://dc.lft.to/lastmile_qr_scan", "ios": "https://dc.lft.to/lastmile_qr_scan"}, "lon": -76.99407816666667, "name": "f3353ab8a9ce51c8c31591b65bb02fcf", "lat": 38.92170016666667, "is_reserved": 0, "fusion_lat": 0.0, "bike_id": "f3353ab8a9ce51c8c31591b65bb02fcf", "type": "electric_bike", "is_disabled": 0, "fusion_lon": 0.0}, {"rental_uris": {"android": "https://dc.lft.to/lastmile_qr_scan", "ios": "https://dc.lft.to/lastmile_qr_scan"}, "lon": -76.98535683333333, "name": "65e9077a19b129a2b9a77727c1f6969b", "lat": 38.90413733333333, "is_reserved": 0, "fusion_lat": 0.0, "bike_id": "65e9077a19b129a2b9a77727c1f6969b", "type": "electric_scooter", "is_disabled": 0, "fusion_lon": 0.0}, {"rental_uris": {"android": "https://dc.lft.to/lastmile_qr_scan", "ios": "https://dc.lft.to/lastmile_qr_scan"}, "lon": -77.0220045, "name": "bbf57df5e21ce0473facf6735172ae86", "lat": 38.90161833333333, "is_reserved": 0, "fusion_lat": 0.0, "bike_id": "bbf57df5e21ce0473facf6735172ae86", "type": "electric_scooter", "is_disabled": 0, "fusion_lon": 0.0}, {"rental_uris": {"android": "https://dc.lft.to/lastmile_qr_scan", "ios": "https://dc.lft.to/lastmile_qr_scan"}, "lon": -77.0323135, "name": "131af60a7fe940f068ec56e64b1ee575", "lat": 38.93708183333333, "is_reserved": 0, "fusion_lat": 0.0, "bike_id": "131af60a7fe940f068ec56e64b1ee575", "type": "electric_scooter", "is_disabled": 0, "fusion_lon": 0.0}, {"rental_uris": {"android": "https://dc.lft.to/lastmile_qr_scan", "ios": "https://dc.lft.to/lastmile_qr_scan"}, "lon": -77.03256933333333, "name": "80c7b5c70993246b74c985ff5e79da60", "lat": 38.93213933333333, "is_reserved": 0, "fusion_lat": 0.0, "bike_id": "80c7b5c70993246b74c985ff5e79da60", "type": "electric_scooter", "is_disabled": 0, "fusion_lon": 0.0}, {"rental_uris": {"android": "https://dc.lft.to/lastmile_qr_scan", "ios": "https://dc.lft.to/lastmile_qr_scan"}, "lon": -77.04173666666667, "name": "0c0788065acedaa3c242c3ea6e149c78", "lat": 38.908426166666665, "is_reserved": 0, "fusion_lat": 0.0, "bike_id": "0c0788065acedaa3c242c3ea6e149c78", "type": "electric_scooter", "is_disabled": 0, "fusion_lon": 0.0}, {"rental_uris": {"android": "https://dc.lft.to/lastmile_qr_scan", "ios": "https://dc.lft.to/lastmile_qr_scan"}, "lon": -76.99004683333334, "name": "0b0ba41de975b628954f270ba78108ae", "lat": 38.8650715, "is_reserved": 0, "fusion_lat": 0.0, "bike_id": "0b0ba41de975b628954f270ba78108ae", "type": "electric_scooter", "is_disabled": 0, "fusion_lon": 0.0}, {"rental_uris": {"android": "https://dc.lft.to/lastmile_qr_scan", "ios": "https://dc.lft.to/lastmile_qr_scan"}, "lon": -77.03331016666667, "name": "ceff11896eb41ce13699e7bf027c8246", "lat": 38.961321, "is_reserved": 0, "fusion_lat": 0.0, "bike_id": "ceff11896eb41ce13699e7bf027c8246", "type": "electric_bike", "is_disabled": 0, "fusion_lon": 0.0}, {"rental_uris": {"android": "https://dc.lft.to/lastmile_qr_scan", "ios": "https://dc.lft.to/lastmile_qr_scan"}, "lon": -77.04219333333333, "name": "88302370b004d25fec69864e704cb86c", "lat": 38.9215125, "is_reserved": 0, "fusion_lat": 0.0, "bike_id": "88302370b004d25fec69864e704cb86c", "type": "electric_scooter", "is_disabled": 0, "fusion_lon": 0.0}, {"rental_uris": {"android": "https://dc.lft.to/lastmile_qr_scan", "ios": "https://dc.lft.to/lastmile_qr_scan"}, "lon": -77.02804133333333, "name": "487aa2ecc16740ca0e1c87a62a5b184c", "lat": 38.91756266666667, "is_reserved": 0, "fusion_lat": 0.0, "bike_id": "487aa2ecc16740ca0e1c87a62a5b184c", "type": "electric_scooter", "is_disabled": 0, "fusion_lon": 0.0}, {"rental_uris": {"android": "https://dc.lft.to/lastmile_qr_scan", "ios": "https://dc.lft.to/lastmile_qr_scan"}, "lon": -77.01948733333333, "name": "0c1f99e971a3fdc0bcf39a40ba56376e", "lat": 38.89902583333333, "is_reserved": 0, "fusion_lat": 0.0, "bike_id": "0c1f99e971a3fdc0bcf39a40ba56376e", "type": "electric_scooter", "is_disabled": 0, "fusion_lon": 0.0}, {"rental_uris": {"android": "https://dc.lft.to/lastmile_qr_scan", "ios": "https://dc.lft.to/lastmile_qr_scan"}, "lon": -77.02693466666666, "name": "ce98adb265f07fcf7415081674d00ac9", "lat": 38.9035185, "is_reserved": 0, "fusion_lat": 0.0, "bike_id": "ce98adb265f07fcf7415081674d00ac9", "type": "electric_scooter", "is_disabled": 0, "fusion_lon": 0.0}, {"rental_uris": {"android": "https://dc.lft.to/lastmile_qr_scan", "ios": "https://dc.lft.to/lastmile_qr_scan"}, "lon": -77.04505566666667, "name": "1af9674555da0b7a199669fa02c921b8", "lat": 38.91108216666667, "is_reserved": 0, "fusion_lat": 0.0, "bike_id": "1af9674555da0b7a199669fa02c921b8", "type": "electric_scooter", "is_disabled": 0, "fusion_lon": 0.0}, {"rental_uris": {"android": "https://dc.lft.to/lastmile_qr_scan", "ios": "https://dc.lft.to/lastmile_qr_scan"}, "lon": -76.97470016666666, "name": "eaa791e0b436a3d3875e9dbc519ac855", "lat": 38.863757666666665, "is_reserved": 0, "fusion_lat": 0.0, "bike_id": "eaa791e0b436a3d3875e9dbc519ac855", "type": "electric_bike", "is_disabled": 0, "fusion_lon": 0.0}, {"rental_uris": {"android": "https://dc.lft.to/lastmile_qr_scan", "ios": "https://dc.lft.to/lastmile_qr_scan"}, "lon": -76.98278533333334, "name": "ed24119a90949f5f3d0258fe483d0cb7", "lat": 38.908477, "is_reserved": 0, "fusion_lat": 0.0, "bike_id": "ed24119a90949f5f3d0258fe483d0cb7", "type": "electric_bike", "is_disabled": 0, "fusion_lon": 0.0}, {"rental_uris": {"android": "https://dc.lft.to/lastmile_qr_scan", "ios": "https://dc.lft.to/lastmile_qr_scan"}, "lon": -76.99597883333334, "name": "a52a71ac06e7c674eb6c73a71b8f1b46", "lat": 38.9284475, "is_reserved": 0, "fusion_lat": 0.0, "bike_id": "a52a71ac06e7c674eb6c73a71b8f1b46", "type": "electric_scooter", "is_disabled": 0, "fusion_lon": 0.0}, {"rental_uris": {"android": "https://dc.lft.to/lastmile_qr_scan", "ios": "https://dc.lft.to/lastmile_qr_scan"}, "lon": -76.9903855, "name": "1d3db54acf06fa7b0caa3363d7e77201", "lat": 38.8638895, "is_reserved": 0, "fusion_lat": 0.0, "bike_id": "1d3db54acf06fa7b0caa3363d7e77201", "type": "electric_scooter", "is_disabled": 0, "fusion_lon": 0.0}, {"rental_uris": {"android": "https://dc.lft.to/lastmile_qr_scan", "ios": "https://dc.lft.to/lastmile_qr_scan"}, "lon": -77.02955, "name": "e710f2d5e2965568a343a5d475c631f3", "lat": 38.92248683333333, "is_reserved": 0, "fusion_lat": 0.0, "bike_id": "e710f2d5e2965568a343a5d475c631f3", "type": "electric_scooter", "is_disabled": 0, "fusion_lon": 0.0}, {"rental_uris": {"android": "https://dc.lft.to/lastmile_qr_scan", "ios": "https://dc.lft.to/lastmile_qr_scan"}, "lon": -77.03823866666667, "name": "01dcff68027152878134415f572e9f49", "lat": 38.902831166666665, "is_reserved": 0, "fusion_lat": 0.0, "bike_id": "01dcff68027152878134415f572e9f49", "type": "electric_scooter", "is_disabled": 0, "fusion_lon": 0.0}, {"rental_uris": {"android": "https://dc.lft.to/lastmile_qr_scan", "ios": "https://dc.lft.to/lastmile_qr_scan"}, "lon": -77.04015316666667, "name": "3a2236b6587aad98fbc9dd8cf7679807", "lat": 38.8962975, "is_reserved": 0, "fusion_lat": 0.0, "bike_id": "3a2236b6587aad98fbc9dd8cf7679807", "type": "electric_scooter", "is_disabled": 0, "fusion_lon": 0.0}, {"rental_uris": {"android": "https://dc.lft.to/lastmile_qr_scan", "ios": "https://dc.lft.to/lastmile_qr_scan"}, "lon": -77.03489833333333, "name": "a9109b04c4fedb729fa57fcc5cb8bb8c", "lat": 38.9096925, "is_reserved": 0, "fusion_lat": 0.0, "bike_id": "a9109b04c4fedb729fa57fcc5cb8bb8c", "type": "electric_scooter", "is_disabled": 0, "fusion_lon": 0.0}, {"rental_uris": {"android": "https://dc.lft.to/lastmile_qr_scan", "ios": "https://dc.lft.to/lastmile_qr_scan"}, "lon": -77.00418316666666, "name": "43ae28fcb4f66b1066b89c87b5937f13", "lat": 38.8758335, "is_reserved": 0, "fusion_lat": 0.0, "bike_id": "43ae28fcb4f66b1066b89c87b5937f13", "type": "electric_scooter", "is_disabled": 0, "fusion_lon": 0.0}, {"rental_uris": {"android": "https://dc.lft.to/lastmile_qr_scan", "ios": "https://dc.lft.to/lastmile_qr_scan"}, "lon": -77.014158, "name": "a676e3fed21f57a6add23a64ed2fb297", "lat": 38.90652683333333, "is_reserved": 0, "fusion_lat": 0.0, "bike_id": "a676e3fed21f57a6add23a64ed2fb297", "type": "electric_scooter", "is_disabled": 0, "fusion_lon": 0.0}, {"rental_uris": {"android": "https://dc.lft.to/lastmile_qr_scan", "ios": "https://dc.lft.to/lastmile_qr_scan"}, "lon": -77.02749233333333, "name": "dc1d224bb6c9d03c6722d42a0cdd2f4c", "lat": 38.94392916666666, "is_reserved": 0, "fusion_lat": 0.0, "bike_id": "dc1d224bb6c9d03c6722d42a0cdd2f4c", "type": "electric_scooter", "is_disabled": 0, "fusion_lon": 0.0}, {"rental_uris": {"android": "https://dc.lft.to/lastmile_qr_scan", "ios": "https://dc.lft.to/lastmile_qr_scan"}, "lon": -76.9800465, "name": "a55297013b6be90bdb5694bdb0108234", "lat": 38.86429366666667, "is_reserved": 0, "fusion_lat": 0.0, "bike_id": "a55297013b6be90bdb5694bdb0108234", "type": "electric_scooter", "is_disabled": 0, "fusion_lon": 0.0}, {"rental_uris": {"android": "https://dc.lft.to/lastmile_qr_scan", "ios": "https://dc.lft.to/lastmile_qr_scan"}, "lon": -77.05137483333333, "name": "cfe1bae22d0fa0de029a3e512bd65476", "lat": 38.905122, "is_reserved": 0, "fusion_lat": 0.0, "bike_id": "cfe1bae22d0fa0de029a3e512bd65476", "type": "electric_scooter", "is_disabled": 0, "fusion_lon": 0.0}, {"rental_uris": {"android": "https://dc.lft.to/lastmile_qr_scan", "ios": "https://dc.lft.to/lastmile_qr_scan"}, "lon": -77.0471065, "name": "1cee23b2cb2e7d8edb3dcc1bfd02ebc7", "lat": 38.921763166666665, "is_reserved": 0, "fusion_lat": 0.0, "bike_id": "1cee23b2cb2e7d8edb3dcc1bfd02ebc7", "type": "electric_scooter", "is_disabled": 0, "fusion_lon": 0.0}, {"rental_uris": {"android": "https://dc.lft.to/lastmile_qr_scan", "ios": "https://dc.lft.to/lastmile_qr_scan"}, "lon": -77.023762, "name": "e80b4668557a5ce5e983280eb480ccef", "lat": 38.90722133333333, "is_reserved": 0, "fusion_lat": 0.0, "bike_id": "e80b4668557a5ce5e983280eb480ccef", "type": "electric_scooter", "is_disabled": 0, "fusion_lon": 0.0}, {"rental_uris": {"android": "https://dc.lft.to/lastmile_qr_scan", "ios": "https://dc.lft.to/lastmile_qr_scan"}, "lon": -77.02725966666667, "name": "d94fd5f5185249bed42499532a18ea52", "lat": 38.911030833333335, "is_reserved": 0, "fusion_lat": 0.0, "bike_id": "d94fd5f5185249bed42499532a18ea52", "type": "electric_scooter", "is_disabled": 0, "fusion_lon": 0.0}, {"rental_uris": {"android": "https://dc.lft.to/lastmile_qr_scan", "ios": "https://dc.lft.to/lastmile_qr_scan"}, "lon": -76.99998833333333, "name": "ee68f604719e7224aac1d4979c2122c2", "lat": 38.874829166666665, "is_reserved": 0, "fusion_lat": 0.0, "bike_id": "ee68f604719e7224aac1d4979c2122c2", "type": "electric_scooter", "is_disabled": 0, "fusion_lon": 0.0}, {"rental_uris": {"android": "https://dc.lft.to/lastmile_qr_scan", "ios": "https://dc.lft.to/lastmile_qr_scan"}, "lon": -77.04487166666667, "name": "3431ecaa409f22e4bcab0b066bd722d3", "lat": 38.91276083333333, "is_reserved": 0, "fusion_lat": 0.0, "bike_id": "3431ecaa409f22e4bcab0b066bd722d3", "type": "electric_scooter", "is_disabled": 0, "fusion_lon": 0.0}, {"rental_uris": {"android": "https://dc.lft.to/lastmile_qr_scan", "ios": "https://dc.lft.to/lastmile_qr_scan"}, "lon": -77.00714516666666, "name": "ecb7804d9928aa3c0f61c16465a3dd70", "lat": 38.88486916666667, "is_reserved": 0, "fusion_lat": 0.0, "bike_id": "ecb7804d9928aa3c0f61c16465a3dd70", "type": "electric_scooter", "is_disabled": 0, "fusion_lon": 0.0}, {"rental_uris": {"android": "https://dc.lft.to/lastmile_qr_scan", "ios": "https://dc.lft.to/lastmile_qr_scan"}, "lon": -77.04276766666666, "name": "d062c9f7d0cbfa9a693cc04a5f57b2c7", "lat": 38.90746983333333, "is_reserved": 0, "fusion_lat": 0.0, "bike_id": "d062c9f7d0cbfa9a693cc04a5f57b2c7", "type": "electric_scooter", "is_disabled": 0, "fusion_lon": 0.0}, {"rental_uris": {"android": "https://dc.lft.to/lastmile_qr_scan", "ios": "https://dc.lft.to/lastmile_qr_scan"}, "lon": -76.98277066666667, "name": "9663d2ae7c13706bfddcb4a15d217aa2", "lat": 38.867607166666666, "is_reserved": 0, "fusion_lat": 0.0, "bike_id": "9663d2ae7c13706bfddcb4a15d217aa2", "type": "electric_scooter", "is_disabled": 0, "fusion_lon": 0.0}, {"rental_uris": {"android": "https://dc.lft.to/lastmile_qr_scan", "ios": "https://dc.lft.to/lastmile_qr_scan"}, "lon": -77.01223516666667, "name": "1ac5d34ba7fc586998d7a4854645c35f", "lat": 38.92599633333333, "is_reserved": 0, "fusion_lat": 0.0, "bike_id": "1ac5d34ba7fc586998d7a4854645c35f", "type": "electric_scooter", "is_disabled": 0, "fusion_lon": 0.0}, {"rental_uris": {"android": "https://dc.lft.to/lastmile_qr_scan", "ios": "https://dc.lft.to/lastmile_qr_scan"}, "lon": -77.0383675, "name": "06a14d5bb08ade741ab23a966cb9a8ff", "lat": 38.9085865, "is_reserved": 0, "fusion_lat": 0.0, "bike_id": "06a14d5bb08ade741ab23a966cb9a8ff", "type": "electric_scooter", "is_disabled": 0, "fusion_lon": 0.0}, {"rental_uris": {"android": "https://dc.lft.to/lastmile_qr_scan", "ios": "https://dc.lft.to/lastmile_qr_scan"}, "lon": -77.04584483333333, "name": "8afeff1f0bbe8806657766c9b8095ad0", "lat": 38.91611566666667, "is_reserved": 0, "fusion_lat": 0.0, "bike_id": "8afeff1f0bbe8806657766c9b8095ad0", "type": "electric_scooter", "is_disabled": 0, "fusion_lon": 0.0}, {"rental_uris": {"android": "https://dc.lft.to/lastmile_qr_scan", "ios": "https://dc.lft.to/lastmile_qr_scan"}, "lon": -77.02412183333334, "name": "baf0606b44550330cffe4ce04c09dfea", "lat": 38.911756833333335, "is_reserved": 0, "fusion_lat": 0.0, "bike_id": "baf0606b44550330cffe4ce04c09dfea", "type": "electric_scooter", "is_disabled": 0, "fusion_lon": 0.0}, {"rental_uris": {"android": "https://dc.lft.to/lastmile_qr_scan", "ios": "https://dc.lft.to/lastmile_qr_scan"}, "lon": -77.01381416666666, "name": "b9aa7990c78109c573cb7d584c189de0", "lat": 38.95232583333333, "is_reserved": 0, "fusion_lat": 0.0, "bike_id": "b9aa7990c78109c573cb7d584c189de0", "type": "electric_scooter", "is_disabled": 0, "fusion_lon": 0.0}, {"rental_uris": {"android": "https://dc.lft.to/lastmile_qr_scan", "ios": "https://dc.lft.to/lastmile_qr_scan"}, "lon": -77.00254966666667, "name": "076a0de04b99d284b37ec4b8cd87901b", "lat": 38.911907, "is_reserved": 0, "fusion_lat": 0.0, "bike_id": "076a0de04b99d284b37ec4b8cd87901b", "type": "electric_scooter", "is_disabled": 0, "fusion_lon": 0.0}, {"rental_uris": {"android": "https://dc.lft.to/lastmile_qr_scan", "ios": "https://dc.lft.to/lastmile_qr_scan"}, "lon": -77.0414695, "name": "3ed9706a7e186ee4e90f8aa00082f4f9", "lat": 38.92249233333333, "is_reserved": 0, "fusion_lat": 0.0, "bike_id": "3ed9706a7e186ee4e90f8aa00082f4f9", "type": "electric_scooter", "is_disabled": 0, "fusion_lon": 0.0}, {"rental_uris": {"android": "https://dc.lft.to/lastmile_qr_scan", "ios": "https://dc.lft.to/lastmile_qr_scan"}, "lon": -77.0071385, "name": "100d019ee3ef12bc4b20d8755054a9be", "lat": 38.8848665, "is_reserved": 0, "fusion_lat": 0.0, "bike_id": "100d019ee3ef12bc4b20d8755054a9be", "type": "electric_scooter", "is_disabled": 0, "fusion_lon": 0.0}, {"rental_uris": {"android": "https://dc.lft.to/lastmile_qr_scan", "ios": "https://dc.lft.to/lastmile_qr_scan"}, "lon": -77.04710016666667, "name": "35c4120279b0146c3ca0b7409954e97c", "lat": 38.912697, "is_reserved": 0, "fusion_lat": 0.0, "bike_id": "35c4120279b0146c3ca0b7409954e97c", "type": "electric_scooter", "is_disabled": 0, "fusion_lon": 0.0}, {"rental_uris": {"android": "https://dc.lft.to/lastmile_qr_scan", "ios": "https://dc.lft.to/lastmile_qr_scan"}, "lon": -76.98697866666667, "name": "79cfb2fc5f3df508ec533c1efb39cdbe", "lat": 38.86722866666667, "is_reserved": 0, "fusion_lat": 0.0, "bike_id": "79cfb2fc5f3df508ec533c1efb39cdbe", "type": "electric_scooter", "is_disabled": 0, "fusion_lon": 0.0}, {"rental_uris": {"android": "https://dc.lft.to/lastmile_qr_scan", "ios": "https://dc.lft.to/lastmile_qr_scan"}, "lon": -77.02484533333333, "name": "2c28c846a6378e98f40b06db740e1b53", "lat": 38.93891983333333, "is_reserved": 0, "fusion_lat": 0.0, "bike_id": "2c28c846a6378e98f40b06db740e1b53", "type": "electric_scooter", "is_disabled": 0, "fusion_lon": 0.0}, {"rental_uris": {"android": "https://dc.lft.to/lastmile_qr_scan", "ios": "https://dc.lft.to/lastmile_qr_scan"}, "lon": -77.033523, "name": "fdc8403882abfed0b9a358ddce8162d6", "lat": 38.922356, "is_reserved": 0, "fusion_lat": 0.0, "bike_id": "fdc8403882abfed0b9a358ddce8162d6", "type": "electric_scooter", "is_disabled": 0, "fusion_lon": 0.0}, {"rental_uris": {"android": "https://dc.lft.to/lastmile_qr_scan", "ios": "https://dc.lft.to/lastmile_qr_scan"}, "lon": -77.02440633333333, "name": "8b01f3be72ce6b9edb08605063d94476", "lat": 38.937862833333334, "is_reserved": 0, "fusion_lat": 0.0, "bike_id": "8b01f3be72ce6b9edb08605063d94476", "type": "electric_scooter", "is_disabled": 0, "fusion_lon": 0.0}, {"rental_uris": {"android": "https://dc.lft.to/lastmile_qr_scan", "ios": "https://dc.lft.to/lastmile_qr_scan"}, "lon": -77.016152, "name": "c6ce8c7fa69f2b4b7250ae795a489dfa", "lat": 38.90124566666667, "is_reserved": 0, "fusion_lat": 0.0, "bike_id": "c6ce8c7fa69f2b4b7250ae795a489dfa", "type": "electric_scooter", "is_disabled": 0, "fusion_lon": 0.0}, {"rental_uris": {"android": "https://dc.lft.to/lastmile_qr_scan", "ios": "https://dc.lft.to/lastmile_qr_scan"}, "lon": -77.05339533333333, "name": "08b459abd7e90753ee1171e6ef4b3d37", "lat": 38.90313833333333, "is_reserved": 0, "fusion_lat": 0.0, "bike_id": "08b459abd7e90753ee1171e6ef4b3d37", "type": "electric_scooter", "is_disabled": 0, "fusion_lon": 0.0}, {"rental_uris": {"android": "https://dc.lft.to/lastmile_qr_scan", "ios": "https://dc.lft.to/lastmile_qr_scan"}, "lon": -77.03345233333333, "name": "b83112e6050d4befbdbda6b71e796889", "lat": 38.917077666666664, "is_reserved": 0, "fusion_lat": 0.0, "bike_id": "b83112e6050d4befbdbda6b71e796889", "type": "electric_scooter", "is_disabled": 0, "fusion_lon": 0.0}, {"rental_uris": {"android": "https://dc.lft.to/lastmile_qr_scan", "ios": "https://dc.lft.to/lastmile_qr_scan"}, "lon": -77.02219666666667, "name": "f84905d69505b07073d63e8b1ae7eb32", "lat": 38.926163, "is_reserved": 0, "fusion_lat": 0.0, "bike_id": "f84905d69505b07073d63e8b1ae7eb32", "type": "electric_scooter", "is_disabled": 0, "fusion_lon": 0.0}, {"rental_uris": {"android": "https://dc.lft.to/lastmile_qr_scan", "ios": "https://dc.lft.to/lastmile_qr_scan"}, "lon": -77.03337983333333, "name": "1bdf4f6ea2086c47b704a6e36dd677e9", "lat": 38.9140785, "is_reserved": 0, "fusion_lat": 0.0, "bike_id": "1bdf4f6ea2086c47b704a6e36dd677e9", "type": "electric_scooter", "is_disabled": 0, "fusion_lon": 0.0}, {"rental_uris": {"android": "https://dc.lft.to/lastmile_qr_scan", "ios": "https://dc.lft.to/lastmile_qr_scan"}, "lon": -77.01543316666667, "name": "219c38d7a0051fbb5ae3753f74c1f8da", "lat": 38.89162983333333, "is_reserved": 0, "fusion_lat": 0.0, "bike_id": "219c38d7a0051fbb5ae3753f74c1f8da", "type": "electric_scooter", "is_disabled": 0, "fusion_lon": 0.0}, {"rental_uris": {"android": "https://dc.lft.to/lastmile_qr_scan", "ios": "https://dc.lft.to/lastmile_qr_scan"}, "lon": -77.038674, "name": "a7d86edbef57f78ad789d89be7973d5b", "lat": 38.91551316666666, "is_reserved": 0, "fusion_lat": 0.0, "bike_id": "a7d86edbef57f78ad789d89be7973d5b", "type": "electric_scooter", "is_disabled": 0, "fusion_lon": 0.0}, {"rental_uris": {"android": "https://dc.lft.to/lastmile_qr_scan", "ios": "https://dc.lft.to/lastmile_qr_scan"}, "lon": -77.0012115, "name": "09e8ed146a46052e11f7a8ead3ad7e2c", "lat": 38.877917, "is_reserved": 0, "fusion_lat": 0.0, "bike_id": "09e8ed146a46052e11f7a8ead3ad7e2c", "type": "electric_scooter", "is_disabled": 0, "fusion_lon": 0.0}, {"rental_uris": {"android": "https://dc.lft.to/lastmile_qr_scan", "ios": "https://dc.lft.to/lastmile_qr_scan"}, "lon": -77.01095766666667, "name": "4bb2a5fa28f51a8227bc296db2e6d4f5", "lat": 38.89564283333333, "is_reserved": 0, "fusion_lat": 0.0, "bike_id": "4bb2a5fa28f51a8227bc296db2e6d4f5", "type": "electric_scooter", "is_disabled": 0, "fusion_lon": 0.0}, {"rental_uris": {"android": "https://dc.lft.to/lastmile_qr_scan", "ios": "https://dc.lft.to/lastmile_qr_scan"}, "lon": -77.057901, "name": "6c59e5217e61cd3749bef39970378f3a", "lat": 38.9009775, "is_reserved": 0, "fusion_lat": 0.0, "bike_id": "6c59e5217e61cd3749bef39970378f3a", "type": "electric_scooter", "is_disabled": 0, "fusion_lon": 0.0}, {"rental_uris": {"android": "https://dc.lft.to/lastmile_qr_scan", "ios": "https://dc.lft.to/lastmile_qr_scan"}, "lon": -77.0006405, "name": "a3f881455b1ee44460dee01edf98ff81", "lat": 38.92548883333333, "is_reserved": 0, "fusion_lat": 0.0, "bike_id": "a3f881455b1ee44460dee01edf98ff81", "type": "electric_scooter", "is_disabled": 0, "fusion_lon": 0.0}, {"rental_uris": {"android": "https://dc.lft.to/lastmile_qr_scan", "ios": "https://dc.lft.to/lastmile_qr_scan"}, "lon": -76.9994575, "name": "beee78024e48d4c69e6d024235f1b1f7", "lat": 38.842911666666666, "is_reserved": 0, "fusion_lat": 0.0, "bike_id": "beee78024e48d4c69e6d024235f1b1f7", "type": "electric_scooter", "is_disabled": 0, "fusion_lon": 0.0}, {"rental_uris": {"android": "https://dc.lft.to/lastmile_qr_scan", "ios": "https://dc.lft.to/lastmile_qr_scan"}, "lon": -77.049004, "name": "0fcd07a65d5862409d5cfb51f17b347e", "lat": 38.89689583333333, "is_reserved": 0, "fusion_lat": 0.0, "bike_id": "0fcd07a65d5862409d5cfb51f17b347e", "type": "electric_scooter", "is_disabled": 0, "fusion_lon": 0.0}, {"rental_uris": {"android": "https://dc.lft.to/lastmile_qr_scan", "ios": "https://dc.lft.to/lastmile_qr_scan"}, "lon": -77.04473983333334, "name": "dad0cf2d06a93982f586561ab8aece7b", "lat": 38.918825, "is_reserved": 0, "fusion_lat": 0.0, "bike_id": "dad0cf2d06a93982f586561ab8aece7b", "type": "electric_scooter", "is_disabled": 0, "fusion_lon": 0.0}, {"rental_uris": {"android": "https://dc.lft.to/lastmile_qr_scan", "ios": "https://dc.lft.to/lastmile_qr_scan"}, "lon": -77.00210266666667, "name": "7fab6f3b6c6a676e7eb06a54f6282720", "lat": 38.90029116666667, "is_reserved": 0, "fusion_lat": 0.0, "bike_id": "7fab6f3b6c6a676e7eb06a54f6282720", "type": "electric_scooter", "is_disabled": 0, "fusion_lon": 0.0}, {"rental_uris": {"android": "https://dc.lft.to/lastmile_qr_scan", "ios": "https://dc.lft.to/lastmile_qr_scan"}, "lon": -77.01206833333333, "name": "b08d8a3f9963578a3e7382a98c7c932e", "lat": 38.9191635, "is_reserved": 0, "fusion_lat": 0.0, "bike_id": "b08d8a3f9963578a3e7382a98c7c932e", "type": "electric_scooter", "is_disabled": 0, "fusion_lon": 0.0}, {"rental_uris": {"android": "https://dc.lft.to/lastmile_qr_scan", "ios": "https://dc.lft.to/lastmile_qr_scan"}, "lon": -77.068863, "name": "f8d8d7df228673de71b1e1d519117a56", "lat": 38.905009, "is_reserved": 0, "fusion_lat": 0.0, "bike_id": "f8d8d7df228673de71b1e1d519117a56", "type": "electric_scooter", "is_disabled": 0, "fusion_lon": 0.0}, {"rental_uris": {"android": "https://dc.lft.to/lastmile_qr_scan", "ios": "https://dc.lft.to/lastmile_qr_scan"}, "lon": -77.02459983333334, "name": "a6cf74d6f4eb13b458f6735320927f41", "lat": 38.9370745, "is_reserved": 0, "fusion_lat": 0.0, "bike_id": "a6cf74d6f4eb13b458f6735320927f41", "type": "electric_scooter", "is_disabled": 0, "fusion_lon": 0.0}, {"rental_uris": {"android": "https://dc.lft.to/lastmile_qr_scan", "ios": "https://dc.lft.to/lastmile_qr_scan"}, "lon": -77.04248766666667, "name": "640c4d8aebd11a5ba8ebbc84fa2e4f94", "lat": 38.90865766666667, "is_reserved": 0, "fusion_lat": 0.0, "bike_id": "640c4d8aebd11a5ba8ebbc84fa2e4f94", "type": "electric_scooter", "is_disabled": 0, "fusion_lon": 0.0}, {"rental_uris": {"android": "https://dc.lft.to/lastmile_qr_scan", "ios": "https://dc.lft.to/lastmile_qr_scan"}, "lon": -77.03713866666666, "name": "1e72e8f079823affe75171d11688a03e", "lat": 38.92637033333333, "is_reserved": 0, "fusion_lat": 0.0, "bike_id": "1e72e8f079823affe75171d11688a03e", "type": "electric_scooter", "is_disabled": 0, "fusion_lon": 0.0}, {"rental_uris": {"android": "https://dc.lft.to/lastmile_qr_scan", "ios": "https://dc.lft.to/lastmile_qr_scan"}, "lon": -77.05536783333334, "name": "c3f0d8c3a2aff8d98bdb10b554e3c9d5", "lat": 38.9296175, "is_reserved": 0, "fusion_lat": 0.0, "bike_id": "c3f0d8c3a2aff8d98bdb10b554e3c9d5", "type": "electric_scooter", "is_disabled": 0, "fusion_lon": 0.0}, {"rental_uris": {"android": "https://dc.lft.to/lastmile_qr_scan", "ios": "https://dc.lft.to/lastmile_qr_scan"}, "lon": -77.033225, "name": "004bdb5ed6334fc9d39c8127950d432c", "lat": 38.91319033333333, "is_reserved": 0, "fusion_lat": 0.0, "bike_id": "004bdb5ed6334fc9d39c8127950d432c", "type": "electric_scooter", "is_disabled": 0, "fusion_lon": 0.0}, {"rental_uris": {"android": "https://dc.lft.to/lastmile_qr_scan", "ios": "https://dc.lft.to/lastmile_qr_scan"}, "lon": -77.02950316666667, "name": "9ec12a1501a1eb9909917e37738b99f4", "lat": 38.922527333333335, "is_reserved": 0, "fusion_lat": 0.0, "bike_id": "9ec12a1501a1eb9909917e37738b99f4", "type": "electric_scooter", "is_disabled": 0, "fusion_lon": 0.0}, {"rental_uris": {"android": "https://dc.lft.to/lastmile_qr_scan", "ios": "https://dc.lft.to/lastmile_qr_scan"}, "lon": -77.02809666666667, "name": "e2628e9c3ab60d6f2f0b2184a9709065", "lat": 38.917794, "is_reserved": 0, "fusion_lat": 0.0, "bike_id": "e2628e9c3ab60d6f2f0b2184a9709065", "type": "electric_scooter", "is_disabled": 0, "fusion_lon": 0.0}, {"rental_uris": {"android": "https://dc.lft.to/lastmile_qr_scan", "ios": "https://dc.lft.to/lastmile_qr_scan"}, "lon": -77.18745966666667, "name": "0ee3d28d891a4cfdab5c495f27e3d1f3", "lat": 38.89351033333333, "is_reserved": 0, "fusion_lat": 0.0, "bike_id": "0ee3d28d891a4cfdab5c495f27e3d1f3", "type": "electric_bike", "is_disabled": 0, "fusion_lon": 0.0}, {"rental_uris": {"android": "https://dc.lft.to/lastmile_qr_scan", "ios": "https://dc.lft.to/lastmile_qr_scan"}, "lon": -77.02412, "name": "477192bb01f9459c025e8af1ef4e2c5e", "lat": 38.89673366666667, "is_reserved": 0, "fusion_lat": 0.0, "bike_id": "477192bb01f9459c025e8af1ef4e2c5e", "type": "electric_scooter", "is_disabled": 0, "fusion_lon": 0.0}, {"rental_uris": {"android": "https://dc.lft.to/lastmile_qr_scan", "ios": "https://dc.lft.to/lastmile_qr_scan"}, "lon": -77.036129, "name": "40cd515c665581d1ca264cab7d4810ae", "lat": 38.93154716666667, "is_reserved": 0, "fusion_lat": 0.0, "bike_id": "40cd515c665581d1ca264cab7d4810ae", "type": "electric_scooter", "is_disabled": 0, "fusion_lon": 0.0}, {"rental_uris": {"android": "https://dc.lft.to/lastmile_qr_scan", "ios": "https://dc.lft.to/lastmile_qr_scan"}, "lon": -77.03411583333333, "name": "b845797441affe8631bfa0d805dbd84f", "lat": 38.928801666666665, "is_reserved": 0, "fusion_lat": 0.0, "bike_id": "b845797441affe8631bfa0d805dbd84f", "type": "electric_scooter", "is_disabled": 0, "fusion_lon": 0.0}, {"rental_uris": {"android": "https://dc.lft.to/lastmile_qr_scan", "ios": "https://dc.lft.to/lastmile_qr_scan"}, "lon": -77.0183595, "name": "0cb0e3ac27cc206547f52061bb16d958", "lat": 38.9095145, "is_reserved": 0, "fusion_lat": 0.0, "bike_id": "0cb0e3ac27cc206547f52061bb16d958", "type": "electric_bike", "is_disabled": 0, "fusion_lon": 0.0}, {"rental_uris": {"android": "https://dc.lft.to/lastmile_qr_scan", "ios": "https://dc.lft.to/lastmile_qr_scan"}, "lon": -77.03223783333334, "name": "26a4f9d0860610d52d3e4104aecfe215", "lat": 38.89633333333333, "is_reserved": 0, "fusion_lat": 0.0, "bike_id": "26a4f9d0860610d52d3e4104aecfe215", "type": "electric_scooter", "is_disabled": 0, "fusion_lon": 0.0}, {"rental_uris": {"android": "https://dc.lft.to/lastmile_qr_scan", "ios": "https://dc.lft.to/lastmile_qr_scan"}, "lon": -76.952855, "name": "69adfbd55667c9f69bf245e80efd4d50", "lat": 38.862378166666666, "is_reserved": 0, "fusion_lat": 0.0, "bike_id": "69adfbd55667c9f69bf245e80efd4d50", "type": "electric_bike", "is_disabled": 0, "fusion_lon": 0.0}, {"rental_uris": {"android": "https://dc.lft.to/lastmile_qr_scan", "ios": "https://dc.lft.to/lastmile_qr_scan"}, "lon": -77.01442483333334, "name": "3be0cb7b65847ec887e2876ca1070779", "lat": 38.90957266666667, "is_reserved": 0, "fusion_lat": 0.0, "bike_id": "3be0cb7b65847ec887e2876ca1070779", "type": "electric_scooter", "is_disabled": 0, "fusion_lon": 0.0}, {"rental_uris": {"android": "https://dc.lft.to/lastmile_qr_scan", "ios": "https://dc.lft.to/lastmile_qr_scan"}, "lon": -77.00545066666666, "name": "4e19e398926e693ab92a50a919da1e0c", "lat": 38.927891, "is_reserved": 0, "fusion_lat": 0.0, "bike_id": "4e19e398926e693ab92a50a919da1e0c", "type": "electric_scooter", "is_disabled": 0, "fusion_lon": 0.0}, {"rental_uris": {"android": "https://dc.lft.to/lastmile_qr_scan", "ios": "https://dc.lft.to/lastmile_qr_scan"}, "lon": -77.0019455, "name": "3bbab7c0d75a311b712ca241b18b7b90", "lat": 38.914734833333334, "is_reserved": 0, "fusion_lat": 0.0, "bike_id": "3bbab7c0d75a311b712ca241b18b7b90", "type": "electric_scooter", "is_disabled": 0, "fusion_lon": 0.0}, {"rental_uris": {"android": "https://dc.lft.to/lastmile_qr_scan", "ios": "https://dc.lft.to/lastmile_qr_scan"}, "lon": -77.04893466666667, "name": "7493ed8a784b4459457726be651e1c6e", "lat": 38.9083935, "is_reserved": 0, "fusion_lat": 0.0, "bike_id": "7493ed8a784b4459457726be651e1c6e", "type": "electric_scooter", "is_disabled": 0, "fusion_lon": 0.0}, {"rental_uris": {"android": "https://dc.lft.to/lastmile_qr_scan", "ios": "https://dc.lft.to/lastmile_qr_scan"}, "lon": -77.02120783333334, "name": "8ad1d83781d5a65b1eb42ed1e5e81b82", "lat": 38.931076833333336, "is_reserved": 0, "fusion_lat": 0.0, "bike_id": "8ad1d83781d5a65b1eb42ed1e5e81b82", "type": "electric_scooter", "is_disabled": 0, "fusion_lon": 0.0}, {"rental_uris": {"android": "https://dc.lft.to/lastmile_qr_scan", "ios": "https://dc.lft.to/lastmile_qr_scan"}, "lon": -77.00297216666667, "name": "254880f282c63c86a026b2935f38624a", "lat": 38.833741333333336, "is_reserved": 0, "fusion_lat": 0.0, "bike_id": "254880f282c63c86a026b2935f38624a", "type": "electric_bike", "is_disabled": 0, "fusion_lon": 0.0}, {"rental_uris": {"android": "https://dc.lft.to/lastmile_qr_scan", "ios": "https://dc.lft.to/lastmile_qr_scan"}, "lon": -77.0093435, "name": "5c32c6e8e65ba6f6d5abe1bc1ee34783", "lat": 38.876053166666665, "is_reserved": 0, "fusion_lat": 0.0, "bike_id": "5c32c6e8e65ba6f6d5abe1bc1ee34783", "type": "electric_scooter", "is_disabled": 0, "fusion_lon": 0.0}, {"rental_uris": {"android": "https://dc.lft.to/lastmile_qr_scan", "ios": "https://dc.lft.to/lastmile_qr_scan"}, "lon": -77.00746166666667, "name": "d4c28f1421d8c1b33cd86539936f5080", "lat": 38.8982265, "is_reserved": 0, "fusion_lat": 0.0, "bike_id": "d4c28f1421d8c1b33cd86539936f5080", "type": "electric_scooter", "is_disabled": 0, "fusion_lon": 0.0}, {"rental_uris": {"android": "https://dc.lft.to/lastmile_qr_scan", "ios": "https://dc.lft.to/lastmile_qr_scan"}, "lon": -76.99010216666667, "name": "f3741851142e53a98a69301916c78859", "lat": 38.86514433333333, "is_reserved": 0, "fusion_lat": 0.0, "bike_id": "f3741851142e53a98a69301916c78859", "type": "electric_scooter", "is_disabled": 0, "fusion_lon": 0.0}, {"rental_uris": {"android": "https://dc.lft.to/lastmile_qr_scan", "ios": "https://dc.lft.to/lastmile_qr_scan"}, "lon": -77.03478733333333, "name": "99a97f2698d6f075d85a5f04c42bc0f0", "lat": 38.926419333333335, "is_reserved": 0, "fusion_lat": 0.0, "bike_id": "99a97f2698d6f075d85a5f04c42bc0f0", "type": "electric_scooter", "is_disabled": 0, "fusion_lon": 0.0}, {"rental_uris": {"android": "https://dc.lft.to/lastmile_qr_scan", "ios": "https://dc.lft.to/lastmile_qr_scan"}, "lon": -76.99581883333333, "name": "108fc11767953bcb24104c1c98c63760", "lat": 38.851790666666666, "is_reserved": 0, "fusion_lat": 0.0, "bike_id": "108fc11767953bcb24104c1c98c63760", "type": "electric_scooter", "is_disabled": 0, "fusion_lon": 0.0}, {"rental_uris": {"android": "https://dc.lft.to/lastmile_qr_scan", "ios": "https://dc.lft.to/lastmile_qr_scan"}, "lon": -77.01770566666667, "name": "3c2943082b8a0af4dcdc2781dcdeb9d5", "lat": 38.87903383333333, "is_reserved": 0, "fusion_lat": 0.0, "bike_id": "3c2943082b8a0af4dcdc2781dcdeb9d5", "type": "electric_scooter", "is_disabled": 0, "fusion_lon": 0.0}, {"rental_uris": {"android": "https://dc.lft.to/lastmile_qr_scan", "ios": "https://dc.lft.to/lastmile_qr_scan"}, "lon": -77.03615816666667, "name": "9b3483c2f96a56593d818e60c12134e1", "lat": 38.931541333333335, "is_reserved": 0, "fusion_lat": 0.0, "bike_id": "9b3483c2f96a56593d818e60c12134e1", "type": "electric_scooter", "is_disabled": 0, "fusion_lon": 0.0}, {"rental_uris": {"android": "https://dc.lft.to/lastmile_qr_scan", "ios": "https://dc.lft.to/lastmile_qr_scan"}, "lon": -77.01910716666667, "name": "590e4bbecaa4636b4545ff9fefb9b863", "lat": 38.89972383333333, "is_reserved": 0, "fusion_lat": 0.0, "bike_id": "590e4bbecaa4636b4545ff9fefb9b863", "type": "electric_scooter", "is_disabled": 0, "fusion_lon": 0.0}, {"rental_uris": {"android": "https://dc.lft.to/lastmile_qr_scan", "ios": "https://dc.lft.to/lastmile_qr_scan"}, "lon": -77.038622, "name": "2dc5cd3092b152a1f0dac2ab738b59f0", "lat": 38.9078355, "is_reserved": 0, "fusion_lat": 0.0, "bike_id": "2dc5cd3092b152a1f0dac2ab738b59f0", "type": "electric_scooter", "is_disabled": 0, "fusion_lon": 0.0}, {"rental_uris": {"android": "https://dc.lft.to/lastmile_qr_scan", "ios": "https://dc.lft.to/lastmile_qr_scan"}, "lon": -77.00198133333333, "name": "7a445bc3a58fffa46e3138f50f1817ef", "lat": 38.90815766666667, "is_reserved": 0, "fusion_lat": 0.0, "bike_id": "7a445bc3a58fffa46e3138f50f1817ef", "type": "electric_scooter", "is_disabled": 0, "fusion_lon": 0.0}, {"rental_uris": {"android": "https://dc.lft.to/lastmile_qr_scan", "ios": "https://dc.lft.to/lastmile_qr_scan"}, "lon": -77.02959533333333, "name": "fe02bee0fe96232dc3707466439b396b", "lat": 38.9050105, "is_reserved": 0, "fusion_lat": 0.0, "bike_id": "fe02bee0fe96232dc3707466439b396b", "type": "electric_scooter", "is_disabled": 0, "fusion_lon": 0.0}, {"rental_uris": {"android": "https://dc.lft.to/lastmile_qr_scan", "ios": "https://dc.lft.to/lastmile_qr_scan"}, "lon": -76.98716583333334, "name": "38c73a3084c98068be787b28ca949235", "lat": 38.866262666666664, "is_reserved": 0, "fusion_lat": 0.0, "bike_id": "38c73a3084c98068be787b28ca949235", "type": "electric_scooter", "is_disabled": 0, "fusion_lon": 0.0}, {"rental_uris": {"android": "https://dc.lft.to/lastmile_qr_scan", "ios": "https://dc.lft.to/lastmile_qr_scan"}, "lon": -77.00567683333334, "name": "7058e5ad04a4af0c647a0ee95ccdf5d5", "lat": 38.918149666666665, "is_reserved": 0, "fusion_lat": 0.0, "bike_id": "7058e5ad04a4af0c647a0ee95ccdf5d5", "type": "electric_scooter", "is_disabled": 0, "fusion_lon": 0.0}, {"rental_uris": {"android": "https://dc.lft.to/lastmile_qr_scan", "ios": "https://dc.lft.to/lastmile_qr_scan"}, "lon": -76.999048, "name": "a536746af4e33c2b33e9c09b85dec4f9", "lat": 38.92453833333333, "is_reserved": 0, "fusion_lat": 0.0, "bike_id": "a536746af4e33c2b33e9c09b85dec4f9", "type": "electric_scooter", "is_disabled": 0, "fusion_lon": 0.0}, {"rental_uris": {"android": "https://dc.lft.to/lastmile_qr_scan", "ios": "https://dc.lft.to/lastmile_qr_scan"}, "lon": -77.03946516666667, "name": "f96ff6e8a9a1494d7d9c28cdc558e3f1", "lat": 38.9246475, "is_reserved": 0, "fusion_lat": 0.0, "bike_id": "f96ff6e8a9a1494d7d9c28cdc558e3f1", "type": "electric_scooter", "is_disabled": 0, "fusion_lon": 0.0}, {"rental_uris": {"android": "https://dc.lft.to/lastmile_qr_scan", "ios": "https://dc.lft.to/lastmile_qr_scan"}, "lon": -77.036156, "name": "e7626da7a15b2d5be8641619bea2a779", "lat": 38.937449, "is_reserved": 0, "fusion_lat": 0.0, "bike_id": "e7626da7a15b2d5be8641619bea2a779", "type": "electric_scooter", "is_disabled": 0, "fusion_lon": 0.0}, {"rental_uris": {"android": "https://dc.lft.to/lastmile_qr_scan", "ios": "https://dc.lft.to/lastmile_qr_scan"}, "lon": -77.0321615, "name": "2506b097fc7030f59dd814703a6cf3f4", "lat": 38.92785633333333, "is_reserved": 0, "fusion_lat": 0.0, "bike_id": "2506b097fc7030f59dd814703a6cf3f4", "type": "electric_scooter", "is_disabled": 0, "fusion_lon": 0.0}, {"rental_uris": {"android": "https://dc.lft.to/lastmile_qr_scan", "ios": "https://dc.lft.to/lastmile_qr_scan"}, "lon": -76.98905633333334, "name": "bd9e54dd089070e0b48dd5cff03de831", "lat": 38.900302833333335, "is_reserved": 0, "fusion_lat": 0.0, "bike_id": "bd9e54dd089070e0b48dd5cff03de831", "type": "electric_scooter", "is_disabled": 0, "fusion_lon": 0.0}, {"rental_uris": {"android": "https://dc.lft.to/lastmile_qr_scan", "ios": "https://dc.lft.to/lastmile_qr_scan"},