{"data": {"bikes": [{"fusion_lat": 0.0, "type": "electric_scooter", "name": "9cc4fb9bad27e02bba71d066c68413b2", "fusion_lon": 0.0, "bike_id": "9cc4fb9bad27e02bba71d066c68413b2", "is_reserved": 0, "rental_uris": {"android": "https://dc.lft.to/lastmile_qr_scan", "ios": "https://dc.lft.to/lastmile_qr_scan"}, "lat": 38.902335666666666, "is_disabled": 0, "lon": -77.05345016666666}, {"fusion_lat": 0.0, "type": "electric_scooter", "name": "51b58cba93847b72f94f80fbf70b9565", "fusion_lon": 0.0, "bike_id": "51b58cba93847b72f94f80fbf70b9565", "is_reserved": 0, "rental_uris": {"android": "https://dc.lft.to/lastmile_qr_scan", "ios": "https://dc.lft.to/lastmile_qr_scan"}, "lat": 38.917104, "is_disabled": 0, "lon": -77.03415783333334}, {"fusion_lat": 0.0, "type": "electric_scooter", "name": "bf099831c3635a03997ddae5af6dd2b4", "fusion_lon": 0.0, "bike_id": "bf099831c3635a03997ddae5af6dd2b4", "is_reserved": 0, "rental_uris": {"android": "https://dc.lft.to/lastmile_qr_scan", "ios": "https://dc.lft.to/lastmile_qr_scan"}, "lat": 38.919976, "is_disabled": 0, "lon": -77.02351383333334}, {"fusion_lat": 0.0, "type": "electric_scooter", "name": "16fb4aff8c1e4aa6d4d13291706f74e2", "fusion_lon": 0.0, "bike_id": "16fb4aff8c1e4aa6d4d13291706f74e2", "is_reserved": 0, "rental_uris": {"android": "https://dc.lft.to/lastmile_qr_scan", "ios": "https://dc.lft.to/lastmile_qr_scan"}, "lat": 38.9071755, "is_disabled": 0, "lon": -76.998223}, {"fusion_lat": 0.0, "type": "electric_scooter", "name": "ea12ce02fe973e606b7203f3399a9494", "fusion_lon": 0.0, "bike_id": "ea12ce02fe973e606b7203f3399a9494", "is_reserved": 0, "rental_uris": {"android": "https://dc.lft.to/lastmile_qr_scan", "ios": "https://dc.lft.to/lastmile_qr_scan"}, "lat": 38.9214805, "is_disabled": 0, "lon": -77.020598}, {"fusion_lat": 0.0, "type": "electric_scooter", "name": "84bc80a62df189dc2ca178895d5aa5e6", "fusion_lon": 0.0, "bike_id": "84bc80a62df189dc2ca178895d5aa5e6", "is_reserved": 0, "rental_uris": {"android": "https://dc.lft.to/lastmile_qr_scan", "ios": "https://dc.lft.to/lastmile_qr_scan"}, "lat": 38.899627, "is_disabled": 0, "lon": -77.01571983333334}, {"fusion_lat": 0.0, "type": "electric_scooter", "name": "4cf8a31f100cd63a39c75821a8637d38", "fusion_lon": 0.0, "bike_id": "4cf8a31f100cd63a39c75821a8637d38", "is_reserved": 0, "rental_uris": {"android": "https://dc.lft.to/lastmile_qr_scan", "ios": "https://dc.lft.to/lastmile_qr_scan"}, "lat": 38.92087566666667, "is_disabled": 0, "lon": -77.01205616666667}, {"fusion_lat": 0.0, "type": "electric_scooter", "name": "a17f5544f34d699849eb04a8919c848b", "fusion_lon": 0.0, "bike_id": "a17f5544f34d699849eb04a8919c848b", "is_reserved": 0, "rental_uris": {"android": "https://dc.lft.to/lastmile_qr_scan", "ios": "https://dc.lft.to/lastmile_qr_scan"}, "lat": 38.9297185, "is_disabled": 0, "lon": -77.05508716666667}, {"fusion_lat": 0.0, "type": "electric_scooter", "name": "61163bbddfdedd7e87dc270c5bc258b7", "fusion_lon": 0.0, "bike_id": "61163bbddfdedd7e87dc270c5bc258b7", "is_reserved": 0, "rental_uris": {"android": "https://dc.lft.to/lastmile_qr_scan", "ios": "https://dc.lft.to/lastmile_qr_scan"}, "lat": 38.90864766666667, "is_disabled": 0, "lon": -77.02186766666667}, {"fusion_lat": 0.0, "type": "electric_bike", "name": "b9a545171224c538990340073d01a4a9", "fusion_lon": 0.0, "bike_id": "b9a545171224c538990340073d01a4a9", "is_reserved": 0, "rental_uris": {"android": "https://dc.lft.to/lastmile_qr_scan", "ios": "https://dc.lft.to/lastmile_qr_scan"}, "lat": 38.813059833333334, "is_disabled": 0, "lon": -77.10964583333333}, {"fusion_lat": 0.0, "type": "electric_scooter", "name": "9bee7803c5bdd4e44ef6443513f9e3fd", "fusion_lon": 0.0, "bike_id": "9bee7803c5bdd4e44ef6443513f9e3fd", "is_reserved": 0, "rental_uris": {"android": "https://dc.lft.to/lastmile_qr_scan", "ios": "https://dc.lft.to/lastmile_qr_scan"}, "lat": 38.908492833333334, "is_disabled": 0, "lon": -77.025111}, {"fusion_lat": 0.0, "type": "electric_scooter", "name": "73c08a57147e806aff9391d8d75a75b8", "fusion_lon": 0.0, "bike_id": "73c08a57147e806aff9391d8d75a75b8", "is_reserved": 0, "rental_uris": {"android": "https://dc.lft.to/lastmile_qr_scan", "ios": "https://dc.lft.to/lastmile_qr_scan"}, "lat": 38.906563, "is_disabled": 0, "lon": -77.03148116666667}, {"fusion_lat": 0.0, "type": "electric_scooter", "name": "a588a4806ed784fc41d54d24f61eeb11", "fusion_lon": 0.0, "bike_id": "a588a4806ed784fc41d54d24f61eeb11", "is_reserved": 0, "rental_uris": {"android": "https://dc.lft.to/lastmile_qr_scan", "ios": "https://dc.lft.to/lastmile_qr_scan"}, "lat": 38.8938465, "is_disabled": 0, "lon": -77.0468005}, {"fusion_lat": 0.0, "type": "electric_scooter", "name": "5bc3b0319017746b163cb54e7c61b21d", "fusion_lon": 0.0, "bike_id": "5bc3b0319017746b163cb54e7c61b21d", "is_reserved": 0, "rental_uris": {"android": "https://dc.lft.to/lastmile_qr_scan", "ios": "https://dc.lft.to/lastmile_qr_scan"}, "lat": 38.91483916666667, "is_disabled": 0, "lon": -77.02570333333334}, {"fusion_lat": 0.0, "type": "electric_scooter", "name": "0291f18012cd59e96eb660d75d36ba81", "fusion_lon": 0.0, "bike_id": "0291f18012cd59e96eb660d75d36ba81", "is_reserved": 0, "rental_uris": {"android": "https://dc.lft.to/lastmile_qr_scan", "ios": "https://dc.lft.to/lastmile_qr_scan"}, "lat": 38.92931266666667, "is_disabled": 0, "lon": -77.03766733333333}, {"fusion_lat": 0.0, "type": "electric_bike", "name": "ff9adfa9347096925d85ca05c1485637", "fusion_lon": 0.0, "bike_id": "ff9adfa9347096925d85ca05c1485637", "is_reserved": 0, "rental_uris": {"android": "https://dc.lft.to/lastmile_qr_scan", "ios": "https://dc.lft.to/lastmile_qr_scan"}, "lat": 38.945517833333334, "is_disabled": 0, "lon": -76.895374}, {"fusion_lat": 0.0, "type": "electric_scooter", "name": "1bcd4b6665668e782db9fd4047eb1ed9", "fusion_lon": 0.0, "bike_id": "1bcd4b6665668e782db9fd4047eb1ed9", "is_reserved": 0, "rental_uris": {"android": "https://dc.lft.to/lastmile_qr_scan", "ios": "https://dc.lft.to/lastmile_qr_scan"}, "lat": 38.896147, "is_disabled": 0, "lon": -77.02184016666666}, {"fusion_lat": 0.0, "type": "electric_scooter", "name": "c896c46868395e0e898ed7246a3562b1", "fusion_lon": 0.0, "bike_id": "c896c46868395e0e898ed7246a3562b1", "is_reserved": 0, "rental_uris": {"android": "https://dc.lft.to/lastmile_qr_scan", "ios": "https://dc.lft.to/lastmile_qr_scan"}, "lat": 38.91709866666667, "is_disabled": 0, "lon": -77.04263016666667}, {"fusion_lat": 0.0, "type": "electric_bike", "name": "cc1dda2a9d953f028bab793769b6195f", "fusion_lon": 0.0, "bike_id": "cc1dda2a9d953f028bab793769b6195f", "is_reserved": 0, "rental_uris": {"android": "https://dc.lft.to/lastmile_qr_scan", "ios": "https://dc.lft.to/lastmile_qr_scan"}, "lat": 38.94977766666667, "is_disabled": 0, "lon": -77.07392116666666}, {"fusion_lat": 0.0, "type": "electric_bike", "name": "1f07e18f8e51e6f3caab469d76d74bad", "fusion_lon": 0.0, "bike_id": "1f07e18f8e51e6f3caab469d76d74bad", "is_reserved": 0, "rental_uris": {"android": "https://dc.lft.to/lastmile_qr_scan", "ios": "https://dc.lft.to/lastmile_qr_scan"}, "lat": 38.94508783333333, "is_disabled": 0, "lon": -77.00668666666667}, {"fusion_lat": 0.0, "type": "electric_scooter", "name": "bc5faf7b750c369f371ae26b74064a9b", "fusion_lon": 0.0, "bike_id": "bc5faf7b750c369f371ae26b74064a9b", "is_reserved": 0, "rental_uris": {"android": "https://dc.lft.to/lastmile_qr_scan", "ios": "https://dc.lft.to/lastmile_qr_scan"}, "lat": 38.897796166666666, "is_disabled": 0, "lon": -77.03956783333334}, {"fusion_lat": 0.0, "type": "electric_scooter", "name": "2f8e460e66e171731a9735ac3f549d39", "fusion_lon": 0.0, "bike_id": "2f8e460e66e171731a9735ac3f549d39", "is_reserved": 0, "rental_uris": {"android": "https://dc.lft.to/lastmile_qr_scan", "ios": "https://dc.lft.to/lastmile_qr_scan"}, "lat": 38.94266916666667, "is_disabled": 0, "lon": -77.028462}, {"fusion_lat": 0.0, "type": "electric_scooter", "name": "35c614b41cdfec7563d230fab3a0b82f", "fusion_lon": 0.0, "bike_id": "35c614b41cdfec7563d230fab3a0b82f", "is_reserved": 0, "rental_uris": {"android": "https://dc.lft.to/lastmile_qr_scan", "ios": "https://dc.lft.to/lastmile_qr_scan"}, "lat": 38.907297, "is_disabled": 0, "lon": -77.048804}, {"fusion_lat": 0.0, "type": "electric_scooter", "name": "8ead7e5715fb33e0a3e2985571d27155", "fusion_lon": 0.0, "bike_id": "8ead7e5715fb33e0a3e2985571d27155", "is_reserved": 0, "rental_uris": {"android": "https://dc.lft.to/lastmile_qr_scan", "ios": "https://dc.lft.to/lastmile_qr_scan"}, "lat": 38.90563266666667, "is_disabled": 0, "lon": -77.00724233333334}, {"fusion_lat": 0.0, "type": "electric_scooter", "name": "38bae627da29b25b689c15aa5d775884", "fusion_lon": 0.0, "bike_id": "38bae627da29b25b689c15aa5d775884", "is_reserved": 0, "rental_uris": {"android": "https://dc.lft.to/lastmile_qr_scan", "ios": "https://dc.lft.to/lastmile_qr_scan"}, "lat": 38.892190666666664, "is_disabled": 0, "lon": -77.0437675}, {"fusion_lat": 0.0, "type": "electric_scooter", "name": "7cc6deb2ff6e16bc50d767f917227d30", "fusion_lon": 0.0, "bike_id": "7cc6deb2ff6e16bc50d767f917227d30", "is_reserved": 0, "rental_uris": {"android": "https://dc.lft.to/lastmile_qr_scan", "ios": "https://dc.lft.to/lastmile_qr_scan"}, "lat": 38.9118765, "is_disabled": 0, "lon": -77.030172}, {"fusion_lat": 0.0, "type": "electric_scooter", "name": "4a21332514cf5dc7e5541e5256e02669", "fusion_lon": 0.0, "bike_id": "4a21332514cf5dc7e5541e5256e02669", "is_reserved": 0, "rental_uris": {"android": "https://dc.lft.to/lastmile_qr_scan", "ios": "https://dc.lft.to/lastmile_qr_scan"}, "lat": 38.887329666666666, "is_disabled": 0, "lon": -77.0257765}, {"fusion_lat": 0.0, "type": "electric_scooter", "name": "9370328140732be11523bdc8fc89e227", "fusion_lon": 0.0, "bike_id": "9370328140732be11523bdc8fc89e227", "is_reserved": 0, "rental_uris": {"android": "https://dc.lft.to/lastmile_qr_scan", "ios": "https://dc.lft.to/lastmile_qr_scan"}, "lat": 38.960279, "is_disabled": 0, "lon": -77.0198295}, {"fusion_lat": 0.0, "type": "electric_scooter", "name": "2de5a65447c505b60929ae0173a80653", "fusion_lon": 0.0, "bike_id": "2de5a65447c505b60929ae0173a80653", "is_reserved": 0, "rental_uris": {"android": "https://dc.lft.to/lastmile_qr_scan", "ios": "https://dc.lft.to/lastmile_qr_scan"}, "lat": 38.8949165, "is_disabled": 0, "lon": -77.021515}, {"fusion_lat": 0.0, "type": "electric_scooter", "name": "bbc5af58b94bd7c7b43dbbd05950aebd", "fusion_lon": 0.0, "bike_id": "bbc5af58b94bd7c7b43dbbd05950aebd", "is_reserved": 0, "rental_uris": {"android": "https://dc.lft.to/lastmile_qr_scan", "ios": "https://dc.lft.to/lastmile_qr_scan"}, "lat": 38.8936965, "is_disabled": 0, "lon": -76.94995166666666}, {"fusion_lat": 0.0, "type": "electric_scooter", "name": "46fa0336ffbc662c065a29032d979d6f", "fusion_lon": 0.0, "bike_id": "46fa0336ffbc662c065a29032d979d6f", "is_reserved": 0, "rental_uris": {"android": "https://dc.lft.to/lastmile_qr_scan", "ios": "https://dc.lft.to/lastmile_qr_scan"}, "lat": 38.92571516666667, "is_disabled": 0, "lon": -77.04002883333334}, {"fusion_lat": 0.0, "type": "electric_scooter", "name": "b2dc366224753e0ddef9d19d5def1d07", "fusion_lon": 0.0, "bike_id": "b2dc366224753e0ddef9d19d5def1d07", "is_reserved": 0, "rental_uris": {"android": "https://dc.lft.to/lastmile_qr_scan", "ios": "https://dc.lft.to/lastmile_qr_scan"}, "lat": 38.93086433333333, "is_disabled": 0, "lon": -77.00409266666666}, {"fusion_lat": 0.0, "type": "electric_scooter", "name": "5770c56cf3a6d205bce27ff757c7ac5f", "fusion_lon": 0.0, "bike_id": "5770c56cf3a6d205bce27ff757c7ac5f", "is_reserved": 0, "rental_uris": {"android": "https://dc.lft.to/lastmile_qr_scan", "ios": "https://dc.lft.to/lastmile_qr_scan"}, "lat": 38.893437166666665, "is_disabled": 0, "lon": -77.0419145}, {"fusion_lat": 0.0, "type": "electric_scooter", "name": "2962f1884afe32fe5e049cdfe9fc71b6", "fusion_lon": 0.0, "bike_id": "2962f1884afe32fe5e049cdfe9fc71b6", "is_reserved": 0, "rental_uris": {"android": "https://dc.lft.to/lastmile_qr_scan", "ios": "https://dc.lft.to/lastmile_qr_scan"}, "lat": 38.9047055, "is_disabled": 0, "lon": -77.02804833333333}, {"fusion_lat": 0.0, "type": "electric_scooter", "name": "519ba9c2c415237df75d239804ed91d5", "fusion_lon": 0.0, "bike_id": "519ba9c2c415237df75d239804ed91d5", "is_reserved": 0, "rental_uris": {"android": "https://dc.lft.to/lastmile_qr_scan", "ios": "https://dc.lft.to/lastmile_qr_scan"}, "lat": 38.93551466666667, "is_disabled": 0, "lon": -77.02222616666667}, {"fusion_lat": 0.0, "type": "electric_scooter", "name": "40e8c8bed09d69ffbc2a54eb92945628", "fusion_lon": 0.0, "bike_id": "40e8c8bed09d69ffbc2a54eb92945628", "is_reserved": 0, "rental_uris": {"android": "https://dc.lft.to/lastmile_qr_scan", "ios": "https://dc.lft.to/lastmile_qr_scan"}, "lat": 38.923276333333334, "is_disabled": 0, "lon": -77.036061}, {"fusion_lat": 0.0, "type": "electric_scooter", "name": "e88d62154fb8730667c8453197c5da74", "fusion_lon": 0.0, "bike_id": "e88d62154fb8730667c8453197c5da74", "is_reserved": 0, "rental_uris": {"android": "https://dc.lft.to/lastmile_qr_scan", "ios": "https://dc.lft.to/lastmile_qr_scan"}, "lat": 38.867033, "is_disabled": 0, "lon": -76.98713983333333}, {"fusion_lat": 0.0, "type": "electric_scooter", "name": "e650ce9713b588e25beddb6234b7ced8", "fusion_lon": 0.0, "bike_id": "e650ce9713b588e25beddb6234b7ced8", "is_reserved": 0, "rental_uris": {"android": "https://dc.lft.to/lastmile_qr_scan", "ios": "https://dc.lft.to/lastmile_qr_scan"}, "lat": 38.92064, "is_disabled": 0, "lon": -77.0421855}, {"fusion_lat": 0.0, "type": "electric_scooter", "name": "48e74a89f6925da631e0d76d955df153", "fusion_lon": 0.0, "bike_id": "48e74a89f6925da631e0d76d955df153", "is_reserved": 0, "rental_uris": {"android": "https://dc.lft.to/lastmile_qr_scan", "ios": "https://dc.lft.to/lastmile_qr_scan"}, "lat": 38.892242333333336, "is_disabled": 0, "lon": -77.0437345}, {"fusion_lat": 0.0, "type": "electric_scooter", "name": "cd52551b07f6f951acefd3479b5da2c0", "fusion_lon": 0.0, "bike_id": "cd52551b07f6f951acefd3479b5da2c0", "is_reserved": 0, "rental_uris": {"android": "https://dc.lft.to/lastmile_qr_scan", "ios": "https://dc.lft.to/lastmile_qr_scan"}, "lat": 38.92819466666667, "is_disabled": 0, "lon": -77.014047}, {"fusion_lat": 0.0, "type": "electric_scooter", "name": "ae895b444dbea0242adead449389a20f", "fusion_lon": 0.0, "bike_id": "ae895b444dbea0242adead449389a20f", "is_reserved": 0, "rental_uris": {"android": "https://dc.lft.to/lastmile_qr_scan", "ios": "https://dc.lft.to/lastmile_qr_scan"}, "lat": 38.91096983333333, "is_disabled": 0, "lon": -77.02096066666667}, {"fusion_lat": 0.0, "type": "electric_bike", "name": "d869e223ed36ce3101d21791545616a8", "fusion_lon": 0.0, "bike_id": "d869e223ed36ce3101d21791545616a8", "is_reserved": 0, "rental_uris": {"android": "https://dc.lft.to/lastmile_qr_scan", "ios": "https://dc.lft.to/lastmile_qr_scan"}, "lat": 38.959329333333336, "is_disabled": 0, "lon": -76.92541416666667}, {"fusion_lat": 0.0, "type": "electric_scooter", "name": "1bfe39bae2686870c6412d6244d42107", "fusion_lon": 0.0, "bike_id": "1bfe39bae2686870c6412d6244d42107", "is_reserved": 0, "rental_uris": {"android": "https://dc.lft.to/lastmile_qr_scan", "ios": "https://dc.lft.to/lastmile_qr_scan"}, "lat": 38.86896316666667, "is_disabled": 0, "lon": -76.982243}, {"fusion_lat": 0.0, "type": "electric_scooter", "name": "7ca1817cf9ff406d5f1349b55e35edb3", "fusion_lon": 0.0, "bike_id": "7ca1817cf9ff406d5f1349b55e35edb3", "is_reserved": 0, "rental_uris": {"android": "https://dc.lft.to/lastmile_qr_scan", "ios": "https://dc.lft.to/lastmile_qr_scan"}, "lat": 38.86701583333333, "is_disabled": 0, "lon": -76.98712733333333}, {"fusion_lat": 0.0, "type": "electric_scooter", "name": "7ec1d3eec6a19144193db99cddce8b4b", "fusion_lon": 0.0, "bike_id": "7ec1d3eec6a19144193db99cddce8b4b", "is_reserved": 0, "rental_uris": {"android": "https://dc.lft.to/lastmile_qr_scan", "ios": "https://dc.lft.to/lastmile_qr_scan"}, "lat": 38.927309666666666, "is_disabled": 0, "lon": -77.07339566666667}, {"fusion_lat": 0.0, "type": "electric_scooter", "name": "4e34582f6c0730a34c0b5f467fdb28c4", "fusion_lon": 0.0, "bike_id": "4e34582f6c0730a34c0b5f467fdb28c4", "is_reserved": 0, "rental_uris": {"android": "https://dc.lft.to/lastmile_qr_scan", "ios": "https://dc.lft.to/lastmile_qr_scan"}, "lat": 38.92504, "is_disabled": 0, "lon": -77.05751783333334}, {"fusion_lat": 0.0, "type": "electric_bike", "name": "01f8277f8275a599560d7270de964911", "fusion_lon": 0.0, "bike_id": "01f8277f8275a599560d7270de964911", "is_reserved": 0, "rental_uris": {"android": "https://dc.lft.to/lastmile_qr_scan", "ios": "https://dc.lft.to/lastmile_qr_scan"}, "lat": 38.9922735, "is_disabled": 0, "lon": -77.03223433333334}, {"fusion_lat": 0.0, "type": "electric_scooter", "name": "16c451e0bf977f3743f7272932856de4", "fusion_lon": 0.0, "bike_id": "16c451e0bf977f3743f7272932856de4", "is_reserved": 0, "rental_uris": {"android": "https://dc.lft.to/lastmile_qr_scan", "ios": "https://dc.lft.to/lastmile_qr_scan"}, "lat": 38.91479983333333, "is_disabled": 0, "lon": -77.02185533333333}, {"fusion_lat": 0.0, "type": "electric_scooter", "name": "e72c9f125f3e89095556ad427df8ac4a", "fusion_lon": 0.0, "bike_id": "e72c9f125f3e89095556ad427df8ac4a", "is_reserved": 0, "rental_uris": {"android": "https://dc.lft.to/lastmile_qr_scan", "ios": "https://dc.lft.to/lastmile_qr_scan"}, "lat": 38.89223966666667, "is_disabled": 0, "lon": -77.03185816666667}, {"fusion_lat": 0.0, "type": "electric_scooter", "name": "ae24fb6d81bbe68a95d8270f6c86a784", "fusion_lon": 0.0, "bike_id": "ae24fb6d81bbe68a95d8270f6c86a784", "is_reserved": 0, "rental_uris": {"android": "https://dc.lft.to/lastmile_qr_scan", "ios": "https://dc.lft.to/lastmile_qr_scan"}, "lat": 38.931823666666666, "is_disabled": 0, "lon": -77.03850283333334}, {"fusion_lat": 0.0, "type": "electric_scooter", "name": "539ac43f3ebf8eff6a2c263ecd78d977", "fusion_lon": 0.0, "bike_id": "539ac43f3ebf8eff6a2c263ecd78d977", "is_reserved": 0, "rental_uris": {"android": "https://dc.lft.to/lastmile_qr_scan", "ios": "https://dc.lft.to/lastmile_qr_scan"}, "lat": 38.904805, "is_disabled": 0, "lon": -77.03910283333333}, {"fusion_lat": 0.0, "type": "electric_bike", "name": "1e2f625eeac989b1bb30630d3689496e", "fusion_lon": 0.0, "bike_id": "1e2f625eeac989b1bb30630d3689496e", "is_reserved": 0, "rental_uris": {"android": "https://dc.lft.to/lastmile_qr_scan", "ios": "https://dc.lft.to/lastmile_qr_scan"}, "lat": 38.88046466666667, "is_disabled": 0, "lon": -77.01129616666667}, {"fusion_lat": 0.0, "type": "electric_scooter", "name": "53fcc7788f334a98eaa9d2d078523e8d", "fusion_lon": 0.0, "bike_id": "53fcc7788f334a98eaa9d2d078523e8d", "is_reserved": 0, "rental_uris": {"android": "https://dc.lft.to/lastmile_qr_scan", "ios": "https://dc.lft.to/lastmile_qr_scan"}, "lat": 38.92200783333333, "is_disabled": 0, "lon": -77.029771}, {"fusion_lat": 0.0, "type": "electric_scooter", "name": "83c9a3788267eeb49fa45252ab23a81d", "fusion_lon": 0.0, "bike_id": "83c9a3788267eeb49fa45252ab23a81d", "is_reserved": 0, "rental_uris": {"android": "https://dc.lft.to/lastmile_qr_scan", "ios": "https://dc.lft.to/lastmile_qr_scan"}, "lat": 38.8834525, "is_disabled": 0, "lon": -76.98549416666667}, {"fusion_lat": 0.0, "type": "electric_bike", "name": "3395bdcd9b105f2a94d771dc97e4f5d4", "fusion_lon": 0.0, "bike_id": "3395bdcd9b105f2a94d771dc97e4f5d4", "is_reserved": 0, "rental_uris": {"android": "https://dc.lft.to/lastmile_qr_scan", "ios": "https://dc.lft.to/lastmile_qr_scan"}, "lat": 38.80754533333333, "is_disabled": 0, "lon": -77.0945515}, {"fusion_lat": 0.0, "type": "electric_scooter", "name": "019ec60bec7e8aa545ffc573317f9859", "fusion_lon": 0.0, "bike_id": "019ec60bec7e8aa545ffc573317f9859", "is_reserved": 0, "rental_uris": {"android": "https://dc.lft.to/lastmile_qr_scan", "ios": "https://dc.lft.to/lastmile_qr_scan"}, "lat": 38.921698, "is_disabled": 0, "lon": -77.0424445}, {"fusion_lat": 0.0, "type": "electric_scooter", "name": "fe7f091ffc6c4a00b5f2069719c01e33", "fusion_lon": 0.0, "bike_id": "fe7f091ffc6c4a00b5f2069719c01e33", "is_reserved": 0, "rental_uris": {"android": "https://dc.lft.to/lastmile_qr_scan", "ios": "https://dc.lft.to/lastmile_qr_scan"}, "lat": 38.8669975, "is_disabled": 0, "lon": -76.985915}, {"fusion_lat": 0.0, "type": "electric_bike", "name": "8670dd4b4056c7e9cde4649ef97c8654", "fusion_lon": 0.0, "bike_id": "8670dd4b4056c7e9cde4649ef97c8654", "is_reserved": 0, "rental_uris": {"android": "https://dc.lft.to/lastmile_qr_scan", "ios": "https://dc.lft.to/lastmile_qr_scan"}, "lat": 38.8531545, "is_disabled": 0, "lon": -76.98018883333333}, {"fusion_lat": 0.0, "type": "electric_scooter", "name": "5dbab2602b6d9e004305feef227de829", "fusion_lon": 0.0, "bike_id": "5dbab2602b6d9e004305feef227de829", "is_reserved": 0, "rental_uris": {"android": "https://dc.lft.to/lastmile_qr_scan", "ios": "https://dc.lft.to/lastmile_qr_scan"}, "lat": 38.91739416666667, "is_disabled": 0, "lon": -77.03194916666666}, {"fusion_lat": 0.0, "type": "electric_scooter", "name": "167bbd6d008cbda823607ed80107d30c", "fusion_lon": 0.0, "bike_id": "167bbd6d008cbda823607ed80107d30c", "is_reserved": 0, "rental_uris": {"android": "https://dc.lft.to/lastmile_qr_scan", "ios": "https://dc.lft.to/lastmile_qr_scan"}, "lat": 38.87288316666667, "is_disabled": 0, "lon": -76.97728416666666}, {"fusion_lat": 0.0, "type": "electric_scooter", "name": "de756d6955cde619c7769b4d8f043a0c", "fusion_lon": 0.0, "bike_id": "de756d6955cde619c7769b4d8f043a0c", "is_reserved": 0, "rental_uris": {"android": "https://dc.lft.to/lastmile_qr_scan", "ios": "https://dc.lft.to/lastmile_qr_scan"}, "lat": 38.8873205, "is_disabled": 0, "lon": -77.02830166666666}, {"fusion_lat": 0.0, "type": "electric_scooter", "name": "632efa60e21095843ad7395a6f457e1e", "fusion_lon": 0.0, "bike_id": "632efa60e21095843ad7395a6f457e1e", "is_reserved": 0, "rental_uris": {"android": "https://dc.lft.to/lastmile_qr_scan", "ios": "https://dc.lft.to/lastmile_qr_scan"}, "lat": 38.867973166666665, "is_disabled": 0, "lon": -77.01063016666667}, {"fusion_lat": 0.0, "type": "electric_bike", "name": "6f3cca679e06515275f989028f4e0c01", "fusion_lon": 0.0, "bike_id": "6f3cca679e06515275f989028f4e0c01", "is_reserved": 0, "rental_uris": {"android": "https://dc.lft.to/lastmile_qr_scan", "ios": "https://dc.lft.to/lastmile_qr_scan"}, "lat": 38.86194833333333, "is_disabled": 0, "lon": -76.94807566666667}, {"fusion_lat": 0.0, "type": "electric_scooter", "name": "57ccc4d49e2233513b67d5258fbc2cc9", "fusion_lon": 0.0, "bike_id": "57ccc4d49e2233513b67d5258fbc2cc9", "is_reserved": 0, "rental_uris": {"android": "https://dc.lft.to/lastmile_qr_scan", "ios": "https://dc.lft.to/lastmile_qr_scan"}, "lat": 38.88618483333333, "is_disabled": 0, "lon": -76.95583383333333}, {"fusion_lat": 0.0, "type": "electric_scooter", "name": "cecfe14fcdc316f3fcf99678d9b257ad", "fusion_lon": 0.0, "bike_id": "cecfe14fcdc316f3fcf99678d9b257ad", "is_reserved": 0, "rental_uris": {"android": "https://dc.lft.to/lastmile_qr_scan", "ios": "https://dc.lft.to/lastmile_qr_scan"}, "lat": 38.90074033333333, "is_disabled": 0, "lon": -77.01297166666667}, {"fusion_lat": 0.0, "type": "electric_scooter", "name": "2ca70474cf5679b6a04b81c54f9ac7d7", "fusion_lon": 0.0, "bike_id": "2ca70474cf5679b6a04b81c54f9ac7d7", "is_reserved": 0, "rental_uris": {"android": "https://dc.lft.to/lastmile_qr_scan", "ios": "https://dc.lft.to/lastmile_qr_scan"}, "lat": 38.9079635, "is_disabled": 0, "lon": -77.04179083333334}, {"fusion_lat": 0.0, "type": "electric_scooter", "name": "8eb9c7c8717da9f0d5833523cc1bbdc3", "fusion_lon": 0.0, "bike_id": "8eb9c7c8717da9f0d5833523cc1bbdc3", "is_reserved": 0, "rental_uris": {"android": "https://dc.lft.to/lastmile_qr_scan", "ios": "https://dc.lft.to/lastmile_qr_scan"}, "lat": 38.87484716666667, "is_disabled": 0, "lon": -77.00663766666666}, {"fusion_lat": 0.0, "type": "electric_scooter", "name": "6026ae3449cb3ee05c6435131b4123bb", "fusion_lon": 0.0, "bike_id": "6026ae3449cb3ee05c6435131b4123bb", "is_reserved": 0, "rental_uris": {"android": "https://dc.lft.to/lastmile_qr_scan", "ios": "https://dc.lft.to/lastmile_qr_scan"}, "lat": 38.89613683333334, "is_disabled": 0, "lon": -77.00927916666667}, {"fusion_lat": 0.0, "type": "electric_scooter", "name": "2aaf9c4d5ccfef06130bde02fcc3f1bf", "fusion_lon": 0.0, "bike_id": "2aaf9c4d5ccfef06130bde02fcc3f1bf", "is_reserved": 0, "rental_uris": {"android": "https://dc.lft.to/lastmile_qr_scan", "ios": "https://dc.lft.to/lastmile_qr_scan"}, "lat": 38.88837933333333, "is_disabled": 0, "lon": -77.04845283333333}, {"fusion_lat": 0.0, "type": "electric_scooter", "name": "e7e10e70674ebec7afa3516f4d8faacb", "fusion_lon": 0.0, "bike_id": "e7e10e70674ebec7afa3516f4d8faacb", "is_reserved": 0, "rental_uris": {"android": "https://dc.lft.to/lastmile_qr_scan", "ios": "https://dc.lft.to/lastmile_qr_scan"}, "lat": 38.877253833333334, "is_disabled": 0, "lon": -77.00695483333334}, {"fusion_lat": 0.0, "type": "electric_scooter", "name": "29f833494ef3ce344ffb476b95969080", "fusion_lon": 0.0, "bike_id": "29f833494ef3ce344ffb476b95969080", "is_reserved": 0, "rental_uris": {"android": "https://dc.lft.to/lastmile_qr_scan", "ios": "https://dc.lft.to/lastmile_qr_scan"}, "lat": 38.9013645, "is_disabled": 0, "lon": -77.0161115}, {"fusion_lat": 0.0, "type": "electric_scooter", "name": "d139439fd73003d2606981d4074e4ace", "fusion_lon": 0.0, "bike_id": "d139439fd73003d2606981d4074e4ace", "is_reserved": 0, "rental_uris": {"android": "https://dc.lft.to/lastmile_qr_scan", "ios": "https://dc.lft.to/lastmile_qr_scan"}, "lat": 38.901559666666664, "is_disabled": 0, "lon": -77.03297283333333}, {"fusion_lat": 0.0, "type": "electric_scooter", "name": "a0b8a6eed03a5e112d7fd871f5c3ad49", "fusion_lon": 0.0, "bike_id": "a0b8a6eed03a5e112d7fd871f5c3ad49", "is_reserved": 0, "rental_uris": {"android": "https://dc.lft.to/lastmile_qr_scan", "ios": "https://dc.lft.to/lastmile_qr_scan"}, "lat": 38.939511333333336, "is_disabled": 0, "lon": -77.0724055}, {"fusion_lat": 0.0, "type": "electric_scooter", "name": "d613c277ba5682e385f9e1bc93d2e567", "fusion_lon": 0.0, "bike_id": "d613c277ba5682e385f9e1bc93d2e567", "is_reserved": 0, "rental_uris": {"android": "https://dc.lft.to/lastmile_qr_scan", "ios": "https://dc.lft.to/lastmile_qr_scan"}, "lat": 38.929255166666664, "is_disabled": 0, "lon": -77.03742633333333}, {"fusion_lat": 0.0, "type": "electric_scooter", "name": "08200aab40a9a9f84a68ebb547ecf769", "fusion_lon": 0.0, "bike_id": "08200aab40a9a9f84a68ebb547ecf769", "is_reserved": 0, "rental_uris": {"android": "https://dc.lft.to/lastmile_qr_scan", "ios": "https://dc.lft.to/lastmile_qr_scan"}, "lat": 38.942010833333335, "is_disabled": 0, "lon": -77.02502583333333}, {"fusion_lat": 0.0, "type": "electric_scooter", "name": "eb3032568b6b751ca12a6ebc7d35cd35", "fusion_lon": 0.0, "bike_id": "eb3032568b6b751ca12a6ebc7d35cd35", "is_reserved": 0, "rental_uris": {"android": "https://dc.lft.to/lastmile_qr_scan", "ios": "https://dc.lft.to/lastmile_qr_scan"}, "lat": 38.93057816666666, "is_disabled": 0, "lon": -77.03346233333333}, {"fusion_lat": 0.0, "type": "electric_scooter", "name": "dc2aff234a080437d9f5c6628d2a905c", "fusion_lon": 0.0, "bike_id": "dc2aff234a080437d9f5c6628d2a905c", "is_reserved": 0, "rental_uris": {"android": "https://dc.lft.to/lastmile_qr_scan", "ios": "https://dc.lft.to/lastmile_qr_scan"}, "lat": 38.874687, "is_disabled": 0, "lon": -77.0086735}, {"fusion_lat": 0.0, "type": "electric_bike", "name": "a814ac91237584aba5c838c3e047df67", "fusion_lon": 0.0, "bike_id": "a814ac91237584aba5c838c3e047df67", "is_reserved": 0, "rental_uris": {"android": "https://dc.lft.to/lastmile_qr_scan", "ios": "https://dc.lft.to/lastmile_qr_scan"}, "lat": 38.95421916666667, "is_disabled": 0, "lon": -76.93279266666667}, {"fusion_lat": 0.0, "type": "electric_scooter", "name": "3c6e076e1884b51fdd30223b1f19f56b", "fusion_lon": 0.0, "bike_id": "3c6e076e1884b51fdd30223b1f19f56b", "is_reserved": 0, "rental_uris": {"android": "https://dc.lft.to/lastmile_qr_scan", "ios": "https://dc.lft.to/lastmile_qr_scan"}, "lat": 38.88745566666667, "is_disabled": 0, "lon": -77.02737766666667}, {"fusion_lat": 0.0, "type": "electric_scooter", "name": "7ca33654dadfb6f33aad92811556155d", "fusion_lon": 0.0, "bike_id": "7ca33654dadfb6f33aad92811556155d", "is_reserved": 0, "rental_uris": {"android": "https://dc.lft.to/lastmile_qr_scan", "ios": "https://dc.lft.to/lastmile_qr_scan"}, "lat": 38.904213666666664, "is_disabled": 0, "lon": -77.04333983333333}, {"fusion_lat": 0.0, "type": "electric_scooter", "name": "e502e2b4778516ef115bcd0e00df2784", "fusion_lon": 0.0, "bike_id": "e502e2b4778516ef115bcd0e00df2784", "is_reserved": 0, "rental_uris": {"android": "https://dc.lft.to/lastmile_qr_scan", "ios": "https://dc.lft.to/lastmile_qr_scan"}, "lat": 38.918193333333335, "is_disabled": 0, "lon": -77.041695}, {"fusion_lat": 0.0, "type": "electric_scooter", "name": "f31bad8e93d5ec4d3690f2b0e981b992", "fusion_lon": 0.0, "bike_id": "f31bad8e93d5ec4d3690f2b0e981b992", "is_reserved": 0, "rental_uris": {"android": "https://dc.lft.to/lastmile_qr_scan", "ios": "https://dc.lft.to/lastmile_qr_scan"}, "lat": 38.9226055, "is_disabled": 0, "lon": -77.04303116666667}, {"fusion_lat": 0.0, "type": "electric_scooter", "name": "0b3322114059f74231eec715f0cddd1b", "fusion_lon": 0.0, "bike_id": "0b3322114059f74231eec715f0cddd1b", "is_reserved": 0, "rental_uris": {"android": "https://dc.lft.to/lastmile_qr_scan", "ios": "https://dc.lft.to/lastmile_qr_scan"}, "lat": 38.9089835, "is_disabled": 0, "lon": -77.01889833333334}, {"fusion_lat": 0.0, "type": "electric_bike", "name": "8c3d9143cc3f162865a2a1d480f3b1ad", "fusion_lon": 0.0, "bike_id": "8c3d9143cc3f162865a2a1d480f3b1ad", "is_reserved": 0, "rental_uris": {"android": "https://dc.lft.to/lastmile_qr_scan", "ios": "https://dc.lft.to/lastmile_qr_scan"}, "lat": 38.86518433333333, "is_disabled": 0, "lon": -76.97336366666667}, {"fusion_lat": 0.0, "type": "electric_scooter", "name": "8acd4d003a048487fa078d26f3fc0131", "fusion_lon": 0.0, "bike_id": "8acd4d003a048487fa078d26f3fc0131", "is_reserved": 0, "rental_uris": {"android": "https://dc.lft.to/lastmile_qr_scan", "ios": "https://dc.lft.to/lastmile_qr_scan"}, "lat": 38.905373166666664, "is_disabled": 0, "lon": -77.0570715}, {"fusion_lat": 0.0, "type": "electric_scooter", "name": "3578688a968eb4c28711d1f53257415f", "fusion_lon": 0.0, "bike_id": "3578688a968eb4c28711d1f53257415f", "is_reserved": 0, "rental_uris": {"android": "https://dc.lft.to/lastmile_qr_scan", "ios": "https://dc.lft.to/lastmile_qr_scan"}, "lat": 38.86503966666667, "is_disabled": 0, "lon": -76.99002133333333}, {"fusion_lat": 0.0, "type": "electric_bike", "name": "3738825891c7068bb788ffbff1c316c1", "fusion_lon": 0.0, "bike_id": "3738825891c7068bb788ffbff1c316c1", "is_reserved": 0, "rental_uris": {"android": "https://dc.lft.to/lastmile_qr_scan", "ios": "https://dc.lft.to/lastmile_qr_scan"}, "lat": 38.865808, "is_disabled": 0, "lon": -77.04759066666666}, {"fusion_lat": 0.0, "type": "electric_scooter", "name": "5d0a8e2e00c171ca4cdfdb9b610eac42", "fusion_lon": 0.0, "bike_id": "5d0a8e2e00c171ca4cdfdb9b610eac42", "is_reserved": 0, "rental_uris": {"android": "https://dc.lft.to/lastmile_qr_scan", "ios": "https://dc.lft.to/lastmile_qr_scan"}, "lat": 38.939039, "is_disabled": 0, "lon": -77.0247995}, {"fusion_lat": 0.0, "type": "electric_scooter", "name": "cb94aec93d13504fa1f1a4dc422f250c", "fusion_lon": 0.0, "bike_id": "cb94aec93d13504fa1f1a4dc422f250c", "is_reserved": 0, "rental_uris": {"android": "https://dc.lft.to/lastmile_qr_scan", "ios": "https://dc.lft.to/lastmile_qr_scan"}, "lat": 38.9363505, "is_disabled": 0, "lon": -77.03664316666666}, {"fusion_lat": 0.0, "type": "electric_scooter", "name": "aad4227c17e9506925a58b07fd01e173", "fusion_lon": 0.0, "bike_id": "aad4227c17e9506925a58b07fd01e173", "is_reserved": 0, "rental_uris": {"android": "https://dc.lft.to/lastmile_qr_scan", "ios": "https://dc.lft.to/lastmile_qr_scan"}, "lat": 38.886847833333334, "is_disabled": 0, "lon": -76.954648}, {"fusion_lat": 0.0, "type": "electric_scooter", "name": "49fc56e5c3589a8953a1d28f61ceab89", "fusion_lon": 0.0, "bike_id": "49fc56e5c3589a8953a1d28f61ceab89", "is_reserved": 0, "rental_uris": {"android": "https://dc.lft.to/lastmile_qr_scan", "ios": "https://dc.lft.to/lastmile_qr_scan"}, "lat": 38.908876666666664, "is_disabled": 0, "lon": -76.985429}, {"fusion_lat": 0.0, "type": "electric_scooter", "name": "a406f27bded54fed78c849e76f47fdc8", "fusion_lon": 0.0, "bike_id": "a406f27bded54fed78c849e76f47fdc8", "is_reserved": 0, "rental_uris": {"android": "https://dc.lft.to/lastmile_qr_scan", "ios": "https://dc.lft.to/lastmile_qr_scan"}, "lat": 38.865084333333336, "is_disabled": 0, "lon": -76.99000366666667}, {"fusion_lat": 0.0, "type": "electric_scooter", "name": "90f283279fd72a454713663e89241a3e", "fusion_lon": 0.0, "bike_id": "90f283279fd72a454713663e89241a3e", "is_reserved": 0, "rental_uris": {"android": "https://dc.lft.to/lastmile_qr_scan", "ios": "https://dc.lft.to/lastmile_qr_scan"}, "lat": 38.892229666666665, "is_disabled": 0, "lon": -77.03147066666666}, {"fusion_lat": 0.0, "type": "electric_scooter", "name": "3e5b70eac0817af233be079cfeba79d3", "fusion_lon": 0.0, "bike_id": "3e5b70eac0817af233be079cfeba79d3", "is_reserved": 0, "rental_uris": {"android": "https://dc.lft.to/lastmile_qr_scan", "ios": "https://dc.lft.to/lastmile_qr_scan"}, "lat": 38.9258095, "is_disabled": 0, "lon": -77.02614266666667}, {"fusion_lat": 0.0, "type": "electric_scooter", "name": "928d9b28981e40c74b4caa6da3374203", "fusion_lon": 0.0, "bike_id": "928d9b28981e40c74b4caa6da3374203", "is_reserved": 0, "rental_uris": {"android": "https://dc.lft.to/lastmile_qr_scan", "ios": "https://dc.lft.to/lastmile_qr_scan"}, "lat": 38.887428166666666, "is_disabled": 0, "lon": -77.02736033333333}, {"fusion_lat": 0.0, "type": "electric_scooter", "name": "6eb837ba6dc07bd91aa88e4ae7e1c248", "fusion_lon": 0.0, "bike_id": "6eb837ba6dc07bd91aa88e4ae7e1c248", "is_reserved": 0, "rental_uris": {"android": "https://dc.lft.to/lastmile_qr_scan", "ios": "https://dc.lft.to/lastmile_qr_scan"}, "lat": 38.9073775, "is_disabled": 0, "lon": -77.03207733333333}, {"fusion_lat": 0.0, "type": "electric_scooter", "name": "63b569707197f532bc56990452dc2ae7", "fusion_lon": 0.0, "bike_id": "63b569707197f532bc56990452dc2ae7", "is_reserved": 0, "rental_uris": {"android": "https://dc.lft.to/lastmile_qr_scan", "ios": "https://dc.lft.to/lastmile_qr_scan"}, "lat": 38.910567, "is_disabled": 0, "lon": -77.05319133333333}, {"fusion_lat": 0.0, "type": "electric_scooter", "name": "ef58feec3233b9d000dbcd48f3dd8a99", "fusion_lon": 0.0, "bike_id": "ef58feec3233b9d000dbcd48f3dd8a99", "is_reserved": 0, "rental_uris": {"android": "https://dc.lft.to/lastmile_qr_scan", "ios": "https://dc.lft.to/lastmile_qr_scan"}, "lat": 38.93078833333333, "is_disabled": 0, "lon": -77.03755083333333}, {"fusion_lat": 0.0, "type": "electric_scooter", "name": "173269360733af6721b036d36174b330", "fusion_lon": 0.0, "bike_id": "173269360733af6721b036d36174b330", "is_reserved": 0, "rental_uris": {"android": "https://dc.lft.to/lastmile_qr_scan", "ios": "https://dc.lft.to/lastmile_qr_scan"}, "lat": 38.89731166666667, "is_disabled": 0, "lon": -77.0437055}, {"fusion_lat": 0.0, "type": "electric_bike", "name": "e56d1d9ec8d3f92467ad0984be4fb6b1", "fusion_lon": 0.0, "bike_id": "e56d1d9ec8d3f92467ad0984be4fb6b1", "is_reserved": 0, "rental_uris": {"android": "https://dc.lft.to/lastmile_qr_scan", "ios": "https://dc.lft.to/lastmile_qr_scan"}, "lat": 38.8315835, "is_disabled": 0, "lon": -76.9954195}, {"fusion_lat": 0.0, "type": "electric_scooter", "name": "af464bfcc7c397c2904b995de305bffc", "fusion_lon": 0.0, "bike_id": "af464bfcc7c397c2904b995de305bffc", "is_reserved": 0, "rental_uris": {"android": "https://dc.lft.to/lastmile_qr_scan", "ios": "https://dc.lft.to/lastmile_qr_scan"}, "lat": 38.91103566666666, "is_disabled": 0, "lon": -77.00469283333334}, {"fusion_lat": 0.0, "type": "electric_bike", "name": "ff886ae32c3dee4b5625bb119afa1f62", "fusion_lon": 0.0, "bike_id": "ff886ae32c3dee4b5625bb119afa1f62", "is_reserved": 0, "rental_uris": {"android": "https://dc.lft.to/lastmile_qr_scan", "ios": "https://dc.lft.to/lastmile_qr_scan"}, "lat": 38.81202366666667, "is_disabled": 0, "lon": -77.10831783333333}, {"fusion_lat": 0.0, "type": "electric_scooter", "name": "7cb3aa9483f789c7a9787b2d1081942c", "fusion_lon": 0.0, "bike_id": "7cb3aa9483f789c7a9787b2d1081942c", "is_reserved": 0, "rental_uris": {"android": "https://dc.lft.to/lastmile_qr_scan", "ios": "https://dc.lft.to/lastmile_qr_scan"}, "lat": 38.93343316666667, "is_disabled": 0, "lon": -77.04121033333334}, {"fusion_lat": 0.0, "type": "electric_scooter", "name": "bd6c0780149a8193f56e7774664f4db7", "fusion_lon": 0.0, "bike_id": "bd6c0780149a8193f56e7774664f4db7", "is_reserved": 0, "rental_uris": {"android": "https://dc.lft.to/lastmile_qr_scan", "ios": "https://dc.lft.to/lastmile_qr_scan"}, "lat": 38.865746, "is_disabled": 0, "lon": -76.98919683333334}, {"fusion_lat": 0.0, "type": "electric_bike", "name": "1cfca80a84048f276d7f9373028dc3c6", "fusion_lon": 0.0, "bike_id": "1cfca80a84048f276d7f9373028dc3c6", "is_reserved": 0, "rental_uris": {"android": "https://dc.lft.to/lastmile_qr_scan", "ios": "https://dc.lft.to/lastmile_qr_scan"}, "lat": 38.96215883333333, "is_disabled": 0, "lon": -77.026265}, {"fusion_lat": 0.0, "type": "electric_scooter", "name": "5133fd98d3e0743efb13fc6d1d5cfa5d", "fusion_lon": 0.0, "bike_id": "5133fd98d3e0743efb13fc6d1d5cfa5d", "is_reserved": 0, "rental_uris": {"android": "https://dc.lft.to/lastmile_qr_scan", "ios": "https://dc.lft.to/lastmile_qr_scan"}, "lat": 38.884583666666664, "is_disabled": 0, "lon": -76.92624}, {"fusion_lat": 0.0, "type": "electric_bike", "name": "d5fbd64128f78700bcc9db1db6c4f2e7", "fusion_lon": 0.0, "bike_id": "d5fbd64128f78700bcc9db1db6c4f2e7", "is_reserved": 0, "rental_uris": {"android": "https://dc.lft.to/lastmile_qr_scan", "ios": "https://dc.lft.to/lastmile_qr_scan"}, "lat": 38.938704666666666, "is_disabled": 0, "lon": -76.94292916666667}, {"fusion_lat": 0.0, "type": "electric_scooter", "name": "3c950e1896af19680e08cac382eff627", "fusion_lon": 0.0, "bike_id": "3c950e1896af19680e08cac382eff627", "is_reserved": 0, "rental_uris": {"android": "https://dc.lft.to/lastmile_qr_scan", "ios": "https://dc.lft.to/lastmile_qr_scan"}, "lat": 38.92138766666667, "is_disabled": 0, "lon": -77.02873633333333}, {"fusion_lat": 0.0, "type": "electric_scooter", "name": "c1ed23bb905fa04a74e5c9bfb59427ae", "fusion_lon": 0.0, "bike_id": "c1ed23bb905fa04a74e5c9bfb59427ae", "is_reserved": 0, "rental_uris": {"android": "https://dc.lft.to/lastmile_qr_scan", "ios": "https://dc.lft.to/lastmile_qr_scan"}, "lat": 38.927338166666665, "is_disabled": 0, "lon": -77.05253716666667}, {"fusion_lat": 0.0, "type": "electric_scooter", "name": "2c922db50f08715dde7cddb4a3a373c3", "fusion_lon": 0.0, "bike_id": "2c922db50f08715dde7cddb4a3a373c3", "is_reserved": 0, "rental_uris": {"android": "https://dc.lft.to/lastmile_qr_scan", "ios": "https://dc.lft.to/lastmile_qr_scan"}, "lat": 38.92332283333333, "is_disabled": 0, "lon": -77.0211855}, {"fusion_lat": 0.0, "type": "electric_scooter", "name": "8ec80877f0dfa6ddc58022a3ceffb394", "fusion_lon": 0.0, "bike_id": "8ec80877f0dfa6ddc58022a3ceffb394", "is_reserved": 0, "rental_uris": {"android": "https://dc.lft.to/lastmile_qr_scan", "ios": "https://dc.lft.to/lastmile_qr_scan"}, "lat": 38.923636333333334, "is_disabled": 0, "lon": -77.0505025}, {"fusion_lat": 0.0, "type": "electric_scooter", "name": "1bbdf5861b26c0fc190beea144452b65", "fusion_lon": 0.0, "bike_id": "1bbdf5861b26c0fc190beea144452b65", "is_reserved": 0, "rental_uris": {"android": "https://dc.lft.to/lastmile_qr_scan", "ios": "https://dc.lft.to/lastmile_qr_scan"}, "lat": 38.898947166666666, "is_disabled": 0, "lon": -77.03932316666666}, {"fusion_lat": 0.0, "type": "electric_scooter", "name": "b3cb44fdee6c5b4003e0ed3c5e8d8fcd", "fusion_lon": 0.0, "bike_id": "b3cb44fdee6c5b4003e0ed3c5e8d8fcd", "is_reserved": 0, "rental_uris": {"android": "https://dc.lft.to/lastmile_qr_scan", "ios": "https://dc.lft.to/lastmile_qr_scan"}, "lat": 38.891754666666664, "is_disabled": 0, "lon": -76.990282}, {"fusion_lat": 0.0, "type": "electric_scooter", "name": "55129ae215cfc01d38c292bd6d38c37c", "fusion_lon": 0.0, "bike_id": "55129ae215cfc01d38c292bd6d38c37c", "is_reserved": 0, "rental_uris": {"android": "https://dc.lft.to/lastmile_qr_scan", "ios": "https://dc.lft.to/lastmile_qr_scan"}, "lat": 38.93455266666667, "is_disabled": 0, "lon": -77.02217233333333}, {"fusion_lat": 0.0, "type": "electric_bike", "name": "a4ab87dabb7320ca938cc2e67f9786cc", "fusion_lon": 0.0, "bike_id": "a4ab87dabb7320ca938cc2e67f9786cc", "is_reserved": 0, "rental_uris": {"android": "https://dc.lft.to/lastmile_qr_scan", "ios": "https://dc.lft.to/lastmile_qr_scan"}, "lat": 38.959581, "is_disabled": 0, "lon": -77.1009165}, {"fusion_lat": 0.0, "type": "electric_scooter", "name": "de994704b5ca320a4547e56eb70e283a", "fusion_lon": 0.0, "bike_id": "de994704b5ca320a4547e56eb70e283a", "is_reserved": 0, "rental_uris": {"android": "https://dc.lft.to/lastmile_qr_scan", "ios": "https://dc.lft.to/lastmile_qr_scan"}, "lat": 38.93378516666667, "is_disabled": 0, "lon": -77.0355755}, {"fusion_lat": 0.0, "type": "electric_scooter", "name": "2c824be51d85260f2a1e9172222084cc", "fusion_lon": 0.0, "bike_id": "2c824be51d85260f2a1e9172222084cc", "is_reserved": 0, "rental_uris": {"android": "https://dc.lft.to/lastmile_qr_scan", "ios": "https://dc.lft.to/lastmile_qr_scan"}, "lat": 38.907359666666665, "is_disabled": 0, "lon": -77.02693416666666}, {"fusion_lat": 0.0, "type": "electric_scooter", "name": "320e21634147ad256832c04c928cf353", "fusion_lon": 0.0, "bike_id": "320e21634147ad256832c04c928cf353", "is_reserved": 0, "rental_uris": {"android": "https://dc.lft.to/lastmile_qr_scan", "ios": "https://dc.lft.to/lastmile_qr_scan"}, "lat": 38.92787, "is_disabled": 0, "lon": -77.05266433333334}, {"fusion_lat": 0.0, "type": "electric_scooter", "name": "41df6823b20b5731a592c713230f7ffb", "fusion_lon": 0.0, "bike_id": "41df6823b20b5731a592c713230f7ffb", "is_reserved": 0, "rental_uris": {"android": "https://dc.lft.to/lastmile_qr_scan", "ios": "https://dc.lft.to/lastmile_qr_scan"}, "lat": 38.91871166666667, "is_disabled": 0, "lon": -77.0347715}, {"fusion_lat": 0.0, "type": "electric_scooter", "name": "21b62fd51d38d03523a251cf41c5260a", "fusion_lon": 0.0, "bike_id": "21b62fd51d38d03523a251cf41c5260a", "is_reserved": 0, "rental_uris": {"android": "https://dc.lft.to/lastmile_qr_scan", "ios": "https://dc.lft.to/lastmile_qr_scan"}, "lat": 38.90415566666667, "is_disabled": 0, "lon": -77.02941283333334}, {"fusion_lat": 0.0, "type": "electric_scooter", "name": "46c2407eeceeafe12444c70ce69944ab", "fusion_lon": 0.0, "bike_id": "46c2407eeceeafe12444c70ce69944ab", "is_reserved": 0, "rental_uris": {"android": "https://dc.lft.to/lastmile_qr_scan", "ios": "https://dc.lft.to/lastmile_qr_scan"}, "lat": 38.880844333333336, "is_disabled": 0, "lon": -76.93005266666667}, {"fusion_lat": 0.0, "type": "electric_scooter", "name": "1c464e8e90ac7bd16e129693050050a5", "fusion_lon": 0.0, "bike_id": "1c464e8e90ac7bd16e129693050050a5", "is_reserved": 0, "rental_uris": {"android": "https://dc.lft.to/lastmile_qr_scan", "ios": "https://dc.lft.to/lastmile_qr_scan"}, "lat": 38.929152333333334, "is_disabled": 0, "lon": -77.020912}, {"fusion_lat": 0.0, "type": "electric_scooter", "name": "de01aade93038cf092159e51c285d57d", "fusion_lon": 0.0, "bike_id": "de01aade93038cf092159e51c285d57d", "is_reserved": 0, "rental_uris": {"android": "https://dc.lft.to/lastmile_qr_scan", "ios": "https://dc.lft.to/lastmile_qr_scan"}, "lat": 38.92900366666667, "is_disabled": 0, "lon": -77.05456133333334}, {"fusion_lat": 0.0, "type": "electric_scooter", "name": "6a691cfa55b8d97d12d18a54d8d2678e", "fusion_lon": 0.0, "bike_id": "6a691cfa55b8d97d12d18a54d8d2678e", "is_reserved": 0, "rental_uris": {"android": "https://dc.lft.to/lastmile_qr_scan", "ios": "https://dc.lft.to/lastmile_qr_scan"}, "lat": 38.91123233333333, "is_disabled": 0, "lon": -77.06523266666666}, {"fusion_lat": 0.0, "type": "electric_scooter", "name": "415136fa829ce49f14c6322c3fccc0c7", "fusion_lon": 0.0, "bike_id": "415136fa829ce49f14c6322c3fccc0c7", "is_reserved": 0, "rental_uris": {"android": "https://dc.lft.to/lastmile_qr_scan", "ios": "https://dc.lft.to/lastmile_qr_scan"}, "lat": 38.918095666666666, "is_disabled": 0, "lon": -77.03175683333333}, {"fusion_lat": 0.0, "type": "electric_scooter", "name": "6ff914e2c5b8c059fe2d037d45e8f300", "fusion_lon": 0.0, "bike_id": "6ff914e2c5b8c059fe2d037d45e8f300", "is_reserved": 0, "rental_uris": {"android": "https://dc.lft.to/lastmile_qr_scan", "ios": "https://dc.lft.to/lastmile_qr_scan"}, "lat": 38.900014166666665, "is_disabled": 0, "lon": -77.021584}, {"fusion_lat": 0.0, "type": "electric_scooter", "name": "c7a4e13502d1201f617425da44b5902e", "fusion_lon": 0.0, "bike_id": "c7a4e13502d1201f617425da44b5902e", "is_reserved": 0, "rental_uris": {"android": "https://dc.lft.to/lastmile_qr_scan", "ios": "https://dc.lft.to/lastmile_qr_scan"}, "lat": 38.851956, "is_disabled": 0, "lon": -76.9707645}, {"fusion_lat": 0.0, "type": "electric_scooter", "name": "a8038ae0efb4452fc81375b1baf74aeb", "fusion_lon": 0.0, "bike_id": "a8038ae0efb4452fc81375b1baf74aeb", "is_reserved": 0, "rental_uris": {"android": "https://dc.lft.to/lastmile_qr_scan", "ios": "https://dc.lft.to/lastmile_qr_scan"}, "lat": 38.89567066666667, "is_disabled": 0, "lon": -77.046818}, {"fusion_lat": 0.0, "type": "electric_bike", "name": "f74ff401af585bece9f9952ce6fb64e0", "fusion_lon": 0.0, "bike_id": "f74ff401af585bece9f9952ce6fb64e0", "is_reserved": 0, "rental_uris": {"android": "https://dc.lft.to/lastmile_qr_scan", "ios": "https://dc.lft.to/lastmile_qr_scan"}, "lat": 38.89810383333333, "is_disabled": 0, "lon": -76.99091766666666}, {"fusion_lat": 0.0, "type": "electric_scooter", "name": "312ee3cdf3f6b91dafffc6fee7ab1470", "fusion_lon": 0.0, "bike_id": "312ee3cdf3f6b91dafffc6fee7ab1470", "is_reserved": 0, "rental_uris": {"android": "https://dc.lft.to/lastmile_qr_scan", "ios": "https://dc.lft.to/lastmile_qr_scan"}, "lat": 38.892274666666665, "is_disabled": 0, "lon": -77.03183383333334}, {"fusion_lat": 0.0, "type": "electric_scooter", "name": "ce13ef073f5a41b5a7d3feba8ff3e093", "fusion_lon": 0.0, "bike_id": "ce13ef073f5a41b5a7d3feba8ff3e093", "is_reserved": 0, "rental_uris": {"android": "https://dc.lft.to/lastmile_qr_scan", "ios": "https://dc.lft.to/lastmile_qr_scan"}, "lat": 38.901534, "is_disabled": 0, "lon": -76.99027566666666}, {"fusion_lat": 0.0, "type": "electric_scooter", "name": "c0729965730f0e4b07b39da16e206126", "fusion_lon": 0.0, "bike_id": "c0729965730f0e4b07b39da16e206126", "is_reserved": 0, "rental_uris": {"android": "https://dc.lft.to/lastmile_qr_scan", "ios": "https://dc.lft.to/lastmile_qr_scan"}, "lat": 38.90179, "is_disabled": 0, "lon": -76.98063216666667}, {"fusion_lat": 0.0, "type": "electric_scooter", "name": "5716bb86bfc3f8ebf07f9713484c8e87", "fusion_lon": 0.0, "bike_id": "5716bb86bfc3f8ebf07f9713484c8e87", "is_reserved": 0, "rental_uris": {"android": "https://dc.lft.to/lastmile_qr_scan", "ios": "https://dc.lft.to/lastmile_qr_scan"}, "lat": 38.903935833333335, "is_disabled": 0, "lon": -77.06268733333333}, {"fusion_lat": 0.0, "type": "electric_scooter", "name": "6d6349a2ff4aad1d28fcd5ae7844df5c", "fusion_lon": 0.0, "bike_id": "6d6349a2ff4aad1d28fcd5ae7844df5c", "is_reserved": 0, "rental_uris": {"android": "https://dc.lft.to/lastmile_qr_scan", "ios": "https://dc.lft.to/lastmile_qr_scan"}, "lat": 38.91741833333333, "is_disabled": 0, "lon": -77.03188483333334}, {"fusion_lat": 0.0, "type": "electric_scooter", "name": "df0e506462e8bc5d0ac384f494f7a74d", "fusion_lon": 0.0, "bike_id": "df0e506462e8bc5d0ac384f494f7a74d", "is_reserved": 0, "rental_uris": {"android": "https://dc.lft.to/lastmile_qr_scan", "ios": "https://dc.lft.to/lastmile_qr_scan"}, "lat": 38.909814833333336, "is_disabled": 0, "lon": -77.02393116666667}, {"fusion_lat": 0.0, "type": "electric_scooter", "name": "93e39cd032aeb9aa14cd7f2033c3faed", "fusion_lon": 0.0, "bike_id": "93e39cd032aeb9aa14cd7f2033c3faed", "is_reserved": 0, "rental_uris": {"android": "https://dc.lft.to/lastmile_qr_scan", "ios": "https://dc.lft.to/lastmile_qr_scan"}, "lat": 38.913200333333336, "is_disabled": 0, "lon": -77.01466483333333}, {"fusion_lat": 0.0, "type": "electric_bike", "name": "8da071005bb82b5d4c1106da227371c5", "fusion_lon": 0.0, "bike_id": "8da071005bb82b5d4c1106da227371c5", "is_reserved": 0, "rental_uris": {"android": "https://dc.lft.to/lastmile_qr_scan", "ios": "https://dc.lft.to/lastmile_qr_scan"}, "lat": 38.968133, "is_disabled": 0, "lon": -77.000346}, {"fusion_lat": 0.0, "type": "electric_scooter", "name": "383b4a3547ac99f72e69f565105ab494", "fusion_lon": 0.0, "bike_id": "383b4a3547ac99f72e69f565105ab494", "is_reserved": 0, "rental_uris": {"android": "https://dc.lft.to/lastmile_qr_scan", "ios": "https://dc.lft.to/lastmile_qr_scan"}, "lat": 38.90243316666667, "is_disabled": 0, "lon": -77.01949033333334}, {"fusion_lat": 0.0, "type": "electric_scooter", "name": "fd90709659a18e67e1e547c363d7fba9", "fusion_lon": 0.0, "bike_id": "fd90709659a18e67e1e547c363d7fba9", "is_reserved": 0, "rental_uris": {"android": "https://dc.lft.to/lastmile_qr_scan", "ios": "https://dc.lft.to/lastmile_qr_scan"}, "lat": 38.8935065, "is_disabled": 0, "lon": -77.0116815}, {"fusion_lat": 0.0, "type": "electric_scooter", "name": "ffb92b75be173e8a6b89f91d2e549a6a", "fusion_lon": 0.0, "bike_id": "ffb92b75be173e8a6b89f91d2e549a6a", "is_reserved": 0, "rental_uris": {"android": "https://dc.lft.to/lastmile_qr_scan", "ios": "https://dc.lft.to/lastmile_qr_scan"}, "lat": 38.91075583333333, "is_disabled": 0, "lon": -77.03704616666667}, {"fusion_lat": 0.0, "type": "electric_scooter", "name": "0211dcfd91e1abbb33767281ff1166bb", "fusion_lon": 0.0, "bike_id": "0211dcfd91e1abbb33767281ff1166bb", "is_reserved": 0, "rental_uris": {"android": "https://dc.lft.to/lastmile_qr_scan", "ios": "https://dc.lft.to/lastmile_qr_scan"}, "lat": 38.88735833333333, "is_disabled": 0, "lon": -77.02581183333334}, {"fusion_lat": 0.0, "type": "electric_scooter", "name": "24c9d9a5182ee4a0ff0097afc67242f9", "fusion_lon": 0.0, "bike_id": "24c9d9a5182ee4a0ff0097afc67242f9", "is_reserved": 0, "rental_uris": {"android": "https://dc.lft.to/lastmile_qr_scan", "ios": "https://dc.lft.to/lastmile_qr_scan"}, "lat": 38.892262833333334, "is_disabled": 0, "lon": -77.03188916666667}, {"fusion_lat": 0.0, "type": "electric_scooter", "name": "78b153228538e94bf67b0270809398a8", "fusion_lon": 0.0, "bike_id": "78b153228538e94bf67b0270809398a8", "is_reserved": 0, "rental_uris": {"android": "https://dc.lft.to/lastmile_qr_scan", "ios": "https://dc.lft.to/lastmile_qr_scan"}, "lat": 38.900161, "is_disabled": 0, "lon": -76.9843395}, {"fusion_lat": 0.0, "type": "electric_scooter", "name": "8ef523ca261a999d7aefeaabb4afb5b1", "fusion_lon": 0.0, "bike_id": "8ef523ca261a999d7aefeaabb4afb5b1", "is_reserved": 0, "rental_uris": {"android": "https://dc.lft.to/lastmile_qr_scan", "ios": "https://dc.lft.to/lastmile_qr_scan"}, "lat": 38.9228725, "is_disabled": 0, "lon": -77.03893016666666}, {"fusion_lat": 0.0, "type": "electric_scooter", "name": "a5ba143f447bf01530ee52ac9b15a691", "fusion_lon": 0.0, "bike_id": "a5ba143f447bf01530ee52ac9b15a691", "is_reserved": 0, "rental_uris": {"android": "https://dc.lft.to/lastmile_qr_scan", "ios": "https://dc.lft.to/lastmile_qr_scan"}, "lat": 38.87470366666667, "is_disabled": 0, "lon": -77.01131666666667}, {"fusion_lat": 0.0, "type": "electric_scooter", "name": "f70d680c754296f9d5f538ba8fece99d", "fusion_lon": 0.0, "bike_id": "f70d680c754296f9d5f538ba8fece99d", "is_reserved": 0, "rental_uris": {"android": "https://dc.lft.to/lastmile_qr_scan", "ios": "https://dc.lft.to/lastmile_qr_scan"}, "lat": 38.876570666666666, "is_disabled": 0, "lon": -76.99451266666667}, {"fusion_lat": 0.0, "type": "electric_scooter", "name": "71847c099a152b81a52fcb7d2c630d5b", "fusion_lon": 0.0, "bike_id": "71847c099a152b81a52fcb7d2c630d5b", "is_reserved": 0, "rental_uris": {"android": "https://dc.lft.to/lastmile_qr_scan", "ios": "https://dc.lft.to/lastmile_qr_scan"}, "lat": 38.90481916666667, "is_disabled": 0, "lon": -77.00734533333333}, {"fusion_lat": 0.0, "type": "electric_bike", "name": "f667403bba5879a6da97ebce5b808523", "fusion_lon": 0.0, "bike_id": "f667403bba5879a6da97ebce5b808523", "is_reserved": 0, "rental_uris": {"android": "https://dc.lft.to/lastmile_qr_scan", "ios": "https://dc.lft.to/lastmile_qr_scan"}, "lat": 38.922119333333335, "is_disabled": 0, "lon": -77.08190533333334}, {"fusion_lat": 0.0, "type": "electric_scooter", "name": "d7eedc9dac007017986b7aa7d964ef1d", "fusion_lon": 0.0, "bike_id": "d7eedc9dac007017986b7aa7d964ef1d", "is_reserved": 0, "rental_uris": {"android": "https://dc.lft.to/lastmile_qr_scan", "ios": "https://dc.lft.to/lastmile_qr_scan"}, "lat": 38.911196333333336, "is_disabled": 0, "lon": -77.04368916666667}, {"fusion_lat": 0.0, "type": "electric_scooter", "name": "a68b50394ed6a4ac5fede7fabf0b7b84", "fusion_lon": 0.0, "bike_id": "a68b50394ed6a4ac5fede7fabf0b7b84", "is_reserved": 0, "rental_uris": {"android": "https://dc.lft.to/lastmile_qr_scan", "ios": "https://dc.lft.to/lastmile_qr_scan"}, "lat": 38.94904283333334, "is_disabled": 0, "lon": -77.006481}, {"fusion_lat": 0.0, "type": "electric_scooter", "name": "c49a70cb262c385b9c46eaf318d0cebf", "fusion_lon": 0.0, "bike_id": "c49a70cb262c385b9c46eaf318d0cebf", "is_reserved": 0, "rental_uris": {"android": "https://dc.lft.to/lastmile_qr_scan", "ios": "https://dc.lft.to/lastmile_qr_scan"}, "lat": 38.900096166666664, "is_disabled": 0, "lon": -77.01847566666666}, {"fusion_lat": 0.0, "type": "electric_scooter", "name": "f267593797d087c6bb7639ae0a5646f4", "fusion_lon": 0.0, "bike_id": "f267593797d087c6bb7639ae0a5646f4", "is_reserved": 0, "rental_uris": {"android": "https://dc.lft.to/lastmile_qr_scan", "ios": "https://dc.lft.to/lastmile_qr_scan"}, "lat": 38.89220816666667, "is_disabled": 0, "lon": -77.02351183333333}, {"fusion_lat": 0.0, "type": "electric_scooter", "name": "d5074eb0235c7ff4c5ece59de2a45f24", "fusion_lon": 0.0, "bike_id": "d5074eb0235c7ff4c5ece59de2a45f24", "is_reserved": 0, "rental_uris": {"android": "https://dc.lft.to/lastmile_qr_scan", "ios": "https://dc.lft.to/lastmile_qr_scan"}, "lat": 38.90764083333333, "is_disabled": 0, "lon": -76.99303766666667}, {"fusion_lat": 0.0, "type": "electric_scooter", "name": "615800a1674f96713c55b46d540e848f", "fusion_lon": 0.0, "bike_id": "615800a1674f96713c55b46d540e848f", "is_reserved": 0, "rental_uris": {"android": "https://dc.lft.to/lastmile_qr_scan", "ios": "https://dc.lft.to/lastmile_qr_scan"}, "lat": 38.918767, "is_disabled": 0, "lon": -77.03762666666667}, {"fusion_lat": 0.0, "type": "electric_scooter", "name": "e558757a40529d516f449e352b456500", "fusion_lon": 0.0, "bike_id": "e558757a40529d516f449e352b456500", "is_reserved": 0, "rental_uris": {"android": "https://dc.lft.to/lastmile_qr_scan", "ios": "https://dc.lft.to/lastmile_qr_scan"}, "lat": 38.920051, "is_disabled": 0, "lon": -77.02373816666666}, {"fusion_lat": 0.0, "type": "electric_scooter", "name": "0f7763cc36de41b66a217d224592b7d6", "fusion_lon": 0.0, "bike_id": "0f7763cc36de41b66a217d224592b7d6", "is_reserved": 0, "rental_uris": {"android": "https://dc.lft.to/lastmile_qr_scan", "ios": "https://dc.lft.to/lastmile_qr_scan"}, "lat": 38.8571705, "is_disabled": 0, "lon": -76.98933466666666}, {"fusion_lat": 0.0, "type": "electric_scooter", "name": "63450aae6cf71b63e098d40b3048aca2", "fusion_lon": 0.0, "bike_id": "63450aae6cf71b63e098d40b3048aca2", "is_reserved": 0, "rental_uris": {"android": "https://dc.lft.to/lastmile_qr_scan", "ios": "https://dc.lft.to/lastmile_qr_scan"}, "lat": 38.88744666666667, "is_disabled": 0, "lon": -77.02737166666667}, {"fusion_lat": 0.0, "type": "electric_scooter", "name": "176e62266564fcfd59b3008ec479b93d", "fusion_lon": 0.0, "bike_id": "176e62266564fcfd59b3008ec479b93d", "is_reserved": 0, "rental_uris": {"android": "https://dc.lft.to/lastmile_qr_scan", "ios": "https://dc.lft.to/lastmile_qr_scan"}, "lat": 38.898158333333335, "is_disabled": 0, "lon": -77.032936}, {"fusion_lat": 0.0, "type": "electric_scooter", "name": "4b123df754e94c5c495aeecadb3ca74b", "fusion_lon": 0.0, "bike_id": "4b123df754e94c5c495aeecadb3ca74b", "is_reserved": 0, "rental_uris": {"android": "https://dc.lft.to/lastmile_qr_scan", "ios": "https://dc.lft.to/lastmile_qr_scan"}, "lat": 38.87782166666667, "is_disabled": 0, "lon": -76.99356983333334}, {"fusion_lat": 0.0, "type": "electric_scooter", "name": "114ef509d0b4c9a8c356ac38cdc8e019", "fusion_lon": 0.0, "bike_id": "114ef509d0b4c9a8c356ac38cdc8e019", "is_reserved": 0, "rental_uris": {"android": "https://dc.lft.to/lastmile_qr_scan", "ios": "https://dc.lft.to/lastmile_qr_scan"}, "lat": 38.92474633333333, "is_disabled": 0, "lon": -77.029884}, {"fusion_lat": 0.0, "type": "electric_scooter", "name": "c7fd22c060144a014d3c2b6a80fe281c", "fusion_lon": 0.0, "bike_id": "c7fd22c060144a014d3c2b6a80fe281c", "is_reserved": 0, "rental_uris": {"android": "https://dc.lft.to/lastmile_qr_scan", "ios": "https://dc.lft.to/lastmile_qr_scan"}, "lat": 38.91707866666667, "is_disabled": 0, "lon": -77.03417966666666}, {"fusion_lat": 0.0, "type": "electric_scooter", "name": "f0250ca6a26f1d688110c02611dfff0a", "fusion_lon": 0.0, "bike_id": "f0250ca6a26f1d688110c02611dfff0a", "is_reserved": 0, "rental_uris": {"android": "https://dc.lft.to/lastmile_qr_scan", "ios": "https://dc.lft.to/lastmile_qr_scan"}, "lat": 38.893669, "is_disabled": 0, "lon": -76.94980783333334}, {"fusion_lat": 0.0, "type": "electric_scooter", "name": "ffcc5ae24b8f6a9bf9d08506666f7884", "fusion_lon": 0.0, "bike_id": "ffcc5ae24b8f6a9bf9d08506666f7884", "is_reserved": 0, "rental_uris": {"android": "https://dc.lft.to/lastmile_qr_scan", "ios": "https://dc.lft.to/lastmile_qr_scan"}, "lat": 38.8991415, "is_disabled": 0, "lon": -76.9336615}, {"fusion_lat": 0.0, "type": "electric_scooter", "name": "1f86aad460caa1d00b205163f4ce1573", "fusion_lon": 0.0, "bike_id": "1f86aad460caa1d00b205163f4ce1573", "is_reserved": 0, "rental_uris": {"android": "https://dc.lft.to/lastmile_qr_scan", "ios": "https://dc.lft.to/lastmile_qr_scan"}, "lat": 38.93571716666667, "is_disabled": 0, "lon": -77.021234}, {"fusion_lat": 0.0, "type": "electric_scooter", "name": "514fae65d01457c28dd1d3c5811ec946", "fusion_lon": 0.0, "bike_id": "514fae65d01457c28dd1d3c5811ec946", "is_reserved": 0, "rental_uris": {"android": "https://dc.lft.to/lastmile_qr_scan", "ios": "https://dc.lft.to/lastmile_qr_scan"}, "lat": 38.92142316666666, "is_disabled": 0, "lon": -77.03503316666666}, {"fusion_lat": 0.0, "type": "electric_bike", "name": "bff7509605731b85c9eb8ae1b9643095", "fusion_lon": 0.0, "bike_id": "bff7509605731b85c9eb8ae1b9643095", "is_reserved": 0, "rental_uris": {"android": "https://dc.lft.to/lastmile_qr_scan", "ios": "https://dc.lft.to/lastmile_qr_scan"}, "lat": 38.94668333333333, "is_disabled": 0, "lon": -76.98314666666667}, {"fusion_lat": 0.0, "type": "electric_scooter", "name": "94863f963a460b50093e10d92df74def", "fusion_lon": 0.0, "bike_id": "94863f963a460b50093e10d92df74def", "is_reserved": 0, "rental_uris": {"android": "https://dc.lft.to/lastmile_qr_scan", "ios": "https://dc.lft.to/lastmile_qr_scan"}, "lat": 38.90781916666667, "is_disabled": 0, "lon": -77.04510366666666}, {"fusion_lat": 0.0, "type": "electric_scooter", "name": "ed2ffbf387e66faf722e923deceaee1a", "fusion_lon": 0.0, "bike_id": "ed2ffbf387e66faf722e923deceaee1a", "is_reserved": 0, "rental_uris": {"android": "https://dc.lft.to/lastmile_qr_scan", "ios": "https://dc.lft.to/lastmile_qr_scan"}, "lat": 38.887188333333334, "is_disabled": 0, "lon": -77.02199866666666}, {"fusion_lat": 0.0, "type": "electric_scooter", "name": "6a3ba43572f429eb62400785e3e1bd01", "fusion_lon": 0.0, "bike_id": "6a3ba43572f429eb62400785e3e1bd01", "is_reserved": 0, "rental_uris": {"android": "https://dc.lft.to/lastmile_qr_scan", "ios": "https://dc.lft.to/lastmile_qr_scan"}, "lat": 38.93462866666667, "is_disabled": 0, "lon": -77.02772933333334}, {"fusion_lat": 0.0, "type": "electric_bike", "name": "d228bae718423aca78ab7f71d21bf3eb", "fusion_lon": 0.0, "bike_id": "d228bae718423aca78ab7f71d21bf3eb", "is_reserved": 0, "rental_uris": {"android": "https://dc.lft.to/lastmile_qr_scan", "ios": "https://dc.lft.to/lastmile_qr_scan"}, "lat": 38.852075, "is_disabled": 0, "lon": -77.10128766666666}, {"fusion_lat": 0.0, "type": "electric_scooter", "name": "651fcdde65b51c2442afd3352cf3b1ef", "fusion_lon": 0.0, "bike_id": "651fcdde65b51c2442afd3352cf3b1ef", "is_reserved": 0, "rental_uris": {"android": "https://dc.lft.to/lastmile_qr_scan", "ios": "https://dc.lft.to/lastmile_qr_scan"}, "lat": 38.904101, "is_disabled": 0, "lon": -77.02980666666667}, {"fusion_lat": 0.0, "type": "electric_scooter", "name": "d566d80a630958bc591a9aa5b8fdc19f", "fusion_lon": 0.0, "bike_id": "d566d80a630958bc591a9aa5b8fdc19f", "is_reserved": 0, "rental_uris": {"android": "https://dc.lft.to/lastmile_qr_scan", "ios": "https://dc.lft.to/lastmile_qr_scan"}, "lat": 38.9562365, "is_disabled": 0, "lon": -77.0245715}, {"fusion_lat": 0.0, "type": "electric_scooter", "name": "beafd833299a8d82d07e8e45a71653f9", "fusion_lon": 0.0, "bike_id": "beafd833299a8d82d07e8e45a71653f9", "is_reserved": 0, "rental_uris": {"android": "https://dc.lft.to/lastmile_qr_scan", "ios": "https://dc.lft.to/lastmile_qr_scan"}, "lat": 38.90639566666667, "is_disabled": 0, "lon": -77.01140833333334}, {"fusion_lat": 0.0, "type": "electric_scooter", "name": "72f234b2557876bbb43efdf3dc51e7c9", "fusion_lon": 0.0, "bike_id": "72f234b2557876bbb43efdf3dc51e7c9", "is_reserved": 0, "rental_uris": {"android": "https://dc.lft.to/lastmile_qr_scan", "ios": "https://dc.lft.to/lastmile_qr_scan"}, "lat": 38.91188566666667, "is_disabled": 0, "lon": -77.04131183333334}, {"fusion_lat": 0.0, "type": "electric_scooter", "name": "30d103b94c5ed31390f5f6fddaabe126", "fusion_lon": 0.0, "bike_id": "30d103b94c5ed31390f5f6fddaabe126", "is_reserved": 0, "rental_uris": {"android": "https://dc.lft.to/lastmile_qr_scan", "ios": "https://dc.lft.to/lastmile_qr_scan"}, "lat": 38.89885616666667, "is_disabled": 0, "lon": -77.0257505}, {"fusion_lat": 0.0, "type": "electric_scooter", "name": "6ed79f9bd8ba049ed536fd32edd563ad", "fusion_lon": 0.0, "bike_id": "6ed79f9bd8ba049ed536fd32edd563ad", "is_reserved": 0, "rental_uris": {"android": "https://dc.lft.to/lastmile_qr_scan", "ios": "https://dc.lft.to/lastmile_qr_scan"}, "lat": 38.9128595, "is_disabled": 0, "lon": -77.03848766666667}, {"fusion_lat": 0.0, "type": "electric_scooter", "name": "2775a9469e34d559416796d1f055b321", "fusion_lon": 0.0, "bike_id": "2775a9469e34d559416796d1f055b321", "is_reserved": 0, "rental_uris": {"android": "https://dc.lft.to/lastmile_qr_scan", "ios": "https://dc.lft.to/lastmile_qr_scan"}, "lat": 38.91213716666667, "is_disabled": 0, "lon": -77.03462616666667}, {"fusion_lat": 0.0, "type": "electric_scooter", "name": "569528d50e09c7083484432eaade06d6", "fusion_lon": 0.0, "bike_id": "569528d50e09c7083484432eaade06d6", "is_reserved": 0, "rental_uris": {"android": "https://dc.lft.to/lastmile_qr_scan", "ios": "https://dc.lft.to/lastmile_qr_scan"}, "lat": 38.874706833333335, "is_disabled": 0, "lon": -77.0051495}, {"fusion_lat": 0.0, "type": "electric_scooter", "name": "1c4c39c73edd2d8542ec9e3529923c2b", "fusion_lon": 0.0, "bike_id": "1c4c39c73edd2d8542ec9e3529923c2b", "is_reserved": 0, "rental_uris": {"android": "https://dc.lft.to/lastmile_qr_scan", "ios": "https://dc.lft.to/lastmile_qr_scan"}, "lat": 38.90248483333333, "is_disabled": 0, "lon": -77.00586583333333}, {"fusion_lat": 0.0, "type": "electric_scooter", "name": "866098df23ab7b8bd5e42ca5014ffd84", "fusion_lon": 0.0, "bike_id": "866098df23ab7b8bd5e42ca5014ffd84", "is_reserved": 0, "rental_uris": {"android": "https://dc.lft.to/lastmile_qr_scan", "ios": "https://dc.lft.to/lastmile_qr_scan"}, "lat": 38.90955966666667, "is_disabled": 0, "lon": -77.02718516666667}, {"fusion_lat": 0.0, "type": "electric_scooter", "name": "308bfc7a0de5bc645cb8afd8cd4869a4", "fusion_lon": 0.0, "bike_id": "308bfc7a0de5bc645cb8afd8cd4869a4", "is_reserved": 0, "rental_uris": {"android": "https://dc.lft.to/lastmile_qr_scan", "ios": "https://dc.lft.to/lastmile_qr_scan"}, "lat": 38.937566333333336, "is_disabled": 0, "lon": -77.02266133333333}, {"fusion_lat": 0.0, "type": "electric_scooter", "name": "84981b4d9bfc4bb7a61e087ac376b48a", "fusion_lon": 0.0, "bike_id": "84981b4d9bfc4bb7a61e087ac376b48a", "is_reserved": 0, "rental_uris": {"android": "https://dc.lft.to/lastmile_qr_scan", "ios": "https://dc.lft.to/lastmile_qr_scan"}, "lat": 38.92177383333333, "is_disabled": 0, "lon": -77.0422385}, {"fusion_lat": 0.0, "type": "electric_bike", "name": "80a9f260583f1842f344224b91f1b901", "fusion_lon": 0.0, "bike_id": "80a9f260583f1842f344224b91f1b901", "is_reserved": 0, "rental_uris": {"android": "https://dc.lft.to/lastmile_qr_scan", "ios": "https://dc.lft.to/lastmile_qr_scan"}, "lat": 38.855129166666664, "is_disabled": 0, "lon": -76.9842735}, {"fusion_lat": 0.0, "type": "electric_scooter", "name": "fb2a488c6ce3938917a74ef24873de7e", "fusion_lon": 0.0, "bike_id": "fb2a488c6ce3938917a74ef24873de7e", "is_reserved": 0, "rental_uris": {"android": "https://dc.lft.to/lastmile_qr_scan", "ios": "https://dc.lft.to/lastmile_qr_scan"}, "lat": 38.912554166666666, "is_disabled": 0, "lon": -77.044658}, {"fusion_lat": 0.0, "type": "electric_scooter", "name": "83fe6ab9440199bfe18630e16cabcde4", "fusion_lon": 0.0, "bike_id": "83fe6ab9440199bfe18630e16cabcde4", "is_reserved": 0, "rental_uris": {"android": "https://dc.lft.to/lastmile_qr_scan", "ios": "https://dc.lft.to/lastmile_qr_scan"}, "lat": 38.86356216666667, "is_disabled": 0, "lon": -76.99064983333334}, {"fusion_lat": 0.0, "type": "electric_scooter", "name": "7d7a4e76eb3851e72302c4e137dcad90", "fusion_lon": 0.0, "bike_id": "7d7a4e76eb3851e72302c4e137dcad90", "is_reserved": 0, "rental_uris": {"android": "https://dc.lft.to/lastmile_qr_scan", "ios": "https://dc.lft.to/lastmile_qr_scan"}, "lat": 38.930994166666665, "is_disabled": 0, "lon": -77.03635883333334}, {"fusion_lat": 0.0, "type": "electric_scooter", "name": "b6be2518ac2a86ead99f9f8cb6fbeff7", "fusion_lon": 0.0, "bike_id": "b6be2518ac2a86ead99f9f8cb6fbeff7", "is_reserved": 0, "rental_uris": {"android": "https://dc.lft.to/lastmile_qr_scan", "ios": "https://dc.lft.to/lastmile_qr_scan"}, "lat": 38.89291, "is_disabled": 0, "lon": -77.01227316666666}, {"fusion_lat": 0.0, "type": "electric_scooter", "name": "2c6829f102ffbba4730bb6dfa67ab98d", "fusion_lon": 0.0, "bike_id": "2c6829f102ffbba4730bb6dfa67ab98d", "is_reserved": 0, "rental_uris": {"android": "https://dc.lft.to/lastmile_qr_scan", "ios": "https://dc.lft.to/lastmile_qr_scan"}, "lat": 38.92246933333333, "is_disabled": 0, "lon": -77.02121016666666}, {"fusion_lat": 0.0, "type": "electric_bike", "name": "69c7439f512c7567dd1dc94453f9aaa4", "fusion_lon": 0.0, "bike_id": "69c7439f512c7567dd1dc94453f9aaa4", "is_reserved": 0, "rental_uris": {"android": "https://dc.lft.to/lastmile_qr_scan", "ios": "https://dc.lft.to/lastmile_qr_scan"}, "lat": 38.9423, "is_disabled": 0, "lon": -76.966182}, {"fusion_lat": 0.0, "type": "electric_scooter", "name": "9f10ac8174834510fbfdaebd733ea728", "fusion_lon": 0.0, "bike_id": "9f10ac8174834510fbfdaebd733ea728", "is_reserved": 0, "rental_uris": {"android": "https://dc.lft.to/lastmile_qr_scan", "ios": "https://dc.lft.to/lastmile_qr_scan"}, "lat": 38.87666016666667, "is_disabled": 0, "lon": -77.01985983333333}, {"fusion_lat": 0.0, "type": "electric_scooter", "name": "4442c35adf284771d8ae3b761c24882d", "fusion_lon": 0.0, "bike_id": "4442c35adf284771d8ae3b761c24882d", "is_reserved": 0, "rental_uris": {"android": "https://dc.lft.to/lastmile_qr_scan", "ios": "https://dc.lft.to/lastmile_qr_scan"}, "lat": 38.8872985, "is_disabled": 0, "lon": -77.02828566666666}, {"fusion_lat": 0.0, "type": "electric_scooter", "name": "729f11dda7c026d35f46952652d9dee6", "fusion_lon": 0.0, "bike_id": "729f11dda7c026d35f46952652d9dee6", "is_reserved": 0, "rental_uris": {"android": "https://dc.lft.to/lastmile_qr_scan", "ios": "https://dc.lft.to/lastmile_qr_scan"}, "lat": 38.86536316666667, "is_disabled": 0, "lon": -76.9870025}, {"fusion_lat": 0.0, "type": "electric_scooter", "name": "1aa47ae7e723101fe6565b9633adbe40", "fusion_lon": 0.0, "bike_id": "1aa47ae7e723101fe6565b9633adbe40", "is_reserved": 0, "rental_uris": {"android": "https://dc.lft.to/lastmile_qr_scan", "ios": "https://dc.lft.to/lastmile_qr_scan"}, "lat": 38.94199783333333, "is_disabled": 0, "lon": -77.025001}, {"fusion_lat": 0.0, "type": "electric_scooter", "name": "8060cc84da6f0771812b9eb4b2ab6c93", "fusion_lon": 0.0, "bike_id": "8060cc84da6f0771812b9eb4b2ab6c93", "is_reserved": 0, "rental_uris": {"android": "https://dc.lft.to/lastmile_qr_scan", "ios": "https://dc.lft.to/lastmile_qr_scan"}, "lat": 38.927498666666665, "is_disabled": 0, "lon": -77.03567366666667}, {"fusion_lat": 0.0, "type": "electric_scooter", "name": "c22dc753878c5d633f8f708a53dbadc5", "fusion_lon": 0.0, "bike_id": "c22dc753878c5d633f8f708a53dbadc5", "is_reserved": 0, "rental_uris": {"android": "https://dc.lft.to/lastmile_qr_scan", "ios": "https://dc.lft.to/lastmile_qr_scan"}, "lat": 38.921536833333334, "is_disabled": 0, "lon": -77.042108}, {"fusion_lat": 0.0, "type": "electric_scooter", "name": "b623b9c1df8010ef1333f0d942dad613", "fusion_lon": 0.0, "bike_id": "b623b9c1df8010ef1333f0d942dad613", "is_reserved": 0, "rental_uris": {"android": "https://dc.lft.to/lastmile_qr_scan", "ios": "https://dc.lft.to/lastmile_qr_scan"}, "lat": 38.86700783333333, "is_disabled": 0, "lon": -76.985931}, {"fusion_lat": 0.0, "type": "electric_scooter", "name": "e1d2476e6d3d92e2378c1ec9a29c9037", "fusion_lon": 0.0, "bike_id": "e1d2476e6d3d92e2378c1ec9a29c9037", "is_reserved": 0, "rental_uris": {"android": "https://dc.lft.to/lastmile_qr_scan", "ios": "https://dc.lft.to/lastmile_qr_scan"}, "lat": 38.92094316666667, "is_disabled": 0, "lon": -77.031686}, {"fusion_lat": 0.0, "type": "electric_scooter", "name": "235b8136722e867080478a806276341e", "fusion_lon": 0.0, "bike_id": "235b8136722e867080478a806276341e", "is_reserved": 0, "rental_uris": {"android": "https://dc.lft.to/lastmile_qr_scan", "ios": "https://dc.lft.to/lastmile_qr_scan"}, "lat": 38.91851116666667, "is_disabled": 0, "lon": -77.016721}, {"fusion_lat": 0.0, "type": "electric_bike", "name": "c91e9af32ec1e5ac9865b994451d62cd", "fusion_lon": 0.0, "bike_id": "c91e9af32ec1e5ac9865b994451d62cd", "is_reserved": 0, "rental_uris": {"android": "https://dc.lft.to/lastmile_qr_scan", "ios": "https://dc.lft.to/lastmile_qr_scan"}, "lat": 38.91013683333333, "is_disabled": 0, "lon": -77.22795016666667}, {"fusion_lat": 0.0, "type": "electric_scooter", "name": "71abddfacbcaa0bba369672e3c416b39", "fusion_lon": 0.0, "bike_id": "71abddfacbcaa0bba369672e3c416b39", "is_reserved": 0, "rental_uris": {"android": "https://dc.lft.to/lastmile_qr_scan", "ios": "https://dc.lft.to/lastmile_qr_scan"}, "lat": 38.900871333333335, "is_disabled": 0, "lon": -77.04778516666667}, {"fusion_lat": 0.0, "type": "electric_bike", "name": "d3c7a84fbee959f5733f5ddac33d1453", "fusion_lon": 0.0, "bike_id": "d3c7a84fbee959f5733f5ddac33d1453", "is_reserved": 0, "rental_uris": {"android": "https://dc.lft.to/lastmile_qr_scan", "ios": "https://dc.lft.to/lastmile_qr_scan"}, "lat": 38.87280033333333, "is_disabled": 0, "lon": -77.2331895}, {"fusion_lat": 0.0, "type": "electric_scooter", "name": "0756552be16f4b7d85bbc420cacf3408", "fusion_lon": 0.0, "bike_id": "0756552be16f4b7d85bbc420cacf3408", "is_reserved": 0, "rental_uris": {"android": "https://dc.lft.to/lastmile_qr_scan", "ios": "https://dc.lft.to/lastmile_qr_scan"}, "lat": 38.892198666666665, "is_disabled": 0, "lon": -77.02235283333333}, {"fusion_lat": 0.0, "type": "electric_scooter", "name": "563ccee58c44ca95b1e392c532588222", "fusion_lon": 0.0, "bike_id": "563ccee58c44ca95b1e392c532588222", "is_reserved": 0, "rental_uris": {"android": "https://dc.lft.to/lastmile_qr_scan", "ios": "https://dc.lft.to/lastmile_qr_scan"}, "lat": 38.919181333333334, "is_disabled": 0, "lon": -77.02416383333333}, {"fusion_lat": 0.0, "type": "electric_scooter", "name": "2c2a394f3b5ea9a1a24cb639ac46ea3b", "fusion_lon": 0.0, "bike_id": "2c2a394f3b5ea9a1a24cb639ac46ea3b", "is_reserved": 0, "rental_uris": {"android": "https://dc.lft.to/lastmile_qr_scan", "ios": "https://dc.lft.to/lastmile_qr_scan"}, "lat": 38.910529833333335, "is_disabled": 0, "lon": -77.04102566666667}, {"fusion_lat": 0.0, "type": "electric_scooter", "name": "a80468ced24d68a95bcd0680cce65ff2", "fusion_lon": 0.0, "bike_id": "a80468ced24d68a95bcd0680cce65ff2", "is_reserved": 0, "rental_uris": {"android": "https://dc.lft.to/lastmile_qr_scan", "ios": "https://dc.lft.to/lastmile_qr_scan"}, "lat": 38.909583833333336, "is_disabled": 0, "lon": -77.02203616666667}, {"fusion_lat": 0.0, "type": "electric_bike", "name": "6ac835ef6e0c9b69d39fdada040a7fca", "fusion_lon": 0.0, "bike_id": "6ac835ef6e0c9b69d39fdada040a7fca", "is_reserved": 0, "rental_uris": {"android": "https://dc.lft.to/lastmile_qr_scan", "ios": "https://dc.lft.to/lastmile_qr_scan"}, "lat": 39.05790366666667, "is_disabled": 0, "lon": -77.15022216666667}, {"fusion_lat": 0.0, "type": "electric_scooter", "name": "a8c0a2d4304156da0df038411d9c2a49", "fusion_lon": 0.0, "bike_id": "a8c0a2d4304156da0df038411d9c2a49", "is_reserved": 0, "rental_uris": {"android": "https://dc.lft.to/lastmile_qr_scan", "ios": "https://dc.lft.to/lastmile_qr_scan"}, "lat": 38.925514166666666, "is_disabled": 0, "lon": -77.02966716666667}, {"fusion_lat": 0.0, "type": "electric_scooter", "name": "4a4d4877ac7c6f563e8abf52fb6ba28c", "fusion_lon": 0.0, "bike_id": "4a4d4877ac7c6f563e8abf52fb6ba28c", "is_reserved": 0, "rental_uris": {"android": "https://dc.lft.to/lastmile_qr_scan", "ios": "https://dc.lft.to/lastmile_qr_scan"}, "lat": 38.914437166666666, "is_disabled": 0, "lon": -77.06710133333333}, {"fusion_lat": 0.0, "type": "electric_bike", "name": "6fe4f840819ec8b287c55bd31b5e9468", "fusion_lon": 0.0, "bike_id": "6fe4f840819ec8b287c55bd31b5e9468", "is_reserved": 0, "rental_uris": {"android": "https://dc.lft.to/lastmile_qr_scan", "ios": "https://dc.lft.to/lastmile_qr_scan"}, "lat": 38.93633333333333, "is_disabled": 0, "lon": -77.0333085}, {"fusion_lat": 0.0, "type": "electric_scooter", "name": "a498f7a4ec361b7685b71552cf5a6975", "fusion_lon": 0.0, "bike_id": "a498f7a4ec361b7685b71552cf5a6975", "is_reserved": 0, "rental_uris": {"android": "https://dc.lft.to/lastmile_qr_scan", "ios": "https://dc.lft.to/lastmile_qr_scan"}, "lat": 38.9215455, "is_disabled": 0, "lon": -77.03382183333333}, {"fusion_lat": 0.0, "type": "electric_scooter", "name": "da5026ebc06ca02e23b0bf3d6597719e", "fusion_lon": 0.0, "bike_id": "da5026ebc06ca02e23b0bf3d6597719e", "is_reserved": 0, "rental_uris": {"android": "https://dc.lft.to/lastmile_qr_scan", "ios": "https://dc.lft.to/lastmile_qr_scan"}, "lat": 38.89990616666667, "is_disabled": 0, "lon": -76.99485383333334}, {"fusion_lat": 0.0, "type": "electric_scooter", "name": "6ba6e77e662f9288e2b31244bfbc23b7", "fusion_lon": 0.0, "bike_id": "6ba6e77e662f9288e2b31244bfbc23b7", "is_reserved": 0, "rental_uris": {"android": "https://dc.lft.to/lastmile_qr_scan", "ios": "https://dc.lft.to/lastmile_qr_scan"}, "lat": 38.92455133333333, "is_disabled": 0, "lon": -77.05753333333334}, {"fusion_lat": 0.0, "type": "electric_scooter", "name": "07ea4b465c6220af247391b7d4a91e59", "fusion_lon": 0.0, "bike_id": "07ea4b465c6220af247391b7d4a91e59", "is_reserved": 0, "rental_uris": {"android": "https://dc.lft.to/lastmile_qr_scan", "ios": "https://dc.lft.to/lastmile_qr_scan"}, "lat": 38.9112565, "is_disabled": 0, "lon": -77.043662}, {"fusion_lat": 0.0, "type": "electric_scooter", "name": "3daded8551d95bd3a0473a8bb74d18ce", "fusion_lon": 0.0, "bike_id": "3daded8551d95bd3a0473a8bb74d18ce", "is_reserved": 0, "rental_uris": {"android": "https://dc.lft.to/lastmile_qr_scan", "ios": "https://dc.lft.to/lastmile_qr_scan"}, "lat": 38.91272516666667, "is_disabled": 0, "lon": -77.04747366666666}, {"fusion_lat": 0.0, "type": "electric_scooter", "name": "c1c970eaf3c22ed84c948ce8a6ce6f6f", "fusion_lon": 0.0, "bike_id": "c1c970eaf3c22ed84c948ce8a6ce6f6f", "is_reserved": 0, "rental_uris": {"android": "https://dc.lft.to/lastmile_qr_scan", "ios": "https://dc.lft.to/lastmile_qr_scan"}, "lat": 38.912703, "is_disabled": 0, "lon": -77.0441755}, {"fusion_lat": 0.0, "type": "electric_scooter", "name": "a8b5e09737a6e4017d2f0c283376bb67", "fusion_lon": 0.0, "bike_id": "a8b5e09737a6e4017d2f0c283376bb67", "is_reserved": 0, "rental_uris": {"android": "https://dc.lft.to/lastmile_qr_scan", "ios": "https://dc.lft.to/lastmile_qr_scan"}, "lat": 38.899132333333334, "is_disabled": 0, "lon": -76.93371416666666}, {"fusion_lat": 0.0, "type": "electric_scooter", "name": "3125c1c531e40e56b617cf7713acbcce", "fusion_lon": 0.0, "bike_id": "3125c1c531e40e56b617cf7713acbcce", "is_reserved": 0, "rental_uris": {"android": "https://dc.lft.to/lastmile_qr_scan", "ios": "https://dc.lft.to/lastmile_qr_scan"}, "lat": 38.919414, "is_disabled": 0, "lon": -77.00194566666667}, {"fusion_lat": 0.0, "type": "electric_scooter", "name": "6aede6b80ae5672d9a3d0998c81bc407", "fusion_lon": 0.0, "bike_id": "6aede6b80ae5672d9a3d0998c81bc407", "is_reserved": 0, "rental_uris": {"android": "https://dc.lft.to/lastmile_qr_scan", "ios": "https://dc.lft.to/lastmile_qr_scan"}, "lat": 38.9205635, "is_disabled": 0, "lon": -77.033446}, {"fusion_lat": 0.0, "type": "electric_bike", "name": "fe487d991db161819451771923f6d5b9", "fusion_lon": 0.0, "bike_id": "fe487d991db161819451771923f6d5b9", "is_reserved": 0, "rental_uris": {"android": "https://dc.lft.to/lastmile_qr_scan", "ios": "https://dc.lft.to/lastmile_qr_scan"}, "lat": 38.8543005, "is_disabled": 0, "lon": -77.12074933333334}, {"fusion_lat": 0.0, "type": "electric_scooter", "name": "2e3c0ccc9d4be148d584764e5f7df5e0", "fusion_lon": 0.0, "bike_id": "2e3c0ccc9d4be148d584764e5f7df5e0", "is_reserved": 0, "rental_uris": {"android": "https://dc.lft.to/lastmile_qr_scan", "ios": "https://dc.lft.to/lastmile_qr_scan"}, "lat": 38.92359483333333, "is_disabled": 0, "lon": -77.05048883333333}, {"fusion_lat": 0.0, "type": "electric_scooter", "name": "1e7b1dad8a04bb0cf564db040560405c", "fusion_lon": 0.0, "bike_id": "1e7b1dad8a04bb0cf564db040560405c", "is_reserved": 0, "rental_uris": {"android": "https://dc.lft.to/lastmile_qr_scan", "ios": "https://dc.lft.to/lastmile_qr_scan"}, "lat": 38.887497833333335, "is_disabled": 0, "lon": -77.00875416666666}, {"fusion_lat": 0.0, "type": "electric_scooter", "name": "008baeff4801212dfb284184aff9323c", "fusion_lon": 0.0, "bike_id": "008baeff4801212dfb284184aff9323c", "is_reserved": 0, "rental_uris": {"android": "https://dc.lft.to/lastmile_qr_scan", "ios": "https://dc.lft.to/lastmile_qr_scan"}, "lat": 38.91172433333333, "is_disabled": 0, "lon": -77.04917316666666}, {"fusion_lat": 0.0, "type": "electric_scooter", "name": "f98ec8420ca4b587c395c6f3e7b6528f", "fusion_lon": 0.0, "bike_id": "f98ec8420ca4b587c395c6f3e7b6528f", "is_reserved": 0, "rental_uris": {"android": "https://dc.lft.to/lastmile_qr_scan", "ios": "https://dc.lft.to/lastmile_qr_scan"}, "lat": 38.92166066666667, "is_disabled": 0, "lon": -77.03841283333334}, {"fusion_lat": 0.0, "type": "electric_scooter", "name": "9bb99abf1f1211a71d51113c9bb5baae", "fusion_lon": 0.0, "bike_id": "9bb99abf1f1211a71d51113c9bb5baae", "is_reserved": 0, "rental_uris": {"android": "https://dc.lft.to/lastmile_qr_scan", "ios": "https://dc.lft.to/lastmile_qr_scan"}, "lat": 38.88768366666667, "is_disabled": 0, "lon": -76.98966716666666}, {"fusion_lat": 0.0, "type": "electric_scooter", "name": "c3bc6d295859bd96311c27b5232c1368", "fusion_lon": 0.0, "bike_id": "c3bc6d295859bd96311c27b5232c1368", "is_reserved": 0, "rental_uris": {"android": "https://dc.lft.to/lastmile_qr_scan", "ios": "https://dc.lft.to/lastmile_qr_scan"}, "lat": 38.898851, "is_disabled": 0, "lon": -76.93175966666666}, {"fusion_lat": 0.0, "type": "electric_scooter", "name": "bd3a68b266f40ba9ca009e3fb8f1d602", "fusion_lon": 0.0, "bike_id": "bd3a68b266f40ba9ca009e3fb8f1d602", "is_reserved": 0, "rental_uris": {"android": "https://dc.lft.to/lastmile_qr_scan", "ios": "https://dc.lft.to/lastmile_qr_scan"}, "lat": 38.93243416666667, "is_disabled": 0, "lon": -77.03413383333333}, {"fusion_lat": 0.0, "type": "electric_scooter", "name": "0bfacf4704aed7e1959cdf5871cb32f5", "fusion_lon": 0.0, "bike_id": "0bfacf4704aed7e1959cdf5871cb32f5", "is_reserved": 0, "rental_uris": {"android": "https://dc.lft.to/lastmile_qr_scan", "ios": "https://dc.lft.to/lastmile_qr_scan"}, "lat": 38.9050255, "is_disabled": 0, "lon": -76.97922983333333}, {"fusion_lat": 0.0, "type": "electric_scooter", "name": "e51248a1aec5310bf9de6bd1af6131e4", "fusion_lon": 0.0, "bike_id": "e51248a1aec5310bf9de6bd1af6131e4", "is_reserved": 0, "rental_uris": {"android": "https://dc.lft.to/lastmile_qr_scan", "ios": "https://dc.lft.to/lastmile_qr_scan"}, "lat": 38.89323733333333, "is_disabled": 0, "lon": -76.94381233333333}, {"fusion_lat": 0.0, "type": "electric_scooter", "name": "13b85e829dc7cae4674b01df7f9fb6bf", "fusion_lon": 0.0, "bike_id": "13b85e829dc7cae4674b01df7f9fb6bf", "is_reserved": 0, "rental_uris": {"android": "https://dc.lft.to/lastmile_qr_scan", "ios": "https://dc.lft.to/lastmile_qr_scan"}, "lat": 38.9221935, "is_disabled": 0, "lon": -77.0433055}, {"fusion_lat": 0.0, "type": "electric_scooter", "name": "7fb6880450098518921d9387e028c857", "fusion_lon": 0.0, "bike_id": "7fb6880450098518921d9387e028c857", "is_reserved": 0, "rental_uris": {"android": "https://dc.lft.to/lastmile_qr_scan", "ios": "https://dc.lft.to/lastmile_qr_scan"}, "lat": 38.907672, "is_disabled": 0, "lon": -77.03539566666667}, {"fusion_lat": 0.0, "type": "electric_scooter", "name": "ba8f05d930154333d7b8b0ef96583d23", "fusion_lon": 0.0, "bike_id": "ba8f05d930154333d7b8b0ef96583d23", "is_reserved": 0, "rental_uris": {"android": "https://dc.lft.to/lastmile_qr_scan", "ios": "https://dc.lft.to/lastmile_qr_scan"}, "lat": 38.899218166666664, "is_disabled": 0, "lon": -76.9338065}, {"fusion_lat": 0.0, "type": "electric_bike", "name": "b0da584e6a6c4d2df0cc0c4f2ba4608f", "fusion_lon": 0.0, "bike_id": "b0da584e6a6c4d2df0cc0c4f2ba4608f", "is_reserved": 0, "rental_uris": {"android": "https://dc.lft.to/lastmile_qr_scan", "ios": "https://dc.lft.to/lastmile_qr_scan"}, "lat": 38.8935115, "is_disabled": 0, "lon": -77.18737516666667}, {"fusion_lat": 0.0, "type": "electric_scooter", "name": "52418b7124e449cddb1920e8fadf8f11", "fusion_lon": 0.0, "bike_id": "52418b7124e449cddb1920e8fadf8f11", "is_reserved": 0, "rental_uris": {"android": "https://dc.lft.to/lastmile_qr_scan", "ios": "https://dc.lft.to/lastmile_qr_scan"}, "lat": 38.90555, "is_disabled": 0, "lon": -76.97393066666666}, {"fusion_lat": 0.0, "type": "electric_scooter", "name": "30352c56662d7966187adc567c1ec59b", "fusion_lon": 0.0, "bike_id": "30352c56662d7966187adc567c1ec59b", "is_reserved": 0, "rental_uris": {"android": "https://dc.lft.to/lastmile_qr_scan", "ios": "https://dc.lft.to/lastmile_qr_scan"}, "lat": 38.92459366666667, "is_disabled": 0, "lon": -77.07808433333334}, {"fusion_lat": 0.0, "type": "electric_scooter", "name": "63c53eeb36866c9b6bd6e22a26f7d2a2", "fusion_lon": 0.0, "bike_id": "63c53eeb36866c9b6bd6e22a26f7d2a2", "is_reserved": 0, "rental_uris": {"android": "https://dc.lft.to/lastmile_qr_scan", "ios": "https://dc.lft.to/lastmile_qr_scan"}, "lat": 38.92350066666667, "is_disabled": 0, "lon": -77.03292083333334}, {"fusion_lat": 0.0, "type": "electric_scooter", "name": "6fec0b8b47d2ea86d682f6d6b0efb3dd", "fusion_lon": 0.0, "bike_id": "6fec0b8b47d2ea86d682f6d6b0efb3dd", "is_reserved": 0, "rental_uris": {"android": "https://dc.lft.to/lastmile_qr_scan", "ios": "https://dc.lft.to/lastmile_qr_scan"}, "lat": 38.92417983333333, "is_disabled": 0, "lon": -77.03530566666667}, {"fusion_lat": 0.0, "type": "electric_scooter", "name": "18d124971feb5d6b06aef8b12a186542", "fusion_lon": 0.0, "bike_id": "18d124971feb5d6b06aef8b12a186542", "is_reserved": 0, "rental_uris": {"android": "https://dc.lft.to/lastmile_qr_scan", "ios": "https://dc.lft.to/lastmile_qr_scan"}, "lat": 38.92250633333333, "is_disabled": 0, "lon": -77.03066933333334}, {"fusion_lat": 0.0, "type": "electric_scooter", "name": "8cd0227951db9ed2ba7f8b75094c3b29", "fusion_lon": 0.0, "bike_id": "8cd0227951db9ed2ba7f8b75094c3b29", "is_reserved": 0, "rental_uris": {"android": "https://dc.lft.to/lastmile_qr_scan", "ios": "https://dc.lft.to/lastmile_qr_scan"}, "lat": 38.8940165, "is_disabled": 0, "lon": -77.044213}, {"fusion_lat": 0.0, "type": "electric_scooter", "name": "280d502493c190487d9dd85afe8d7440", "fusion_lon": 0.0, "bike_id": "280d502493c190487d9dd85afe8d7440", "is_reserved": 0, "rental_uris": {"android": "https://dc.lft.to/lastmile_qr_scan", "ios": "https://dc.lft.to/lastmile_qr_scan"}, "lat": 38.914983, "is_disabled": 0, "lon": -77.01225683333334}, {"fusion_lat": 0.0, "type": "electric_scooter", "name": "d9301b60fd66d283e5877f0ba51dd184", "fusion_lon": 0.0, "bike_id": "d9301b60fd66d283e5877f0ba51dd184", "is_reserved": 0, "rental_uris": {"android": "https://dc.lft.to/lastmile_qr_scan", "ios": "https://dc.lft.to/lastmile_qr_scan"}, "lat": 38.893537, "is_disabled": 0, "lon": -77.022219}, {"fusion_lat": 0.0, "type": "electric_scooter", "name": "8b5c166e98aa14d6b6402c37ca7ae64c", "fusion_lon": 0.0, "bike_id": "8b5c166e98aa14d6b6402c37ca7ae64c", "is_reserved": 0, "rental_uris": {"android": "https://dc.lft.to/lastmile_qr_scan", "ios": "https://dc.lft.to/lastmile_qr_scan"}, "lat": 38.91683483333333, "is_disabled": 0, "lon": -77.02891866666667}, {"fusion_lat": 0.0, "type": "electric_scooter", "name": "b3e3299c296223853cb469e0fe66a496", "fusion_lon": 0.0, "bike_id": "b3e3299c296223853cb469e0fe66a496", "is_reserved": 0, "rental_uris": {"android": "https://dc.lft.to/lastmile_qr_scan", "ios": "https://dc.lft.to/lastmile_qr_scan"}, "lat": 38.909063833333335, "is_disabled": 0, "lon": -77.02718266666666}, {"fusion_lat": 0.0, "type": "electric_scooter", "name": "5fdb0f76fb0781529dfc381d0f2a84ce", "fusion_lon": 0.0, "bike_id": "5fdb0f76fb0781529dfc381d0f2a84ce", "is_reserved": 0, "rental_uris": {"android": "https://dc.lft.to/lastmile_qr_scan", "ios": "https://dc.lft.to/lastmile_qr_scan"}, "lat": 38.91822166666667, "is_disabled": 0, "lon": -77.03438766666666}, {"fusion_lat": 0.0, "type": "electric_scooter", "name": "cb78058a6902fcb9e952846f2a4f00a6", "fusion_lon": 0.0, "bike_id": "cb78058a6902fcb9e952846f2a4f00a6", "is_reserved": 0, "rental_uris": {"android": "https://dc.lft.to/lastmile_qr_scan", "ios": "https://dc.lft.to/lastmile_qr_scan"}, "lat": 38.87344933333333, "is_disabled": 0, "lon": -77.0060745}, {"fusion_lat": 0.0, "type": "electric_scooter", "name": "575ce6cdf1a11b3ffabf51150cc80bc4", "fusion_lon": 0.0, "bike_id": "575ce6cdf1a11b3ffabf51150cc80bc4", "is_reserved": 0, "rental_uris": {"android": "https://dc.lft.to/lastmile_qr_scan", "ios": "https://dc.lft.to/lastmile_qr_scan"}, "lat": 38.86413, "is_disabled": 0, "lon": -77.01224666666667}, {"fusion_lat": 0.0, "type": "electric_bike", "name": "fc8c5b7bf3cd3e726c27a177b5a8a599", "fusion_lon": 0.0, "bike_id": "fc8c5b7bf3cd3e726c27a177b5a8a599", "is_reserved": 0, "rental_uris": {"android": "https://dc.lft.to/lastmile_qr_scan", "ios": "https://dc.lft.to/lastmile_qr_scan"}, "lat": 38.96469283333333, "is_disabled": 0, "lon": -77.03568}, {"fusion_lat": 0.0, "type": "electric_scooter", "name": "971023f17dd8c4397fbade33b14ac896", "fusion_lon": 0.0, "bike_id": "971023f17dd8c4397fbade33b14ac896", "is_reserved": 0, "rental_uris": {"android": "https://dc.lft.to/lastmile_qr_scan", "ios": "https://dc.lft.to/lastmile_qr_scan"}, "lat": 38.922498833333336, "is_disabled": 0, "lon": -77.0092075}, {"fusion_lat": 0.0, "type": "electric_scooter", "name": "7df5352ac0a950ba46ad9cc35d60f2dd", "fusion_lon": 0.0, "bike_id": "7df5352ac0a950ba46ad9cc35d60f2dd", "is_reserved": 0, "rental_uris": {"android": "https://dc.lft.to/lastmile_qr_scan", "ios": "https://dc.lft.to/lastmile_qr_scan"}, "lat": 38.915586833333336, "is_disabled": 0, "lon": -77.025862}, {"fusion_lat": 0.0, "type": "electric_bike", "name": "a8ee859c833d16a090b105207f648777", "fusion_lon": 0.0, "bike_id": "a8ee859c833d16a090b105207f648777", "is_reserved": 0, "rental_uris": {"android": "https://dc.lft.to/lastmile_qr_scan", "ios": "https://dc.lft.to/lastmile_qr_scan"}, "lat": 38.8001745, "is_disabled": 0, "lon": -77.05482633333334}, {"fusion_lat": 0.0, "type": "electric_scooter", "name": "3884b752defe4328259704262d16cdf7", "fusion_lon": 0.0, "bike_id": "3884b752defe4328259704262d16cdf7", "is_reserved": 0, "rental_uris": {"android": "https://dc.lft.to/lastmile_qr_scan", "ios": "https://dc.lft.to/lastmile_qr_scan"}, "lat": 38.920185333333336, "is_disabled": 0, "lon": -77.013056}, {"fusion_lat": 0.0, "type": "electric_scooter", "name": "dfc4a2ce9a310d25c16da998a7ea0862", "fusion_lon": 0.0, "bike_id": "dfc4a2ce9a310d25c16da998a7ea0862", "is_reserved": 0, "rental_uris": {"android": "https://dc.lft.to/lastmile_qr_scan", "ios": "https://dc.lft.to/lastmile_qr_scan"}, "lat": 38.913584666666665, "is_disabled": 0, "lon": -77.06920066666666}, {"fusion_lat": 0.0, "type": "electric_scooter", "name": "8f6c6466a7f6f295744dbab6183a499d", "fusion_lon": 0.0, "bike_id": "8f6c6466a7f6f295744dbab6183a499d", "is_reserved": 0, "rental_uris": {"android": "https://dc.lft.to/lastmile_qr_scan", "ios": "https://dc.lft.to/lastmile_qr_scan"}, "lat": 38.945107666666665, "is_disabled": 0, "lon": -77.03317433333333}, {"fusion_lat": 0.0, "type": "electric_scooter", "name": "0be6d28388838d04d6a209e8a51e4a76", "fusion_lon": 0.0, "bike_id": "0be6d28388838d04d6a209e8a51e4a76", "is_reserved": 0, "rental_uris": {"android": "https://dc.lft.to/lastmile_qr_scan", "ios": "https://dc.lft.to/lastmile_qr_scan"}, "lat": 38.904091, "is_disabled": 0, "lon": -76.980841}, {"fusion_lat": 0.0, "type": "electric_scooter", "name": "58e15b1455ff6f472147b5ba23c4d1d1", "fusion_lon": 0.0, "bike_id": "58e15b1455ff6f472147b5ba23c4d1d1", "is_reserved": 0, "rental_uris": {"android": "https://dc.lft.to/lastmile_qr_scan", "ios": "https://dc.lft.to/lastmile_qr_scan"}, "lat": 38.92331716666666, "is_disabled": 0, "lon": -77.03617883333334}, {"fusion_lat": 0.0, "type": "electric_scooter", "name": "a96bb70c1d0761aada26f9adcc0a3a20", "fusion_lon": 0.0, "bike_id": "a96bb70c1d0761aada26f9adcc0a3a20", "is_reserved": 0, "rental_uris": {"android": "https://dc.lft.to/lastmile_qr_scan", "ios": "https://dc.lft.to/lastmile_qr_scan"}, "lat": 38.925631333333335, "is_disabled": 0, "lon": -77.02288633333333}, {"fusion_lat": 0.0, "type": "electric_scooter", "name": "21291003b1541c91f9e51325d5db3ea5", "fusion_lon": 0.0, "bike_id": "21291003b1541c91f9e51325d5db3ea5", "is_reserved": 0, "rental_uris": {"android": "https://dc.lft.to/lastmile_qr_scan", "ios": "https://dc.lft.to/lastmile_qr_scan"}, "lat": 38.923315833333334, "is_disabled": 0, "lon": -77.03610966666666}, {"fusion_lat": 0.0, "type": "electric_scooter", "name": "ca3f617b7e422fe336fa074018fc9cdd", "fusion_lon": 0.0, "bike_id": "ca3f617b7e422fe336fa074018fc9cdd", "is_reserved": 0, "rental_uris": {"android": "https://dc.lft.to/lastmile_qr_scan", "ios": "https://dc.lft.to/lastmile_qr_scan"}, "lat": 38.905628, "is_disabled": 0, "lon": -77.00580266666667}, {"fusion_lat": 0.0, "type": "electric_bike", "name": "3df48a90f425afdb1c0d8fe17cd02205", "fusion_lon": 0.0, "bike_id": "3df48a90f425afdb1c0d8fe17cd02205", "is_reserved": 0, "rental_uris": {"android": "https://dc.lft.to/lastmile_qr_scan", "ios": "https://dc.lft.to/lastmile_qr_scan"}, "lat": 38.85482733333333, "is_disabled": 0, "lon": -77.116067}, {"fusion_lat": 0.0, "type": "electric_scooter", "name": "c97bc9a6d19859291113c050fb158e1b", "fusion_lon": 0.0, "bike_id": "c97bc9a6d19859291113c050fb158e1b", "is_reserved": 0, "rental_uris": {"android": "https://dc.lft.to/lastmile_qr_scan", "ios": "https://dc.lft.to/lastmile_qr_scan"}, "lat": 38.91117933333334, "is_disabled": 0, "lon": -77.03153933333333}, {"fusion_lat": 0.0, "type": "electric_scooter", "name": "4c65b74f9195340b6820d51e75dcb9ff", "fusion_lon": 0.0, "bike_id": "4c65b74f9195340b6820d51e75dcb9ff", "is_reserved": 0, "rental_uris": {"android": "https://dc.lft.to/lastmile_qr_scan", "ios": "https://dc.lft.to/lastmile_qr_scan"}, "lat": 38.902851, "is_disabled": 0, "lon": -77.01892783333334}, {"fusion_lat": 0.0, "type": "electric_scooter", "name": "c92ed248b0a7f6d87162d4675ee04fc0", "fusion_lon": 0.0, "bike_id": "c92ed248b0a7f6d87162d4675ee04fc0", "is_reserved": 0, "rental_uris": {"android": "https://dc.lft.to/lastmile_qr_scan", "ios": "https://dc.lft.to/lastmile_qr_scan"}, "lat": 38.902474, "is_disabled": 0, "lon": -77.00590516666666}, {"fusion_lat": 0.0, "type": "electric_scooter", "name": "dc413840a232f0121d5a7387d320bc42", "fusion_lon": 0.0, "bike_id": "dc413840a232f0121d5a7387d320bc42", "is_reserved": 0, "rental_uris": {"android": "https://dc.lft.to/lastmile_qr_scan", "ios": "https://dc.lft.to/lastmile_qr_scan"}, "lat": 38.90195633333333, "is_disabled": 0, "lon": -77.04660283333334}, {"fusion_lat": 0.0, "type": "electric_scooter", "name": "525faf67b247581bd44d1ab65408ceca", "fusion_lon": 0.0, "bike_id": "525faf67b247581bd44d1ab65408ceca", "is_reserved": 0, "rental_uris": {"android": "https://dc.lft.to/lastmile_qr_scan", "ios": "https://dc.lft.to/lastmile_qr_scan"}, "lat": 38.892210166666665, "is_disabled": 0, "lon": -77.02345566666666}, {"fusion_lat": 0.0, "type": "electric_scooter", "name": "f246009b1bdb8781a9a7c4cd66bf4b12", "fusion_lon": 0.0, "bike_id": "f246009b1bdb8781a9a7c4cd66bf4b12", "is_reserved": 0, "rental_uris": {"android": "https://dc.lft.to/lastmile_qr_scan", "ios": "https://dc.lft.to/lastmile_qr_scan"}, "lat": 38.8859315, "is_disabled": 0, "lon": -77.01228366666666}, {"fusion_lat": 0.0, "type": "electric_scooter", "name": "b8d1ccbe2df6afaa61fdf1c380700c1d", "fusion_lon": 0.0, "bike_id": "b8d1ccbe2df6afaa61fdf1c380700c1d", "is_reserved": 0, "rental_uris": {"android": "https://dc.lft.to/lastmile_qr_scan", "ios": "https://dc.lft.to/lastmile_qr_scan"}, "lat": 38.88849033333334, "is_disabled": 0, "lon": -76.926779}, {"fusion_lat": 0.0, "type": "electric_bike", "name": "5216459f0b6640940700a21306089092", "fusion_lon": 0.0, "bike_id": "5216459f0b6640940700a21306089092", "is_reserved": 0, "rental_uris": {"android": "https://dc.lft.to/lastmile_qr_scan", "ios": "https://dc.lft.to/lastmile_qr_scan"}, "lat": 38.869373333333336, "is_disabled": 0, "lon": -77.09462983333333}, {"fusion_lat": 0.0, "type": "electric_scooter", "name": "8fa1a104abc3fa7ab62d0b69443834d2", "fusion_lon": 0.0, "bike_id": "8fa1a104abc3fa7ab62d0b69443834d2", "is_reserved": 0, "rental_uris": {"android": "https://dc.lft.to/lastmile_qr_scan", "ios": "https://dc.lft.to/lastmile_qr_scan"}, "lat": 38.9050155, "is_disabled": 0, "lon": -77.04829216666667}, {"fusion_lat": 0.0, "type": "electric_scooter", "name": "12f33e302fb8cfd225b5f2621dbeea17", "fusion_lon": 0.0, "bike_id": "12f33e302fb8cfd225b5f2621dbeea17", "is_reserved": 0, "rental_uris": {"android": "https://dc.lft.to/lastmile_qr_scan", "ios": "https://dc.lft.to/lastmile_qr_scan"}, "lat": 38.892774333333335, "is_disabled": 0, "lon": -77.0317275}, {"fusion_lat": 0.0, "type": "electric_scooter", "name": "c1007251ccba46686aa6609c96e36b44", "fusion_lon": 0.0, "bike_id": "c1007251ccba46686aa6609c96e36b44", "is_reserved": 0, "rental_uris": {"android": "https://dc.lft.to/lastmile_qr_scan", "ios": "https://dc.lft.to/lastmile_qr_scan"}, "lat": 38.87197916666667, "is_disabled": 0, "lon": -77.005705}, {"fusion_lat": 0.0, "type": "electric_scooter", "name": "88b903840b7fd2ddde30083a3b89b058", "fusion_lon": 0.0, "bike_id": "88b903840b7fd2ddde30083a3b89b058", "is_reserved": 0, "rental_uris": {"android": "https://dc.lft.to/lastmile_qr_scan", "ios": "https://dc.lft.to/lastmile_qr_scan"}, "lat": 38.9051225, "is_disabled": 0, "lon": -77.06863216666666}, {"fusion_lat": 0.0, "type": "electric_scooter", "name": "0db3609cf7be1b889680e9de988cca8d", "fusion_lon": 0.0, "bike_id": "0db3609cf7be1b889680e9de988cca8d", "is_reserved": 0, "rental_uris": {"android": "https://dc.lft.to/lastmile_qr_scan", "ios": "https://dc.lft.to/lastmile_qr_scan"}, "lat": 38.91964016666667, "is_disabled": 0, "lon": -77.04510166666667}, {"fusion_lat": 0.0, "type": "electric_scooter", "name": "26314bfd947631affc2696904a285775", "fusion_lon": 0.0, "bike_id": "26314bfd947631affc2696904a285775", "is_reserved": 0, "rental_uris": {"android": "https://dc.lft.to/lastmile_qr_scan", "ios": "https://dc.lft.to/lastmile_qr_scan"}, "lat": 38.935609166666666, "is_disabled": 0, "lon": -77.08203083333333}, {"fusion_lat": 0.0, "type": "electric_scooter", "name": "1f46c7e435dbc9a4cb58b3d835acb593", "fusion_lon": 0.0, "bike_id": "1f46c7e435dbc9a4cb58b3d835acb593", "is_reserved": 0, "rental_uris": {"android": "https://dc.lft.to/lastmile_qr_scan", "ios": "https://dc.lft.to/lastmile_qr_scan"}, "lat": 38.93095183333333, "is_disabled": 0, "lon": -77.03272066666666}, {"fusion_lat": 0.0, "type": "electric_bike", "name": "f98d13fbdb0a2a6882f28ab94e8d3199", "fusion_lon": 0.0, "bike_id": "f98d13fbdb0a2a6882f28ab94e8d3199", "is_reserved": 0, "rental_uris": {"android": "https://dc.lft.to/lastmile_qr_scan", "ios": "https://dc.lft.to/lastmile_qr_scan"}, "lat": 38.985489666666666, "is_disabled": 0, "lon": -77.0040495}, {"fusion_lat": 0.0, "type": "electric_scooter", "name": "b444d727977c4086182b3e6f1ef405bc", "fusion_lon": 0.0, "bike_id": "b444d727977c4086182b3e6f1ef405bc", "is_reserved": 0, "rental_uris": {"android": "https://dc.lft.to/lastmile_qr_scan", "ios": "https://dc.lft.to/lastmile_qr_scan"}, "lat": 38.92582216666667, "is_disabled": 0, "lon": -77.02161016666666}, {"fusion_lat": 0.0, "type": "electric_scooter", "name": "ce8b622e975262c407a50a48ba27e555", "fusion_lon": 0.0, "bike_id": "ce8b622e975262c407a50a48ba27e555", "is_reserved": 0, "rental_uris": {"android": "https://dc.lft.to/lastmile_qr_scan", "ios": "https://dc.lft.to/lastmile_qr_scan"}, "lat": 38.918182, "is_disabled": 0, "lon": -77.03366433333333}, {"fusion_lat": 0.0, "type": "electric_scooter", "name": "328620b6476eb9117c3f9d844891564f", "fusion_lon": 0.0, "bike_id": "328620b6476eb9117c3f9d844891564f", "is_reserved": 0, "rental_uris": {"android": "https://dc.lft.to/lastmile_qr_scan", "ios": "https://dc.lft.to/lastmile_qr_scan"}, "lat": 38.91648516666667, "is_disabled": 0, "lon": -77.03658483333334}, {"fusion_lat": 0.0, "type": "electric_scooter", "name": "587d9c38fa33d281292efc3c5667acc1", "fusion_lon": 0.0, "bike_id": "587d9c38fa33d281292efc3c5667acc1", "is_reserved": 0, "rental_uris": {"android": "https://dc.lft.to/lastmile_qr_scan", "ios": "https://dc.lft.to/lastmile_qr_scan"}, "lat": 38.90736616666667, "is_disabled": 0, "lon": -77.00764916666667}, {"fusion_lat": 0.0, "type": "electric_scooter", "name": "f3141f71074e45470efe6ddeecdf7f0c", "fusion_lon": 0.0, "bike_id": "f3141f71074e45470efe6ddeecdf7f0c", "is_reserved": 0, "rental_uris": {"android": "https://dc.lft.to/lastmile_qr_scan", "ios": "https://dc.lft.to/lastmile_qr_scan"}, "lat": 38.89997833333334, "is_disabled": 0, "lon": -77.02635483333333}, {"fusion_lat": 0.0, "type": "electric_scooter", "name": "da6467484aeb2905c98d8b054b579524", "fusion_lon": 0.0, "bike_id": "da6467484aeb2905c98d8b054b579524", "is_reserved": 0, "rental_uris": {"android": "https://dc.lft.to/lastmile_qr_scan", "ios": "https://dc.lft.to/lastmile_qr_scan"}, "lat": 38.88991166666667, "is_disabled": 0, "lon": -76.9310915}, {"fusion_lat": 0.0, "type": "electric_scooter", "name": "93120dafc9d68c72680cacba22a31c0b", "fusion_lon": 0.0, "bike_id": "93120dafc9d68c72680cacba22a31c0b", "is_reserved": 0, "rental_uris": {"android": "https://dc.lft.to/lastmile_qr_scan", "ios": "https://dc.lft.to/lastmile_qr_scan"}, "lat": 38.903383833333336, "is_disabled": 0, "lon": -77.0330345}, {"fusion_lat": 0.0, "type": "electric_scooter", "name": "797638f3612518612019dc2a59d26ca7", "fusion_lon": 0.0, "bike_id": "797638f3612518612019dc2a59d26ca7", "is_reserved": 0, "rental_uris": {"android": "https://dc.lft.to/lastmile_qr_scan", "ios": "https://dc.lft.to/lastmile_qr_scan"}, "lat": 38.901679666666666, "is_disabled": 0, "lon": -76.9808705},