{"data": {"bikes": [{"rental_uris": {"android": "https://dc.lft.to/lastmile_qr_scan", "ios": "https://dc.lft.to/lastmile_qr_scan"}, "fusion_lat": 0.0, "is_reserved": 0, "lat": 38.9223745, "name": "91f861a5f58d858c07b1f56b577671ad", "bike_id": "91f861a5f58d858c07b1f56b577671ad", "is_disabled": 0, "fusion_lon": 0.0, "type": "electric_scooter", "lon": -77.03461066666667}, {"rental_uris": {"android": "https://dc.lft.to/lastmile_qr_scan", "ios": "https://dc.lft.to/lastmile_qr_scan"}, "fusion_lat": 0.0, "is_reserved": 0, "lat": 38.89794966666667, "name": "c00f307656774bb4bad45763658f0881", "bike_id": "c00f307656774bb4bad45763658f0881", "is_disabled": 0, "fusion_lon": 0.0, "type": "electric_scooter", "lon": -77.0548385}, {"rental_uris": {"android": "https://dc.lft.to/lastmile_qr_scan", "ios": "https://dc.lft.to/lastmile_qr_scan"}, "fusion_lat": 0.0, "is_reserved": 0, "lat": 38.88183133333333, "name": "ac5bcc5cf47c88895aea749329922fac", "bike_id": "ac5bcc5cf47c88895aea749329922fac", "is_disabled": 0, "fusion_lon": 0.0, "type": "electric_scooter", "lon": -76.99029983333334}, {"rental_uris": {"android": "https://dc.lft.to/lastmile_qr_scan", "ios": "https://dc.lft.to/lastmile_qr_scan"}, "fusion_lat": 0.0, "is_reserved": 0, "lat": 38.91844833333333, "name": "b3b58e900751a62547936a24e3f6f822", "bike_id": "b3b58e900751a62547936a24e3f6f822", "is_disabled": 0, "fusion_lon": 0.0, "type": "electric_scooter", "lon": -77.02181483333334}, {"rental_uris": {"android": "https://dc.lft.to/lastmile_qr_scan", "ios": "https://dc.lft.to/lastmile_qr_scan"}, "fusion_lat": 0.0, "is_reserved": 0, "lat": 38.90915833333333, "name": "faabdddebcb8cddbb1abd8763941677d", "bike_id": "faabdddebcb8cddbb1abd8763941677d", "is_disabled": 0, "fusion_lon": 0.0, "type": "electric_scooter", "lon": -77.04428683333333}, {"rental_uris": {"android": "https://dc.lft.to/lastmile_qr_scan", "ios": "https://dc.lft.to/lastmile_qr_scan"}, "fusion_lat": 0.0, "is_reserved": 0, "lat": 38.91610033333333, "name": "8a13f2f756d27447d3212755965a9b4f", "bike_id": "8a13f2f756d27447d3212755965a9b4f", "is_disabled": 0, "fusion_lon": 0.0, "type": "electric_scooter", "lon": -77.02291016666666}, {"rental_uris": {"android": "https://dc.lft.to/lastmile_qr_scan", "ios": "https://dc.lft.to/lastmile_qr_scan"}, "fusion_lat": 0.0, "is_reserved": 0, "lat": 38.892236, "name": "da0e0595a84145bf5bbaaa8840b1cdee", "bike_id": "da0e0595a84145bf5bbaaa8840b1cdee", "is_disabled": 0, "fusion_lon": 0.0, "type": "electric_scooter", "lon": -77.03991216666667}, {"rental_uris": {"android": "https://dc.lft.to/lastmile_qr_scan", "ios": "https://dc.lft.to/lastmile_qr_scan"}, "fusion_lat": 0.0, "is_reserved": 0, "lat": 38.872926166666666, "name": "70841de36273fdd4e80b6aff39f0a96e", "bike_id": "70841de36273fdd4e80b6aff39f0a96e", "is_disabled": 0, "fusion_lon": 0.0, "type": "electric_scooter", "lon": -77.00232416666667}, {"rental_uris": {"android": "https://dc.lft.to/lastmile_qr_scan", "ios": "https://dc.lft.to/lastmile_qr_scan"}, "fusion_lat": 0.0, "is_reserved": 0, "lat": 38.943059166666664, "name": "aa17f902a2e023000c6f7ceae136f575", "bike_id": "aa17f902a2e023000c6f7ceae136f575", "is_disabled": 0, "fusion_lon": 0.0, "type": "electric_scooter", "lon": -77.05928683333333}, {"rental_uris": {"android": "https://dc.lft.to/lastmile_qr_scan", "ios": "https://dc.lft.to/lastmile_qr_scan"}, "fusion_lat": 0.0, "is_reserved": 0, "lat": 38.92331083333333, "name": "f512302eedb6a119e7361b331b8d5be7", "bike_id": "f512302eedb6a119e7361b331b8d5be7", "is_disabled": 0, "fusion_lon": 0.0, "type": "electric_scooter", "lon": -77.04621483333334}, {"rental_uris": {"android": "https://dc.lft.to/lastmile_qr_scan", "ios": "https://dc.lft.to/lastmile_qr_scan"}, "fusion_lat": 0.0, "is_reserved": 0, "lat": 38.919300166666666, "name": "2a51068b3a17639a252935c637dd85b3", "bike_id": "2a51068b3a17639a252935c637dd85b3", "is_disabled": 0, "fusion_lon": 0.0, "type": "electric_scooter", "lon": -77.04624666666666}, {"rental_uris": {"android": "https://dc.lft.to/lastmile_qr_scan", "ios": "https://dc.lft.to/lastmile_qr_scan"}, "fusion_lat": 0.0, "is_reserved": 0, "lat": 38.92284633333333, "name": "5aba48bcccdf01bf133b73ce735015af", "bike_id": "5aba48bcccdf01bf133b73ce735015af", "is_disabled": 0, "fusion_lon": 0.0, "type": "electric_scooter", "lon": -77.0365925}, {"rental_uris": {"android": "https://dc.lft.to/lastmile_qr_scan", "ios": "https://dc.lft.to/lastmile_qr_scan"}, "fusion_lat": 0.0, "is_reserved": 0, "lat": 38.902392166666665, "name": "25b67dd4b9f9ac390779a11dc5d06e18", "bike_id": "25b67dd4b9f9ac390779a11dc5d06e18", "is_disabled": 0, "fusion_lon": 0.0, "type": "electric_scooter", "lon": -77.0019885}, {"rental_uris": {"android": "https://dc.lft.to/lastmile_qr_scan", "ios": "https://dc.lft.to/lastmile_qr_scan"}, "fusion_lat": 0.0, "is_reserved": 0, "lat": 38.90787616666667, "name": "cbcfb21338aabd43502df41825db13eb", "bike_id": "cbcfb21338aabd43502df41825db13eb", "is_disabled": 0, "fusion_lon": 0.0, "type": "electric_scooter", "lon": -76.99414166666666}, {"rental_uris": {"android": "https://dc.lft.to/lastmile_qr_scan", "ios": "https://dc.lft.to/lastmile_qr_scan"}, "fusion_lat": 0.0, "is_reserved": 0, "lat": 38.90554, "name": "90092dfd7469adbb1b97ae4e4a011abe", "bike_id": "90092dfd7469adbb1b97ae4e4a011abe", "is_disabled": 0, "fusion_lon": 0.0, "type": "electric_scooter", "lon": -77.0059335}, {"rental_uris": {"android": "https://dc.lft.to/lastmile_qr_scan", "ios": "https://dc.lft.to/lastmile_qr_scan"}, "fusion_lat": 0.0, "is_reserved": 0, "lat": 38.849048333333336, "name": "9f546103bfc2377105875751e70dafe6", "bike_id": "9f546103bfc2377105875751e70dafe6", "is_disabled": 0, "fusion_lon": 0.0, "type": "electric_bike", "lon": -77.07809283333333}, {"rental_uris": {"android": "https://dc.lft.to/lastmile_qr_scan", "ios": "https://dc.lft.to/lastmile_qr_scan"}, "fusion_lat": 0.0, "is_reserved": 0, "lat": 38.91602116666667, "name": "f7377e7345a6c75a85e0be12ca316b25", "bike_id": "f7377e7345a6c75a85e0be12ca316b25", "is_disabled": 0, "fusion_lon": 0.0, "type": "electric_scooter", "lon": -77.02580216666667}, {"rental_uris": {"android": "https://dc.lft.to/lastmile_qr_scan", "ios": "https://dc.lft.to/lastmile_qr_scan"}, "fusion_lat": 0.0, "is_reserved": 0, "lat": 38.89222266666667, "name": "14ffbf57c8999d50e5d6bfe32b05dc5d", "bike_id": "14ffbf57c8999d50e5d6bfe32b05dc5d", "is_disabled": 0, "fusion_lon": 0.0, "type": "electric_scooter", "lon": -77.03995283333333}, {"rental_uris": {"android": "https://dc.lft.to/lastmile_qr_scan", "ios": "https://dc.lft.to/lastmile_qr_scan"}, "fusion_lat": 0.0, "is_reserved": 0, "lat": 38.85224183333333, "name": "82a4fdb48057329a8ce0b4045ac90b80", "bike_id": "82a4fdb48057329a8ce0b4045ac90b80", "is_disabled": 0, "fusion_lon": 0.0, "type": "electric_scooter", "lon": -76.99426816666667}, {"rental_uris": {"android": "https://dc.lft.to/lastmile_qr_scan", "ios": "https://dc.lft.to/lastmile_qr_scan"}, "fusion_lat": 0.0, "is_reserved": 0, "lat": 38.91937166666666, "name": "fcf6795a9d1b984b7ae236de28f293f3", "bike_id": "fcf6795a9d1b984b7ae236de28f293f3", "is_disabled": 0, "fusion_lon": 0.0, "type": "electric_scooter", "lon": -77.04910916666667}, {"rental_uris": {"android": "https://dc.lft.to/lastmile_qr_scan", "ios": "https://dc.lft.to/lastmile_qr_scan"}, "fusion_lat": 0.0, "is_reserved": 0, "lat": 38.923894833333335, "name": "9f3f85475f0e2b86bac9ffdbf2b559d4", "bike_id": "9f3f85475f0e2b86bac9ffdbf2b559d4", "is_disabled": 0, "fusion_lon": 0.0, "type": "electric_scooter", "lon": -77.0268735}, {"rental_uris": {"android": "https://dc.lft.to/lastmile_qr_scan", "ios": "https://dc.lft.to/lastmile_qr_scan"}, "fusion_lat": 0.0, "is_reserved": 0, "lat": 38.89908883333333, "name": "9a6547a9fadcc6c3a93bcfa33fc167bb", "bike_id": "9a6547a9fadcc6c3a93bcfa33fc167bb", "is_disabled": 0, "fusion_lon": 0.0, "type": "electric_scooter", "lon": -76.98575116666666}, {"rental_uris": {"android": "https://dc.lft.to/lastmile_qr_scan", "ios": "https://dc.lft.to/lastmile_qr_scan"}, "fusion_lat": 0.0, "is_reserved": 0, "lat": 38.925189833333334, "name": "dc6ed48566cd2f71f1712aeb2aabcc27", "bike_id": "dc6ed48566cd2f71f1712aeb2aabcc27", "is_disabled": 0, "fusion_lon": 0.0, "type": "electric_scooter", "lon": -77.0297145}, {"rental_uris": {"android": "https://dc.lft.to/lastmile_qr_scan", "ios": "https://dc.lft.to/lastmile_qr_scan"}, "fusion_lat": 0.0, "is_reserved": 0, "lat": 38.9241655, "name": "137d3affb2211090204b5b8d88e7f100", "bike_id": "137d3affb2211090204b5b8d88e7f100", "is_disabled": 0, "fusion_lon": 0.0, "type": "electric_scooter", "lon": -77.01948483333334}, {"rental_uris": {"android": "https://dc.lft.to/lastmile_qr_scan", "ios": "https://dc.lft.to/lastmile_qr_scan"}, "fusion_lat": 0.0, "is_reserved": 0, "lat": 38.93612616666667, "name": "c1f465afef4976a5c0a77496a9a8fc3a", "bike_id": "c1f465afef4976a5c0a77496a9a8fc3a", "is_disabled": 0, "fusion_lon": 0.0, "type": "electric_scooter", "lon": -77.03215366666667}, {"rental_uris": {"android": "https://dc.lft.to/lastmile_qr_scan", "ios": "https://dc.lft.to/lastmile_qr_scan"}, "fusion_lat": 0.0, "is_reserved": 0, "lat": 38.9237885, "name": "2493b8162b88f8ee886d2dc719291e5b", "bike_id": "2493b8162b88f8ee886d2dc719291e5b", "is_disabled": 0, "fusion_lon": 0.0, "type": "electric_scooter", "lon": -77.05178983333333}, {"rental_uris": {"android": "https://dc.lft.to/lastmile_qr_scan", "ios": "https://dc.lft.to/lastmile_qr_scan"}, "fusion_lat": 0.0, "is_reserved": 0, "lat": 38.89209533333333, "name": "42d517d04d820b3a51031a53e2e92015", "bike_id": "42d517d04d820b3a51031a53e2e92015", "is_disabled": 0, "fusion_lon": 0.0, "type": "electric_scooter", "lon": -76.994883}, {"rental_uris": {"android": "https://dc.lft.to/lastmile_qr_scan", "ios": "https://dc.lft.to/lastmile_qr_scan"}, "fusion_lat": 0.0, "is_reserved": 0, "lat": 38.903963, "name": "7e1c5fc9a1947c66830666e72e7c893b", "bike_id": "7e1c5fc9a1947c66830666e72e7c893b", "is_disabled": 0, "fusion_lon": 0.0, "type": "electric_scooter", "lon": -77.062979}, {"rental_uris": {"android": "https://dc.lft.to/lastmile_qr_scan", "ios": "https://dc.lft.to/lastmile_qr_scan"}, "fusion_lat": 0.0, "is_reserved": 0, "lat": 38.941691, "name": "26ed0241e8abf23b69d8ea2cb2a5bf63", "bike_id": "26ed0241e8abf23b69d8ea2cb2a5bf63", "is_disabled": 0, "fusion_lon": 0.0, "type": "electric_scooter", "lon": -77.02336916666667}, {"rental_uris": {"android": "https://dc.lft.to/lastmile_qr_scan", "ios": "https://dc.lft.to/lastmile_qr_scan"}, "fusion_lat": 0.0, "is_reserved": 0, "lat": 38.8313535, "name": "33295e2d9bba5e818f2b64b2146bd009", "bike_id": "33295e2d9bba5e818f2b64b2146bd009", "is_disabled": 0, "fusion_lon": 0.0, "type": "electric_bike", "lon": -77.113469}, {"rental_uris": {"android": "https://dc.lft.to/lastmile_qr_scan", "ios": "https://dc.lft.to/lastmile_qr_scan"}, "fusion_lat": 0.0, "is_reserved": 0, "lat": 38.90670433333333, "name": "ed5d59bc99cc4e43e0674ead46b75d07", "bike_id": "ed5d59bc99cc4e43e0674ead46b75d07", "is_disabled": 0, "fusion_lon": 0.0, "type": "electric_scooter", "lon": -77.02711666666667}, {"rental_uris": {"android": "https://dc.lft.to/lastmile_qr_scan", "ios": "https://dc.lft.to/lastmile_qr_scan"}, "fusion_lat": 0.0, "is_reserved": 0, "lat": 38.906280333333335, "name": "38790d108ab4f38c01d3db3a14ee5a3f", "bike_id": "38790d108ab4f38c01d3db3a14ee5a3f", "is_disabled": 0, "fusion_lon": 0.0, "type": "electric_scooter", "lon": -76.95007716666667}, {"rental_uris": {"android": "https://dc.lft.to/lastmile_qr_scan", "ios": "https://dc.lft.to/lastmile_qr_scan"}, "fusion_lat": 0.0, "is_reserved": 0, "lat": 38.926613833333334, "name": "e09c1d739a61a558e7952f53ea0c8bbf", "bike_id": "e09c1d739a61a558e7952f53ea0c8bbf", "is_disabled": 0, "fusion_lon": 0.0, "type": "electric_scooter", "lon": -77.02300716666667}, {"rental_uris": {"android": "https://dc.lft.to/lastmile_qr_scan", "ios": "https://dc.lft.to/lastmile_qr_scan"}, "fusion_lat": 0.0, "is_reserved": 0, "lat": 38.90790833333333, "name": "af771d854f27d401c758ae0b4af36c69", "bike_id": "af771d854f27d401c758ae0b4af36c69", "is_disabled": 0, "fusion_lon": 0.0, "type": "electric_scooter", "lon": -77.0644375}, {"rental_uris": {"android": "https://dc.lft.to/lastmile_qr_scan", "ios": "https://dc.lft.to/lastmile_qr_scan"}, "fusion_lat": 0.0, "is_reserved": 0, "lat": 38.894841, "name": "285ef37889296a7d7dd6e3e450447acb", "bike_id": "285ef37889296a7d7dd6e3e450447acb", "is_disabled": 0, "fusion_lon": 0.0, "type": "electric_scooter", "lon": -76.9800995}, {"rental_uris": {"android": "https://dc.lft.to/lastmile_qr_scan", "ios": "https://dc.lft.to/lastmile_qr_scan"}, "fusion_lat": 0.0, "is_reserved": 0, "lat": 38.938885666666664, "name": "0c56a33bb1d7a5d57821dd1203e04dc7", "bike_id": "0c56a33bb1d7a5d57821dd1203e04dc7", "is_disabled": 0, "fusion_lon": 0.0, "type": "electric_scooter", "lon": -77.03326616666666}, {"rental_uris": {"android": "https://dc.lft.to/lastmile_qr_scan", "ios": "https://dc.lft.to/lastmile_qr_scan"}, "fusion_lat": 0.0, "is_reserved": 0, "lat": 38.88509283333333, "name": "c951f9f6449b75c082d24f57a3ad0f98", "bike_id": "c951f9f6449b75c082d24f57a3ad0f98", "is_disabled": 0, "fusion_lon": 0.0, "type": "electric_scooter", "lon": -77.01117316666667}, {"rental_uris": {"android": "https://dc.lft.to/lastmile_qr_scan", "ios": "https://dc.lft.to/lastmile_qr_scan"}, "fusion_lat": 0.0, "is_reserved": 0, "lat": 38.931000833333336, "name": "bbc8681541966c3a8569242490523a9b", "bike_id": "bbc8681541966c3a8569242490523a9b", "is_disabled": 0, "fusion_lon": 0.0, "type": "electric_scooter", "lon": -77.02482083333334}, {"rental_uris": {"android": "https://dc.lft.to/lastmile_qr_scan", "ios": "https://dc.lft.to/lastmile_qr_scan"}, "fusion_lat": 0.0, "is_reserved": 0, "lat": 38.91885583333333, "name": "f87afa6c45371fd1d93e308874abae21", "bike_id": "f87afa6c45371fd1d93e308874abae21", "is_disabled": 0, "fusion_lon": 0.0, "type": "electric_scooter", "lon": -77.04728}, {"rental_uris": {"android": "https://dc.lft.to/lastmile_qr_scan", "ios": "https://dc.lft.to/lastmile_qr_scan"}, "fusion_lat": 0.0, "is_reserved": 0, "lat": 38.91175533333333, "name": "ce43942fac537fad6e6e672e251145be", "bike_id": "ce43942fac537fad6e6e672e251145be", "is_disabled": 0, "fusion_lon": 0.0, "type": "electric_scooter", "lon": -77.00441533333333}, {"rental_uris": {"android": "https://dc.lft.to/lastmile_qr_scan", "ios": "https://dc.lft.to/lastmile_qr_scan"}, "fusion_lat": 0.0, "is_reserved": 0, "lat": 38.79335533333333, "name": "989e781a649846d8c1a30445708eb217", "bike_id": "989e781a649846d8c1a30445708eb217", "is_disabled": 0, "fusion_lon": 0.0, "type": "electric_bike", "lon": -77.00054083333333}, {"rental_uris": {"android": "https://dc.lft.to/lastmile_qr_scan", "ios": "https://dc.lft.to/lastmile_qr_scan"}, "fusion_lat": 0.0, "is_reserved": 0, "lat": 38.91551283333333, "name": "786d4b2eaaeb043816a769530f8490df", "bike_id": "786d4b2eaaeb043816a769530f8490df", "is_disabled": 0, "fusion_lon": 0.0, "type": "electric_scooter", "lon": -77.0141125}, {"rental_uris": {"android": "https://dc.lft.to/lastmile_qr_scan", "ios": "https://dc.lft.to/lastmile_qr_scan"}, "fusion_lat": 0.0, "is_reserved": 0, "lat": 38.939800166666664, "name": "304cff99bbabb1a26a92746c28ebfa03", "bike_id": "304cff99bbabb1a26a92746c28ebfa03", "is_disabled": 0, "fusion_lon": 0.0, "type": "electric_scooter", "lon": -77.03565766666667}, {"rental_uris": {"android": "https://dc.lft.to/lastmile_qr_scan", "ios": "https://dc.lft.to/lastmile_qr_scan"}, "fusion_lat": 0.0, "is_reserved": 0, "lat": 38.90219233333333, "name": "c831c9ed8be393330f89368e4c797488", "bike_id": "c831c9ed8be393330f89368e4c797488", "is_disabled": 0, "fusion_lon": 0.0, "type": "electric_scooter", "lon": -77.02436}, {"rental_uris": {"android": "https://dc.lft.to/lastmile_qr_scan", "ios": "https://dc.lft.to/lastmile_qr_scan"}, "fusion_lat": 0.0, "is_reserved": 0, "lat": 38.90331783333333, "name": "2d3dc6bceaca018ad74ce19beaedc16a", "bike_id": "2d3dc6bceaca018ad74ce19beaedc16a", "is_disabled": 0, "fusion_lon": 0.0, "type": "electric_bike", "lon": -76.93370266666666}, {"rental_uris": {"android": "https://dc.lft.to/lastmile_qr_scan", "ios": "https://dc.lft.to/lastmile_qr_scan"}, "fusion_lat": 0.0, "is_reserved": 0, "lat": 38.8921265, "name": "1bff3e3200afe5d0cfd0b605c2682a1d", "bike_id": "1bff3e3200afe5d0cfd0b605c2682a1d", "is_disabled": 0, "fusion_lon": 0.0, "type": "electric_scooter", "lon": -76.921581}, {"rental_uris": {"android": "https://dc.lft.to/lastmile_qr_scan", "ios": "https://dc.lft.to/lastmile_qr_scan"}, "fusion_lat": 0.0, "is_reserved": 0, "lat": 38.887724666666664, "name": "bc2aec0596affc37e813fcb62952f51d", "bike_id": "bc2aec0596affc37e813fcb62952f51d", "is_disabled": 0, "fusion_lon": 0.0, "type": "electric_scooter", "lon": -76.93263166666667}, {"rental_uris": {"android": "https://dc.lft.to/lastmile_qr_scan", "ios": "https://dc.lft.to/lastmile_qr_scan"}, "fusion_lat": 0.0, "is_reserved": 0, "lat": 38.9696645, "name": "42a3d169ba4bade67f627e0238e43313", "bike_id": "42a3d169ba4bade67f627e0238e43313", "is_disabled": 0, "fusion_lon": 0.0, "type": "electric_bike", "lon": -77.02743583333333}, {"rental_uris": {"android": "https://dc.lft.to/lastmile_qr_scan", "ios": "https://dc.lft.to/lastmile_qr_scan"}, "fusion_lat": 0.0, "is_reserved": 0, "lat": 38.921633, "name": "6bbb8fe2e40a082d7516c293a548fce7", "bike_id": "6bbb8fe2e40a082d7516c293a548fce7", "is_disabled": 0, "fusion_lon": 0.0, "type": "electric_scooter", "lon": -77.03384116666666}, {"rental_uris": {"android": "https://dc.lft.to/lastmile_qr_scan", "ios": "https://dc.lft.to/lastmile_qr_scan"}, "fusion_lat": 0.0, "is_reserved": 0, "lat": 38.9072815, "name": "f177f7d7d11235fc27a0b3b61134d8a0", "bike_id": "f177f7d7d11235fc27a0b3b61134d8a0", "is_disabled": 0, "fusion_lon": 0.0, "type": "electric_scooter", "lon": -77.017275}, {"rental_uris": {"android": "https://dc.lft.to/lastmile_qr_scan", "ios": "https://dc.lft.to/lastmile_qr_scan"}, "fusion_lat": 0.0, "is_reserved": 0, "lat": 38.920304, "name": "71357d9320cab61c0e3dfb22e37b91c9", "bike_id": "71357d9320cab61c0e3dfb22e37b91c9", "is_disabled": 0, "fusion_lon": 0.0, "type": "electric_scooter", "lon": -76.98545416666667}, {"rental_uris": {"android": "https://dc.lft.to/lastmile_qr_scan", "ios": "https://dc.lft.to/lastmile_qr_scan"}, "fusion_lat": 0.0, "is_reserved": 0, "lat": 38.9236955, "name": "b08ca2b6e2f4a6d19a039fcf5792dcb6", "bike_id": "b08ca2b6e2f4a6d19a039fcf5792dcb6", "is_disabled": 0, "fusion_lon": 0.0, "type": "electric_scooter", "lon": -77.05031616666666}, {"rental_uris": {"android": "https://dc.lft.to/lastmile_qr_scan", "ios": "https://dc.lft.to/lastmile_qr_scan"}, "fusion_lat": 0.0, "is_reserved": 0, "lat": 38.887681, "name": "e8f592f5d22647a3c0389e9fb4554491", "bike_id": "e8f592f5d22647a3c0389e9fb4554491", "is_disabled": 0, "fusion_lon": 0.0, "type": "electric_bike", "lon": -76.90076683333334}, {"rental_uris": {"android": "https://dc.lft.to/lastmile_qr_scan", "ios": "https://dc.lft.to/lastmile_qr_scan"}, "fusion_lat": 0.0, "is_reserved": 0, "lat": 38.921754, "name": "578bc043da44f62d38d0d8a4d10ffd92", "bike_id": "578bc043da44f62d38d0d8a4d10ffd92", "is_disabled": 0, "fusion_lon": 0.0, "type": "electric_scooter", "lon": -77.01911783333334}, {"rental_uris": {"android": "https://dc.lft.to/lastmile_qr_scan", "ios": "https://dc.lft.to/lastmile_qr_scan"}, "fusion_lat": 0.0, "is_reserved": 0, "lat": 38.8850985, "name": "92b5e7a1100a78608145060e7dc4500b", "bike_id": "92b5e7a1100a78608145060e7dc4500b", "is_disabled": 0, "fusion_lon": 0.0, "type": "electric_scooter", "lon": -77.01117666666667}, {"rental_uris": {"android": "https://dc.lft.to/lastmile_qr_scan", "ios": "https://dc.lft.to/lastmile_qr_scan"}, "fusion_lat": 0.0, "is_reserved": 0, "lat": 38.91690366666667, "name": "6a583333bcdbbfa9a477cbc7acb8a9fd", "bike_id": "6a583333bcdbbfa9a477cbc7acb8a9fd", "is_disabled": 0, "fusion_lon": 0.0, "type": "electric_scooter", "lon": -77.02595983333333}, {"rental_uris": {"android": "https://dc.lft.to/lastmile_qr_scan", "ios": "https://dc.lft.to/lastmile_qr_scan"}, "fusion_lat": 0.0, "is_reserved": 0, "lat": 38.9050675, "name": "2c5b1170052321734055b9a18e3aa2b9", "bike_id": "2c5b1170052321734055b9a18e3aa2b9", "is_disabled": 0, "fusion_lon": 0.0, "type": "electric_scooter", "lon": -76.9995515}, {"rental_uris": {"android": "https://dc.lft.to/lastmile_qr_scan", "ios": "https://dc.lft.to/lastmile_qr_scan"}, "fusion_lat": 0.0, "is_reserved": 0, "lat": 38.90241733333333, "name": "98478eff13a4a45a9b47581c6d68382c", "bike_id": "98478eff13a4a45a9b47581c6d68382c", "is_disabled": 0, "fusion_lon": 0.0, "type": "electric_scooter", "lon": -77.01911983333333}, {"rental_uris": {"android": "https://dc.lft.to/lastmile_qr_scan", "ios": "https://dc.lft.to/lastmile_qr_scan"}, "fusion_lat": 0.0, "is_reserved": 0, "lat": 38.89233, "name": "60d5918b63b188a4fe44c7f382e0311a", "bike_id": "60d5918b63b188a4fe44c7f382e0311a", "is_disabled": 0, "fusion_lon": 0.0, "type": "electric_scooter", "lon": -77.050038}, {"rental_uris": {"android": "https://dc.lft.to/lastmile_qr_scan", "ios": "https://dc.lft.to/lastmile_qr_scan"}, "fusion_lat": 0.0, "is_reserved": 0, "lat": 38.94668133333333, "name": "c98254908cc154a799004d9c7e1716d6", "bike_id": "c98254908cc154a799004d9c7e1716d6", "is_disabled": 0, "fusion_lon": 0.0, "type": "electric_bike", "lon": -76.99334066666667}, {"rental_uris": {"android": "https://dc.lft.to/lastmile_qr_scan", "ios": "https://dc.lft.to/lastmile_qr_scan"}, "fusion_lat": 0.0, "is_reserved": 0, "lat": 38.931626, "name": "60828aa96fcd9b435074273e4ef98b75", "bike_id": "60828aa96fcd9b435074273e4ef98b75", "is_disabled": 0, "fusion_lon": 0.0, "type": "electric_scooter", "lon": -77.0785595}, {"rental_uris": {"android": "https://dc.lft.to/lastmile_qr_scan", "ios": "https://dc.lft.to/lastmile_qr_scan"}, "fusion_lat": 0.0, "is_reserved": 0, "lat": 38.913337166666665, "name": "bc7c459f2fc162a0d3a0f53ee452357c", "bike_id": "bc7c459f2fc162a0d3a0f53ee452357c", "is_disabled": 0, "fusion_lon": 0.0, "type": "electric_scooter", "lon": -77.04267933333334}, {"rental_uris": {"android": "https://dc.lft.to/lastmile_qr_scan", "ios": "https://dc.lft.to/lastmile_qr_scan"}, "fusion_lat": 0.0, "is_reserved": 0, "lat": 38.91267633333333, "name": "1143219873519e56d86194ee5853b5cc", "bike_id": "1143219873519e56d86194ee5853b5cc", "is_disabled": 0, "fusion_lon": 0.0, "type": "electric_scooter", "lon": -77.02213233333333}, {"rental_uris": {"android": "https://dc.lft.to/lastmile_qr_scan", "ios": "https://dc.lft.to/lastmile_qr_scan"}, "fusion_lat": 0.0, "is_reserved": 0, "lat": 38.932627333333336, "name": "3ac1273f292c0d20947863888a71d167", "bike_id": "3ac1273f292c0d20947863888a71d167", "is_disabled": 0, "fusion_lon": 0.0, "type": "electric_scooter", "lon": -77.03459116666667}, {"rental_uris": {"android": "https://dc.lft.to/lastmile_qr_scan", "ios": "https://dc.lft.to/lastmile_qr_scan"}, "fusion_lat": 0.0, "is_reserved": 0, "lat": 38.927408166666666, "name": "6ab442788f0c1cc57a2d29f017287601", "bike_id": "6ab442788f0c1cc57a2d29f017287601", "is_disabled": 0, "fusion_lon": 0.0, "type": "electric_scooter", "lon": -77.0326315}, {"rental_uris": {"android": "https://dc.lft.to/lastmile_qr_scan", "ios": "https://dc.lft.to/lastmile_qr_scan"}, "fusion_lat": 0.0, "is_reserved": 0, "lat": 38.8860685, "name": "977893e6fc324b32d05cdeee25a2542d", "bike_id": "977893e6fc324b32d05cdeee25a2542d", "is_disabled": 0, "fusion_lon": 0.0, "type": "electric_bike", "lon": -77.14234033333334}, {"rental_uris": {"android": "https://dc.lft.to/lastmile_qr_scan", "ios": "https://dc.lft.to/lastmile_qr_scan"}, "fusion_lat": 0.0, "is_reserved": 0, "lat": 38.921267666666665, "name": "075e17de91caa4315bbf33163dfb4db3", "bike_id": "075e17de91caa4315bbf33163dfb4db3", "is_disabled": 0, "fusion_lon": 0.0, "type": "electric_scooter", "lon": -77.045637}, {"rental_uris": {"android": "https://dc.lft.to/lastmile_qr_scan", "ios": "https://dc.lft.to/lastmile_qr_scan"}, "fusion_lat": 0.0, "is_reserved": 0, "lat": 38.908331, "name": "52d6ae1b9aefaaca7a8049c2721a9dfd", "bike_id": "52d6ae1b9aefaaca7a8049c2721a9dfd", "is_disabled": 0, "fusion_lon": 0.0, "type": "electric_scooter", "lon": -77.00209016666666}, {"rental_uris": {"android": "https://dc.lft.to/lastmile_qr_scan", "ios": "https://dc.lft.to/lastmile_qr_scan"}, "fusion_lat": 0.0, "is_reserved": 0, "lat": 38.91268133333333, "name": "23ed3c41bad28560104b0ebab8c580a0", "bike_id": "23ed3c41bad28560104b0ebab8c580a0", "is_disabled": 0, "fusion_lon": 0.0, "type": "electric_scooter", "lon": -77.007962}, {"rental_uris": {"android": "https://dc.lft.to/lastmile_qr_scan", "ios": "https://dc.lft.to/lastmile_qr_scan"}, "fusion_lat": 0.0, "is_reserved": 0, "lat": 38.857791166666665, "name": "baef650ba334c3cfbbb5b82cfb9af1d3", "bike_id": "baef650ba334c3cfbbb5b82cfb9af1d3", "is_disabled": 0, "fusion_lon": 0.0, "type": "electric_bike", "lon": -76.98753966666666}, {"rental_uris": {"android": "https://dc.lft.to/lastmile_qr_scan", "ios": "https://dc.lft.to/lastmile_qr_scan"}, "fusion_lat": 0.0, "is_reserved": 0, "lat": 38.83028983333333, "name": "93a0299932981e62465e7f1829733a7a", "bike_id": "93a0299932981e62465e7f1829733a7a", "is_disabled": 0, "fusion_lon": 0.0, "type": "electric_bike", "lon": -77.08377733333333}, {"rental_uris": {"android": "https://dc.lft.to/lastmile_qr_scan", "ios": "https://dc.lft.to/lastmile_qr_scan"}, "fusion_lat": 0.0, "is_reserved": 0, "lat": 38.92075466666667, "name": "a6887644c3e52743d83cdbfda6762757", "bike_id": "a6887644c3e52743d83cdbfda6762757", "is_disabled": 0, "fusion_lon": 0.0, "type": "electric_scooter", "lon": -77.02449683333333}, {"rental_uris": {"android": "https://dc.lft.to/lastmile_qr_scan", "ios": "https://dc.lft.to/lastmile_qr_scan"}, "fusion_lat": 0.0, "is_reserved": 0, "lat": 38.92603016666666, "name": "5563b618ad317f74d74a40f51705dd24", "bike_id": "5563b618ad317f74d74a40f51705dd24", "is_disabled": 0, "fusion_lon": 0.0, "type": "electric_scooter", "lon": -77.02156283333333}, {"rental_uris": {"android": "https://dc.lft.to/lastmile_qr_scan", "ios": "https://dc.lft.to/lastmile_qr_scan"}, "fusion_lat": 0.0, "is_reserved": 0, "lat": 38.94750716666667, "name": "4cf72f58a9897aeae060421091b7e5e1", "bike_id": "4cf72f58a9897aeae060421091b7e5e1", "is_disabled": 0, "fusion_lon": 0.0, "type": "electric_scooter", "lon": -77.0195495}, {"rental_uris": {"android": "https://dc.lft.to/lastmile_qr_scan", "ios": "https://dc.lft.to/lastmile_qr_scan"}, "fusion_lat": 0.0, "is_reserved": 0, "lat": 38.904956166666665, "name": "4fcb6f475101b478408827e185a1079a", "bike_id": "4fcb6f475101b478408827e185a1079a", "is_disabled": 0, "fusion_lon": 0.0, "type": "electric_scooter", "lon": -76.98023816666667}, {"rental_uris": {"android": "https://dc.lft.to/lastmile_qr_scan", "ios": "https://dc.lft.to/lastmile_qr_scan"}, "fusion_lat": 0.0, "is_reserved": 0, "lat": 38.9246835, "name": "9bebc93343e10627c0bf7672d66f5f2f", "bike_id": "9bebc93343e10627c0bf7672d66f5f2f", "is_disabled": 0, "fusion_lon": 0.0, "type": "electric_scooter", "lon": -77.0211165}, {"rental_uris": {"android": "https://dc.lft.to/lastmile_qr_scan", "ios": "https://dc.lft.to/lastmile_qr_scan"}, "fusion_lat": 0.0, "is_reserved": 0, "lat": 38.916393166666666, "name": "e5288ddb3906fe892199b68823589a9d", "bike_id": "e5288ddb3906fe892199b68823589a9d", "is_disabled": 0, "fusion_lon": 0.0, "type": "electric_scooter", "lon": -77.01063716666667}, {"rental_uris": {"android": "https://dc.lft.to/lastmile_qr_scan", "ios": "https://dc.lft.to/lastmile_qr_scan"}, "fusion_lat": 0.0, "is_reserved": 0, "lat": 38.90576883333333, "name": "6439366a8595a129b20dd81663a3b65b", "bike_id": "6439366a8595a129b20dd81663a3b65b", "is_disabled": 0, "fusion_lon": 0.0, "type": "electric_scooter", "lon": -77.04190433333333}, {"rental_uris": {"android": "https://dc.lft.to/lastmile_qr_scan", "ios": "https://dc.lft.to/lastmile_qr_scan"}, "fusion_lat": 0.0, "is_reserved": 0, "lat": 38.89621733333333, "name": "97a05f1dd61abc216c1e9b683931312f", "bike_id": "97a05f1dd61abc216c1e9b683931312f", "is_disabled": 0, "fusion_lon": 0.0, "type": "electric_scooter", "lon": -77.01171483333333}, {"rental_uris": {"android": "https://dc.lft.to/lastmile_qr_scan", "ios": "https://dc.lft.to/lastmile_qr_scan"}, "fusion_lat": 0.0, "is_reserved": 0, "lat": 38.9472835, "name": "ed64617b385686a45aee1839320c1037", "bike_id": "ed64617b385686a45aee1839320c1037", "is_disabled": 0, "fusion_lon": 0.0, "type": "electric_scooter", "lon": -77.024563}, {"rental_uris": {"android": "https://dc.lft.to/lastmile_qr_scan", "ios": "https://dc.lft.to/lastmile_qr_scan"}, "fusion_lat": 0.0, "is_reserved": 0, "lat": 38.94821433333333, "name": "59877504011a8ce40a89eee071f790cd", "bike_id": "59877504011a8ce40a89eee071f790cd", "is_disabled": 0, "fusion_lon": 0.0, "type": "electric_bike", "lon": -77.00636983333334}, {"rental_uris": {"android": "https://dc.lft.to/lastmile_qr_scan", "ios": "https://dc.lft.to/lastmile_qr_scan"}, "fusion_lat": 0.0, "is_reserved": 0, "lat": 38.900628, "name": "851f10437e9dcc64395a29ba071c50c5", "bike_id": "851f10437e9dcc64395a29ba071c50c5", "is_disabled": 0, "fusion_lon": 0.0, "type": "electric_scooter", "lon": -76.927471}, {"rental_uris": {"android": "https://dc.lft.to/lastmile_qr_scan", "ios": "https://dc.lft.to/lastmile_qr_scan"}, "fusion_lat": 0.0, "is_reserved": 0, "lat": 38.90938966666667, "name": "a5cabc8c12efa8aa3c995397290e904c", "bike_id": "a5cabc8c12efa8aa3c995397290e904c", "is_disabled": 0, "fusion_lon": 0.0, "type": "electric_scooter", "lon": -77.04687033333333}, {"rental_uris": {"android": "https://dc.lft.to/lastmile_qr_scan", "ios": "https://dc.lft.to/lastmile_qr_scan"}, "fusion_lat": 0.0, "is_reserved": 0, "lat": 38.9205215, "name": "cf1bc9e9c7f0aa32c86f4a2d52630310", "bike_id": "cf1bc9e9c7f0aa32c86f4a2d52630310", "is_disabled": 0, "fusion_lon": 0.0, "type": "electric_scooter", "lon": -77.0298645}, {"rental_uris": {"android": "https://dc.lft.to/lastmile_qr_scan", "ios": "https://dc.lft.to/lastmile_qr_scan"}, "fusion_lat": 0.0, "is_reserved": 0, "lat": 38.87632966666666, "name": "105108617824f51f6494e0737535501c", "bike_id": "105108617824f51f6494e0737535501c", "is_disabled": 0, "fusion_lon": 0.0, "type": "electric_scooter", "lon": -77.016592}, {"rental_uris": {"android": "https://dc.lft.to/lastmile_qr_scan", "ios": "https://dc.lft.to/lastmile_qr_scan"}, "fusion_lat": 0.0, "is_reserved": 0, "lat": 38.882683666666665, "name": "d1398c223f48d5ef760c6f86e7d2a4d9", "bike_id": "d1398c223f48d5ef760c6f86e7d2a4d9", "is_disabled": 0, "fusion_lon": 0.0, "type": "electric_scooter", "lon": -76.99200066666667}, {"rental_uris": {"android": "https://dc.lft.to/lastmile_qr_scan", "ios": "https://dc.lft.to/lastmile_qr_scan"}, "fusion_lat": 0.0, "is_reserved": 0, "lat": 38.926948833333334, "name": "d50648d9c33a1ee55388a215655235b3", "bike_id": "d50648d9c33a1ee55388a215655235b3", "is_disabled": 0, "fusion_lon": 0.0, "type": "electric_scooter", "lon": -77.02058666666667}, {"rental_uris": {"android": "https://dc.lft.to/lastmile_qr_scan", "ios": "https://dc.lft.to/lastmile_qr_scan"}, "fusion_lat": 0.0, "is_reserved": 0, "lat": 38.87177166666667, "name": "4f291e27ebe0cc5bb4045792c1e4fb63", "bike_id": "4f291e27ebe0cc5bb4045792c1e4fb63", "is_disabled": 0, "fusion_lon": 0.0, "type": "electric_scooter", "lon": -77.00610316666666}, {"rental_uris": {"android": "https://dc.lft.to/lastmile_qr_scan", "ios": "https://dc.lft.to/lastmile_qr_scan"}, "fusion_lat": 0.0, "is_reserved": 0, "lat": 38.897778333333335, "name": "ed61a3c07fbc7dc886ae32cd21b7313b", "bike_id": "ed61a3c07fbc7dc886ae32cd21b7313b", "is_disabled": 0, "fusion_lon": 0.0, "type": "electric_scooter", "lon": -77.015902}, {"rental_uris": {"android": "https://dc.lft.to/lastmile_qr_scan", "ios": "https://dc.lft.to/lastmile_qr_scan"}, "fusion_lat": 0.0, "is_reserved": 0, "lat": 38.919830833333336, "name": "c8ea5a0150ba0b530de486b370a7389b", "bike_id": "c8ea5a0150ba0b530de486b370a7389b", "is_disabled": 0, "fusion_lon": 0.0, "type": "electric_scooter", "lon": -77.0218145}, {"rental_uris": {"android": "https://dc.lft.to/lastmile_qr_scan", "ios": "https://dc.lft.to/lastmile_qr_scan"}, "fusion_lat": 0.0, "is_reserved": 0, "lat": 38.890181166666665, "name": "ef9d61e75ec960f8f10d03aa1f4dfd17", "bike_id": "ef9d61e75ec960f8f10d03aa1f4dfd17", "is_disabled": 0, "fusion_lon": 0.0, "type": "electric_scooter", "lon": -76.93737083333333}, {"rental_uris": {"android": "https://dc.lft.to/lastmile_qr_scan", "ios": "https://dc.lft.to/lastmile_qr_scan"}, "fusion_lat": 0.0, "is_reserved": 0, "lat": 38.9009955, "name": "aecc11093c97a8136a8f2b1961d07119", "bike_id": "aecc11093c97a8136a8f2b1961d07119", "is_disabled": 0, "fusion_lon": 0.0, "type": "electric_scooter", "lon": -76.98005016666667}, {"rental_uris": {"android": "https://dc.lft.to/lastmile_qr_scan", "ios": "https://dc.lft.to/lastmile_qr_scan"}, "fusion_lat": 0.0, "is_reserved": 0, "lat": 38.91108216666667, "name": "ccfadc8192d25651baa8561736cfe395", "bike_id": "ccfadc8192d25651baa8561736cfe395", "is_disabled": 0, "fusion_lon": 0.0, "type": "electric_scooter", "lon": -77.07351583333333}, {"rental_uris": {"android": "https://dc.lft.to/lastmile_qr_scan", "ios": "https://dc.lft.to/lastmile_qr_scan"}, "fusion_lat": 0.0, "is_reserved": 0, "lat": 38.90540566666667, "name": "36038377175202014a2215e77134cf9d", "bike_id": "36038377175202014a2215e77134cf9d", "is_disabled": 0, "fusion_lon": 0.0, "type": "electric_scooter", "lon": -77.0052785}, {"rental_uris": {"android": "https://dc.lft.to/lastmile_qr_scan", "ios": "https://dc.lft.to/lastmile_qr_scan"}, "fusion_lat": 0.0, "is_reserved": 0, "lat": 38.939472, "name": "132b1eaaed4017de124e87a2084f5f72", "bike_id": "132b1eaaed4017de124e87a2084f5f72", "is_disabled": 0, "fusion_lon": 0.0, "type": "electric_scooter", "lon": -77.07242}, {"rental_uris": {"android": "https://dc.lft.to/lastmile_qr_scan", "ios": "https://dc.lft.to/lastmile_qr_scan"}, "fusion_lat": 0.0, "is_reserved": 0, "lat": 38.84278533333333, "name": "b6c2af7a8b067eee6c10b0036ec7d62a", "bike_id": "b6c2af7a8b067eee6c10b0036ec7d62a", "is_disabled": 0, "fusion_lon": 0.0, "type": "electric_bike", "lon": -76.98840516666667}, {"rental_uris": {"android": "https://dc.lft.to/lastmile_qr_scan", "ios": "https://dc.lft.to/lastmile_qr_scan"}, "fusion_lat": 0.0, "is_reserved": 0, "lat": 38.88718133333333, "name": "7db40a7f683077b41faf4516c95383f0", "bike_id": "7db40a7f683077b41faf4516c95383f0", "is_disabled": 0, "fusion_lon": 0.0, "type": "electric_scooter", "lon": -77.02175283333334}, {"rental_uris": {"android": "https://dc.lft.to/lastmile_qr_scan", "ios": "https://dc.lft.to/lastmile_qr_scan"}, "fusion_lat": 0.0, "is_reserved": 0, "lat": 38.918168333333334, "name": "12f65ddc257884492f772e895ea7140b", "bike_id": "12f65ddc257884492f772e895ea7140b", "is_disabled": 0, "fusion_lon": 0.0, "type": "electric_scooter", "lon": -77.024749}, {"rental_uris": {"android": "https://dc.lft.to/lastmile_qr_scan", "ios": "https://dc.lft.to/lastmile_qr_scan"}, "fusion_lat": 0.0, "is_reserved": 0, "lat": 38.898026, "name": "7a4beffa3e721153399c3bf9f2ff251b", "bike_id": "7a4beffa3e721153399c3bf9f2ff251b", "is_disabled": 0, "fusion_lon": 0.0, "type": "electric_scooter", "lon": -77.04615933333334}, {"rental_uris": {"android": "https://dc.lft.to/lastmile_qr_scan", "ios": "https://dc.lft.to/lastmile_qr_scan"}, "fusion_lat": 0.0, "is_reserved": 0, "lat": 38.9346845, "name": "728a700e817e1439ff72ebfdea3dcb49", "bike_id": "728a700e817e1439ff72ebfdea3dcb49", "is_disabled": 0, "fusion_lon": 0.0, "type": "electric_scooter", "lon": -77.04133866666666}, {"rental_uris": {"android": "https://dc.lft.to/lastmile_qr_scan", "ios": "https://dc.lft.to/lastmile_qr_scan"}, "fusion_lat": 0.0, "is_reserved": 0, "lat": 38.91415716666667, "name": "665e61a1c87baa19ff226bb9327a49f8", "bike_id": "665e61a1c87baa19ff226bb9327a49f8", "is_disabled": 0, "fusion_lon": 0.0, "type": "electric_scooter", "lon": -77.01908866666666}, {"rental_uris": {"android": "https://dc.lft.to/lastmile_qr_scan", "ios": "https://dc.lft.to/lastmile_qr_scan"}, "fusion_lat": 0.0, "is_reserved": 0, "lat": 38.907743333333336, "name": "a7b7716d31fec78093f41e6a4a838c5f", "bike_id": "a7b7716d31fec78093f41e6a4a838c5f", "is_disabled": 0, "fusion_lon": 0.0, "type": "electric_scooter", "lon": -77.0375875}, {"rental_uris": {"android": "https://dc.lft.to/lastmile_qr_scan", "ios": "https://dc.lft.to/lastmile_qr_scan"}, "fusion_lat": 0.0, "is_reserved": 0, "lat": 38.922027666666665, "name": "2a160fede7ccde9b2e42f09e4b243704", "bike_id": "2a160fede7ccde9b2e42f09e4b243704", "is_disabled": 0, "fusion_lon": 0.0, "type": "electric_scooter", "lon": -77.02712366666667}, {"rental_uris": {"android": "https://dc.lft.to/lastmile_qr_scan", "ios": "https://dc.lft.to/lastmile_qr_scan"}, "fusion_lat": 0.0, "is_reserved": 0, "lat": 38.91051733333333, "name": "746bce0a68436ba609e3ca43e5aeaa97", "bike_id": "746bce0a68436ba609e3ca43e5aeaa97", "is_disabled": 0, "fusion_lon": 0.0, "type": "electric_scooter", "lon": -77.02189216666666}, {"rental_uris": {"android": "https://dc.lft.to/lastmile_qr_scan", "ios": "https://dc.lft.to/lastmile_qr_scan"}, "fusion_lat": 0.0, "is_reserved": 0, "lat": 38.91478216666667, "name": "af35b15949c739509d9ca50c29ac0607", "bike_id": "af35b15949c739509d9ca50c29ac0607", "is_disabled": 0, "fusion_lon": 0.0, "type": "electric_scooter", "lon": -77.0219065}, {"rental_uris": {"android": "https://dc.lft.to/lastmile_qr_scan", "ios": "https://dc.lft.to/lastmile_qr_scan"}, "fusion_lat": 0.0, "is_reserved": 0, "lat": 38.92229116666667, "name": "ccc6945da1a3512c826991698c282a9d", "bike_id": "ccc6945da1a3512c826991698c282a9d", "is_disabled": 0, "fusion_lon": 0.0, "type": "electric_scooter", "lon": -77.02332816666667}, {"rental_uris": {"android": "https://dc.lft.to/lastmile_qr_scan", "ios": "https://dc.lft.to/lastmile_qr_scan"}, "fusion_lat": 0.0, "is_reserved": 0, "lat": 38.91772383333333, "name": "0258a8b4d84a768f6e606fd1aabfd5bc", "bike_id": "0258a8b4d84a768f6e606fd1aabfd5bc", "is_disabled": 0, "fusion_lon": 0.0, "type": "electric_scooter", "lon": -77.04750333333334}, {"rental_uris": {"android": "https://dc.lft.to/lastmile_qr_scan", "ios": "https://dc.lft.to/lastmile_qr_scan"}, "fusion_lat": 0.0, "is_reserved": 0, "lat": 38.9287805, "name": "af9fbea5f91e2732e82d5ad582eeacb1", "bike_id": "af9fbea5f91e2732e82d5ad582eeacb1", "is_disabled": 0, "fusion_lon": 0.0, "type": "electric_scooter", "lon": -77.03425166666666}, {"rental_uris": {"android": "https://dc.lft.to/lastmile_qr_scan", "ios": "https://dc.lft.to/lastmile_qr_scan"}, "fusion_lat": 0.0, "is_reserved": 0, "lat": 38.95354116666667, "name": "ab4dffd3904f75588be8eced67ea9a7a", "bike_id": "ab4dffd3904f75588be8eced67ea9a7a", "is_disabled": 0, "fusion_lon": 0.0, "type": "electric_bike", "lon": -76.980955}, {"rental_uris": {"android": "https://dc.lft.to/lastmile_qr_scan", "ios": "https://dc.lft.to/lastmile_qr_scan"}, "fusion_lat": 0.0, "is_reserved": 0, "lat": 38.9178375, "name": "61d81f0d6ff96bd9dd1fd544cdb6bc3a", "bike_id": "61d81f0d6ff96bd9dd1fd544cdb6bc3a", "is_disabled": 0, "fusion_lon": 0.0, "type": "electric_scooter", "lon": -77.0231055}, {"rental_uris": {"android": "https://dc.lft.to/lastmile_qr_scan", "ios": "https://dc.lft.to/lastmile_qr_scan"}, "fusion_lat": 0.0, "is_reserved": 0, "lat": 38.903458, "name": "0531187297ef8d1df2337b665c3f5407", "bike_id": "0531187297ef8d1df2337b665c3f5407", "is_disabled": 0, "fusion_lon": 0.0, "type": "electric_scooter", "lon": -76.98613733333333}, {"rental_uris": {"android": "https://dc.lft.to/lastmile_qr_scan", "ios": "https://dc.lft.to/lastmile_qr_scan"}, "fusion_lat": 0.0, "is_reserved": 0, "lat": 38.93753516666666, "name": "0367f8a38ac40e4224e9bacc365cd250", "bike_id": "0367f8a38ac40e4224e9bacc365cd250", "is_disabled": 0, "fusion_lon": 0.0, "type": "electric_scooter", "lon": -77.02477233333333}, {"rental_uris": {"android": "https://dc.lft.to/lastmile_qr_scan", "ios": "https://dc.lft.to/lastmile_qr_scan"}, "fusion_lat": 0.0, "is_reserved": 0, "lat": 38.900616166666666, "name": "9650ae37eaba8326f8675596e11a8896", "bike_id": "9650ae37eaba8326f8675596e11a8896", "is_disabled": 0, "fusion_lon": 0.0, "type": "electric_scooter", "lon": -77.02600933333333}, {"rental_uris": {"android": "https://dc.lft.to/lastmile_qr_scan", "ios": "https://dc.lft.to/lastmile_qr_scan"}, "fusion_lat": 0.0, "is_reserved": 0, "lat": 38.92205366666666, "name": "75d7dfaed6ede8546ca71597710efa26", "bike_id": "75d7dfaed6ede8546ca71597710efa26", "is_disabled": 0, "fusion_lon": 0.0, "type": "electric_scooter", "lon": -77.037485}, {"rental_uris": {"android": "https://dc.lft.to/lastmile_qr_scan", "ios": "https://dc.lft.to/lastmile_qr_scan"}, "fusion_lat": 0.0, "is_reserved": 0, "lat": 38.899840166666664, "name": "f99e8e69a37670b3ca22701346cbdce9", "bike_id": "f99e8e69a37670b3ca22701346cbdce9", "is_disabled": 0, "fusion_lon": 0.0, "type": "electric_scooter", "lon": -77.01633233333334}, {"rental_uris": {"android": "https://dc.lft.to/lastmile_qr_scan", "ios": "https://dc.lft.to/lastmile_qr_scan"}, "fusion_lat": 0.0, "is_reserved": 0, "lat": 38.875363, "name": "e9dc85c5664834c04bf74f82dfc618ee", "bike_id": "e9dc85c5664834c04bf74f82dfc618ee", "is_disabled": 0, "fusion_lon": 0.0, "type": "electric_scooter", "lon": -77.01744516666666}, {"rental_uris": {"android": "https://dc.lft.to/lastmile_qr_scan", "ios": "https://dc.lft.to/lastmile_qr_scan"}, "fusion_lat": 0.0, "is_reserved": 0, "lat": 38.9737575, "name": "1437ccdc959f5f24ffc3bd09a66bd9aa", "bike_id": "1437ccdc959f5f24ffc3bd09a66bd9aa", "is_disabled": 0, "fusion_lon": 0.0, "type": "electric_scooter", "lon": -77.0267205}, {"rental_uris": {"android": "https://dc.lft.to/lastmile_qr_scan", "ios": "https://dc.lft.to/lastmile_qr_scan"}, "fusion_lat": 0.0, "is_reserved": 0, "lat": 38.91557016666667, "name": "c00a1339bcd3af8678097bfc33b7b47e", "bike_id": "c00a1339bcd3af8678097bfc33b7b47e", "is_disabled": 0, "fusion_lon": 0.0, "type": "electric_scooter", "lon": -77.040058}, {"rental_uris": {"android": "https://dc.lft.to/lastmile_qr_scan", "ios": "https://dc.lft.to/lastmile_qr_scan"}, "fusion_lat": 0.0, "is_reserved": 0, "lat": 38.912684666666664, "name": "5e57793696188733613e2983f889add2", "bike_id": "5e57793696188733613e2983f889add2", "is_disabled": 0, "fusion_lon": 0.0, "type": "electric_scooter", "lon": -77.02214383333333}, {"rental_uris": {"android": "https://dc.lft.to/lastmile_qr_scan", "ios": "https://dc.lft.to/lastmile_qr_scan"}, "fusion_lat": 0.0, "is_reserved": 0, "lat": 38.89305366666667, "name": "72e73a4a32a0c658efc80f7a3f45992b", "bike_id": "72e73a4a32a0c658efc80f7a3f45992b", "is_disabled": 0, "fusion_lon": 0.0, "type": "electric_scooter", "lon": -76.9397025}, {"rental_uris": {"android": "https://dc.lft.to/lastmile_qr_scan", "ios": "https://dc.lft.to/lastmile_qr_scan"}, "fusion_lat": 0.0, "is_reserved": 0, "lat": 38.905879166666665, "name": "e73935cb49c3507a7c912ad16a786f6e", "bike_id": "e73935cb49c3507a7c912ad16a786f6e", "is_disabled": 0, "fusion_lon": 0.0, "type": "electric_scooter", "lon": -77.02181016666667}, {"rental_uris": {"android": "https://dc.lft.to/lastmile_qr_scan", "ios": "https://dc.lft.to/lastmile_qr_scan"}, "fusion_lat": 0.0, "is_reserved": 0, "lat": 38.86533083333333, "name": "af62357cd10ee4d08a08cc69ad757613", "bike_id": "af62357cd10ee4d08a08cc69ad757613", "is_disabled": 0, "fusion_lon": 0.0, "type": "electric_scooter", "lon": -76.97458933333333}, {"rental_uris": {"android": "https://dc.lft.to/lastmile_qr_scan", "ios": "https://dc.lft.to/lastmile_qr_scan"}, "fusion_lat": 0.0, "is_reserved": 0, "lat": 38.93143766666667, "name": "c0f0833e13a12b28cf0b31143e5118b3", "bike_id": "c0f0833e13a12b28cf0b31143e5118b3", "is_disabled": 0, "fusion_lon": 0.0, "type": "electric_bike", "lon": -77.02822416666666}, {"rental_uris": {"android": "https://dc.lft.to/lastmile_qr_scan", "ios": "https://dc.lft.to/lastmile_qr_scan"}, "fusion_lat": 0.0, "is_reserved": 0, "lat": 38.90185533333333, "name": "bda61b4b6b12af41e87793dfe81eb439", "bike_id": "bda61b4b6b12af41e87793dfe81eb439", "is_disabled": 0, "fusion_lon": 0.0, "type": "electric_scooter", "lon": -76.93005433333333}, {"rental_uris": {"android": "https://dc.lft.to/lastmile_qr_scan", "ios": "https://dc.lft.to/lastmile_qr_scan"}, "fusion_lat": 0.0, "is_reserved": 0, "lat": 38.894847, "name": "c880acdec9b75fe05928449b93a2efaa", "bike_id": "c880acdec9b75fe05928449b93a2efaa", "is_disabled": 0, "fusion_lon": 0.0, "type": "electric_scooter", "lon": -76.99577033333334}, {"rental_uris": {"android": "https://dc.lft.to/lastmile_qr_scan", "ios": "https://dc.lft.to/lastmile_qr_scan"}, "fusion_lat": 0.0, "is_reserved": 0, "lat": 38.919223833333334, "name": "a04740636812ae00dfe87346376aae96", "bike_id": "a04740636812ae00dfe87346376aae96", "is_disabled": 0, "fusion_lon": 0.0, "type": "electric_scooter", "lon": -77.03421083333333}, {"rental_uris": {"android": "https://dc.lft.to/lastmile_qr_scan", "ios": "https://dc.lft.to/lastmile_qr_scan"}, "fusion_lat": 0.0, "is_reserved": 0, "lat": 38.9465295, "name": "f843d9669e5c08605f0c3893842d82bd", "bike_id": "f843d9669e5c08605f0c3893842d82bd", "is_disabled": 0, "fusion_lon": 0.0, "type": "electric_scooter", "lon": -77.06477216666667}, {"rental_uris": {"android": "https://dc.lft.to/lastmile_qr_scan", "ios": "https://dc.lft.to/lastmile_qr_scan"}, "fusion_lat": 0.0, "is_reserved": 0, "lat": 38.933339833333335, "name": "cff1dee527bb8040b2060361cd925212", "bike_id": "cff1dee527bb8040b2060361cd925212", "is_disabled": 0, "fusion_lon": 0.0, "type": "electric_scooter", "lon": -77.03637783333333}, {"rental_uris": {"android": "https://dc.lft.to/lastmile_qr_scan", "ios": "https://dc.lft.to/lastmile_qr_scan"}, "fusion_lat": 0.0, "is_reserved": 0, "lat": 38.92276716666667, "name": "56e90d533c1c3937287fe7c2a445a837", "bike_id": "56e90d533c1c3937287fe7c2a445a837", "is_disabled": 0, "fusion_lon": 0.0, "type": "electric_scooter", "lon": -77.02129516666666}, {"rental_uris": {"android": "https://dc.lft.to/lastmile_qr_scan", "ios": "https://dc.lft.to/lastmile_qr_scan"}, "fusion_lat": 0.0, "is_reserved": 0, "lat": 38.899166666666666, "name": "ed833c4b034da85f3bf7c47530688db8", "bike_id": "ed833c4b034da85f3bf7c47530688db8", "is_disabled": 0, "fusion_lon": 0.0, "type": "electric_scooter", "lon": -76.933679}, {"rental_uris": {"android": "https://dc.lft.to/lastmile_qr_scan", "ios": "https://dc.lft.to/lastmile_qr_scan"}, "fusion_lat": 0.0, "is_reserved": 0, "lat": 38.90740666666667, "name": "55b671cd014f2b7414004409fdcfbfd1", "bike_id": "55b671cd014f2b7414004409fdcfbfd1", "is_disabled": 0, "fusion_lon": 0.0, "type": "electric_scooter", "lon": -77.03207366666666}, {"rental_uris": {"android": "https://dc.lft.to/lastmile_qr_scan", "ios": "https://dc.lft.to/lastmile_qr_scan"}, "fusion_lat": 0.0, "is_reserved": 0, "lat": 38.89835433333333, "name": "d1944f16e71c9e32aecfb4a16f055b10", "bike_id": "d1944f16e71c9e32aecfb4a16f055b10", "is_disabled": 0, "fusion_lon": 0.0, "type": "electric_scooter", "lon": -77.0282935}, {"rental_uris": {"android": "https://dc.lft.to/lastmile_qr_scan", "ios": "https://dc.lft.to/lastmile_qr_scan"}, "fusion_lat": 0.0, "is_reserved": 0, "lat": 38.89351416666667, "name": "cb05fa34cd3d271686c007a364141472", "bike_id": "cb05fa34cd3d271686c007a364141472", "is_disabled": 0, "fusion_lon": 0.0, "type": "electric_scooter", "lon": -77.0033335}, {"rental_uris": {"android": "https://dc.lft.to/lastmile_qr_scan", "ios": "https://dc.lft.to/lastmile_qr_scan"}, "fusion_lat": 0.0, "is_reserved": 0, "lat": 38.88724066666666, "name": "85be1448584d29025b74fd88a3eee2b9", "bike_id": "85be1448584d29025b74fd88a3eee2b9", "is_disabled": 0, "fusion_lon": 0.0, "type": "electric_scooter", "lon": -76.99678316666666}, {"rental_uris": {"android": "https://dc.lft.to/lastmile_qr_scan", "ios": "https://dc.lft.to/lastmile_qr_scan"}, "fusion_lat": 0.0, "is_reserved": 0, "lat": 38.8775975, "name": "2b1ee1683e81ff5fcc1fbcbc2893889b", "bike_id": "2b1ee1683e81ff5fcc1fbcbc2893889b", "is_disabled": 0, "fusion_lon": 0.0, "type": "electric_scooter", "lon": -77.00309716666666}, {"rental_uris": {"android": "https://dc.lft.to/lastmile_qr_scan", "ios": "https://dc.lft.to/lastmile_qr_scan"}, "fusion_lat": 0.0, "is_reserved": 0, "lat": 38.9374195, "name": "57b859953b3405f78caae04497c69bc4", "bike_id": "57b859953b3405f78caae04497c69bc4", "is_disabled": 0, "fusion_lon": 0.0, "type": "electric_scooter", "lon": -77.03255333333334}, {"rental_uris": {"android": "https://dc.lft.to/lastmile_qr_scan", "ios": "https://dc.lft.to/lastmile_qr_scan"}, "fusion_lat": 0.0, "is_reserved": 0, "lat": 38.854342333333335, "name": "7c9ddde3b17985a1025fef24fea475e2", "bike_id": "7c9ddde3b17985a1025fef24fea475e2", "is_disabled": 0, "fusion_lon": 0.0, "type": "electric_bike", "lon": -77.083217}, {"rental_uris": {"android": "https://dc.lft.to/lastmile_qr_scan", "ios": "https://dc.lft.to/lastmile_qr_scan"}, "fusion_lat": 0.0, "is_reserved": 0, "lat": 39.021240166666665, "name": "b094fec7a3f310ea1e2871d96ddea400", "bike_id": "b094fec7a3f310ea1e2871d96ddea400", "is_disabled": 0, "fusion_lon": 0.0, "type": "electric_bike", "lon": -77.04498083333333}, {"rental_uris": {"android": "https://dc.lft.to/lastmile_qr_scan", "ios": "https://dc.lft.to/lastmile_qr_scan"}, "fusion_lat": 0.0, "is_reserved": 0, "lat": 38.93693283333333, "name": "5927adefea007d0672c1208e94cac007", "bike_id": "5927adefea007d0672c1208e94cac007", "is_disabled": 0, "fusion_lon": 0.0, "type": "electric_scooter", "lon": -77.0271575}, {"rental_uris": {"android": "https://dc.lft.to/lastmile_qr_scan", "ios": "https://dc.lft.to/lastmile_qr_scan"}, "fusion_lat": 0.0, "is_reserved": 0, "lat": 38.916310333333335, "name": "2dfe2f88bd6308b088ff496209b3e38f", "bike_id": "2dfe2f88bd6308b088ff496209b3e38f", "is_disabled": 0, "fusion_lon": 0.0, "type": "electric_scooter", "lon": -77.03209866666667}, {"rental_uris": {"android": "https://dc.lft.to/lastmile_qr_scan", "ios": "https://dc.lft.to/lastmile_qr_scan"}, "fusion_lat": 0.0, "is_reserved": 0, "lat": 38.925224166666666, "name": "813ba35e7457f19c6eb334f431449366", "bike_id": "813ba35e7457f19c6eb334f431449366", "is_disabled": 0, "fusion_lon": 0.0, "type": "electric_scooter", "lon": -77.05060133333333}, {"rental_uris": {"android": "https://dc.lft.to/lastmile_qr_scan", "ios": "https://dc.lft.to/lastmile_qr_scan"}, "fusion_lat": 0.0, "is_reserved": 0, "lat": 38.920608333333334, "name": "1a14ca8cf9bfc3059dc8e646dab43cb4", "bike_id": "1a14ca8cf9bfc3059dc8e646dab43cb4", "is_disabled": 0, "fusion_lon": 0.0, "type": "electric_scooter", "lon": -77.0328985}, {"rental_uris": {"android": "https://dc.lft.to/lastmile_qr_scan", "ios": "https://dc.lft.to/lastmile_qr_scan"}, "fusion_lat": 0.0, "is_reserved": 0, "lat": 38.90643083333333, "name": "eec9712abd6e156212b1aedd211fddfa", "bike_id": "eec9712abd6e156212b1aedd211fddfa", "is_disabled": 0, "fusion_lon": 0.0, "type": "electric_scooter", "lon": -77.01428733333333}, {"rental_uris": {"android": "https://dc.lft.to/lastmile_qr_scan", "ios": "https://dc.lft.to/lastmile_qr_scan"}, "fusion_lat": 0.0, "is_reserved": 0, "lat": 38.902631166666666, "name": "04df8f99c8b3b5ba9405f841c62a0013", "bike_id": "04df8f99c8b3b5ba9405f841c62a0013", "is_disabled": 0, "fusion_lon": 0.0, "type": "electric_scooter", "lon": -77.0455835}, {"rental_uris": {"android": "https://dc.lft.to/lastmile_qr_scan", "ios": "https://dc.lft.to/lastmile_qr_scan"}, "fusion_lat": 0.0, "is_reserved": 0, "lat": 38.930597, "name": "e3e22d25efbfb8235b8afaf133e6cfb8", "bike_id": "e3e22d25efbfb8235b8afaf133e6cfb8", "is_disabled": 0, "fusion_lon": 0.0, "type": "electric_scooter", "lon": -77.02325316666666}, {"rental_uris": {"android": "https://dc.lft.to/lastmile_qr_scan", "ios": "https://dc.lft.to/lastmile_qr_scan"}, "fusion_lat": 0.0, "is_reserved": 0, "lat": 38.87177783333333, "name": "a0b0f144d8707f67da85e21aaae43a99", "bike_id": "a0b0f144d8707f67da85e21aaae43a99", "is_disabled": 0, "fusion_lon": 0.0, "type": "electric_scooter", "lon": -77.00613766666666}, {"rental_uris": {"android": "https://dc.lft.to/lastmile_qr_scan", "ios": "https://dc.lft.to/lastmile_qr_scan"}, "fusion_lat": 0.0, "is_reserved": 0, "lat": 38.89366066666667, "name": "b458d4c39cbe230c41acde161cd46e3e", "bike_id": "b458d4c39cbe230c41acde161cd46e3e", "is_disabled": 0, "fusion_lon": 0.0, "type": "electric_scooter", "lon": -77.00336366666667}, {"rental_uris": {"android": "https://dc.lft.to/lastmile_qr_scan", "ios": "https://dc.lft.to/lastmile_qr_scan"}, "fusion_lat": 0.0, "is_reserved": 0, "lat": 38.878486, "name": "e1372ead9a301eda3adb160983c16a02", "bike_id": "e1372ead9a301eda3adb160983c16a02", "is_disabled": 0, "fusion_lon": 0.0, "type": "electric_scooter", "lon": -77.02233266666667}, {"rental_uris": {"android": "https://dc.lft.to/lastmile_qr_scan", "ios": "https://dc.lft.to/lastmile_qr_scan"}, "fusion_lat": 0.0, "is_reserved": 0, "lat": 38.907757, "name": "35604010788a6fe3bcb360be2540fed2", "bike_id": "35604010788a6fe3bcb360be2540fed2", "is_disabled": 0, "fusion_lon": 0.0, "type": "electric_scooter", "lon": -77.03761483333334}, {"rental_uris": {"android": "https://dc.lft.to/lastmile_qr_scan", "ios": "https://dc.lft.to/lastmile_qr_scan"}, "fusion_lat": 0.0, "is_reserved": 0, "lat": 38.91999116666667, "name": "afc2fd0214f60b7a6c003b8313065b2e", "bike_id": "afc2fd0214f60b7a6c003b8313065b2e", "is_disabled": 0, "fusion_lon": 0.0, "type": "electric_scooter", "lon": -77.03224183333333}, {"rental_uris": {"android": "https://dc.lft.to/lastmile_qr_scan", "ios": "https://dc.lft.to/lastmile_qr_scan"}, "fusion_lat": 0.0, "is_reserved": 0, "lat": 38.9129465, "name": "4e89bca7699cd3b7b897f44b17e2b422", "bike_id": "4e89bca7699cd3b7b897f44b17e2b422", "is_disabled": 0, "fusion_lon": 0.0, "type": "electric_scooter", "lon": -76.98547}, {"rental_uris": {"android": "https://dc.lft.to/lastmile_qr_scan", "ios": "https://dc.lft.to/lastmile_qr_scan"}, "fusion_lat": 0.0, "is_reserved": 0, "lat": 38.92471716666667, "name": "819bfbb1d432c0a48eca88d922c0449d", "bike_id": "819bfbb1d432c0a48eca88d922c0449d", "is_disabled": 0, "fusion_lon": 0.0, "type": "electric_scooter", "lon": -77.022211}, {"rental_uris": {"android": "https://dc.lft.to/lastmile_qr_scan", "ios": "https://dc.lft.to/lastmile_qr_scan"}, "fusion_lat": 0.0, "is_reserved": 0, "lat": 38.952150833333334, "name": "cee3361d23b83754cd44c1a26e40debd", "bike_id": "cee3361d23b83754cd44c1a26e40debd", "is_disabled": 0, "fusion_lon": 0.0, "type": "electric_scooter", "lon": -77.06971233333333}, {"rental_uris": {"android": "https://dc.lft.to/lastmile_qr_scan", "ios": "https://dc.lft.to/lastmile_qr_scan"}, "fusion_lat": 0.0, "is_reserved": 0, "lat": 38.89608333333334, "name": "fc4af6f3fd1e56209b38c0345ecd9c1e", "bike_id": "fc4af6f3fd1e56209b38c0345ecd9c1e", "is_disabled": 0, "fusion_lon": 0.0, "type": "electric_scooter", "lon": -76.9728715}, {"rental_uris": {"android": "https://dc.lft.to/lastmile_qr_scan", "ios": "https://dc.lft.to/lastmile_qr_scan"}, "fusion_lat": 0.0, "is_reserved": 0, "lat": 38.92368033333333, "name": "c39cfedeb30293d5bbaa51925fd60f57", "bike_id": "c39cfedeb30293d5bbaa51925fd60f57", "is_disabled": 0, "fusion_lon": 0.0, "type": "electric_scooter", "lon": -77.019581}, {"rental_uris": {"android": "https://dc.lft.to/lastmile_qr_scan", "ios": "https://dc.lft.to/lastmile_qr_scan"}, "fusion_lat": 0.0, "is_reserved": 0, "lat": 38.98989533333334, "name": "011adbb6d95e5e7f2dc1a8480645fce6", "bike_id": "011adbb6d95e5e7f2dc1a8480645fce6", "is_disabled": 0, "fusion_lon": 0.0, "type": "electric_scooter", "lon": -77.0336245}, {"rental_uris": {"android": "https://dc.lft.to/lastmile_qr_scan", "ios": "https://dc.lft.to/lastmile_qr_scan"}, "fusion_lat": 0.0, "is_reserved": 0, "lat": 38.9243875, "name": "d7df573e7941d7a06b5efe72e0687086", "bike_id": "d7df573e7941d7a06b5efe72e0687086", "is_disabled": 0, "fusion_lon": 0.0, "type": "electric_scooter", "lon": -77.05212116666667}, {"rental_uris": {"android": "https://dc.lft.to/lastmile_qr_scan", "ios": "https://dc.lft.to/lastmile_qr_scan"}, "fusion_lat": 0.0, "is_reserved": 0, "lat": 38.9246525, "name": "35faaadc1743cf6ef7d90a2f2a1155aa", "bike_id": "35faaadc1743cf6ef7d90a2f2a1155aa", "is_disabled": 0, "fusion_lon": 0.0, "type": "electric_scooter", "lon": -77.02700266666666}, {"rental_uris": {"android": "https://dc.lft.to/lastmile_qr_scan", "ios": "https://dc.lft.to/lastmile_qr_scan"}, "fusion_lat": 0.0, "is_reserved": 0, "lat": 38.897827666666664, "name": "f5b701fcd3d446b91fcc945aa1f754ac", "bike_id": "f5b701fcd3d446b91fcc945aa1f754ac", "is_disabled": 0, "fusion_lon": 0.0, "type": "electric_scooter", "lon": -76.992717}, {"rental_uris": {"android": "https://dc.lft.to/lastmile_qr_scan", "ios": "https://dc.lft.to/lastmile_qr_scan"}, "fusion_lat": 0.0, "is_reserved": 0, "lat": 38.862672833333335, "name": "2de9dd41368db7036639a003e23ce252", "bike_id": "2de9dd41368db7036639a003e23ce252", "is_disabled": 0, "fusion_lon": 0.0, "type": "electric_scooter", "lon": -76.98190783333334}, {"rental_uris": {"android": "https://dc.lft.to/lastmile_qr_scan", "ios": "https://dc.lft.to/lastmile_qr_scan"}, "fusion_lat": 0.0, "is_reserved": 0, "lat": 38.915377, "name": "e6997913391dbf56a868c88dfcdd820b", "bike_id": "e6997913391dbf56a868c88dfcdd820b", "is_disabled": 0, "fusion_lon": 0.0, "type": "electric_scooter", "lon": -77.01999416666666}, {"rental_uris": {"android": "https://dc.lft.to/lastmile_qr_scan", "ios": "https://dc.lft.to/lastmile_qr_scan"}, "fusion_lat": 0.0, "is_reserved": 0, "lat": 38.887233, "name": "c9b50dae09466e5c2dd83b9f3ec40e92", "bike_id": "c9b50dae09466e5c2dd83b9f3ec40e92", "is_disabled": 0, "fusion_lon": 0.0, "type": "electric_scooter", "lon": -76.99681233333334}, {"rental_uris": {"android": "https://dc.lft.to/lastmile_qr_scan", "ios": "https://dc.lft.to/lastmile_qr_scan"}, "fusion_lat": 0.0, "is_reserved": 0, "lat": 38.94330633333333, "name": "d6dadd8f744affc013c2fc27a102afc3", "bike_id": "d6dadd8f744affc013c2fc27a102afc3", "is_disabled": 0, "fusion_lon": 0.0, "type": "electric_scooter", "lon": -77.01550383333333}, {"rental_uris": {"android": "https://dc.lft.to/lastmile_qr_scan", "ios": "https://dc.lft.to/lastmile_qr_scan"}, "fusion_lat": 0.0, "is_reserved": 0, "lat": 38.933213, "name": "2cebd83db8dbec0add2248fcfe60ff02", "bike_id": "2cebd83db8dbec0add2248fcfe60ff02", "is_disabled": 0, "fusion_lon": 0.0, "type": "electric_scooter", "lon": -77.03791666666666}, {"rental_uris": {"android": "https://dc.lft.to/lastmile_qr_scan", "ios": "https://dc.lft.to/lastmile_qr_scan"}, "fusion_lat": 0.0, "is_reserved": 0, "lat": 38.9284325, "name": "c0bfe5ad18a7982d7e3203f8bf7a2e22", "bike_id": "c0bfe5ad18a7982d7e3203f8bf7a2e22", "is_disabled": 0, "fusion_lon": 0.0, "type": "electric_scooter", "lon": -77.02489883333334}, {"rental_uris": {"android": "https://dc.lft.to/lastmile_qr_scan", "ios": "https://dc.lft.to/lastmile_qr_scan"}, "fusion_lat": 0.0, "is_reserved": 0, "lat": 38.9349745, "name": "a41a49dc2268fae66625fb6b512736cc", "bike_id": "a41a49dc2268fae66625fb6b512736cc", "is_disabled": 0, "fusion_lon": 0.0, "type": "electric_scooter", "lon": -77.04459933333334}, {"rental_uris": {"android": "https://dc.lft.to/lastmile_qr_scan", "ios": "https://dc.lft.to/lastmile_qr_scan"}, "fusion_lat": 0.0, "is_reserved": 0, "lat": 38.921288, "name": "215eab435e2e1fa24f7ef368928af86e", "bike_id": "215eab435e2e1fa24f7ef368928af86e", "is_disabled": 0, "fusion_lon": 0.0, "type": "electric_scooter", "lon": -77.04134133333334}, {"rental_uris": {"android": "https://dc.lft.to/lastmile_qr_scan", "ios": "https://dc.lft.to/lastmile_qr_scan"}, "fusion_lat": 0.0, "is_reserved": 0, "lat": 38.901172, "name": "9755f7640c8eae0f5974a1a513fdb041", "bike_id": "9755f7640c8eae0f5974a1a513fdb041", "is_disabled": 0, "fusion_lon": 0.0, "type": "electric_scooter", "lon": -77.0448775}, {"rental_uris": {"android": "https://dc.lft.to/lastmile_qr_scan", "ios": "https://dc.lft.to/lastmile_qr_scan"}, "fusion_lat": 0.0, "is_reserved": 0, "lat": 38.89880216666667, "name": "e781484b8ac66757d93ea0dd8137b70d", "bike_id": "e781484b8ac66757d93ea0dd8137b70d", "is_disabled": 0, "fusion_lon": 0.0, "type": "electric_scooter", "lon": -76.98837216666666}, {"rental_uris": {"android": "https://dc.lft.to/lastmile_qr_scan", "ios": "https://dc.lft.to/lastmile_qr_scan"}, "fusion_lat": 0.0, "is_reserved": 0, "lat": 38.926437166666666, "name": "15ba346dacd61d19c5c3f2a0b50feeeb", "bike_id": "15ba346dacd61d19c5c3f2a0b50feeeb", "is_disabled": 0, "fusion_lon": 0.0, "type": "electric_scooter", "lon": -77.02507433333334}, {"rental_uris": {"android": "https://dc.lft.to/lastmile_qr_scan", "ios": "https://dc.lft.to/lastmile_qr_scan"}, "fusion_lat": 0.0, "is_reserved": 0, "lat": 38.95542416666667, "name": "0059f6d06ef1cba60c00305bc0f82134", "bike_id": "0059f6d06ef1cba60c00305bc0f82134", "is_disabled": 0, "fusion_lon": 0.0, "type": "electric_scooter", "lon": -76.995695}, {"rental_uris": {"android": "https://dc.lft.to/lastmile_qr_scan", "ios": "https://dc.lft.to/lastmile_qr_scan"}, "fusion_lat": 0.0, "is_reserved": 0, "lat": 38.905669, "name": "09fcf9d80972e75dde0098c66f3e89b6", "bike_id": "09fcf9d80972e75dde0098c66f3e89b6", "is_disabled": 0, "fusion_lon": 0.0, "type": "electric_scooter", "lon": -77.02217283333333}, {"rental_uris": {"android": "https://dc.lft.to/lastmile_qr_scan", "ios": "https://dc.lft.to/lastmile_qr_scan"}, "fusion_lat": 0.0, "is_reserved": 0, "lat": 38.900441666666666, "name": "4378f972adf7602d156b63ff95ef4745", "bike_id": "4378f972adf7602d156b63ff95ef4745", "is_disabled": 0, "fusion_lon": 0.0, "type": "electric_scooter", "lon": -77.00211733333333}, {"rental_uris": {"android": "https://dc.lft.to/lastmile_qr_scan", "ios": "https://dc.lft.to/lastmile_qr_scan"}, "fusion_lat": 0.0, "is_reserved": 0, "lat": 38.9126685, "name": "b1660242833805800cdebcda197c0cbd", "bike_id": "b1660242833805800cdebcda197c0cbd", "is_disabled": 0, "fusion_lon": 0.0, "type": "electric_scooter", "lon": -77.02213066666667}, {"rental_uris": {"android": "https://dc.lft.to/lastmile_qr_scan", "ios": "https://dc.lft.to/lastmile_qr_scan"}, "fusion_lat": 0.0, "is_reserved": 0, "lat": 38.89533983333333, "name": "ea0a2770525bec46de97d3779cc034cd", "bike_id": "ea0a2770525bec46de97d3779cc034cd", "is_disabled": 0, "fusion_lon": 0.0, "type": "electric_scooter", "lon": -77.033609}, {"rental_uris": {"android": "https://dc.lft.to/lastmile_qr_scan", "ios": "https://dc.lft.to/lastmile_qr_scan"}, "fusion_lat": 0.0, "is_reserved": 0, "lat": 38.8571745, "name": "c52fa3d5c370ac7b2a794d81b4159299", "bike_id": "c52fa3d5c370ac7b2a794d81b4159299", "is_disabled": 0, "fusion_lon": 0.0, "type": "electric_scooter", "lon": -76.97182266666667}, {"rental_uris": {"android": "https://dc.lft.to/lastmile_qr_scan", "ios": "https://dc.lft.to/lastmile_qr_scan"}, "fusion_lat": 0.0, "is_reserved": 0, "lat": 38.9234665, "name": "2a5dc1b548c5b7c26b2cfad748f32d1b", "bike_id": "2a5dc1b548c5b7c26b2cfad748f32d1b", "is_disabled": 0, "fusion_lon": 0.0, "type": "electric_scooter", "lon": -77.05092983333333}, {"rental_uris": {"android": "https://dc.lft.to/lastmile_qr_scan", "ios": "https://dc.lft.to/lastmile_qr_scan"}, "fusion_lat": 0.0, "is_reserved": 0, "lat": 38.901567666666665, "name": "81383ba5a8ca975cbb6946115d005052", "bike_id": "81383ba5a8ca975cbb6946115d005052", "is_disabled": 0, "fusion_lon": 0.0, "type": "electric_scooter", "lon": -77.04874116666667}, {"rental_uris": {"android": "https://dc.lft.to/lastmile_qr_scan", "ios": "https://dc.lft.to/lastmile_qr_scan"}, "fusion_lat": 0.0, "is_reserved": 0, "lat": 38.891040333333336, "name": "07fa4c289e7abfcd2b4a0cc1b1dd97fd", "bike_id": "07fa4c289e7abfcd2b4a0cc1b1dd97fd", "is_disabled": 0, "fusion_lon": 0.0, "type": "electric_scooter", "lon": -77.00210916666667}, {"rental_uris": {"android": "https://dc.lft.to/lastmile_qr_scan", "ios": "https://dc.lft.to/lastmile_qr_scan"}, "fusion_lat": 0.0, "is_reserved": 0, "lat": 38.898584666666665, "name": "b332c4cf072d68013ceb9ce698fb883d", "bike_id": "b332c4cf072d68013ceb9ce698fb883d", "is_disabled": 0, "fusion_lon": 0.0, "type": "electric_scooter", "lon": -77.027106}, {"rental_uris": {"android": "https://dc.lft.to/lastmile_qr_scan", "ios": "https://dc.lft.to/lastmile_qr_scan"}, "fusion_lat": 0.0, "is_reserved": 0, "lat": 38.9243065, "name": "b4bb03d7869c186108c2495549be0dd3", "bike_id": "b4bb03d7869c186108c2495549be0dd3", "is_disabled": 0, "fusion_lon": 0.0, "type": "electric_scooter", "lon": -77.0361855}, {"rental_uris": {"android": "https://dc.lft.to/lastmile_qr_scan", "ios": "https://dc.lft.to/lastmile_qr_scan"}, "fusion_lat": 0.0, "is_reserved": 0, "lat": 38.9041665, "name": "6a246fc2b54cdf71d8bd8a6555085ce1", "bike_id": "6a246fc2b54cdf71d8bd8a6555085ce1", "is_disabled": 0, "fusion_lon": 0.0, "type": "electric_scooter", "lon": -76.98115216666666}, {"rental_uris": {"android": "https://dc.lft.to/lastmile_qr_scan", "ios": "https://dc.lft.to/lastmile_qr_scan"}, "fusion_lat": 0.0, "is_reserved": 0, "lat": 38.9192095, "name": "8f949c47c5757ae45d055475ed3dbda6", "bike_id": "8f949c47c5757ae45d055475ed3dbda6", "is_disabled": 0, "fusion_lon": 0.0, "type": "electric_scooter", "lon": -77.0318005}, {"rental_uris": {"android": "https://dc.lft.to/lastmile_qr_scan", "ios": "https://dc.lft.to/lastmile_qr_scan"}, "fusion_lat": 0.0, "is_reserved": 0, "lat": 38.92349433333333, "name": "9edf6913adbf050ddd6cebc69060cd8c", "bike_id": "9edf6913adbf050ddd6cebc69060cd8c", "is_disabled": 0, "fusion_lon": 0.0, "type": "electric_scooter", "lon": -77.04162933333333}, {"rental_uris": {"android": "https://dc.lft.to/lastmile_qr_scan", "ios": "https://dc.lft.to/lastmile_qr_scan"}, "fusion_lat": 0.0, "is_reserved": 0, "lat": 38.90688866666667, "name": "d9fe4e4ba664e1dcfbab96ce18889400", "bike_id": "d9fe4e4ba664e1dcfbab96ce18889400", "is_disabled": 0, "fusion_lon": 0.0, "type": "electric_scooter", "lon": -77.01625016666667}, {"rental_uris": {"android": "https://dc.lft.to/lastmile_qr_scan", "ios": "https://dc.lft.to/lastmile_qr_scan"}, "fusion_lat": 0.0, "is_reserved": 0, "lat": 38.901212666666666, "name": "b21bc60f93a8446ccf9bd3449f83db31", "bike_id": "b21bc60f93a8446ccf9bd3449f83db31", "is_disabled": 0, "fusion_lon": 0.0, "type": "electric_scooter", "lon": -77.03805083333333}, {"rental_uris": {"android": "https://dc.lft.to/lastmile_qr_scan", "ios": "https://dc.lft.to/lastmile_qr_scan"}, "fusion_lat": 0.0, "is_reserved": 0, "lat": 38.9013745, "name": "b281030aeea5484af55788cedc531f5c", "bike_id": "b281030aeea5484af55788cedc531f5c", "is_disabled": 0, "fusion_lon": 0.0, "type": "electric_scooter", "lon": -77.03169333333334}, {"rental_uris": {"android": "https://dc.lft.to/lastmile_qr_scan", "ios": "https://dc.lft.to/lastmile_qr_scan"}, "fusion_lat": 0.0, "is_reserved": 0, "lat": 38.92157566666667, "name": "83b7e2aad6577c4d1cefc90229131b8a", "bike_id": "83b7e2aad6577c4d1cefc90229131b8a", "is_disabled": 0, "fusion_lon": 0.0, "type": "electric_scooter", "lon": -77.03322216666666}, {"rental_uris": {"android": "https://dc.lft.to/lastmile_qr_scan", "ios": "https://dc.lft.to/lastmile_qr_scan"}, "fusion_lat": 0.0, "is_reserved": 0, "lat": 38.923164, "name": "19c48d00dc33462928d31c2984d5b3d0", "bike_id": "19c48d00dc33462928d31c2984d5b3d0", "is_disabled": 0, "fusion_lon": 0.0, "type": "electric_scooter", "lon": -77.0457175}, {"rental_uris": {"android": "https://dc.lft.to/lastmile_qr_scan", "ios": "https://dc.lft.to/lastmile_qr_scan"}, "fusion_lat": 0.0, "is_reserved": 0, "lat": 38.9073025, "name": "f2784d269ab33a75369c2971c8049ad3", "bike_id": "f2784d269ab33a75369c2971c8049ad3", "is_disabled": 0, "fusion_lon": 0.0, "type": "electric_scooter", "lon": -77.00804466666666}, {"rental_uris": {"android": "https://dc.lft.to/lastmile_qr_scan", "ios": "https://dc.lft.to/lastmile_qr_scan"}, "fusion_lat": 0.0, "is_reserved": 0, "lat": 38.908292, "name": "bd2fc3cb5ea70154947527e852d9b6cb", "bike_id": "bd2fc3cb5ea70154947527e852d9b6cb", "is_disabled": 0, "fusion_lon": 0.0, "type": "electric_bike", "lon": -76.94158466666667}, {"rental_uris": {"android": "https://dc.lft.to/lastmile_qr_scan", "ios": "https://dc.lft.to/lastmile_qr_scan"}, "fusion_lat": 0.0, "is_reserved": 0, "lat": 38.89925066666667, "name": "ce5e7e451ffaf109ccfa8253322934e3", "bike_id": "ce5e7e451ffaf109ccfa8253322934e3", "is_disabled": 0, "fusion_lon": 0.0, "type": "electric_scooter", "lon": -77.027165}, {"rental_uris": {"android": "https://dc.lft.to/lastmile_qr_scan", "ios": "https://dc.lft.to/lastmile_qr_scan"}, "fusion_lat": 0.0, "is_reserved": 0, "lat": 38.952184, "name": "a4840255bc4c07f8ed44e188dc3d049a", "bike_id": "a4840255bc4c07f8ed44e188dc3d049a", "is_disabled": 0, "fusion_lon": 0.0, "type": "electric_scooter", "lon": -77.0697855}, {"rental_uris": {"android": "https://dc.lft.to/lastmile_qr_scan", "ios": "https://dc.lft.to/lastmile_qr_scan"}, "fusion_lat": 0.0, "is_reserved": 0, "lat": 38.91248083333333, "name": "f8a22bb19034ac79ad99a957ee137aa7", "bike_id": "f8a22bb19034ac79ad99a957ee137aa7", "is_disabled": 0, "fusion_lon": 0.0, "type": "electric_scooter", "lon": -77.03450366666667}, {"rental_uris": {"android": "https://dc.lft.to/lastmile_qr_scan", "ios": "https://dc.lft.to/lastmile_qr_scan"}, "fusion_lat": 0.0, "is_reserved": 0, "lat": 38.929748833333335, "name": "20893ef490510fd0d5894badb012dcd0", "bike_id": "20893ef490510fd0d5894badb012dcd0", "is_disabled": 0, "fusion_lon": 0.0, "type": "electric_scooter", "lon": -77.02798533333333}, {"rental_uris": {"android": "https://dc.lft.to/lastmile_qr_scan", "ios": "https://dc.lft.to/lastmile_qr_scan"}, "fusion_lat": 0.0, "is_reserved": 0, "lat": 38.94028616666667, "name": "b2ecc2216173db246494e958e3789382", "bike_id": "b2ecc2216173db246494e958e3789382", "is_disabled": 0, "fusion_lon": 0.0, "type": "electric_scooter", "lon": -77.02493783333334}, {"rental_uris": {"android": "https://dc.lft.to/lastmile_qr_scan", "ios": "https://dc.lft.to/lastmile_qr_scan"}, "fusion_lat": 0.0, "is_reserved": 0, "lat": 38.91710283333333, "name": "16f4335e7cd559d9b82d37749aab0195", "bike_id": "16f4335e7cd559d9b82d37749aab0195", "is_disabled": 0, "fusion_lon": 0.0, "type": "electric_scooter", "lon": -77.026783}, {"rental_uris": {"android": "https://dc.lft.to/lastmile_qr_scan", "ios": "https://dc.lft.to/lastmile_qr_scan"}, "fusion_lat": 0.0, "is_reserved": 0, "lat": 38.92469283333333, "name": "59708a862048cfd9d42c15ba4cf2a645", "bike_id": "59708a862048cfd9d42c15ba4cf2a645", "is_disabled": 0, "fusion_lon": 0.0, "type": "electric_scooter", "lon": -77.02263083333334}, {"rental_uris": {"android": "https://dc.lft.to/lastmile_qr_scan", "ios": "https://dc.lft.to/lastmile_qr_scan"}, "fusion_lat": 0.0, "is_reserved": 0, "lat": 38.933359833333334, "name": "b8dd021a8dda0ca46229bc654f0a2634", "bike_id": "b8dd021a8dda0ca46229bc654f0a2634", "is_disabled": 0, "fusion_lon": 0.0, "type": "electric_scooter", "lon": -77.03636333333333}, {"rental_uris": {"android": "https://dc.lft.to/lastmile_qr_scan", "ios": "https://dc.lft.to/lastmile_qr_scan"}, "fusion_lat": 0.0, "is_reserved": 0, "lat": 38.924180666666665, "name": "bfa785a754be3c2915ecebe4e5ef01a9", "bike_id": "bfa785a754be3c2915ecebe4e5ef01a9", "is_disabled": 0, "fusion_lon": 0.0, "type": "electric_scooter", "lon": -77.01946766666667}, {"rental_uris": {"android": "https://dc.lft.to/lastmile_qr_scan", "ios": "https://dc.lft.to/lastmile_qr_scan"}, "fusion_lat": 0.0, "is_reserved": 0, "lat": 38.92367566666667, "name": "572589a1c83043fc6c602245d2f84aef", "bike_id": "572589a1c83043fc6c602245d2f84aef", "is_disabled": 0, "fusion_lon": 0.0, "type": "electric_scooter", "lon": -77.043153}, {"rental_uris": {"android": "https://dc.lft.to/lastmile_qr_scan", "ios": "https://dc.lft.to/lastmile_qr_scan"}, "fusion_lat": 0.0, "is_reserved": 0, "lat": 38.898816333333336, "name": "9226bad3030b0da650f8cc82dd9917ee", "bike_id": "9226bad3030b0da650f8cc82dd9917ee", "is_disabled": 0, "fusion_lon": 0.0, "type": "electric_scooter", "lon": -76.9883495}, {"rental_uris": {"android": "https://dc.lft.to/lastmile_qr_scan", "ios": "https://dc.lft.to/lastmile_qr_scan"}, "fusion_lat": 0.0, "is_reserved": 0, "lat": 38.895447, "name": "aa8528a027d79d5ea35a06c7be7cc986", "bike_id": "aa8528a027d79d5ea35a06c7be7cc986", "is_disabled": 0, "fusion_lon": 0.0, "type": "electric_scooter", "lon": -76.9833685}, {"rental_uris": {"android": "https://dc.lft.to/lastmile_qr_scan", "ios": "https://dc.lft.to/lastmile_qr_scan"}, "fusion_lat": 0.0, "is_reserved": 0, "lat": 38.941535, "name": "3e13a98b06b1e6d26bb7dd0d9f4a150f", "bike_id": "3e13a98b06b1e6d26bb7dd0d9f4a150f", "is_disabled": 0, "fusion_lon": 0.0, "type": "electric_scooter", "lon": -77.03284366666666}, {"rental_uris": {"android": "https://dc.lft.to/lastmile_qr_scan", "ios": "https://dc.lft.to/lastmile_qr_scan"}, "fusion_lat": 0.0, "is_reserved": 0, "lat": 38.935286833333336, "name": "1e71139e602d1990621fc45306c0259e", "bike_id": "1e71139e602d1990621fc45306c0259e", "is_disabled": 0, "fusion_lon": 0.0, "type": "electric_scooter", "lon": -77.02354133333333}, {"rental_uris": {"android": "https://dc.lft.to/lastmile_qr_scan", "ios": "https://dc.lft.to/lastmile_qr_scan"}, "fusion_lat": 0.0, "is_reserved": 0, "lat": 38.927237166666664, "name": "aa5e9432770e2e4fb0a8afc566d3c7e2", "bike_id": "aa5e9432770e2e4fb0a8afc566d3c7e2", "is_disabled": 0, "fusion_lon": 0.0, "type": "electric_scooter", "lon": -77.02280066666667}, {"rental_uris": {"android": "https://dc.lft.to/lastmile_qr_scan", "ios": "https://dc.lft.to/lastmile_qr_scan"}, "fusion_lat": 0.0, "is_reserved": 0, "lat": 38.862471666666664, "name": "6755045a4ae14291f93dbba50ad6dd56", "bike_id": "6755045a4ae14291f93dbba50ad6dd56", "is_disabled": 0, "fusion_lon": 0.0, "type": "electric_scooter", "lon": -76.99502966666667}, {"rental_uris": {"android": "https://dc.lft.to/lastmile_qr_scan", "ios": "https://dc.lft.to/lastmile_qr_scan"}, "fusion_lat": 0.0, "is_reserved": 0, "lat": 38.9165815, "name": "7f38578f66889db17e5e15d536b1dd78", "bike_id": "7f38578f66889db17e5e15d536b1dd78", "is_disabled": 0, "fusion_lon": 0.0, "type": "electric_scooter", "lon": -77.0239365}, {"rental_uris": {"android": "https://dc.lft.to/lastmile_qr_scan", "ios": "https://dc.lft.to/lastmile_qr_scan"}, "fusion_lat": 0.0, "is_reserved": 0, "lat": 38.89840866666667, "name": "60b77aa754a03a5a261ae285b2806602", "bike_id": "60b77aa754a03a5a261ae285b2806602", "is_disabled": 0, "fusion_lon": 0.0, "type": "electric_scooter", "lon": -77.02825083333333}, {"rental_uris": {"android": "https://dc.lft.to/lastmile_qr_scan", "ios": "https://dc.lft.to/lastmile_qr_scan"}, "fusion_lat": 0.0, "is_reserved": 0, "lat": 38.87564483333333, "name": "8ea0ad302508356eb7c52ea1a1a48740", "bike_id": "8ea0ad302508356eb7c52ea1a1a48740", "is_disabled": 0, "fusion_lon": 0.0, "type": "electric_scooter", "lon": -77.00597983333333}, {"rental_uris": {"android": "https://dc.lft.to/lastmile_qr_scan", "ios": "https://dc.lft.to/lastmile_qr_scan"}, "fusion_lat": 0.0, "is_reserved": 0, "lat": 38.8570915, "name": "0a23e064023d736feb3ae7e32b7ce373", "bike_id": "0a23e064023d736feb3ae7e32b7ce373", "is_disabled": 0, "fusion_lon": 0.0, "type": "electric_scooter", "lon": -76.982138}, {"rental_uris": {"android": "https://dc.lft.to/lastmile_qr_scan", "ios": "https://dc.lft.to/lastmile_qr_scan"}, "fusion_lat": 0.0, "is_reserved": 0, "lat": 38.914990833333334, "name": "f615b90774610a999402608670a68b60", "bike_id": "f615b90774610a999402608670a68b60", "is_disabled": 0, "fusion_lon": 0.0, "type": "electric_scooter", "lon": -77.03210816666666}, {"rental_uris": {"android": "https://dc.lft.to/lastmile_qr_scan", "ios": "https://dc.lft.to/lastmile_qr_scan"}, "fusion_lat": 0.0, "is_reserved": 0, "lat": 38.92297116666667, "name": "fb8e317f382ea44a3fd6bdc26648b224", "bike_id": "fb8e317f382ea44a3fd6bdc26648b224", "is_disabled": 0, "fusion_lon": 0.0, "type": "electric_scooter", "lon": -77.0414535}, {"rental_uris": {"android": "https://dc.lft.to/lastmile_qr_scan", "ios": "https://dc.lft.to/lastmile_qr_scan"}, "fusion_lat": 0.0, "is_reserved": 0, "lat": 38.941970166666664, "name": "155e81c88ee8c91acab28768e0f10064", "bike_id": "155e81c88ee8c91acab28768e0f10064", "is_disabled": 0, "fusion_lon": 0.0, "type": "electric_scooter", "lon": -77.02479283333334}, {"rental_uris": {"android": "https://dc.lft.to/lastmile_qr_scan", "ios": "https://dc.lft.to/lastmile_qr_scan"}, "fusion_lat": 0.0, "is_reserved": 0, "lat": 38.912192166666664, "name": "1ec0116cb6a86d4d2303c87ac09933d1", "bike_id": "1ec0116cb6a86d4d2303c87ac09933d1", "is_disabled": 0, "fusion_lon": 0.0, "type": "electric_scooter", "lon": -77.031869}, {"rental_uris": {"android": "https://dc.lft.to/lastmile_qr_scan", "ios": "https://dc.lft.to/lastmile_qr_scan"}, "fusion_lat": 0.0, "is_reserved": 0, "lat": 38.9149375, "name": "a39df5f8ff9e4c6e43cd481057def6c5", "bike_id": "a39df5f8ff9e4c6e43cd481057def6c5", "is_disabled": 0, "fusion_lon": 0.0, "type": "electric_scooter", "lon": -77.02279516666667}, {"rental_uris": {"android": "https://dc.lft.to/lastmile_qr_scan", "ios": "https://dc.lft.to/lastmile_qr_scan"}, "fusion_lat": 0.0, "is_reserved": 0, "lat": 38.88075216666667, "name": "5c49ccd2a1eb32fc4466856b5a33ae1a", "bike_id": "5c49ccd2a1eb32fc4466856b5a33ae1a", "is_disabled": 0, "fusion_lon": 0.0, "type": "electric_scooter", "lon": -76.99164316666666}, {"rental_uris": {"android": "https://dc.lft.to/lastmile_qr_scan", "ios": "https://dc.lft.to/lastmile_qr_scan"}, "fusion_lat": 0.0, "is_reserved": 0, "lat": 38.903667, "name": "1e70989cf443c6c015d8722523abab59", "bike_id": "1e70989cf443c6c015d8722523abab59", "is_disabled": 0, "fusion_lon": 0.0, "type": "electric_scooter", "lon": -76.98491483333333}, {"rental_uris": {"android": "https://dc.lft.to/lastmile_qr_scan", "ios": "https://dc.lft.to/lastmile_qr_scan"}, "fusion_lat": 0.0, "is_reserved": 0, "lat": 38.919869166666665, "name": "46c54a193c369164ed3fe3f33856ee6a", "bike_id": "46c54a193c369164ed3fe3f33856ee6a", "is_disabled": 0, "fusion_lon": 0.0, "type": "electric_scooter", "lon": -77.033116}, {"rental_uris": {"android": "https://dc.lft.to/lastmile_qr_scan", "ios": "https://dc.lft.to/lastmile_qr_scan"}, "fusion_lat": 0.0, "is_reserved": 0, "lat": 38.883631666666666, "name": "49bf084341f8544e06eeb16e4e95a5fc", "bike_id": "49bf084341f8544e06eeb16e4e95a5fc", "is_disabled": 0, "fusion_lon": 0.0, "type": "electric_scooter", "lon": -76.98828866666666}, {"rental_uris": {"android": "https://dc.lft.to/lastmile_qr_scan", "ios": "https://dc.lft.to/lastmile_qr_scan"}, "fusion_lat": 0.0, "is_reserved": 0, "lat": 38.950924666666666, "name": "5fe0c35d2ff5b27e40d290ae984f1c81", "bike_id": "5fe0c35d2ff5b27e40d290ae984f1c81", "is_disabled": 0, "fusion_lon": 0.0, "type": "electric_scooter", "lon": -77.02961466666666}, {"rental_uris": {"android": "https://dc.lft.to/lastmile_qr_scan", "ios": "https://dc.lft.to/lastmile_qr_scan"}, "fusion_lat": 0.0, "is_reserved": 0, "lat": 38.937687833333335, "name": "a1ec78c2e230dc3a64185b0bf1f30948", "bike_id": "a1ec78c2e230dc3a64185b0bf1f30948", "is_disabled": 0, "fusion_lon": 0.0, "type": "electric_scooter", "lon": -77.02459533333334}, {"rental_uris": {"android": "https://dc.lft.to/lastmile_qr_scan", "ios": "https://dc.lft.to/lastmile_qr_scan"}, "fusion_lat": 0.0, "is_reserved": 0, "lat": 38.92869533333333, "name": "fb2d2c05532fb6429dfaf3cf0b387149", "bike_id": "fb2d2c05532fb6429dfaf3cf0b387149", "is_disabled": 0, "fusion_lon": 0.0, "type": "electric_scooter", "lon": -77.02179266666667}, {"rental_uris": {"android": "https://dc.lft.to/lastmile_qr_scan", "ios": "https://dc.lft.to/lastmile_qr_scan"}, "fusion_lat": 0.0, "is_reserved": 0, "lat": 38.9013805, "name": "1166d61d4cb638d6c2a1a22df774bef8", "bike_id": "1166d61d4cb638d6c2a1a22df774bef8", "is_disabled": 0, "fusion_lon": 0.0, "type": "electric_scooter", "lon": -76.9896755}, {"rental_uris": {"android": "https://dc.lft.to/lastmile_qr_scan", "ios": "https://dc.lft.to/lastmile_qr_scan"}, "fusion_lat": 0.0, "is_reserved": 0, "lat": 38.90571416666667, "name": "a8cd07ccf688cab5f95c4b2efca4264b", "bike_id": "a8cd07ccf688cab5f95c4b2efca4264b", "is_disabled": 0, "fusion_lon": 0.0, "type": "electric_scooter", "lon": -77.00789216666666}, {"rental_uris": {"android": "https://dc.lft.to/lastmile_qr_scan", "ios": "https://dc.lft.to/lastmile_qr_scan"}, "fusion_lat": 0.0, "is_reserved": 0, "lat": 38.912159, "name": "eaa9a0cce0314cc75440e7d58cfc30e7", "bike_id": "eaa9a0cce0314cc75440e7d58cfc30e7", "is_disabled": 0, "fusion_lon": 0.0, "type": "electric_scooter", "lon": -77.06404633333334}, {"rental_uris": {"android": "https://dc.lft.to/lastmile_qr_scan", "ios": "https://dc.lft.to/lastmile_qr_scan"}, "fusion_lat": 0.0, "is_reserved": 0, "lat": 38.93376933333333, "name": "a53e29b7412390049def999a7885555f", "bike_id": "a53e29b7412390049def999a7885555f", "is_disabled": 0, "fusion_lon": 0.0, "type": "electric_scooter", "lon": -77.02380566666666}, {"rental_uris": {"android": "https://dc.lft.to/lastmile_qr_scan", "ios": "https://dc.lft.to/lastmile_qr_scan"}, "fusion_lat": 0.0, "is_reserved": 0, "lat": 38.913078166666665, "name": "4a1472902a86095cf3374391c34ded45", "bike_id": "4a1472902a86095cf3374391c34ded45", "is_disabled": 0, "fusion_lon": 0.0, "type": "electric_scooter", "lon": -77.04339283333333}, {"rental_uris": {"android": "https://dc.lft.to/lastmile_qr_scan", "ios": "https://dc.lft.to/lastmile_qr_scan"}, "fusion_lat": 0.0, "is_reserved": 0, "lat": 38.926755, "name": "28bf93e2281c7c4bd298413616b17465", "bike_id": "28bf93e2281c7c4bd298413616b17465", "is_disabled": 0, "fusion_lon": 0.0, "type": "electric_scooter", "lon": -77.03803816666667}, {"rental_uris": {"android": "https://dc.lft.to/lastmile_qr_scan", "ios": "https://dc.lft.to/lastmile_qr_scan"}, "fusion_lat": 0.0, "is_reserved": 0, "lat": 38.91558966666667, "name": "74be5c2f4c8c85c94e39527b1c6dd83f", "bike_id": "74be5c2f4c8c85c94e39527b1c6dd83f", "is_disabled": 0, "fusion_lon": 0.0, "type": "electric_scooter", "lon": -77.03132333333333}, {"rental_uris": {"android": "https://dc.lft.to/lastmile_qr_scan", "ios": "https://dc.lft.to/lastmile_qr_scan"}, "fusion_lat": 0.0, "is_reserved": 0, "lat": 38.9370085, "name": "2de2b19b415685e54800ff47aee288f4", "bike_id": "2de2b19b415685e54800ff47aee288f4", "is_disabled": 0, "fusion_lon": 0.0, "type": "electric_scooter", "lon": -77.05599816666667}, {"rental_uris": {"android": "https://dc.lft.to/lastmile_qr_scan", "ios": "https://dc.lft.to/lastmile_qr_scan"}, "fusion_lat": 0.0, "is_reserved": 0, "lat": 38.923918666666665, "name": "d4e06f1076c2914f6c84d44ddb226a23", "bike_id": "d4e06f1076c2914f6c84d44ddb226a23", "is_disabled": 0, "fusion_lon": 0.0, "type": "electric_scooter", "lon": -77.0365165}, {"rental_uris": {"android": "https://dc.lft.to/lastmile_qr_scan", "ios": "https://dc.lft.to/lastmile_qr_scan"}, "fusion_lat": 0.0, "is_reserved": 0, "lat": 38.90737933333333, "name": "396e616a01b2340fbe79945e6216be2f", "bike_id": "396e616a01b2340fbe79945e6216be2f", "is_disabled": 0, "fusion_lon": 0.0, "type": "electric_scooter", "lon": -76.93484533333333}, {"rental_uris": {"android": "https://dc.lft.to/lastmile_qr_scan", "ios": "https://dc.lft.to/lastmile_qr_scan"}, "fusion_lat": 0.0, "is_reserved": 0, "lat": 38.901786, "name": "fa7730892ae2e30eff216f3f3c799e0d", "bike_id": "fa7730892ae2e30eff216f3f3c799e0d", "is_disabled": 0, "fusion_lon": 0.0, "type": "electric_scooter", "lon": -77.04672883333333}, {"rental_uris": {"android": "https://dc.lft.to/lastmile_qr_scan", "ios": "https://dc.lft.to/lastmile_qr_scan"}, "fusion_lat": 0.0, "is_reserved": 0, "lat": 38.911964, "name": "97d2c42467747244f726b2597f5ff000", "bike_id": "97d2c42467747244f726b2597f5ff000", "is_disabled": 0, "fusion_lon": 0.0, "type": "electric_scooter", "lon": -77.038442}, {"rental_uris": {"android": "https://dc.lft.to/lastmile_qr_scan", "ios": "https://dc.lft.to/lastmile_qr_scan"}, "fusion_lat": 0.0, "is_reserved": 0, "lat": 38.924077833333335, "name": "f9ea9ed37f93f07f2868f5cdd55af7e5", "bike_id": "f9ea9ed37f93f07f2868f5cdd55af7e5", "is_disabled": 0, "fusion_lon": 0.0, "type": "electric_scooter", "lon": -77.03546}, {"rental_uris": {"android": "https://dc.lft.to/lastmile_qr_scan", "ios": "https://dc.lft.to/lastmile_qr_scan"}, "fusion_lat": 0.0, "is_reserved": 0, "lat": 38.90031166666667, "name": "2d7b5beb6092f0276aa492e25c65b00a", "bike_id": "2d7b5beb6092f0276aa492e25c65b00a", "is_disabled": 0, "fusion_lon": 0.0, "type": "electric_scooter", "lon": -76.99846616666666}, {"rental_uris": {"android": "https://dc.lft.to/lastmile_qr_scan", "ios": "https://dc.lft.to/lastmile_qr_scan"}, "fusion_lat": 0.0, "is_reserved": 0, "lat": 38.90704483333333, "name": "39bb927a086b82d8291bd82534749c1c", "bike_id": "39bb927a086b82d8291bd82534749c1c", "is_disabled": 0, "fusion_lon": 0.0, "type": "electric_scooter", "lon": -77.02387733333333}, {"rental_uris": {"android": "https://dc.lft.to/lastmile_qr_scan", "ios": "https://dc.lft.to/lastmile_qr_scan"}, "fusion_lat": 0.0, "is_reserved": 0, "lat": 38.92319716666667, "name": "a82e89244b3843f1cd9a07c34e9889ca", "bike_id": "a82e89244b3843f1cd9a07c34e9889ca", "is_disabled": 0, "fusion_lon": 0.0, "type": "electric_scooter", "lon": -77.02893533333334}, {"rental_uris": {"android": "https://dc.lft.to/lastmile_qr_scan", "ios": "https://dc.lft.to/lastmile_qr_scan"}, "fusion_lat": 0.0, "is_reserved": 0, "lat": 38.907202, "name": "5a73841b4d39b24f5e1f86ed53fb5b04", "bike_id": "5a73841b4d39b24f5e1f86ed53fb5b04", "is_disabled": 0, "fusion_lon": 0.0, "type": "electric_scooter", "lon": -77.02796683333334}, {"rental_uris": {"android": "https://dc.lft.to/lastmile_qr_scan", "ios": "https://dc.lft.to/lastmile_qr_scan"}, "fusion_lat": 0.0, "is_reserved": 0, "lat": 38.9078305, "name": "14cb3a1e41b639b29e51bbee2e2981de", "bike_id": "14cb3a1e41b639b29e51bbee2e2981de", "is_disabled": 0, "fusion_lon": 0.0, "type": "electric_scooter", "lon": -77.07252916666667}, {"rental_uris": {"android": "https://dc.lft.to/lastmile_qr_scan", "ios": "https://dc.lft.to/lastmile_qr_scan"}, "fusion_lat": 0.0, "is_reserved": 0, "lat": 38.902607, "name": "e7a300be1516be69959b33e6ea620b3d", "bike_id": "e7a300be1516be69959b33e6ea620b3d", "is_disabled": 0, "fusion_lon": 0.0, "type": "electric_scooter", "lon": -77.02645216666667}, {"rental_uris": {"android": "https://dc.lft.to/lastmile_qr_scan", "ios": "https://dc.lft.to/lastmile_qr_scan"}, "fusion_lat": 0.0, "is_reserved": 0, "lat": 38.900715166666664, "name": "88b8223ea3e0092ae8481d9fcfd1e41b", "bike_id": "88b8223ea3e0092ae8481d9fcfd1e41b", "is_disabled": 0, "fusion_lon": 0.0, "type": "electric_scooter", "lon": -77.02717683333333}, {"rental_uris": {"android": "https://dc.lft.to/lastmile_qr_scan", "ios": "https://dc.lft.to/lastmile_qr_scan"}, "fusion_lat": 0.0, "is_reserved": 0, "lat": 38.9496575, "name": "190fca591cc358a9b4c812119f9d8d7a", "bike_id": "190fca591cc358a9b4c812119f9d8d7a", "is_disabled": 0, "fusion_lon": 0.0, "type": "electric_scooter", "lon": -77.02345066666666}, {"rental_uris": {"android": "https://dc.lft.to/lastmile_qr_scan", "ios": "https://dc.lft.to/lastmile_qr_scan"}, "fusion_lat": 0.0, "is_reserved": 0, "lat": 38.943104, "name": "5d6f816e89123b2c89595a5adced0680", "bike_id": "5d6f816e89123b2c89595a5adced0680", "is_disabled": 0, "fusion_lon": 0.0, "type": "electric_scooter", "lon": -77.02180366666667}, {"rental_uris": {"android": "https://dc.lft.to/lastmile_qr_scan", "ios": "https://dc.lft.to/lastmile_qr_scan"}, "fusion_lat": 0.0, "is_reserved": 0, "lat": 38.905665666666664, "name": "ea4cebbc2d7e79b7272e65d77eea2702", "bike_id": "ea4cebbc2d7e79b7272e65d77eea2702", "is_disabled": 0, "fusion_lon": 0.0, "type": "electric_scooter", "lon": -77.042001}, {"rental_uris": {"android": "https://dc.lft.to/lastmile_qr_scan", "ios": "https://dc.lft.to/lastmile_qr_scan"}, "fusion_lat": 0.0, "is_reserved": 0, "lat": 38.9234375, "name": "b19649a82ad9fe710240f05da35e7f9f", "bike_id": "b19649a82ad9fe710240f05da35e7f9f", "is_disabled": 0, "fusion_lon": 0.0, "type": "electric_scooter", "lon": -77.02439733333334}, {"rental_uris": {"android": "https://dc.lft.to/lastmile_qr_scan", "ios": "https://dc.lft.to/lastmile_qr_scan"}, "fusion_lat": 0.0, "is_reserved": 0, "lat": 38.9162945, "name": "f6877d7dc7fb924e79b7088c2d949f07", "bike_id": "f6877d7dc7fb924e79b7088c2d949f07", "is_disabled": 0, "fusion_lon": 0.0, "type": "electric_scooter", "lon": -77.03206716666666}, {"rental_uris": {"android": "https://dc.lft.to/lastmile_qr_scan", "ios": "https://dc.lft.to/lastmile_qr_scan"}, "fusion_lat": 0.0, "is_reserved": 0, "lat": 38.9181585, "name": "3bb62b867805231dcef693c02d9d7abc", "bike_id": "3bb62b867805231dcef693c02d9d7abc", "is_disabled": 0, "fusion_lon": 0.0, "type": "electric_scooter", "lon": -77.03023116666667}, {"rental_uris": {"android": "https://dc.lft.to/lastmile_qr_scan", "ios": "https://dc.lft.to/lastmile_qr_scan"}, "fusion_lat": 0.0, "is_reserved": 0, "lat": 38.9006765, "name": "afbddc3051965ea1e5ebf7a851c25f55", "bike_id": "afbddc3051965ea1e5ebf7a851c25f55", "is_disabled": 0, "fusion_lon": 0.0, "type": "electric_scooter", "lon": -76.92743383333334}, {"rental_uris": {"android": "https://dc.lft.to/lastmile_qr_scan", "ios": "https://dc.lft.to/lastmile_qr_scan"}, "fusion_lat": 0.0, "is_reserved": 0, "lat": 38.887232166666664, "name": "e4acc5a3a4c624800c44eb7841ecb775", "bike_id": "e4acc5a3a4c624800c44eb7841ecb775", "is_disabled": 0, "fusion_lon": 0.0, "type": "electric_scooter", "lon": -76.98360166666667}, {"rental_uris": {"android": "https://dc.lft.to/lastmile_qr_scan", "ios": "https://dc.lft.to/lastmile_qr_scan"}, "fusion_lat": 0.0, "is_reserved": 0, "lat": 38.922132166666664, "name": "8ca4bd8e8c8805e12ea7ffdca0333435", "bike_id": "8ca4bd8e8c8805e12ea7ffdca0333435", "is_disabled": 0, "fusion_lon": 0.0, "type": "electric_scooter", "lon": -77.02658883333334}, {"rental_uris": {"android": "https://dc.lft.to/lastmile_qr_scan", "ios": "https://dc.lft.to/lastmile_qr_scan"}, "fusion_lat": 0.0, "is_reserved": 0, "lat": 38.915483333333334, "name": "97ecfa46880402b6427be74263e9918c", "bike_id": "97ecfa46880402b6427be74263e9918c", "is_disabled": 0, "fusion_lon": 0.0, "type": "electric_scooter", "lon": -77.02204916666666}, {"rental_uris": {"android": "https://dc.lft.to/lastmile_qr_scan", "ios": "https://dc.lft.to/lastmile_qr_scan"}, "fusion_lat": 0.0, "is_reserved": 0, "lat": 38.92431116666667, "name": "34064bb635e293b17e79deb37bf767b2", "bike_id": "34064bb635e293b17e79deb37bf767b2", "is_disabled": 0, "fusion_lon": 0.0, "type": "electric_scooter", "lon": -77.04247916666667}, {"rental_uris": {"android": "https://dc.lft.to/lastmile_qr_scan", "ios": "https://dc.lft.to/lastmile_qr_scan"}, "fusion_lat": 0.0, "is_reserved": 0, "lat": 38.90973116666667, "name": "3aa5e4093a1510e8b2e8f5b69923de13", "bike_id": "3aa5e4093a1510e8b2e8f5b69923de13", "is_disabled": 0, "fusion_lon": 0.0, "type": "electric_scooter", "lon": -77.02585016666667}, {"rental_uris": {"android": "https://dc.lft.to/lastmile_qr_scan", "ios": "https://dc.lft.to/lastmile_qr_scan"}, "fusion_lat": 0.0, "is_reserved": 0, "lat": 38.892235, "name": "41ccb4d9a5c3dd25429488a705272325", "bike_id": "41ccb4d9a5c3dd25429488a705272325", "is_disabled": 0, "fusion_lon": 0.0, "type": "electric_scooter", "lon": -77.02230883333333}, {"rental_uris": {"android": "https://dc.lft.to/lastmile_qr_scan", "ios": "https://dc.lft.to/lastmile_qr_scan"}, "fusion_lat": 0.0, "is_reserved": 0, "lat": 38.92283316666666, "name": "643879f00403416a6a9c30adb758a57e", "bike_id": "643879f00403416a6a9c30adb758a57e", "is_disabled": 0, "fusion_lon": 0.0, "type": "electric_scooter", "lon": -77.0365885}, {"rental_uris": {"android": "https://dc.lft.to/lastmile_qr_scan", "ios": "https://dc.lft.to/lastmile_qr_scan"}, "fusion_lat": 0.0, "is_reserved": 0, "lat": 38.88507533333333, "name": "f6001750edb2bfccb84a61c85d35f853", "bike_id": "f6001750edb2bfccb84a61c85d35f853", "is_disabled": 0, "fusion_lon": 0.0, "type": "electric_scooter", "lon": -77.01590316666666}, {"rental_uris": {"android": "https://dc.lft.to/lastmile_qr_scan", "ios": "https://dc.lft.to/lastmile_qr_scan"}, "fusion_lat": 0.0, "is_reserved": 0, "lat": 38.90261016666667, "name": "e5a8ec85be65a94fb55acec1d6467782", "bike_id": "e5a8ec85be65a94fb55acec1d6467782", "is_disabled": 0, "fusion_lon": 0.0, "type": "electric_scooter", "lon": -77.0396205}, {"rental_uris": {"android": "https://dc.lft.to/lastmile_qr_scan", "ios": "https://dc.lft.to/lastmile_qr_scan"}, "fusion_lat": 0.0, "is_reserved": 0, "lat": 38.91491583333333, "name": "2029624d83faa875ab49f1eabff4f554", "bike_id": "2029624d83faa875ab49f1eabff4f554", "is_disabled": 0, "fusion_lon": 0.0, "type": "electric_scooter", "lon": -77.01858233333333}, {"rental_uris": {"android": "https://dc.lft.to/lastmile_qr_scan", "ios": "https://dc.lft.to/lastmile_qr_scan"}, "fusion_lat": 0.0, "is_reserved": 0, "lat": 38.92950616666667, "name": "aa349fe5d6184e644ea054947164cab8", "bike_id": "aa349fe5d6184e644ea054947164cab8", "is_disabled": 0, "fusion_lon": 0.0, "type": "electric_scooter", "lon": -77.00410333333333}, {"rental_uris": {"android": "https://dc.lft.to/lastmile_qr_scan", "ios": "https://dc.lft.to/lastmile_qr_scan"}, "fusion_lat": 0.0, "is_reserved": 0, "lat": 38.896906666666666, "name": "4d3a07ac102e09aa256620b88896105e", "bike_id": "4d3a07ac102e09aa256620b88896105e", "is_disabled": 0, "fusion_lon": 0.0, "type": "electric_scooter", "lon": -77.0335885}, {"rental_uris": {"android": "https://dc.lft.to/lastmile_qr_scan", "ios": "https://dc.lft.to/lastmile_qr_scan"}, "fusion_lat": 0.0, "is_reserved": 0, "lat": 39.074685333333335, "name": "ddc76a0f05edf83a02b5617db2d4184d", "bike_id": "ddc76a0f05edf83a02b5617db2d4184d", "is_disabled": 0, "fusion_lon": 0.0, "type": "electric_bike", "lon": -77.11510233333334}, {"rental_uris": {"android": "https://dc.lft.to/lastmile_qr_scan", "ios": "https://dc.lft.to/lastmile_qr_scan"}, "fusion_lat": 0.0, "is_reserved": 0, "lat": 38.9066, "name": "d7b2612b6770bc1a47d4f4c0685ee826", "bike_id": "d7b2612b6770bc1a47d4f4c0685ee826", "is_disabled": 0, "fusion_lon": 0.0, "type": "electric_scooter", "lon": -77.02818033333334}, {"rental_uris": {"android": "https://dc.lft.to/lastmile_qr_scan", "ios": "https://dc.lft.to/lastmile_qr_scan"}, "fusion_lat": 0.0, "is_reserved": 0, "lat": 38.9155075, "name": "bc20bff2783865904196a4bb21f72819", "bike_id": "bc20bff2783865904196a4bb21f72819", "is_disabled": 0, "fusion_lon": 0.0, "type": "electric_scooter", "lon": -77.01414633333333}, {"rental_uris": {"android": "https://dc.lft.to/lastmile_qr_scan", "ios": "https://dc.lft.to/lastmile_qr_scan"}, "fusion_lat": 0.0, "is_reserved": 0, "lat": 38.81584433333333, "name": "ed6123debfb100cba157f6b8a61c1b36", "bike_id": "ed6123debfb100cba157f6b8a61c1b36", "is_disabled": 0, "fusion_lon": 0.0, "type": "electric_bike", "lon": -77.04940566666667}, {"rental_uris": {"android": "https://dc.lft.to/lastmile_qr_scan", "ios": "https://dc.lft.to/lastmile_qr_scan"}, "fusion_lat": 0.0, "is_reserved": 0, "lat": 38.943268, "name": "2b18f2a70490bf331438222bdd8fdbb4", "bike_id": "2b18f2a70490bf331438222bdd8fdbb4", "is_disabled": 0, "fusion_lon": 0.0, "type": "electric_scooter", "lon": -77.014931}, {"rental_uris": {"android": "https://dc.lft.to/lastmile_qr_scan", "ios": "https://dc.lft.to/lastmile_qr_scan"}, "fusion_lat": 0.0, "is_reserved": 0, "lat": 38.96398816666667, "name": "0e91bf7a92e1590561ae53493b5ccc9e", "bike_id": "0e91bf7a92e1590561ae53493b5ccc9e", "is_disabled": 0, "fusion_lon": 0.0, "type": "electric_scooter", "lon": -77.02769966666666}, {"rental_uris": {"android": "https://dc.lft.to/lastmile_qr_scan", "ios": "https://dc.lft.to/lastmile_qr_scan"}, "fusion_lat": 0.0, "is_reserved": 0, "lat": 38.935573833333336, "name": "5c4c9c91a49c079dd096df853d54297f", "bike_id": "5c4c9c91a49c079dd096df853d54297f", "is_disabled": 0, "fusion_lon": 0.0, "type": "electric_scooter", "lon": -77.0348345}, {"rental_uris": {"android": "https://dc.lft.to/lastmile_qr_scan", "ios": "https://dc.lft.to/lastmile_qr_scan"}, "fusion_lat": 0.0, "is_reserved": 0, "lat": 38.916692166666664, "name": "7e4aba96f5aa49d064d791c9621be194", "bike_id": "7e4aba96f5aa49d064d791c9621be194", "is_disabled": 0, "fusion_lon": 0.0, "type": "electric_scooter", "lon": -77.04603816666666}, {"rental_uris": {"android": "https://dc.lft.to/lastmile_qr_scan", "ios": "https://dc.lft.to/lastmile_qr_scan"}, "fusion_lat": 0.0, "is_reserved": 0, "lat": 38.91637933333333, "name": "aba76ff40455b3da5d05c88522c9f63d", "bike_id": "aba76ff40455b3da5d05c88522c9f63d", "is_disabled": 0, "fusion_lon": 0.0, "type": "electric_scooter", "lon": -77.04807916666667}, {"rental_uris": {"android": "https://dc.lft.to/lastmile_qr_scan", "ios": "https://dc.lft.to/lastmile_qr_scan"}, "fusion_lat": 0.0, "is_reserved": 0, "lat": 38.91358183333333, "name": "ec86d2b1507673b196e501a898da9d4c", "bike_id": "ec86d2b1507673b196e501a898da9d4c", "is_disabled": 0, "fusion_lon": 0.0, "type": "electric_scooter", "lon": -77.03360816666667}, {"rental_uris": {"android": "https://dc.lft.to/lastmile_qr_scan", "ios": "https://dc.lft.to/lastmile_qr_scan"}, "fusion_lat": 0.0, "is_reserved": 0, "lat": 38.92125816666667, "name": "d86e3d2d8daf7c5a07f768057e34b6ce", "bike_id": "d86e3d2d8daf7c5a07f768057e34b6ce", "is_disabled": 0, "fusion_lon": 0.0, "type": "electric_scooter", "lon": -77.03664916666666}, {"rental_uris": {"android": "https://dc.lft.to/lastmile_qr_scan", "ios": "https://dc.lft.to/lastmile_qr_scan"}, "fusion_lat": 0.0, "is_reserved": 0, "lat": 38.9041175, "name": "137e5717283433b1c427359fef668c1f", "bike_id": "137e5717283433b1c427359fef668c1f", "is_disabled": 0, "fusion_lon": 0.0, "type": "electric_scooter", "lon": -77.017822}, {"rental_uris": {"android": "https://dc.lft.to/lastmile_qr_scan", "ios": "https://dc.lft.to/lastmile_qr_scan"}, "fusion_lat": 0.0, "is_reserved": 0, "lat": 38.87180133333333, "name": "b15c7fc2b23786a09f998428a145af25", "bike_id": "b15c7fc2b23786a09f998428a145af25", "is_disabled": 0, "fusion_lon": 0.0, "type": "electric_scooter", "lon": -77.00613383333334}, {"rental_uris": {"android": "https://dc.lft.to/lastmile_qr_scan", "ios": "https://dc.lft.to/lastmile_qr_scan"}, "fusion_lat": 0.0, "is_reserved": 0, "lat": 38.91809583333333, "name": "3fb54c297b43742859ac9eb17c6ec970", "bike_id": "3fb54c297b43742859ac9eb17c6ec970", "is_disabled": 0, "fusion_lon": 0.0, "type": "electric_scooter", "lon": -77.03306216666667}, {"rental_uris": {"android": "https://dc.lft.to/lastmile_qr_scan", "ios": "https://dc.lft.to/lastmile_qr_scan"}, "fusion_lat": 0.0, "is_reserved": 0, "lat": 38.9207245, "name": "af8a31cf56ae887bb43ed32bcb9c0f5f", "bike_id": "af8a31cf56ae887bb43ed32bcb9c0f5f", "is_disabled": 0, "fusion_lon": 0.0, "type": "electric_scooter", "lon": -77.02316633333334}, {"rental_uris": {"android": "https://dc.lft.to/lastmile_qr_scan", "ios": "https://dc.lft.to/lastmile_qr_scan"}, "fusion_lat": 0.0, "is_reserved": 0, "lat": 38.913288, "name": "6c734df297e560503d006be1f0364ac6", "bike_id": "6c734df297e560503d006be1f0364ac6", "is_disabled": 0, "fusion_lon": 0.0, "type": "electric_scooter", "lon": -77.01152516666667}, {"rental_uris": {"android": "https://dc.lft.to/lastmile_qr_scan", "ios": "https://dc.lft.to/lastmile_qr_scan"}, "fusion_lat": 0.0, "is_reserved": 0, "lat": 38.910337166666665, "name": "5306402b7fbd29cc108960ec63cfd19a", "bike_id": "5306402b7fbd29cc108960ec63cfd19a", "is_disabled": 0, "fusion_lon": 0.0, "type": "electric_scooter", "lon": -77.02928016666667}, {"rental_uris": {"android": "https://dc.lft.to/lastmile_qr_scan", "ios": "https://dc.lft.to/lastmile_qr_scan"}, "fusion_lat": 0.0, "is_reserved": 0, "lat": 38.904638166666665, "name": "29ba02835186b14a498afe25250e9f96", "bike_id": "29ba02835186b14a498afe25250e9f96", "is_disabled": 0, "fusion_lon": 0.0, "type": "electric_scooter", "lon": -77.03568416666667}, {"rental_uris": {"android": "https://dc.lft.to/lastmile_qr_scan", "ios": "https://dc.lft.to/lastmile_qr_scan"}, "fusion_lat": 0.0, "is_reserved": 0, "lat": 38.94202533333333, "name": "b60bb938df5bbf6d8eee8c0a9f11e7aa", "bike_id": "b60bb938df5bbf6d8eee8c0a9f11e7aa", "is_disabled": 0, "fusion_lon": 0.0, "type": "electric_scooter", "lon": -77.02377233333333}, {"rental_uris": {"android": "https://dc.lft.to/lastmile_qr_scan", "ios": "https://dc.lft.to/lastmile_qr_scan"}, "fusion_lat": 0.0, "is_reserved": 0, "lat": 38.89728083333333, "name": "66a4a09fac669621cf0d7dd6593f55eb", "bike_id": "66a4a09fac669621cf0d7dd6593f55eb", "is_disabled": 0, "fusion_lon": 0.0, "type": "electric_scooter", "lon": -77.05525933333334},