{"data": {"bikes": [{"fusion_lat": 0.0, "name": "e4d818568130c6442bf871381252c64e", "is_disabled": 0, "rental_uris": {"android": "https://dc.lft.to/lastmile_qr_scan", "ios": "https://dc.lft.to/lastmile_qr_scan"}, "fusion_lon": 0.0, "lat": 38.94946133333333, "bike_id": "e4d818568130c6442bf871381252c64e", "type": "electric_scooter", "is_reserved": 0, "lon": -77.06637616666667}, {"fusion_lat": 0.0, "name": "aaf80cf716f86d99f04e5d2fe0a95a38", "is_disabled": 0, "rental_uris": {"android": "https://dc.lft.to/lastmile_qr_scan", "ios": "https://dc.lft.to/lastmile_qr_scan"}, "fusion_lon": 0.0, "lat": 38.91553483333333, "bike_id": "aaf80cf716f86d99f04e5d2fe0a95a38", "type": "electric_scooter", "is_reserved": 0, "lon": -77.034758}, {"fusion_lat": 0.0, "name": "e8fbebb16f4c9a13190b59187160d015", "is_disabled": 0, "rental_uris": {"android": "https://dc.lft.to/lastmile_qr_scan", "ios": "https://dc.lft.to/lastmile_qr_scan"}, "fusion_lon": 0.0, "lat": 38.86632083333333, "bike_id": "e8fbebb16f4c9a13190b59187160d015", "type": "electric_scooter", "is_reserved": 0, "lon": -76.9871555}, {"fusion_lat": 0.0, "name": "e2c6a80dd51d483347128bb156ed496a", "is_disabled": 0, "rental_uris": {"android": "https://dc.lft.to/lastmile_qr_scan", "ios": "https://dc.lft.to/lastmile_qr_scan"}, "fusion_lon": 0.0, "lat": 38.932879666666665, "bike_id": "e2c6a80dd51d483347128bb156ed496a", "type": "electric_scooter", "is_reserved": 0, "lon": -77.0408805}, {"fusion_lat": 0.0, "name": "7ba27e22902cfdfc0766c56db625b060", "is_disabled": 0, "rental_uris": {"android": "https://dc.lft.to/lastmile_qr_scan", "ios": "https://dc.lft.to/lastmile_qr_scan"}, "fusion_lon": 0.0, "lat": 38.950608333333335, "bike_id": "7ba27e22902cfdfc0766c56db625b060", "type": "electric_scooter", "is_reserved": 0, "lon": -77.0802595}, {"fusion_lat": 0.0, "name": "f083d1e56dbcb775d6be385982867d7b", "is_disabled": 0, "rental_uris": {"android": "https://dc.lft.to/lastmile_qr_scan", "ios": "https://dc.lft.to/lastmile_qr_scan"}, "fusion_lon": 0.0, "lat": 38.90301266666667, "bike_id": "f083d1e56dbcb775d6be385982867d7b", "type": "electric_scooter", "is_reserved": 0, "lon": -77.0601655}, {"fusion_lat": 0.0, "name": "3a56c75e2e9f7b120fbec75b4a32f541", "is_disabled": 0, "rental_uris": {"android": "https://dc.lft.to/lastmile_qr_scan", "ios": "https://dc.lft.to/lastmile_qr_scan"}, "fusion_lon": 0.0, "lat": 38.89223366666667, "bike_id": "3a56c75e2e9f7b120fbec75b4a32f541", "type": "electric_scooter", "is_reserved": 0, "lon": -77.04527766666666}, {"fusion_lat": 0.0, "name": "319bdd02000a547d4afa6efb8e3d37c8", "is_disabled": 0, "rental_uris": {"android": "https://dc.lft.to/lastmile_qr_scan", "ios": "https://dc.lft.to/lastmile_qr_scan"}, "fusion_lon": 0.0, "lat": 38.87625716666667, "bike_id": "319bdd02000a547d4afa6efb8e3d37c8", "type": "electric_scooter", "is_reserved": 0, "lon": -77.00639783333334}, {"fusion_lat": 0.0, "name": "af5fcddae2166d240209e4f31d92a09c", "is_disabled": 0, "rental_uris": {"android": "https://dc.lft.to/lastmile_qr_scan", "ios": "https://dc.lft.to/lastmile_qr_scan"}, "fusion_lon": 0.0, "lat": 38.951880333333335, "bike_id": "af5fcddae2166d240209e4f31d92a09c", "type": "electric_scooter", "is_reserved": 0, "lon": -77.0261515}, {"fusion_lat": 0.0, "name": "70c35ca942cfa26eaf60d311ad053839", "is_disabled": 0, "rental_uris": {"android": "https://dc.lft.to/lastmile_qr_scan", "ios": "https://dc.lft.to/lastmile_qr_scan"}, "fusion_lon": 0.0, "lat": 38.909759333333334, "bike_id": "70c35ca942cfa26eaf60d311ad053839", "type": "electric_scooter", "is_reserved": 0, "lon": -77.02693083333334}, {"fusion_lat": 0.0, "name": "16d264abd6809f5bff12bb93c5a43657", "is_disabled": 0, "rental_uris": {"android": "https://dc.lft.to/lastmile_qr_scan", "ios": "https://dc.lft.to/lastmile_qr_scan"}, "fusion_lon": 0.0, "lat": 38.90875316666666, "bike_id": "16d264abd6809f5bff12bb93c5a43657", "type": "electric_scooter", "is_reserved": 0, "lon": -77.00276533333333}, {"fusion_lat": 0.0, "name": "f9d8d36124d6d50d9fd51c8c0269ff7c", "is_disabled": 0, "rental_uris": {"android": "https://dc.lft.to/lastmile_qr_scan", "ios": "https://dc.lft.to/lastmile_qr_scan"}, "fusion_lon": 0.0, "lat": 38.886671, "bike_id": "f9d8d36124d6d50d9fd51c8c0269ff7c", "type": "electric_scooter", "is_reserved": 0, "lon": -77.02822066666667}, {"fusion_lat": 0.0, "name": "7c54a91aa361a9b04becf698c6dab105", "is_disabled": 0, "rental_uris": {"android": "https://dc.lft.to/lastmile_qr_scan", "ios": "https://dc.lft.to/lastmile_qr_scan"}, "fusion_lon": 0.0, "lat": 38.922413166666665, "bike_id": "7c54a91aa361a9b04becf698c6dab105", "type": "electric_bike", "is_reserved": 0, "lon": -77.02267666666667}, {"fusion_lat": 0.0, "name": "f99f87ecbf35af1e4db61ec9501d15f2", "is_disabled": 0, "rental_uris": {"android": "https://dc.lft.to/lastmile_qr_scan", "ios": "https://dc.lft.to/lastmile_qr_scan"}, "fusion_lon": 0.0, "lat": 38.81991766666667, "bike_id": "f99f87ecbf35af1e4db61ec9501d15f2", "type": "electric_bike", "is_reserved": 0, "lon": -76.99811333333334}, {"fusion_lat": 0.0, "name": "4b515d5e698040e9edcc6055a66abce8", "is_disabled": 0, "rental_uris": {"android": "https://dc.lft.to/lastmile_qr_scan", "ios": "https://dc.lft.to/lastmile_qr_scan"}, "fusion_lon": 0.0, "lat": 38.84917383333333, "bike_id": "4b515d5e698040e9edcc6055a66abce8", "type": "electric_bike", "is_reserved": 0, "lon": -77.07931766666667}, {"fusion_lat": 0.0, "name": "f12820fc2b53bfc7c1a6edb8ea26c19b", "is_disabled": 0, "rental_uris": {"android": "https://dc.lft.to/lastmile_qr_scan", "ios": "https://dc.lft.to/lastmile_qr_scan"}, "fusion_lon": 0.0, "lat": 38.816119666666665, "bike_id": "f12820fc2b53bfc7c1a6edb8ea26c19b", "type": "electric_bike", "is_reserved": 0, "lon": -76.99661083333334}, {"fusion_lat": 0.0, "name": "baeb74b5600fc0a5dc1fbf716921a07e", "is_disabled": 0, "rental_uris": {"android": "https://dc.lft.to/lastmile_qr_scan", "ios": "https://dc.lft.to/lastmile_qr_scan"}, "fusion_lon": 0.0, "lat": 38.90394716666667, "bike_id": "baeb74b5600fc0a5dc1fbf716921a07e", "type": "electric_scooter", "is_reserved": 0, "lon": -77.0419235}, {"fusion_lat": 0.0, "name": "eb6527a5fab726e075478b2dfb9f99b8", "is_disabled": 0, "rental_uris": {"android": "https://dc.lft.to/lastmile_qr_scan", "ios": "https://dc.lft.to/lastmile_qr_scan"}, "fusion_lon": 0.0, "lat": 38.90589933333333, "bike_id": "eb6527a5fab726e075478b2dfb9f99b8", "type": "electric_scooter", "is_reserved": 0, "lon": -77.0448855}, {"fusion_lat": 0.0, "name": "f0b1635eba2ffcff439f7ccf4a94afae", "is_disabled": 0, "rental_uris": {"android": "https://dc.lft.to/lastmile_qr_scan", "ios": "https://dc.lft.to/lastmile_qr_scan"}, "fusion_lon": 0.0, "lat": 39.0141835, "bike_id": "f0b1635eba2ffcff439f7ccf4a94afae", "type": "electric_bike", "is_reserved": 0, "lon": -77.04498283333334}, {"fusion_lat": 0.0, "name": "badf6ee1baf73e91cd8fc09d58f2f6cc", "is_disabled": 0, "rental_uris": {"android": "https://dc.lft.to/lastmile_qr_scan", "ios": "https://dc.lft.to/lastmile_qr_scan"}, "fusion_lon": 0.0, "lat": 38.931952333333335, "bike_id": "badf6ee1baf73e91cd8fc09d58f2f6cc", "type": "electric_scooter", "is_reserved": 0, "lon": -77.02977883333334}, {"fusion_lat": 0.0, "name": "0cb559fc3c7d7440a793241c070ed07f", "is_disabled": 0, "rental_uris": {"android": "https://dc.lft.to/lastmile_qr_scan", "ios": "https://dc.lft.to/lastmile_qr_scan"}, "fusion_lon": 0.0, "lat": 38.92708116666667, "bike_id": "0cb559fc3c7d7440a793241c070ed07f", "type": "electric_scooter", "is_reserved": 0, "lon": -77.02078116666667}, {"fusion_lat": 0.0, "name": "ffc601af6baee555a90c46bf68c8c8b7", "is_disabled": 0, "rental_uris": {"android": "https://dc.lft.to/lastmile_qr_scan", "ios": "https://dc.lft.to/lastmile_qr_scan"}, "fusion_lon": 0.0, "lat": 38.900647666666664, "bike_id": "ffc601af6baee555a90c46bf68c8c8b7", "type": "electric_scooter", "is_reserved": 0, "lon": -76.98717666666667}, {"fusion_lat": 0.0, "name": "b6160ac318f76c59a79477cbea3bda30", "is_disabled": 0, "rental_uris": {"android": "https://dc.lft.to/lastmile_qr_scan", "ios": "https://dc.lft.to/lastmile_qr_scan"}, "fusion_lon": 0.0, "lat": 38.8851285, "bike_id": "b6160ac318f76c59a79477cbea3bda30", "type": "electric_scooter", "is_reserved": 0, "lon": -76.99752866666667}, {"fusion_lat": 0.0, "name": "f62ed3edd50fc96a8ecee820db1d06d0", "is_disabled": 0, "rental_uris": {"android": "https://dc.lft.to/lastmile_qr_scan", "ios": "https://dc.lft.to/lastmile_qr_scan"}, "fusion_lon": 0.0, "lat": 38.8871945, "bike_id": "f62ed3edd50fc96a8ecee820db1d06d0", "type": "electric_scooter", "is_reserved": 0, "lon": -77.022006}, {"fusion_lat": 0.0, "name": "c43d97cc304ba49bcf75b01fa90c7fa8", "is_disabled": 0, "rental_uris": {"android": "https://dc.lft.to/lastmile_qr_scan", "ios": "https://dc.lft.to/lastmile_qr_scan"}, "fusion_lon": 0.0, "lat": 38.92748683333333, "bike_id": "c43d97cc304ba49bcf75b01fa90c7fa8", "type": "electric_scooter", "is_reserved": 0, "lon": -77.02535633333333}, {"fusion_lat": 0.0, "name": "97e9dc45dcf440eeb6aec01775943eb5", "is_disabled": 0, "rental_uris": {"android": "https://dc.lft.to/lastmile_qr_scan", "ios": "https://dc.lft.to/lastmile_qr_scan"}, "fusion_lon": 0.0, "lat": 38.898390166666665, "bike_id": "97e9dc45dcf440eeb6aec01775943eb5", "type": "electric_scooter", "is_reserved": 0, "lon": -77.041478}, {"fusion_lat": 0.0, "name": "6820d26e251572b6d7843fdc5a4d740d", "is_disabled": 0, "rental_uris": {"android": "https://dc.lft.to/lastmile_qr_scan", "ios": "https://dc.lft.to/lastmile_qr_scan"}, "fusion_lon": 0.0, "lat": 38.896173166666664, "bike_id": "6820d26e251572b6d7843fdc5a4d740d", "type": "electric_bike", "is_reserved": 0, "lon": -76.90736883333334}, {"fusion_lat": 0.0, "name": "7d37bb7952044cc753035a8eeae1a3a9", "is_disabled": 0, "rental_uris": {"android": "https://dc.lft.to/lastmile_qr_scan", "ios": "https://dc.lft.to/lastmile_qr_scan"}, "fusion_lon": 0.0, "lat": 38.901675, "bike_id": "7d37bb7952044cc753035a8eeae1a3a9", "type": "electric_scooter", "is_reserved": 0, "lon": -77.016195}, {"fusion_lat": 0.0, "name": "29ab10165b18a574e23a152f20b6fbc7", "is_disabled": 0, "rental_uris": {"android": "https://dc.lft.to/lastmile_qr_scan", "ios": "https://dc.lft.to/lastmile_qr_scan"}, "fusion_lon": 0.0, "lat": 38.916683666666664, "bike_id": "29ab10165b18a574e23a152f20b6fbc7", "type": "electric_scooter", "is_reserved": 0, "lon": -77.02822566666667}, {"fusion_lat": 0.0, "name": "0b7023bb786311e30991302fddd8f8ee", "is_disabled": 0, "rental_uris": {"android": "https://dc.lft.to/lastmile_qr_scan", "ios": "https://dc.lft.to/lastmile_qr_scan"}, "fusion_lon": 0.0, "lat": 38.878839166666666, "bike_id": "0b7023bb786311e30991302fddd8f8ee", "type": "electric_scooter", "is_reserved": 0, "lon": -77.02252083333333}, {"fusion_lat": 0.0, "name": "7ce9bd3273ec94d978adf0fd8c3bccd4", "is_disabled": 0, "rental_uris": {"android": "https://dc.lft.to/lastmile_qr_scan", "ios": "https://dc.lft.to/lastmile_qr_scan"}, "fusion_lon": 0.0, "lat": 38.94121616666666, "bike_id": "7ce9bd3273ec94d978adf0fd8c3bccd4", "type": "electric_scooter", "is_reserved": 0, "lon": -77.02547733333333}, {"fusion_lat": 0.0, "name": "aeda5a2e9eef037340ce9d737a9463e8", "is_disabled": 0, "rental_uris": {"android": "https://dc.lft.to/lastmile_qr_scan", "ios": "https://dc.lft.to/lastmile_qr_scan"}, "fusion_lon": 0.0, "lat": 38.923405333333335, "bike_id": "aeda5a2e9eef037340ce9d737a9463e8", "type": "electric_scooter", "is_reserved": 0, "lon": -77.05299933333333}, {"fusion_lat": 0.0, "name": "1140f0c9cebc869f887aba3c3a64f580", "is_disabled": 0, "rental_uris": {"android": "https://dc.lft.to/lastmile_qr_scan", "ios": "https://dc.lft.to/lastmile_qr_scan"}, "fusion_lon": 0.0, "lat": 38.926930166666665, "bike_id": "1140f0c9cebc869f887aba3c3a64f580", "type": "electric_scooter", "is_reserved": 0, "lon": -77.01493}, {"fusion_lat": 0.0, "name": "d7e5a75a9b567b88ece37fef52ff6d28", "is_disabled": 0, "rental_uris": {"android": "https://dc.lft.to/lastmile_qr_scan", "ios": "https://dc.lft.to/lastmile_qr_scan"}, "fusion_lon": 0.0, "lat": 38.93148083333333, "bike_id": "d7e5a75a9b567b88ece37fef52ff6d28", "type": "electric_scooter", "is_reserved": 0, "lon": -77.02991566666667}, {"fusion_lat": 0.0, "name": "b8136085e5b6a3078b6a9c45112fd0b3", "is_disabled": 0, "rental_uris": {"android": "https://dc.lft.to/lastmile_qr_scan", "ios": "https://dc.lft.to/lastmile_qr_scan"}, "fusion_lon": 0.0, "lat": 38.907767166666666, "bike_id": "b8136085e5b6a3078b6a9c45112fd0b3", "type": "electric_scooter", "is_reserved": 0, "lon": -77.00371716666666}, {"fusion_lat": 0.0, "name": "9fd9e50d6a392fcfc6fc0eb191593fbe", "is_disabled": 0, "rental_uris": {"android": "https://dc.lft.to/lastmile_qr_scan", "ios": "https://dc.lft.to/lastmile_qr_scan"}, "fusion_lon": 0.0, "lat": 38.87112616666667, "bike_id": "9fd9e50d6a392fcfc6fc0eb191593fbe", "type": "electric_scooter", "is_reserved": 0, "lon": -76.96591133333334}, {"fusion_lat": 0.0, "name": "e919eaf365b886fd6326b65865529fd2", "is_disabled": 0, "rental_uris": {"android": "https://dc.lft.to/lastmile_qr_scan", "ios": "https://dc.lft.to/lastmile_qr_scan"}, "fusion_lon": 0.0, "lat": 38.917017, "bike_id": "e919eaf365b886fd6326b65865529fd2", "type": "electric_scooter", "is_reserved": 0, "lon": -77.02887833333334}, {"fusion_lat": 0.0, "name": "af0b18901e19934af6d871d3671670f9", "is_disabled": 0, "rental_uris": {"android": "https://dc.lft.to/lastmile_qr_scan", "ios": "https://dc.lft.to/lastmile_qr_scan"}, "fusion_lon": 0.0, "lat": 38.9166785, "bike_id": "af0b18901e19934af6d871d3671670f9", "type": "electric_scooter", "is_reserved": 0, "lon": -77.03461}, {"fusion_lat": 0.0, "name": "ed54a9734ddd2b7da22259ad2f12f01a", "is_disabled": 0, "rental_uris": {"android": "https://dc.lft.to/lastmile_qr_scan", "ios": "https://dc.lft.to/lastmile_qr_scan"}, "fusion_lon": 0.0, "lat": 38.91696866666667, "bike_id": "ed54a9734ddd2b7da22259ad2f12f01a", "type": "electric_scooter", "is_reserved": 0, "lon": -77.025164}, {"fusion_lat": 0.0, "name": "b25127c65e6a581bdeb2c76c04de3405", "is_disabled": 0, "rental_uris": {"android": "https://dc.lft.to/lastmile_qr_scan", "ios": "https://dc.lft.to/lastmile_qr_scan"}, "fusion_lon": 0.0, "lat": 38.8924365, "bike_id": "b25127c65e6a581bdeb2c76c04de3405", "type": "electric_scooter", "is_reserved": 0, "lon": -77.02205416666666}, {"fusion_lat": 0.0, "name": "915b133436e7d35ef258ac1ab5a3c7ec", "is_disabled": 0, "rental_uris": {"android": "https://dc.lft.to/lastmile_qr_scan", "ios": "https://dc.lft.to/lastmile_qr_scan"}, "fusion_lon": 0.0, "lat": 38.902551333333335, "bike_id": "915b133436e7d35ef258ac1ab5a3c7ec", "type": "electric_scooter", "is_reserved": 0, "lon": -77.04451466666667}, {"fusion_lat": 0.0, "name": "bdb34ade2641f4d5d2c68b33df906bcb", "is_disabled": 0, "rental_uris": {"android": "https://dc.lft.to/lastmile_qr_scan", "ios": "https://dc.lft.to/lastmile_qr_scan"}, "fusion_lon": 0.0, "lat": 38.940544, "bike_id": "bdb34ade2641f4d5d2c68b33df906bcb", "type": "electric_bike", "is_reserved": 0, "lon": -76.9042005}, {"fusion_lat": 0.0, "name": "d4ffedc01a5bb0a501973a98e39b19fd", "is_disabled": 0, "rental_uris": {"android": "https://dc.lft.to/lastmile_qr_scan", "ios": "https://dc.lft.to/lastmile_qr_scan"}, "fusion_lon": 0.0, "lat": 38.986714166666665, "bike_id": "d4ffedc01a5bb0a501973a98e39b19fd", "type": "electric_bike", "is_reserved": 0, "lon": -76.999974}, {"fusion_lat": 0.0, "name": "ad7395dbb32af82e9ff51127cf8486a4", "is_disabled": 0, "rental_uris": {"android": "https://dc.lft.to/lastmile_qr_scan", "ios": "https://dc.lft.to/lastmile_qr_scan"}, "fusion_lon": 0.0, "lat": 38.994465166666664, "bike_id": "ad7395dbb32af82e9ff51127cf8486a4", "type": "electric_bike", "is_reserved": 0, "lon": -76.99589516666667}, {"fusion_lat": 0.0, "name": "cd6f68f8115da18744729e9406868f8b", "is_disabled": 0, "rental_uris": {"android": "https://dc.lft.to/lastmile_qr_scan", "ios": "https://dc.lft.to/lastmile_qr_scan"}, "fusion_lon": 0.0, "lat": 38.90416466666667, "bike_id": "cd6f68f8115da18744729e9406868f8b", "type": "electric_scooter", "is_reserved": 0, "lon": -77.00140683333333}, {"fusion_lat": 0.0, "name": "d141bc5dd2879a8c173b0be3a3d913a3", "is_disabled": 0, "rental_uris": {"android": "https://dc.lft.to/lastmile_qr_scan", "ios": "https://dc.lft.to/lastmile_qr_scan"}, "fusion_lon": 0.0, "lat": 38.89231233333334, "bike_id": "d141bc5dd2879a8c173b0be3a3d913a3", "type": "electric_scooter", "is_reserved": 0, "lon": -77.0317735}, {"fusion_lat": 0.0, "name": "8bc647e750561ba850b4e727b0099020", "is_disabled": 0, "rental_uris": {"android": "https://dc.lft.to/lastmile_qr_scan", "ios": "https://dc.lft.to/lastmile_qr_scan"}, "fusion_lon": 0.0, "lat": 38.9354725, "bike_id": "8bc647e750561ba850b4e727b0099020", "type": "electric_scooter", "is_reserved": 0, "lon": -77.03261533333334}, {"fusion_lat": 0.0, "name": "e18721856d630933ddd7cd99df3513a1", "is_disabled": 0, "rental_uris": {"android": "https://dc.lft.to/lastmile_qr_scan", "ios": "https://dc.lft.to/lastmile_qr_scan"}, "fusion_lon": 0.0, "lat": 38.904563333333336, "bike_id": "e18721856d630933ddd7cd99df3513a1", "type": "electric_scooter", "is_reserved": 0, "lon": -76.974303}, {"fusion_lat": 0.0, "name": "20f9912770abb930332f1da1a24ce3e3", "is_disabled": 0, "rental_uris": {"android": "https://dc.lft.to/lastmile_qr_scan", "ios": "https://dc.lft.to/lastmile_qr_scan"}, "fusion_lon": 0.0, "lat": 38.924966, "bike_id": "20f9912770abb930332f1da1a24ce3e3", "type": "electric_scooter", "is_reserved": 0, "lon": -77.05109733333333}, {"fusion_lat": 0.0, "name": "cd41a97fa958ffac5191631074502a9f", "is_disabled": 0, "rental_uris": {"android": "https://dc.lft.to/lastmile_qr_scan", "ios": "https://dc.lft.to/lastmile_qr_scan"}, "fusion_lon": 0.0, "lat": 38.938194, "bike_id": "cd41a97fa958ffac5191631074502a9f", "type": "electric_scooter", "is_reserved": 0, "lon": -77.0601735}, {"fusion_lat": 0.0, "name": "8554006887f2552686eea3c38f335342", "is_disabled": 0, "rental_uris": {"android": "https://dc.lft.to/lastmile_qr_scan", "ios": "https://dc.lft.to/lastmile_qr_scan"}, "fusion_lon": 0.0, "lat": 38.919184333333334, "bike_id": "8554006887f2552686eea3c38f335342", "type": "electric_scooter", "is_reserved": 0, "lon": -77.025065}, {"fusion_lat": 0.0, "name": "15edcc684228c158cd6b8fb6beeb777c", "is_disabled": 0, "rental_uris": {"android": "https://dc.lft.to/lastmile_qr_scan", "ios": "https://dc.lft.to/lastmile_qr_scan"}, "fusion_lon": 0.0, "lat": 38.9077995, "bike_id": "15edcc684228c158cd6b8fb6beeb777c", "type": "electric_scooter", "is_reserved": 0, "lon": -77.03858316666667}, {"fusion_lat": 0.0, "name": "4df975c5837c41139d2f6380311deead", "is_disabled": 0, "rental_uris": {"android": "https://dc.lft.to/lastmile_qr_scan", "ios": "https://dc.lft.to/lastmile_qr_scan"}, "fusion_lon": 0.0, "lat": 38.901454333333334, "bike_id": "4df975c5837c41139d2f6380311deead", "type": "electric_scooter", "is_reserved": 0, "lon": -77.00921233333334}, {"fusion_lat": 0.0, "name": "a929b2284dc22dd472e8486e85207396", "is_disabled": 0, "rental_uris": {"android": "https://dc.lft.to/lastmile_qr_scan", "ios": "https://dc.lft.to/lastmile_qr_scan"}, "fusion_lon": 0.0, "lat": 38.91567533333333, "bike_id": "a929b2284dc22dd472e8486e85207396", "type": "electric_scooter", "is_reserved": 0, "lon": -77.02219733333334}, {"fusion_lat": 0.0, "name": "3a54be58beeb7f533c5d0672d757b384", "is_disabled": 0, "rental_uris": {"android": "https://dc.lft.to/lastmile_qr_scan", "ios": "https://dc.lft.to/lastmile_qr_scan"}, "fusion_lon": 0.0, "lat": 38.917345833333336, "bike_id": "3a54be58beeb7f533c5d0672d757b384", "type": "electric_scooter", "is_reserved": 0, "lon": -76.97335066666666}, {"fusion_lat": 0.0, "name": "c82abe3e0b86ca11a1f76ca8440f606c", "is_disabled": 0, "rental_uris": {"android": "https://dc.lft.to/lastmile_qr_scan", "ios": "https://dc.lft.to/lastmile_qr_scan"}, "fusion_lon": 0.0, "lat": 38.9340045, "bike_id": "c82abe3e0b86ca11a1f76ca8440f606c", "type": "electric_scooter", "is_reserved": 0, "lon": -77.057724}, {"fusion_lat": 0.0, "name": "4d9741593e20e8fb35577540948f9367", "is_disabled": 0, "rental_uris": {"android": "https://dc.lft.to/lastmile_qr_scan", "ios": "https://dc.lft.to/lastmile_qr_scan"}, "fusion_lon": 0.0, "lat": 38.92869366666667, "bike_id": "4d9741593e20e8fb35577540948f9367", "type": "electric_scooter", "is_reserved": 0, "lon": -77.0322475}, {"fusion_lat": 0.0, "name": "e2702e9ff838011b8cb602c150e8f93c", "is_disabled": 0, "rental_uris": {"android": "https://dc.lft.to/lastmile_qr_scan", "ios": "https://dc.lft.to/lastmile_qr_scan"}, "fusion_lon": 0.0, "lat": 38.902222, "bike_id": "e2702e9ff838011b8cb602c150e8f93c", "type": "electric_scooter", "is_reserved": 0, "lon": -76.99505766666667}, {"fusion_lat": 0.0, "name": "5a153959b8e95278523da570902d1453", "is_disabled": 0, "rental_uris": {"android": "https://dc.lft.to/lastmile_qr_scan", "ios": "https://dc.lft.to/lastmile_qr_scan"}, "fusion_lon": 0.0, "lat": 38.89232766666667, "bike_id": "5a153959b8e95278523da570902d1453", "type": "electric_scooter", "is_reserved": 0, "lon": -77.0500525}, {"fusion_lat": 0.0, "name": "1365bd925d1a85e0e30c6c2c4f1420cc", "is_disabled": 0, "rental_uris": {"android": "https://dc.lft.to/lastmile_qr_scan", "ios": "https://dc.lft.to/lastmile_qr_scan"}, "fusion_lon": 0.0, "lat": 38.90701166666667, "bike_id": "1365bd925d1a85e0e30c6c2c4f1420cc", "type": "electric_scooter", "is_reserved": 0, "lon": -77.06515233333333}, {"fusion_lat": 0.0, "name": "cd1290a305b24944bb0727eb514341cf", "is_disabled": 0, "rental_uris": {"android": "https://dc.lft.to/lastmile_qr_scan", "ios": "https://dc.lft.to/lastmile_qr_scan"}, "fusion_lon": 0.0, "lat": 38.9245065, "bike_id": "cd1290a305b24944bb0727eb514341cf", "type": "electric_scooter", "is_reserved": 0, "lon": -77.0087485}, {"fusion_lat": 0.0, "name": "aed25344374c2116fb4db1a61017b48f", "is_disabled": 0, "rental_uris": {"android": "https://dc.lft.to/lastmile_qr_scan", "ios": "https://dc.lft.to/lastmile_qr_scan"}, "fusion_lon": 0.0, "lat": 38.923279, "bike_id": "aed25344374c2116fb4db1a61017b48f", "type": "electric_scooter", "is_reserved": 0, "lon": -77.02978133333333}, {"fusion_lat": 0.0, "name": "8eecda9ee54061a4864f464347a1c9b8", "is_disabled": 0, "rental_uris": {"android": "https://dc.lft.to/lastmile_qr_scan", "ios": "https://dc.lft.to/lastmile_qr_scan"}, "fusion_lon": 0.0, "lat": 39.039016333333336, "bike_id": "8eecda9ee54061a4864f464347a1c9b8", "type": "electric_bike", "is_reserved": 0, "lon": -77.05030233333333}, {"fusion_lat": 0.0, "name": "6b2d1c4e0dbe259adadcbb3575e5819d", "is_disabled": 0, "rental_uris": {"android": "https://dc.lft.to/lastmile_qr_scan", "ios": "https://dc.lft.to/lastmile_qr_scan"}, "fusion_lon": 0.0, "lat": 38.883134, "bike_id": "6b2d1c4e0dbe259adadcbb3575e5819d", "type": "electric_scooter", "is_reserved": 0, "lon": -77.01391266666667}, {"fusion_lat": 0.0, "name": "378703fcba9ff8e1efebf24201cecbb6", "is_disabled": 0, "rental_uris": {"android": "https://dc.lft.to/lastmile_qr_scan", "ios": "https://dc.lft.to/lastmile_qr_scan"}, "fusion_lon": 0.0, "lat": 38.92337916666666, "bike_id": "378703fcba9ff8e1efebf24201cecbb6", "type": "electric_scooter", "is_reserved": 0, "lon": -77.04144466666666}, {"fusion_lat": 0.0, "name": "ef588acd7d1df9a896058ea6af8c4afd", "is_disabled": 0, "rental_uris": {"android": "https://dc.lft.to/lastmile_qr_scan", "ios": "https://dc.lft.to/lastmile_qr_scan"}, "fusion_lon": 0.0, "lat": 38.9028805, "bike_id": "ef588acd7d1df9a896058ea6af8c4afd", "type": "electric_scooter", "is_reserved": 0, "lon": -77.04380216666667}, {"fusion_lat": 0.0, "name": "14409b5e7e893aed4ea5c5f015fdcf39", "is_disabled": 0, "rental_uris": {"android": "https://dc.lft.to/lastmile_qr_scan", "ios": "https://dc.lft.to/lastmile_qr_scan"}, "fusion_lon": 0.0, "lat": 38.97259966666667, "bike_id": "14409b5e7e893aed4ea5c5f015fdcf39", "type": "electric_bike", "is_reserved": 0, "lon": -76.992757}, {"fusion_lat": 0.0, "name": "2ef0249515b2077e068554092f542b4f", "is_disabled": 0, "rental_uris": {"android": "https://dc.lft.to/lastmile_qr_scan", "ios": "https://dc.lft.to/lastmile_qr_scan"}, "fusion_lon": 0.0, "lat": 38.89947183333334, "bike_id": "2ef0249515b2077e068554092f542b4f", "type": "electric_scooter", "is_reserved": 0, "lon": -76.99734616666667}, {"fusion_lat": 0.0, "name": "e407288cc68edec71e3e62253e774326", "is_disabled": 0, "rental_uris": {"android": "https://dc.lft.to/lastmile_qr_scan", "ios": "https://dc.lft.to/lastmile_qr_scan"}, "fusion_lon": 0.0, "lat": 38.8964825, "bike_id": "e407288cc68edec71e3e62253e774326", "type": "electric_scooter", "is_reserved": 0, "lon": -77.05102516666666}, {"fusion_lat": 0.0, "name": "93795d7c098bf85966140abaf8f6e6b4", "is_disabled": 0, "rental_uris": {"android": "https://dc.lft.to/lastmile_qr_scan", "ios": "https://dc.lft.to/lastmile_qr_scan"}, "fusion_lon": 0.0, "lat": 38.927881, "bike_id": "93795d7c098bf85966140abaf8f6e6b4", "type": "electric_scooter", "is_reserved": 0, "lon": -77.0315345}, {"fusion_lat": 0.0, "name": "018d3a279f92c25aebc91e415d81cc3f", "is_disabled": 0, "rental_uris": {"android": "https://dc.lft.to/lastmile_qr_scan", "ios": "https://dc.lft.to/lastmile_qr_scan"}, "fusion_lon": 0.0, "lat": 38.9279955, "bike_id": "018d3a279f92c25aebc91e415d81cc3f", "type": "electric_scooter", "is_reserved": 0, "lon": -77.025827}, {"fusion_lat": 0.0, "name": "bf36aa1c25b060191e1da74bcf5a15a1", "is_disabled": 0, "rental_uris": {"android": "https://dc.lft.to/lastmile_qr_scan", "ios": "https://dc.lft.to/lastmile_qr_scan"}, "fusion_lon": 0.0, "lat": 38.8895225, "bike_id": "bf36aa1c25b060191e1da74bcf5a15a1", "type": "electric_scooter", "is_reserved": 0, "lon": -76.99167}, {"fusion_lat": 0.0, "name": "a83188adab56b6f23ba8c22e9b955add", "is_disabled": 0, "rental_uris": {"android": "https://dc.lft.to/lastmile_qr_scan", "ios": "https://dc.lft.to/lastmile_qr_scan"}, "fusion_lon": 0.0, "lat": 38.905005, "bike_id": "a83188adab56b6f23ba8c22e9b955add", "type": "electric_scooter", "is_reserved": 0, "lon": -77.061275}, {"fusion_lat": 0.0, "name": "c73297f73d29e63a890d9e50778300ba", "is_disabled": 0, "rental_uris": {"android": "https://dc.lft.to/lastmile_qr_scan", "ios": "https://dc.lft.to/lastmile_qr_scan"}, "fusion_lon": 0.0, "lat": 38.90574083333333, "bike_id": "c73297f73d29e63a890d9e50778300ba", "type": "electric_scooter", "is_reserved": 0, "lon": -77.02654433333333}, {"fusion_lat": 0.0, "name": "210c9ffea3f51e46803a3432e2ff50e9", "is_disabled": 0, "rental_uris": {"android": "https://dc.lft.to/lastmile_qr_scan", "ios": "https://dc.lft.to/lastmile_qr_scan"}, "fusion_lon": 0.0, "lat": 38.938767, "bike_id": "210c9ffea3f51e46803a3432e2ff50e9", "type": "electric_scooter", "is_reserved": 0, "lon": -77.02919883333334}, {"fusion_lat": 0.0, "name": "559cc9338802977001d303cbb7b983cc", "is_disabled": 0, "rental_uris": {"android": "https://dc.lft.to/lastmile_qr_scan", "ios": "https://dc.lft.to/lastmile_qr_scan"}, "fusion_lon": 0.0, "lat": 38.92899283333333, "bike_id": "559cc9338802977001d303cbb7b983cc", "type": "electric_scooter", "is_reserved": 0, "lon": -77.03251566666667}, {"fusion_lat": 0.0, "name": "15c517b8a3403f7a31ba3c04269778a8", "is_disabled": 0, "rental_uris": {"android": "https://dc.lft.to/lastmile_qr_scan", "ios": "https://dc.lft.to/lastmile_qr_scan"}, "fusion_lon": 0.0, "lat": 38.91772266666667, "bike_id": "15c517b8a3403f7a31ba3c04269778a8", "type": "electric_scooter", "is_reserved": 0, "lon": -77.0228645}, {"fusion_lat": 0.0, "name": "0d8613b8dc6a8dff75ab9cedbe86092b", "is_disabled": 0, "rental_uris": {"android": "https://dc.lft.to/lastmile_qr_scan", "ios": "https://dc.lft.to/lastmile_qr_scan"}, "fusion_lon": 0.0, "lat": 38.93117983333333, "bike_id": "0d8613b8dc6a8dff75ab9cedbe86092b", "type": "electric_scooter", "is_reserved": 0, "lon": -77.02137016666667}, {"fusion_lat": 0.0, "name": "517a7d0d31c176f464686911b126ef42", "is_disabled": 0, "rental_uris": {"android": "https://dc.lft.to/lastmile_qr_scan", "ios": "https://dc.lft.to/lastmile_qr_scan"}, "fusion_lon": 0.0, "lat": 38.9330345, "bike_id": "517a7d0d31c176f464686911b126ef42", "type": "electric_scooter", "is_reserved": 0, "lon": -77.03997383333333}, {"fusion_lat": 0.0, "name": "b8114f4705ffa7f44c22c087db5826e7", "is_disabled": 0, "rental_uris": {"android": "https://dc.lft.to/lastmile_qr_scan", "ios": "https://dc.lft.to/lastmile_qr_scan"}, "fusion_lon": 0.0, "lat": 38.923502166666665, "bike_id": "b8114f4705ffa7f44c22c087db5826e7", "type": "electric_scooter", "is_reserved": 0, "lon": -77.03468216666667}, {"fusion_lat": 0.0, "name": "c4ef007f0dd228b03df0da82edb3bd1a", "is_disabled": 0, "rental_uris": {"android": "https://dc.lft.to/lastmile_qr_scan", "ios": "https://dc.lft.to/lastmile_qr_scan"}, "fusion_lon": 0.0, "lat": 38.896908, "bike_id": "c4ef007f0dd228b03df0da82edb3bd1a", "type": "electric_scooter", "is_reserved": 0, "lon": -77.04337733333334}, {"fusion_lat": 0.0, "name": "da14ae173b249c283407422d25456437", "is_disabled": 0, "rental_uris": {"android": "https://dc.lft.to/lastmile_qr_scan", "ios": "https://dc.lft.to/lastmile_qr_scan"}, "fusion_lon": 0.0, "lat": 38.90879066666667, "bike_id": "da14ae173b249c283407422d25456437", "type": "electric_scooter", "is_reserved": 0, "lon": -77.0426675}, {"fusion_lat": 0.0, "name": "5acaab80fda953fe997a6cd42e990737", "is_disabled": 0, "rental_uris": {"android": "https://dc.lft.to/lastmile_qr_scan", "ios": "https://dc.lft.to/lastmile_qr_scan"}, "fusion_lon": 0.0, "lat": 38.89734716666667, "bike_id": "5acaab80fda953fe997a6cd42e990737", "type": "electric_bike", "is_reserved": 0, "lon": -76.92047383333333}, {"fusion_lat": 0.0, "name": "8e158f9f5e7df4c2e4e48bf0dbc5398b", "is_disabled": 0, "rental_uris": {"android": "https://dc.lft.to/lastmile_qr_scan", "ios": "https://dc.lft.to/lastmile_qr_scan"}, "fusion_lon": 0.0, "lat": 38.90701033333333, "bike_id": "8e158f9f5e7df4c2e4e48bf0dbc5398b", "type": "electric_scooter", "is_reserved": 0, "lon": -77.02714566666667}, {"fusion_lat": 0.0, "name": "0a7d9471f5b22ee88850f6eef74e4526", "is_disabled": 0, "rental_uris": {"android": "https://dc.lft.to/lastmile_qr_scan", "ios": "https://dc.lft.to/lastmile_qr_scan"}, "fusion_lon": 0.0, "lat": 38.89125583333333, "bike_id": "0a7d9471f5b22ee88850f6eef74e4526", "type": "electric_scooter", "is_reserved": 0, "lon": -76.94381183333333}, {"fusion_lat": 0.0, "name": "2be6fa33b35cae7a7bd972bdad2ef135", "is_disabled": 0, "rental_uris": {"android": "https://dc.lft.to/lastmile_qr_scan", "ios": "https://dc.lft.to/lastmile_qr_scan"}, "fusion_lon": 0.0, "lat": 38.91128533333333, "bike_id": "2be6fa33b35cae7a7bd972bdad2ef135", "type": "electric_scooter", "is_reserved": 0, "lon": -77.02101816666666}, {"fusion_lat": 0.0, "name": "0ee71d4fec02f799325c53e76b2975b8", "is_disabled": 0, "rental_uris": {"android": "https://dc.lft.to/lastmile_qr_scan", "ios": "https://dc.lft.to/lastmile_qr_scan"}, "fusion_lon": 0.0, "lat": 38.96990183333333, "bike_id": "0ee71d4fec02f799325c53e76b2975b8", "type": "electric_scooter", "is_reserved": 0, "lon": -77.011613}, {"fusion_lat": 0.0, "name": "4723e6568e89001ce1bfde76c2228f55", "is_disabled": 0, "rental_uris": {"android": "https://dc.lft.to/lastmile_qr_scan", "ios": "https://dc.lft.to/lastmile_qr_scan"}, "fusion_lon": 0.0, "lat": 38.892245333333335, "bike_id": "4723e6568e89001ce1bfde76c2228f55", "type": "electric_scooter", "is_reserved": 0, "lon": -77.04524883333333}, {"fusion_lat": 0.0, "name": "86af998eaa4454db3eadb11fb7a68e2a", "is_disabled": 0, "rental_uris": {"android": "https://dc.lft.to/lastmile_qr_scan", "ios": "https://dc.lft.to/lastmile_qr_scan"}, "fusion_lon": 0.0, "lat": 38.96186616666667, "bike_id": "86af998eaa4454db3eadb11fb7a68e2a", "type": "electric_bike", "is_reserved": 0, "lon": -77.05266166666667}, {"fusion_lat": 0.0, "name": "a04ddff057b7e8dabcca51134f40a3d9", "is_disabled": 0, "rental_uris": {"android": "https://dc.lft.to/lastmile_qr_scan", "ios": "https://dc.lft.to/lastmile_qr_scan"}, "fusion_lon": 0.0, "lat": 38.9110985, "bike_id": "a04ddff057b7e8dabcca51134f40a3d9", "type": "electric_scooter", "is_reserved": 0, "lon": -77.02910983333334}, {"fusion_lat": 0.0, "name": "92f61326dbb47073f6c4da29d0aded81", "is_disabled": 0, "rental_uris": {"android": "https://dc.lft.to/lastmile_qr_scan", "ios": "https://dc.lft.to/lastmile_qr_scan"}, "fusion_lon": 0.0, "lat": 38.93065416666666, "bike_id": "92f61326dbb47073f6c4da29d0aded81", "type": "electric_scooter", "is_reserved": 0, "lon": -77.0405645}, {"fusion_lat": 0.0, "name": "7a992aa8094409419a3f5972ee3b88d0", "is_disabled": 0, "rental_uris": {"android": "https://dc.lft.to/lastmile_qr_scan", "ios": "https://dc.lft.to/lastmile_qr_scan"}, "fusion_lon": 0.0, "lat": 38.974666, "bike_id": "7a992aa8094409419a3f5972ee3b88d0", "type": "electric_scooter", "is_reserved": 0, "lon": -77.01318683333334}, {"fusion_lat": 0.0, "name": "05652472c4128be0602b997334d73ab6", "is_disabled": 0, "rental_uris": {"android": "https://dc.lft.to/lastmile_qr_scan", "ios": "https://dc.lft.to/lastmile_qr_scan"}, "fusion_lon": 0.0, "lat": 38.89733366666667, "bike_id": "05652472c4128be0602b997334d73ab6", "type": "electric_scooter", "is_reserved": 0, "lon": -77.0037195}, {"fusion_lat": 0.0, "name": "d56dc4dab39e9f812bb28c9947196e5b", "is_disabled": 0, "rental_uris": {"android": "https://dc.lft.to/lastmile_qr_scan", "ios": "https://dc.lft.to/lastmile_qr_scan"}, "fusion_lon": 0.0, "lat": 38.90919066666667, "bike_id": "d56dc4dab39e9f812bb28c9947196e5b", "type": "electric_scooter", "is_reserved": 0, "lon": -77.0728165}, {"fusion_lat": 0.0, "name": "56212dbaee4be72aab9383734e04d9bc", "is_disabled": 0, "rental_uris": {"android": "https://dc.lft.to/lastmile_qr_scan", "ios": "https://dc.lft.to/lastmile_qr_scan"}, "fusion_lon": 0.0, "lat": 38.91910333333333, "bike_id": "56212dbaee4be72aab9383734e04d9bc", "type": "electric_scooter", "is_reserved": 0, "lon": -77.00214483333333}, {"fusion_lat": 0.0, "name": "5f0e5317fd5c3af17cf670f6cacd378c", "is_disabled": 0, "rental_uris": {"android": "https://dc.lft.to/lastmile_qr_scan", "ios": "https://dc.lft.to/lastmile_qr_scan"}, "fusion_lon": 0.0, "lat": 38.9001445, "bike_id": "5f0e5317fd5c3af17cf670f6cacd378c", "type": "electric_scooter", "is_reserved": 0, "lon": -77.011822}, {"fusion_lat": 0.0, "name": "45321752eae2c0f7a6145d0f6918e818", "is_disabled": 0, "rental_uris": {"android": "https://dc.lft.to/lastmile_qr_scan", "ios": "https://dc.lft.to/lastmile_qr_scan"}, "fusion_lon": 0.0, "lat": 38.9207215, "bike_id": "45321752eae2c0f7a6145d0f6918e818", "type": "electric_scooter", "is_reserved": 0, "lon": -77.02446}, {"fusion_lat": 0.0, "name": "cc2d4aed65cedf141fd511bcf2e95ff5", "is_disabled": 0, "rental_uris": {"android": "https://dc.lft.to/lastmile_qr_scan", "ios": "https://dc.lft.to/lastmile_qr_scan"}, "fusion_lon": 0.0, "lat": 38.92444283333333, "bike_id": "cc2d4aed65cedf141fd511bcf2e95ff5", "type": "electric_scooter", "is_reserved": 0, "lon": -77.034095}, {"fusion_lat": 0.0, "name": "f1981cffa156298c4e3889908d3dbd69", "is_disabled": 0, "rental_uris": {"android": "https://dc.lft.to/lastmile_qr_scan", "ios": "https://dc.lft.to/lastmile_qr_scan"}, "fusion_lon": 0.0, "lat": 38.92615283333333, "bike_id": "f1981cffa156298c4e3889908d3dbd69", "type": "electric_scooter", "is_reserved": 0, "lon": -77.02165533333333}, {"fusion_lat": 0.0, "name": "cea2c133ba99f0e98e7e09ed290674d5", "is_disabled": 0, "rental_uris": {"android": "https://dc.lft.to/lastmile_qr_scan", "ios": "https://dc.lft.to/lastmile_qr_scan"}, "fusion_lon": 0.0, "lat": 38.932601, "bike_id": "cea2c133ba99f0e98e7e09ed290674d5", "type": "electric_scooter", "is_reserved": 0, "lon": -77.06620566666666}, {"fusion_lat": 0.0, "name": "c5a65257cd12c087c9d67126243dc92d", "is_disabled": 0, "rental_uris": {"android": "https://dc.lft.to/lastmile_qr_scan", "ios": "https://dc.lft.to/lastmile_qr_scan"}, "fusion_lon": 0.0, "lat": 38.905848166666665, "bike_id": "c5a65257cd12c087c9d67126243dc92d", "type": "electric_scooter", "is_reserved": 0, "lon": -77.02207266666667}, {"fusion_lat": 0.0, "name": "4cf2a571f7f8682b7cf69d0fd6de87a1", "is_disabled": 0, "rental_uris": {"android": "https://dc.lft.to/lastmile_qr_scan", "ios": "https://dc.lft.to/lastmile_qr_scan"}, "fusion_lon": 0.0, "lat": 38.89237116666666, "bike_id": "4cf2a571f7f8682b7cf69d0fd6de87a1", "type": "electric_scooter", "is_reserved": 0, "lon": -77.033458}, {"fusion_lat": 0.0, "name": "ff55fc18f72a0005db95dd4bb3a3d5f2", "is_disabled": 0, "rental_uris": {"android": "https://dc.lft.to/lastmile_qr_scan", "ios": "https://dc.lft.to/lastmile_qr_scan"}, "fusion_lon": 0.0, "lat": 38.922912, "bike_id": "ff55fc18f72a0005db95dd4bb3a3d5f2", "type": "electric_scooter", "is_reserved": 0, "lon": -77.0366475}, {"fusion_lat": 0.0, "name": "d7b9262f09dee825a7386fe2e6ccdbc2", "is_disabled": 0, "rental_uris": {"android": "https://dc.lft.to/lastmile_qr_scan", "ios": "https://dc.lft.to/lastmile_qr_scan"}, "fusion_lon": 0.0, "lat": 38.937091, "bike_id": "d7b9262f09dee825a7386fe2e6ccdbc2", "type": "electric_scooter", "is_reserved": 0, "lon": -77.06104566666667}, {"fusion_lat": 0.0, "name": "b4f7428bc9d2622121345f81d43150e0", "is_disabled": 0, "rental_uris": {"android": "https://dc.lft.to/lastmile_qr_scan", "ios": "https://dc.lft.to/lastmile_qr_scan"}, "fusion_lon": 0.0, "lat": 38.9326175, "bike_id": "b4f7428bc9d2622121345f81d43150e0", "type": "electric_scooter", "is_reserved": 0, "lon": -77.032675}, {"fusion_lat": 0.0, "name": "887fa664c41307b87805ba75899d6125", "is_disabled": 0, "rental_uris": {"android": "https://dc.lft.to/lastmile_qr_scan", "ios": "https://dc.lft.to/lastmile_qr_scan"}, "fusion_lon": 0.0, "lat": 38.886724666666666, "bike_id": "887fa664c41307b87805ba75899d6125", "type": "electric_scooter", "is_reserved": 0, "lon": -77.02832583333333}, {"fusion_lat": 0.0, "name": "d4ee33b1a947c0fa6396130775269476", "is_disabled": 0, "rental_uris": {"android": "https://dc.lft.to/lastmile_qr_scan", "ios": "https://dc.lft.to/lastmile_qr_scan"}, "fusion_lon": 0.0, "lat": 38.89003483333333, "bike_id": "d4ee33b1a947c0fa6396130775269476", "type": "electric_scooter", "is_reserved": 0, "lon": -76.93744233333334}, {"fusion_lat": 0.0, "name": "f928e7c111b06ad219d66b402da57dbd", "is_disabled": 0, "rental_uris": {"android": "https://dc.lft.to/lastmile_qr_scan", "ios": "https://dc.lft.to/lastmile_qr_scan"}, "fusion_lon": 0.0, "lat": 38.88723233333333, "bike_id": "f928e7c111b06ad219d66b402da57dbd", "type": "electric_scooter", "is_reserved": 0, "lon": -76.996889}, {"fusion_lat": 0.0, "name": "e79db20a616c64bdf4dcc2bf148f1b65", "is_disabled": 0, "rental_uris": {"android": "https://dc.lft.to/lastmile_qr_scan", "ios": "https://dc.lft.to/lastmile_qr_scan"}, "fusion_lon": 0.0, "lat": 38.924463333333335, "bike_id": "e79db20a616c64bdf4dcc2bf148f1b65", "type": "electric_scooter", "is_reserved": 0, "lon": -77.05180083333333}, {"fusion_lat": 0.0, "name": "4d5e1d668bdd532b6c07c2668f50dbb6", "is_disabled": 0, "rental_uris": {"android": "https://dc.lft.to/lastmile_qr_scan", "ios": "https://dc.lft.to/lastmile_qr_scan"}, "fusion_lon": 0.0, "lat": 38.93969933333333, "bike_id": "4d5e1d668bdd532b6c07c2668f50dbb6", "type": "electric_scooter", "is_reserved": 0, "lon": -77.03255966666667}, {"fusion_lat": 0.0, "name": "c7d85383973505df21b35a0058fc751d", "is_disabled": 0, "rental_uris": {"android": "https://dc.lft.to/lastmile_qr_scan", "ios": "https://dc.lft.to/lastmile_qr_scan"}, "fusion_lon": 0.0, "lat": 38.899417166666666, "bike_id": "c7d85383973505df21b35a0058fc751d", "type": "electric_scooter", "is_reserved": 0, "lon": -76.98154666666667}, {"fusion_lat": 0.0, "name": "d90b8ec874c96f59854f6926fb618525", "is_disabled": 0, "rental_uris": {"android": "https://dc.lft.to/lastmile_qr_scan", "ios": "https://dc.lft.to/lastmile_qr_scan"}, "fusion_lon": 0.0, "lat": 38.88415716666667, "bike_id": "d90b8ec874c96f59854f6926fb618525", "type": "electric_scooter", "is_reserved": 0, "lon": -76.98616366666667}, {"fusion_lat": 0.0, "name": "8fc0039adeb55eeabd90e5753335b05a", "is_disabled": 0, "rental_uris": {"android": "https://dc.lft.to/lastmile_qr_scan", "ios": "https://dc.lft.to/lastmile_qr_scan"}, "fusion_lon": 0.0, "lat": 38.8625735, "bike_id": "8fc0039adeb55eeabd90e5753335b05a", "type": "electric_scooter", "is_reserved": 0, "lon": -76.995127}, {"fusion_lat": 0.0, "name": "d84c325a77776a3ced355d2e71dbe39a", "is_disabled": 0, "rental_uris": {"android": "https://dc.lft.to/lastmile_qr_scan", "ios": "https://dc.lft.to/lastmile_qr_scan"}, "fusion_lon": 0.0, "lat": 38.892275833333336, "bike_id": "d84c325a77776a3ced355d2e71dbe39a", "type": "electric_scooter", "is_reserved": 0, "lon": -77.03178883333334}, {"fusion_lat": 0.0, "name": "26964e89e4ffee588f260920dcdeed3d", "is_disabled": 0, "rental_uris": {"android": "https://dc.lft.to/lastmile_qr_scan", "ios": "https://dc.lft.to/lastmile_qr_scan"}, "fusion_lon": 0.0, "lat": 38.892316666666666, "bike_id": "26964e89e4ffee588f260920dcdeed3d", "type": "electric_scooter", "is_reserved": 0, "lon": -77.05005283333334}, {"fusion_lat": 0.0, "name": "51bdda4a425394542a651835c654ea7d", "is_disabled": 0, "rental_uris": {"android": "https://dc.lft.to/lastmile_qr_scan", "ios": "https://dc.lft.to/lastmile_qr_scan"}, "fusion_lon": 0.0, "lat": 38.89092466666666, "bike_id": "51bdda4a425394542a651835c654ea7d", "type": "electric_scooter", "is_reserved": 0, "lon": -76.919306}, {"fusion_lat": 0.0, "name": "a89ff33c091e7749f497678b1db0967d", "is_disabled": 0, "rental_uris": {"android": "https://dc.lft.to/lastmile_qr_scan", "ios": "https://dc.lft.to/lastmile_qr_scan"}, "fusion_lon": 0.0, "lat": 38.92473716666667, "bike_id": "a89ff33c091e7749f497678b1db0967d", "type": "electric_scooter", "is_reserved": 0, "lon": -77.03854633333333}, {"fusion_lat": 0.0, "name": "a67b07cfa0ef04eb975682ad8715cd36", "is_disabled": 0, "rental_uris": {"android": "https://dc.lft.to/lastmile_qr_scan", "ios": "https://dc.lft.to/lastmile_qr_scan"}, "fusion_lon": 0.0, "lat": 38.79860266666667, "bike_id": "a67b07cfa0ef04eb975682ad8715cd36", "type": "electric_bike", "is_reserved": 0, "lon": -77.0630805}, {"fusion_lat": 0.0, "name": "7b1310644c7242aa9331081982e82199", "is_disabled": 0, "rental_uris": {"android": "https://dc.lft.to/lastmile_qr_scan", "ios": "https://dc.lft.to/lastmile_qr_scan"}, "fusion_lon": 0.0, "lat": 38.926181666666665, "bike_id": "7b1310644c7242aa9331081982e82199", "type": "electric_scooter", "is_reserved": 0, "lon": -77.02163833333333}, {"fusion_lat": 0.0, "name": "ac157231f67f273d22d7ded752b0b381", "is_disabled": 0, "rental_uris": {"android": "https://dc.lft.to/lastmile_qr_scan", "ios": "https://dc.lft.to/lastmile_qr_scan"}, "fusion_lon": 0.0, "lat": 38.9443375, "bike_id": "ac157231f67f273d22d7ded752b0b381", "type": "electric_bike", "is_reserved": 0, "lon": -77.02604883333333}, {"fusion_lat": 0.0, "name": "aa5d229c91198bb89fc5b9425341ad52", "is_disabled": 0, "rental_uris": {"android": "https://dc.lft.to/lastmile_qr_scan", "ios": "https://dc.lft.to/lastmile_qr_scan"}, "fusion_lon": 0.0, "lat": 38.93241033333334, "bike_id": "aa5d229c91198bb89fc5b9425341ad52", "type": "electric_scooter", "is_reserved": 0, "lon": -77.03425033333333}, {"fusion_lat": 0.0, "name": "8c7df9451ca0d76a7f0ed6258d85866c", "is_disabled": 0, "rental_uris": {"android": "https://dc.lft.to/lastmile_qr_scan", "ios": "https://dc.lft.to/lastmile_qr_scan"}, "fusion_lon": 0.0, "lat": 38.917088, "bike_id": "8c7df9451ca0d76a7f0ed6258d85866c", "type": "electric_scooter", "is_reserved": 0, "lon": -77.041484}, {"fusion_lat": 0.0, "name": "f3253ef84bbebebd8c8ac1e0c9eb84a9", "is_disabled": 0, "rental_uris": {"android": "https://dc.lft.to/lastmile_qr_scan", "ios": "https://dc.lft.to/lastmile_qr_scan"}, "fusion_lon": 0.0, "lat": 38.89342166666667, "bike_id": "f3253ef84bbebebd8c8ac1e0c9eb84a9", "type": "electric_scooter", "is_reserved": 0, "lon": -77.04676416666666}, {"fusion_lat": 0.0, "name": "954c31cf6b8e44a0670e4c237457bdce", "is_disabled": 0, "rental_uris": {"android": "https://dc.lft.to/lastmile_qr_scan", "ios": "https://dc.lft.to/lastmile_qr_scan"}, "fusion_lon": 0.0, "lat": 38.8986105, "bike_id": "954c31cf6b8e44a0670e4c237457bdce", "type": "electric_scooter", "is_reserved": 0, "lon": -76.9766265}, {"fusion_lat": 0.0, "name": "0cf7c9be3d366ac7e375f62e91f02a7e", "is_disabled": 0, "rental_uris": {"android": "https://dc.lft.to/lastmile_qr_scan", "ios": "https://dc.lft.to/lastmile_qr_scan"}, "fusion_lon": 0.0, "lat": 38.8974675, "bike_id": "0cf7c9be3d366ac7e375f62e91f02a7e", "type": "electric_scooter", "is_reserved": 0, "lon": -77.04957083333333}, {"fusion_lat": 0.0, "name": "bc63ea662561cc0c0d288158868f7944", "is_disabled": 0, "rental_uris": {"android": "https://dc.lft.to/lastmile_qr_scan", "ios": "https://dc.lft.to/lastmile_qr_scan"}, "fusion_lon": 0.0, "lat": 38.88202583333333, "bike_id": "bc63ea662561cc0c0d288158868f7944", "type": "electric_scooter", "is_reserved": 0, "lon": -77.02862116666667}, {"fusion_lat": 0.0, "name": "27dd260a71fbed7c534adc4b442e6d40", "is_disabled": 0, "rental_uris": {"android": "https://dc.lft.to/lastmile_qr_scan", "ios": "https://dc.lft.to/lastmile_qr_scan"}, "fusion_lon": 0.0, "lat": 38.947601, "bike_id": "27dd260a71fbed7c534adc4b442e6d40", "type": "electric_scooter", "is_reserved": 0, "lon": -77.00721133333333}, {"fusion_lat": 0.0, "name": "3aa9199cd751af056253ccd703871312", "is_disabled": 0, "rental_uris": {"android": "https://dc.lft.to/lastmile_qr_scan", "ios": "https://dc.lft.to/lastmile_qr_scan"}, "fusion_lon": 0.0, "lat": 38.93398033333333, "bike_id": "3aa9199cd751af056253ccd703871312", "type": "electric_scooter", "is_reserved": 0, "lon": -77.0284635}, {"fusion_lat": 0.0, "name": "27e3ed0941ae21cb3d3486d914bfcad3", "is_disabled": 0, "rental_uris": {"android": "https://dc.lft.to/lastmile_qr_scan", "ios": "https://dc.lft.to/lastmile_qr_scan"}, "fusion_lon": 0.0, "lat": 38.88401433333333, "bike_id": "27e3ed0941ae21cb3d3486d914bfcad3", "type": "electric_scooter", "is_reserved": 0, "lon": -76.9304435}, {"fusion_lat": 0.0, "name": "2330b26572793047fdc671e974b49532", "is_disabled": 0, "rental_uris": {"android": "https://dc.lft.to/lastmile_qr_scan", "ios": "https://dc.lft.to/lastmile_qr_scan"}, "fusion_lon": 0.0, "lat": 38.90400133333333, "bike_id": "2330b26572793047fdc671e974b49532", "type": "electric_scooter", "is_reserved": 0, "lon": -77.03844283333333}, {"fusion_lat": 0.0, "name": "6ff66a7abf3c5dcc9ac868f7733721ae", "is_disabled": 0, "rental_uris": {"android": "https://dc.lft.to/lastmile_qr_scan", "ios": "https://dc.lft.to/lastmile_qr_scan"}, "fusion_lon": 0.0, "lat": 38.92918266666667, "bike_id": "6ff66a7abf3c5dcc9ac868f7733721ae", "type": "electric_scooter", "is_reserved": 0, "lon": -77.03758183333333}, {"fusion_lat": 0.0, "name": "0a2c6bb4d89298b45627b1ffe4457c42", "is_disabled": 0, "rental_uris": {"android": "https://dc.lft.to/lastmile_qr_scan", "ios": "https://dc.lft.to/lastmile_qr_scan"}, "fusion_lon": 0.0, "lat": 38.937754166666664, "bike_id": "0a2c6bb4d89298b45627b1ffe4457c42", "type": "electric_bike", "is_reserved": 0, "lon": -77.01910233333334}, {"fusion_lat": 0.0, "name": "524f406d7724bd697ca5b7751f7d00e7", "is_disabled": 0, "rental_uris": {"android": "https://dc.lft.to/lastmile_qr_scan", "ios": "https://dc.lft.to/lastmile_qr_scan"}, "fusion_lon": 0.0, "lat": 38.91662183333333, "bike_id": "524f406d7724bd697ca5b7751f7d00e7", "type": "electric_scooter", "is_reserved": 0, "lon": -77.02824216666667}, {"fusion_lat": 0.0, "name": "105899612d12dd05f2a49dddde1da801", "is_disabled": 0, "rental_uris": {"android": "https://dc.lft.to/lastmile_qr_scan", "ios": "https://dc.lft.to/lastmile_qr_scan"}, "fusion_lon": 0.0, "lat": 38.914057666666665, "bike_id": "105899612d12dd05f2a49dddde1da801", "type": "electric_scooter", "is_reserved": 0, "lon": -77.03317233333334}, {"fusion_lat": 0.0, "name": "e8f7e9e948e4d7c2160204fc6ca7aeac", "is_disabled": 0, "rental_uris": {"android": "https://dc.lft.to/lastmile_qr_scan", "ios": "https://dc.lft.to/lastmile_qr_scan"}, "fusion_lon": 0.0, "lat": 38.857716333333336, "bike_id": "e8f7e9e948e4d7c2160204fc6ca7aeac", "type": "electric_bike", "is_reserved": 0, "lon": -76.987676}, {"fusion_lat": 0.0, "name": "e987aee331461d9d35945eda5e95663f", "is_disabled": 0, "rental_uris": {"android": "https://dc.lft.to/lastmile_qr_scan", "ios": "https://dc.lft.to/lastmile_qr_scan"}, "fusion_lon": 0.0, "lat": 38.9155185, "bike_id": "e987aee331461d9d35945eda5e95663f", "type": "electric_scooter", "is_reserved": 0, "lon": -77.03223616666666}, {"fusion_lat": 0.0, "name": "9cc4fb52d35fdf2ec722cb544025c4c8", "is_disabled": 0, "rental_uris": {"android": "https://dc.lft.to/lastmile_qr_scan", "ios": "https://dc.lft.to/lastmile_qr_scan"}, "fusion_lon": 0.0, "lat": 38.94085316666666, "bike_id": "9cc4fb52d35fdf2ec722cb544025c4c8", "type": "electric_scooter", "is_reserved": 0, "lon": -77.06182516666667}, {"fusion_lat": 0.0, "name": "0947ce68e1762a92fb71447875c909a8", "is_disabled": 0, "rental_uris": {"android": "https://dc.lft.to/lastmile_qr_scan", "ios": "https://dc.lft.to/lastmile_qr_scan"}, "fusion_lon": 0.0, "lat": 38.883230166666664, "bike_id": "0947ce68e1762a92fb71447875c909a8", "type": "electric_scooter", "is_reserved": 0, "lon": -77.01767166666667}, {"fusion_lat": 0.0, "name": "8fc4c369252cbb060417b7b7249963ff", "is_disabled": 0, "rental_uris": {"android": "https://dc.lft.to/lastmile_qr_scan", "ios": "https://dc.lft.to/lastmile_qr_scan"}, "fusion_lon": 0.0, "lat": 38.905771666666666, "bike_id": "8fc4c369252cbb060417b7b7249963ff", "type": "electric_scooter", "is_reserved": 0, "lon": -77.02209483333333}, {"fusion_lat": 0.0, "name": "c9ec5501a00176cbfe36bf32aa96a45c", "is_disabled": 0, "rental_uris": {"android": "https://dc.lft.to/lastmile_qr_scan", "ios": "https://dc.lft.to/lastmile_qr_scan"}, "fusion_lon": 0.0, "lat": 38.915623, "bike_id": "c9ec5501a00176cbfe36bf32aa96a45c", "type": "electric_scooter", "is_reserved": 0, "lon": -77.03150433333333}, {"fusion_lat": 0.0, "name": "f85c39998fb9325b399fb677a6c4fc25", "is_disabled": 0, "rental_uris": {"android": "https://dc.lft.to/lastmile_qr_scan", "ios": "https://dc.lft.to/lastmile_qr_scan"}, "fusion_lon": 0.0, "lat": 38.88493416666667, "bike_id": "f85c39998fb9325b399fb677a6c4fc25", "type": "electric_scooter", "is_reserved": 0, "lon": -77.02088916666666}, {"fusion_lat": 0.0, "name": "bc6c32be6011a0d73d2abb09d8faab4f", "is_disabled": 0, "rental_uris": {"android": "https://dc.lft.to/lastmile_qr_scan", "ios": "https://dc.lft.to/lastmile_qr_scan"}, "fusion_lon": 0.0, "lat": 38.92711333333333, "bike_id": "bc6c32be6011a0d73d2abb09d8faab4f", "type": "electric_scooter", "is_reserved": 0, "lon": -77.02101}, {"fusion_lat": 0.0, "name": "a92d16ea554d8960c119f77412932b3c", "is_disabled": 0, "rental_uris": {"android": "https://dc.lft.to/lastmile_qr_scan", "ios": "https://dc.lft.to/lastmile_qr_scan"}, "fusion_lon": 0.0, "lat": 38.939408, "bike_id": "a92d16ea554d8960c119f77412932b3c", "type": "electric_scooter", "is_reserved": 0, "lon": -77.03327016666667}, {"fusion_lat": 0.0, "name": "7da1bc56180e96e7bfc3777aa7a541a1", "is_disabled": 0, "rental_uris": {"android": "https://dc.lft.to/lastmile_qr_scan", "ios": "https://dc.lft.to/lastmile_qr_scan"}, "fusion_lon": 0.0, "lat": 38.903983833333335, "bike_id": "7da1bc56180e96e7bfc3777aa7a541a1", "type": "electric_scooter", "is_reserved": 0, "lon": -76.99009266666667}, {"fusion_lat": 0.0, "name": "7cce6d8163fb408e7885af5c20dca193", "is_disabled": 0, "rental_uris": {"android": "https://dc.lft.to/lastmile_qr_scan", "ios": "https://dc.lft.to/lastmile_qr_scan"}, "fusion_lon": 0.0, "lat": 38.90932183333334, "bike_id": "7cce6d8163fb408e7885af5c20dca193", "type": "electric_scooter", "is_reserved": 0, "lon": -77.021289}, {"fusion_lat": 0.0, "name": "9e03a6942cba4dcc2b6a63a5e37ee7f6", "is_disabled": 0, "rental_uris": {"android": "https://dc.lft.to/lastmile_qr_scan", "ios": "https://dc.lft.to/lastmile_qr_scan"}, "fusion_lon": 0.0, "lat": 38.87649066666667, "bike_id": "9e03a6942cba4dcc2b6a63a5e37ee7f6", "type": "electric_scooter", "is_reserved": 0, "lon": -77.01534566666666}, {"fusion_lat": 0.0, "name": "3719331ecd6eb32893a2cbc3de5cc784", "is_disabled": 0, "rental_uris": {"android": "https://dc.lft.to/lastmile_qr_scan", "ios": "https://dc.lft.to/lastmile_qr_scan"}, "fusion_lon": 0.0, "lat": 38.8898835, "bike_id": "3719331ecd6eb32893a2cbc3de5cc784", "type": "electric_scooter", "is_reserved": 0, "lon": -76.98738183333333}, {"fusion_lat": 0.0, "name": "9b6243514e169b5fa56bc77a724a7e46", "is_disabled": 0, "rental_uris": {"android": "https://dc.lft.to/lastmile_qr_scan", "ios": "https://dc.lft.to/lastmile_qr_scan"}, "fusion_lon": 0.0, "lat": 38.900241333333334, "bike_id": "9b6243514e169b5fa56bc77a724a7e46", "type": "electric_scooter", "is_reserved": 0, "lon": -76.99857}, {"fusion_lat": 0.0, "name": "5b5fae67562ac508faf43d7f52e3870a", "is_disabled": 0, "rental_uris": {"android": "https://dc.lft.to/lastmile_qr_scan", "ios": "https://dc.lft.to/lastmile_qr_scan"}, "fusion_lon": 0.0, "lat": 38.904155333333335, "bike_id": "5b5fae67562ac508faf43d7f52e3870a", "type": "electric_scooter", "is_reserved": 0, "lon": -77.03853333333333}, {"fusion_lat": 0.0, "name": "599e415eb6d3ac262ea61a29ac4bd495", "is_disabled": 0, "rental_uris": {"android": "https://dc.lft.to/lastmile_qr_scan", "ios": "https://dc.lft.to/lastmile_qr_scan"}, "fusion_lon": 0.0, "lat": 38.92029266666667, "bike_id": "599e415eb6d3ac262ea61a29ac4bd495", "type": "electric_scooter", "is_reserved": 0, "lon": -77.01025716666666}, {"fusion_lat": 0.0, "name": "89bc3ea94d8f918087e24d77af3b054c", "is_disabled": 0, "rental_uris": {"android": "https://dc.lft.to/lastmile_qr_scan", "ios": "https://dc.lft.to/lastmile_qr_scan"}, "fusion_lon": 0.0, "lat": 38.923027833333336, "bike_id": "89bc3ea94d8f918087e24d77af3b054c", "type": "electric_scooter", "is_reserved": 0, "lon": -77.04269966666666}, {"fusion_lat": 0.0, "name": "185eb181d99532541df5ac567a04e0c9", "is_disabled": 0, "rental_uris": {"android": "https://dc.lft.to/lastmile_qr_scan", "ios": "https://dc.lft.to/lastmile_qr_scan"}, "fusion_lon": 0.0, "lat": 38.87920666666667, "bike_id": "185eb181d99532541df5ac567a04e0c9", "type": "electric_scooter", "is_reserved": 0, "lon": -76.944821}, {"fusion_lat": 0.0, "name": "37ea7f530cf0ef0fba5f9ee09ccdf88a", "is_disabled": 0, "rental_uris": {"android": "https://dc.lft.to/lastmile_qr_scan", "ios": "https://dc.lft.to/lastmile_qr_scan"}, "fusion_lon": 0.0, "lat": 38.92820416666667, "bike_id": "37ea7f530cf0ef0fba5f9ee09ccdf88a", "type": "electric_scooter", "is_reserved": 0, "lon": -77.02673516666667}, {"fusion_lat": 0.0, "name": "168e46688e450ed15d58252d51ea6729", "is_disabled": 0, "rental_uris": {"android": "https://dc.lft.to/lastmile_qr_scan", "ios": "https://dc.lft.to/lastmile_qr_scan"}, "fusion_lon": 0.0, "lat": 38.91123783333333, "bike_id": "168e46688e450ed15d58252d51ea6729", "type": "electric_scooter", "is_reserved": 0, "lon": -77.00669416666666}, {"fusion_lat": 0.0, "name": "cce7aadd01ab9a6c3e9bb654c0eb00a0", "is_disabled": 0, "rental_uris": {"android": "https://dc.lft.to/lastmile_qr_scan", "ios": "https://dc.lft.to/lastmile_qr_scan"}, "fusion_lon": 0.0, "lat": 38.88902866666667, "bike_id": "cce7aadd01ab9a6c3e9bb654c0eb00a0", "type": "electric_scooter", "is_reserved": 0, "lon": -76.99202}, {"fusion_lat": 0.0, "name": "7cda7e03ab54a8dd7b2f0fbdea54e37c", "is_disabled": 0, "rental_uris": {"android": "https://dc.lft.to/lastmile_qr_scan", "ios": "https://dc.lft.to/lastmile_qr_scan"}, "fusion_lon": 0.0, "lat": 38.893551333333335, "bike_id": "7cda7e03ab54a8dd7b2f0fbdea54e37c", "type": "electric_bike", "is_reserved": 0, "lon": -77.18741466666667}, {"fusion_lat": 0.0, "name": "80d64506e5634e4065ce89aada8f8053", "is_disabled": 0, "rental_uris": {"android": "https://dc.lft.to/lastmile_qr_scan", "ios": "https://dc.lft.to/lastmile_qr_scan"}, "fusion_lon": 0.0, "lat": 38.915627666666666, "bike_id": "80d64506e5634e4065ce89aada8f8053", "type": "electric_scooter", "is_reserved": 0, "lon": -77.03149416666666}, {"fusion_lat": 0.0, "name": "fcb405183e7054717ac7399b85a27c47", "is_disabled": 0, "rental_uris": {"android": "https://dc.lft.to/lastmile_qr_scan", "ios": "https://dc.lft.to/lastmile_qr_scan"}, "fusion_lon": 0.0, "lat": 38.8924755, "bike_id": "fcb405183e7054717ac7399b85a27c47", "type": "electric_bike", "is_reserved": 0, "lon": -76.98544933333334}, {"fusion_lat": 0.0, "name": "9cab68a28267e07ec68910f1901e209c", "is_disabled": 0, "rental_uris": {"android": "https://dc.lft.to/lastmile_qr_scan", "ios": "https://dc.lft.to/lastmile_qr_scan"}, "fusion_lon": 0.0, "lat": 38.889160833333335, "bike_id": "9cab68a28267e07ec68910f1901e209c", "type": "electric_bike", "is_reserved": 0, "lon": -77.04930983333334}, {"fusion_lat": 0.0, "name": "70d829f444878e1c596def177f1494c0", "is_disabled": 0, "rental_uris": {"android": "https://dc.lft.to/lastmile_qr_scan", "ios": "https://dc.lft.to/lastmile_qr_scan"}, "fusion_lon": 0.0, "lat": 38.949486666666665, "bike_id": "70d829f444878e1c596def177f1494c0", "type": "electric_scooter", "is_reserved": 0, "lon": -77.02312033333334}, {"fusion_lat": 0.0, "name": "5ae9c3308a587ac9b74baff955e148b4", "is_disabled": 0, "rental_uris": {"android": "https://dc.lft.to/lastmile_qr_scan", "ios": "https://dc.lft.to/lastmile_qr_scan"}, "fusion_lon": 0.0, "lat": 38.90981333333333, "bike_id": "5ae9c3308a587ac9b74baff955e148b4", "type": "electric_scooter", "is_reserved": 0, "lon": -77.03180716666667}, {"fusion_lat": 0.0, "name": "4d9b2456bf7697d4d8f74a8cd5694761", "is_disabled": 0, "rental_uris": {"android": "https://dc.lft.to/lastmile_qr_scan", "ios": "https://dc.lft.to/lastmile_qr_scan"}, "fusion_lon": 0.0, "lat": 38.9022415, "bike_id": "4d9b2456bf7697d4d8f74a8cd5694761", "type": "electric_bike", "is_reserved": 0, "lon": -76.98347133333333}, {"fusion_lat": 0.0, "name": "214d259d6327a73c9f87387c00e15d11", "is_disabled": 0, "rental_uris": {"android": "https://dc.lft.to/lastmile_qr_scan", "ios": "https://dc.lft.to/lastmile_qr_scan"}, "fusion_lon": 0.0, "lat": 38.89429666666667, "bike_id": "214d259d6327a73c9f87387c00e15d11", "type": "electric_scooter", "is_reserved": 0, "lon": -77.0010245}, {"fusion_lat": 0.0, "name": "bd795e6f9a5902ee5cbba9182c0bd1bc", "is_disabled": 0, "rental_uris": {"android": "https://dc.lft.to/lastmile_qr_scan", "ios": "https://dc.lft.to/lastmile_qr_scan"}, "fusion_lon": 0.0, "lat": 38.92615583333333, "bike_id": "bd795e6f9a5902ee5cbba9182c0bd1bc", "type": "electric_scooter", "is_reserved": 0, "lon": -77.02160816666667}, {"fusion_lat": 0.0, "name": "d965e5a765bf4f0a784595c45b641ce6", "is_disabled": 0, "rental_uris": {"android": "https://dc.lft.to/lastmile_qr_scan", "ios": "https://dc.lft.to/lastmile_qr_scan"}, "fusion_lon": 0.0, "lat": 38.87721116666667, "bike_id": "d965e5a765bf4f0a784595c45b641ce6", "type": "electric_scooter", "is_reserved": 0, "lon": -77.01761566666667}, {"fusion_lat": 0.0, "name": "08e22f2815c17f1a058d9dc29f10eaf8", "is_disabled": 0, "rental_uris": {"android": "https://dc.lft.to/lastmile_qr_scan", "ios": "https://dc.lft.to/lastmile_qr_scan"}, "fusion_lon": 0.0, "lat": 38.92359783333333, "bike_id": "08e22f2815c17f1a058d9dc29f10eaf8", "type": "electric_scooter", "is_reserved": 0, "lon": -77.033705}, {"fusion_lat": 0.0, "name": "c337220a85039b172e2e25fd84f10fcd", "is_disabled": 0, "rental_uris": {"android": "https://dc.lft.to/lastmile_qr_scan", "ios": "https://dc.lft.to/lastmile_qr_scan"}, "fusion_lon": 0.0, "lat": 38.9177175, "bike_id": "c337220a85039b172e2e25fd84f10fcd", "type": "electric_scooter", "is_reserved": 0, "lon": -77.0228275}, {"fusion_lat": 0.0, "name": "7ce7788bf90f363935eb989af14a4ea3", "is_disabled": 0, "rental_uris": {"android": "https://dc.lft.to/lastmile_qr_scan", "ios": "https://dc.lft.to/lastmile_qr_scan"}, "fusion_lon": 0.0, "lat": 38.9561765, "bike_id": "7ce7788bf90f363935eb989af14a4ea3", "type": "electric_scooter", "is_reserved": 0, "lon": -77.02757383333334}, {"fusion_lat": 0.0, "name": "a878215b23883d441455556a187510f4", "is_disabled": 0, "rental_uris": {"android": "https://dc.lft.to/lastmile_qr_scan", "ios": "https://dc.lft.to/lastmile_qr_scan"}, "fusion_lon": 0.0, "lat": 38.93073433333333, "bike_id": "a878215b23883d441455556a187510f4", "type": "electric_scooter", "is_reserved": 0, "lon": -77.01942883333334}, {"fusion_lat": 0.0, "name": "055acda234a399311164efc3d0d814bc", "is_disabled": 0, "rental_uris": {"android": "https://dc.lft.to/lastmile_qr_scan", "ios": "https://dc.lft.to/lastmile_qr_scan"}, "fusion_lon": 0.0, "lat": 38.96235566666667, "bike_id": "055acda234a399311164efc3d0d814bc", "type": "electric_bike", "is_reserved": 0, "lon": -76.92761633333333}, {"fusion_lat": 0.0, "name": "b595fce5efd2574a98a2a0cf8941324f", "is_disabled": 0, "rental_uris": {"android": "https://dc.lft.to/lastmile_qr_scan", "ios": "https://dc.lft.to/lastmile_qr_scan"}, "fusion_lon": 0.0, "lat": 38.943192833333335, "bike_id": "b595fce5efd2574a98a2a0cf8941324f", "type": "electric_scooter", "is_reserved": 0, "lon": -77.06066033333333}, {"fusion_lat": 0.0, "name": "25eba930d4bb7564bbbfe4c9851d6cf2", "is_disabled": 0, "rental_uris": {"android": "https://dc.lft.to/lastmile_qr_scan", "ios": "https://dc.lft.to/lastmile_qr_scan"}, "fusion_lon": 0.0, "lat": 38.90733133333333, "bike_id": "25eba930d4bb7564bbbfe4c9851d6cf2", "type": "electric_scooter", "is_reserved": 0, "lon": -77.029813}, {"fusion_lat": 0.0, "name": "2db9a2b3214cce00692164970a265618", "is_disabled": 0, "rental_uris": {"android": "https://dc.lft.to/lastmile_qr_scan", "ios": "https://dc.lft.to/lastmile_qr_scan"}, "fusion_lon": 0.0, "lat": 38.91032333333333, "bike_id": "2db9a2b3214cce00692164970a265618", "type": "electric_scooter", "is_reserved": 0, "lon": -77.01513466666667}, {"fusion_lat": 0.0, "name": "f52b12f2474ce9d98d3e2944ef0bffd3", "is_disabled": 0, "rental_uris": {"android": "https://dc.lft.to/lastmile_qr_scan", "ios": "https://dc.lft.to/lastmile_qr_scan"}, "fusion_lon": 0.0, "lat": 38.93864, "bike_id": "f52b12f2474ce9d98d3e2944ef0bffd3", "type": "electric_scooter", "is_reserved": 0, "lon": -77.02324516666667}, {"fusion_lat": 0.0, "name": "30a667f69c76e2444f16ad78e6b2a8d1", "is_disabled": 0, "rental_uris": {"android": "https://dc.lft.to/lastmile_qr_scan", "ios": "https://dc.lft.to/lastmile_qr_scan"}, "fusion_lon": 0.0, "lat": 38.896245, "bike_id": "30a667f69c76e2444f16ad78e6b2a8d1", "type": "electric_scooter", "is_reserved": 0, "lon": -77.0316485}, {"fusion_lat": 0.0, "name": "e7a0532bc1c80ce1d574a0d551b0b914", "is_disabled": 0, "rental_uris": {"android": "https://dc.lft.to/lastmile_qr_scan", "ios": "https://dc.lft.to/lastmile_qr_scan"}, "fusion_lon": 0.0, "lat": 38.9028975, "bike_id": "e7a0532bc1c80ce1d574a0d551b0b914", "type": "electric_scooter", "is_reserved": 0, "lon": -76.9763665}, {"fusion_lat": 0.0, "name": "a1888c0280a710199675e90fd07cc0d6", "is_disabled": 0, "rental_uris": {"android": "https://dc.lft.to/lastmile_qr_scan", "ios": "https://dc.lft.to/lastmile_qr_scan"}, "fusion_lon": 0.0, "lat": 38.922894166666666, "bike_id": "a1888c0280a710199675e90fd07cc0d6", "type": "electric_scooter", "is_reserved": 0, "lon": -77.01994366666666}, {"fusion_lat": 0.0, "name": "033a79e27003c9ee51d0fbb65daa7228", "is_disabled": 0, "rental_uris": {"android": "https://dc.lft.to/lastmile_qr_scan", "ios": "https://dc.lft.to/lastmile_qr_scan"}, "fusion_lon": 0.0, "lat": 38.9415955, "bike_id": "033a79e27003c9ee51d0fbb65daa7228", "type": "electric_scooter", "is_reserved": 0, "lon": -77.0262755}, {"fusion_lat": 0.0, "name": "2c3461c31daba9d943e8b028808e9718", "is_disabled": 0, "rental_uris": {"android": "https://dc.lft.to/lastmile_qr_scan", "ios": "https://dc.lft.to/lastmile_qr_scan"}, "fusion_lon": 0.0, "lat": 38.918295, "bike_id": "2c3461c31daba9d943e8b028808e9718", "type": "electric_scooter", "is_reserved": 0, "lon": -77.03640783333333}, {"fusion_lat": 0.0, "name": "249c1bbc072338b4650d0f6049bbcc31", "is_disabled": 0, "rental_uris": {"android": "https://dc.lft.to/lastmile_qr_scan", "ios": "https://dc.lft.to/lastmile_qr_scan"}, "fusion_lon": 0.0, "lat": 38.92601833333333, "bike_id": "249c1bbc072338b4650d0f6049bbcc31", "type": "electric_scooter", "is_reserved": 0, "lon": -77.02154666666667}, {"fusion_lat": 0.0, "name": "cbcb04e3da24a98a3e657241a9d17c22", "is_disabled": 0, "rental_uris": {"android": "https://dc.lft.to/lastmile_qr_scan", "ios": "https://dc.lft.to/lastmile_qr_scan"}, "fusion_lon": 0.0, "lat": 38.90259183333333, "bike_id": "cbcb04e3da24a98a3e657241a9d17c22", "type": "electric_scooter", "is_reserved": 0, "lon": -77.03945816666666}, {"fusion_lat": 0.0, "name": "9d2b63bda65c200e510d1e36ae56ddde", "is_disabled": 0, "rental_uris": {"android": "https://dc.lft.to/lastmile_qr_scan", "ios": "https://dc.lft.to/lastmile_qr_scan"}, "fusion_lon": 0.0, "lat": 38.962068333333335, "bike_id": "9d2b63bda65c200e510d1e36ae56ddde", "type": "electric_scooter", "is_reserved": 0, "lon": -77.02230033333333}, {"fusion_lat": 0.0, "name": "e760e7278e7e5bd128d2746731077366", "is_disabled": 0, "rental_uris": {"android": "https://dc.lft.to/lastmile_qr_scan", "ios": "https://dc.lft.to/lastmile_qr_scan"}, "fusion_lon": 0.0, "lat": 38.8841195, "bike_id": "e760e7278e7e5bd128d2746731077366", "type": "electric_scooter", "is_reserved": 0, "lon": -77.02214383333333}, {"fusion_lat": 0.0, "name": "bf52580117a91e79fabbd0020919f775", "is_disabled": 0, "rental_uris": {"android": "https://dc.lft.to/lastmile_qr_scan", "ios": "https://dc.lft.to/lastmile_qr_scan"}, "fusion_lon": 0.0, "lat": 38.99779233333334, "bike_id": "bf52580117a91e79fabbd0020919f775", "type": "electric_bike", "is_reserved": 0, "lon": -77.04716083333334}, {"fusion_lat": 0.0, "name": "4f42a179df4fea79666ef1dc3595818f", "is_disabled": 0, "rental_uris": {"android": "https://dc.lft.to/lastmile_qr_scan", "ios": "https://dc.lft.to/lastmile_qr_scan"}, "fusion_lon": 0.0, "lat": 38.89240016666667, "bike_id": "4f42a179df4fea79666ef1dc3595818f", "type": "electric_scooter", "is_reserved": 0, "lon": -77.022063}, {"fusion_lat": 0.0, "name": "878c61651f86f7a3d4b176a863043db3", "is_disabled": 0, "rental_uris": {"android": "https://dc.lft.to/lastmile_qr_scan", "ios": "https://dc.lft.to/lastmile_qr_scan"}, "fusion_lon": 0.0, "lat": 38.90308233333333, "bike_id": "878c61651f86f7a3d4b176a863043db3", "type": "electric_bike", "is_reserved": 0, "lon": -76.97654383333334}, {"fusion_lat": 0.0, "name": "5bb99be947cbfb22499130cc4647fe5b", "is_disabled": 0, "rental_uris": {"android": "https://dc.lft.to/lastmile_qr_scan", "ios": "https://dc.lft.to/lastmile_qr_scan"}, "fusion_lon": 0.0, "lat": 38.93395433333333, "bike_id": "5bb99be947cbfb22499130cc4647fe5b", "type": "electric_scooter", "is_reserved": 0, "lon": -77.05745366666666}, {"fusion_lat": 0.0, "name": "5989bd55ba0585d79cccbad4d211457c", "is_disabled": 0, "rental_uris": {"android": "https://dc.lft.to/lastmile_qr_scan", "ios": "https://dc.lft.to/lastmile_qr_scan"}, "fusion_lon": 0.0, "lat": 38.90585633333333, "bike_id": "5989bd55ba0585d79cccbad4d211457c", "type": "electric_scooter", "is_reserved": 0, "lon": -77.03857116666667}, {"fusion_lat": 0.0, "name": "9bb6adb8e1d6bd84fe6c003c670d3208", "is_disabled": 0, "rental_uris": {"android": "https://dc.lft.to/lastmile_qr_scan", "ios": "https://dc.lft.to/lastmile_qr_scan"}, "fusion_lon": 0.0, "lat": 38.86557633333334, "bike_id": "9bb6adb8e1d6bd84fe6c003c670d3208", "type": "electric_scooter", "is_reserved": 0, "lon": -76.98351516666666}, {"fusion_lat": 0.0, "name": "585e4922d21799fd07d9446f27286bfc", "is_disabled": 0, "rental_uris": {"android": "https://dc.lft.to/lastmile_qr_scan", "ios": "https://dc.lft.to/lastmile_qr_scan"}, "fusion_lon": 0.0, "lat": 38.8972915, "bike_id": "585e4922d21799fd07d9446f27286bfc", "type": "electric_scooter", "is_reserved": 0, "lon": -76.94701033333334}, {"fusion_lat": 0.0, "name": "febad202a6569b3f5fa6550b887fcfa6", "is_disabled": 0, "rental_uris": {"android": "https://dc.lft.to/lastmile_qr_scan", "ios": "https://dc.lft.to/lastmile_qr_scan"}, "fusion_lon": 0.0, "lat": 38.923477166666665, "bike_id": "febad202a6569b3f5fa6550b887fcfa6", "type": "electric_scooter", "is_reserved": 0, "lon": -77.02448766666667}, {"fusion_lat": 0.0, "name": "ba62f77e5a72e2444e3bac24cbd42a87", "is_disabled": 0, "rental_uris": {"android": "https://dc.lft.to/lastmile_qr_scan", "ios": "https://dc.lft.to/lastmile_qr_scan"}, "fusion_lon": 0.0, "lat": 38.8957445, "bike_id": "ba62f77e5a72e2444e3bac24cbd42a87", "type": "electric_scooter", "is_reserved": 0, "lon": -77.02719133333333}, {"fusion_lat": 0.0, "name": "8b2e3031d1c368e36f28a560152887bd", "is_disabled": 0, "rental_uris": {"android": "https://dc.lft.to/lastmile_qr_scan", "ios": "https://dc.lft.to/lastmile_qr_scan"}, "fusion_lon": 0.0, "lat": 38.884071166666665, "bike_id": "8b2e3031d1c368e36f28a560152887bd", "type": "electric_bike", "is_reserved": 0, "lon": -76.96056866666666}, {"fusion_lat": 0.0, "name": "b57fcf5a1392fdcc2805b67d72df70a3", "is_disabled": 0, "rental_uris": {"android": "https://dc.lft.to/lastmile_qr_scan", "ios": "https://dc.lft.to/lastmile_qr_scan"}, "fusion_lon": 0.0, "lat": 38.9079545, "bike_id": "b57fcf5a1392fdcc2805b67d72df70a3", "type": "electric_scooter", "is_reserved": 0, "lon": -77.01107966666666}, {"fusion_lat": 0.0, "name": "99b460be374775a664e00167ad321eef", "is_disabled": 0, "rental_uris": {"android": "https://dc.lft.to/lastmile_qr_scan", "ios": "https://dc.lft.to/lastmile_qr_scan"}, "fusion_lon": 0.0, "lat": 38.8850565, "bike_id": "99b460be374775a664e00167ad321eef", "type": "electric_scooter", "is_reserved": 0, "lon": -77.00699516666667}, {"fusion_lat": 0.0, "name": "a1ce3c0468a7cffc537604bf2650880a", "is_disabled": 0, "rental_uris": {"android": "https://dc.lft.to/lastmile_qr_scan", "ios": "https://dc.lft.to/lastmile_qr_scan"}, "fusion_lon": 0.0, "lat": 38.920769166666666, "bike_id": "a1ce3c0468a7cffc537604bf2650880a", "type": "electric_scooter", "is_reserved": 0, "lon": -77.02317216666667}, {"fusion_lat": 0.0, "name": "44a39b5c134f431f0a6a6628e829084d", "is_disabled": 0, "rental_uris": {"android": "https://dc.lft.to/lastmile_qr_scan", "ios": "https://dc.lft.to/lastmile_qr_scan"}, "fusion_lon": 0.0, "lat": 38.921495166666666, "bike_id": "44a39b5c134f431f0a6a6628e829084d", "type": "electric_scooter", "is_reserved": 0, "lon": -77.04350916666667}, {"fusion_lat": 0.0, "name": "26149c6eacc1d615f23c08bdbee1b82c", "is_disabled": 0, "rental_uris": {"android": "https://dc.lft.to/lastmile_qr_scan", "ios": "https://dc.lft.to/lastmile_qr_scan"}, "fusion_lon": 0.0, "lat": 38.917723, "bike_id": "26149c6eacc1d615f23c08bdbee1b82c", "type": "electric_scooter", "is_reserved": 0, "lon": -77.01215833333333}, {"fusion_lat": 0.0, "name": "d299ae5f770dc90365381f6c97283d0c", "is_disabled": 0, "rental_uris": {"android": "https://dc.lft.to/lastmile_qr_scan", "ios": "https://dc.lft.to/lastmile_qr_scan"}, "fusion_lon": 0.0, "lat": 38.92308366666666, "bike_id": "d299ae5f770dc90365381f6c97283d0c", "type": "electric_scooter", "is_reserved": 0, "lon": -77.04267566666667}, {"fusion_lat": 0.0, "name": "78f643bfd3e2f1fc876f4e8214230df9", "is_disabled": 0, "rental_uris": {"android": "https://dc.lft.to/lastmile_qr_scan", "ios": "https://dc.lft.to/lastmile_qr_scan"}, "fusion_lon": 0.0, "lat": 38.92834233333333, "bike_id": "78f643bfd3e2f1fc876f4e8214230df9", "type": "electric_scooter", "is_reserved": 0, "lon": -77.05438433333333}, {"fusion_lat": 0.0, "name": "940b281be15790c32dd59f2a33b70281", "is_disabled": 0, "rental_uris": {"android": "https://dc.lft.to/lastmile_qr_scan", "ios": "https://dc.lft.to/lastmile_qr_scan"}, "fusion_lon": 0.0, "lat": 38.88736883333333, "bike_id": "940b281be15790c32dd59f2a33b70281", "type": "electric_scooter", "is_reserved": 0, "lon": -77.03173783333334}, {"fusion_lat": 0.0, "name": "09596a8f9c256a3484e1b890c5f62ab1", "is_disabled": 0, "rental_uris": {"android": "https://dc.lft.to/lastmile_qr_scan", "ios": "https://dc.lft.to/lastmile_qr_scan"}, "fusion_lon": 0.0, "lat": 38.92221416666667, "bike_id": "09596a8f9c256a3484e1b890c5f62ab1", "type": "electric_bike", "is_reserved": 0, "lon": -77.20138416666667}, {"fusion_lat": 0.0, "name": "055e8786ab5fbff4d18c7bc899198c3d", "is_disabled": 0, "rental_uris": {"android": "https://dc.lft.to/lastmile_qr_scan", "ios": "https://dc.lft.to/lastmile_qr_scan"}, "fusion_lon": 0.0, "lat": 38.892293, "bike_id": "055e8786ab5fbff4d18c7bc899198c3d", "type": "electric_scooter", "is_reserved": 0, "lon": -77.02410716666667}, {"fusion_lat": 0.0, "name": "62e8c5ec457e5efe497f0dbb0d9445ba", "is_disabled": 0, "rental_uris": {"android": "https://dc.lft.to/lastmile_qr_scan", "ios": "https://dc.lft.to/lastmile_qr_scan"}, "fusion_lon": 0.0, "lat": 38.91741366666667, "bike_id": "62e8c5ec457e5efe497f0dbb0d9445ba", "type": "electric_scooter", "is_reserved": 0, "lon": -77.03206466666667}, {"fusion_lat": 0.0, "name": "e62e0eff2f5819f980aeae3a17f2acd9", "is_disabled": 0, "rental_uris": {"android": "https://dc.lft.to/lastmile_qr_scan", "ios": "https://dc.lft.to/lastmile_qr_scan"}, "fusion_lon": 0.0, "lat": 38.8813615, "bike_id": "e62e0eff2f5819f980aeae3a17f2acd9", "type": "electric_bike", "is_reserved": 0, "lon": -76.99549766666667}, {"fusion_lat": 0.0, "name": "96079bc523ff411d75712c63350262cb", "is_disabled": 0, "rental_uris": {"android": "https://dc.lft.to/lastmile_qr_scan", "ios": "https://dc.lft.to/lastmile_qr_scan"}, "fusion_lon": 0.0, "lat": 38.94199, "bike_id": "96079bc523ff411d75712c63350262cb", "type": "electric_scooter", "is_reserved": 0, "lon": -77.0259255}, {"fusion_lat": 0.0, "name": "088237f55d504a6461f9d785068c6dd7", "is_disabled": 0, "rental_uris": {"android": "https://dc.lft.to/lastmile_qr_scan", "ios": "https://dc.lft.to/lastmile_qr_scan"}, "fusion_lon": 0.0, "lat": 38.9641025, "bike_id": "088237f55d504a6461f9d785068c6dd7", "type": "electric_scooter", "is_reserved": 0, "lon": -77.07533616666667}, {"fusion_lat": 0.0, "name": "bae855bc9750d13c6d02aef0356f1eae", "is_disabled": 0, "rental_uris": {"android": "https://dc.lft.to/lastmile_qr_scan", "ios": "https://dc.lft.to/lastmile_qr_scan"}, "fusion_lon": 0.0, "lat": 38.903769833333335, "bike_id": "bae855bc9750d13c6d02aef0356f1eae", "type": "electric_scooter", "is_reserved": 0, "lon": -77.0515795}, {"fusion_lat": 0.0, "name": "4558e9b4f447ad120abb81412ada6587", "is_disabled": 0, "rental_uris": {"android": "https://dc.lft.to/lastmile_qr_scan", "ios": "https://dc.lft.to/lastmile_qr_scan"}, "fusion_lon": 0.0, "lat": 38.89410183333333, "bike_id": "4558e9b4f447ad120abb81412ada6587", "type": "electric_scooter", "is_reserved": 0, "lon": -76.99490783333333}, {"fusion_lat": 0.0, "name": "38c3d1a7c2306e63b4bbf952920c556b", "is_disabled": 0, "rental_uris": {"android": "https://dc.lft.to/lastmile_qr_scan", "ios": "https://dc.lft.to/lastmile_qr_scan"}, "fusion_lon": 0.0, "lat": 38.911258833333335, "bike_id": "38c3d1a7c2306e63b4bbf952920c556b", "type": "electric_scooter", "is_reserved": 0, "lon": -77.019981}, {"fusion_lat": 0.0, "name": "dac9e0951a31253234d74a38619110de", "is_disabled": 0, "rental_uris": {"android": "https://dc.lft.to/lastmile_qr_scan", "ios": "https://dc.lft.to/lastmile_qr_scan"}, "fusion_lon": 0.0, "lat": 38.936191666666666, "bike_id": "dac9e0951a31253234d74a38619110de", "type": "electric_scooter", "is_reserved": 0, "lon": -77.0819595}, {"fusion_lat": 0.0, "name": "48a158939e20cd4c2043dc2e1f342932", "is_disabled": 0, "rental_uris": {"android": "https://dc.lft.to/lastmile_qr_scan", "ios": "https://dc.lft.to/lastmile_qr_scan"}, "fusion_lon": 0.0, "lat": 38.92825083333334, "bike_id": "48a158939e20cd4c2043dc2e1f342932", "type": "electric_scooter", "is_reserved": 0, "lon": -77.02258283333333}, {"fusion_lat": 0.0, "name": "b74df6d0489ed4e6de4d4aa9b89c525e", "is_disabled": 0, "rental_uris": {"android": "https://dc.lft.to/lastmile_qr_scan", "ios": "https://dc.lft.to/lastmile_qr_scan"}, "fusion_lon": 0.0, "lat": 38.907362, "bike_id": "b74df6d0489ed4e6de4d4aa9b89c525e", "type": "electric_scooter", "is_reserved": 0, "lon": -77.00699816666666}, {"fusion_lat": 0.0, "name": "0e4db46f040387ab0b209821ca9cc573", "is_disabled": 0, "rental_uris": {"android": "https://dc.lft.to/lastmile_qr_scan", "ios": "https://dc.lft.to/lastmile_qr_scan"}, "fusion_lon": 0.0, "lat": 38.926231, "bike_id": "0e4db46f040387ab0b209821ca9cc573", "type": "electric_scooter", "is_reserved": 0, "lon": -77.0392965}, {"fusion_lat": 0.0, "name": "1ccb288cbe4b7feb693558c816d43180", "is_disabled": 0, "rental_uris": {"android": "https://dc.lft.to/lastmile_qr_scan", "ios": "https://dc.lft.to/lastmile_qr_scan"}, "fusion_lon": 0.0, "lat": 38.924568, "bike_id": "1ccb288cbe4b7feb693558c816d43180", "type": "electric_scooter", "is_reserved": 0, "lon": -77.00210366666667}, {"fusion_lat": 0.0, "name": "c9aaae3afb09e99791176e1fb06eb4c2", "is_disabled": 0, "rental_uris": {"android": "https://dc.lft.to/lastmile_qr_scan", "ios": "https://dc.lft.to/lastmile_qr_scan"}, "fusion_lon": 0.0, "lat": 38.915637, "bike_id": "c9aaae3afb09e99791176e1fb06eb4c2", "type": "electric_scooter", "is_reserved": 0, "lon": -77.03232283333334}, {"fusion_lat": 0.0, "name": "042fec95ddc34b0dd4389631e5f2416c", "is_disabled": 0, "rental_uris": {"android": "https://dc.lft.to/lastmile_qr_scan", "ios": "https://dc.lft.to/lastmile_qr_scan"}, "fusion_lon": 0.0, "lat": 38.92572166666667, "bike_id": "042fec95ddc34b0dd4389631e5f2416c", "type": "electric_scooter", "is_reserved": 0, "lon": -77.03786466666666}, {"fusion_lat": 0.0, "name": "c3068c4c359d89549cb236e2ef0ab776", "is_disabled": 0, "rental_uris": {"android": "https://dc.lft.to/lastmile_qr_scan", "ios": "https://dc.lft.to/lastmile_qr_scan"}, "fusion_lon": 0.0, "lat": 38.94527716666666, "bike_id": "c3068c4c359d89549cb236e2ef0ab776", "type": "electric_scooter", "is_reserved": 0, "lon": -77.02274166666666}, {"fusion_lat": 0.0, "name": "cd1fc8935c24a4000c41612e19d62da1", "is_disabled": 0, "rental_uris": {"android": "https://dc.lft.to/lastmile_qr_scan", "ios": "https://dc.lft.to/lastmile_qr_scan"}, "fusion_lon": 0.0, "lat": 38.88831, "bike_id": "cd1fc8935c24a4000c41612e19d62da1", "type": "electric_scooter", "is_reserved": 0, "lon": -76.97717233333333}, {"fusion_lat": 0.0, "name": "f31ab14d3395cb6e40c1fec30cc26006", "is_disabled": 0, "rental_uris": {"android": "https://dc.lft.to/lastmile_qr_scan", "ios": "https://dc.lft.to/lastmile_qr_scan"}, "fusion_lon": 0.0, "lat": 38.91111166666666, "bike_id": "f31ab14d3395cb6e40c1fec30cc26006", "type": "electric_scooter", "is_reserved": 0, "lon": -77.03835716666667}, {"fusion_lat": 0.0, "name": "8f03036f5f4c13effd0c3b8bbba9bf91", "is_disabled": 0, "rental_uris": {"android": "https://dc.lft.to/lastmile_qr_scan", "ios": "https://dc.lft.to/lastmile_qr_scan"}, "fusion_lon": 0.0, "lat": 38.920953833333336, "bike_id": "8f03036f5f4c13effd0c3b8bbba9bf91", "type": "electric_bike", "is_reserved": 0, "lon": -76.99942466666667}, {"fusion_lat": 0.0, "name": "4e9a77d8f220557b270c2b63f872b4f0", "is_disabled": 0, "rental_uris": {"android": "https://dc.lft.to/lastmile_qr_scan", "ios": "https://dc.lft.to/lastmile_qr_scan"}, "fusion_lon": 0.0, "lat": 38.8974595, "bike_id": "4e9a77d8f220557b270c2b63f872b4f0", "type": "electric_scooter", "is_reserved": 0, "lon": -77.04920816666667}, {"fusion_lat": 0.0, "name": "6516505440857df5482ff83dff5805d5", "is_disabled": 0, "rental_uris": {"android": "https://dc.lft.to/lastmile_qr_scan", "ios": "https://dc.lft.to/lastmile_qr_scan"}, "fusion_lon": 0.0, "lat": 38.91347666666667, "bike_id": "6516505440857df5482ff83dff5805d5", "type": "electric_scooter", "is_reserved": 0, "lon": -77.0426655}, {"fusion_lat": 0.0, "name": "2789036c0c07e6c0ca1149468136c096", "is_disabled": 0, "rental_uris": {"android": "https://dc.lft.to/lastmile_qr_scan", "ios": "https://dc.lft.to/lastmile_qr_scan"}, "fusion_lon": 0.0, "lat": 38.89794916666666, "bike_id": "2789036c0c07e6c0ca1149468136c096", "type": "electric_scooter", "is_reserved": 0, "lon": -77.012021}, {"fusion_lat": 0.0, "name": "8089a850cebdd16819f6907b63901e88", "is_disabled": 0, "rental_uris": {"android": "https://dc.lft.to/lastmile_qr_scan", "ios": "https://dc.lft.to/lastmile_qr_scan"}, "fusion_lon": 0.0, "lat": 38.892339166666666, "bike_id": "8089a850cebdd16819f6907b63901e88", "type": "electric_scooter", "is_reserved": 0, "lon": -77.0211025}, {"fusion_lat": 0.0, "name": "d4ef3cac6e68381ec932fec9a0b98d8b", "is_disabled": 0, "rental_uris": {"android": "https://dc.lft.to/lastmile_qr_scan", "ios": "https://dc.lft.to/lastmile_qr_scan"}, "fusion_lon": 0.0, "lat": 38.92340266666667, "bike_id": "d4ef3cac6e68381ec932fec9a0b98d8b", "type": "electric_scooter", "is_reserved": 0, "lon": -77.04154366666667}, {"fusion_lat": 0.0, "name": "db7bc08d2f6e5e00fc33906e93516ecd", "is_disabled": 0, "rental_uris": {"android": "https://dc.lft.to/lastmile_qr_scan", "ios": "https://dc.lft.to/lastmile_qr_scan"}, "fusion_lon": 0.0, "lat": 38.928990666666664, "bike_id": "db7bc08d2f6e5e00fc33906e93516ecd", "type": "electric_bike", "is_reserved": 0, "lon": -77.2317605}, {"fusion_lat": 0.0, "name": "1b1a9ba766968e78a15753f207bd9050", "is_disabled": 0, "rental_uris": {"android": "https://dc.lft.to/lastmile_qr_scan", "ios": "https://dc.lft.to/lastmile_qr_scan"}, "fusion_lon": 0.0, "lat": 38.914209, "bike_id": "1b1a9ba766968e78a15753f207bd9050", "type": "electric_scooter", "is_reserved": 0, "lon": -77.022146}, {"fusion_lat": 0.0, "name": "afd95470b185c0f1be487aa11ce6a5fd", "is_disabled": 0, "rental_uris": {"android": "https://dc.lft.to/lastmile_qr_scan", "ios": "https://dc.lft.to/lastmile_qr_scan"}, "fusion_lon": 0.0, "lat": 38.95284483333333, "bike_id": "afd95470b185c0f1be487aa11ce6a5fd", "type": "electric_scooter", "is_reserved": 0, "lon": -77.068473}, {"fusion_lat": 0.0, "name": "bf29d8c455fa3ba6864b65e203737f91", "is_disabled": 0, "rental_uris": {"android": "https://dc.lft.to/lastmile_qr_scan", "ios": "https://dc.lft.to/lastmile_qr_scan"}, "fusion_lon": 0.0, "lat": 38.912730833333335, "bike_id": "bf29d8c455fa3ba6864b65e203737f91", "type": "electric_scooter", "is_reserved": 0, "lon": -77.02301016666667}, {"fusion_lat": 0.0, "name": "0886583066356991960796d9334a0b1e", "is_disabled": 0, "rental_uris": {"android": "https://dc.lft.to/lastmile_qr_scan", "ios": "https://dc.lft.to/lastmile_qr_scan"}, "fusion_lon": 0.0, "lat": 38.876385, "bike_id": "0886583066356991960796d9334a0b1e", "type": "electric_scooter", "is_reserved": 0, "lon": -77.00110666666667}, {"fusion_lat": 0.0, "name": "3aff08df5d1390e2c54d448319b9ffc7", "is_disabled": 0, "rental_uris": {"android": "https://dc.lft.to/lastmile_qr_scan", "ios": "https://dc.lft.to/lastmile_qr_scan"}, "fusion_lon": 0.0, "lat": 38.922147833333334, "bike_id": "3aff08df5d1390e2c54d448319b9ffc7", "type": "electric_scooter", "is_reserved": 0, "lon": -76.983772}, {"fusion_lat": 0.0, "name": "d043d0bae02e8aa4f18dfe5f28e3b985", "is_disabled": 0, "rental_uris": {"android": "https://dc.lft.to/lastmile_qr_scan", "ios": "https://dc.lft.to/lastmile_qr_scan"}, "fusion_lon": 0.0, "lat": 38.90269633333333, "bike_id": "d043d0bae02e8aa4f18dfe5f28e3b985", "type": "electric_bike", "is_reserved": 0, "lon": -77.06175566666667}, {"fusion_lat": 0.0, "name": "d0f1afb16eb3ae01d2ad785007a09b75", "is_disabled": 0, "rental_uris": {"android": "https://dc.lft.to/lastmile_qr_scan", "ios": "https://dc.lft.to/lastmile_qr_scan"}, "fusion_lon": 0.0, "lat": 38.906146, "bike_id": "d0f1afb16eb3ae01d2ad785007a09b75", "type": "electric_scooter", "is_reserved": 0, "lon": -77.0502825}, {"fusion_lat": 0.0, "name": "7990e57ef54d5b247ae6d3a4714cb1cf", "is_disabled": 0, "rental_uris": {"android": "https://dc.lft.to/lastmile_qr_scan", "ios": "https://dc.lft.to/lastmile_qr_scan"}, "fusion_lon": 0.0, "lat": 38.909889166666666, "bike_id": "7990e57ef54d5b247ae6d3a4714cb1cf", "type": "electric_scooter", "is_reserved": 0, "lon": -77.031914}, {"fusion_lat": 0.0, "name": "e8d4612065173923c8628a883df9b2f4", "is_disabled": 0, "rental_uris": {"android": "https://dc.lft.to/lastmile_qr_scan", "ios": "https://dc.lft.to/lastmile_qr_scan"}, "fusion_lon": 0.0, "lat": 38.9313355, "bike_id": "e8d4612065173923c8628a883df9b2f4", "type": "electric_scooter", "is_reserved": 0, "lon": -77.03850816666667}, {"fusion_lat": 0.0, "name": "afb9c0569bf0f064c6490e53464ff885", "is_disabled": 0, "rental_uris": {"android": "https://dc.lft.to/lastmile_qr_scan", "ios": "https://dc.lft.to/lastmile_qr_scan"}, "fusion_lon": 0.0, "lat": 38.90645383333333, "bike_id": "afb9c0569bf0f064c6490e53464ff885", "type": "electric_scooter", "is_reserved": 0, "lon": -77.0141475}, {"fusion_lat": 0.0, "name": "04a849b8697d3729cfcc606a91e2d378", "is_disabled": 0, "rental_uris": {"android": "https://dc.lft.to/lastmile_qr_scan", "ios": "https://dc.lft.to/lastmile_qr_scan"}, "fusion_lon": 0.0, "lat": 38.904073, "bike_id": "04a849b8697d3729cfcc606a91e2d378", "type": "electric_scooter", "is_reserved": 0, "lon": -77.03857366666666}, {"fusion_lat": 0.0, "name": "32969abab78cec161cb3eced37dbf9b2", "is_disabled": 0, "rental_uris": {"android": "https://dc.lft.to/lastmile_qr_scan", "ios": "https://dc.lft.to/lastmile_qr_scan"}, "fusion_lon": 0.0, "lat": 38.902216833333334, "bike_id": "32969abab78cec161cb3eced37dbf9b2", "type": "electric_scooter", "is_reserved": 0, "lon": -77.01625716666666}, {"fusion_lat": 0.0, "name": "ccb82b73327c1eb778dac96dfc83204d", "is_disabled": 0, "rental_uris": {"android": "https://dc.lft.to/lastmile_qr_scan", "ios": "https://dc.lft.to/lastmile_qr_scan"}, "fusion_lon": 0.0, "lat": 38.916671666666666, "bike_id": "ccb82b73327c1eb778dac96dfc83204d", "type": "electric_scooter", "is_reserved": 0, "lon": -77.03856016666667}, {"fusion_lat": 0.0, "name": "05ff860ee0f9828e120121e5e6598d67", "is_disabled": 0, "rental_uris": {"android": "https://dc.lft.to/lastmile_qr_scan", "ios": "https://dc.lft.to/lastmile_qr_scan"}, "fusion_lon": 0.0, "lat": 38.92685216666667, "bike_id": "05ff860ee0f9828e120121e5e6598d67", "type": "electric_scooter", "is_reserved": 0, "lon": -77.03138866666667}, {"fusion_lat": 0.0, "name": "b91d8e6f64eb37a048e058e98f905303", "is_disabled": 0, "rental_uris": {"android": "https://dc.lft.to/lastmile_qr_scan", "ios": "https://dc.lft.to/lastmile_qr_scan"}, "fusion_lon": 0.0, "lat": 38.90692333333333, "bike_id": "b91d8e6f64eb37a048e058e98f905303", "type": "electric_scooter", "is_reserved": 0, "lon": -77.074664}, {"fusion_lat": 0.0, "name": "74e93dfd0f812b8048ca810299d3edf7", "is_disabled": 0, "rental_uris": {"android": "https://dc.lft.to/lastmile_qr_scan", "ios": "https://dc.lft.to/lastmile_qr_scan"}, "fusion_lon": 0.0, "lat": 38.893567166666664, "bike_id": "74e93dfd0f812b8048ca810299d3edf7", "type": "electric_scooter", "is_reserved": 0, "lon": -77.0280065}, {"fusion_lat": 0.0, "name": "4aa6d33c65e17ba286a001508644f3b0", "is_disabled": 0, "rental_uris": {"android": "https://dc.lft.to/lastmile_qr_scan", "ios": "https://dc.lft.to/lastmile_qr_scan"}, "fusion_lon": 0.0, "lat": 38.941716166666666, "bike_id": "4aa6d33c65e17ba286a001508644f3b0", "type": "electric_scooter", "is_reserved": 0, "lon": -77.025164}, {"fusion_lat": 0.0, "name": "aea723c003256954b00c182bb3b8950c", "is_disabled": 0, "rental_uris": {"android": "https://dc.lft.to/lastmile_qr_scan", "ios": "https://dc.lft.to/lastmile_qr_scan"}, "fusion_lon": 0.0, "lat": 38.888117333333334, "bike_id": "aea723c003256954b00c182bb3b8950c", "type": "electric_scooter", "is_reserved": 0, "lon": -76.98356916666667}, {"fusion_lat": 0.0, "name": "423624b8975c013b84157f13b060d8cb", "is_disabled": 0, "rental_uris": {"android": "https://dc.lft.to/lastmile_qr_scan", "ios": "https://dc.lft.to/lastmile_qr_scan"}, "fusion_lon": 0.0, "lat": 38.86641983333333, "bike_id": "423624b8975c013b84157f13b060d8cb", "type": "electric_scooter", "is_reserved": 0, "lon": -76.983035}, {"fusion_lat": 0.0, "name": "8294dbbc22f31099557f59f4c59b2031", "is_disabled": 0, "rental_uris": {"android": "https://dc.lft.to/lastmile_qr_scan", "ios": "https://dc.lft.to/lastmile_qr_scan"}, "fusion_lon": 0.0, "lat": 38.93102966666667, "bike_id": "8294dbbc22f31099557f59f4c59b2031", "type": "electric_scooter", "is_reserved": 0, "lon": -77.02394266666667}, {"fusion_lat": 0.0, "name": "632f7a793528df3741f0e4b5f8076c9c", "is_disabled": 0, "rental_uris": {"android": "https://dc.lft.to/lastmile_qr_scan", "ios": "https://dc.lft.to/lastmile_qr_scan"}, "fusion_lon": 0.0, "lat": 38.907421666666664, "bike_id": "632f7a793528df3741f0e4b5f8076c9c", "type": "electric_scooter", "is_reserved": 0, "lon": -77.02985783333334}, {"fusion_lat": 0.0, "name": "0cbd227721e040eac7c486d01ed68ef2", "is_disabled": 0, "rental_uris": {"android": "https://dc.lft.to/lastmile_qr_scan", "ios": "https://dc.lft.to/lastmile_qr_scan"}, "fusion_lon": 0.0, "lat": 38.925541833333334, "bike_id": "0cbd227721e040eac7c486d01ed68ef2", "type": "electric_scooter", "is_reserved": 0, "lon": -76.9830215}, {"fusion_lat": 0.0, "name": "06baf1024aeb211e10b5dc779fc338d6", "is_disabled": 0, "rental_uris": {"android": "https://dc.lft.to/lastmile_qr_scan", "ios": "https://dc.lft.to/lastmile_qr_scan"}, "fusion_lon": 0.0, "lat": 38.919816833333336, "bike_id": "06baf1024aeb211e10b5dc779fc338d6", "type": "electric_scooter", "is_reserved": 0, "lon": -77.02392033333334}, {"fusion_lat": 0.0, "name": "db165d5510440cb606e991ebc964bc0e", "is_disabled": 0, "rental_uris": {"android": "https://dc.lft.to/lastmile_qr_scan", "ios": "https://dc.lft.to/lastmile_qr_scan"}, "fusion_lon": 0.0, "lat": 38.931287, "bike_id": "db165d5510440cb606e991ebc964bc0e", "type": "electric_scooter", "is_reserved": 0, "lon": -77.02196566666667}, {"fusion_lat": 0.0, "name": "fd25561b814d34ae8a3d97ec2c45e7c5", "is_disabled": 0, "rental_uris": {"android": "https://dc.lft.to/lastmile_qr_scan", "ios": "https://dc.lft.to/lastmile_qr_scan"}, "fusion_lon": 0.0, "lat": 38.9134095, "bike_id": "fd25561b814d34ae8a3d97ec2c45e7c5", "type": "electric_scooter", "is_reserved": 0, "lon": -77.04351}, {"fusion_lat": 0.0, "name": "0199c6eca2767d25141f657f51897048", "is_disabled": 0, "rental_uris": {"android": "https://dc.lft.to/lastmile_qr_scan", "ios": "https://dc.lft.to/lastmile_qr_scan"}, "fusion_lon": 0.0, "lat": 38.905598833333336, "bike_id": "0199c6eca2767d25141f657f51897048", "type": "electric_scooter", "is_reserved": 0, "lon": -77.00580633333334}, {"fusion_lat": 0.0, "name": "bd203b86feab0dd0ec1069c2c742974c", "is_disabled": 0, "rental_uris": {"android": "https://dc.lft.to/lastmile_qr_scan", "ios": "https://dc.lft.to/lastmile_qr_scan"}, "fusion_lon": 0.0, "lat": 38.924038333333336, "bike_id": "bd203b86feab0dd0ec1069c2c742974c", "type": "electric_scooter", "is_reserved": 0, "lon": -77.04298766666666}, {"fusion_lat": 0.0, "name": "66615c72f6bcd887eddac8c3e98219e3", "is_disabled": 0, "rental_uris": {"android": "https://dc.lft.to/lastmile_qr_scan", "ios": "https://dc.lft.to/lastmile_qr_scan"}, "fusion_lon": 0.0, "lat": 38.91645883333333, "bike_id": "66615c72f6bcd887eddac8c3e98219e3", "type": "electric_scooter", "is_reserved": 0, "lon": -77.03178166666666}, {"fusion_lat": 0.0, "name": "a7c47663da18d08af97e67e0b91d4f0f", "is_disabled": 0, "rental_uris": {"android": "https://dc.lft.to/lastmile_qr_scan", "ios": "https://dc.lft.to/lastmile_qr_scan"}, "fusion_lon": 0.0, "lat": 38.88519616666667, "bike_id": "a7c47663da18d08af97e67e0b91d4f0f", "type": "electric_scooter", "is_reserved": 0, "lon": -77.01505666666667}, {"fusion_lat": 0.0, "name": "56342f075ba4690c0e48b8a920a2e833", "is_disabled": 0, "rental_uris": {"android": "https://dc.lft.to/lastmile_qr_scan", "ios": "https://dc.lft.to/lastmile_qr_scan"}, "fusion_lon": 0.0, "lat": 38.9229935, "bike_id": "56342f075ba4690c0e48b8a920a2e833", "type": "electric_scooter", "is_reserved": 0, "lon": -77.02971433333333}, {"fusion_lat": 0.0, "name": "118ecf574c5c729dba8152a8a978c434", "is_disabled": 0, "rental_uris": {"android": "https://dc.lft.to/lastmile_qr_scan", "ios": "https://dc.lft.to/lastmile_qr_scan"}, "fusion_lon": 0.0, "lat": 38.93457933333333, "bike_id": "118ecf574c5c729dba8152a8a978c434", "type": "electric_scooter", "is_reserved": 0, "lon": -77.072775}, {"fusion_lat": 0.0, "name": "77165ac4c9f74d4dc07750422e68ff55", "is_disabled": 0, "rental_uris": {"android": "https://dc.lft.to/lastmile_qr_scan", "ios": "https://dc.lft.to/lastmile_qr_scan"}, "fusion_lon": 0.0, "lat": 38.928681833333336, "bike_id": "77165ac4c9f74d4dc07750422e68ff55", "type": "electric_scooter", "is_reserved": 0, "lon": -77.035191}, {"fusion_lat": 0.0, "name": "4a5883d3c66a1910ef1f6f5a03986e44", "is_disabled": 0, "rental_uris": {"android": "https://dc.lft.to/lastmile_qr_scan", "ios": "https://dc.lft.to/lastmile_qr_scan"}, "fusion_lon": 0.0, "lat": 38.90019483333333, "bike_id": "4a5883d3c66a1910ef1f6f5a03986e44", "type": "electric_scooter", "is_reserved": 0, "lon": -77.00696066666667}, {"fusion_lat": 0.0, "name": "1d4106a2e09bfbfecb043d5f744fcaec", "is_disabled": 0, "rental_uris": {"android": "https://dc.lft.to/lastmile_qr_scan", "ios": "https://dc.lft.to/lastmile_qr_scan"}, "fusion_lon": 0.0, "lat": 38.897136833333334, "bike_id": "1d4106a2e09bfbfecb043d5f744fcaec", "type": "electric_scooter", "is_reserved": 0, "lon": -77.0132285}, {"fusion_lat": 0.0, "name": "beda0b915bad6516242e18dacb3e56ed", "is_disabled": 0, "rental_uris": {"android": "https://dc.lft.to/lastmile_qr_scan", "ios": "https://dc.lft.to/lastmile_qr_scan"}, "fusion_lon": 0.0, "lat": 38.9042335, "bike_id": "beda0b915bad6516242e18dacb3e56ed", "type": "electric_scooter", "is_reserved": 0, "lon": -76.9497455}, {"fusion_lat": 0.0, "name": "20c3bbaffcb3941892da796e33756db2", "is_disabled": 0, "rental_uris": {"android": "https://dc.lft.to/lastmile_qr_scan", "ios": "https://dc.lft.to/lastmile_qr_scan"}, "fusion_lon": 0.0, "lat": 38.92349433333333, "bike_id": "20c3bbaffcb3941892da796e33756db2", "type": "electric_scooter", "is_reserved": 0, "lon": -77.0201795}, {"fusion_lat": 0.0, "name": "b5d3f249007695259e76006a1df30713", "is_disabled": 0, "rental_uris": {"android": "https://dc.lft.to/lastmile_qr_scan", "ios": "https://dc.lft.to/lastmile_qr_scan"}, "fusion_lon": 0.0, "lat": 38.892263, "bike_id": "b5d3f249007695259e76006a1df30713", "type": "electric_scooter", "is_reserved": 0, "lon": -77.04399066666667}, {"fusion_lat": 0.0, "name": "da1996a3b03c0946c66bde96abf0c5d4", "is_disabled": 0, "rental_uris": {"android": "https://dc.lft.to/lastmile_qr_scan", "ios": "https://dc.lft.to/lastmile_qr_scan"}, "fusion_lon": 0.0, "lat": 38.89878383333333, "bike_id": "da1996a3b03c0946c66bde96abf0c5d4", "type": "electric_scooter", "is_reserved": 0, "lon": -76.93183416666666}, {"fusion_lat": 0.0, "name": "8269a902a446cd2605e5254e01b928ab", "is_disabled": 0, "rental_uris": {"android": "https://dc.lft.to/lastmile_qr_scan", "ios": "https://dc.lft.to/lastmile_qr_scan"}, "fusion_lon": 0.0, "lat": 38.95382016666667, "bike_id": "8269a902a446cd2605e5254e01b928ab", "type": "electric_bike", "is_reserved": 0, "lon": -76.97965583333334}, {"fusion_lat": 0.0, "name": "e7a752cc45b53851dfe4bebcd59fae65", "is_disabled": 0, "rental_uris": {"android": "https://dc.lft.to/lastmile_qr_scan", "ios": "https://dc.lft.to/lastmile_qr_scan"}, "fusion_lon": 0.0, "lat": 38.92141483333333, "bike_id": "e7a752cc45b53851dfe4bebcd59fae65", "type": "electric_scooter", "is_reserved": 0, "lon": -77.04698583333334}, {"fusion_lat": 0.0, "name": "8c38c5d73ea4beb3cdf4554981465d50", "is_disabled": 0, "rental_uris": {"android": "https://dc.lft.to/lastmile_qr_scan", "ios": "https://dc.lft.to/lastmile_qr_scan"}, "fusion_lon": 0.0, "lat": 38.902755166666665, "bike_id": "8c38c5d73ea4beb3cdf4554981465d50", "type": "electric_scooter", "is_reserved": 0, "lon": -76.97671833333334}, {"fusion_lat": 0.0, "name": "d9cdb2bc99f51e26146407aed1a0539d", "is_disabled": 0, "rental_uris": {"android": "https://dc.lft.to/lastmile_qr_scan", "ios": "https://dc.lft.to/lastmile_qr_scan"}, "fusion_lon": 0.0, "lat": 38.92458966666667, "bike_id": "d9cdb2bc99f51e26146407aed1a0539d", "type": "electric_scooter", "is_reserved": 0, "lon": -77.02411766666667}, {"fusion_lat": 0.0, "name": "f3081d9951f7e26ae97a4c4182066e50", "is_disabled": 0, "rental_uris": {"android": "https://dc.lft.to/lastmile_qr_scan", "ios": "https://dc.lft.to/lastmile_qr_scan"}, "fusion_lon": 0.0, "lat": 38.87182583333333, "bike_id": "f3081d9951f7e26ae97a4c4182066e50", "type": "electric_scooter", "is_reserved": 0, "lon": -77.00616916666667}, {"fusion_lat": 0.0, "name": "5e342d96e1e9d905e337694904603093", "is_disabled": 0, "rental_uris": {"android": "https://dc.lft.to/lastmile_qr_scan", "ios": "https://dc.lft.to/lastmile_qr_scan"}, "fusion_lon": 0.0, "lat": 38.927047333333334, "bike_id": "5e342d96e1e9d905e337694904603093", "type": "electric_scooter", "is_reserved": 0, "lon": -77.0206815}, {"fusion_lat": 0.0, "name": "c6e64192e253ed7f7c14c7c80c861ffd", "is_disabled": 0, "rental_uris": {"android": "https://dc.lft.to/lastmile_qr_scan", "ios": "https://dc.lft.to/lastmile_qr_scan"}, "fusion_lon": 0.0, "lat": 38.90008483333333, "bike_id": "c6e64192e253ed7f7c14c7c80c861ffd", "type": "electric_scooter", "is_reserved": 0, "lon": -76.997377}, {"fusion_lat": 0.0, "name": "d14151af0cfcc4d83312b49a9fac324d", "is_disabled": 0, "rental_uris": {"android": "https://dc.lft.to/lastmile_qr_scan", "ios": "https://dc.lft.to/lastmile_qr_scan"}, "fusion_lon": 0.0, "lat": 38.915296166666664, "bike_id": "d14151af0cfcc4d83312b49a9fac324d", "type": "electric_scooter", "is_reserved": 0, "lon": -77.072729}, {"fusion_lat": 0.0, "name": "ac4d09123eb273f77227356d3664cf5a", "is_disabled": 0, "rental_uris": {"android": "https://dc.lft.to/lastmile_qr_scan", "ios": "https://dc.lft.to/lastmile_qr_scan"}, "fusion_lon": 0.0, "lat": 38.934847166666664, "bike_id": "ac4d09123eb273f77227356d3664cf5a", "type": "electric_scooter", "is_reserved": 0, "lon": -77.04536033333333}, {"fusion_lat": 0.0, "name": "2799f2e5118f6b7855042be5037147c0", "is_disabled": 0, "rental_uris": {"android": "https://dc.lft.to/lastmile_qr_scan", "ios": "https://dc.lft.to/lastmile_qr_scan"}, "fusion_lon": 0.0, "lat": 38.930796666666666, "bike_id": "2799f2e5118f6b7855042be5037147c0", "type": "electric_scooter", "is_reserved": 0, "lon": -77.0316485}, {"fusion_lat": 0.0, "name": "a5ffd7c8e8b7c571757929793911bd52", "is_disabled": 0, "rental_uris": {"android": "https://dc.lft.to/lastmile_qr_scan", "ios": "https://dc.lft.to/lastmile_qr_scan"}, "fusion_lon": 0.0, "lat": 38.9271445, "bike_id": "a5ffd7c8e8b7c571757929793911bd52", "type": "electric_scooter", "is_reserved": 0, "lon": -77.02323966666667}, {"fusion_lat": 0.0, "name": "166e7d8bf0799d56e45d3e75918f6ca4", "is_disabled": 0, "rental_uris": {"android": "https://dc.lft.to/lastmile_qr_scan", "ios": "https://dc.lft.to/lastmile_qr_scan"}, "fusion_lon": 0.0, "lat": 38.9249865, "bike_id": "166e7d8bf0799d56e45d3e75918f6ca4", "type": "electric_scooter", "is_reserved": 0, "lon": -77.02172233333333}, {"fusion_lat": 0.0, "name": "8c5cbd8ee0111d74028a2e6a49699078", "is_disabled": 0, "rental_uris": {"android": "https://dc.lft.to/lastmile_qr_scan", "ios": "https://dc.lft.to/lastmile_qr_scan"}, "fusion_lon": 0.0, "lat": 38.8829675, "bike_id": "8c5cbd8ee0111d74028a2e6a49699078", "type": "electric_bike", "is_reserved": 0, "lon": -77.03022466666667}, {"fusion_lat": 0.0, "name": "d6af28e0fb5c7eb8e8e371ebedcdbfc1", "is_disabled": 0, "rental_uris": {"android": "https://dc.lft.to/lastmile_qr_scan", "ios": "https://dc.lft.to/lastmile_qr_scan"}, "fusion_lon": 0.0, "lat": 38.95641883333333, "bike_id": "d6af28e0fb5c7eb8e8e371ebedcdbfc1", "type": "electric_scooter", "is_reserved": 0, "lon": -77.03303483333333}, {"fusion_lat": 0.0, "name": "bcde6e492723266b8f0932264c5a78af", "is_disabled": 0, "rental_uris": {"android": "https://dc.lft.to/lastmile_qr_scan", "ios": "https://dc.lft.to/lastmile_qr_scan"}, "fusion_lon": 0.0, "lat": 38.9010515, "bike_id": "bcde6e492723266b8f0932264c5a78af", "type": "electric_scooter", "is_reserved": 0, "lon": -77.05809583333334}, {"fusion_lat": 0.0, "name": "935c44ce5cb9a384eda6c767cf14e43f", "is_disabled": 0, "rental_uris": {"android": "https://dc.lft.to/lastmile_qr_scan", "ios": "https://dc.lft.to/lastmile_qr_scan"}, "fusion_lon": 0.0, "lat": 38.941341, "bike_id": "935c44ce5cb9a384eda6c767cf14e43f", "type": "electric_scooter", "is_reserved": 0, "lon": -77.01543633333333}, {"fusion_lat": 0.0, "name": "3f18563ca5c8db515e7395cfa8fa8d23", "is_disabled": 0, "rental_uris": {"android": "https://dc.lft.to/lastmile_qr_scan", "ios": "https://dc.lft.to/lastmile_qr_scan"}, "fusion_lon": 0.0, "lat": 38.91022266666667, "bike_id": "3f18563ca5c8db515e7395cfa8fa8d23", "type": "electric_scooter", "is_reserved": 0, "lon": -77.0385885},