{"data": {"bikes": [{"fusion_lat": 0.0, "name": "b1c0483bd2b1e7ff3f6ac8485f498873", "is_disabled": 0, "rental_uris": {"android": "https://dc.lft.to/lastmile_qr_scan", "ios": "https://dc.lft.to/lastmile_qr_scan"}, "fusion_lon": 0.0, "lat": 38.845052833333334, "bike_id": "b1c0483bd2b1e7ff3f6ac8485f498873", "type": "electric_bike", "is_reserved": 0, "lon": -76.993525}, {"fusion_lat": 0.0, "name": "e3c0ac82411d042d546e1c2628575c41", "is_disabled": 0, "rental_uris": {"android": "https://dc.lft.to/lastmile_qr_scan", "ios": "https://dc.lft.to/lastmile_qr_scan"}, "fusion_lon": 0.0, "lat": 38.919953, "bike_id": "e3c0ac82411d042d546e1c2628575c41", "type": "electric_scooter", "is_reserved": 0, "lon": -77.03280633333334}, {"fusion_lat": 0.0, "name": "cfa353c04a29dc94545927e90d682797", "is_disabled": 0, "rental_uris": {"android": "https://dc.lft.to/lastmile_qr_scan", "ios": "https://dc.lft.to/lastmile_qr_scan"}, "fusion_lon": 0.0, "lat": 38.9185395, "bike_id": "cfa353c04a29dc94545927e90d682797", "type": "electric_scooter", "is_reserved": 0, "lon": -76.96545416666666}, {"fusion_lat": 0.0, "name": "23d7a896f9fa4612224648c4f59fde53", "is_disabled": 0, "rental_uris": {"android": "https://dc.lft.to/lastmile_qr_scan", "ios": "https://dc.lft.to/lastmile_qr_scan"}, "fusion_lon": 0.0, "lat": 38.9132485, "bike_id": "23d7a896f9fa4612224648c4f59fde53", "type": "electric_scooter", "is_reserved": 0, "lon": -77.0150175}, {"fusion_lat": 0.0, "name": "1eb3133f46a08306d0ccd0ce5b609967", "is_disabled": 0, "rental_uris": {"android": "https://dc.lft.to/lastmile_qr_scan", "ios": "https://dc.lft.to/lastmile_qr_scan"}, "fusion_lon": 0.0, "lat": 38.91766583333333, "bike_id": "1eb3133f46a08306d0ccd0ce5b609967", "type": "electric_scooter", "is_reserved": 0, "lon": -77.036479}, {"fusion_lat": 0.0, "name": "457260e1f767b5cba1a56356d44da649", "is_disabled": 0, "rental_uris": {"android": "https://dc.lft.to/lastmile_qr_scan", "ios": "https://dc.lft.to/lastmile_qr_scan"}, "fusion_lon": 0.0, "lat": 38.91417033333333, "bike_id": "457260e1f767b5cba1a56356d44da649", "type": "electric_scooter", "is_reserved": 0, "lon": -77.04070216666666}, {"fusion_lat": 0.0, "name": "46c090d3b5366767e90758bf1461dbaa", "is_disabled": 0, "rental_uris": {"android": "https://dc.lft.to/lastmile_qr_scan", "ios": "https://dc.lft.to/lastmile_qr_scan"}, "fusion_lon": 0.0, "lat": 38.906440333333336, "bike_id": "46c090d3b5366767e90758bf1461dbaa", "type": "electric_scooter", "is_reserved": 0, "lon": -77.04178}, {"fusion_lat": 0.0, "name": "ca624a5e13d27bd59a03e2cf42a3a12e", "is_disabled": 0, "rental_uris": {"android": "https://dc.lft.to/lastmile_qr_scan", "ios": "https://dc.lft.to/lastmile_qr_scan"}, "fusion_lon": 0.0, "lat": 38.90104766666666, "bike_id": "ca624a5e13d27bd59a03e2cf42a3a12e", "type": "electric_scooter", "is_reserved": 0, "lon": -77.02220583333333}, {"fusion_lat": 0.0, "name": "2e932a88ede271e23698fbe26149daa6", "is_disabled": 0, "rental_uris": {"android": "https://dc.lft.to/lastmile_qr_scan", "ios": "https://dc.lft.to/lastmile_qr_scan"}, "fusion_lon": 0.0, "lat": 38.94198016666667, "bike_id": "2e932a88ede271e23698fbe26149daa6", "type": "electric_scooter", "is_reserved": 0, "lon": -77.02594066666667}, {"fusion_lat": 0.0, "name": "2a1c696bca72b45160dd341f70007889", "is_disabled": 0, "rental_uris": {"android": "https://dc.lft.to/lastmile_qr_scan", "ios": "https://dc.lft.to/lastmile_qr_scan"}, "fusion_lon": 0.0, "lat": 38.90728583333333, "bike_id": "2a1c696bca72b45160dd341f70007889", "type": "electric_scooter", "is_reserved": 0, "lon": -77.028055}, {"fusion_lat": 0.0, "name": "461473f8cd00ab52ad5a6a1ee81cc66b", "is_disabled": 0, "rental_uris": {"android": "https://dc.lft.to/lastmile_qr_scan", "ios": "https://dc.lft.to/lastmile_qr_scan"}, "fusion_lon": 0.0, "lat": 38.91631016666667, "bike_id": "461473f8cd00ab52ad5a6a1ee81cc66b", "type": "electric_scooter", "is_reserved": 0, "lon": -77.0039275}, {"fusion_lat": 0.0, "name": "3d08c13dd827dc94cd466180f5d552d1", "is_disabled": 0, "rental_uris": {"android": "https://dc.lft.to/lastmile_qr_scan", "ios": "https://dc.lft.to/lastmile_qr_scan"}, "fusion_lon": 0.0, "lat": 38.9126505, "bike_id": "3d08c13dd827dc94cd466180f5d552d1", "type": "electric_scooter", "is_reserved": 0, "lon": -77.03763066666667}, {"fusion_lat": 0.0, "name": "ad9954129985fad845b0c594395d3eec", "is_disabled": 0, "rental_uris": {"android": "https://dc.lft.to/lastmile_qr_scan", "ios": "https://dc.lft.to/lastmile_qr_scan"}, "fusion_lon": 0.0, "lat": 38.92130616666667, "bike_id": "ad9954129985fad845b0c594395d3eec", "type": "electric_scooter", "is_reserved": 0, "lon": -77.00399316666666}, {"fusion_lat": 0.0, "name": "dbebb40d5782be5036310a85741bff4c", "is_disabled": 0, "rental_uris": {"android": "https://dc.lft.to/lastmile_qr_scan", "ios": "https://dc.lft.to/lastmile_qr_scan"}, "fusion_lon": 0.0, "lat": 38.90556683333333, "bike_id": "dbebb40d5782be5036310a85741bff4c", "type": "electric_scooter", "is_reserved": 0, "lon": -77.05800333333333}, {"fusion_lat": 0.0, "name": "c8c61e099cd8db09133b9ad43fbb5ed7", "is_disabled": 0, "rental_uris": {"android": "https://dc.lft.to/lastmile_qr_scan", "ios": "https://dc.lft.to/lastmile_qr_scan"}, "fusion_lon": 0.0, "lat": 38.8650765, "bike_id": "c8c61e099cd8db09133b9ad43fbb5ed7", "type": "electric_scooter", "is_reserved": 0, "lon": -76.97338533333334}, {"fusion_lat": 0.0, "name": "17b4465cb6dc968aea157f9b1f973ae4", "is_disabled": 0, "rental_uris": {"android": "https://dc.lft.to/lastmile_qr_scan", "ios": "https://dc.lft.to/lastmile_qr_scan"}, "fusion_lon": 0.0, "lat": 38.9120975, "bike_id": "17b4465cb6dc968aea157f9b1f973ae4", "type": "electric_scooter", "is_reserved": 0, "lon": -77.03210916666667}, {"fusion_lat": 0.0, "name": "767a9097b217bd1cd99434df1de61806", "is_disabled": 0, "rental_uris": {"android": "https://dc.lft.to/lastmile_qr_scan", "ios": "https://dc.lft.to/lastmile_qr_scan"}, "fusion_lon": 0.0, "lat": 38.93305633333333, "bike_id": "767a9097b217bd1cd99434df1de61806", "type": "electric_scooter", "is_reserved": 0, "lon": -77.03073616666667}, {"fusion_lat": 0.0, "name": "54387c054d0924b8a378f69a5e286468", "is_disabled": 0, "rental_uris": {"android": "https://dc.lft.to/lastmile_qr_scan", "ios": "https://dc.lft.to/lastmile_qr_scan"}, "fusion_lon": 0.0, "lat": 38.900530333333336, "bike_id": "54387c054d0924b8a378f69a5e286468", "type": "electric_bike", "is_reserved": 0, "lon": -77.00210533333333}, {"fusion_lat": 0.0, "name": "1ad3f65f195a07f609caeddd9baa6a2e", "is_disabled": 0, "rental_uris": {"android": "https://dc.lft.to/lastmile_qr_scan", "ios": "https://dc.lft.to/lastmile_qr_scan"}, "fusion_lon": 0.0, "lat": 38.945955833333336, "bike_id": "1ad3f65f195a07f609caeddd9baa6a2e", "type": "electric_scooter", "is_reserved": 0, "lon": -77.02979666666667}, {"fusion_lat": 0.0, "name": "5d464497213e84cc933048133c085588", "is_disabled": 0, "rental_uris": {"android": "https://dc.lft.to/lastmile_qr_scan", "ios": "https://dc.lft.to/lastmile_qr_scan"}, "fusion_lon": 0.0, "lat": 38.8393075, "bike_id": "5d464497213e84cc933048133c085588", "type": "electric_bike", "is_reserved": 0, "lon": -77.07901533333333}, {"fusion_lat": 0.0, "name": "b3a83d61f0de56396ae09e93f9f8ad3d", "is_disabled": 0, "rental_uris": {"android": "https://dc.lft.to/lastmile_qr_scan", "ios": "https://dc.lft.to/lastmile_qr_scan"}, "fusion_lon": 0.0, "lat": 38.978814, "bike_id": "b3a83d61f0de56396ae09e93f9f8ad3d", "type": "electric_bike", "is_reserved": 0, "lon": -77.06028133333334}, {"fusion_lat": 0.0, "name": "5743e47b2f84c3b145959e3c5ea646fe", "is_disabled": 0, "rental_uris": {"android": "https://dc.lft.to/lastmile_qr_scan", "ios": "https://dc.lft.to/lastmile_qr_scan"}, "fusion_lon": 0.0, "lat": 38.90649616666666, "bike_id": "5743e47b2f84c3b145959e3c5ea646fe", "type": "electric_scooter", "is_reserved": 0, "lon": -77.0629935}, {"fusion_lat": 0.0, "name": "befabb8c6188de8b82ecf80e2982b9ed", "is_disabled": 0, "rental_uris": {"android": "https://dc.lft.to/lastmile_qr_scan", "ios": "https://dc.lft.to/lastmile_qr_scan"}, "fusion_lon": 0.0, "lat": 38.910556666666665, "bike_id": "befabb8c6188de8b82ecf80e2982b9ed", "type": "electric_scooter", "is_reserved": 0, "lon": -77.04095}, {"fusion_lat": 0.0, "name": "8644e17eaeaa179e6d18aea4f3b1eac4", "is_disabled": 0, "rental_uris": {"android": "https://dc.lft.to/lastmile_qr_scan", "ios": "https://dc.lft.to/lastmile_qr_scan"}, "fusion_lon": 0.0, "lat": 38.89224866666667, "bike_id": "8644e17eaeaa179e6d18aea4f3b1eac4", "type": "electric_scooter", "is_reserved": 0, "lon": -77.04326016666667}, {"fusion_lat": 0.0, "name": "e4a54afa662483fa2f16614c2a30721a", "is_disabled": 0, "rental_uris": {"android": "https://dc.lft.to/lastmile_qr_scan", "ios": "https://dc.lft.to/lastmile_qr_scan"}, "fusion_lon": 0.0, "lat": 38.9182385, "bike_id": "e4a54afa662483fa2f16614c2a30721a", "type": "electric_scooter", "is_reserved": 0, "lon": -77.01210783333333}, {"fusion_lat": 0.0, "name": "3c0379e6a82d199da2945459d3ab5df9", "is_disabled": 0, "rental_uris": {"android": "https://dc.lft.to/lastmile_qr_scan", "ios": "https://dc.lft.to/lastmile_qr_scan"}, "fusion_lon": 0.0, "lat": 38.871547166666666, "bike_id": "3c0379e6a82d199da2945459d3ab5df9", "type": "electric_scooter", "is_reserved": 0, "lon": -77.0119225}, {"fusion_lat": 0.0, "name": "e154aa0258fa5c1bda73146ba3230b09", "is_disabled": 0, "rental_uris": {"android": "https://dc.lft.to/lastmile_qr_scan", "ios": "https://dc.lft.to/lastmile_qr_scan"}, "fusion_lon": 0.0, "lat": 38.90277016666667, "bike_id": "e154aa0258fa5c1bda73146ba3230b09", "type": "electric_scooter", "is_reserved": 0, "lon": -77.0227885}, {"fusion_lat": 0.0, "name": "e7050ac71be10b1eec866742182c44cb", "is_disabled": 0, "rental_uris": {"android": "https://dc.lft.to/lastmile_qr_scan", "ios": "https://dc.lft.to/lastmile_qr_scan"}, "fusion_lon": 0.0, "lat": 38.91897133333333, "bike_id": "e7050ac71be10b1eec866742182c44cb", "type": "electric_scooter", "is_reserved": 0, "lon": -77.0239805}, {"fusion_lat": 0.0, "name": "4b01938a05839a46871eceeec1f366d4", "is_disabled": 0, "rental_uris": {"android": "https://dc.lft.to/lastmile_qr_scan", "ios": "https://dc.lft.to/lastmile_qr_scan"}, "fusion_lon": 0.0, "lat": 38.90135083333333, "bike_id": "4b01938a05839a46871eceeec1f366d4", "type": "electric_scooter", "is_reserved": 0, "lon": -77.031804}, {"fusion_lat": 0.0, "name": "d53488b6d29ed3f00554d14cceccfb65", "is_disabled": 0, "rental_uris": {"android": "https://dc.lft.to/lastmile_qr_scan", "ios": "https://dc.lft.to/lastmile_qr_scan"}, "fusion_lon": 0.0, "lat": 38.92381966666667, "bike_id": "d53488b6d29ed3f00554d14cceccfb65", "type": "electric_scooter", "is_reserved": 0, "lon": -77.027403}, {"fusion_lat": 0.0, "name": "6481b346c37505fd3a2e5fc20ac099fc", "is_disabled": 0, "rental_uris": {"android": "https://dc.lft.to/lastmile_qr_scan", "ios": "https://dc.lft.to/lastmile_qr_scan"}, "fusion_lon": 0.0, "lat": 38.912929166666665, "bike_id": "6481b346c37505fd3a2e5fc20ac099fc", "type": "electric_scooter", "is_reserved": 0, "lon": -77.04521616666666}, {"fusion_lat": 0.0, "name": "db168a675231031acadd82575c11fa73", "is_disabled": 0, "rental_uris": {"android": "https://dc.lft.to/lastmile_qr_scan", "ios": "https://dc.lft.to/lastmile_qr_scan"}, "fusion_lon": 0.0, "lat": 38.9116645, "bike_id": "db168a675231031acadd82575c11fa73", "type": "electric_scooter", "is_reserved": 0, "lon": -76.9872375}, {"fusion_lat": 0.0, "name": "4a61b57c6e49baac58a570d0eb107a1a", "is_disabled": 0, "rental_uris": {"android": "https://dc.lft.to/lastmile_qr_scan", "ios": "https://dc.lft.to/lastmile_qr_scan"}, "fusion_lon": 0.0, "lat": 38.906618333333334, "bike_id": "4a61b57c6e49baac58a570d0eb107a1a", "type": "electric_scooter", "is_reserved": 0, "lon": -77.0489005}, {"fusion_lat": 0.0, "name": "db33d41343d70a2061fc30363061595a", "is_disabled": 0, "rental_uris": {"android": "https://dc.lft.to/lastmile_qr_scan", "ios": "https://dc.lft.to/lastmile_qr_scan"}, "fusion_lon": 0.0, "lat": 38.922557833333336, "bike_id": "db33d41343d70a2061fc30363061595a", "type": "electric_scooter", "is_reserved": 0, "lon": -77.03657966666667}, {"fusion_lat": 0.0, "name": "a4ad9f1a92a36106385b0315ba19e15b", "is_disabled": 0, "rental_uris": {"android": "https://dc.lft.to/lastmile_qr_scan", "ios": "https://dc.lft.to/lastmile_qr_scan"}, "fusion_lon": 0.0, "lat": 38.898608833333334, "bike_id": "a4ad9f1a92a36106385b0315ba19e15b", "type": "electric_scooter", "is_reserved": 0, "lon": -77.0222155}, {"fusion_lat": 0.0, "name": "fac18123bc56801b3da31d12b6365158", "is_disabled": 0, "rental_uris": {"android": "https://dc.lft.to/lastmile_qr_scan", "ios": "https://dc.lft.to/lastmile_qr_scan"}, "fusion_lon": 0.0, "lat": 38.909565, "bike_id": "fac18123bc56801b3da31d12b6365158", "type": "electric_scooter", "is_reserved": 0, "lon": -77.02378516666667}, {"fusion_lat": 0.0, "name": "e8cc668d463a2a273ab832bcbdb76100", "is_disabled": 0, "rental_uris": {"android": "https://dc.lft.to/lastmile_qr_scan", "ios": "https://dc.lft.to/lastmile_qr_scan"}, "fusion_lon": 0.0, "lat": 38.87882783333333, "bike_id": "e8cc668d463a2a273ab832bcbdb76100", "type": "electric_scooter", "is_reserved": 0, "lon": -76.96541433333333}, {"fusion_lat": 0.0, "name": "e67f1dd9300ffedf4b4c0ceb05aa2bee", "is_disabled": 0, "rental_uris": {"android": "https://dc.lft.to/lastmile_qr_scan", "ios": "https://dc.lft.to/lastmile_qr_scan"}, "fusion_lon": 0.0, "lat": 38.90375616666667, "bike_id": "e67f1dd9300ffedf4b4c0ceb05aa2bee", "type": "electric_scooter", "is_reserved": 0, "lon": -77.036371}, {"fusion_lat": 0.0, "name": "09b97ac2998f92e3a7836615b1c31fe3", "is_disabled": 0, "rental_uris": {"android": "https://dc.lft.to/lastmile_qr_scan", "ios": "https://dc.lft.to/lastmile_qr_scan"}, "fusion_lon": 0.0, "lat": 38.895188833333336, "bike_id": "09b97ac2998f92e3a7836615b1c31fe3", "type": "electric_scooter", "is_reserved": 0, "lon": -77.0092145}, {"fusion_lat": 0.0, "name": "e6fc40469e425d3c264b4cab2517c42f", "is_disabled": 0, "rental_uris": {"android": "https://dc.lft.to/lastmile_qr_scan", "ios": "https://dc.lft.to/lastmile_qr_scan"}, "fusion_lon": 0.0, "lat": 38.922496333333335, "bike_id": "e6fc40469e425d3c264b4cab2517c42f", "type": "electric_scooter", "is_reserved": 0, "lon": -77.04254433333334}, {"fusion_lat": 0.0, "name": "9aa34e6ff800389959311fb80a2e1b3b", "is_disabled": 0, "rental_uris": {"android": "https://dc.lft.to/lastmile_qr_scan", "ios": "https://dc.lft.to/lastmile_qr_scan"}, "fusion_lon": 0.0, "lat": 38.905014666666666, "bike_id": "9aa34e6ff800389959311fb80a2e1b3b", "type": "electric_scooter", "is_reserved": 0, "lon": -77.04654633333334}, {"fusion_lat": 0.0, "name": "9c2ed38fc15e65526acad61328232279", "is_disabled": 0, "rental_uris": {"android": "https://dc.lft.to/lastmile_qr_scan", "ios": "https://dc.lft.to/lastmile_qr_scan"}, "fusion_lon": 0.0, "lat": 38.924998333333335, "bike_id": "9c2ed38fc15e65526acad61328232279", "type": "electric_scooter", "is_reserved": 0, "lon": -77.052213}, {"fusion_lat": 0.0, "name": "ddbd6f592bccefc74b43c33bdb1d3893", "is_disabled": 0, "rental_uris": {"android": "https://dc.lft.to/lastmile_qr_scan", "ios": "https://dc.lft.to/lastmile_qr_scan"}, "fusion_lon": 0.0, "lat": 38.8898765, "bike_id": "ddbd6f592bccefc74b43c33bdb1d3893", "type": "electric_scooter", "is_reserved": 0, "lon": -76.914166}, {"fusion_lat": 0.0, "name": "f252a3d396a3de24ed88760f39a4b1a2", "is_disabled": 0, "rental_uris": {"android": "https://dc.lft.to/lastmile_qr_scan", "ios": "https://dc.lft.to/lastmile_qr_scan"}, "fusion_lon": 0.0, "lat": 38.957998833333335, "bike_id": "f252a3d396a3de24ed88760f39a4b1a2", "type": "electric_bike", "is_reserved": 0, "lon": -76.96044016666667}, {"fusion_lat": 0.0, "name": "1b114e3467091a551186e9785219fbdd", "is_disabled": 0, "rental_uris": {"android": "https://dc.lft.to/lastmile_qr_scan", "ios": "https://dc.lft.to/lastmile_qr_scan"}, "fusion_lon": 0.0, "lat": 38.92039966666667, "bike_id": "1b114e3467091a551186e9785219fbdd", "type": "electric_scooter", "is_reserved": 0, "lon": -77.01794}, {"fusion_lat": 0.0, "name": "cd8491a8067cebb4932602b569f1a05d", "is_disabled": 0, "rental_uris": {"android": "https://dc.lft.to/lastmile_qr_scan", "ios": "https://dc.lft.to/lastmile_qr_scan"}, "fusion_lon": 0.0, "lat": 38.9072045, "bike_id": "cd8491a8067cebb4932602b569f1a05d", "type": "electric_scooter", "is_reserved": 0, "lon": -77.03190716666667}, {"fusion_lat": 0.0, "name": "0eb3cff7b4b96f790dd76f61c9997c88", "is_disabled": 0, "rental_uris": {"android": "https://dc.lft.to/lastmile_qr_scan", "ios": "https://dc.lft.to/lastmile_qr_scan"}, "fusion_lon": 0.0, "lat": 38.915582666666666, "bike_id": "0eb3cff7b4b96f790dd76f61c9997c88", "type": "electric_scooter", "is_reserved": 0, "lon": -77.03862483333333}, {"fusion_lat": 0.0, "name": "b2113f09587a241d624a99c014b2ff70", "is_disabled": 0, "rental_uris": {"android": "https://dc.lft.to/lastmile_qr_scan", "ios": "https://dc.lft.to/lastmile_qr_scan"}, "fusion_lon": 0.0, "lat": 38.90627633333333, "bike_id": "b2113f09587a241d624a99c014b2ff70", "type": "electric_scooter", "is_reserved": 0, "lon": -77.00581066666666}, {"fusion_lat": 0.0, "name": "c566a0e0b48801d44f9c7d25d97581f3", "is_disabled": 0, "rental_uris": {"android": "https://dc.lft.to/lastmile_qr_scan", "ios": "https://dc.lft.to/lastmile_qr_scan"}, "fusion_lon": 0.0, "lat": 38.950818, "bike_id": "c566a0e0b48801d44f9c7d25d97581f3", "type": "electric_bike", "is_reserved": 0, "lon": -77.01191083333333}, {"fusion_lat": 0.0, "name": "1f2bccb14807c3b8e1ae3297234f8c39", "is_disabled": 0, "rental_uris": {"android": "https://dc.lft.to/lastmile_qr_scan", "ios": "https://dc.lft.to/lastmile_qr_scan"}, "fusion_lon": 0.0, "lat": 38.91548983333333, "bike_id": "1f2bccb14807c3b8e1ae3297234f8c39", "type": "electric_scooter", "is_reserved": 0, "lon": -77.03126633333333}, {"fusion_lat": 0.0, "name": "7d75d0920de74ee56f45914de25a6403", "is_disabled": 0, "rental_uris": {"android": "https://dc.lft.to/lastmile_qr_scan", "ios": "https://dc.lft.to/lastmile_qr_scan"}, "fusion_lon": 0.0, "lat": 38.921962666666666, "bike_id": "7d75d0920de74ee56f45914de25a6403", "type": "electric_scooter", "is_reserved": 0, "lon": -77.08076066666666}, {"fusion_lat": 0.0, "name": "ec042236989a3495ad93f092b5ab121e", "is_disabled": 0, "rental_uris": {"android": "https://dc.lft.to/lastmile_qr_scan", "ios": "https://dc.lft.to/lastmile_qr_scan"}, "fusion_lon": 0.0, "lat": 38.90845433333333, "bike_id": "ec042236989a3495ad93f092b5ab121e", "type": "electric_scooter", "is_reserved": 0, "lon": -77.04668083333334}, {"fusion_lat": 0.0, "name": "4d9b748630b6d4f4819e297cd15cabde", "is_disabled": 0, "rental_uris": {"android": "https://dc.lft.to/lastmile_qr_scan", "ios": "https://dc.lft.to/lastmile_qr_scan"}, "fusion_lon": 0.0, "lat": 38.91438566666667, "bike_id": "4d9b748630b6d4f4819e297cd15cabde", "type": "electric_scooter", "is_reserved": 0, "lon": -77.04467166666667}, {"fusion_lat": 0.0, "name": "1ac9fb854c97b16066b130cbe2966c81", "is_disabled": 0, "rental_uris": {"android": "https://dc.lft.to/lastmile_qr_scan", "ios": "https://dc.lft.to/lastmile_qr_scan"}, "fusion_lon": 0.0, "lat": 38.892966, "bike_id": "1ac9fb854c97b16066b130cbe2966c81", "type": "electric_scooter", "is_reserved": 0, "lon": -77.04875583333333}, {"fusion_lat": 0.0, "name": "0fcc496f7482a107d2707fb78d99510a", "is_disabled": 0, "rental_uris": {"android": "https://dc.lft.to/lastmile_qr_scan", "ios": "https://dc.lft.to/lastmile_qr_scan"}, "fusion_lon": 0.0, "lat": 38.90719133333333, "bike_id": "0fcc496f7482a107d2707fb78d99510a", "type": "electric_scooter", "is_reserved": 0, "lon": -77.0760145}, {"fusion_lat": 0.0, "name": "0e46b8df8f5177f07148a76352776ee3", "is_disabled": 0, "rental_uris": {"android": "https://dc.lft.to/lastmile_qr_scan", "ios": "https://dc.lft.to/lastmile_qr_scan"}, "fusion_lon": 0.0, "lat": 38.91441983333333, "bike_id": "0e46b8df8f5177f07148a76352776ee3", "type": "electric_scooter", "is_reserved": 0, "lon": -77.02206416666667}, {"fusion_lat": 0.0, "name": "63fe77fcc270ce85a19655d508698d49", "is_disabled": 0, "rental_uris": {"android": "https://dc.lft.to/lastmile_qr_scan", "ios": "https://dc.lft.to/lastmile_qr_scan"}, "fusion_lon": 0.0, "lat": 38.91974733333333, "bike_id": "63fe77fcc270ce85a19655d508698d49", "type": "electric_scooter", "is_reserved": 0, "lon": -77.023759}, {"fusion_lat": 0.0, "name": "a5d68ca968b45a96d2d46319e618bbeb", "is_disabled": 0, "rental_uris": {"android": "https://dc.lft.to/lastmile_qr_scan", "ios": "https://dc.lft.to/lastmile_qr_scan"}, "fusion_lon": 0.0, "lat": 38.907232, "bike_id": "a5d68ca968b45a96d2d46319e618bbeb", "type": "electric_scooter", "is_reserved": 0, "lon": -77.0433925}, {"fusion_lat": 0.0, "name": "f0ef909add51e29b4f8755f50de6e648", "is_disabled": 0, "rental_uris": {"android": "https://dc.lft.to/lastmile_qr_scan", "ios": "https://dc.lft.to/lastmile_qr_scan"}, "fusion_lon": 0.0, "lat": 38.907131, "bike_id": "f0ef909add51e29b4f8755f50de6e648", "type": "electric_scooter", "is_reserved": 0, "lon": -77.03444933333333}, {"fusion_lat": 0.0, "name": "f9bd8a6814f2966c10cc6fb60351575e", "is_disabled": 0, "rental_uris": {"android": "https://dc.lft.to/lastmile_qr_scan", "ios": "https://dc.lft.to/lastmile_qr_scan"}, "fusion_lon": 0.0, "lat": 38.907311166666666, "bike_id": "f9bd8a6814f2966c10cc6fb60351575e", "type": "electric_scooter", "is_reserved": 0, "lon": -77.04341383333333}, {"fusion_lat": 0.0, "name": "c2b128586d0ec25da0f1cdb91bc01b56", "is_disabled": 0, "rental_uris": {"android": "https://dc.lft.to/lastmile_qr_scan", "ios": "https://dc.lft.to/lastmile_qr_scan"}, "fusion_lon": 0.0, "lat": 38.900538833333336, "bike_id": "c2b128586d0ec25da0f1cdb91bc01b56", "type": "electric_scooter", "is_reserved": 0, "lon": -77.04172666666666}, {"fusion_lat": 0.0, "name": "e81cb2667e1afaee2ffa88a2153157e8", "is_disabled": 0, "rental_uris": {"android": "https://dc.lft.to/lastmile_qr_scan", "ios": "https://dc.lft.to/lastmile_qr_scan"}, "fusion_lon": 0.0, "lat": 38.918434, "bike_id": "e81cb2667e1afaee2ffa88a2153157e8", "type": "electric_scooter", "is_reserved": 0, "lon": -77.02292016666667}, {"fusion_lat": 0.0, "name": "cdb3b60f011750e1251c8592c9a253c3", "is_disabled": 0, "rental_uris": {"android": "https://dc.lft.to/lastmile_qr_scan", "ios": "https://dc.lft.to/lastmile_qr_scan"}, "fusion_lon": 0.0, "lat": 38.93503716666667, "bike_id": "cdb3b60f011750e1251c8592c9a253c3", "type": "electric_scooter", "is_reserved": 0, "lon": -77.03638066666667}, {"fusion_lat": 0.0, "name": "5febce2b639f118edc72a3ad5eec53d4", "is_disabled": 0, "rental_uris": {"android": "https://dc.lft.to/lastmile_qr_scan", "ios": "https://dc.lft.to/lastmile_qr_scan"}, "fusion_lon": 0.0, "lat": 38.9067175, "bike_id": "5febce2b639f118edc72a3ad5eec53d4", "type": "electric_scooter", "is_reserved": 0, "lon": -76.999654}, {"fusion_lat": 0.0, "name": "b275ed5b857043d2c2f49609c0eb99a6", "is_disabled": 0, "rental_uris": {"android": "https://dc.lft.to/lastmile_qr_scan", "ios": "https://dc.lft.to/lastmile_qr_scan"}, "fusion_lon": 0.0, "lat": 38.90022166666667, "bike_id": "b275ed5b857043d2c2f49609c0eb99a6", "type": "electric_scooter", "is_reserved": 0, "lon": -76.9739965}, {"fusion_lat": 0.0, "name": "494a2d143a851ca486e4aa9cfa4f8286", "is_disabled": 0, "rental_uris": {"android": "https://dc.lft.to/lastmile_qr_scan", "ios": "https://dc.lft.to/lastmile_qr_scan"}, "fusion_lon": 0.0, "lat": 38.915273666666664, "bike_id": "494a2d143a851ca486e4aa9cfa4f8286", "type": "electric_scooter", "is_reserved": 0, "lon": -77.012178}, {"fusion_lat": 0.0, "name": "5c91b0de652ae7be5e4245d836abb94a", "is_disabled": 0, "rental_uris": {"android": "https://dc.lft.to/lastmile_qr_scan", "ios": "https://dc.lft.to/lastmile_qr_scan"}, "fusion_lon": 0.0, "lat": 38.916956166666665, "bike_id": "5c91b0de652ae7be5e4245d836abb94a", "type": "electric_scooter", "is_reserved": 0, "lon": -77.02308066666667}, {"fusion_lat": 0.0, "name": "d26d3c2c28620eb44d4e0046c5703257", "is_disabled": 0, "rental_uris": {"android": "https://dc.lft.to/lastmile_qr_scan", "ios": "https://dc.lft.to/lastmile_qr_scan"}, "fusion_lon": 0.0, "lat": 38.9198385, "bike_id": "d26d3c2c28620eb44d4e0046c5703257", "type": "electric_scooter", "is_reserved": 0, "lon": -77.0238135}, {"fusion_lat": 0.0, "name": "518f9ac8ffcb944776ba09e482df5d29", "is_disabled": 0, "rental_uris": {"android": "https://dc.lft.to/lastmile_qr_scan", "ios": "https://dc.lft.to/lastmile_qr_scan"}, "fusion_lon": 0.0, "lat": 38.93051066666666, "bike_id": "518f9ac8ffcb944776ba09e482df5d29", "type": "electric_scooter", "is_reserved": 0, "lon": -77.03806033333333}, {"fusion_lat": 0.0, "name": "c2ae59e7d60fb9d64b22343afe2ebee6", "is_disabled": 0, "rental_uris": {"android": "https://dc.lft.to/lastmile_qr_scan", "ios": "https://dc.lft.to/lastmile_qr_scan"}, "fusion_lon": 0.0, "lat": 38.917023, "bike_id": "c2ae59e7d60fb9d64b22343afe2ebee6", "type": "electric_scooter", "is_reserved": 0, "lon": -77.03468483333333}, {"fusion_lat": 0.0, "name": "cd6c8217da90eca5f5d93bf9e15a0b88", "is_disabled": 0, "rental_uris": {"android": "https://dc.lft.to/lastmile_qr_scan", "ios": "https://dc.lft.to/lastmile_qr_scan"}, "fusion_lon": 0.0, "lat": 38.922897, "bike_id": "cd6c8217da90eca5f5d93bf9e15a0b88", "type": "electric_scooter", "is_reserved": 0, "lon": -76.99767183333333}, {"fusion_lat": 0.0, "name": "e6ba861c44e9e9a20b0c4d5199792ff3", "is_disabled": 0, "rental_uris": {"android": "https://dc.lft.to/lastmile_qr_scan", "ios": "https://dc.lft.to/lastmile_qr_scan"}, "fusion_lon": 0.0, "lat": 38.91332666666667, "bike_id": "e6ba861c44e9e9a20b0c4d5199792ff3", "type": "electric_scooter", "is_reserved": 0, "lon": -77.0316805}, {"fusion_lat": 0.0, "name": "cdb562743cc5ab1209d860fc0bc28557", "is_disabled": 0, "rental_uris": {"android": "https://dc.lft.to/lastmile_qr_scan", "ios": "https://dc.lft.to/lastmile_qr_scan"}, "fusion_lon": 0.0, "lat": 38.90944616666667, "bike_id": "cdb562743cc5ab1209d860fc0bc28557", "type": "electric_scooter", "is_reserved": 0, "lon": -76.98766916666666}, {"fusion_lat": 0.0, "name": "f5cb73e80ba247945fd734e1bac99146", "is_disabled": 0, "rental_uris": {"android": "https://dc.lft.to/lastmile_qr_scan", "ios": "https://dc.lft.to/lastmile_qr_scan"}, "fusion_lon": 0.0, "lat": 38.87894, "bike_id": "f5cb73e80ba247945fd734e1bac99146", "type": "electric_scooter", "is_reserved": 0, "lon": -77.00588683333334}, {"fusion_lat": 0.0, "name": "97bd23f2afee94cdc5a7b805e6a5873c", "is_disabled": 0, "rental_uris": {"android": "https://dc.lft.to/lastmile_qr_scan", "ios": "https://dc.lft.to/lastmile_qr_scan"}, "fusion_lon": 0.0, "lat": 38.9286195, "bike_id": "97bd23f2afee94cdc5a7b805e6a5873c", "type": "electric_scooter", "is_reserved": 0, "lon": -77.03524833333333}, {"fusion_lat": 0.0, "name": "0ed66236cfd7ada93e34a481cbfba127", "is_disabled": 0, "rental_uris": {"android": "https://dc.lft.to/lastmile_qr_scan", "ios": "https://dc.lft.to/lastmile_qr_scan"}, "fusion_lon": 0.0, "lat": 38.902111833333336, "bike_id": "0ed66236cfd7ada93e34a481cbfba127", "type": "electric_scooter", "is_reserved": 0, "lon": -76.9860765}, {"fusion_lat": 0.0, "name": "df79cba4e717df10a8af425b0e193c07", "is_disabled": 0, "rental_uris": {"android": "https://dc.lft.to/lastmile_qr_scan", "ios": "https://dc.lft.to/lastmile_qr_scan"}, "fusion_lon": 0.0, "lat": 38.96487333333334, "bike_id": "df79cba4e717df10a8af425b0e193c07", "type": "electric_bike", "is_reserved": 0, "lon": -77.10710983333334}, {"fusion_lat": 0.0, "name": "685a7bf8c1ba85b3a2896d396c3eda5c", "is_disabled": 0, "rental_uris": {"android": "https://dc.lft.to/lastmile_qr_scan", "ios": "https://dc.lft.to/lastmile_qr_scan"}, "fusion_lon": 0.0, "lat": 38.923155, "bike_id": "685a7bf8c1ba85b3a2896d396c3eda5c", "type": "electric_scooter", "is_reserved": 0, "lon": -77.03806716666666}, {"fusion_lat": 0.0, "name": "bf716a96c28f8108a4e644949fd00d35", "is_disabled": 0, "rental_uris": {"android": "https://dc.lft.to/lastmile_qr_scan", "ios": "https://dc.lft.to/lastmile_qr_scan"}, "fusion_lon": 0.0, "lat": 38.885053, "bike_id": "bf716a96c28f8108a4e644949fd00d35", "type": "electric_scooter", "is_reserved": 0, "lon": -77.01113266666667}, {"fusion_lat": 0.0, "name": "0b92e578b17e1a0d11c64d0c1efa1566", "is_disabled": 0, "rental_uris": {"android": "https://dc.lft.to/lastmile_qr_scan", "ios": "https://dc.lft.to/lastmile_qr_scan"}, "fusion_lon": 0.0, "lat": 38.91435533333333, "bike_id": "0b92e578b17e1a0d11c64d0c1efa1566", "type": "electric_scooter", "is_reserved": 0, "lon": -76.99354616666666}, {"fusion_lat": 0.0, "name": "b259dbee5f1da1ff1b4dfbaf1bcfeb69", "is_disabled": 0, "rental_uris": {"android": "https://dc.lft.to/lastmile_qr_scan", "ios": "https://dc.lft.to/lastmile_qr_scan"}, "fusion_lon": 0.0, "lat": 38.939639, "bike_id": "b259dbee5f1da1ff1b4dfbaf1bcfeb69", "type": "electric_scooter", "is_reserved": 0, "lon": -77.03282183333333}, {"fusion_lat": 0.0, "name": "02acca9a511a1557bf2e4424b2cc6a85", "is_disabled": 0, "rental_uris": {"android": "https://dc.lft.to/lastmile_qr_scan", "ios": "https://dc.lft.to/lastmile_qr_scan"}, "fusion_lon": 0.0, "lat": 38.908312, "bike_id": "02acca9a511a1557bf2e4424b2cc6a85", "type": "electric_scooter", "is_reserved": 0, "lon": -77.00226783333333}, {"fusion_lat": 0.0, "name": "da426b4d882757b5e7490d3d46ffe8e6", "is_disabled": 0, "rental_uris": {"android": "https://dc.lft.to/lastmile_qr_scan", "ios": "https://dc.lft.to/lastmile_qr_scan"}, "fusion_lon": 0.0, "lat": 38.9418555, "bike_id": "da426b4d882757b5e7490d3d46ffe8e6", "type": "electric_scooter", "is_reserved": 0, "lon": -77.02493883333334}, {"fusion_lat": 0.0, "name": "38af9e7de20acc054f48cc1f20e5e98a", "is_disabled": 0, "rental_uris": {"android": "https://dc.lft.to/lastmile_qr_scan", "ios": "https://dc.lft.to/lastmile_qr_scan"}, "fusion_lon": 0.0, "lat": 38.90061216666667, "bike_id": "38af9e7de20acc054f48cc1f20e5e98a", "type": "electric_scooter", "is_reserved": 0, "lon": -76.93387233333333}, {"fusion_lat": 0.0, "name": "e165b22a1d308590fca243ce0337f373", "is_disabled": 0, "rental_uris": {"android": "https://dc.lft.to/lastmile_qr_scan", "ios": "https://dc.lft.to/lastmile_qr_scan"}, "fusion_lon": 0.0, "lat": 38.89831916666667, "bike_id": "e165b22a1d308590fca243ce0337f373", "type": "electric_scooter", "is_reserved": 0, "lon": -76.94635766666667}, {"fusion_lat": 0.0, "name": "f55eac4b625c80fb929ed5b37501d996", "is_disabled": 0, "rental_uris": {"android": "https://dc.lft.to/lastmile_qr_scan", "ios": "https://dc.lft.to/lastmile_qr_scan"}, "fusion_lon": 0.0, "lat": 38.91208833333334, "bike_id": "f55eac4b625c80fb929ed5b37501d996", "type": "electric_scooter", "is_reserved": 0, "lon": -77.03209883333334}, {"fusion_lat": 0.0, "name": "68570f601f5e13d984c26c12f9dfcd6b", "is_disabled": 0, "rental_uris": {"android": "https://dc.lft.to/lastmile_qr_scan", "ios": "https://dc.lft.to/lastmile_qr_scan"}, "fusion_lon": 0.0, "lat": 38.902336, "bike_id": "68570f601f5e13d984c26c12f9dfcd6b", "type": "electric_scooter", "is_reserved": 0, "lon": -77.0228605}, {"fusion_lat": 0.0, "name": "01d443448c95fc311a57335895076d10", "is_disabled": 0, "rental_uris": {"android": "https://dc.lft.to/lastmile_qr_scan", "ios": "https://dc.lft.to/lastmile_qr_scan"}, "fusion_lon": 0.0, "lat": 38.903851833333334, "bike_id": "01d443448c95fc311a57335895076d10", "type": "electric_scooter", "is_reserved": 0, "lon": -77.06136416666666}, {"fusion_lat": 0.0, "name": "dac074e5c853c66596ff31a0d8ae221c", "is_disabled": 0, "rental_uris": {"android": "https://dc.lft.to/lastmile_qr_scan", "ios": "https://dc.lft.to/lastmile_qr_scan"}, "fusion_lon": 0.0, "lat": 38.923780666666666, "bike_id": "dac074e5c853c66596ff31a0d8ae221c", "type": "electric_scooter", "is_reserved": 0, "lon": -77.05259916666667}, {"fusion_lat": 0.0, "name": "4e9d7f562a1ed0b5a2e38ddc41ea00a6", "is_disabled": 0, "rental_uris": {"android": "https://dc.lft.to/lastmile_qr_scan", "ios": "https://dc.lft.to/lastmile_qr_scan"}, "fusion_lon": 0.0, "lat": 38.92437366666667, "bike_id": "4e9d7f562a1ed0b5a2e38ddc41ea00a6", "type": "electric_scooter", "is_reserved": 0, "lon": -77.03536183333334}, {"fusion_lat": 0.0, "name": "4341c851dbaddafe1810a1be17e75ca7", "is_disabled": 0, "rental_uris": {"android": "https://dc.lft.to/lastmile_qr_scan", "ios": "https://dc.lft.to/lastmile_qr_scan"}, "fusion_lon": 0.0, "lat": 38.90502816666667, "bike_id": "4341c851dbaddafe1810a1be17e75ca7", "type": "electric_scooter", "is_reserved": 0, "lon": -77.04763416666667}, {"fusion_lat": 0.0, "name": "f1e71e377f31ba50c72efb783774cf20", "is_disabled": 0, "rental_uris": {"android": "https://dc.lft.to/lastmile_qr_scan", "ios": "https://dc.lft.to/lastmile_qr_scan"}, "fusion_lon": 0.0, "lat": 38.90624966666667, "bike_id": "f1e71e377f31ba50c72efb783774cf20", "type": "electric_scooter", "is_reserved": 0, "lon": -77.025989}, {"fusion_lat": 0.0, "name": "26eede40b49542c660408e6324a65c16", "is_disabled": 0, "rental_uris": {"android": "https://dc.lft.to/lastmile_qr_scan", "ios": "https://dc.lft.to/lastmile_qr_scan"}, "fusion_lon": 0.0, "lat": 38.907319, "bike_id": "26eede40b49542c660408e6324a65c16", "type": "electric_scooter", "is_reserved": 0, "lon": -77.04342566666666}, {"fusion_lat": 0.0, "name": "b959afe4fb6ae0038d301f5b62ea05a5", "is_disabled": 0, "rental_uris": {"android": "https://dc.lft.to/lastmile_qr_scan", "ios": "https://dc.lft.to/lastmile_qr_scan"}, "fusion_lon": 0.0, "lat": 38.97369033333333, "bike_id": "b959afe4fb6ae0038d301f5b62ea05a5", "type": "electric_scooter", "is_reserved": 0, "lon": -77.02430883333334}, {"fusion_lat": 0.0, "name": "236eeae315976477ef5978e8c8d8fda0", "is_disabled": 0, "rental_uris": {"android": "https://dc.lft.to/lastmile_qr_scan", "ios": "https://dc.lft.to/lastmile_qr_scan"}, "fusion_lon": 0.0, "lat": 38.9050155, "bike_id": "236eeae315976477ef5978e8c8d8fda0", "type": "electric_scooter", "is_reserved": 0, "lon": -77.04833166666667}, {"fusion_lat": 0.0, "name": "a1a90962b8f7b3b525a3e5c26247fbda", "is_disabled": 0, "rental_uris": {"android": "https://dc.lft.to/lastmile_qr_scan", "ios": "https://dc.lft.to/lastmile_qr_scan"}, "fusion_lon": 0.0, "lat": 38.92046333333333, "bike_id": "a1a90962b8f7b3b525a3e5c26247fbda", "type": "electric_scooter", "is_reserved": 0, "lon": -77.03474183333333}, {"fusion_lat": 0.0, "name": "8446bea4caba6081fec0599030eff2e7", "is_disabled": 0, "rental_uris": {"android": "https://dc.lft.to/lastmile_qr_scan", "ios": "https://dc.lft.to/lastmile_qr_scan"}, "fusion_lon": 0.0, "lat": 38.92071216666667, "bike_id": "8446bea4caba6081fec0599030eff2e7", "type": "electric_scooter", "is_reserved": 0, "lon": -77.02358183333334}, {"fusion_lat": 0.0, "name": "a52e2b8cf6d6bfcafe47214f57fda8d7", "is_disabled": 0, "rental_uris": {"android": "https://dc.lft.to/lastmile_qr_scan", "ios": "https://dc.lft.to/lastmile_qr_scan"}, "fusion_lon": 0.0, "lat": 38.9033865, "bike_id": "a52e2b8cf6d6bfcafe47214f57fda8d7", "type": "electric_scooter", "is_reserved": 0, "lon": -77.04484016666666}, {"fusion_lat": 0.0, "name": "6248f79bc587a9085f8b4810fdbe7dd6", "is_disabled": 0, "rental_uris": {"android": "https://dc.lft.to/lastmile_qr_scan", "ios": "https://dc.lft.to/lastmile_qr_scan"}, "fusion_lon": 0.0, "lat": 38.895449666666664, "bike_id": "6248f79bc587a9085f8b4810fdbe7dd6", "type": "electric_scooter", "is_reserved": 0, "lon": -76.9833745}, {"fusion_lat": 0.0, "name": "189db55f3554ffa497925a50159cecca", "is_disabled": 0, "rental_uris": {"android": "https://dc.lft.to/lastmile_qr_scan", "ios": "https://dc.lft.to/lastmile_qr_scan"}, "fusion_lon": 0.0, "lat": 38.9057215, "bike_id": "189db55f3554ffa497925a50159cecca", "type": "electric_scooter", "is_reserved": 0, "lon": -77.04343266666666}, {"fusion_lat": 0.0, "name": "f446fe4bae53e47033a9dc06317a938e", "is_disabled": 0, "rental_uris": {"android": "https://dc.lft.to/lastmile_qr_scan", "ios": "https://dc.lft.to/lastmile_qr_scan"}, "fusion_lon": 0.0, "lat": 38.9508475, "bike_id": "f446fe4bae53e47033a9dc06317a938e", "type": "electric_bike", "is_reserved": 0, "lon": -77.01229333333333}, {"fusion_lat": 0.0, "name": "3ab881c40c49808eda1edbbede7b2150", "is_disabled": 0, "rental_uris": {"android": "https://dc.lft.to/lastmile_qr_scan", "ios": "https://dc.lft.to/lastmile_qr_scan"}, "fusion_lon": 0.0, "lat": 38.94411233333334, "bike_id": "3ab881c40c49808eda1edbbede7b2150", "type": "electric_scooter", "is_reserved": 0, "lon": -77.06321683333333}, {"fusion_lat": 0.0, "name": "55deedef54f5179b9f0f46b70341796c", "is_disabled": 0, "rental_uris": {"android": "https://dc.lft.to/lastmile_qr_scan", "ios": "https://dc.lft.to/lastmile_qr_scan"}, "fusion_lon": 0.0, "lat": 38.897316333333336, "bike_id": "55deedef54f5179b9f0f46b70341796c", "type": "electric_scooter", "is_reserved": 0, "lon": -76.99138766666667}, {"fusion_lat": 0.0, "name": "e6628f3290fd4540126ff3aa9b24bb47", "is_disabled": 0, "rental_uris": {"android": "https://dc.lft.to/lastmile_qr_scan", "ios": "https://dc.lft.to/lastmile_qr_scan"}, "fusion_lon": 0.0, "lat": 38.915529166666666, "bike_id": "e6628f3290fd4540126ff3aa9b24bb47", "type": "electric_scooter", "is_reserved": 0, "lon": -77.0385035}, {"fusion_lat": 0.0, "name": "29248142317eda6801af8d5eed0b7e97", "is_disabled": 0, "rental_uris": {"android": "https://dc.lft.to/lastmile_qr_scan", "ios": "https://dc.lft.to/lastmile_qr_scan"}, "fusion_lon": 0.0, "lat": 38.906850666666664, "bike_id": "29248142317eda6801af8d5eed0b7e97", "type": "electric_scooter", "is_reserved": 0, "lon": -77.0101415}, {"fusion_lat": 0.0, "name": "9695403b765ed3810c0f81045b9ff418", "is_disabled": 0, "rental_uris": {"android": "https://dc.lft.to/lastmile_qr_scan", "ios": "https://dc.lft.to/lastmile_qr_scan"}, "fusion_lon": 0.0, "lat": 38.92098, "bike_id": "9695403b765ed3810c0f81045b9ff418", "type": "electric_scooter", "is_reserved": 0, "lon": -77.02544216666666}, {"fusion_lat": 0.0, "name": "f4153c050e072245b287d6a25e4f54e8", "is_disabled": 0, "rental_uris": {"android": "https://dc.lft.to/lastmile_qr_scan", "ios": "https://dc.lft.to/lastmile_qr_scan"}, "fusion_lon": 0.0, "lat": 38.879306166666666, "bike_id": "f4153c050e072245b287d6a25e4f54e8", "type": "electric_scooter", "is_reserved": 0, "lon": -77.023655}, {"fusion_lat": 0.0, "name": "6b7a8af2bef28a8f217ad6c8bfcac609", "is_disabled": 0, "rental_uris": {"android": "https://dc.lft.to/lastmile_qr_scan", "ios": "https://dc.lft.to/lastmile_qr_scan"}, "fusion_lon": 0.0, "lat": 38.904605, "bike_id": "6b7a8af2bef28a8f217ad6c8bfcac609", "type": "electric_scooter", "is_reserved": 0, "lon": -77.00359633333333}, {"fusion_lat": 0.0, "name": "abc554325ce946d76fb312780f25de9d", "is_disabled": 0, "rental_uris": {"android": "https://dc.lft.to/lastmile_qr_scan", "ios": "https://dc.lft.to/lastmile_qr_scan"}, "fusion_lon": 0.0, "lat": 38.907373666666665, "bike_id": "abc554325ce946d76fb312780f25de9d", "type": "electric_scooter", "is_reserved": 0, "lon": -77.043459}, {"fusion_lat": 0.0, "name": "3a981a6109113d898cba91ec8065e01c", "is_disabled": 0, "rental_uris": {"android": "https://dc.lft.to/lastmile_qr_scan", "ios": "https://dc.lft.to/lastmile_qr_scan"}, "fusion_lon": 0.0, "lat": 38.90870316666667, "bike_id": "3a981a6109113d898cba91ec8065e01c", "type": "electric_scooter", "is_reserved": 0, "lon": -77.02340566666666}, {"fusion_lat": 0.0, "name": "0b24d5b1f5a52d6d762167bfc3adaf44", "is_disabled": 0, "rental_uris": {"android": "https://dc.lft.to/lastmile_qr_scan", "ios": "https://dc.lft.to/lastmile_qr_scan"}, "fusion_lon": 0.0, "lat": 38.881841333333334, "bike_id": "0b24d5b1f5a52d6d762167bfc3adaf44", "type": "electric_bike", "is_reserved": 0, "lon": -77.08635083333333}, {"fusion_lat": 0.0, "name": "3c281613e21d3f2731ddf66c5f92d732", "is_disabled": 0, "rental_uris": {"android": "https://dc.lft.to/lastmile_qr_scan", "ios": "https://dc.lft.to/lastmile_qr_scan"}, "fusion_lon": 0.0, "lat": 38.9182025, "bike_id": "3c281613e21d3f2731ddf66c5f92d732", "type": "electric_scooter", "is_reserved": 0, "lon": -77.04517266666667}, {"fusion_lat": 0.0, "name": "8d15961898d616cd112fe06de77dd63f", "is_disabled": 0, "rental_uris": {"android": "https://dc.lft.to/lastmile_qr_scan", "ios": "https://dc.lft.to/lastmile_qr_scan"}, "fusion_lon": 0.0, "lat": 38.92333283333333, "bike_id": "8d15961898d616cd112fe06de77dd63f", "type": "electric_scooter", "is_reserved": 0, "lon": -77.05298033333334}, {"fusion_lat": 0.0, "name": "6acd2db9f5f976ab101b7c10fa8e6854", "is_disabled": 0, "rental_uris": {"android": "https://dc.lft.to/lastmile_qr_scan", "ios": "https://dc.lft.to/lastmile_qr_scan"}, "fusion_lon": 0.0, "lat": 38.92880066666667, "bike_id": "6acd2db9f5f976ab101b7c10fa8e6854", "type": "electric_scooter", "is_reserved": 0, "lon": -76.99557566666667}, {"fusion_lat": 0.0, "name": "70b85d555403b5c2158e49015682e67f", "is_disabled": 0, "rental_uris": {"android": "https://dc.lft.to/lastmile_qr_scan", "ios": "https://dc.lft.to/lastmile_qr_scan"}, "fusion_lon": 0.0, "lat": 38.880169, "bike_id": "70b85d555403b5c2158e49015682e67f", "type": "electric_scooter", "is_reserved": 0, "lon": -76.9806645}, {"fusion_lat": 0.0, "name": "834a9db61a87fb210ed9a662886824e5", "is_disabled": 0, "rental_uris": {"android": "https://dc.lft.to/lastmile_qr_scan", "ios": "https://dc.lft.to/lastmile_qr_scan"}, "fusion_lon": 0.0, "lat": 38.91092483333333, "bike_id": "834a9db61a87fb210ed9a662886824e5", "type": "electric_scooter", "is_reserved": 0, "lon": -77.04484133333334}, {"fusion_lat": 0.0, "name": "eabb15422016ef3cb3e5755c58413075", "is_disabled": 0, "rental_uris": {"android": "https://dc.lft.to/lastmile_qr_scan", "ios": "https://dc.lft.to/lastmile_qr_scan"}, "fusion_lon": 0.0, "lat": 38.92480783333333, "bike_id": "eabb15422016ef3cb3e5755c58413075", "type": "electric_bike", "is_reserved": 0, "lon": -77.03201133333333}, {"fusion_lat": 0.0, "name": "bfac7aacd6de93a4a70cc3082b65ce4d", "is_disabled": 0, "rental_uris": {"android": "https://dc.lft.to/lastmile_qr_scan", "ios": "https://dc.lft.to/lastmile_qr_scan"}, "fusion_lon": 0.0, "lat": 38.9066675, "bike_id": "bfac7aacd6de93a4a70cc3082b65ce4d", "type": "electric_scooter", "is_reserved": 0, "lon": -77.02143533333333}, {"fusion_lat": 0.0, "name": "4032182da554924b3d947d57c846c794", "is_disabled": 0, "rental_uris": {"android": "https://dc.lft.to/lastmile_qr_scan", "ios": "https://dc.lft.to/lastmile_qr_scan"}, "fusion_lon": 0.0, "lat": 38.9111505, "bike_id": "4032182da554924b3d947d57c846c794", "type": "electric_scooter", "is_reserved": 0, "lon": -77.019729}, {"fusion_lat": 0.0, "name": "4a992a5329982613d429ff74197f3114", "is_disabled": 0, "rental_uris": {"android": "https://dc.lft.to/lastmile_qr_scan", "ios": "https://dc.lft.to/lastmile_qr_scan"}, "fusion_lon": 0.0, "lat": 38.90241966666667, "bike_id": "4a992a5329982613d429ff74197f3114", "type": "electric_scooter", "is_reserved": 0, "lon": -77.00199883333333}, {"fusion_lat": 0.0, "name": "4fe9747d901ade0e2d252b3bf3edd5ef", "is_disabled": 0, "rental_uris": {"android": "https://dc.lft.to/lastmile_qr_scan", "ios": "https://dc.lft.to/lastmile_qr_scan"}, "fusion_lon": 0.0, "lat": 38.925683666666664, "bike_id": "4fe9747d901ade0e2d252b3bf3edd5ef", "type": "electric_scooter", "is_reserved": 0, "lon": -77.02687533333334}, {"fusion_lat": 0.0, "name": "511ef14e16d7cfaae4f5f22550fceddb", "is_disabled": 0, "rental_uris": {"android": "https://dc.lft.to/lastmile_qr_scan", "ios": "https://dc.lft.to/lastmile_qr_scan"}, "fusion_lon": 0.0, "lat": 38.91254266666667, "bike_id": "511ef14e16d7cfaae4f5f22550fceddb", "type": "electric_scooter", "is_reserved": 0, "lon": -77.0363135}, {"fusion_lat": 0.0, "name": "bd8a44ecdff4bf72674786f578a1dbaf", "is_disabled": 0, "rental_uris": {"android": "https://dc.lft.to/lastmile_qr_scan", "ios": "https://dc.lft.to/lastmile_qr_scan"}, "fusion_lon": 0.0, "lat": 38.90625683333333, "bike_id": "bd8a44ecdff4bf72674786f578a1dbaf", "type": "electric_scooter", "is_reserved": 0, "lon": -77.0259625}, {"fusion_lat": 0.0, "name": "504be8ca405de2f64145b8f7235af7eb", "is_disabled": 0, "rental_uris": {"android": "https://dc.lft.to/lastmile_qr_scan", "ios": "https://dc.lft.to/lastmile_qr_scan"}, "fusion_lon": 0.0, "lat": 38.93113116666667, "bike_id": "504be8ca405de2f64145b8f7235af7eb", "type": "electric_scooter", "is_reserved": 0, "lon": -76.99622833333333}, {"fusion_lat": 0.0, "name": "60e84d976c03e49e0651ac1a995c6714", "is_disabled": 0, "rental_uris": {"android": "https://dc.lft.to/lastmile_qr_scan", "ios": "https://dc.lft.to/lastmile_qr_scan"}, "fusion_lon": 0.0, "lat": 38.904333666666666, "bike_id": "60e84d976c03e49e0651ac1a995c6714", "type": "electric_scooter", "is_reserved": 0, "lon": -77.025921}, {"fusion_lat": 0.0, "name": "402934ccd44b5fe904af9e3fb26f4457", "is_disabled": 0, "rental_uris": {"android": "https://dc.lft.to/lastmile_qr_scan", "ios": "https://dc.lft.to/lastmile_qr_scan"}, "fusion_lon": 0.0, "lat": 38.9225045, "bike_id": "402934ccd44b5fe904af9e3fb26f4457", "type": "electric_scooter", "is_reserved": 0, "lon": -77.04256766666667}, {"fusion_lat": 0.0, "name": "e347d0942bc43387e2957f11d8325eb7", "is_disabled": 0, "rental_uris": {"android": "https://dc.lft.to/lastmile_qr_scan", "ios": "https://dc.lft.to/lastmile_qr_scan"}, "fusion_lon": 0.0, "lat": 38.9093335, "bike_id": "e347d0942bc43387e2957f11d8325eb7", "type": "electric_scooter", "is_reserved": 0, "lon": -77.06255066666667}, {"fusion_lat": 0.0, "name": "1795fcc21a33d4372a5864049cefa605", "is_disabled": 0, "rental_uris": {"android": "https://dc.lft.to/lastmile_qr_scan", "ios": "https://dc.lft.to/lastmile_qr_scan"}, "fusion_lon": 0.0, "lat": 38.908520833333334, "bike_id": "1795fcc21a33d4372a5864049cefa605", "type": "electric_scooter", "is_reserved": 0, "lon": -77.0241765}, {"fusion_lat": 0.0, "name": "9f2fd1452fc6e7674205f3f23dd6163c", "is_disabled": 0, "rental_uris": {"android": "https://dc.lft.to/lastmile_qr_scan", "ios": "https://dc.lft.to/lastmile_qr_scan"}, "fusion_lon": 0.0, "lat": 38.91838516666667, "bike_id": "9f2fd1452fc6e7674205f3f23dd6163c", "type": "electric_scooter", "is_reserved": 0, "lon": -77.06369066666667}, {"fusion_lat": 0.0, "name": "bc5265bc147bcc823a02829e1f51a2fa", "is_disabled": 0, "rental_uris": {"android": "https://dc.lft.to/lastmile_qr_scan", "ios": "https://dc.lft.to/lastmile_qr_scan"}, "fusion_lon": 0.0, "lat": 38.903474, "bike_id": "bc5265bc147bcc823a02829e1f51a2fa", "type": "electric_scooter", "is_reserved": 0, "lon": -76.97476316666666}, {"fusion_lat": 0.0, "name": "c492191f597579bdf7c65d8ab97da938", "is_disabled": 0, "rental_uris": {"android": "https://dc.lft.to/lastmile_qr_scan", "ios": "https://dc.lft.to/lastmile_qr_scan"}, "fusion_lon": 0.0, "lat": 38.91204283333333, "bike_id": "c492191f597579bdf7c65d8ab97da938", "type": "electric_scooter", "is_reserved": 0, "lon": -77.03181333333333}, {"fusion_lat": 0.0, "name": "c5fe788782dfe94140681410ff287775", "is_disabled": 0, "rental_uris": {"android": "https://dc.lft.to/lastmile_qr_scan", "ios": "https://dc.lft.to/lastmile_qr_scan"}, "fusion_lon": 0.0, "lat": 38.973637333333336, "bike_id": "c5fe788782dfe94140681410ff287775", "type": "electric_scooter", "is_reserved": 0, "lon": -77.012914}, {"fusion_lat": 0.0, "name": "9796916cea3f34587c7925248838a977", "is_disabled": 0, "rental_uris": {"android": "https://dc.lft.to/lastmile_qr_scan", "ios": "https://dc.lft.to/lastmile_qr_scan"}, "fusion_lon": 0.0, "lat": 38.898245, "bike_id": "9796916cea3f34587c7925248838a977", "type": "electric_scooter", "is_reserved": 0, "lon": -77.04677166666667}, {"fusion_lat": 0.0, "name": "8651ba354524802d6d8c3db6d746f470", "is_disabled": 0, "rental_uris": {"android": "https://dc.lft.to/lastmile_qr_scan", "ios": "https://dc.lft.to/lastmile_qr_scan"}, "fusion_lon": 0.0, "lat": 38.93815333333333, "bike_id": "8651ba354524802d6d8c3db6d746f470", "type": "electric_scooter", "is_reserved": 0, "lon": -77.0263855}, {"fusion_lat": 0.0, "name": "b3509d4a31c066d77ced65a175668a9c", "is_disabled": 0, "rental_uris": {"android": "https://dc.lft.to/lastmile_qr_scan", "ios": "https://dc.lft.to/lastmile_qr_scan"}, "fusion_lon": 0.0, "lat": 38.912973, "bike_id": "b3509d4a31c066d77ced65a175668a9c", "type": "electric_scooter", "is_reserved": 0, "lon": -77.043494}, {"fusion_lat": 0.0, "name": "f90544d4d35512d79b98c60054db622b", "is_disabled": 0, "rental_uris": {"android": "https://dc.lft.to/lastmile_qr_scan", "ios": "https://dc.lft.to/lastmile_qr_scan"}, "fusion_lon": 0.0, "lat": 38.90011583333333, "bike_id": "f90544d4d35512d79b98c60054db622b", "type": "electric_scooter", "is_reserved": 0, "lon": -76.9881155}, {"fusion_lat": 0.0, "name": "66643d8e341aa5c9b976442beb107175", "is_disabled": 0, "rental_uris": {"android": "https://dc.lft.to/lastmile_qr_scan", "ios": "https://dc.lft.to/lastmile_qr_scan"}, "fusion_lon": 0.0, "lat": 38.90392766666667, "bike_id": "66643d8e341aa5c9b976442beb107175", "type": "electric_scooter", "is_reserved": 0, "lon": -77.06294166666666}, {"fusion_lat": 0.0, "name": "638274fc373d405713b886f9c0161ff5", "is_disabled": 0, "rental_uris": {"android": "https://dc.lft.to/lastmile_qr_scan", "ios": "https://dc.lft.to/lastmile_qr_scan"}, "fusion_lon": 0.0, "lat": 38.8928505, "bike_id": "638274fc373d405713b886f9c0161ff5", "type": "electric_scooter", "is_reserved": 0, "lon": -77.03180766666667}, {"fusion_lat": 0.0, "name": "1a69c7f0addb02fe61a2a2e02c86d005", "is_disabled": 0, "rental_uris": {"android": "https://dc.lft.to/lastmile_qr_scan", "ios": "https://dc.lft.to/lastmile_qr_scan"}, "fusion_lon": 0.0, "lat": 38.88391566666667, "bike_id": "1a69c7f0addb02fe61a2a2e02c86d005", "type": "electric_scooter", "is_reserved": 0, "lon": -77.00824733333333}, {"fusion_lat": 0.0, "name": "eaf312ae244521281c497e63ff6928b2", "is_disabled": 0, "rental_uris": {"android": "https://dc.lft.to/lastmile_qr_scan", "ios": "https://dc.lft.to/lastmile_qr_scan"}, "fusion_lon": 0.0, "lat": 38.92343433333333, "bike_id": "eaf312ae244521281c497e63ff6928b2", "type": "electric_scooter", "is_reserved": 0, "lon": -77.01907716666666}, {"fusion_lat": 0.0, "name": "1929089133cc38819e7efd08075b6194", "is_disabled": 0, "rental_uris": {"android": "https://dc.lft.to/lastmile_qr_scan", "ios": "https://dc.lft.to/lastmile_qr_scan"}, "fusion_lon": 0.0, "lat": 38.89876183333333, "bike_id": "1929089133cc38819e7efd08075b6194", "type": "electric_scooter", "is_reserved": 0, "lon": -76.93186783333333}, {"fusion_lat": 0.0, "name": "7c8d2face36ac93fb6f6a0917d754ea5", "is_disabled": 0, "rental_uris": {"android": "https://dc.lft.to/lastmile_qr_scan", "ios": "https://dc.lft.to/lastmile_qr_scan"}, "fusion_lon": 0.0, "lat": 38.9296895, "bike_id": "7c8d2face36ac93fb6f6a0917d754ea5", "type": "electric_scooter", "is_reserved": 0, "lon": -77.027948}, {"fusion_lat": 0.0, "name": "05687b05821abb49e47092e1ee9208ef", "is_disabled": 0, "rental_uris": {"android": "https://dc.lft.to/lastmile_qr_scan", "ios": "https://dc.lft.to/lastmile_qr_scan"}, "fusion_lon": 0.0, "lat": 38.904299333333334, "bike_id": "05687b05821abb49e47092e1ee9208ef", "type": "electric_scooter", "is_reserved": 0, "lon": -77.02598216666667}, {"fusion_lat": 0.0, "name": "e3263249e43eab2c0705c1cb5abae06c", "is_disabled": 0, "rental_uris": {"android": "https://dc.lft.to/lastmile_qr_scan", "ios": "https://dc.lft.to/lastmile_qr_scan"}, "fusion_lon": 0.0, "lat": 38.92018916666667, "bike_id": "e3263249e43eab2c0705c1cb5abae06c", "type": "electric_scooter", "is_reserved": 0, "lon": -77.0131885}, {"fusion_lat": 0.0, "name": "b517a8f36646e28b1e1ddee2fc38393c", "is_disabled": 0, "rental_uris": {"android": "https://dc.lft.to/lastmile_qr_scan", "ios": "https://dc.lft.to/lastmile_qr_scan"}, "fusion_lon": 0.0, "lat": 38.893357, "bike_id": "b517a8f36646e28b1e1ddee2fc38393c", "type": "electric_scooter", "is_reserved": 0, "lon": -77.0320385}, {"fusion_lat": 0.0, "name": "031de9eac60b28aadcdddca6fc96a039", "is_disabled": 0, "rental_uris": {"android": "https://dc.lft.to/lastmile_qr_scan", "ios": "https://dc.lft.to/lastmile_qr_scan"}, "fusion_lon": 0.0, "lat": 38.9112315, "bike_id": "031de9eac60b28aadcdddca6fc96a039", "type": "electric_scooter", "is_reserved": 0, "lon": -77.00774016666666}, {"fusion_lat": 0.0, "name": "f50c4367ed4942907c2e4601db6e019e", "is_disabled": 0, "rental_uris": {"android": "https://dc.lft.to/lastmile_qr_scan", "ios": "https://dc.lft.to/lastmile_qr_scan"}, "fusion_lon": 0.0, "lat": 38.892218, "bike_id": "f50c4367ed4942907c2e4601db6e019e", "type": "electric_scooter", "is_reserved": 0, "lon": -77.048738}, {"fusion_lat": 0.0, "name": "d1d5b120d4105b5407c84d3690ece42b", "is_disabled": 0, "rental_uris": {"android": "https://dc.lft.to/lastmile_qr_scan", "ios": "https://dc.lft.to/lastmile_qr_scan"}, "fusion_lon": 0.0, "lat": 38.907216166666664, "bike_id": "d1d5b120d4105b5407c84d3690ece42b", "type": "electric_scooter", "is_reserved": 0, "lon": -77.04331683333334}, {"fusion_lat": 0.0, "name": "2cdd8c719c572800cb15aa79105d02b9", "is_disabled": 0, "rental_uris": {"android": "https://dc.lft.to/lastmile_qr_scan", "ios": "https://dc.lft.to/lastmile_qr_scan"}, "fusion_lon": 0.0, "lat": 38.90013233333333, "bike_id": "2cdd8c719c572800cb15aa79105d02b9", "type": "electric_scooter", "is_reserved": 0, "lon": -76.9881035}, {"fusion_lat": 0.0, "name": "6ba19ed2c49f3aceb01bbe6581a15d39", "is_disabled": 0, "rental_uris": {"android": "https://dc.lft.to/lastmile_qr_scan", "ios": "https://dc.lft.to/lastmile_qr_scan"}, "fusion_lon": 0.0, "lat": 38.922347, "bike_id": "6ba19ed2c49f3aceb01bbe6581a15d39", "type": "electric_scooter", "is_reserved": 0, "lon": -77.04240816666666}, {"fusion_lat": 0.0, "name": "fa6115f0769cac566849861fb42d4de2", "is_disabled": 0, "rental_uris": {"android": "https://dc.lft.to/lastmile_qr_scan", "ios": "https://dc.lft.to/lastmile_qr_scan"}, "fusion_lon": 0.0, "lat": 38.92302016666667, "bike_id": "fa6115f0769cac566849861fb42d4de2", "type": "electric_scooter", "is_reserved": 0, "lon": -77.04142916666666}, {"fusion_lat": 0.0, "name": "34c1f9f8d2112ac4f10cc4b720888868", "is_disabled": 0, "rental_uris": {"android": "https://dc.lft.to/lastmile_qr_scan", "ios": "https://dc.lft.to/lastmile_qr_scan"}, "fusion_lon": 0.0, "lat": 38.917202833333334, "bike_id": "34c1f9f8d2112ac4f10cc4b720888868", "type": "electric_scooter", "is_reserved": 0, "lon": -77.0417215}, {"fusion_lat": 0.0, "name": "34a7c156750a15b20d94524104a6de1b", "is_disabled": 0, "rental_uris": {"android": "https://dc.lft.to/lastmile_qr_scan", "ios": "https://dc.lft.to/lastmile_qr_scan"}, "fusion_lon": 0.0, "lat": 38.927361833333336, "bike_id": "34a7c156750a15b20d94524104a6de1b", "type": "electric_bike", "is_reserved": 0, "lon": -76.99361583333334}, {"fusion_lat": 0.0, "name": "d5f4572c9e270f6c5a1a0d302a3add58", "is_disabled": 0, "rental_uris": {"android": "https://dc.lft.to/lastmile_qr_scan", "ios": "https://dc.lft.to/lastmile_qr_scan"}, "fusion_lon": 0.0, "lat": 38.91710633333334, "bike_id": "d5f4572c9e270f6c5a1a0d302a3add58", "type": "electric_scooter", "is_reserved": 0, "lon": -77.038709}, {"fusion_lat": 0.0, "name": "e790d7bdc70d0a9ab980db9cfe3653c8", "is_disabled": 0, "rental_uris": {"android": "https://dc.lft.to/lastmile_qr_scan", "ios": "https://dc.lft.to/lastmile_qr_scan"}, "fusion_lon": 0.0, "lat": 38.90963716666667, "bike_id": "e790d7bdc70d0a9ab980db9cfe3653c8", "type": "electric_scooter", "is_reserved": 0, "lon": -77.03185783333333}, {"fusion_lat": 0.0, "name": "20af1e172285042bda122c992e4e69cc", "is_disabled": 0, "rental_uris": {"android": "https://dc.lft.to/lastmile_qr_scan", "ios": "https://dc.lft.to/lastmile_qr_scan"}, "fusion_lon": 0.0, "lat": 38.9169905, "bike_id": "20af1e172285042bda122c992e4e69cc", "type": "electric_scooter", "is_reserved": 0, "lon": -77.02420316666667}, {"fusion_lat": 0.0, "name": "938e86a98aa620c472f0ee0fa696d627", "is_disabled": 0, "rental_uris": {"android": "https://dc.lft.to/lastmile_qr_scan", "ios": "https://dc.lft.to/lastmile_qr_scan"}, "fusion_lon": 0.0, "lat": 38.92807833333333, "bike_id": "938e86a98aa620c472f0ee0fa696d627", "type": "electric_scooter", "is_reserved": 0, "lon": -77.04357983333334}, {"fusion_lat": 0.0, "name": "4a85cda30d5bd71f045b683e32c6dfad", "is_disabled": 0, "rental_uris": {"android": "https://dc.lft.to/lastmile_qr_scan", "ios": "https://dc.lft.to/lastmile_qr_scan"}, "fusion_lon": 0.0, "lat": 38.9085475, "bike_id": "4a85cda30d5bd71f045b683e32c6dfad", "type": "electric_scooter", "is_reserved": 0, "lon": -76.99765616666667}, {"fusion_lat": 0.0, "name": "c9362dfb17f43c93533ac573e2b127d4", "is_disabled": 0, "rental_uris": {"android": "https://dc.lft.to/lastmile_qr_scan", "ios": "https://dc.lft.to/lastmile_qr_scan"}, "fusion_lon": 0.0, "lat": 38.901492, "bike_id": "c9362dfb17f43c93533ac573e2b127d4", "type": "electric_scooter", "is_reserved": 0, "lon": -76.93063783333334}, {"fusion_lat": 0.0, "name": "ac5d748db5c62162f00b8ecf45b76500", "is_disabled": 0, "rental_uris": {"android": "https://dc.lft.to/lastmile_qr_scan", "ios": "https://dc.lft.to/lastmile_qr_scan"}, "fusion_lon": 0.0, "lat": 38.9612635, "bike_id": "ac5d748db5c62162f00b8ecf45b76500", "type": "electric_bike", "is_reserved": 0, "lon": -77.03276816666667}, {"fusion_lat": 0.0, "name": "2f9a93f13ddd69ae94bf64225c7d8cfc", "is_disabled": 0, "rental_uris": {"android": "https://dc.lft.to/lastmile_qr_scan", "ios": "https://dc.lft.to/lastmile_qr_scan"}, "fusion_lon": 0.0, "lat": 38.914132, "bike_id": "2f9a93f13ddd69ae94bf64225c7d8cfc", "type": "electric_scooter", "is_reserved": 0, "lon": -77.02813433333333}, {"fusion_lat": 0.0, "name": "8e4f9c438d1f8958afbcd911133e3f1a", "is_disabled": 0, "rental_uris": {"android": "https://dc.lft.to/lastmile_qr_scan", "ios": "https://dc.lft.to/lastmile_qr_scan"}, "fusion_lon": 0.0, "lat": 38.92155666666667, "bike_id": "8e4f9c438d1f8958afbcd911133e3f1a", "type": "electric_scooter", "is_reserved": 0, "lon": -77.04235566666667}, {"fusion_lat": 0.0, "name": "280c614241de60a80b76156a02b3c5a1", "is_disabled": 0, "rental_uris": {"android": "https://dc.lft.to/lastmile_qr_scan", "ios": "https://dc.lft.to/lastmile_qr_scan"}, "fusion_lon": 0.0, "lat": 38.91169633333333, "bike_id": "280c614241de60a80b76156a02b3c5a1", "type": "electric_scooter", "is_reserved": 0, "lon": -77.031803}, {"fusion_lat": 0.0, "name": "4b24b3f78413b8d43490e846cac14aaf", "is_disabled": 0, "rental_uris": {"android": "https://dc.lft.to/lastmile_qr_scan", "ios": "https://dc.lft.to/lastmile_qr_scan"}, "fusion_lon": 0.0, "lat": 38.89854316666667, "bike_id": "4b24b3f78413b8d43490e846cac14aaf", "type": "electric_scooter", "is_reserved": 0, "lon": -76.95043916666667}, {"fusion_lat": 0.0, "name": "5ffec4dd2e97a4b02d4e167aa7ae338b", "is_disabled": 0, "rental_uris": {"android": "https://dc.lft.to/lastmile_qr_scan", "ios": "https://dc.lft.to/lastmile_qr_scan"}, "fusion_lon": 0.0, "lat": 38.899891, "bike_id": "5ffec4dd2e97a4b02d4e167aa7ae338b", "type": "electric_scooter", "is_reserved": 0, "lon": -77.02708566666666}, {"fusion_lat": 0.0, "name": "84d104cef02fd1925bf6e9e849da4913", "is_disabled": 0, "rental_uris": {"android": "https://dc.lft.to/lastmile_qr_scan", "ios": "https://dc.lft.to/lastmile_qr_scan"}, "fusion_lon": 0.0, "lat": 38.920690666666665, "bike_id": "84d104cef02fd1925bf6e9e849da4913", "type": "electric_bike", "is_reserved": 0, "lon": -77.2395595}, {"fusion_lat": 0.0, "name": "f974b123b864d309d88b17124a0b9f14", "is_disabled": 0, "rental_uris": {"android": "https://dc.lft.to/lastmile_qr_scan", "ios": "https://dc.lft.to/lastmile_qr_scan"}, "fusion_lon": 0.0, "lat": 38.892224666666664, "bike_id": "f974b123b864d309d88b17124a0b9f14", "type": "electric_scooter", "is_reserved": 0, "lon": -77.04800516666667}, {"fusion_lat": 0.0, "name": "d1928483665ee172f6074b1661259130", "is_disabled": 0, "rental_uris": {"android": "https://dc.lft.to/lastmile_qr_scan", "ios": "https://dc.lft.to/lastmile_qr_scan"}, "fusion_lon": 0.0, "lat": 38.891727833333334, "bike_id": "d1928483665ee172f6074b1661259130", "type": "electric_scooter", "is_reserved": 0, "lon": -76.99947316666666}, {"fusion_lat": 0.0, "name": "380fe847aa5982dc24e33e0bb468a930", "is_disabled": 0, "rental_uris": {"android": "https://dc.lft.to/lastmile_qr_scan", "ios": "https://dc.lft.to/lastmile_qr_scan"}, "fusion_lon": 0.0, "lat": 38.94183116666667, "bike_id": "380fe847aa5982dc24e33e0bb468a930", "type": "electric_scooter", "is_reserved": 0, "lon": -77.02493733333333}, {"fusion_lat": 0.0, "name": "d96f75281f116031a761bcb76e85f06e", "is_disabled": 0, "rental_uris": {"android": "https://dc.lft.to/lastmile_qr_scan", "ios": "https://dc.lft.to/lastmile_qr_scan"}, "fusion_lon": 0.0, "lat": 38.90563866666667, "bike_id": "d96f75281f116031a761bcb76e85f06e", "type": "electric_scooter", "is_reserved": 0, "lon": -77.02408166666666}, {"fusion_lat": 0.0, "name": "8e624de3c5e5a0de5fd72fa8789afc23", "is_disabled": 0, "rental_uris": {"android": "https://dc.lft.to/lastmile_qr_scan", "ios": "https://dc.lft.to/lastmile_qr_scan"}, "fusion_lon": 0.0, "lat": 38.93577966666667, "bike_id": "8e624de3c5e5a0de5fd72fa8789afc23", "type": "electric_scooter", "is_reserved": 0, "lon": -77.0352085}, {"fusion_lat": 0.0, "name": "62233e0d8514f78b845b94e3e40b9eb7", "is_disabled": 0, "rental_uris": {"android": "https://dc.lft.to/lastmile_qr_scan", "ios": "https://dc.lft.to/lastmile_qr_scan"}, "fusion_lon": 0.0, "lat": 38.913374833333336, "bike_id": "62233e0d8514f78b845b94e3e40b9eb7", "type": "electric_scooter", "is_reserved": 0, "lon": -77.03168583333333}, {"fusion_lat": 0.0, "name": "8f97622f151f1593f4aebe781c7dec71", "is_disabled": 0, "rental_uris": {"android": "https://dc.lft.to/lastmile_qr_scan", "ios": "https://dc.lft.to/lastmile_qr_scan"}, "fusion_lon": 0.0, "lat": 38.907286666666664, "bike_id": "8f97622f151f1593f4aebe781c7dec71", "type": "electric_scooter", "is_reserved": 0, "lon": -77.04994516666666}, {"fusion_lat": 0.0, "name": "bfdbc4dfc7b0faf2d18b448657df6175", "is_disabled": 0, "rental_uris": {"android": "https://dc.lft.to/lastmile_qr_scan", "ios": "https://dc.lft.to/lastmile_qr_scan"}, "fusion_lon": 0.0, "lat": 38.9110035, "bike_id": "bfdbc4dfc7b0faf2d18b448657df6175", "type": "electric_scooter", "is_reserved": 0, "lon": -77.02200033333334}, {"fusion_lat": 0.0, "name": "1026e38ffc852ad89219aa294250adb8", "is_disabled": 0, "rental_uris": {"android": "https://dc.lft.to/lastmile_qr_scan", "ios": "https://dc.lft.to/lastmile_qr_scan"}, "fusion_lon": 0.0, "lat": 38.91815183333333, "bike_id": "1026e38ffc852ad89219aa294250adb8", "type": "electric_scooter", "is_reserved": 0, "lon": -77.03676583333333}, {"fusion_lat": 0.0, "name": "82dc8e9ce7f769c75e4f32c899c1f133", "is_disabled": 0, "rental_uris": {"android": "https://dc.lft.to/lastmile_qr_scan", "ios": "https://dc.lft.to/lastmile_qr_scan"}, "fusion_lon": 0.0, "lat": 38.925618166666666, "bike_id": "82dc8e9ce7f769c75e4f32c899c1f133", "type": "electric_scooter", "is_reserved": 0, "lon": -77.043721}, {"fusion_lat": 0.0, "name": "9c3ad59e92befed644f06794ddb0e6bb", "is_disabled": 0, "rental_uris": {"android": "https://dc.lft.to/lastmile_qr_scan", "ios": "https://dc.lft.to/lastmile_qr_scan"}, "fusion_lon": 0.0, "lat": 38.89222266666667, "bike_id": "9c3ad59e92befed644f06794ddb0e6bb", "type": "electric_scooter", "is_reserved": 0, "lon": -77.04657283333333}, {"fusion_lat": 0.0, "name": "582a3334d06049245edaf1c3751392f2", "is_disabled": 0, "rental_uris": {"android": "https://dc.lft.to/lastmile_qr_scan", "ios": "https://dc.lft.to/lastmile_qr_scan"}, "fusion_lon": 0.0, "lat": 38.9318745, "bike_id": "582a3334d06049245edaf1c3751392f2", "type": "electric_scooter", "is_reserved": 0, "lon": -77.03262733333334}, {"fusion_lat": 0.0, "name": "ce40115889d4fcdcc6c52150c7a05ed9", "is_disabled": 0, "rental_uris": {"android": "https://dc.lft.to/lastmile_qr_scan", "ios": "https://dc.lft.to/lastmile_qr_scan"}, "fusion_lon": 0.0, "lat": 38.84353133333333, "bike_id": "ce40115889d4fcdcc6c52150c7a05ed9", "type": "electric_bike", "is_reserved": 0, "lon": -76.97821633333334}, {"fusion_lat": 0.0, "name": "4fba6aecdea3f863e782f439074303cd", "is_disabled": 0, "rental_uris": {"android": "https://dc.lft.to/lastmile_qr_scan", "ios": "https://dc.lft.to/lastmile_qr_scan"}, "fusion_lon": 0.0, "lat": 38.92429966666667, "bike_id": "4fba6aecdea3f863e782f439074303cd", "type": "electric_scooter", "is_reserved": 0, "lon": -77.02977133333333}, {"fusion_lat": 0.0, "name": "95a7efafd5458a8e9018474103e930d9", "is_disabled": 0, "rental_uris": {"android": "https://dc.lft.to/lastmile_qr_scan", "ios": "https://dc.lft.to/lastmile_qr_scan"}, "fusion_lon": 0.0, "lat": 38.944995166666665, "bike_id": "95a7efafd5458a8e9018474103e930d9", "type": "electric_scooter", "is_reserved": 0, "lon": -77.03149566666667}, {"fusion_lat": 0.0, "name": "5f9605a6491340d557aa88bf7a790c48", "is_disabled": 0, "rental_uris": {"android": "https://dc.lft.to/lastmile_qr_scan", "ios": "https://dc.lft.to/lastmile_qr_scan"}, "fusion_lon": 0.0, "lat": 38.903747, "bike_id": "5f9605a6491340d557aa88bf7a790c48", "type": "electric_scooter", "is_reserved": 0, "lon": -77.03841666666666}, {"fusion_lat": 0.0, "name": "664b4a4e0b63b41b41eaa9553f8f8ea8", "is_disabled": 0, "rental_uris": {"android": "https://dc.lft.to/lastmile_qr_scan", "ios": "https://dc.lft.to/lastmile_qr_scan"}, "fusion_lon": 0.0, "lat": 38.9105705, "bike_id": "664b4a4e0b63b41b41eaa9553f8f8ea8", "type": "electric_scooter", "is_reserved": 0, "lon": -77.026555}, {"fusion_lat": 0.0, "name": "66824008cfe718fc1a8736865f7f3a81", "is_disabled": 0, "rental_uris": {"android": "https://dc.lft.to/lastmile_qr_scan", "ios": "https://dc.lft.to/lastmile_qr_scan"}, "fusion_lon": 0.0, "lat": 38.883633, "bike_id": "66824008cfe718fc1a8736865f7f3a81", "type": "electric_scooter", "is_reserved": 0, "lon": -76.94165966666667}, {"fusion_lat": 0.0, "name": "f9a9387ffd5ce1c9441cd12923a50e0a", "is_disabled": 0, "rental_uris": {"android": "https://dc.lft.to/lastmile_qr_scan", "ios": "https://dc.lft.to/lastmile_qr_scan"}, "fusion_lon": 0.0, "lat": 38.923391, "bike_id": "f9a9387ffd5ce1c9441cd12923a50e0a", "type": "electric_scooter", "is_reserved": 0, "lon": -77.05228133333334}, {"fusion_lat": 0.0, "name": "cabba4cf9be4beebb5d73526c691a58c", "is_disabled": 0, "rental_uris": {"android": "https://dc.lft.to/lastmile_qr_scan", "ios": "https://dc.lft.to/lastmile_qr_scan"}, "fusion_lon": 0.0, "lat": 38.90277566666666, "bike_id": "cabba4cf9be4beebb5d73526c691a58c", "type": "electric_scooter", "is_reserved": 0, "lon": -77.0398215}, {"fusion_lat": 0.0, "name": "f5da50b07d9cdbfcb700403c5b3486a6", "is_disabled": 0, "rental_uris": {"android": "https://dc.lft.to/lastmile_qr_scan", "ios": "https://dc.lft.to/lastmile_qr_scan"}, "fusion_lon": 0.0, "lat": 38.887738666666664, "bike_id": "f5da50b07d9cdbfcb700403c5b3486a6", "type": "electric_scooter", "is_reserved": 0, "lon": -77.0286585}, {"fusion_lat": 0.0, "name": "cbcb9647de50c48e930739cb73c17d05", "is_disabled": 0, "rental_uris": {"android": "https://dc.lft.to/lastmile_qr_scan", "ios": "https://dc.lft.to/lastmile_qr_scan"}, "fusion_lon": 0.0, "lat": 38.8070755, "bike_id": "cbcb9647de50c48e930739cb73c17d05", "type": "electric_bike", "is_reserved": 0, "lon": -77.06172116666667}, {"fusion_lat": 0.0, "name": "485d31a8f9976e44d5a04f8f3ff41513", "is_disabled": 0, "rental_uris": {"android": "https://dc.lft.to/lastmile_qr_scan", "ios": "https://dc.lft.to/lastmile_qr_scan"}, "fusion_lon": 0.0, "lat": 38.90557883333334, "bike_id": "485d31a8f9976e44d5a04f8f3ff41513", "type": "electric_scooter", "is_reserved": 0, "lon": -77.020984}, {"fusion_lat": 0.0, "name": "d0e262cbbe606a081854829689a5d2ee", "is_disabled": 0, "rental_uris": {"android": "https://dc.lft.to/lastmile_qr_scan", "ios": "https://dc.lft.to/lastmile_qr_scan"}, "fusion_lon": 0.0, "lat": 38.8191165, "bike_id": "d0e262cbbe606a081854829689a5d2ee", "type": "electric_bike", "is_reserved": 0, "lon": -77.04797916666666}, {"fusion_lat": 0.0, "name": "61a0b1284201c9b10ece7de74edc3a5e", "is_disabled": 0, "rental_uris": {"android": "https://dc.lft.to/lastmile_qr_scan", "ios": "https://dc.lft.to/lastmile_qr_scan"}, "fusion_lon": 0.0, "lat": 38.92053766666667, "bike_id": "61a0b1284201c9b10ece7de74edc3a5e", "type": "electric_scooter", "is_reserved": 0, "lon": -77.041957}, {"fusion_lat": 0.0, "name": "ecdb2cf5831622f387a61fc867988f9b", "is_disabled": 0, "rental_uris": {"android": "https://dc.lft.to/lastmile_qr_scan", "ios": "https://dc.lft.to/lastmile_qr_scan"}, "fusion_lon": 0.0, "lat": 38.883004166666666, "bike_id": "ecdb2cf5831622f387a61fc867988f9b", "type": "electric_scooter", "is_reserved": 0, "lon": -76.94857633333334}, {"fusion_lat": 0.0, "name": "7cbc718cd8204dc8f27878f56bafdd58", "is_disabled": 0, "rental_uris": {"android": "https://dc.lft.to/lastmile_qr_scan", "ios": "https://dc.lft.to/lastmile_qr_scan"}, "fusion_lon": 0.0, "lat": 38.812539666666666, "bike_id": "7cbc718cd8204dc8f27878f56bafdd58", "type": "electric_bike", "is_reserved": 0, "lon": -77.11773983333333}, {"fusion_lat": 0.0, "name": "0be139e7e554522a15e4fd21170029bb", "is_disabled": 0, "rental_uris": {"android": "https://dc.lft.to/lastmile_qr_scan", "ios": "https://dc.lft.to/lastmile_qr_scan"}, "fusion_lon": 0.0, "lat": 38.903958333333335, "bike_id": "0be139e7e554522a15e4fd21170029bb", "type": "electric_scooter", "is_reserved": 0, "lon": -77.06798016666667}, {"fusion_lat": 0.0, "name": "1961be70d7638319166b2c711311ff13", "is_disabled": 0, "rental_uris": {"android": "https://dc.lft.to/lastmile_qr_scan", "ios": "https://dc.lft.to/lastmile_qr_scan"}, "fusion_lon": 0.0, "lat": 38.89100783333333, "bike_id": "1961be70d7638319166b2c711311ff13", "type": "electric_scooter", "is_reserved": 0, "lon": -76.99621466666666}, {"fusion_lat": 0.0, "name": "b800b279a1e0d3d68985c5d27d4a8041", "is_disabled": 0, "rental_uris": {"android": "https://dc.lft.to/lastmile_qr_scan", "ios": "https://dc.lft.to/lastmile_qr_scan"}, "fusion_lon": 0.0, "lat": 38.9073195, "bike_id": "b800b279a1e0d3d68985c5d27d4a8041", "type": "electric_scooter", "is_reserved": 0, "lon": -76.93545533333334}, {"fusion_lat": 0.0, "name": "1f0aa7c3da47c254be37b29709e051b4", "is_disabled": 0, "rental_uris": {"android": "https://dc.lft.to/lastmile_qr_scan", "ios": "https://dc.lft.to/lastmile_qr_scan"}, "fusion_lon": 0.0, "lat": 38.927246333333336, "bike_id": "1f0aa7c3da47c254be37b29709e051b4", "type": "electric_scooter", "is_reserved": 0, "lon": -77.0306615}, {"fusion_lat": 0.0, "name": "de6e29934f477e200fba66c3a4a53b65", "is_disabled": 0, "rental_uris": {"android": "https://dc.lft.to/lastmile_qr_scan", "ios": "https://dc.lft.to/lastmile_qr_scan"}, "fusion_lon": 0.0, "lat": 38.91710883333333, "bike_id": "de6e29934f477e200fba66c3a4a53b65", "type": "electric_scooter", "is_reserved": 0, "lon": -77.03869266666666}, {"fusion_lat": 0.0, "name": "dfee7bb207b2fd0b9e94fec27ced7553", "is_disabled": 0, "rental_uris": {"android": "https://dc.lft.to/lastmile_qr_scan", "ios": "https://dc.lft.to/lastmile_qr_scan"}, "fusion_lon": 0.0, "lat": 38.925258, "bike_id": "dfee7bb207b2fd0b9e94fec27ced7553", "type": "electric_scooter", "is_reserved": 0, "lon": -77.00749466666667}, {"fusion_lat": 0.0, "name": "256bc859f0d4de1270023ace55f08d3b", "is_disabled": 0, "rental_uris": {"android": "https://dc.lft.to/lastmile_qr_scan", "ios": "https://dc.lft.to/lastmile_qr_scan"}, "fusion_lon": 0.0, "lat": 38.925629, "bike_id": "256bc859f0d4de1270023ace55f08d3b", "type": "electric_scooter", "is_reserved": 0, "lon": -77.02276583333334}, {"fusion_lat": 0.0, "name": "bad849c8bd4764a3eb0c7eb3719172e7", "is_disabled": 0, "rental_uris": {"android": "https://dc.lft.to/lastmile_qr_scan", "ios": "https://dc.lft.to/lastmile_qr_scan"}, "fusion_lon": 0.0, "lat": 39.034337, "bike_id": "bad849c8bd4764a3eb0c7eb3719172e7", "type": "electric_bike", "is_reserved": 0, "lon": -77.0432095}, {"fusion_lat": 0.0, "name": "8603f399783bd774a55225bf4dc627b6", "is_disabled": 0, "rental_uris": {"android": "https://dc.lft.to/lastmile_qr_scan", "ios": "https://dc.lft.to/lastmile_qr_scan"}, "fusion_lon": 0.0, "lat": 38.93603483333333, "bike_id": "8603f399783bd774a55225bf4dc627b6", "type": "electric_scooter", "is_reserved": 0, "lon": -77.05861516666667}, {"fusion_lat": 0.0, "name": "87acaf149521144cecbf15b07cb3e59e", "is_disabled": 0, "rental_uris": {"android": "https://dc.lft.to/lastmile_qr_scan", "ios": "https://dc.lft.to/lastmile_qr_scan"}, "fusion_lon": 0.0, "lat": 38.914236, "bike_id": "87acaf149521144cecbf15b07cb3e59e", "type": "electric_scooter", "is_reserved": 0, "lon": -76.9844255}, {"fusion_lat": 0.0, "name": "a12e6178e18a0665e29b1c7ad0a0a7ea", "is_disabled": 0, "rental_uris": {"android": "https://dc.lft.to/lastmile_qr_scan", "ios": "https://dc.lft.to/lastmile_qr_scan"}, "fusion_lon": 0.0, "lat": 38.89752716666667, "bike_id": "a12e6178e18a0665e29b1c7ad0a0a7ea", "type": "electric_scooter", "is_reserved": 0, "lon": -77.0269565}, {"fusion_lat": 0.0, "name": "529b30d2cb89c08d7ac5b75c57219873", "is_disabled": 0, "rental_uris": {"android": "https://dc.lft.to/lastmile_qr_scan", "ios": "https://dc.lft.to/lastmile_qr_scan"}, "fusion_lon": 0.0, "lat": 38.877219, "bike_id": "529b30d2cb89c08d7ac5b75c57219873", "type": "electric_scooter", "is_reserved": 0, "lon": -76.99657933333333}, {"fusion_lat": 0.0, "name": "179093d35b32398089895c0aab3fda73", "is_disabled": 0, "rental_uris": {"android": "https://dc.lft.to/lastmile_qr_scan", "ios": "https://dc.lft.to/lastmile_qr_scan"}, "fusion_lon": 0.0, "lat": 38.933788666666665, "bike_id": "179093d35b32398089895c0aab3fda73", "type": "electric_scooter", "is_reserved": 0, "lon": -77.0324905}, {"fusion_lat": 0.0, "name": "f91283934e2faacd2e8895535ecac5da", "is_disabled": 0, "rental_uris": {"android": "https://dc.lft.to/lastmile_qr_scan", "ios": "https://dc.lft.to/lastmile_qr_scan"}, "fusion_lon": 0.0, "lat": 38.88289433333333, "bike_id": "f91283934e2faacd2e8895535ecac5da", "type": "electric_scooter", "is_reserved": 0, "lon": -77.01749883333333}, {"fusion_lat": 0.0, "name": "68cb3cc03ade68b7963681fc02c2d28f", "is_disabled": 0, "rental_uris": {"android": "https://dc.lft.to/lastmile_qr_scan", "ios": "https://dc.lft.to/lastmile_qr_scan"}, "fusion_lon": 0.0, "lat": 38.918958333333336, "bike_id": "68cb3cc03ade68b7963681fc02c2d28f", "type": "electric_scooter", "is_reserved": 0, "lon": -77.02389933333333}, {"fusion_lat": 0.0, "name": "0f86e6e61216cc796f18a504af9c9d1f", "is_disabled": 0, "rental_uris": {"android": "https://dc.lft.to/lastmile_qr_scan", "ios": "https://dc.lft.to/lastmile_qr_scan"}, "fusion_lon": 0.0, "lat": 38.918131, "bike_id": "0f86e6e61216cc796f18a504af9c9d1f", "type": "electric_scooter", "is_reserved": 0, "lon": -77.03141183333334}, {"fusion_lat": 0.0, "name": "3a8499b7ccd597b8762a2d4a6366d526", "is_disabled": 0, "rental_uris": {"android": "https://dc.lft.to/lastmile_qr_scan", "ios": "https://dc.lft.to/lastmile_qr_scan"}, "fusion_lon": 0.0, "lat": 38.8872035, "bike_id": "3a8499b7ccd597b8762a2d4a6366d526", "type": "electric_scooter", "is_reserved": 0, "lon": -77.02584083333333}, {"fusion_lat": 0.0, "name": "94e34a262e0a9dbd3e3beaccb576cdad", "is_disabled": 0, "rental_uris": {"android": "https://dc.lft.to/lastmile_qr_scan", "ios": "https://dc.lft.to/lastmile_qr_scan"}, "fusion_lon": 0.0, "lat": 38.85359166666667, "bike_id": "94e34a262e0a9dbd3e3beaccb576cdad", "type": "electric_bike", "is_reserved": 0, "lon": -77.1148945}, {"fusion_lat": 0.0, "name": "cca2cc8dbe4a2ca833a3ba2cfcba63fe", "is_disabled": 0, "rental_uris": {"android": "https://dc.lft.to/lastmile_qr_scan", "ios": "https://dc.lft.to/lastmile_qr_scan"}, "fusion_lon": 0.0, "lat": 38.93864266666667, "bike_id": "cca2cc8dbe4a2ca833a3ba2cfcba63fe", "type": "electric_scooter", "is_reserved": 0, "lon": -77.03208966666666}, {"fusion_lat": 0.0, "name": "db17b6be78dee9675e0a78d1f1dd2df8", "is_disabled": 0, "rental_uris": {"android": "https://dc.lft.to/lastmile_qr_scan", "ios": "https://dc.lft.to/lastmile_qr_scan"}, "fusion_lon": 0.0, "lat": 38.87377683333333, "bike_id": "db17b6be78dee9675e0a78d1f1dd2df8", "type": "electric_scooter", "is_reserved": 0, "lon": -77.00054283333333}, {"fusion_lat": 0.0, "name": "1ec976d82e268ef36da279b460aaa29b", "is_disabled": 0, "rental_uris": {"android": "https://dc.lft.to/lastmile_qr_scan", "ios": "https://dc.lft.to/lastmile_qr_scan"}, "fusion_lon": 0.0, "lat": 38.89771533333333, "bike_id": "1ec976d82e268ef36da279b460aaa29b", "type": "electric_scooter", "is_reserved": 0, "lon": -76.9846035}, {"fusion_lat": 0.0, "name": "0c86af59069d267de2730c9c046fe1f2", "is_disabled": 0, "rental_uris": {"android": "https://dc.lft.to/lastmile_qr_scan", "ios": "https://dc.lft.to/lastmile_qr_scan"}, "fusion_lon": 0.0, "lat": 38.91375266666667, "bike_id": "0c86af59069d267de2730c9c046fe1f2", "type": "electric_scooter", "is_reserved": 0, "lon": -77.01998}, {"fusion_lat": 0.0, "name": "8f40264d8030996dc8a4d325462c669b", "is_disabled": 0, "rental_uris": {"android": "https://dc.lft.to/lastmile_qr_scan", "ios": "https://dc.lft.to/lastmile_qr_scan"}, "fusion_lon": 0.0, "lat": 38.878367833333336, "bike_id": "8f40264d8030996dc8a4d325462c669b", "type": "electric_scooter", "is_reserved": 0, "lon": -76.99041166666666}, {"fusion_lat": 0.0, "name": "16dfff86acb3902fc69607a15844fe91", "is_disabled": 0, "rental_uris": {"android": "https://dc.lft.to/lastmile_qr_scan", "ios": "https://dc.lft.to/lastmile_qr_scan"}, "fusion_lon": 0.0, "lat": 38.91006183333333, "bike_id": "16dfff86acb3902fc69607a15844fe91", "type": "electric_scooter", "is_reserved": 0, "lon": -77.03439516666667}, {"fusion_lat": 0.0, "name": "88212d2b3500032cec9a6540d07fe21d", "is_disabled": 0, "rental_uris": {"android": "https://dc.lft.to/lastmile_qr_scan", "ios": "https://dc.lft.to/lastmile_qr_scan"}, "fusion_lon": 0.0, "lat": 38.9358195, "bike_id": "88212d2b3500032cec9a6540d07fe21d", "type": "electric_scooter", "is_reserved": 0, "lon": -77.03345883333333}, {"fusion_lat": 0.0, "name": "90197d68bdade3b1855bfca429344458", "is_disabled": 0, "rental_uris": {"android": "https://dc.lft.to/lastmile_qr_scan", "ios": "https://dc.lft.to/lastmile_qr_scan"}, "fusion_lon": 0.0, "lat": 38.9228715, "bike_id": "90197d68bdade3b1855bfca429344458", "type": "electric_scooter", "is_reserved": 0, "lon": -77.0233335}, {"fusion_lat": 0.0, "name": "b1315ecd8908170f90f35d0f930ee2c5", "is_disabled": 0, "rental_uris": {"android": "https://dc.lft.to/lastmile_qr_scan", "ios": "https://dc.lft.to/lastmile_qr_scan"}, "fusion_lon": 0.0, "lat": 38.883183833333334, "bike_id": "b1315ecd8908170f90f35d0f930ee2c5", "type": "electric_scooter", "is_reserved": 0, "lon": -77.01378316666667}, {"fusion_lat": 0.0, "name": "50ef9049cf7e323506485196ade269d0", "is_disabled": 0, "rental_uris": {"android": "https://dc.lft.to/lastmile_qr_scan", "ios": "https://dc.lft.to/lastmile_qr_scan"}, "fusion_lon": 0.0, "lat": 38.892196, "bike_id": "50ef9049cf7e323506485196ade269d0", "type": "electric_scooter", "is_reserved": 0, "lon": -77.03222733333334}, {"fusion_lat": 0.0, "name": "700efb4c0419fc931a0b18a40fc2dcfc", "is_disabled": 0, "rental_uris": {"android": "https://dc.lft.to/lastmile_qr_scan", "ios": "https://dc.lft.to/lastmile_qr_scan"}, "fusion_lon": 0.0, "lat": 38.902619, "bike_id": "700efb4c0419fc931a0b18a40fc2dcfc", "type": "electric_scooter", "is_reserved": 0, "lon": -77.03344183333333}, {"fusion_lat": 0.0, "name": "31f3d7325a6fe04950faf0b2c8c87042", "is_disabled": 0, "rental_uris": {"android": "https://dc.lft.to/lastmile_qr_scan", "ios": "https://dc.lft.to/lastmile_qr_scan"}, "fusion_lon": 0.0, "lat": 38.92448433333333, "bike_id": "31f3d7325a6fe04950faf0b2c8c87042", "type": "electric_scooter", "is_reserved": 0, "lon": -77.00875266666667}, {"fusion_lat": 0.0, "name": "eb7e87c98d916f74ff7d3f439e020d64", "is_disabled": 0, "rental_uris": {"android": "https://dc.lft.to/lastmile_qr_scan", "ios": "https://dc.lft.to/lastmile_qr_scan"}, "fusion_lon": 0.0, "lat": 38.88985533333334, "bike_id": "eb7e87c98d916f74ff7d3f439e020d64", "type": "electric_scooter", "is_reserved": 0, "lon": -77.0033445}, {"fusion_lat": 0.0, "name": "36481d4fc967168ebc8d8443f028ad1a", "is_disabled": 0, "rental_uris": {"android": "https://dc.lft.to/lastmile_qr_scan", "ios": "https://dc.lft.to/lastmile_qr_scan"}, "fusion_lon": 0.0, "lat": 38.92248466666667, "bike_id": "36481d4fc967168ebc8d8443f028ad1a", "type": "electric_scooter", "is_reserved": 0, "lon": -77.03086933333333}, {"fusion_lat": 0.0, "name": "693d7d4b7fdfe82111683f54f4cc61e0", "is_disabled": 0, "rental_uris": {"android": "https://dc.lft.to/lastmile_qr_scan", "ios": "https://dc.lft.to/lastmile_qr_scan"}, "fusion_lon": 0.0, "lat": 38.90727433333333, "bike_id": "693d7d4b7fdfe82111683f54f4cc61e0", "type": "electric_scooter", "is_reserved": 0, "lon": -77.02801333333333}, {"fusion_lat": 0.0, "name": "65928158a9ae98b42d706ffdcf9607eb", "is_disabled": 0, "rental_uris": {"android": "https://dc.lft.to/lastmile_qr_scan", "ios": "https://dc.lft.to/lastmile_qr_scan"}, "fusion_lon": 0.0, "lat": 38.908396, "bike_id": "65928158a9ae98b42d706ffdcf9607eb", "type": "electric_bike", "is_reserved": 0, "lon": -77.043604}, {"fusion_lat": 0.0, "name": "7a1e7fb734be594287e764f5c88f1c61", "is_disabled": 0, "rental_uris": {"android": "https://dc.lft.to/lastmile_qr_scan", "ios": "https://dc.lft.to/lastmile_qr_scan"}, "fusion_lon": 0.0, "lat": 38.90626616666667, "bike_id": "7a1e7fb734be594287e764f5c88f1c61", "type": "electric_scooter", "is_reserved": 0, "lon": -77.02532166666667}, {"fusion_lat": 0.0, "name": "1779cf6068241f0f1081f06b5dfd0c48", "is_disabled": 0, "rental_uris": {"android": "https://dc.lft.to/lastmile_qr_scan", "ios": "https://dc.lft.to/lastmile_qr_scan"}, "fusion_lon": 0.0, "lat": 38.92067933333333, "bike_id": "1779cf6068241f0f1081f06b5dfd0c48", "type": "electric_scooter", "is_reserved": 0, "lon": -77.01472933333334}, {"fusion_lat": 0.0, "name": "106471219ad796807ae5c1f6ff3f580b", "is_disabled": 0, "rental_uris": {"android": "https://dc.lft.to/lastmile_qr_scan", "ios": "https://dc.lft.to/lastmile_qr_scan"}, "fusion_lon": 0.0, "lat": 38.782645333333335, "bike_id": "106471219ad796807ae5c1f6ff3f580b", "type": "electric_bike", "is_reserved": 0, "lon": -77.0159945}, {"fusion_lat": 0.0, "name": "d5d2ba9ecab72cb920f17059be642c7b", "is_disabled": 0, "rental_uris": {"android": "https://dc.lft.to/lastmile_qr_scan", "ios": "https://dc.lft.to/lastmile_qr_scan"}, "fusion_lon": 0.0, "lat": 38.854466, "bike_id": "d5d2ba9ecab72cb920f17059be642c7b", "type": "electric_scooter", "is_reserved": 0, "lon": -76.98579116666667}, {"fusion_lat": 0.0, "name": "963d1de03ee72db3592768ca969c0ff0", "is_disabled": 0, "rental_uris": {"android": "https://dc.lft.to/lastmile_qr_scan", "ios": "https://dc.lft.to/lastmile_qr_scan"}, "fusion_lon": 0.0, "lat": 38.91323166666667, "bike_id": "963d1de03ee72db3592768ca969c0ff0", "type": "electric_scooter", "is_reserved": 0, "lon": -77.03202016666667}, {"fusion_lat": 0.0, "name": "0dd97a92b98c85a2f8d94727fa5a6e12", "is_disabled": 0, "rental_uris": {"android": "https://dc.lft.to/lastmile_qr_scan", "ios": "https://dc.lft.to/lastmile_qr_scan"}, "fusion_lon": 0.0, "lat": 38.91553316666667, "bike_id": "0dd97a92b98c85a2f8d94727fa5a6e12", "type": "electric_scooter", "is_reserved": 0, "lon": -77.03863916666667}, {"fusion_lat": 0.0, "name": "f1a87c0914388c288e1c040c4fdc0164", "is_disabled": 0, "rental_uris": {"android": "https://dc.lft.to/lastmile_qr_scan", "ios": "https://dc.lft.to/lastmile_qr_scan"}, "fusion_lon": 0.0, "lat": 38.920427833333335, "bike_id": "f1a87c0914388c288e1c040c4fdc0164", "type": "electric_scooter", "is_reserved": 0, "lon": -77.01795733333333}, {"fusion_lat": 0.0, "name": "aca2c78fd6a4fd87e3fb4efd62cda4e9", "is_disabled": 0, "rental_uris": {"android": "https://dc.lft.to/lastmile_qr_scan", "ios": "https://dc.lft.to/lastmile_qr_scan"}, "fusion_lon": 0.0, "lat": 38.902576333333336, "bike_id": "aca2c78fd6a4fd87e3fb4efd62cda4e9", "type": "electric_scooter", "is_reserved": 0, "lon": -77.05320616666667}, {"fusion_lat": 0.0, "name": "68822fcde63c0aabf4f65d0c33a19835", "is_disabled": 0, "rental_uris": {"android": "https://dc.lft.to/lastmile_qr_scan", "ios": "https://dc.lft.to/lastmile_qr_scan"}, "fusion_lon": 0.0, "lat": 38.89698933333333, "bike_id": "68822fcde63c0aabf4f65d0c33a19835", "type": "electric_scooter", "is_reserved": 0, "lon": -77.01299516666667}, {"fusion_lat": 0.0, "name": "8cc675fd7e4c3ddd267866950ac79d2a", "is_disabled": 0, "rental_uris": {"android": "https://dc.lft.to/lastmile_qr_scan", "ios": "https://dc.lft.to/lastmile_qr_scan"}, "fusion_lon": 0.0, "lat": 38.94190366666667, "bike_id": "8cc675fd7e4c3ddd267866950ac79d2a", "type": "electric_scooter", "is_reserved": 0, "lon": -77.02533083333333}, {"fusion_lat": 0.0, "name": "2075865f3405672ffad16683850a531d", "is_disabled": 0, "rental_uris": {"android": "https://dc.lft.to/lastmile_qr_scan", "ios": "https://dc.lft.to/lastmile_qr_scan"}, "fusion_lon": 0.0, "lat": 38.96183533333333, "bike_id": "2075865f3405672ffad16683850a531d", "type": "electric_bike", "is_reserved": 0, "lon": -77.0526605}, {"fusion_lat": 0.0, "name": "420d0d8560d2a9caca690ad043c2c224", "is_disabled": 0, "rental_uris": {"android": "https://dc.lft.to/lastmile_qr_scan", "ios": "https://dc.lft.to/lastmile_qr_scan"}, "fusion_lon": 0.0, "lat": 38.907972, "bike_id": "420d0d8560d2a9caca690ad043c2c224", "type": "electric_scooter", "is_reserved": 0, "lon": -77.0385785}, {"fusion_lat": 0.0, "name": "c4cbb913ad3138cc8a1577f74b8c66d5", "is_disabled": 0, "rental_uris": {"android": "https://dc.lft.to/lastmile_qr_scan", "ios": "https://dc.lft.to/lastmile_qr_scan"}, "fusion_lon": 0.0, "lat": 38.91259483333333, "bike_id": "c4cbb913ad3138cc8a1577f74b8c66d5", "type": "electric_scooter", "is_reserved": 0, "lon": -77.03864933333334}, {"fusion_lat": 0.0, "name": "5e1c25370e84caa1b3213fdbcd73c08a", "is_disabled": 0, "rental_uris": {"android": "https://dc.lft.to/lastmile_qr_scan", "ios": "https://dc.lft.to/lastmile_qr_scan"}, "fusion_lon": 0.0, "lat": 38.900143166666666, "bike_id": "5e1c25370e84caa1b3213fdbcd73c08a", "type": "electric_scooter", "is_reserved": 0, "lon": -77.01201533333334}, {"fusion_lat": 0.0, "name": "bec08f580b989f136700c73292873cd2", "is_disabled": 0, "rental_uris": {"android": "https://dc.lft.to/lastmile_qr_scan", "ios": "https://dc.lft.to/lastmile_qr_scan"}, "fusion_lon": 0.0, "lat": 38.901173666666665, "bike_id": "bec08f580b989f136700c73292873cd2", "type": "electric_scooter", "is_reserved": 0, "lon": -77.0275225}, {"fusion_lat": 0.0, "name": "a196efbdf404a8cdc3efc29f1e0937bf", "is_disabled": 0, "rental_uris": {"android": "https://dc.lft.to/lastmile_qr_scan", "ios": "https://dc.lft.to/lastmile_qr_scan"}, "fusion_lon": 0.0, "lat": 38.89877383333334, "bike_id": "a196efbdf404a8cdc3efc29f1e0937bf", "type": "electric_scooter", "is_reserved": 0, "lon": -77.03317766666666}, {"fusion_lat": 0.0, "name": "1d9f2b1ce31888744c7c4590401cb59b", "is_disabled": 0, "rental_uris": {"android": "https://dc.lft.to/lastmile_qr_scan", "ios": "https://dc.lft.to/lastmile_qr_scan"}, "fusion_lon": 0.0, "lat": 38.92672433333333, "bike_id": "1d9f2b1ce31888744c7c4590401cb59b", "type": "electric_scooter", "is_reserved": 0, "lon": -77.02777766666667}, {"fusion_lat": 0.0, "name": "31c4f2079e067a716697f468ba9207c3", "is_disabled": 0, "rental_uris": {"android": "https://dc.lft.to/lastmile_qr_scan", "ios": "https://dc.lft.to/lastmile_qr_scan"}, "fusion_lon": 0.0, "lat": 38.9243405, "bike_id": "31c4f2079e067a716697f468ba9207c3", "type": "electric_scooter", "is_reserved": 0, "lon": -77.04473616666667}, {"fusion_lat": 0.0, "name": "f75e6695978fa58306607cece7e18fea", "is_disabled": 0, "rental_uris": {"android": "https://dc.lft.to/lastmile_qr_scan", "ios": "https://dc.lft.to/lastmile_qr_scan"}, "fusion_lon": 0.0, "lat": 38.97287683333333, "bike_id": "f75e6695978fa58306607cece7e18fea", "type": "electric_scooter", "is_reserved": 0, "lon": -77.01158783333334}, {"fusion_lat": 0.0, "name": "e947cbd3a4a70c644e7744c21bef9ff7", "is_disabled": 0, "rental_uris": {"android": "https://dc.lft.to/lastmile_qr_scan", "ios": "https://dc.lft.to/lastmile_qr_scan"}, "fusion_lon": 0.0, "lat": 38.91547833333333, "bike_id": "e947cbd3a4a70c644e7744c21bef9ff7", "type": "electric_scooter", "is_reserved": 0, "lon": -77.0118335}, {"fusion_lat": 0.0, "name": "358b29cd25e50ad9f7c7b04842444c58", "is_disabled": 0, "rental_uris": {"android": "https://dc.lft.to/lastmile_qr_scan", "ios": "https://dc.lft.to/lastmile_qr_scan"}, "fusion_lon": 0.0, "lat": 38.883883, "bike_id": "358b29cd25e50ad9f7c7b04842444c58", "type": "electric_scooter", "is_reserved": 0, "lon": -76.9856095}, {"fusion_lat": 0.0, "name": "826e3cbeee54f9d517f06e3d489a8d9a", "is_disabled": 0, "rental_uris": {"android": "https://dc.lft.to/lastmile_qr_scan", "ios": "https://dc.lft.to/lastmile_qr_scan"}, "fusion_lon": 0.0, "lat": 38.87372966666667, "bike_id": "826e3cbeee54f9d517f06e3d489a8d9a", "type": "electric_scooter", "is_reserved": 0, "lon": -77.000568}, {"fusion_lat": 0.0, "name": "b7060645816a5dd6da9024ac07386d54", "is_disabled": 0, "rental_uris": {"android": "https://dc.lft.to/lastmile_qr_scan", "ios": "https://dc.lft.to/lastmile_qr_scan"}, "fusion_lon": 0.0, "lat": 38.9133975, "bike_id": "b7060645816a5dd6da9024ac07386d54", "type": "electric_bike", "is_reserved": 0, "lon": -76.98891833333333}, {"fusion_lat": 0.0, "name": "97983d858cdd34339aba03a31c88d994", "is_disabled": 0, "rental_uris": {"android": "https://dc.lft.to/lastmile_qr_scan", "ios": "https://dc.lft.to/lastmile_qr_scan"}, "fusion_lon": 0.0, "lat": 38.892170166666666, "bike_id": "97983d858cdd34339aba03a31c88d994", "type": "electric_scooter", "is_reserved": 0, "lon": -77.0221635}, {"fusion_lat": 0.0, "name": "a9d2b01cc5184ef9c780814109b0459a", "is_disabled": 0, "rental_uris": {"android": "https://dc.lft.to/lastmile_qr_scan", "ios": "https://dc.lft.to/lastmile_qr_scan"}, "fusion_lon": 0.0, "lat": 38.90978483333333, "bike_id": "a9d2b01cc5184ef9c780814109b0459a", "type": "electric_scooter", "is_reserved": 0, "lon": -77.03444333333333}, {"fusion_lat": 0.0, "name": "b6d9d9c73f9b877b80b80586315f594d", "is_disabled": 0, "rental_uris": {"android": "https://dc.lft.to/lastmile_qr_scan", "ios": "https://dc.lft.to/lastmile_qr_scan"}, "fusion_lon": 0.0, "lat": 38.92686666666667, "bike_id": "b6d9d9c73f9b877b80b80586315f594d", "type": "electric_scooter", "is_reserved": 0, "lon": -77.03145283333333}, {"fusion_lat": 0.0, "name": "5a85d66dd4ea2ecf20738b25e18ee58a", "is_disabled": 0, "rental_uris": {"android": "https://dc.lft.to/lastmile_qr_scan", "ios": "https://dc.lft.to/lastmile_qr_scan"}, "fusion_lon": 0.0, "lat": 38.90133383333333, "bike_id": "5a85d66dd4ea2ecf20738b25e18ee58a", "type": "electric_scooter", "is_reserved": 0, "lon": -76.99120916666666}, {"fusion_lat": 0.0, "name": "3af15af17b50f603f507bf37f7224c91", "is_disabled": 0, "rental_uris": {"android": "https://dc.lft.to/lastmile_qr_scan", "ios": "https://dc.lft.to/lastmile_qr_scan"}, "fusion_lon": 0.0, "lat": 38.91975566666667, "bike_id": "3af15af17b50f603f507bf37f7224c91", "type": "electric_scooter", "is_reserved": 0, "lon": -77.0409015}, {"fusion_lat": 0.0, "name": "d4511ffaf81e594723f3697b9a240849", "is_disabled": 0, "rental_uris": {"android": "https://dc.lft.to/lastmile_qr_scan", "ios": "https://dc.lft.to/lastmile_qr_scan"}, "fusion_lon": 0.0, "lat": 38.8781545, "bike_id": "d4511ffaf81e594723f3697b9a240849", "type": "electric_scooter", "is_reserved": 0, "lon": -77.01530483333333}, {"fusion_lat": 0.0, "name": "59edb480480a299ec5c1238a0b5b12bf", "is_disabled": 0, "rental_uris": {"android": "https://dc.lft.to/lastmile_qr_scan", "ios": "https://dc.lft.to/lastmile_qr_scan"}, "fusion_lon": 0.0, "lat": 38.88301633333333, "bike_id": "59edb480480a299ec5c1238a0b5b12bf", "type": "electric_scooter", "is_reserved": 0, "lon": -76.94854216666667}, {"fusion_lat": 0.0, "name": "1b2538cdffe489464eb8504227abb52d", "is_disabled": 0, "rental_uris": {"android": "https://dc.lft.to/lastmile_qr_scan", "ios": "https://dc.lft.to/lastmile_qr_scan"}, "fusion_lon": 0.0, "lat": 38.907644833333336, "bike_id": "1b2538cdffe489464eb8504227abb52d", "type": "electric_scooter", "is_reserved": 0, "lon": -77.03849666666666}, {"fusion_lat": 0.0, "name": "35a97ebdf5ebcf413f9cd8921fec5493", "is_disabled": 0, "rental_uris": {"android": "https://dc.lft.to/lastmile_qr_scan", "ios": "https://dc.lft.to/lastmile_qr_scan"}, "fusion_lon": 0.0, "lat": 38.883122, "bike_id": "35a97ebdf5ebcf413f9cd8921fec5493", "type": "electric_bike", "is_reserved": 0, "lon": -77.0156195}, {"fusion_lat": 0.0, "name": "a0f3982fab7e58a720d712a52d9d5e9c", "is_disabled": 0, "rental_uris": {"android": "https://dc.lft.to/lastmile_qr_scan", "ios": "https://dc.lft.to/lastmile_qr_scan"}, "fusion_lon": 0.0, "lat": 38.886574, "bike_id": "a0f3982fab7e58a720d712a52d9d5e9c", "type": "electric_scooter", "is_reserved": 0, "lon": -77.0198785}, {"fusion_lat": 0.0, "name": "cad6e83ff88d4eafd60e135aee8c689c", "is_disabled": 0, "rental_uris": {"android": "https://dc.lft.to/lastmile_qr_scan", "ios": "https://dc.lft.to/lastmile_qr_scan"}, "fusion_lon": 0.0, "lat": 38.90616466666667, "bike_id": "cad6e83ff88d4eafd60e135aee8c689c", "type": "electric_scooter", "is_reserved": 0, "lon": -77.041443}, {"fusion_lat": 0.0, "name": "9a1269f3563cd6b8143d80b2faa04394", "is_disabled": 0, "rental_uris": {"android": "https://dc.lft.to/lastmile_qr_scan", "ios": "https://dc.lft.to/lastmile_qr_scan"}, "fusion_lon": 0.0, "lat": 38.9268335, "bike_id": "9a1269f3563cd6b8143d80b2faa04394", "type": "electric_scooter", "is_reserved": 0, "lon": -77.02541966666666}, {"fusion_lat": 0.0, "name": "2e0662c8641ca22d0fd42b5fa195de84", "is_disabled": 0, "rental_uris": {"android": "https://dc.lft.to/lastmile_qr_scan", "ios": "https://dc.lft.to/lastmile_qr_scan"}, "fusion_lon": 0.0, "lat": 38.94079033333333, "bike_id": "2e0662c8641ca22d0fd42b5fa195de84", "type": "electric_scooter", "is_reserved": 0, "lon": -77.05216416666667}, {"fusion_lat": 0.0, "name": "073e612357143f2aef2cc2cb8b981473", "is_disabled": 0, "rental_uris": {"android": "https://dc.lft.to/lastmile_qr_scan", "ios": "https://dc.lft.to/lastmile_qr_scan"}, "fusion_lon": 0.0, "lat": 38.807527666666665, "bike_id": "073e612357143f2aef2cc2cb8b981473", "type": "electric_bike", "is_reserved": 0, "lon": -77.09450433333333}, {"fusion_lat": 0.0, "name": "f3dc7c813dd9781deae92f892dc7a785", "is_disabled": 0, "rental_uris": {"android": "https://dc.lft.to/lastmile_qr_scan", "ios": "https://dc.lft.to/lastmile_qr_scan"}, "fusion_lon": 0.0, "lat": 38.854105, "bike_id": "f3dc7c813dd9781deae92f892dc7a785", "type": "electric_bike", "is_reserved": 0, "lon": -77.1207495}, {"fusion_lat": 0.0, "name": "6b89a943092fe5e9c1c3ad12130ccf1c", "is_disabled": 0, "rental_uris": {"android": "https://dc.lft.to/lastmile_qr_scan", "ios": "https://dc.lft.to/lastmile_qr_scan"}, "fusion_lon": 0.0, "lat": 38.91107, "bike_id": "6b89a943092fe5e9c1c3ad12130ccf1c", "type": "electric_scooter", "is_reserved": 0, "lon": -77.03840383333333}, {"fusion_lat": 0.0, "name": "29b16a0eb3064bc3bb381bebb26829b5", "is_disabled": 0, "rental_uris": {"android": "https://dc.lft.to/lastmile_qr_scan", "ios": "https://dc.lft.to/lastmile_qr_scan"}, "fusion_lon": 0.0, "lat": 38.91995133333333, "bike_id": "29b16a0eb3064bc3bb381bebb26829b5", "type": "electric_scooter", "is_reserved": 0, "lon": -77.07189483333333}, {"fusion_lat": 0.0, "name": "9bd3b16c142190987ed7ec2eea768b99", "is_disabled": 0, "rental_uris": {"android": "https://dc.lft.to/lastmile_qr_scan", "ios": "https://dc.lft.to/lastmile_qr_scan"}, "fusion_lon": 0.0, "lat": 38.90564916666666, "bike_id": "9bd3b16c142190987ed7ec2eea768b99", "type": "electric_scooter", "is_reserved": 0, "lon": -77.005695}, {"fusion_lat": 0.0, "name": "ea78d43e96225e2a31b05ebc65509e40", "is_disabled": 0, "rental_uris": {"android": "https://dc.lft.to/lastmile_qr_scan", "ios": "https://dc.lft.to/lastmile_qr_scan"}, "fusion_lon": 0.0, "lat": 38.899740333333334, "bike_id": "ea78d43e96225e2a31b05ebc65509e40", "type": "electric_scooter", "is_reserved": 0, "lon": -77.05264866666667}, {"fusion_lat": 0.0, "name": "4f0375b84e58effcb8ed1ac88f2efed6", "is_disabled": 0, "rental_uris": {"android": "https://dc.lft.to/lastmile_qr_scan", "ios": "https://dc.lft.to/lastmile_qr_scan"}, "fusion_lon": 0.0, "lat": 38.91742766666667, "bike_id": "4f0375b84e58effcb8ed1ac88f2efed6", "type": "electric_scooter", "is_reserved": 0, "lon": -76.97567416666666}, {"fusion_lat": 0.0, "name": "472f744f23386819be95bc4c36de978b", "is_disabled": 0, "rental_uris": {"android": "https://dc.lft.to/lastmile_qr_scan", "ios": "https://dc.lft.to/lastmile_qr_scan"}, "fusion_lon": 0.0, "lat": 38.905729, "bike_id": "472f744f23386819be95bc4c36de978b", "type": "electric_scooter", "is_reserved": 0, "lon": -77.02201833333334}, {"fusion_lat": 0.0, "name": "afff60ebf096ec426bdc0a87b21c51f0", "is_disabled": 0, "rental_uris": {"android": "https://dc.lft.to/lastmile_qr_scan", "ios": "https://dc.lft.to/lastmile_qr_scan"}, "fusion_lon": 0.0, "lat": 38.9231815, "bike_id": "afff60ebf096ec426bdc0a87b21c51f0", "type": "electric_scooter", "is_reserved": 0, "lon": -77.04041333333333}, {"fusion_lat": 0.0, "name": "8feab3ea5fb8722a1a9bb8e7d80be3ce", "is_disabled": 0, "rental_uris": {"android": "https://dc.lft.to/lastmile_qr_scan", "ios": "https://dc.lft.to/lastmile_qr_scan"}, "fusion_lon": 0.0, "lat": 38.931779166666665, "bike_id": "8feab3ea5fb8722a1a9bb8e7d80be3ce", "type": "electric_scooter", "is_reserved": 0, "lon": -77.02001366666667}, {"fusion_lat": 0.0, "name": "0ba61b3cacebe96bca639d43fe8aa0fe", "is_disabled": 0, "rental_uris": {"android": "https://dc.lft.to/lastmile_qr_scan", "ios": "https://dc.lft.to/lastmile_qr_scan"}, "fusion_lon": 0.0, "lat": 38.9233865, "bike_id": "0ba61b3cacebe96bca639d43fe8aa0fe", "type": "electric_scooter", "is_reserved": 0, "lon": -77.0522375}, {"fusion_lat": 0.0, "name": "df0b8bf8e5af7de2fb5b021fec453d29", "is_disabled": 0, "rental_uris": {"android": "https://dc.lft.to/lastmile_qr_scan", "ios": "https://dc.lft.to/lastmile_qr_scan"}, "fusion_lon": 0.0, "lat": 38.903505833333334, "bike_id": "df0b8bf8e5af7de2fb5b021fec453d29", "type": "electric_scooter", "is_reserved": 0, "lon": -76.97477083333334}, {"fusion_lat": 0.0, "name": "86d3ecd493ec05932fa469dbc0a7b943", "is_disabled": 0, "rental_uris": {"android": "https://dc.lft.to/lastmile_qr_scan", "ios": "https://dc.lft.to/lastmile_qr_scan"}, "fusion_lon": 0.0, "lat": 38.93464016666667, "bike_id": "86d3ecd493ec05932fa469dbc0a7b943", "type": "electric_scooter", "is_reserved": 0, "lon": -77.04116766666667}, {"fusion_lat": 0.0, "name": "08be5db11d1ff9eb8f0cf11c5745e1c2", "is_disabled": 0, "rental_uris": {"android": "https://dc.lft.to/lastmile_qr_scan", "ios": "https://dc.lft.to/lastmile_qr_scan"}, "fusion_lon": 0.0, "lat": 38.907964166666666, "bike_id": "08be5db11d1ff9eb8f0cf11c5745e1c2", "type": "electric_scooter", "is_reserved": 0, "lon": -77.042307}, {"fusion_lat": 0.0, "name": "99666232c0994b7d0404aab22805686f", "is_disabled": 0, "rental_uris": {"android": "https://dc.lft.to/lastmile_qr_scan", "ios": "https://dc.lft.to/lastmile_qr_scan"}, "fusion_lon": 0.0, "lat": 38.91775616666666, "bike_id": "99666232c0994b7d0404aab22805686f", "type": "electric_scooter", "is_reserved": 0, "lon": -77.02318683333333}, {"fusion_lat": 0.0, "name": "287d2931ba8286bd14ad6696be29fa40", "is_disabled": 0, "rental_uris": {"android": "https://dc.lft.to/lastmile_qr_scan", "ios": "https://dc.lft.to/lastmile_qr_scan"}, "fusion_lon": 0.0, "lat": 38.88733033333333, "bike_id": "287d2931ba8286bd14ad6696be29fa40", "type": "electric_scooter", "is_reserved": 0, "lon": -77.0151155}, {"fusion_lat": 0.0, "name": "5e7e682a909625ac0aa899e1ca99a427", "is_disabled": 0, "rental_uris": {"android": "https://dc.lft.to/lastmile_qr_scan", "ios": "https://dc.lft.to/lastmile_qr_scan"}, "fusion_lon": 0.0, "lat": 38.9246625, "bike_id": "5e7e682a909625ac0aa899e1ca99a427", "type": "electric_scooter", "is_reserved": 0, "lon": -77.0207345}, {"fusion_lat": 0.0, "name": "65dce393ffde5ee9c00058f7afec0ff2", "is_disabled": 0, "rental_uris": {"android": "https://dc.lft.to/lastmile_qr_scan", "ios": "https://dc.lft.to/lastmile_qr_scan"}, "fusion_lon": 0.0, "lat": 38.93094, "bike_id": "65dce393ffde5ee9c00058f7afec0ff2", "type": "electric_scooter", "is_reserved": 0, "lon": -77.01999666666667}, {"fusion_lat": 0.0, "name": "3ea34444fd1984b167d0c9106fd62eb4", "is_disabled": 0, "rental_uris": {"android": "https://dc.lft.to/lastmile_qr_scan", "ios": "https://dc.lft.to/lastmile_qr_scan"}, "fusion_lon": 0.0, "lat": 38.9010655, "bike_id": "3ea34444fd1984b167d0c9106fd62eb4", "type": "electric_scooter", "is_reserved": 0, "lon": -76.9304105},