{"data": {"bikes": [{"bike_id": "e4ea1240e19c4e6797ddd2822daee16f", "type": "electric_scooter", "is_disabled": 0, "lat": 38.866206166666665, "rental_uris": {"ios": "https://dc.lft.to/lastmile_qr_scan", "android": "https://dc.lft.to/lastmile_qr_scan"}, "is_reserved": 0, "fusion_lon": 0.0, "fusion_lat": 0.0, "lon": -76.98718416666667, "name": "e4ea1240e19c4e6797ddd2822daee16f"}, {"bike_id": "388c463e9dd82beab50b85277280f0f3", "type": "electric_scooter", "is_disabled": 0, "lat": 38.922791333333336, "rental_uris": {"ios": "https://dc.lft.to/lastmile_qr_scan", "android": "https://dc.lft.to/lastmile_qr_scan"}, "is_reserved": 0, "fusion_lon": 0.0, "fusion_lat": 0.0, "lon": -77.04463216666667, "name": "388c463e9dd82beab50b85277280f0f3"}, {"bike_id": "f52a1bc3bfd546b8a876bdf24b3873d6", "type": "electric_scooter", "is_disabled": 0, "lat": 38.896386, "rental_uris": {"ios": "https://dc.lft.to/lastmile_qr_scan", "android": "https://dc.lft.to/lastmile_qr_scan"}, "is_reserved": 0, "fusion_lon": 0.0, "fusion_lat": 0.0, "lon": -77.0709925, "name": "f52a1bc3bfd546b8a876bdf24b3873d6"}, {"bike_id": "6bd9d2cef7b9b438b152c3646b009aae", "type": "electric_scooter", "is_disabled": 0, "lat": 38.910158333333335, "rental_uris": {"ios": "https://dc.lft.to/lastmile_qr_scan", "android": "https://dc.lft.to/lastmile_qr_scan"}, "is_reserved": 0, "fusion_lon": 0.0, "fusion_lat": 0.0, "lon": -77.03202, "name": "6bd9d2cef7b9b438b152c3646b009aae"}, {"bike_id": "a201119d3f1a1667a28f20c8209ae2ce", "type": "electric_scooter", "is_disabled": 0, "lat": 38.907882666666666, "rental_uris": {"ios": "https://dc.lft.to/lastmile_qr_scan", "android": "https://dc.lft.to/lastmile_qr_scan"}, "is_reserved": 0, "fusion_lon": 0.0, "fusion_lat": 0.0, "lon": -77.048245, "name": "a201119d3f1a1667a28f20c8209ae2ce"}, {"bike_id": "8fc162217e7e5ed68bd578377e395630", "type": "electric_bike", "is_disabled": 0, "lat": 38.91560316666666, "rental_uris": {"ios": "https://dc.lft.to/lastmile_qr_scan", "android": "https://dc.lft.to/lastmile_qr_scan"}, "is_reserved": 0, "fusion_lon": 0.0, "fusion_lat": 0.0, "lon": -77.03326833333334, "name": "8fc162217e7e5ed68bd578377e395630"}, {"bike_id": "5a5452e5f3aa5f2e25249fdee1a71d97", "type": "electric_scooter", "is_disabled": 0, "lat": 38.918367, "rental_uris": {"ios": "https://dc.lft.to/lastmile_qr_scan", "android": "https://dc.lft.to/lastmile_qr_scan"}, "is_reserved": 0, "fusion_lon": 0.0, "fusion_lat": 0.0, "lon": -77.0230665, "name": "5a5452e5f3aa5f2e25249fdee1a71d97"}, {"bike_id": "1c1e967c7448d9c81088153950e6870d", "type": "electric_scooter", "is_disabled": 0, "lat": 38.93172633333333, "rental_uris": {"ios": "https://dc.lft.to/lastmile_qr_scan", "android": "https://dc.lft.to/lastmile_qr_scan"}, "is_reserved": 0, "fusion_lon": 0.0, "fusion_lat": 0.0, "lon": -77.03165516666667, "name": "1c1e967c7448d9c81088153950e6870d"}, {"bike_id": "946efcd781d27b80c1d2fe166099b521", "type": "electric_scooter", "is_disabled": 0, "lat": 38.901375333333334, "rental_uris": {"ios": "https://dc.lft.to/lastmile_qr_scan", "android": "https://dc.lft.to/lastmile_qr_scan"}, "is_reserved": 0, "fusion_lon": 0.0, "fusion_lat": 0.0, "lon": -77.02382433333334, "name": "946efcd781d27b80c1d2fe166099b521"}, {"bike_id": "4b40a66bb4e6b8a44cebf526f76017d8", "type": "electric_scooter", "is_disabled": 0, "lat": 38.8877575, "rental_uris": {"ios": "https://dc.lft.to/lastmile_qr_scan", "android": "https://dc.lft.to/lastmile_qr_scan"}, "is_reserved": 0, "fusion_lon": 0.0, "fusion_lat": 0.0, "lon": -76.95524433333334, "name": "4b40a66bb4e6b8a44cebf526f76017d8"}, {"bike_id": "fedc4ac1cd362c80b8dfdd209449761d", "type": "electric_scooter", "is_disabled": 0, "lat": 38.915619166666666, "rental_uris": {"ios": "https://dc.lft.to/lastmile_qr_scan", "android": "https://dc.lft.to/lastmile_qr_scan"}, "is_reserved": 0, "fusion_lon": 0.0, "fusion_lat": 0.0, "lon": -77.032647, "name": "fedc4ac1cd362c80b8dfdd209449761d"}, {"bike_id": "4b89eace8dbfb440d823b755cfb894ef", "type": "electric_scooter", "is_disabled": 0, "lat": 38.901339, "rental_uris": {"ios": "https://dc.lft.to/lastmile_qr_scan", "android": "https://dc.lft.to/lastmile_qr_scan"}, "is_reserved": 0, "fusion_lon": 0.0, "fusion_lat": 0.0, "lon": -77.032381, "name": "4b89eace8dbfb440d823b755cfb894ef"}, {"bike_id": "b44f6d866765cbf01d81f51a22ca7f0f", "type": "electric_scooter", "is_disabled": 0, "lat": 38.9094905, "rental_uris": {"ios": "https://dc.lft.to/lastmile_qr_scan", "android": "https://dc.lft.to/lastmile_qr_scan"}, "is_reserved": 0, "fusion_lon": 0.0, "fusion_lat": 0.0, "lon": -77.05567866666667, "name": "b44f6d866765cbf01d81f51a22ca7f0f"}, {"bike_id": "cc3e592fc06001b25dc5a44910d4b555", "type": "electric_scooter", "is_disabled": 0, "lat": 38.90740133333333, "rental_uris": {"ios": "https://dc.lft.to/lastmile_qr_scan", "android": "https://dc.lft.to/lastmile_qr_scan"}, "is_reserved": 0, "fusion_lon": 0.0, "fusion_lat": 0.0, "lon": -77.0237675, "name": "cc3e592fc06001b25dc5a44910d4b555"}, {"bike_id": "0e51933324909761f94d9ff9b280d7ba", "type": "electric_scooter", "is_disabled": 0, "lat": 38.8986375, "rental_uris": {"ios": "https://dc.lft.to/lastmile_qr_scan", "android": "https://dc.lft.to/lastmile_qr_scan"}, "is_reserved": 0, "fusion_lon": 0.0, "fusion_lat": 0.0, "lon": -77.02675133333334, "name": "0e51933324909761f94d9ff9b280d7ba"}, {"bike_id": "2c56c5d47735c6c5686546377db31201", "type": "electric_scooter", "is_disabled": 0, "lat": 38.866814166666664, "rental_uris": {"ios": "https://dc.lft.to/lastmile_qr_scan", "android": "https://dc.lft.to/lastmile_qr_scan"}, "is_reserved": 0, "fusion_lon": 0.0, "fusion_lat": 0.0, "lon": -76.98578033333334, "name": "2c56c5d47735c6c5686546377db31201"}, {"bike_id": "e27a6a898b80783e731635b809f66ecb", "type": "electric_scooter", "is_disabled": 0, "lat": 38.91852466666667, "rental_uris": {"ios": "https://dc.lft.to/lastmile_qr_scan", "android": "https://dc.lft.to/lastmile_qr_scan"}, "is_reserved": 0, "fusion_lon": 0.0, "fusion_lat": 0.0, "lon": -77.04179533333334, "name": "e27a6a898b80783e731635b809f66ecb"}, {"bike_id": "7afd2036fa093b1d4964a400eecea653", "type": "electric_bike", "is_disabled": 0, "lat": 38.93484016666667, "rental_uris": {"ios": "https://dc.lft.to/lastmile_qr_scan", "android": "https://dc.lft.to/lastmile_qr_scan"}, "is_reserved": 0, "fusion_lon": 0.0, "fusion_lat": 0.0, "lon": -77.03018116666667, "name": "7afd2036fa093b1d4964a400eecea653"}, {"bike_id": "c8cf6af5b2704ecee31cd2b4c49fa042", "type": "electric_scooter", "is_disabled": 0, "lat": 38.902355166666666, "rental_uris": {"ios": "https://dc.lft.to/lastmile_qr_scan", "android": "https://dc.lft.to/lastmile_qr_scan"}, "is_reserved": 0, "fusion_lon": 0.0, "fusion_lat": 0.0, "lon": -77.04328066666666, "name": "c8cf6af5b2704ecee31cd2b4c49fa042"}, {"bike_id": "8265d2c265bacced8fbfe02ba48ccd04", "type": "electric_scooter", "is_disabled": 0, "lat": 38.878656, "rental_uris": {"ios": "https://dc.lft.to/lastmile_qr_scan", "android": "https://dc.lft.to/lastmile_qr_scan"}, "is_reserved": 0, "fusion_lon": 0.0, "fusion_lat": 0.0, "lon": -76.96986166666667, "name": "8265d2c265bacced8fbfe02ba48ccd04"}, {"bike_id": "5a2f72b88e44673fd79ece7564fe47e4", "type": "electric_scooter", "is_disabled": 0, "lat": 38.888501, "rental_uris": {"ios": "https://dc.lft.to/lastmile_qr_scan", "android": "https://dc.lft.to/lastmile_qr_scan"}, "is_reserved": 0, "fusion_lon": 0.0, "fusion_lat": 0.0, "lon": -76.92682966666666, "name": "5a2f72b88e44673fd79ece7564fe47e4"}, {"bike_id": "b1bf863ea1bd388f0fecd7de05db95b1", "type": "electric_scooter", "is_disabled": 0, "lat": 38.87418533333334, "rental_uris": {"ios": "https://dc.lft.to/lastmile_qr_scan", "android": "https://dc.lft.to/lastmile_qr_scan"}, "is_reserved": 0, "fusion_lon": 0.0, "fusion_lat": 0.0, "lon": -76.96908416666666, "name": "b1bf863ea1bd388f0fecd7de05db95b1"}, {"bike_id": "1cc4681dc714779248e51f98700bfa64", "type": "electric_scooter", "is_disabled": 0, "lat": 38.92475983333333, "rental_uris": {"ios": "https://dc.lft.to/lastmile_qr_scan", "android": "https://dc.lft.to/lastmile_qr_scan"}, "is_reserved": 0, "fusion_lon": 0.0, "fusion_lat": 0.0, "lon": -77.02834233333333, "name": "1cc4681dc714779248e51f98700bfa64"}, {"bike_id": "bb9c0fd7be7b896d16da45de9276dcc6", "type": "electric_scooter", "is_disabled": 0, "lat": 38.92914366666667, "rental_uris": {"ios": "https://dc.lft.to/lastmile_qr_scan", "android": "https://dc.lft.to/lastmile_qr_scan"}, "is_reserved": 0, "fusion_lon": 0.0, "fusion_lat": 0.0, "lon": -77.02093683333334, "name": "bb9c0fd7be7b896d16da45de9276dcc6"}, {"bike_id": "7884644ddb44179e2b593a1e55321a2a", "type": "electric_scooter", "is_disabled": 0, "lat": 38.90648066666667, "rental_uris": {"ios": "https://dc.lft.to/lastmile_qr_scan", "android": "https://dc.lft.to/lastmile_qr_scan"}, "is_reserved": 0, "fusion_lon": 0.0, "fusion_lat": 0.0, "lon": -77.014666, "name": "7884644ddb44179e2b593a1e55321a2a"}, {"bike_id": "1dde4ba8c66b19483d1d56343f958df2", "type": "electric_scooter", "is_disabled": 0, "lat": 38.90945133333334, "rental_uris": {"ios": "https://dc.lft.to/lastmile_qr_scan", "android": "https://dc.lft.to/lastmile_qr_scan"}, "is_reserved": 0, "fusion_lon": 0.0, "fusion_lat": 0.0, "lon": -77.05564066666666, "name": "1dde4ba8c66b19483d1d56343f958df2"}, {"bike_id": "aa6b85e68cd3b1c7d783eb191dabaf41", "type": "electric_scooter", "is_disabled": 0, "lat": 38.964985, "rental_uris": {"ios": "https://dc.lft.to/lastmile_qr_scan", "android": "https://dc.lft.to/lastmile_qr_scan"}, "is_reserved": 0, "fusion_lon": 0.0, "fusion_lat": 0.0, "lon": -77.00202516666667, "name": "aa6b85e68cd3b1c7d783eb191dabaf41"}, {"bike_id": "8783d6b043e3cd078157c9ab54007d60", "type": "electric_scooter", "is_disabled": 0, "lat": 38.90949166666667, "rental_uris": {"ios": "https://dc.lft.to/lastmile_qr_scan", "android": "https://dc.lft.to/lastmile_qr_scan"}, "is_reserved": 0, "fusion_lon": 0.0, "fusion_lat": 0.0, "lon": -77.04827033333333, "name": "8783d6b043e3cd078157c9ab54007d60"}, {"bike_id": "549ace7463a73ab7f3fb55868fc76cee", "type": "electric_scooter", "is_disabled": 0, "lat": 38.909815333333334, "rental_uris": {"ios": "https://dc.lft.to/lastmile_qr_scan", "android": "https://dc.lft.to/lastmile_qr_scan"}, "is_reserved": 0, "fusion_lon": 0.0, "fusion_lat": 0.0, "lon": -77.01517, "name": "549ace7463a73ab7f3fb55868fc76cee"}, {"bike_id": "344736369abc2a4358d01a4295030afa", "type": "electric_scooter", "is_disabled": 0, "lat": 38.9114435, "rental_uris": {"ios": "https://dc.lft.to/lastmile_qr_scan", "android": "https://dc.lft.to/lastmile_qr_scan"}, "is_reserved": 0, "fusion_lon": 0.0, "fusion_lat": 0.0, "lon": -77.04430283333333, "name": "344736369abc2a4358d01a4295030afa"}, {"bike_id": "960ba1fc888919bb8db4ac88084eaef2", "type": "electric_scooter", "is_disabled": 0, "lat": 38.899692, "rental_uris": {"ios": "https://dc.lft.to/lastmile_qr_scan", "android": "https://dc.lft.to/lastmile_qr_scan"}, "is_reserved": 0, "fusion_lon": 0.0, "fusion_lat": 0.0, "lon": -77.01619633333334, "name": "960ba1fc888919bb8db4ac88084eaef2"}, {"bike_id": "c9696b8525746831b16a42fd003cca79", "type": "electric_scooter", "is_disabled": 0, "lat": 38.84433666666666, "rental_uris": {"ios": "https://dc.lft.to/lastmile_qr_scan", "android": "https://dc.lft.to/lastmile_qr_scan"}, "is_reserved": 0, "fusion_lon": 0.0, "fusion_lat": 0.0, "lon": -76.998752, "name": "c9696b8525746831b16a42fd003cca79"}, {"bike_id": "5808a6c4f3bcfd50a7eb904184c7a496", "type": "electric_scooter", "is_disabled": 0, "lat": 38.9236495, "rental_uris": {"ios": "https://dc.lft.to/lastmile_qr_scan", "android": "https://dc.lft.to/lastmile_qr_scan"}, "is_reserved": 0, "fusion_lon": 0.0, "fusion_lat": 0.0, "lon": -77.05045366666667, "name": "5808a6c4f3bcfd50a7eb904184c7a496"}, {"bike_id": "be47d58884d54dd7d9c80fe81b350ac5", "type": "electric_scooter", "is_disabled": 0, "lat": 38.93395816666666, "rental_uris": {"ios": "https://dc.lft.to/lastmile_qr_scan", "android": "https://dc.lft.to/lastmile_qr_scan"}, "is_reserved": 0, "fusion_lon": 0.0, "fusion_lat": 0.0, "lon": -77.03521066666667, "name": "be47d58884d54dd7d9c80fe81b350ac5"}, {"bike_id": "073e17ae81cca8e84ca7c17a0ac441a9", "type": "electric_scooter", "is_disabled": 0, "lat": 38.938454166666666, "rental_uris": {"ios": "https://dc.lft.to/lastmile_qr_scan", "android": "https://dc.lft.to/lastmile_qr_scan"}, "is_reserved": 0, "fusion_lon": 0.0, "fusion_lat": 0.0, "lon": -77.0723805, "name": "073e17ae81cca8e84ca7c17a0ac441a9"}, {"bike_id": "9d66dcbd396e3679311cab3e9752d550", "type": "electric_scooter", "is_disabled": 0, "lat": 38.9077765, "rental_uris": {"ios": "https://dc.lft.to/lastmile_qr_scan", "android": "https://dc.lft.to/lastmile_qr_scan"}, "is_reserved": 0, "fusion_lon": 0.0, "fusion_lat": 0.0, "lon": -77.03186216666667, "name": "9d66dcbd396e3679311cab3e9752d550"}, {"bike_id": "ce7b791f88d4e67c7b2f41b5c6e43c2c", "type": "electric_scooter", "is_disabled": 0, "lat": 38.907778, "rental_uris": {"ios": "https://dc.lft.to/lastmile_qr_scan", "android": "https://dc.lft.to/lastmile_qr_scan"}, "is_reserved": 0, "fusion_lon": 0.0, "fusion_lat": 0.0, "lon": -77.07244683333333, "name": "ce7b791f88d4e67c7b2f41b5c6e43c2c"}, {"bike_id": "8a391f207107e96a7e23c93e25259bc6", "type": "electric_scooter", "is_disabled": 0, "lat": 38.9082955, "rental_uris": {"ios": "https://dc.lft.to/lastmile_qr_scan", "android": "https://dc.lft.to/lastmile_qr_scan"}, "is_reserved": 0, "fusion_lon": 0.0, "fusion_lat": 0.0, "lon": -77.02169666666667, "name": "8a391f207107e96a7e23c93e25259bc6"}, {"bike_id": "64546d64b7aa98ceae9794938393f5b8", "type": "electric_scooter", "is_disabled": 0, "lat": 38.8934105, "rental_uris": {"ios": "https://dc.lft.to/lastmile_qr_scan", "android": "https://dc.lft.to/lastmile_qr_scan"}, "is_reserved": 0, "fusion_lon": 0.0, "fusion_lat": 0.0, "lon": -76.9927015, "name": "64546d64b7aa98ceae9794938393f5b8"}, {"bike_id": "cbbf941f0db64a3a541d80ca0c0cb823", "type": "electric_bike", "is_disabled": 0, "lat": 38.90827483333333, "rental_uris": {"ios": "https://dc.lft.to/lastmile_qr_scan", "android": "https://dc.lft.to/lastmile_qr_scan"}, "is_reserved": 0, "fusion_lon": 0.0, "fusion_lat": 0.0, "lon": -76.94161233333334, "name": "cbbf941f0db64a3a541d80ca0c0cb823"}, {"bike_id": "c5b21e5da4c318a5572b87a02e128cfb", "type": "electric_scooter", "is_disabled": 0, "lat": 38.91705983333333, "rental_uris": {"ios": "https://dc.lft.to/lastmile_qr_scan", "android": "https://dc.lft.to/lastmile_qr_scan"}, "is_reserved": 0, "fusion_lon": 0.0, "fusion_lat": 0.0, "lon": -77.02484716666666, "name": "c5b21e5da4c318a5572b87a02e128cfb"}, {"bike_id": "068f9fb6f1abdc8bff6ab250810e78c6", "type": "electric_bike", "is_disabled": 0, "lat": 38.881264333333334, "rental_uris": {"ios": "https://dc.lft.to/lastmile_qr_scan", "android": "https://dc.lft.to/lastmile_qr_scan"}, "is_reserved": 0, "fusion_lon": 0.0, "fusion_lat": 0.0, "lon": -77.09356516666666, "name": "068f9fb6f1abdc8bff6ab250810e78c6"}, {"bike_id": "27de7a608459f95d770968c12c870067", "type": "electric_bike", "is_disabled": 0, "lat": 39.05494433333333, "rental_uris": {"ios": "https://dc.lft.to/lastmile_qr_scan", "android": "https://dc.lft.to/lastmile_qr_scan"}, "is_reserved": 0, "fusion_lon": 0.0, "fusion_lat": 0.0, "lon": -77.11790766666667, "name": "27de7a608459f95d770968c12c870067"}, {"bike_id": "4fbca30e4ea1082eee1fc959eef5a795", "type": "electric_scooter", "is_disabled": 0, "lat": 38.877416833333335, "rental_uris": {"ios": "https://dc.lft.to/lastmile_qr_scan", "android": "https://dc.lft.to/lastmile_qr_scan"}, "is_reserved": 0, "fusion_lon": 0.0, "fusion_lat": 0.0, "lon": -76.99725233333334, "name": "4fbca30e4ea1082eee1fc959eef5a795"}, {"bike_id": "804b126d59ba68c25f863c7b43dd3deb", "type": "electric_bike", "is_disabled": 0, "lat": 39.03733183333333, "rental_uris": {"ios": "https://dc.lft.to/lastmile_qr_scan", "android": "https://dc.lft.to/lastmile_qr_scan"}, "is_reserved": 0, "fusion_lon": 0.0, "fusion_lat": 0.0, "lon": -77.05475966666667, "name": "804b126d59ba68c25f863c7b43dd3deb"}, {"bike_id": "49d49161c319421acd9345a518d270a2", "type": "electric_scooter", "is_disabled": 0, "lat": 38.90558983333333, "rental_uris": {"ios": "https://dc.lft.to/lastmile_qr_scan", "android": "https://dc.lft.to/lastmile_qr_scan"}, "is_reserved": 0, "fusion_lon": 0.0, "fusion_lat": 0.0, "lon": -77.01801933333333, "name": "49d49161c319421acd9345a518d270a2"}, {"bike_id": "7e6a5d5aa15b38e4cca51bfec9878089", "type": "electric_scooter", "is_disabled": 0, "lat": 38.910078166666665, "rental_uris": {"ios": "https://dc.lft.to/lastmile_qr_scan", "android": "https://dc.lft.to/lastmile_qr_scan"}, "is_reserved": 0, "fusion_lon": 0.0, "fusion_lat": 0.0, "lon": -77.04012216666666, "name": "7e6a5d5aa15b38e4cca51bfec9878089"}, {"bike_id": "280edc56388771d565a63df798064b84", "type": "electric_scooter", "is_disabled": 0, "lat": 38.90075266666667, "rental_uris": {"ios": "https://dc.lft.to/lastmile_qr_scan", "android": "https://dc.lft.to/lastmile_qr_scan"}, "is_reserved": 0, "fusion_lon": 0.0, "fusion_lat": 0.0, "lon": -77.04930216666666, "name": "280edc56388771d565a63df798064b84"}, {"bike_id": "23baf717ee81264ef8acfdf6961af2eb", "type": "electric_scooter", "is_disabled": 0, "lat": 38.868286, "rental_uris": {"ios": "https://dc.lft.to/lastmile_qr_scan", "android": "https://dc.lft.to/lastmile_qr_scan"}, "is_reserved": 0, "fusion_lon": 0.0, "fusion_lat": 0.0, "lon": -77.01149733333334, "name": "23baf717ee81264ef8acfdf6961af2eb"}, {"bike_id": "29ad016f734d407e047cd889b74e5d8c", "type": "electric_scooter", "is_disabled": 0, "lat": 38.97202133333333, "rental_uris": {"ios": "https://dc.lft.to/lastmile_qr_scan", "android": "https://dc.lft.to/lastmile_qr_scan"}, "is_reserved": 0, "fusion_lon": 0.0, "fusion_lat": 0.0, "lon": -77.02664933333334, "name": "29ad016f734d407e047cd889b74e5d8c"}, {"bike_id": "391324bbf2b300f4164b2243dfa2a479", "type": "electric_scooter", "is_disabled": 0, "lat": 38.91472533333334, "rental_uris": {"ios": "https://dc.lft.to/lastmile_qr_scan", "android": "https://dc.lft.to/lastmile_qr_scan"}, "is_reserved": 0, "fusion_lon": 0.0, "fusion_lat": 0.0, "lon": -77.0198915, "name": "391324bbf2b300f4164b2243dfa2a479"}, {"bike_id": "1c48af828d7f38aa0c9460f2b0d5b0b2", "type": "electric_scooter", "is_disabled": 0, "lat": 38.913258166666665, "rental_uris": {"ios": "https://dc.lft.to/lastmile_qr_scan", "android": "https://dc.lft.to/lastmile_qr_scan"}, "is_reserved": 0, "fusion_lon": 0.0, "fusion_lat": 0.0, "lon": -77.031956, "name": "1c48af828d7f38aa0c9460f2b0d5b0b2"}, {"bike_id": "86bebce6dbd7a23ffa3f241dcc9a79a8", "type": "electric_scooter", "is_disabled": 0, "lat": 38.8662065, "rental_uris": {"ios": "https://dc.lft.to/lastmile_qr_scan", "android": "https://dc.lft.to/lastmile_qr_scan"}, "is_reserved": 0, "fusion_lon": 0.0, "fusion_lat": 0.0, "lon": -76.987184, "name": "86bebce6dbd7a23ffa3f241dcc9a79a8"}, {"bike_id": "001f0de5c47ce9f3e0a2151c329684cb", "type": "electric_scooter", "is_disabled": 0, "lat": 38.9058105, "rental_uris": {"ios": "https://dc.lft.to/lastmile_qr_scan", "android": "https://dc.lft.to/lastmile_qr_scan"}, "is_reserved": 0, "fusion_lon": 0.0, "fusion_lat": 0.0, "lon": -77.04424666666667, "name": "001f0de5c47ce9f3e0a2151c329684cb"}, {"bike_id": "5d34103bfb9e06306ed92fc59b102558", "type": "electric_scooter", "is_disabled": 0, "lat": 38.886391333333336, "rental_uris": {"ios": "https://dc.lft.to/lastmile_qr_scan", "android": "https://dc.lft.to/lastmile_qr_scan"}, "is_reserved": 0, "fusion_lon": 0.0, "fusion_lat": 0.0, "lon": -77.02146816666666, "name": "5d34103bfb9e06306ed92fc59b102558"}, {"bike_id": "37b3caa0e37c12282cef7a4b689044b4", "type": "electric_scooter", "is_disabled": 0, "lat": 38.892818166666665, "rental_uris": {"ios": "https://dc.lft.to/lastmile_qr_scan", "android": "https://dc.lft.to/lastmile_qr_scan"}, "is_reserved": 0, "fusion_lon": 0.0, "fusion_lat": 0.0, "lon": -77.02019416666667, "name": "37b3caa0e37c12282cef7a4b689044b4"}, {"bike_id": "1ed4fa335b96501f8273960eee7e68d6", "type": "electric_scooter", "is_disabled": 0, "lat": 38.9083045, "rental_uris": {"ios": "https://dc.lft.to/lastmile_qr_scan", "android": "https://dc.lft.to/lastmile_qr_scan"}, "is_reserved": 0, "fusion_lon": 0.0, "fusion_lat": 0.0, "lon": -76.99699933333333, "name": "1ed4fa335b96501f8273960eee7e68d6"}, {"bike_id": "06190be54ec87347b7e6415efe1ce6a8", "type": "electric_bike", "is_disabled": 0, "lat": 38.90527566666667, "rental_uris": {"ios": "https://dc.lft.to/lastmile_qr_scan", "android": "https://dc.lft.to/lastmile_qr_scan"}, "is_reserved": 0, "fusion_lon": 0.0, "fusion_lat": 0.0, "lon": -77.02927766666667, "name": "06190be54ec87347b7e6415efe1ce6a8"}, {"bike_id": "9ebb4042e9e01a8af5a52b7191d7671a", "type": "electric_scooter", "is_disabled": 0, "lat": 38.93358116666667, "rental_uris": {"ios": "https://dc.lft.to/lastmile_qr_scan", "android": "https://dc.lft.to/lastmile_qr_scan"}, "is_reserved": 0, "fusion_lon": 0.0, "fusion_lat": 0.0, "lon": -77.08861283333333, "name": "9ebb4042e9e01a8af5a52b7191d7671a"}, {"bike_id": "219366644867e777aa2ea163853385f5", "type": "electric_scooter", "is_disabled": 0, "lat": 38.90725116666667, "rental_uris": {"ios": "https://dc.lft.to/lastmile_qr_scan", "android": "https://dc.lft.to/lastmile_qr_scan"}, "is_reserved": 0, "fusion_lon": 0.0, "fusion_lat": 0.0, "lon": -77.02522716666667, "name": "219366644867e777aa2ea163853385f5"}, {"bike_id": "64d3d6cf682170ac7638078e24099f98", "type": "electric_scooter", "is_disabled": 0, "lat": 38.89616133333333, "rental_uris": {"ios": "https://dc.lft.to/lastmile_qr_scan", "android": "https://dc.lft.to/lastmile_qr_scan"}, "is_reserved": 0, "fusion_lon": 0.0, "fusion_lat": 0.0, "lon": -77.02222016666667, "name": "64d3d6cf682170ac7638078e24099f98"}, {"bike_id": "d1b8bbdbd417d65743713d81ff243930", "type": "electric_scooter", "is_disabled": 0, "lat": 38.91841983333333, "rental_uris": {"ios": "https://dc.lft.to/lastmile_qr_scan", "android": "https://dc.lft.to/lastmile_qr_scan"}, "is_reserved": 0, "fusion_lon": 0.0, "fusion_lat": 0.0, "lon": -76.9655915, "name": "d1b8bbdbd417d65743713d81ff243930"}, {"bike_id": "255f3ed4523f1019572575a90711e85a", "type": "electric_scooter", "is_disabled": 0, "lat": 38.92418883333333, "rental_uris": {"ios": "https://dc.lft.to/lastmile_qr_scan", "android": "https://dc.lft.to/lastmile_qr_scan"}, "is_reserved": 0, "fusion_lon": 0.0, "fusion_lat": 0.0, "lon": -77.02010616666666, "name": "255f3ed4523f1019572575a90711e85a"}, {"bike_id": "ac2741acddcd9db8a33807e22f16f861", "type": "electric_scooter", "is_disabled": 0, "lat": 38.9473515, "rental_uris": {"ios": "https://dc.lft.to/lastmile_qr_scan", "android": "https://dc.lft.to/lastmile_qr_scan"}, "is_reserved": 0, "fusion_lon": 0.0, "fusion_lat": 0.0, "lon": -77.07867283333333, "name": "ac2741acddcd9db8a33807e22f16f861"}, {"bike_id": "5224a3715deb9e356cf8ac199e4346f3", "type": "electric_scooter", "is_disabled": 0, "lat": 38.915602166666666, "rental_uris": {"ios": "https://dc.lft.to/lastmile_qr_scan", "android": "https://dc.lft.to/lastmile_qr_scan"}, "is_reserved": 0, "fusion_lon": 0.0, "fusion_lat": 0.0, "lon": -77.03126033333334, "name": "5224a3715deb9e356cf8ac199e4346f3"}, {"bike_id": "62f1278a3c55a080ae226a405c9ac18f", "type": "electric_scooter", "is_disabled": 0, "lat": 38.92127933333333, "rental_uris": {"ios": "https://dc.lft.to/lastmile_qr_scan", "android": "https://dc.lft.to/lastmile_qr_scan"}, "is_reserved": 0, "fusion_lon": 0.0, "fusion_lat": 0.0, "lon": -77.04423933333334, "name": "62f1278a3c55a080ae226a405c9ac18f"}, {"bike_id": "1516f39a25fc469a42e676d795ca5eb8", "type": "electric_scooter", "is_disabled": 0, "lat": 38.917563, "rental_uris": {"ios": "https://dc.lft.to/lastmile_qr_scan", "android": "https://dc.lft.to/lastmile_qr_scan"}, "is_reserved": 0, "fusion_lon": 0.0, "fusion_lat": 0.0, "lon": -77.031762, "name": "1516f39a25fc469a42e676d795ca5eb8"}, {"bike_id": "07cf92575ad6ea62b9cf4a03ccc9f356", "type": "electric_bike", "is_disabled": 0, "lat": 38.89610416666667, "rental_uris": {"ios": "https://dc.lft.to/lastmile_qr_scan", "android": "https://dc.lft.to/lastmile_qr_scan"}, "is_reserved": 0, "fusion_lon": 0.0, "fusion_lat": 0.0, "lon": -76.90738183333333, "name": "07cf92575ad6ea62b9cf4a03ccc9f356"}, {"bike_id": "f2f31b163096edb9fc0ddf9203e60141", "type": "electric_scooter", "is_disabled": 0, "lat": 38.905924, "rental_uris": {"ios": "https://dc.lft.to/lastmile_qr_scan", "android": "https://dc.lft.to/lastmile_qr_scan"}, "is_reserved": 0, "fusion_lon": 0.0, "fusion_lat": 0.0, "lon": -77.02704233333333, "name": "f2f31b163096edb9fc0ddf9203e60141"}, {"bike_id": "4dc6c0b0f8cbb17a7888e10b79e7b0ef", "type": "electric_bike", "is_disabled": 0, "lat": 38.947338, "rental_uris": {"ios": "https://dc.lft.to/lastmile_qr_scan", "android": "https://dc.lft.to/lastmile_qr_scan"}, "is_reserved": 0, "fusion_lon": 0.0, "fusion_lat": 0.0, "lon": -76.995854, "name": "4dc6c0b0f8cbb17a7888e10b79e7b0ef"}, {"bike_id": "3a8615ca4a916eb0c4ce8879d3373fc0", "type": "electric_scooter", "is_disabled": 0, "lat": 38.915003666666664, "rental_uris": {"ios": "https://dc.lft.to/lastmile_qr_scan", "android": "https://dc.lft.to/lastmile_qr_scan"}, "is_reserved": 0, "fusion_lon": 0.0, "fusion_lat": 0.0, "lon": -77.01780933333333, "name": "3a8615ca4a916eb0c4ce8879d3373fc0"}, {"bike_id": "d435c4a73ede6d75487a4fff1e904f60", "type": "electric_scooter", "is_disabled": 0, "lat": 38.897348, "rental_uris": {"ios": "https://dc.lft.to/lastmile_qr_scan", "android": "https://dc.lft.to/lastmile_qr_scan"}, "is_reserved": 0, "fusion_lon": 0.0, "fusion_lat": 0.0, "lon": -77.05471483333334, "name": "d435c4a73ede6d75487a4fff1e904f60"}, {"bike_id": "05291218f348b8162f6d9e7a178d2c5a", "type": "electric_scooter", "is_disabled": 0, "lat": 38.90396916666667, "rental_uris": {"ios": "https://dc.lft.to/lastmile_qr_scan", "android": "https://dc.lft.to/lastmile_qr_scan"}, "is_reserved": 0, "fusion_lon": 0.0, "fusion_lat": 0.0, "lon": -77.06783, "name": "05291218f348b8162f6d9e7a178d2c5a"}, {"bike_id": "1c86bc823eb53227391314623e7a3b8a", "type": "electric_scooter", "is_disabled": 0, "lat": 38.922346833333336, "rental_uris": {"ios": "https://dc.lft.to/lastmile_qr_scan", "android": "https://dc.lft.to/lastmile_qr_scan"}, "is_reserved": 0, "fusion_lon": 0.0, "fusion_lat": 0.0, "lon": -77.03710066666666, "name": "1c86bc823eb53227391314623e7a3b8a"}, {"bike_id": "9c0982ea2977f82cacb0d4cda5cfc77d", "type": "electric_scooter", "is_disabled": 0, "lat": 38.90403383333334, "rental_uris": {"ios": "https://dc.lft.to/lastmile_qr_scan", "android": "https://dc.lft.to/lastmile_qr_scan"}, "is_reserved": 0, "fusion_lon": 0.0, "fusion_lat": 0.0, "lon": -76.97332483333334, "name": "9c0982ea2977f82cacb0d4cda5cfc77d"}, {"bike_id": "295136001335a7517f0de8d82f75c68b", "type": "electric_scooter", "is_disabled": 0, "lat": 38.8665835, "rental_uris": {"ios": "https://dc.lft.to/lastmile_qr_scan", "android": "https://dc.lft.to/lastmile_qr_scan"}, "is_reserved": 0, "fusion_lon": 0.0, "fusion_lat": 0.0, "lon": -76.98885616666666, "name": "295136001335a7517f0de8d82f75c68b"}, {"bike_id": "ae325fe4bffa76a2e8a608e15004cb36", "type": "electric_scooter", "is_disabled": 0, "lat": 38.917097166666665, "rental_uris": {"ios": "https://dc.lft.to/lastmile_qr_scan", "android": "https://dc.lft.to/lastmile_qr_scan"}, "is_reserved": 0, "fusion_lon": 0.0, "fusion_lat": 0.0, "lon": -77.02957766666667, "name": "ae325fe4bffa76a2e8a608e15004cb36"}, {"bike_id": "75978530f63ff9d8c383e4449fde4f32", "type": "electric_scooter", "is_disabled": 0, "lat": 38.921627, "rental_uris": {"ios": "https://dc.lft.to/lastmile_qr_scan", "android": "https://dc.lft.to/lastmile_qr_scan"}, "is_reserved": 0, "fusion_lon": 0.0, "fusion_lat": 0.0, "lon": -77.03341233333333, "name": "75978530f63ff9d8c383e4449fde4f32"}, {"bike_id": "b6748b36b0fbf37011824caaabea7fe9", "type": "electric_scooter", "is_disabled": 0, "lat": 38.90364983333333, "rental_uris": {"ios": "https://dc.lft.to/lastmile_qr_scan", "android": "https://dc.lft.to/lastmile_qr_scan"}, "is_reserved": 0, "fusion_lon": 0.0, "fusion_lat": 0.0, "lon": -77.0220275, "name": "b6748b36b0fbf37011824caaabea7fe9"}, {"bike_id": "ca2e148829444ca95190bb5874fc5e84", "type": "electric_scooter", "is_disabled": 0, "lat": 38.90571166666667, "rental_uris": {"ios": "https://dc.lft.to/lastmile_qr_scan", "android": "https://dc.lft.to/lastmile_qr_scan"}, "is_reserved": 0, "fusion_lon": 0.0, "fusion_lat": 0.0, "lon": -77.05697283333333, "name": "ca2e148829444ca95190bb5874fc5e84"}, {"bike_id": "a311dafada03519386338b026de346cc", "type": "electric_scooter", "is_disabled": 0, "lat": 38.92151966666667, "rental_uris": {"ios": "https://dc.lft.to/lastmile_qr_scan", "android": "https://dc.lft.to/lastmile_qr_scan"}, "is_reserved": 0, "fusion_lon": 0.0, "fusion_lat": 0.0, "lon": -77.0351625, "name": "a311dafada03519386338b026de346cc"}, {"bike_id": "f30a7de301576a9b52215e117ee3efd5", "type": "electric_scooter", "is_disabled": 0, "lat": 38.925912333333336, "rental_uris": {"ios": "https://dc.lft.to/lastmile_qr_scan", "android": "https://dc.lft.to/lastmile_qr_scan"}, "is_reserved": 0, "fusion_lon": 0.0, "fusion_lat": 0.0, "lon": -77.07322316666666, "name": "f30a7de301576a9b52215e117ee3efd5"}, {"bike_id": "bf8bb7731c9c8492aeed0362279e96bd", "type": "electric_scooter", "is_disabled": 0, "lat": 38.923691, "rental_uris": {"ios": "https://dc.lft.to/lastmile_qr_scan", "android": "https://dc.lft.to/lastmile_qr_scan"}, "is_reserved": 0, "fusion_lon": 0.0, "fusion_lat": 0.0, "lon": -77.05151216666667, "name": "bf8bb7731c9c8492aeed0362279e96bd"}, {"bike_id": "7c4373f81a518c25ce171db7a9de2a99", "type": "electric_scooter", "is_disabled": 0, "lat": 38.911143, "rental_uris": {"ios": "https://dc.lft.to/lastmile_qr_scan", "android": "https://dc.lft.to/lastmile_qr_scan"}, "is_reserved": 0, "fusion_lon": 0.0, "fusion_lat": 0.0, "lon": -77.0320605, "name": "7c4373f81a518c25ce171db7a9de2a99"}, {"bike_id": "82aba6cfaacd050cbe9b912bccdb2532", "type": "electric_scooter", "is_disabled": 0, "lat": 38.926537833333335, "rental_uris": {"ios": "https://dc.lft.to/lastmile_qr_scan", "android": "https://dc.lft.to/lastmile_qr_scan"}, "is_reserved": 0, "fusion_lon": 0.0, "fusion_lat": 0.0, "lon": -77.02412516666666, "name": "82aba6cfaacd050cbe9b912bccdb2532"}, {"bike_id": "1338c1df6423f1a72d81abcb9ca27f45", "type": "electric_scooter", "is_disabled": 0, "lat": 38.91459566666666, "rental_uris": {"ios": "https://dc.lft.to/lastmile_qr_scan", "android": "https://dc.lft.to/lastmile_qr_scan"}, "is_reserved": 0, "fusion_lon": 0.0, "fusion_lat": 0.0, "lon": -77.02290983333333, "name": "1338c1df6423f1a72d81abcb9ca27f45"}, {"bike_id": "008d646774054953fa66b93b091db747", "type": "electric_scooter", "is_disabled": 0, "lat": 38.90671833333333, "rental_uris": {"ios": "https://dc.lft.to/lastmile_qr_scan", "android": "https://dc.lft.to/lastmile_qr_scan"}, "is_reserved": 0, "fusion_lon": 0.0, "fusion_lat": 0.0, "lon": -77.0237485, "name": "008d646774054953fa66b93b091db747"}, {"bike_id": "a31f050c82db58ec1635c1c5c3929662", "type": "electric_scooter", "is_disabled": 0, "lat": 38.9037025, "rental_uris": {"ios": "https://dc.lft.to/lastmile_qr_scan", "android": "https://dc.lft.to/lastmile_qr_scan"}, "is_reserved": 0, "fusion_lon": 0.0, "fusion_lat": 0.0, "lon": -77.02944316666667, "name": "a31f050c82db58ec1635c1c5c3929662"}, {"bike_id": "62648514a89637136a61d054bf41c254", "type": "electric_bike", "is_disabled": 0, "lat": 38.936704666666664, "rental_uris": {"ios": "https://dc.lft.to/lastmile_qr_scan", "android": "https://dc.lft.to/lastmile_qr_scan"}, "is_reserved": 0, "fusion_lon": 0.0, "fusion_lat": 0.0, "lon": -76.95210733333333, "name": "62648514a89637136a61d054bf41c254"}, {"bike_id": "ca395d55a3f423e99b85bf2da26061f9", "type": "electric_bike", "is_disabled": 0, "lat": 38.90207633333333, "rental_uris": {"ios": "https://dc.lft.to/lastmile_qr_scan", "android": "https://dc.lft.to/lastmile_qr_scan"}, "is_reserved": 0, "fusion_lon": 0.0, "fusion_lat": 0.0, "lon": -76.97416683333333, "name": "ca395d55a3f423e99b85bf2da26061f9"}, {"bike_id": "a24aa60c904db5598f73fdb5a4bdf328", "type": "electric_scooter", "is_disabled": 0, "lat": 38.9168275, "rental_uris": {"ios": "https://dc.lft.to/lastmile_qr_scan", "android": "https://dc.lft.to/lastmile_qr_scan"}, "is_reserved": 0, "fusion_lon": 0.0, "fusion_lat": 0.0, "lon": -77.02965416666666, "name": "a24aa60c904db5598f73fdb5a4bdf328"}, {"bike_id": "a3bb4f9de22ff72fb6a8070b7c03dddc", "type": "electric_scooter", "is_disabled": 0, "lat": 38.898415166666666, "rental_uris": {"ios": "https://dc.lft.to/lastmile_qr_scan", "android": "https://dc.lft.to/lastmile_qr_scan"}, "is_reserved": 0, "fusion_lon": 0.0, "fusion_lat": 0.0, "lon": -76.94637433333334, "name": "a3bb4f9de22ff72fb6a8070b7c03dddc"}, {"bike_id": "96ffb13f0a93ad9af2efaac9da4df05b", "type": "electric_bike", "is_disabled": 0, "lat": 38.92642083333333, "rental_uris": {"ios": "https://dc.lft.to/lastmile_qr_scan", "android": "https://dc.lft.to/lastmile_qr_scan"}, "is_reserved": 0, "fusion_lon": 0.0, "fusion_lat": 0.0, "lon": -76.98428316666667, "name": "96ffb13f0a93ad9af2efaac9da4df05b"}, {"bike_id": "b7ab1a5a97b8b9ab04778afa37a6c7a8", "type": "electric_scooter", "is_disabled": 0, "lat": 38.90631283333333, "rental_uris": {"ios": "https://dc.lft.to/lastmile_qr_scan", "android": "https://dc.lft.to/lastmile_qr_scan"}, "is_reserved": 0, "fusion_lon": 0.0, "fusion_lat": 0.0, "lon": -77.01007966666667, "name": "b7ab1a5a97b8b9ab04778afa37a6c7a8"}, {"bike_id": "57b1ac5508c3fb7ee47ed1d7997150e0", "type": "electric_bike", "is_disabled": 0, "lat": 38.9244175, "rental_uris": {"ios": "https://dc.lft.to/lastmile_qr_scan", "android": "https://dc.lft.to/lastmile_qr_scan"}, "is_reserved": 0, "fusion_lon": 0.0, "fusion_lat": 0.0, "lon": -77.2256555, "name": "57b1ac5508c3fb7ee47ed1d7997150e0"}, {"bike_id": "9d4c1a6acb1f4028542fb6bd7078322b", "type": "electric_scooter", "is_disabled": 0, "lat": 38.941947666666664, "rental_uris": {"ios": "https://dc.lft.to/lastmile_qr_scan", "android": "https://dc.lft.to/lastmile_qr_scan"}, "is_reserved": 0, "fusion_lon": 0.0, "fusion_lat": 0.0, "lon": -77.02437966666666, "name": "9d4c1a6acb1f4028542fb6bd7078322b"}, {"bike_id": "7f112c4572b96798610f799d068d497f", "type": "electric_scooter", "is_disabled": 0, "lat": 38.902474833333336, "rental_uris": {"ios": "https://dc.lft.to/lastmile_qr_scan", "android": "https://dc.lft.to/lastmile_qr_scan"}, "is_reserved": 0, "fusion_lon": 0.0, "fusion_lat": 0.0, "lon": -77.0296145, "name": "7f112c4572b96798610f799d068d497f"}, {"bike_id": "ac208af1518366d781858f4b30dc6047", "type": "electric_scooter", "is_disabled": 0, "lat": 38.909831, "rental_uris": {"ios": "https://dc.lft.to/lastmile_qr_scan", "android": "https://dc.lft.to/lastmile_qr_scan"}, "is_reserved": 0, "fusion_lon": 0.0, "fusion_lat": 0.0, "lon": -77.022063, "name": "ac208af1518366d781858f4b30dc6047"}, {"bike_id": "3f82f65079fe9ad06463d95b035b4440", "type": "electric_scooter", "is_disabled": 0, "lat": 38.894774, "rental_uris": {"ios": "https://dc.lft.to/lastmile_qr_scan", "android": "https://dc.lft.to/lastmile_qr_scan"}, "is_reserved": 0, "fusion_lon": 0.0, "fusion_lat": 0.0, "lon": -77.0111195, "name": "3f82f65079fe9ad06463d95b035b4440"}, {"bike_id": "13aecea2963adc843f296ef875672bfc", "type": "electric_scooter", "is_disabled": 0, "lat": 38.91237533333333, "rental_uris": {"ios": "https://dc.lft.to/lastmile_qr_scan", "android": "https://dc.lft.to/lastmile_qr_scan"}, "is_reserved": 0, "fusion_lon": 0.0, "fusion_lat": 0.0, "lon": -77.02217783333333, "name": "13aecea2963adc843f296ef875672bfc"}, {"bike_id": "b7b945f788bac0457d03aecd9269df59", "type": "electric_scooter", "is_disabled": 0, "lat": 38.9071945, "rental_uris": {"ios": "https://dc.lft.to/lastmile_qr_scan", "android": "https://dc.lft.to/lastmile_qr_scan"}, "is_reserved": 0, "fusion_lon": 0.0, "fusion_lat": 0.0, "lon": -77.02625133333333, "name": "b7b945f788bac0457d03aecd9269df59"}, {"bike_id": "c471d994a5d744e6e6814f8aa09340e8", "type": "electric_scooter", "is_disabled": 0, "lat": 38.9406795, "rental_uris": {"ios": "https://dc.lft.to/lastmile_qr_scan", "android": "https://dc.lft.to/lastmile_qr_scan"}, "is_reserved": 0, "fusion_lon": 0.0, "fusion_lat": 0.0, "lon": -77.06108416666666, "name": "c471d994a5d744e6e6814f8aa09340e8"}, {"bike_id": "bef8e8f8eeb5cad3624e678bd22714a2", "type": "electric_scooter", "is_disabled": 0, "lat": 38.910359, "rental_uris": {"ios": "https://dc.lft.to/lastmile_qr_scan", "android": "https://dc.lft.to/lastmile_qr_scan"}, "is_reserved": 0, "fusion_lon": 0.0, "fusion_lat": 0.0, "lon": -77.03805483333333, "name": "bef8e8f8eeb5cad3624e678bd22714a2"}, {"bike_id": "474874debd25301867c0dc8979481445", "type": "electric_scooter", "is_disabled": 0, "lat": 38.89229366666667, "rental_uris": {"ios": "https://dc.lft.to/lastmile_qr_scan", "android": "https://dc.lft.to/lastmile_qr_scan"}, "is_reserved": 0, "fusion_lon": 0.0, "fusion_lat": 0.0, "lon": -77.05002366666666, "name": "474874debd25301867c0dc8979481445"}, {"bike_id": "308a15fa07e3b48d96d205ae6bd49388", "type": "electric_scooter", "is_disabled": 0, "lat": 38.916678833333336, "rental_uris": {"ios": "https://dc.lft.to/lastmile_qr_scan", "android": "https://dc.lft.to/lastmile_qr_scan"}, "is_reserved": 0, "fusion_lon": 0.0, "fusion_lat": 0.0, "lon": -77.02383533333334, "name": "308a15fa07e3b48d96d205ae6bd49388"}, {"bike_id": "ca4e0a83af970b37a0b844ff393a05e5", "type": "electric_scooter", "is_disabled": 0, "lat": 38.907774, "rental_uris": {"ios": "https://dc.lft.to/lastmile_qr_scan", "android": "https://dc.lft.to/lastmile_qr_scan"}, "is_reserved": 0, "fusion_lon": 0.0, "fusion_lat": 0.0, "lon": -77.04178316666666, "name": "ca4e0a83af970b37a0b844ff393a05e5"}, {"bike_id": "5e9ffe5a62bf065f873a7310bc67e0d1", "type": "electric_scooter", "is_disabled": 0, "lat": 38.8997795, "rental_uris": {"ios": "https://dc.lft.to/lastmile_qr_scan", "android": "https://dc.lft.to/lastmile_qr_scan"}, "is_reserved": 0, "fusion_lon": 0.0, "fusion_lat": 0.0, "lon": -77.02193716666666, "name": "5e9ffe5a62bf065f873a7310bc67e0d1"}, {"bike_id": "a48d43139f8c502b36bf7ad6cb93a80b", "type": "electric_scooter", "is_disabled": 0, "lat": 38.94290683333333, "rental_uris": {"ios": "https://dc.lft.to/lastmile_qr_scan", "android": "https://dc.lft.to/lastmile_qr_scan"}, "is_reserved": 0, "fusion_lon": 0.0, "fusion_lat": 0.0, "lon": -77.02178133333334, "name": "a48d43139f8c502b36bf7ad6cb93a80b"}, {"bike_id": "3275b51b4625e1ee7db1973bfaf767b0", "type": "electric_scooter", "is_disabled": 0, "lat": 38.91653816666667, "rental_uris": {"ios": "https://dc.lft.to/lastmile_qr_scan", "android": "https://dc.lft.to/lastmile_qr_scan"}, "is_reserved": 0, "fusion_lon": 0.0, "fusion_lat": 0.0, "lon": -76.97910766666666, "name": "3275b51b4625e1ee7db1973bfaf767b0"}, {"bike_id": "677edb62bca571d586ce45b8f4c738ff", "type": "electric_scooter", "is_disabled": 0, "lat": 38.923250833333334, "rental_uris": {"ios": "https://dc.lft.to/lastmile_qr_scan", "android": "https://dc.lft.to/lastmile_qr_scan"}, "is_reserved": 0, "fusion_lon": 0.0, "fusion_lat": 0.0, "lon": -77.0089105, "name": "677edb62bca571d586ce45b8f4c738ff"}, {"bike_id": "1d120a078f5e26b829c5f0d9655d57d9", "type": "electric_scooter", "is_disabled": 0, "lat": 38.93362116666667, "rental_uris": {"ios": "https://dc.lft.to/lastmile_qr_scan", "android": "https://dc.lft.to/lastmile_qr_scan"}, "is_reserved": 0, "fusion_lon": 0.0, "fusion_lat": 0.0, "lon": -77.02645916666667, "name": "1d120a078f5e26b829c5f0d9655d57d9"}, {"bike_id": "9f8f59c9e66a44129ff1d85d43a8d476", "type": "electric_bike", "is_disabled": 0, "lat": 38.900061, "rental_uris": {"ios": "https://dc.lft.to/lastmile_qr_scan", "android": "https://dc.lft.to/lastmile_qr_scan"}, "is_reserved": 0, "fusion_lon": 0.0, "fusion_lat": 0.0, "lon": -77.0062425, "name": "9f8f59c9e66a44129ff1d85d43a8d476"}, {"bike_id": "47a6d9335bb2f60273e050b32d068f95", "type": "electric_scooter", "is_disabled": 0, "lat": 38.9198395, "rental_uris": {"ios": "https://dc.lft.to/lastmile_qr_scan", "android": "https://dc.lft.to/lastmile_qr_scan"}, "is_reserved": 0, "fusion_lon": 0.0, "fusion_lat": 0.0, "lon": -77.02508333333333, "name": "47a6d9335bb2f60273e050b32d068f95"}, {"bike_id": "2a75de10f0edde86e056189d3759fd5d", "type": "electric_scooter", "is_disabled": 0, "lat": 38.898535333333335, "rental_uris": {"ios": "https://dc.lft.to/lastmile_qr_scan", "android": "https://dc.lft.to/lastmile_qr_scan"}, "is_reserved": 0, "fusion_lon": 0.0, "fusion_lat": 0.0, "lon": -77.04205016666667, "name": "2a75de10f0edde86e056189d3759fd5d"}, {"bike_id": "d993db21f50226610b54d7538e4a9993", "type": "electric_scooter", "is_disabled": 0, "lat": 38.924795333333336, "rental_uris": {"ios": "https://dc.lft.to/lastmile_qr_scan", "android": "https://dc.lft.to/lastmile_qr_scan"}, "is_reserved": 0, "fusion_lon": 0.0, "fusion_lat": 0.0, "lon": -77.03182316666667, "name": "d993db21f50226610b54d7538e4a9993"}, {"bike_id": "a02c9770270ecf604fe8f760c098f529", "type": "electric_scooter", "is_disabled": 0, "lat": 38.90685966666667, "rental_uris": {"ios": "https://dc.lft.to/lastmile_qr_scan", "android": "https://dc.lft.to/lastmile_qr_scan"}, "is_reserved": 0, "fusion_lon": 0.0, "fusion_lat": 0.0, "lon": -77.04185816666667, "name": "a02c9770270ecf604fe8f760c098f529"}, {"bike_id": "3a93c30fadcb3f50e781861642c496d1", "type": "electric_scooter", "is_disabled": 0, "lat": 38.90063166666667, "rental_uris": {"ios": "https://dc.lft.to/lastmile_qr_scan", "android": "https://dc.lft.to/lastmile_qr_scan"}, "is_reserved": 0, "fusion_lon": 0.0, "fusion_lat": 0.0, "lon": -77.01726516666666, "name": "3a93c30fadcb3f50e781861642c496d1"}, {"bike_id": "5ea2e9e212ab176bfa5dd8ca14727334", "type": "electric_bike", "is_disabled": 0, "lat": 38.987682166666666, "rental_uris": {"ios": "https://dc.lft.to/lastmile_qr_scan", "android": "https://dc.lft.to/lastmile_qr_scan"}, "is_reserved": 0, "fusion_lon": 0.0, "fusion_lat": 0.0, "lon": -77.14062266666667, "name": "5ea2e9e212ab176bfa5dd8ca14727334"}, {"bike_id": "221ccb9707d2c23d23f13057e24a6f1b", "type": "electric_scooter", "is_disabled": 0, "lat": 38.8986655, "rental_uris": {"ios": "https://dc.lft.to/lastmile_qr_scan", "android": "https://dc.lft.to/lastmile_qr_scan"}, "is_reserved": 0, "fusion_lon": 0.0, "fusion_lat": 0.0, "lon": -77.02267383333333, "name": "221ccb9707d2c23d23f13057e24a6f1b"}, {"bike_id": "0cd1bc68a19090a4e1759f987ee62bfc", "type": "electric_scooter", "is_disabled": 0, "lat": 38.9009705, "rental_uris": {"ios": "https://dc.lft.to/lastmile_qr_scan", "android": "https://dc.lft.to/lastmile_qr_scan"}, "is_reserved": 0, "fusion_lon": 0.0, "fusion_lat": 0.0, "lon": -77.03853433333333, "name": "0cd1bc68a19090a4e1759f987ee62bfc"}, {"bike_id": "afaaad0fca4e5734c5a7e4d657785d20", "type": "electric_scooter", "is_disabled": 0, "lat": 38.92237, "rental_uris": {"ios": "https://dc.lft.to/lastmile_qr_scan", "android": "https://dc.lft.to/lastmile_qr_scan"}, "is_reserved": 0, "fusion_lon": 0.0, "fusion_lat": 0.0, "lon": -77.0424715, "name": "afaaad0fca4e5734c5a7e4d657785d20"}, {"bike_id": "80804a246555049e6b7ff32f4b7909c7", "type": "electric_scooter", "is_disabled": 0, "lat": 38.911476666666665, "rental_uris": {"ios": "https://dc.lft.to/lastmile_qr_scan", "android": "https://dc.lft.to/lastmile_qr_scan"}, "is_reserved": 0, "fusion_lon": 0.0, "fusion_lat": 0.0, "lon": -77.02695566666667, "name": "80804a246555049e6b7ff32f4b7909c7"}, {"bike_id": "e8a1a353d79f9e2488f38c89032b2eee", "type": "electric_scooter", "is_disabled": 0, "lat": 38.939467, "rental_uris": {"ios": "https://dc.lft.to/lastmile_qr_scan", "android": "https://dc.lft.to/lastmile_qr_scan"}, "is_reserved": 0, "fusion_lon": 0.0, "fusion_lat": 0.0, "lon": -77.072477, "name": "e8a1a353d79f9e2488f38c89032b2eee"}, {"bike_id": "11420a2ce788be2e7ae2c007d1391c23", "type": "electric_bike", "is_disabled": 0, "lat": 38.88660516666667, "rental_uris": {"ios": "https://dc.lft.to/lastmile_qr_scan", "android": "https://dc.lft.to/lastmile_qr_scan"}, "is_reserved": 0, "fusion_lon": 0.0, "fusion_lat": 0.0, "lon": -77.16253083333334, "name": "11420a2ce788be2e7ae2c007d1391c23"}, {"bike_id": "e928a49e2f558aa12a282f719a4c2f65", "type": "electric_scooter", "is_disabled": 0, "lat": 38.9169675, "rental_uris": {"ios": "https://dc.lft.to/lastmile_qr_scan", "android": "https://dc.lft.to/lastmile_qr_scan"}, "is_reserved": 0, "fusion_lon": 0.0, "fusion_lat": 0.0, "lon": -77.04114733333333, "name": "e928a49e2f558aa12a282f719a4c2f65"}, {"bike_id": "f819ae3ab61d3c8d590d5bc55b1c6eaa", "type": "electric_scooter", "is_disabled": 0, "lat": 38.90061583333333, "rental_uris": {"ios": "https://dc.lft.to/lastmile_qr_scan", "android": "https://dc.lft.to/lastmile_qr_scan"}, "is_reserved": 0, "fusion_lon": 0.0, "fusion_lat": 0.0, "lon": -76.92742416666667, "name": "f819ae3ab61d3c8d590d5bc55b1c6eaa"}, {"bike_id": "d017d8bd23e4b11f6daed9dd474af05d", "type": "electric_scooter", "is_disabled": 0, "lat": 38.905681666666666, "rental_uris": {"ios": "https://dc.lft.to/lastmile_qr_scan", "android": "https://dc.lft.to/lastmile_qr_scan"}, "is_reserved": 0, "fusion_lon": 0.0, "fusion_lat": 0.0, "lon": -77.05144216666666, "name": "d017d8bd23e4b11f6daed9dd474af05d"}, {"bike_id": "e6a8005a0de059b8fed5ed1493a49a97", "type": "electric_scooter", "is_disabled": 0, "lat": 38.93931583333333, "rental_uris": {"ios": "https://dc.lft.to/lastmile_qr_scan", "android": "https://dc.lft.to/lastmile_qr_scan"}, "is_reserved": 0, "fusion_lon": 0.0, "fusion_lat": 0.0, "lon": -77.03684916666667, "name": "e6a8005a0de059b8fed5ed1493a49a97"}, {"bike_id": "14924eb1605d94c59a33ff33cfe7bf59", "type": "electric_scooter", "is_disabled": 0, "lat": 38.95000366666667, "rental_uris": {"ios": "https://dc.lft.to/lastmile_qr_scan", "android": "https://dc.lft.to/lastmile_qr_scan"}, "is_reserved": 0, "fusion_lon": 0.0, "fusion_lat": 0.0, "lon": -77.01833516666666, "name": "14924eb1605d94c59a33ff33cfe7bf59"}, {"bike_id": "c3791df16d83490abdb407747fafc8d2", "type": "electric_scooter", "is_disabled": 0, "lat": 38.9124615, "rental_uris": {"ios": "https://dc.lft.to/lastmile_qr_scan", "android": "https://dc.lft.to/lastmile_qr_scan"}, "is_reserved": 0, "fusion_lon": 0.0, "fusion_lat": 0.0, "lon": -77.024311, "name": "c3791df16d83490abdb407747fafc8d2"}, {"bike_id": "8309ed52d017f3bc6f422bb5bb903471", "type": "electric_scooter", "is_disabled": 0, "lat": 38.916346833333336, "rental_uris": {"ios": "https://dc.lft.to/lastmile_qr_scan", "android": "https://dc.lft.to/lastmile_qr_scan"}, "is_reserved": 0, "fusion_lon": 0.0, "fusion_lat": 0.0, "lon": -77.02212433333334, "name": "8309ed52d017f3bc6f422bb5bb903471"}, {"bike_id": "4880239455571ef33738690fc0858bc4", "type": "electric_scooter", "is_disabled": 0, "lat": 38.876282, "rental_uris": {"ios": "https://dc.lft.to/lastmile_qr_scan", "android": "https://dc.lft.to/lastmile_qr_scan"}, "is_reserved": 0, "fusion_lon": 0.0, "fusion_lat": 0.0, "lon": -76.96526733333333, "name": "4880239455571ef33738690fc0858bc4"}, {"bike_id": "d0b286c86631f963ba51b84804c98a65", "type": "electric_bike", "is_disabled": 0, "lat": 38.91008816666667, "rental_uris": {"ios": "https://dc.lft.to/lastmile_qr_scan", "android": "https://dc.lft.to/lastmile_qr_scan"}, "is_reserved": 0, "fusion_lon": 0.0, "fusion_lat": 0.0, "lon": -77.04628583333333, "name": "d0b286c86631f963ba51b84804c98a65"}, {"bike_id": "7c7810719c60b2e246391f9328b3be9f", "type": "electric_scooter", "is_disabled": 0, "lat": 38.905012166666666, "rental_uris": {"ios": "https://dc.lft.to/lastmile_qr_scan", "android": "https://dc.lft.to/lastmile_qr_scan"}, "is_reserved": 0, "fusion_lon": 0.0, "fusion_lat": 0.0, "lon": -77.06885533333333, "name": "7c7810719c60b2e246391f9328b3be9f"}, {"bike_id": "c934b39559b7f2604cc817d5fe0c2cf2", "type": "electric_bike", "is_disabled": 0, "lat": 38.88636183333333, "rental_uris": {"ios": "https://dc.lft.to/lastmile_qr_scan", "android": "https://dc.lft.to/lastmile_qr_scan"}, "is_reserved": 0, "fusion_lon": 0.0, "fusion_lat": 0.0, "lon": -77.12989666666667, "name": "c934b39559b7f2604cc817d5fe0c2cf2"}, {"bike_id": "bb1af9544c4c23ca88a8bacafaa261ee", "type": "electric_scooter", "is_disabled": 0, "lat": 38.898238666666664, "rental_uris": {"ios": "https://dc.lft.to/lastmile_qr_scan", "android": "https://dc.lft.to/lastmile_qr_scan"}, "is_reserved": 0, "fusion_lon": 0.0, "fusion_lat": 0.0, "lon": -77.03337533333334, "name": "bb1af9544c4c23ca88a8bacafaa261ee"}, {"bike_id": "89ab06ed77fac9562598f15535449cdd", "type": "electric_scooter", "is_disabled": 0, "lat": 38.900357, "rental_uris": {"ios": "https://dc.lft.to/lastmile_qr_scan", "android": "https://dc.lft.to/lastmile_qr_scan"}, "is_reserved": 0, "fusion_lon": 0.0, "fusion_lat": 0.0, "lon": -77.01302316666667, "name": "89ab06ed77fac9562598f15535449cdd"}, {"bike_id": "7aaead235f16bdb2eeadbb4848b317ff", "type": "electric_bike", "is_disabled": 0, "lat": 38.9523665, "rental_uris": {"ios": "https://dc.lft.to/lastmile_qr_scan", "android": "https://dc.lft.to/lastmile_qr_scan"}, "is_reserved": 0, "fusion_lon": 0.0, "fusion_lat": 0.0, "lon": -76.97957016666666, "name": "7aaead235f16bdb2eeadbb4848b317ff"}, {"bike_id": "fc9ce119d8826be3de21d583be425a4e", "type": "electric_scooter", "is_disabled": 0, "lat": 38.90139333333333, "rental_uris": {"ios": "https://dc.lft.to/lastmile_qr_scan", "android": "https://dc.lft.to/lastmile_qr_scan"}, "is_reserved": 0, "fusion_lon": 0.0, "fusion_lat": 0.0, "lon": -77.03880583333333, "name": "fc9ce119d8826be3de21d583be425a4e"}, {"bike_id": "2d69ddaf8e24b80f9e4633aa4598b9f4", "type": "electric_scooter", "is_disabled": 0, "lat": 38.90939083333333, "rental_uris": {"ios": "https://dc.lft.to/lastmile_qr_scan", "android": "https://dc.lft.to/lastmile_qr_scan"}, "is_reserved": 0, "fusion_lon": 0.0, "fusion_lat": 0.0, "lon": -77.03195366666667, "name": "2d69ddaf8e24b80f9e4633aa4598b9f4"}, {"bike_id": "a348f69443886630b4d5e5a206404982", "type": "electric_scooter", "is_disabled": 0, "lat": 38.904013666666664, "rental_uris": {"ios": "https://dc.lft.to/lastmile_qr_scan", "android": "https://dc.lft.to/lastmile_qr_scan"}, "is_reserved": 0, "fusion_lon": 0.0, "fusion_lat": 0.0, "lon": -77.06775666666667, "name": "a348f69443886630b4d5e5a206404982"}, {"bike_id": "811bf39551d0dfa913582882a111ad30", "type": "electric_scooter", "is_disabled": 0, "lat": 38.915264, "rental_uris": {"ios": "https://dc.lft.to/lastmile_qr_scan", "android": "https://dc.lft.to/lastmile_qr_scan"}, "is_reserved": 0, "fusion_lon": 0.0, "fusion_lat": 0.0, "lon": -77.02001533333333, "name": "811bf39551d0dfa913582882a111ad30"}, {"bike_id": "fe3234d123aec0772f14d310504def65", "type": "electric_scooter", "is_disabled": 0, "lat": 38.9411395, "rental_uris": {"ios": "https://dc.lft.to/lastmile_qr_scan", "android": "https://dc.lft.to/lastmile_qr_scan"}, "is_reserved": 0, "fusion_lon": 0.0, "fusion_lat": 0.0, "lon": -77.01550266666666, "name": "fe3234d123aec0772f14d310504def65"}, {"bike_id": "4428783fead06212b624e8f90b8884b9", "type": "electric_scooter", "is_disabled": 0, "lat": 38.9095315, "rental_uris": {"ios": "https://dc.lft.to/lastmile_qr_scan", "android": "https://dc.lft.to/lastmile_qr_scan"}, "is_reserved": 0, "fusion_lon": 0.0, "fusion_lat": 0.0, "lon": -77.048674, "name": "4428783fead06212b624e8f90b8884b9"}, {"bike_id": "9fd8d562b75e751daff0753354ee6bbd", "type": "electric_scooter", "is_disabled": 0, "lat": 38.89030183333333, "rental_uris": {"ios": "https://dc.lft.to/lastmile_qr_scan", "android": "https://dc.lft.to/lastmile_qr_scan"}, "is_reserved": 0, "fusion_lon": 0.0, "fusion_lat": 0.0, "lon": -76.93756416666666, "name": "9fd8d562b75e751daff0753354ee6bbd"}, {"bike_id": "ca06741457b6a79604f1fc04856f6a0f", "type": "electric_scooter", "is_disabled": 0, "lat": 38.918384833333334, "rental_uris": {"ios": "https://dc.lft.to/lastmile_qr_scan", "android": "https://dc.lft.to/lastmile_qr_scan"}, "is_reserved": 0, "fusion_lon": 0.0, "fusion_lat": 0.0, "lon": -76.96555816666667, "name": "ca06741457b6a79604f1fc04856f6a0f"}, {"bike_id": "ef6958bce1225b332f3dd2d1209b79e1", "type": "electric_scooter", "is_disabled": 0, "lat": 38.914720333333335, "rental_uris": {"ios": "https://dc.lft.to/lastmile_qr_scan", "android": "https://dc.lft.to/lastmile_qr_scan"}, "is_reserved": 0, "fusion_lon": 0.0, "fusion_lat": 0.0, "lon": -77.0321525, "name": "ef6958bce1225b332f3dd2d1209b79e1"}, {"bike_id": "b82a64db33d042874326945bebf43fb9", "type": "electric_scooter", "is_disabled": 0, "lat": 38.89801533333333, "rental_uris": {"ios": "https://dc.lft.to/lastmile_qr_scan", "android": "https://dc.lft.to/lastmile_qr_scan"}, "is_reserved": 0, "fusion_lon": 0.0, "fusion_lat": 0.0, "lon": -77.02490316666666, "name": "b82a64db33d042874326945bebf43fb9"}, {"bike_id": "c37f13f0f273c65ef9f35904ce1f2fd1", "type": "electric_scooter", "is_disabled": 0, "lat": 38.891917, "rental_uris": {"ios": "https://dc.lft.to/lastmile_qr_scan", "android": "https://dc.lft.to/lastmile_qr_scan"}, "is_reserved": 0, "fusion_lon": 0.0, "fusion_lat": 0.0, "lon": -76.9994345, "name": "c37f13f0f273c65ef9f35904ce1f2fd1"}, {"bike_id": "80711856611b3ab6c875eca9236a932e", "type": "electric_scooter", "is_disabled": 0, "lat": 38.91631783333333, "rental_uris": {"ios": "https://dc.lft.to/lastmile_qr_scan", "android": "https://dc.lft.to/lastmile_qr_scan"}, "is_reserved": 0, "fusion_lon": 0.0, "fusion_lat": 0.0, "lon": -77.00046016666667, "name": "80711856611b3ab6c875eca9236a932e"}, {"bike_id": "5a265b1005c47ce8f61cc993765f4207", "type": "electric_scooter", "is_disabled": 0, "lat": 38.932718666666666, "rental_uris": {"ios": "https://dc.lft.to/lastmile_qr_scan", "android": "https://dc.lft.to/lastmile_qr_scan"}, "is_reserved": 0, "fusion_lon": 0.0, "fusion_lat": 0.0, "lon": -77.03499816666667, "name": "5a265b1005c47ce8f61cc993765f4207"}, {"bike_id": "41859e5b9533e2b0e02197176f59e8a7", "type": "electric_scooter", "is_disabled": 0, "lat": 38.91691316666667, "rental_uris": {"ios": "https://dc.lft.to/lastmile_qr_scan", "android": "https://dc.lft.to/lastmile_qr_scan"}, "is_reserved": 0, "fusion_lon": 0.0, "fusion_lat": 0.0, "lon": -77.02183883333333, "name": "41859e5b9533e2b0e02197176f59e8a7"}, {"bike_id": "1b12c5985905e92e4f093fdd82484ed6", "type": "electric_scooter", "is_disabled": 0, "lat": 38.95651066666667, "rental_uris": {"ios": "https://dc.lft.to/lastmile_qr_scan", "android": "https://dc.lft.to/lastmile_qr_scan"}, "is_reserved": 0, "fusion_lon": 0.0, "fusion_lat": 0.0, "lon": -77.0197045, "name": "1b12c5985905e92e4f093fdd82484ed6"}, {"bike_id": "0f8de47c8f5da232deac2c3fa85c0c5a", "type": "electric_scooter", "is_disabled": 0, "lat": 38.862059333333335, "rental_uris": {"ios": "https://dc.lft.to/lastmile_qr_scan", "android": "https://dc.lft.to/lastmile_qr_scan"}, "is_reserved": 0, "fusion_lon": 0.0, "fusion_lat": 0.0, "lon": -76.99474633333334, "name": "0f8de47c8f5da232deac2c3fa85c0c5a"}, {"bike_id": "8f2b25df5e5c7e97c3c91bbbdd2274da", "type": "electric_scooter", "is_disabled": 0, "lat": 38.93104133333333, "rental_uris": {"ios": "https://dc.lft.to/lastmile_qr_scan", "android": "https://dc.lft.to/lastmile_qr_scan"}, "is_reserved": 0, "fusion_lon": 0.0, "fusion_lat": 0.0, "lon": -77.03467066666667, "name": "8f2b25df5e5c7e97c3c91bbbdd2274da"}, {"bike_id": "e2527b18ace068553f826c83753bc72d", "type": "electric_scooter", "is_disabled": 0, "lat": 38.9288, "rental_uris": {"ios": "https://dc.lft.to/lastmile_qr_scan", "android": "https://dc.lft.to/lastmile_qr_scan"}, "is_reserved": 0, "fusion_lon": 0.0, "fusion_lat": 0.0, "lon": -77.03255733333333, "name": "e2527b18ace068553f826c83753bc72d"}, {"bike_id": "a26c49ecac94890798f168a745b13c4a", "type": "electric_scooter", "is_disabled": 0, "lat": 38.90604, "rental_uris": {"ios": "https://dc.lft.to/lastmile_qr_scan", "android": "https://dc.lft.to/lastmile_qr_scan"}, "is_reserved": 0, "fusion_lon": 0.0, "fusion_lat": 0.0, "lon": -77.01615383333333, "name": "a26c49ecac94890798f168a745b13c4a"}, {"bike_id": "9e3217499a5de456342aa0d00834b901", "type": "electric_scooter", "is_disabled": 0, "lat": 38.92852033333333, "rental_uris": {"ios": "https://dc.lft.to/lastmile_qr_scan", "android": "https://dc.lft.to/lastmile_qr_scan"}, "is_reserved": 0, "fusion_lon": 0.0, "fusion_lat": 0.0, "lon": -77.036132, "name": "9e3217499a5de456342aa0d00834b901"}, {"bike_id": "b6e8800a4ee4f8314ab5a678743c1d46", "type": "electric_scooter", "is_disabled": 0, "lat": 38.920488, "rental_uris": {"ios": "https://dc.lft.to/lastmile_qr_scan", "android": "https://dc.lft.to/lastmile_qr_scan"}, "is_reserved": 0, "fusion_lon": 0.0, "fusion_lat": 0.0, "lon": -77.033934, "name": "b6e8800a4ee4f8314ab5a678743c1d46"}, {"bike_id": "acdcd285dbfd55dc35af838bd325c81c", "type": "electric_scooter", "is_disabled": 0, "lat": 38.922251833333334, "rental_uris": {"ios": "https://dc.lft.to/lastmile_qr_scan", "android": "https://dc.lft.to/lastmile_qr_scan"}, "is_reserved": 0, "fusion_lon": 0.0, "fusion_lat": 0.0, "lon": -77.04378716666666, "name": "acdcd285dbfd55dc35af838bd325c81c"}, {"bike_id": "cb474aeab970b0f664cf3d65496eee4d", "type": "electric_scooter", "is_disabled": 0, "lat": 38.94001216666667, "rental_uris": {"ios": "https://dc.lft.to/lastmile_qr_scan", "android": "https://dc.lft.to/lastmile_qr_scan"}, "is_reserved": 0, "fusion_lon": 0.0, "fusion_lat": 0.0, "lon": -77.03807033333334, "name": "cb474aeab970b0f664cf3d65496eee4d"}, {"bike_id": "9cbdcc2c1a98a14956080b795ce12758", "type": "electric_scooter", "is_disabled": 0, "lat": 38.88462166666667, "rental_uris": {"ios": "https://dc.lft.to/lastmile_qr_scan", "android": "https://dc.lft.to/lastmile_qr_scan"}, "is_reserved": 0, "fusion_lon": 0.0, "fusion_lat": 0.0, "lon": -77.0005, "name": "9cbdcc2c1a98a14956080b795ce12758"}, {"bike_id": "83841700865dde377e22ff721bb63b85", "type": "electric_scooter", "is_disabled": 0, "lat": 38.89543366666667, "rental_uris": {"ios": "https://dc.lft.to/lastmile_qr_scan", "android": "https://dc.lft.to/lastmile_qr_scan"}, "is_reserved": 0, "fusion_lon": 0.0, "fusion_lat": 0.0, "lon": -76.92955733333334, "name": "83841700865dde377e22ff721bb63b85"}, {"bike_id": "93bd4916faa2f0e75c7e1a7fb4500941", "type": "electric_scooter", "is_disabled": 0, "lat": 38.89282433333333, "rental_uris": {"ios": "https://dc.lft.to/lastmile_qr_scan", "android": "https://dc.lft.to/lastmile_qr_scan"}, "is_reserved": 0, "fusion_lon": 0.0, "fusion_lat": 0.0, "lon": -77.0336265, "name": "93bd4916faa2f0e75c7e1a7fb4500941"}, {"bike_id": "921e551ab1f5d4dc09378b57676582e1", "type": "electric_scooter", "is_disabled": 0, "lat": 38.90262, "rental_uris": {"ios": "https://dc.lft.to/lastmile_qr_scan", "android": "https://dc.lft.to/lastmile_qr_scan"}, "is_reserved": 0, "fusion_lon": 0.0, "fusion_lat": 0.0, "lon": -77.061346, "name": "921e551ab1f5d4dc09378b57676582e1"}, {"bike_id": "4f2592962e6dc8e52a903f65ef489f23", "type": "electric_scooter", "is_disabled": 0, "lat": 38.91854683333333, "rental_uris": {"ios": "https://dc.lft.to/lastmile_qr_scan", "android": "https://dc.lft.to/lastmile_qr_scan"}, "is_reserved": 0, "fusion_lon": 0.0, "fusion_lat": 0.0, "lon": -76.96112483333333, "name": "4f2592962e6dc8e52a903f65ef489f23"}, {"bike_id": "cd8495c821920031703c49b86b6f4ccc", "type": "electric_scooter", "is_disabled": 0, "lat": 38.899682, "rental_uris": {"ios": "https://dc.lft.to/lastmile_qr_scan", "android": "https://dc.lft.to/lastmile_qr_scan"}, "is_reserved": 0, "fusion_lon": 0.0, "fusion_lat": 0.0, "lon": -77.02393316666667, "name": "cd8495c821920031703c49b86b6f4ccc"}, {"bike_id": "799debe474654bf908c00b95becca4b8", "type": "electric_scooter", "is_disabled": 0, "lat": 38.8706805, "rental_uris": {"ios": "https://dc.lft.to/lastmile_qr_scan", "android": "https://dc.lft.to/lastmile_qr_scan"}, "is_reserved": 0, "fusion_lon": 0.0, "fusion_lat": 0.0, "lon": -76.98134466666667, "name": "799debe474654bf908c00b95becca4b8"}, {"bike_id": "cc4d8d3b7ce698fa7f88ec501b780843", "type": "electric_scooter", "is_disabled": 0, "lat": 38.899071166666666, "rental_uris": {"ios": "https://dc.lft.to/lastmile_qr_scan", "android": "https://dc.lft.to/lastmile_qr_scan"}, "is_reserved": 0, "fusion_lon": 0.0, "fusion_lat": 0.0, "lon": -77.03982566666667, "name": "cc4d8d3b7ce698fa7f88ec501b780843"}, {"bike_id": "e91faa878d7b2b5662bc0f47643189b7", "type": "electric_scooter", "is_disabled": 0, "lat": 38.926971, "rental_uris": {"ios": "https://dc.lft.to/lastmile_qr_scan", "android": "https://dc.lft.to/lastmile_qr_scan"}, "is_reserved": 0, "fusion_lon": 0.0, "fusion_lat": 0.0, "lon": -77.0209585, "name": "e91faa878d7b2b5662bc0f47643189b7"}, {"bike_id": "248e3b454a0479fb9f92c60f1fe40e76", "type": "electric_scooter", "is_disabled": 0, "lat": 38.932474166666665, "rental_uris": {"ios": "https://dc.lft.to/lastmile_qr_scan", "android": "https://dc.lft.to/lastmile_qr_scan"}, "is_reserved": 0, "fusion_lon": 0.0, "fusion_lat": 0.0, "lon": -77.02010766666666, "name": "248e3b454a0479fb9f92c60f1fe40e76"}, {"bike_id": "6fbee6759ee15941d35fbfb8759d928f", "type": "electric_scooter", "is_disabled": 0, "lat": 38.889958, "rental_uris": {"ios": "https://dc.lft.to/lastmile_qr_scan", "android": "https://dc.lft.to/lastmile_qr_scan"}, "is_reserved": 0, "fusion_lon": 0.0, "fusion_lat": 0.0, "lon": -77.0021, "name": "6fbee6759ee15941d35fbfb8759d928f"}, {"bike_id": "6f0f1fe0238d90b7b04e21367269f081", "type": "electric_bike", "is_disabled": 0, "lat": 38.8615565, "rental_uris": {"ios": "https://dc.lft.to/lastmile_qr_scan", "android": "https://dc.lft.to/lastmile_qr_scan"}, "is_reserved": 0, "fusion_lon": 0.0, "fusion_lat": 0.0, "lon": -77.091463, "name": "6f0f1fe0238d90b7b04e21367269f081"}, {"bike_id": "f269dcb8122b77769aa345497deccea0", "type": "electric_scooter", "is_disabled": 0, "lat": 38.8984415, "rental_uris": {"ios": "https://dc.lft.to/lastmile_qr_scan", "android": "https://dc.lft.to/lastmile_qr_scan"}, "is_reserved": 0, "fusion_lon": 0.0, "fusion_lat": 0.0, "lon": -76.946325, "name": "f269dcb8122b77769aa345497deccea0"}, {"bike_id": "17aa3b3a3955890f06d1981bdaad81f9", "type": "electric_bike", "is_disabled": 0, "lat": 39.05500683333333, "rental_uris": {"ios": "https://dc.lft.to/lastmile_qr_scan", "android": "https://dc.lft.to/lastmile_qr_scan"}, "is_reserved": 0, "fusion_lon": 0.0, "fusion_lat": 0.0, "lon": -77.0465725, "name": "17aa3b3a3955890f06d1981bdaad81f9"}, {"bike_id": "4c4f75e2b7d063a1f002d1a4f83d0805", "type": "electric_scooter", "is_disabled": 0, "lat": 38.90275783333333, "rental_uris": {"ios": "https://dc.lft.to/lastmile_qr_scan", "android": "https://dc.lft.to/lastmile_qr_scan"}, "is_reserved": 0, "fusion_lon": 0.0, "fusion_lat": 0.0, "lon": -77.05815666666666, "name": "4c4f75e2b7d063a1f002d1a4f83d0805"}, {"bike_id": "28735f8785b035826715b04e011afaf8", "type": "electric_scooter", "is_disabled": 0, "lat": 38.9375775, "rental_uris": {"ios": "https://dc.lft.to/lastmile_qr_scan", "android": "https://dc.lft.to/lastmile_qr_scan"}, "is_reserved": 0, "fusion_lon": 0.0, "fusion_lat": 0.0, "lon": -77.03265583333334, "name": "28735f8785b035826715b04e011afaf8"}, {"bike_id": "7f98b1449fd18b21e08131dc59798790", "type": "electric_scooter", "is_disabled": 0, "lat": 38.90152, "rental_uris": {"ios": "https://dc.lft.to/lastmile_qr_scan", "android": "https://dc.lft.to/lastmile_qr_scan"}, "is_reserved": 0, "fusion_lon": 0.0, "fusion_lat": 0.0, "lon": -77.02284466666667, "name": "7f98b1449fd18b21e08131dc59798790"}, {"bike_id": "3054015f84fba24295e58e25006fe030", "type": "electric_bike", "is_disabled": 0, "lat": 38.95245666666667, "rental_uris": {"ios": "https://dc.lft.to/lastmile_qr_scan", "android": "https://dc.lft.to/lastmile_qr_scan"}, "is_reserved": 0, "fusion_lon": 0.0, "fusion_lat": 0.0, "lon": -76.97680533333333, "name": "3054015f84fba24295e58e25006fe030"}, {"bike_id": "61951e2bf79e604be9e49f6854e0b703", "type": "electric_scooter", "is_disabled": 0, "lat": 38.923859666666665, "rental_uris": {"ios": "https://dc.lft.to/lastmile_qr_scan", "android": "https://dc.lft.to/lastmile_qr_scan"}, "is_reserved": 0, "fusion_lon": 0.0, "fusion_lat": 0.0, "lon": -77.05047733333333, "name": "61951e2bf79e604be9e49f6854e0b703"}, {"bike_id": "021b280034c44389f63af645f1603580", "type": "electric_bike", "is_disabled": 0, "lat": 38.963117833333335, "rental_uris": {"ios": "https://dc.lft.to/lastmile_qr_scan", "android": "https://dc.lft.to/lastmile_qr_scan"}, "is_reserved": 0, "fusion_lon": 0.0, "fusion_lat": 0.0, "lon": -76.97360816666666, "name": "021b280034c44389f63af645f1603580"}, {"bike_id": "3aad8898c69c35f5b3c11f5ff95161dd", "type": "electric_scooter", "is_disabled": 0, "lat": 38.887119, "rental_uris": {"ios": "https://dc.lft.to/lastmile_qr_scan", "android": "https://dc.lft.to/lastmile_qr_scan"}, "is_reserved": 0, "fusion_lon": 0.0, "fusion_lat": 0.0, "lon": -77.022136, "name": "3aad8898c69c35f5b3c11f5ff95161dd"}, {"bike_id": "86ca42af0feb84bf79a69fd165c54c4f", "type": "electric_scooter", "is_disabled": 0, "lat": 38.8711375, "rental_uris": {"ios": "https://dc.lft.to/lastmile_qr_scan", "android": "https://dc.lft.to/lastmile_qr_scan"}, "is_reserved": 0, "fusion_lon": 0.0, "fusion_lat": 0.0, "lon": -77.0076885, "name": "86ca42af0feb84bf79a69fd165c54c4f"}, {"bike_id": "39fd73643b84b9acf622cc34727af045", "type": "electric_scooter", "is_disabled": 0, "lat": 38.90528466666667, "rental_uris": {"ios": "https://dc.lft.to/lastmile_qr_scan", "android": "https://dc.lft.to/lastmile_qr_scan"}, "is_reserved": 0, "fusion_lon": 0.0, "fusion_lat": 0.0, "lon": -77.07030283333333, "name": "39fd73643b84b9acf622cc34727af045"}, {"bike_id": "0bcab53ae1aa9a0ff8fb63f18554929d", "type": "electric_scooter", "is_disabled": 0, "lat": 38.90805966666667, "rental_uris": {"ios": "https://dc.lft.to/lastmile_qr_scan", "android": "https://dc.lft.to/lastmile_qr_scan"}, "is_reserved": 0, "fusion_lon": 0.0, "fusion_lat": 0.0, "lon": -77.08416433333333, "name": "0bcab53ae1aa9a0ff8fb63f18554929d"}, {"bike_id": "6556a4c1b9c6fb836ff3a825c55392ee", "type": "electric_scooter", "is_disabled": 0, "lat": 38.87418866666667, "rental_uris": {"ios": "https://dc.lft.to/lastmile_qr_scan", "android": "https://dc.lft.to/lastmile_qr_scan"}, "is_reserved": 0, "fusion_lon": 0.0, "fusion_lat": 0.0, "lon": -76.9690925, "name": "6556a4c1b9c6fb836ff3a825c55392ee"}, {"bike_id": "c00052fea087f30b5013060322b5f488", "type": "electric_scooter", "is_disabled": 0, "lat": 38.9111515, "rental_uris": {"ios": "https://dc.lft.to/lastmile_qr_scan", "android": "https://dc.lft.to/lastmile_qr_scan"}, "is_reserved": 0, "fusion_lon": 0.0, "fusion_lat": 0.0, "lon": -77.031759, "name": "c00052fea087f30b5013060322b5f488"}, {"bike_id": "d24c90707fab10702d90c87a95bb3491", "type": "electric_scooter", "is_disabled": 0, "lat": 38.918444, "rental_uris": {"ios": "https://dc.lft.to/lastmile_qr_scan", "android": "https://dc.lft.to/lastmile_qr_scan"}, "is_reserved": 0, "fusion_lon": 0.0, "fusion_lat": 0.0, "lon": -76.96556783333334, "name": "d24c90707fab10702d90c87a95bb3491"}, {"bike_id": "3f320eaacb1e3bc1cc64ce093a405ca2", "type": "electric_scooter", "is_disabled": 0, "lat": 38.886480166666665, "rental_uris": {"ios": "https://dc.lft.to/lastmile_qr_scan", "android": "https://dc.lft.to/lastmile_qr_scan"}, "is_reserved": 0, "fusion_lon": 0.0, "fusion_lat": 0.0, "lon": -77.00122466666667, "name": "3f320eaacb1e3bc1cc64ce093a405ca2"}, {"bike_id": "29adaadc72c406392cb7b681aca6cde9", "type": "electric_scooter", "is_disabled": 0, "lat": 38.92194083333333, "rental_uris": {"ios": "https://dc.lft.to/lastmile_qr_scan", "android": "https://dc.lft.to/lastmile_qr_scan"}, "is_reserved": 0, "fusion_lon": 0.0, "fusion_lat": 0.0, "lon": -76.99704316666667, "name": "29adaadc72c406392cb7b681aca6cde9"}, {"bike_id": "7fb004a9b0fbd8cef41453b937052b7b", "type": "electric_scooter", "is_disabled": 0, "lat": 38.9016665, "rental_uris": {"ios": "https://dc.lft.to/lastmile_qr_scan", "android": "https://dc.lft.to/lastmile_qr_scan"}, "is_reserved": 0, "fusion_lon": 0.0, "fusion_lat": 0.0, "lon": -76.93027366666666, "name": "7fb004a9b0fbd8cef41453b937052b7b"}, {"bike_id": "1199888e0078e28ce3c3b2ef1dbbb156", "type": "electric_scooter", "is_disabled": 0, "lat": 38.886982833333334, "rental_uris": {"ios": "https://dc.lft.to/lastmile_qr_scan", "android": "https://dc.lft.to/lastmile_qr_scan"}, "is_reserved": 0, "fusion_lon": 0.0, "fusion_lat": 0.0, "lon": -76.99615066666667, "name": "1199888e0078e28ce3c3b2ef1dbbb156"}, {"bike_id": "d66920ac6a9beea13c2f3505f303db73", "type": "electric_scooter", "is_disabled": 0, "lat": 38.95654366666667, "rental_uris": {"ios": "https://dc.lft.to/lastmile_qr_scan", "android": "https://dc.lft.to/lastmile_qr_scan"}, "is_reserved": 0, "fusion_lon": 0.0, "fusion_lat": 0.0, "lon": -77.01005966666666, "name": "d66920ac6a9beea13c2f3505f303db73"}, {"bike_id": "7d79f17d6250d579c1025427bb975d63", "type": "electric_scooter", "is_disabled": 0, "lat": 38.95628683333333, "rental_uris": {"ios": "https://dc.lft.to/lastmile_qr_scan", "android": "https://dc.lft.to/lastmile_qr_scan"}, "is_reserved": 0, "fusion_lon": 0.0, "fusion_lat": 0.0, "lon": -77.01153233333334, "name": "7d79f17d6250d579c1025427bb975d63"}, {"bike_id": "9c7b20cdf1bab442a0e8dbbbd7d12ba2", "type": "electric_bike", "is_disabled": 0, "lat": 38.798521666666666, "rental_uris": {"ios": "https://dc.lft.to/lastmile_qr_scan", "android": "https://dc.lft.to/lastmile_qr_scan"}, "is_reserved": 0, "fusion_lon": 0.0, "fusion_lat": 0.0, "lon": -77.06312833333334, "name": "9c7b20cdf1bab442a0e8dbbbd7d12ba2"}, {"bike_id": "8d8f241b1a2a0f866a00f900b5ac5e14", "type": "electric_scooter", "is_disabled": 0, "lat": 38.9052175, "rental_uris": {"ios": "https://dc.lft.to/lastmile_qr_scan", "android": "https://dc.lft.to/lastmile_qr_scan"}, "is_reserved": 0, "fusion_lon": 0.0, "fusion_lat": 0.0, "lon": -77.06382283333333, "name": "8d8f241b1a2a0f866a00f900b5ac5e14"}, {"bike_id": "616f3d521ce3d221d332ae84c8fe44de", "type": "electric_scooter", "is_disabled": 0, "lat": 38.900540166666666, "rental_uris": {"ios": "https://dc.lft.to/lastmile_qr_scan", "android": "https://dc.lft.to/lastmile_qr_scan"}, "is_reserved": 0, "fusion_lon": 0.0, "fusion_lat": 0.0, "lon": -77.01226716666666, "name": "616f3d521ce3d221d332ae84c8fe44de"}, {"bike_id": "ab2e74e98989cd019037705b32503e62", "type": "electric_bike", "is_disabled": 0, "lat": 38.874702, "rental_uris": {"ios": "https://dc.lft.to/lastmile_qr_scan", "android": "https://dc.lft.to/lastmile_qr_scan"}, "is_reserved": 0, "fusion_lon": 0.0, "fusion_lat": 0.0, "lon": -76.96519866666667, "name": "ab2e74e98989cd019037705b32503e62"}, {"bike_id": "c62648f3dbc057467065d22d7251954c", "type": "electric_scooter", "is_disabled": 0, "lat": 38.915035833333334, "rental_uris": {"ios": "https://dc.lft.to/lastmile_qr_scan", "android": "https://dc.lft.to/lastmile_qr_scan"}, "is_reserved": 0, "fusion_lon": 0.0, "fusion_lat": 0.0, "lon": -77.017781, "name": "c62648f3dbc057467065d22d7251954c"}, {"bike_id": "850349f23be47f9fb5bd7ab45c0569bf", "type": "electric_scooter", "is_disabled": 0, "lat": 38.90732233333333, "rental_uris": {"ios": "https://dc.lft.to/lastmile_qr_scan", "android": "https://dc.lft.to/lastmile_qr_scan"}, "is_reserved": 0, "fusion_lon": 0.0, "fusion_lat": 0.0, "lon": -77.0393655, "name": "850349f23be47f9fb5bd7ab45c0569bf"}, {"bike_id": "33737fe55f3902855d5203e94bd2bf7c", "type": "electric_scooter", "is_disabled": 0, "lat": 38.924525833333334, "rental_uris": {"ios": "https://dc.lft.to/lastmile_qr_scan", "android": "https://dc.lft.to/lastmile_qr_scan"}, "is_reserved": 0, "fusion_lon": 0.0, "fusion_lat": 0.0, "lon": -77.04406933333334, "name": "33737fe55f3902855d5203e94bd2bf7c"}, {"bike_id": "80b5f3dde69928689a775b793007f843", "type": "electric_scooter", "is_disabled": 0, "lat": 38.918445, "rental_uris": {"ios": "https://dc.lft.to/lastmile_qr_scan", "android": "https://dc.lft.to/lastmile_qr_scan"}, "is_reserved": 0, "fusion_lon": 0.0, "fusion_lat": 0.0, "lon": -76.96555366666666, "name": "80b5f3dde69928689a775b793007f843"}, {"bike_id": "7774d642047e3c75e6d11723526b76a6", "type": "electric_scooter", "is_disabled": 0, "lat": 38.89476116666667, "rental_uris": {"ios": "https://dc.lft.to/lastmile_qr_scan", "android": "https://dc.lft.to/lastmile_qr_scan"}, "is_reserved": 0, "fusion_lon": 0.0, "fusion_lat": 0.0, "lon": -76.94863033333333, "name": "7774d642047e3c75e6d11723526b76a6"}, {"bike_id": "f7e41be38f127efee0d88144a38beefa", "type": "electric_scooter", "is_disabled": 0, "lat": 38.894251, "rental_uris": {"ios": "https://dc.lft.to/lastmile_qr_scan", "android": "https://dc.lft.to/lastmile_qr_scan"}, "is_reserved": 0, "fusion_lon": 0.0, "fusion_lat": 0.0, "lon": -77.01052116666666, "name": "f7e41be38f127efee0d88144a38beefa"}, {"bike_id": "929357ce602ed828298d3091aa1e79b7", "type": "electric_bike", "is_disabled": 0, "lat": 38.978787833333335, "rental_uris": {"ios": "https://dc.lft.to/lastmile_qr_scan", "android": "https://dc.lft.to/lastmile_qr_scan"}, "is_reserved": 0, "fusion_lon": 0.0, "fusion_lat": 0.0, "lon": -77.06034166666667, "name": "929357ce602ed828298d3091aa1e79b7"}, {"bike_id": "45dc7cc3e0ee17a400c466e8364232c0", "type": "electric_scooter", "is_disabled": 0, "lat": 38.93142533333334, "rental_uris": {"ios": "https://dc.lft.to/lastmile_qr_scan", "android": "https://dc.lft.to/lastmile_qr_scan"}, "is_reserved": 0, "fusion_lon": 0.0, "fusion_lat": 0.0, "lon": -77.03356916666667, "name": "45dc7cc3e0ee17a400c466e8364232c0"}, {"bike_id": "0ee6409bfd8a08bc6ba14db5b4aaa1ec", "type": "electric_scooter", "is_disabled": 0, "lat": 38.91843433333333, "rental_uris": {"ios": "https://dc.lft.to/lastmile_qr_scan", "android": "https://dc.lft.to/lastmile_qr_scan"}, "is_reserved": 0, "fusion_lon": 0.0, "fusion_lat": 0.0, "lon": -76.96565833333334, "name": "0ee6409bfd8a08bc6ba14db5b4aaa1ec"}, {"bike_id": "ac22f88bcf3b981d62a46fd3a56cf813", "type": "electric_scooter", "is_disabled": 0, "lat": 38.94020116666667, "rental_uris": {"ios": "https://dc.lft.to/lastmile_qr_scan", "android": "https://dc.lft.to/lastmile_qr_scan"}, "is_reserved": 0, "fusion_lon": 0.0, "fusion_lat": 0.0, "lon": -76.97614133333333, "name": "ac22f88bcf3b981d62a46fd3a56cf813"}, {"bike_id": "8eac6bc2507ab0a8069f1ed7f3746327", "type": "electric_scooter", "is_disabled": 0, "lat": 38.90819666666667, "rental_uris": {"ios": "https://dc.lft.to/lastmile_qr_scan", "android": "https://dc.lft.to/lastmile_qr_scan"}, "is_reserved": 0, "fusion_lon": 0.0, "fusion_lat": 0.0, "lon": -77.03173883333334, "name": "8eac6bc2507ab0a8069f1ed7f3746327"}, {"bike_id": "58896e0412840f55b4970d918e65fbdd", "type": "electric_scooter", "is_disabled": 0, "lat": 38.895335833333334, "rental_uris": {"ios": "https://dc.lft.to/lastmile_qr_scan", "android": "https://dc.lft.to/lastmile_qr_scan"}, "is_reserved": 0, "fusion_lon": 0.0, "fusion_lat": 0.0, "lon": -76.98858766666666, "name": "58896e0412840f55b4970d918e65fbdd"}, {"bike_id": "c99b9e192040c726f21aa7913ec9e8cf", "type": "electric_scooter", "is_disabled": 0, "lat": 38.90513383333333, "rental_uris": {"ios": "https://dc.lft.to/lastmile_qr_scan", "android": "https://dc.lft.to/lastmile_qr_scan"}, "is_reserved": 0, "fusion_lon": 0.0, "fusion_lat": 0.0, "lon": -77.06777166666667, "name": "c99b9e192040c726f21aa7913ec9e8cf"}, {"bike_id": "7adc7c182faea29d5bec44c264a770f8", "type": "electric_scooter", "is_disabled": 0, "lat": 38.84537733333333, "rental_uris": {"ios": "https://dc.lft.to/lastmile_qr_scan", "android": "https://dc.lft.to/lastmile_qr_scan"}, "is_reserved": 0, "fusion_lon": 0.0, "fusion_lat": 0.0, "lon": -76.98548983333333, "name": "7adc7c182faea29d5bec44c264a770f8"}, {"bike_id": "108ecb4a2cfb9683ed0f3f9e79f33e21", "type": "electric_scooter", "is_disabled": 0, "lat": 38.918538, "rental_uris": {"ios": "https://dc.lft.to/lastmile_qr_scan", "android": "https://dc.lft.to/lastmile_qr_scan"}, "is_reserved": 0, "fusion_lon": 0.0, "fusion_lat": 0.0, "lon": -77.041694, "name": "108ecb4a2cfb9683ed0f3f9e79f33e21"}, {"bike_id": "ae4f3251d7c4a1e87a4f61d08c9067bc", "type": "electric_scooter", "is_disabled": 0, "lat": 38.922731666666664, "rental_uris": {"ios": "https://dc.lft.to/lastmile_qr_scan", "android": "https://dc.lft.to/lastmile_qr_scan"}, "is_reserved": 0, "fusion_lon": 0.0, "fusion_lat": 0.0, "lon": -77.04251116666667, "name": "ae4f3251d7c4a1e87a4f61d08c9067bc"}, {"bike_id": "7214cbbb3964cdec1cf3c843bfadc630", "type": "electric_scooter", "is_disabled": 0, "lat": 38.91816033333333, "rental_uris": {"ios": "https://dc.lft.to/lastmile_qr_scan", "android": "https://dc.lft.to/lastmile_qr_scan"}, "is_reserved": 0, "fusion_lon": 0.0, "fusion_lat": 0.0, "lon": -77.0320005, "name": "7214cbbb3964cdec1cf3c843bfadc630"}, {"bike_id": "00ab46c6447fe1a7ff163ef48998b826", "type": "electric_scooter", "is_disabled": 0, "lat": 38.92317583333333, "rental_uris": {"ios": "https://dc.lft.to/lastmile_qr_scan", "android": "https://dc.lft.to/lastmile_qr_scan"}, "is_reserved": 0, "fusion_lon": 0.0, "fusion_lat": 0.0, "lon": -77.04640966666666, "name": "00ab46c6447fe1a7ff163ef48998b826"}, {"bike_id": "bdd74eeab71d341d0724402d1b893f66", "type": "electric_bike", "is_disabled": 0, "lat": 38.94798216666667, "rental_uris": {"ios": "https://dc.lft.to/lastmile_qr_scan", "android": "https://dc.lft.to/lastmile_qr_scan"}, "is_reserved": 0, "fusion_lon": 0.0, "fusion_lat": 0.0, "lon": -76.955494, "name": "bdd74eeab71d341d0724402d1b893f66"}, {"bike_id": "d3a8ab54a1e16d060dab18af996c0422", "type": "electric_scooter", "is_disabled": 0, "lat": 38.90725333333334, "rental_uris": {"ios": "https://dc.lft.to/lastmile_qr_scan", "android": "https://dc.lft.to/lastmile_qr_scan"}, "is_reserved": 0, "fusion_lon": 0.0, "fusion_lat": 0.0, "lon": -77.02256616666666, "name": "d3a8ab54a1e16d060dab18af996c0422"}, {"bike_id": "68a6af85e690d9c3a19327c1525d6fd9", "type": "electric_scooter", "is_disabled": 0, "lat": 38.9155235, "rental_uris": {"ios": "https://dc.lft.to/lastmile_qr_scan", "android": "https://dc.lft.to/lastmile_qr_scan"}, "is_reserved": 0, "fusion_lon": 0.0, "fusion_lat": 0.0, "lon": -77.0317875, "name": "68a6af85e690d9c3a19327c1525d6fd9"}, {"bike_id": "db83d70f04f9a9f2b32ebf159b05e14a", "type": "electric_scooter", "is_disabled": 0, "lat": 38.90846616666666, "rental_uris": {"ios": "https://dc.lft.to/lastmile_qr_scan", "android": "https://dc.lft.to/lastmile_qr_scan"}, "is_reserved": 0, "fusion_lon": 0.0, "fusion_lat": 0.0, "lon": -77.02429066666667, "name": "db83d70f04f9a9f2b32ebf159b05e14a"}, {"bike_id": "47f836fde595b2e0b712ec80faebfc87", "type": "electric_scooter", "is_disabled": 0, "lat": 38.907052, "rental_uris": {"ios": "https://dc.lft.to/lastmile_qr_scan", "android": "https://dc.lft.to/lastmile_qr_scan"}, "is_reserved": 0, "fusion_lon": 0.0, "fusion_lat": 0.0, "lon": -77.02401566666667, "name": "47f836fde595b2e0b712ec80faebfc87"}, {"bike_id": "50dc83b154d992141747acedb9216733", "type": "electric_scooter", "is_disabled": 0, "lat": 38.84307916666667, "rental_uris": {"ios": "https://dc.lft.to/lastmile_qr_scan", "android": "https://dc.lft.to/lastmile_qr_scan"}, "is_reserved": 0, "fusion_lon": 0.0, "fusion_lat": 0.0, "lon": -76.999322, "name": "50dc83b154d992141747acedb9216733"}, {"bike_id": "cb109f7dcf28d3cadd5f4d988939f14a", "type": "electric_scooter", "is_disabled": 0, "lat": 38.892228333333335, "rental_uris": {"ios": "https://dc.lft.to/lastmile_qr_scan", "android": "https://dc.lft.to/lastmile_qr_scan"}, "is_reserved": 0, "fusion_lon": 0.0, "fusion_lat": 0.0, "lon": -77.01373333333333, "name": "cb109f7dcf28d3cadd5f4d988939f14a"}, {"bike_id": "46e97255b663d5fba21d34ba52fdfad8", "type": "electric_scooter", "is_disabled": 0, "lat": 38.87488483333333, "rental_uris": {"ios": "https://dc.lft.to/lastmile_qr_scan", "android": "https://dc.lft.to/lastmile_qr_scan"}, "is_reserved": 0, "fusion_lon": 0.0, "fusion_lat": 0.0, "lon": -77.0011125, "name": "46e97255b663d5fba21d34ba52fdfad8"}, {"bike_id": "c37d9216cac6e4196559521838423c4d", "type": "electric_scooter", "is_disabled": 0, "lat": 38.9155885, "rental_uris": {"ios": "https://dc.lft.to/lastmile_qr_scan", "android": "https://dc.lft.to/lastmile_qr_scan"}, "is_reserved": 0, "fusion_lon": 0.0, "fusion_lat": 0.0, "lon": -77.02570283333333, "name": "c37d9216cac6e4196559521838423c4d"}, {"bike_id": "70a08b7bd67f13a1b8d70dc10a7e66fc", "type": "electric_scooter", "is_disabled": 0, "lat": 38.92152683333333, "rental_uris": {"ios": "https://dc.lft.to/lastmile_qr_scan", "android": "https://dc.lft.to/lastmile_qr_scan"}, "is_reserved": 0, "fusion_lon": 0.0, "fusion_lat": 0.0, "lon": -77.03518183333334, "name": "70a08b7bd67f13a1b8d70dc10a7e66fc"}, {"bike_id": "f9f0028c8145371282f36966ef5eec2b", "type": "electric_bike", "is_disabled": 0, "lat": 38.85352783333333, "rental_uris": {"ios": "https://dc.lft.to/lastmile_qr_scan", "android": "https://dc.lft.to/lastmile_qr_scan"}, "is_reserved": 0, "fusion_lon": 0.0, "fusion_lat": 0.0, "lon": -77.08688116666667, "name": "f9f0028c8145371282f36966ef5eec2b"}, {"bike_id": "d528d7faf24e9be77d31d8c928be3302", "type": "electric_scooter", "is_disabled": 0, "lat": 38.95729433333333, "rental_uris": {"ios": "https://dc.lft.to/lastmile_qr_scan", "android": "https://dc.lft.to/lastmile_qr_scan"}, "is_reserved": 0, "fusion_lon": 0.0, "fusion_lat": 0.0, "lon": -77.028062, "name": "d528d7faf24e9be77d31d8c928be3302"}, {"bike_id": "b21a9baaaea386139ba0a5c6e6089421", "type": "electric_scooter", "is_disabled": 0, "lat": 38.914858, "rental_uris": {"ios": "https://dc.lft.to/lastmile_qr_scan", "android": "https://dc.lft.to/lastmile_qr_scan"}, "is_reserved": 0, "fusion_lon": 0.0, "fusion_lat": 0.0, "lon": -77.00290666666666, "name": "b21a9baaaea386139ba0a5c6e6089421"}, {"bike_id": "c3d3c716c2968948ac58636613545ab1", "type": "electric_bike", "is_disabled": 0, "lat": 38.982101, "rental_uris": {"ios": "https://dc.lft.to/lastmile_qr_scan", "android": "https://dc.lft.to/lastmile_qr_scan"}, "is_reserved": 0, "fusion_lon": 0.0, "fusion_lat": 0.0, "lon": -77.0267455, "name": "c3d3c716c2968948ac58636613545ab1"}, {"bike_id": "ea7496675e2d5e05f5cf1cb2547bce54", "type": "electric_scooter", "is_disabled": 0, "lat": 38.864999, "rental_uris": {"ios": "https://dc.lft.to/lastmile_qr_scan", "android": "https://dc.lft.to/lastmile_qr_scan"}, "is_reserved": 0, "fusion_lon": 0.0, "fusion_lat": 0.0, "lon": -76.990077, "name": "ea7496675e2d5e05f5cf1cb2547bce54"}, {"bike_id": "74a611b13475337c522bb8a7e240e0cf", "type": "electric_scooter", "is_disabled": 0, "lat": 38.91690466666667, "rental_uris": {"ios": "https://dc.lft.to/lastmile_qr_scan", "android": "https://dc.lft.to/lastmile_qr_scan"}, "is_reserved": 0, "fusion_lon": 0.0, "fusion_lat": 0.0, "lon": -77.02902333333333, "name": "74a611b13475337c522bb8a7e240e0cf"}, {"bike_id": "2869844fdc3944975bff0f03d9774199", "type": "electric_scooter", "is_disabled": 0, "lat": 38.899648, "rental_uris": {"ios": "https://dc.lft.to/lastmile_qr_scan", "android": "https://dc.lft.to/lastmile_qr_scan"}, "is_reserved": 0, "fusion_lon": 0.0, "fusion_lat": 0.0, "lon": -76.9830785, "name": "2869844fdc3944975bff0f03d9774199"}, {"bike_id": "5a40e6623cb613464c25a3540335cdb1", "type": "electric_scooter", "is_disabled": 0, "lat": 38.91600533333333, "rental_uris": {"ios": "https://dc.lft.to/lastmile_qr_scan", "android": "https://dc.lft.to/lastmile_qr_scan"}, "is_reserved": 0, "fusion_lon": 0.0, "fusion_lat": 0.0, "lon": -77.039864, "name": "5a40e6623cb613464c25a3540335cdb1"}, {"bike_id": "59707941ef41a66b0f604092c9f9ac65", "type": "electric_bike", "is_disabled": 0, "lat": 38.943626, "rental_uris": {"ios": "https://dc.lft.to/lastmile_qr_scan", "android": "https://dc.lft.to/lastmile_qr_scan"}, "is_reserved": 0, "fusion_lon": 0.0, "fusion_lat": 0.0, "lon": -77.00355, "name": "59707941ef41a66b0f604092c9f9ac65"}, {"bike_id": "e7e260741500ede64c12439d28951932", "type": "electric_scooter", "is_disabled": 0, "lat": 38.90786933333333, "rental_uris": {"ios": "https://dc.lft.to/lastmile_qr_scan", "android": "https://dc.lft.to/lastmile_qr_scan"}, "is_reserved": 0, "fusion_lon": 0.0, "fusion_lat": 0.0, "lon": -76.99433066666667, "name": "e7e260741500ede64c12439d28951932"}, {"bike_id": "69eb144c725d81fe591af8043c5cf319", "type": "electric_scooter", "is_disabled": 0, "lat": 38.9397755, "rental_uris": {"ios": "https://dc.lft.to/lastmile_qr_scan", "android": "https://dc.lft.to/lastmile_qr_scan"}, "is_reserved": 0, "fusion_lon": 0.0, "fusion_lat": 0.0, "lon": -77.028709, "name": "69eb144c725d81fe591af8043c5cf319"}, {"bike_id": "34fd37fa4f731ecbbb59c4e2d231ba15", "type": "electric_scooter", "is_disabled": 0, "lat": 38.92703016666667, "rental_uris": {"ios": "https://dc.lft.to/lastmile_qr_scan", "android": "https://dc.lft.to/lastmile_qr_scan"}, "is_reserved": 0, "fusion_lon": 0.0, "fusion_lat": 0.0, "lon": -77.0206875, "name": "34fd37fa4f731ecbbb59c4e2d231ba15"}, {"bike_id": "9427234ec35f0f1b8bdebadc13196e62", "type": "electric_scooter", "is_disabled": 0, "lat": 38.946107166666664, "rental_uris": {"ios": "https://dc.lft.to/lastmile_qr_scan", "android": "https://dc.lft.to/lastmile_qr_scan"}, "is_reserved": 0, "fusion_lon": 0.0, "fusion_lat": 0.0, "lon": -77.0227425, "name": "9427234ec35f0f1b8bdebadc13196e62"}, {"bike_id": "b0e4a7ca96263922405d8a66fe781b3c", "type": "electric_scooter", "is_disabled": 0, "lat": 38.90862383333333, "rental_uris": {"ios": "https://dc.lft.to/lastmile_qr_scan", "android": "https://dc.lft.to/lastmile_qr_scan"}, "is_reserved": 0, "fusion_lon": 0.0, "fusion_lat": 0.0, "lon": -76.99942666666666, "name": "b0e4a7ca96263922405d8a66fe781b3c"}, {"bike_id": "eb26f2b550f32cca4234e7a4a152c681", "type": "electric_scooter", "is_disabled": 0, "lat": 38.93316266666667, "rental_uris": {"ios": "https://dc.lft.to/lastmile_qr_scan", "android": "https://dc.lft.to/lastmile_qr_scan"}, "is_reserved": 0, "fusion_lon": 0.0, "fusion_lat": 0.0, "lon": -77.02392133333333, "name": "eb26f2b550f32cca4234e7a4a152c681"}, {"bike_id": "b66f64e4c0116e6a12ee78e03dee155e", "type": "electric_scooter", "is_disabled": 0, "lat": 38.8662555, "rental_uris": {"ios": "https://dc.lft.to/lastmile_qr_scan", "android": "https://dc.lft.to/lastmile_qr_scan"}, "is_reserved": 0, "fusion_lon": 0.0, "fusion_lat": 0.0, "lon": -76.98719783333334, "name": "b66f64e4c0116e6a12ee78e03dee155e"}, {"bike_id": "a181a4f023d8f2bc8c8913e0e9ae06f8", "type": "electric_scooter", "is_disabled": 0, "lat": 38.90546916666667, "rental_uris": {"ios": "https://dc.lft.to/lastmile_qr_scan", "android": "https://dc.lft.to/lastmile_qr_scan"}, "is_reserved": 0, "fusion_lon": 0.0, "fusion_lat": 0.0, "lon": -77.021892, "name": "a181a4f023d8f2bc8c8913e0e9ae06f8"}, {"bike_id": "7b9a6b749868a0aa8c7eb5e169d66f83", "type": "electric_scooter", "is_disabled": 0, "lat": 38.894828833333335, "rental_uris": {"ios": "https://dc.lft.to/lastmile_qr_scan", "android": "https://dc.lft.to/lastmile_qr_scan"}, "is_reserved": 0, "fusion_lon": 0.0, "fusion_lat": 0.0, "lon": -76.9878785, "name": "7b9a6b749868a0aa8c7eb5e169d66f83"}, {"bike_id": "3b3cc6bccf0ca4b8f8003045e2bb714e", "type": "electric_scooter", "is_disabled": 0, "lat": 38.89861416666667, "rental_uris": {"ios": "https://dc.lft.to/lastmile_qr_scan", "android": "https://dc.lft.to/lastmile_qr_scan"}, "is_reserved": 0, "fusion_lon": 0.0, "fusion_lat": 0.0, "lon": -77.023909, "name": "3b3cc6bccf0ca4b8f8003045e2bb714e"}, {"bike_id": "51d9ee223ef52b65b7b253081592f572", "type": "electric_scooter", "is_disabled": 0, "lat": 38.85802116666667, "rental_uris": {"ios": "https://dc.lft.to/lastmile_qr_scan", "android": "https://dc.lft.to/lastmile_qr_scan"}, "is_reserved": 0, "fusion_lon": 0.0, "fusion_lat": 0.0, "lon": -76.98928483333333, "name": "51d9ee223ef52b65b7b253081592f572"}, {"bike_id": "5999bf11d5f17c3817ad5dd90103c58f", "type": "electric_scooter", "is_disabled": 0, "lat": 38.8707055, "rental_uris": {"ios": "https://dc.lft.to/lastmile_qr_scan", "android": "https://dc.lft.to/lastmile_qr_scan"}, "is_reserved": 0, "fusion_lon": 0.0, "fusion_lat": 0.0, "lon": -76.98135566666667, "name": "5999bf11d5f17c3817ad5dd90103c58f"}, {"bike_id": "2439c1ceff5c78b115828fad38f76aee", "type": "electric_scooter", "is_disabled": 0, "lat": 38.89297116666667, "rental_uris": {"ios": "https://dc.lft.to/lastmile_qr_scan", "android": "https://dc.lft.to/lastmile_qr_scan"}, "is_reserved": 0, "fusion_lon": 0.0, "fusion_lat": 0.0, "lon": -77.020159, "name": "2439c1ceff5c78b115828fad38f76aee"}, {"bike_id": "22797851e5f98451e37eedee00c39999", "type": "electric_scooter", "is_disabled": 0, "lat": 38.89271933333333, "rental_uris": {"ios": "https://dc.lft.to/lastmile_qr_scan", "android": "https://dc.lft.to/lastmile_qr_scan"}, "is_reserved": 0, "fusion_lon": 0.0, "fusion_lat": 0.0, "lon": -77.02027966666667, "name": "22797851e5f98451e37eedee00c39999"}, {"bike_id": "3c0c2f571bdb689144608577b5947501", "type": "electric_scooter", "is_disabled": 0, "lat": 38.88635716666667, "rental_uris": {"ios": "https://dc.lft.to/lastmile_qr_scan", "android": "https://dc.lft.to/lastmile_qr_scan"}, "is_reserved": 0, "fusion_lon": 0.0, "fusion_lat": 0.0, "lon": -77.01369033333333, "name": "3c0c2f571bdb689144608577b5947501"}, {"bike_id": "ddcfee973b56b13ade1dae7e61c33dd1", "type": "electric_scooter", "is_disabled": 0, "lat": 38.935042333333335, "rental_uris": {"ios": "https://dc.lft.to/lastmile_qr_scan", "android": "https://dc.lft.to/lastmile_qr_scan"}, "is_reserved": 0, "fusion_lon": 0.0, "fusion_lat": 0.0, "lon": -77.02547083333333, "name": "ddcfee973b56b13ade1dae7e61c33dd1"}, {"bike_id": "9ddcfbcfc719f9fd1607306b2324f0c3", "type": "electric_scooter", "is_disabled": 0, "lat": 38.930838, "rental_uris": {"ios": "https://dc.lft.to/lastmile_qr_scan", "android": "https://dc.lft.to/lastmile_qr_scan"}, "is_reserved": 0, "fusion_lon": 0.0, "fusion_lat": 0.0, "lon": -77.0374175, "name": "9ddcfbcfc719f9fd1607306b2324f0c3"}, {"bike_id": "e7f02e530c6f836deaae15fc67182ce8", "type": "electric_scooter", "is_disabled": 0, "lat": 38.908992, "rental_uris": {"ios": "https://dc.lft.to/lastmile_qr_scan", "android": "https://dc.lft.to/lastmile_qr_scan"}, "is_reserved": 0, "fusion_lon": 0.0, "fusion_lat": 0.0, "lon": -77.03199133333334, "name": "e7f02e530c6f836deaae15fc67182ce8"}, {"bike_id": "375c406889e5009b63413ab227d7248f", "type": "electric_scooter", "is_disabled": 0, "lat": 38.915275333333334, "rental_uris": {"ios": "https://dc.lft.to/lastmile_qr_scan", "android": "https://dc.lft.to/lastmile_qr_scan"}, "is_reserved": 0, "fusion_lon": 0.0, "fusion_lat": 0.0, "lon": -77.03201666666666, "name": "375c406889e5009b63413ab227d7248f"}, {"bike_id": "c868cd7bef07c0b45078e98a5348e44f", "type": "electric_scooter", "is_disabled": 0, "lat": 38.89705766666667, "rental_uris": {"ios": "https://dc.lft.to/lastmile_qr_scan", "android": "https://dc.lft.to/lastmile_qr_scan"}, "is_reserved": 0, "fusion_lon": 0.0, "fusion_lat": 0.0, "lon": -77.04889566666667, "name": "c868cd7bef07c0b45078e98a5348e44f"}, {"bike_id": "df838ccf46a787a7e6bb08a1319504f0", "type": "electric_scooter", "is_disabled": 0, "lat": 38.9478935, "rental_uris": {"ios": "https://dc.lft.to/lastmile_qr_scan", "android": "https://dc.lft.to/lastmile_qr_scan"}, "is_reserved": 0, "fusion_lon": 0.0, "fusion_lat": 0.0, "lon": -77.02136033333333, "name": "df838ccf46a787a7e6bb08a1319504f0"}, {"bike_id": "0135c48901a4b6709cf5b2f6675c318d", "type": "electric_scooter", "is_disabled": 0, "lat": 38.89189783333333, "rental_uris": {"ios": "https://dc.lft.to/lastmile_qr_scan", "android": "https://dc.lft.to/lastmile_qr_scan"}, "is_reserved": 0, "fusion_lon": 0.0, "fusion_lat": 0.0, "lon": -77.03638633333334, "name": "0135c48901a4b6709cf5b2f6675c318d"}, {"bike_id": "9c308bc38b7021a2910e3079d139c5ae", "type": "electric_scooter", "is_disabled": 0, "lat": 38.91683716666667, "rental_uris": {"ios": "https://dc.lft.to/lastmile_qr_scan", "android": "https://dc.lft.to/lastmile_qr_scan"}, "is_reserved": 0, "fusion_lon": 0.0, "fusion_lat": 0.0, "lon": -77.02958, "name": "9c308bc38b7021a2910e3079d139c5ae"}, {"bike_id": "d98186e7d557c4aef9c2c5fba780d634", "type": "electric_scooter", "is_disabled": 0, "lat": 38.9585775, "rental_uris": {"ios": "https://dc.lft.to/lastmile_qr_scan", "android": "https://dc.lft.to/lastmile_qr_scan"}, "is_reserved": 0, "fusion_lon": 0.0, "fusion_lat": 0.0, "lon": -77.0278935, "name": "d98186e7d557c4aef9c2c5fba780d634"}, {"bike_id": "e0e939e911e059e8dcab6f3718ee5e1e", "type": "electric_scooter", "is_disabled": 0, "lat": 38.905593, "rental_uris": {"ios": "https://dc.lft.to/lastmile_qr_scan", "android": "https://dc.lft.to/lastmile_qr_scan"}, "is_reserved": 0, "fusion_lon": 0.0, "fusion_lat": 0.0, "lon": -77.02819016666666, "name": "e0e939e911e059e8dcab6f3718ee5e1e"}, {"bike_id": "a315c0fd511c753e7fbe80e1e7b51453", "type": "electric_scooter", "is_disabled": 0, "lat": 38.924902, "rental_uris": {"ios": "https://dc.lft.to/lastmile_qr_scan", "android": "https://dc.lft.to/lastmile_qr_scan"}, "is_reserved": 0, "fusion_lon": 0.0, "fusion_lat": 0.0, "lon": -77.02450433333334, "name": "a315c0fd511c753e7fbe80e1e7b51453"}, {"bike_id": "edf957546cfaddd8b393ee5937ced2f4", "type": "electric_scooter", "is_disabled": 0, "lat": 38.96550516666667, "rental_uris": {"ios": "https://dc.lft.to/lastmile_qr_scan", "android": "https://dc.lft.to/lastmile_qr_scan"}, "is_reserved": 0, "fusion_lon": 0.0, "fusion_lat": 0.0, "lon": -77.03622733333333, "name": "edf957546cfaddd8b393ee5937ced2f4"}, {"bike_id": "af1f2bec1064e615f5fb976bd6c45e7f", "type": "electric_scooter", "is_disabled": 0, "lat": 38.918932, "rental_uris": {"ios": "https://dc.lft.to/lastmile_qr_scan", "android": "https://dc.lft.to/lastmile_qr_scan"}, "is_reserved": 0, "fusion_lon": 0.0, "fusion_lat": 0.0, "lon": -77.0313385, "name": "af1f2bec1064e615f5fb976bd6c45e7f"}, {"bike_id": "6b58fb91662c8a1f38b627e1790c6876", "type": "electric_scooter", "is_disabled": 0, "lat": 38.91689383333333, "rental_uris": {"ios": "https://dc.lft.to/lastmile_qr_scan", "android": "https://dc.lft.to/lastmile_qr_scan"}, "is_reserved": 0, "fusion_lon": 0.0, "fusion_lat": 0.0, "lon": -77.037754, "name": "6b58fb91662c8a1f38b627e1790c6876"}, {"bike_id": "0634480d1ae3c36ef195326717dda177", "type": "electric_scooter", "is_disabled": 0, "lat": 38.91690166666667, "rental_uris": {"ios": "https://dc.lft.to/lastmile_qr_scan", "android": "https://dc.lft.to/lastmile_qr_scan"}, "is_reserved": 0, "fusion_lon": 0.0, "fusion_lat": 0.0, "lon": -77.0317075, "name": "0634480d1ae3c36ef195326717dda177"}, {"bike_id": "bc0b0f9e01e45a076e55060fbf3bb8ef", "type": "electric_scooter", "is_disabled": 0, "lat": 38.91538933333333, "rental_uris": {"ios": "https://dc.lft.to/lastmile_qr_scan", "android": "https://dc.lft.to/lastmile_qr_scan"}, "is_reserved": 0, "fusion_lon": 0.0, "fusion_lat": 0.0, "lon": -77.0220895, "name": "bc0b0f9e01e45a076e55060fbf3bb8ef"}, {"bike_id": "081f90b4d55c2622d14596b0d5e8a6ce", "type": "electric_scooter", "is_disabled": 0, "lat": 38.900140666666665, "rental_uris": {"ios": "https://dc.lft.to/lastmile_qr_scan", "android": "https://dc.lft.to/lastmile_qr_scan"}, "is_reserved": 0, "fusion_lon": 0.0, "fusion_lat": 0.0, "lon": -76.98536916666667, "name": "081f90b4d55c2622d14596b0d5e8a6ce"}, {"bike_id": "ca8e9d1ebc5fbd042fac20b3de9b2388", "type": "electric_scooter", "is_disabled": 0, "lat": 38.9175205, "rental_uris": {"ios": "https://dc.lft.to/lastmile_qr_scan", "android": "https://dc.lft.to/lastmile_qr_scan"}, "is_reserved": 0, "fusion_lon": 0.0, "fusion_lat": 0.0, "lon": -77.02285633333334, "name": "ca8e9d1ebc5fbd042fac20b3de9b2388"}, {"bike_id": "61abdf5f20d93e63fcf99c642bf548ea", "type": "electric_scooter", "is_disabled": 0, "lat": 38.90227566666667, "rental_uris": {"ios": "https://dc.lft.to/lastmile_qr_scan", "android": "https://dc.lft.to/lastmile_qr_scan"}, "is_reserved": 0, "fusion_lon": 0.0, "fusion_lat": 0.0, "lon": -77.0413825, "name": "61abdf5f20d93e63fcf99c642bf548ea"}, {"bike_id": "936fc8638d4f2dcb0076a63df91c24ab", "type": "electric_scooter", "is_disabled": 0, "lat": 38.874257666666665, "rental_uris": {"ios": "https://dc.lft.to/lastmile_qr_scan", "android": "https://dc.lft.to/lastmile_qr_scan"}, "is_reserved": 0, "fusion_lon": 0.0, "fusion_lat": 0.0, "lon": -77.00058233333333, "name": "936fc8638d4f2dcb0076a63df91c24ab"}, {"bike_id": "5b20ae0494327fdd3b19c41f6e9eed0f", "type": "electric_scooter", "is_disabled": 0, "lat": 38.929490666666666, "rental_uris": {"ios": "https://dc.lft.to/lastmile_qr_scan", "android": "https://dc.lft.to/lastmile_qr_scan"}, "is_reserved": 0, "fusion_lon": 0.0, "fusion_lat": 0.0, "lon": -77.03471566666667, "name": "5b20ae0494327fdd3b19c41f6e9eed0f"}, {"bike_id": "27b099127b3c56a409d9877f89b646a5", "type": "electric_scooter", "is_disabled": 0, "lat": 38.927449333333335, "rental_uris": {"ios": "https://dc.lft.to/lastmile_qr_scan", "android": "https://dc.lft.to/lastmile_qr_scan"}, "is_reserved": 0, "fusion_lon": 0.0, "fusion_lat": 0.0, "lon": -77.02436666666667, "name": "27b099127b3c56a409d9877f89b646a5"}, {"bike_id": "c66bd1e5e049e38e3975226625622128", "type": "electric_scooter", "is_disabled": 0, "lat": 38.914061333333336, "rental_uris": {"ios": "https://dc.lft.to/lastmile_qr_scan", "android": "https://dc.lft.to/lastmile_qr_scan"}, "is_reserved": 0, "fusion_lon": 0.0, "fusion_lat": 0.0, "lon": -77.03172933333333, "name": "c66bd1e5e049e38e3975226625622128"}, {"bike_id": "6a9627974c0922b004cfc26a9be76956", "type": "electric_scooter", "is_disabled": 0, "lat": 38.92145766666667, "rental_uris": {"ios": "https://dc.lft.to/lastmile_qr_scan", "android": "https://dc.lft.to/lastmile_qr_scan"}, "is_reserved": 0, "fusion_lon": 0.0, "fusion_lat": 0.0, "lon": -77.03875033333334, "name": "6a9627974c0922b004cfc26a9be76956"}, {"bike_id": "026d6ad50ec70e04792fb4ae2dab3f2a", "type": "electric_scooter", "is_disabled": 0, "lat": 38.8819045, "rental_uris": {"ios": "https://dc.lft.to/lastmile_qr_scan", "android": "https://dc.lft.to/lastmile_qr_scan"}, "is_reserved": 0, "fusion_lon": 0.0, "fusion_lat": 0.0, "lon": -77.02818583333334, "name": "026d6ad50ec70e04792fb4ae2dab3f2a"}, {"bike_id": "435c7e514f62374d539003688c8946b6", "type": "electric_scooter", "is_disabled": 0, "lat": 38.90286783333333, "rental_uris": {"ios": "https://dc.lft.to/lastmile_qr_scan", "android": "https://dc.lft.to/lastmile_qr_scan"}, "is_reserved": 0, "fusion_lon": 0.0, "fusion_lat": 0.0, "lon": -77.050511, "name": "435c7e514f62374d539003688c8946b6"}, {"bike_id": "df833a98b42202f4cc9fc63b933c2364", "type": "electric_scooter", "is_disabled": 0, "lat": 38.90769383333333, "rental_uris": {"ios": "https://dc.lft.to/lastmile_qr_scan", "android": "https://dc.lft.to/lastmile_qr_scan"}, "is_reserved": 0, "fusion_lon": 0.0, "fusion_lat": 0.0, "lon": -77.041907, "name": "df833a98b42202f4cc9fc63b933c2364"}, {"bike_id": "a53890249b66c2131bcca371e515e50c", "type": "electric_scooter", "is_disabled": 0, "lat": 38.875663, "rental_uris": {"ios": "https://dc.lft.to/lastmile_qr_scan", "android": "https://dc.lft.to/lastmile_qr_scan"}, "is_reserved": 0, "fusion_lon": 0.0, "fusion_lat": 0.0, "lon": -77.012743, "name": "a53890249b66c2131bcca371e515e50c"}, {"bike_id": "bbbdacd5d8683c02804564c4afab9511", "type": "electric_scooter", "is_disabled": 0, "lat": 38.89602283333333, "rental_uris": {"ios": "https://dc.lft.to/lastmile_qr_scan", "android": "https://dc.lft.to/lastmile_qr_scan"}, "is_reserved": 0, "fusion_lon": 0.0, "fusion_lat": 0.0, "lon": -77.00932266666666, "name": "bbbdacd5d8683c02804564c4afab9511"}, {"bike_id": "92778e9b1afeec2666d690386c738609", "type": "electric_scooter", "is_disabled": 0, "lat": 38.89219416666667, "rental_uris": {"ios": "https://dc.lft.to/lastmile_qr_scan", "android": "https://dc.lft.to/lastmile_qr_scan"}, "is_reserved": 0, "fusion_lon": 0.0, "fusion_lat": 0.0, "lon": -77.04518366666667, "name": "92778e9b1afeec2666d690386c738609"}, {"bike_id": "26bf6cb1cbe1043c19f4dd25e1ea83dd", "type": "electric_scooter", "is_disabled": 0, "lat": 38.9288685, "rental_uris": {"ios": "https://dc.lft.to/lastmile_qr_scan", "android": "https://dc.lft.to/lastmile_qr_scan"}, "is_reserved": 0, "fusion_lon": 0.0, "fusion_lat": 0.0, "lon": -77.03297033333334, "name": "26bf6cb1cbe1043c19f4dd25e1ea83dd"}, {"bike_id": "040dd51fc1fd0bf7e17db8c40c19267d", "type": "electric_scooter", "is_disabled": 0, "lat": 38.90399933333333, "rental_uris": {"ios": "https://dc.lft.to/lastmile_qr_scan", "android": "https://dc.lft.to/lastmile_qr_scan"}, "is_reserved": 0, "fusion_lon": 0.0, "fusion_lat": 0.0, "lon": -77.048948, "name": "040dd51fc1fd0bf7e17db8c40c19267d"},