{"data": {"bikes": [{"is_disabled": 0, "rental_uris": {"android": "https://dc.lft.to/lastmile_qr_scan", "ios": "https://dc.lft.to/lastmile_qr_scan"}, "is_reserved": 0, "name": "cd0f5e90bc8249be2e157daab90e02e6", "lon": -77.081823, "type": "electric_bike", "bike_id": "cd0f5e90bc8249be2e157daab90e02e6", "fusion_lon": 0.0, "lat": 38.92206916666667, "fusion_lat": 0.0}, {"is_disabled": 0, "rental_uris": {"android": "https://dc.lft.to/lastmile_qr_scan", "ios": "https://dc.lft.to/lastmile_qr_scan"}, "is_reserved": 0, "name": "c84fcb7e53baf93f361c2ccc4f5dd771", "lon": -76.97219966666667, "type": "electric_bike", "bike_id": "c84fcb7e53baf93f361c2ccc4f5dd771", "fusion_lon": 0.0, "lat": 38.8447925, "fusion_lat": 0.0}, {"is_disabled": 0, "rental_uris": {"android": "https://dc.lft.to/lastmile_qr_scan", "ios": "https://dc.lft.to/lastmile_qr_scan"}, "is_reserved": 0, "name": "5aa9d6fdd61be424fcb50d86b79b657d", "lon": -77.04728033333333, "type": "electric_scooter", "bike_id": "5aa9d6fdd61be424fcb50d86b79b657d", "fusion_lon": 0.0, "lat": 38.89836183333333, "fusion_lat": 0.0}, {"is_disabled": 0, "rental_uris": {"android": "https://dc.lft.to/lastmile_qr_scan", "ios": "https://dc.lft.to/lastmile_qr_scan"}, "is_reserved": 0, "name": "d65bd7c531354d92e4b55c452960b5df", "lon": -77.02224383333333, "type": "electric_scooter", "bike_id": "d65bd7c531354d92e4b55c452960b5df", "fusion_lon": 0.0, "lat": 38.915712166666665, "fusion_lat": 0.0}, {"is_disabled": 0, "rental_uris": {"android": "https://dc.lft.to/lastmile_qr_scan", "ios": "https://dc.lft.to/lastmile_qr_scan"}, "is_reserved": 0, "name": "fb2378d1bf05ac20759b9ac6230075e7", "lon": -77.0177085, "type": "electric_scooter", "bike_id": "fb2378d1bf05ac20759b9ac6230075e7", "fusion_lon": 0.0, "lat": 38.92131, "fusion_lat": 0.0}, {"is_disabled": 0, "rental_uris": {"android": "https://dc.lft.to/lastmile_qr_scan", "ios": "https://dc.lft.to/lastmile_qr_scan"}, "is_reserved": 0, "name": "00f9ff745a0886abea71282e334bcaae", "lon": -77.02691416666667, "type": "electric_scooter", "bike_id": "00f9ff745a0886abea71282e334bcaae", "fusion_lon": 0.0, "lat": 38.90874216666667, "fusion_lat": 0.0}, {"is_disabled": 0, "rental_uris": {"android": "https://dc.lft.to/lastmile_qr_scan", "ios": "https://dc.lft.to/lastmile_qr_scan"}, "is_reserved": 0, "name": "42314ae6a52f02f6c6fb9f79229914f9", "lon": -77.04158416666667, "type": "electric_scooter", "bike_id": "42314ae6a52f02f6c6fb9f79229914f9", "fusion_lon": 0.0, "lat": 38.91311133333333, "fusion_lat": 0.0}, {"is_disabled": 0, "rental_uris": {"android": "https://dc.lft.to/lastmile_qr_scan", "ios": "https://dc.lft.to/lastmile_qr_scan"}, "is_reserved": 0, "name": "ca2c3192e0da9311b7fa13f88a1770c8", "lon": -77.028731, "type": "electric_bike", "bike_id": "ca2c3192e0da9311b7fa13f88a1770c8", "fusion_lon": 0.0, "lat": 38.99906566666667, "fusion_lat": 0.0}, {"is_disabled": 0, "rental_uris": {"android": "https://dc.lft.to/lastmile_qr_scan", "ios": "https://dc.lft.to/lastmile_qr_scan"}, "is_reserved": 0, "name": "fb7385a2c8cdeca4725a776fee6c98d2", "lon": -76.97417366666667, "type": "electric_scooter", "bike_id": "fb7385a2c8cdeca4725a776fee6c98d2", "fusion_lon": 0.0, "lat": 38.8651865, "fusion_lat": 0.0}, {"is_disabled": 0, "rental_uris": {"android": "https://dc.lft.to/lastmile_qr_scan", "ios": "https://dc.lft.to/lastmile_qr_scan"}, "is_reserved": 0, "name": "0db6be6016c24366101ea3c0ca16b00e", "lon": -77.06758633333334, "type": "electric_scooter", "bike_id": "0db6be6016c24366101ea3c0ca16b00e", "fusion_lon": 0.0, "lat": 38.94979133333333, "fusion_lat": 0.0}, {"is_disabled": 0, "rental_uris": {"android": "https://dc.lft.to/lastmile_qr_scan", "ios": "https://dc.lft.to/lastmile_qr_scan"}, "is_reserved": 0, "name": "4fd3d462da779abdd27e6558a9022a6c", "lon": -77.01211866666667, "type": "electric_scooter", "bike_id": "4fd3d462da779abdd27e6558a9022a6c", "fusion_lon": 0.0, "lat": 38.918198833333335, "fusion_lat": 0.0}, {"is_disabled": 0, "rental_uris": {"android": "https://dc.lft.to/lastmile_qr_scan", "ios": "https://dc.lft.to/lastmile_qr_scan"}, "is_reserved": 0, "name": "ec77217fa6d6db1d202846748d808e6e", "lon": -77.05098333333333, "type": "electric_scooter", "bike_id": "ec77217fa6d6db1d202846748d808e6e", "fusion_lon": 0.0, "lat": 38.9234245, "fusion_lat": 0.0}, {"is_disabled": 0, "rental_uris": {"android": "https://dc.lft.to/lastmile_qr_scan", "ios": "https://dc.lft.to/lastmile_qr_scan"}, "is_reserved": 0, "name": "7a88728893b41b9aa7a6ac876bf1ed30", "lon": -77.01697416666667, "type": "electric_scooter", "bike_id": "7a88728893b41b9aa7a6ac876bf1ed30", "fusion_lon": 0.0, "lat": 38.974998, "fusion_lat": 0.0}, {"is_disabled": 0, "rental_uris": {"android": "https://dc.lft.to/lastmile_qr_scan", "ios": "https://dc.lft.to/lastmile_qr_scan"}, "is_reserved": 0, "name": "c1d4268d7e497ccdca338dd1217db1fc", "lon": -76.98089816666666, "type": "electric_scooter", "bike_id": "c1d4268d7e497ccdca338dd1217db1fc", "fusion_lon": 0.0, "lat": 38.857188666666666, "fusion_lat": 0.0}, {"is_disabled": 0, "rental_uris": {"android": "https://dc.lft.to/lastmile_qr_scan", "ios": "https://dc.lft.to/lastmile_qr_scan"}, "is_reserved": 0, "name": "ba6475dc660f2151513e5f2940aaf629", "lon": -77.03254333333334, "type": "electric_scooter", "bike_id": "ba6475dc660f2151513e5f2940aaf629", "fusion_lon": 0.0, "lat": 38.918434, "fusion_lat": 0.0}, {"is_disabled": 0, "rental_uris": {"android": "https://dc.lft.to/lastmile_qr_scan", "ios": "https://dc.lft.to/lastmile_qr_scan"}, "is_reserved": 0, "name": "d325f6112c44cf86478ad2b69ce4f700", "lon": -77.04340216666667, "type": "electric_scooter", "bike_id": "d325f6112c44cf86478ad2b69ce4f700", "fusion_lon": 0.0, "lat": 38.89665383333333, "fusion_lat": 0.0}, {"is_disabled": 0, "rental_uris": {"android": "https://dc.lft.to/lastmile_qr_scan", "ios": "https://dc.lft.to/lastmile_qr_scan"}, "is_reserved": 0, "name": "c13afb07348569ff03af079b97fd71d4", "lon": -77.01583533333333, "type": "electric_bike", "bike_id": "c13afb07348569ff03af079b97fd71d4", "fusion_lon": 0.0, "lat": 39.046361166666664, "fusion_lat": 0.0}, {"is_disabled": 0, "rental_uris": {"android": "https://dc.lft.to/lastmile_qr_scan", "ios": "https://dc.lft.to/lastmile_qr_scan"}, "is_reserved": 0, "name": "b076d48bb2b5cca78452e4e0cb75ec56", "lon": -77.02481333333333, "type": "electric_scooter", "bike_id": "b076d48bb2b5cca78452e4e0cb75ec56", "fusion_lon": 0.0, "lat": 38.93911083333333, "fusion_lat": 0.0}, {"is_disabled": 0, "rental_uris": {"android": "https://dc.lft.to/lastmile_qr_scan", "ios": "https://dc.lft.to/lastmile_qr_scan"}, "is_reserved": 0, "name": "6ec748a4eda906368f7b03d8394eaa1f", "lon": -76.9692025, "type": "electric_scooter", "bike_id": "6ec748a4eda906368f7b03d8394eaa1f", "fusion_lon": 0.0, "lat": 38.855272666666664, "fusion_lat": 0.0}, {"is_disabled": 0, "rental_uris": {"android": "https://dc.lft.to/lastmile_qr_scan", "ios": "https://dc.lft.to/lastmile_qr_scan"}, "is_reserved": 0, "name": "dd8c66a64e753bcdeb879c96d030e430", "lon": -76.98519183333333, "type": "electric_scooter", "bike_id": "dd8c66a64e753bcdeb879c96d030e430", "fusion_lon": 0.0, "lat": 38.860072833333334, "fusion_lat": 0.0}, {"is_disabled": 0, "rental_uris": {"android": "https://dc.lft.to/lastmile_qr_scan", "ios": "https://dc.lft.to/lastmile_qr_scan"}, "is_reserved": 0, "name": "4144731be2411332fa6a002b2791affd", "lon": -77.03552916666666, "type": "electric_scooter", "bike_id": "4144731be2411332fa6a002b2791affd", "fusion_lon": 0.0, "lat": 38.90695516666667, "fusion_lat": 0.0}, {"is_disabled": 0, "rental_uris": {"android": "https://dc.lft.to/lastmile_qr_scan", "ios": "https://dc.lft.to/lastmile_qr_scan"}, "is_reserved": 0, "name": "3025a9c52c162f32b502631a47744bcf", "lon": -77.18293966666667, "type": "electric_bike", "bike_id": "3025a9c52c162f32b502631a47744bcf", "fusion_lon": 0.0, "lat": 38.88342166666666, "fusion_lat": 0.0}, {"is_disabled": 0, "rental_uris": {"android": "https://dc.lft.to/lastmile_qr_scan", "ios": "https://dc.lft.to/lastmile_qr_scan"}, "is_reserved": 0, "name": "fd0b55e55aff80b3aee0b5b77f70f671", "lon": -76.93110416666667, "type": "electric_scooter", "bike_id": "fd0b55e55aff80b3aee0b5b77f70f671", "fusion_lon": 0.0, "lat": 38.880239333333336, "fusion_lat": 0.0}, {"is_disabled": 0, "rental_uris": {"android": "https://dc.lft.to/lastmile_qr_scan", "ios": "https://dc.lft.to/lastmile_qr_scan"}, "is_reserved": 0, "name": "8c74ab778791e1883f4f2319d0f8a710", "lon": -77.05931033333333, "type": "electric_scooter", "bike_id": "8c74ab778791e1883f4f2319d0f8a710", "fusion_lon": 0.0, "lat": 38.9366665, "fusion_lat": 0.0}, {"is_disabled": 0, "rental_uris": {"android": "https://dc.lft.to/lastmile_qr_scan", "ios": "https://dc.lft.to/lastmile_qr_scan"}, "is_reserved": 0, "name": "3339bf2f359395571b32f3b4a86db572", "lon": -77.02838883333334, "type": "electric_scooter", "bike_id": "3339bf2f359395571b32f3b4a86db572", "fusion_lon": 0.0, "lat": 38.89524133333333, "fusion_lat": 0.0}, {"is_disabled": 0, "rental_uris": {"android": "https://dc.lft.to/lastmile_qr_scan", "ios": "https://dc.lft.to/lastmile_qr_scan"}, "is_reserved": 0, "name": "74b32aaa970767982d0b595f93e1fc64", "lon": -76.93748383333333, "type": "electric_scooter", "bike_id": "74b32aaa970767982d0b595f93e1fc64", "fusion_lon": 0.0, "lat": 38.89037283333333, "fusion_lat": 0.0}, {"is_disabled": 0, "rental_uris": {"android": "https://dc.lft.to/lastmile_qr_scan", "ios": "https://dc.lft.to/lastmile_qr_scan"}, "is_reserved": 0, "name": "ea9018153885877dd330d450c4b4a4c4", "lon": -77.0356395, "type": "electric_scooter", "bike_id": "ea9018153885877dd330d450c4b4a4c4", "fusion_lon": 0.0, "lat": 38.90473266666667, "fusion_lat": 0.0}, {"is_disabled": 0, "rental_uris": {"android": "https://dc.lft.to/lastmile_qr_scan", "ios": "https://dc.lft.to/lastmile_qr_scan"}, "is_reserved": 0, "name": "160fb78d59948724c1480f439430956d", "lon": -77.0363775, "type": "electric_scooter", "bike_id": "160fb78d59948724c1480f439430956d", "fusion_lon": 0.0, "lat": 38.9317685, "fusion_lat": 0.0}, {"is_disabled": 0, "rental_uris": {"android": "https://dc.lft.to/lastmile_qr_scan", "ios": "https://dc.lft.to/lastmile_qr_scan"}, "is_reserved": 0, "name": "5d51380c14349059502786b1011f37a9", "lon": -77.03205666666666, "type": "electric_scooter", "bike_id": "5d51380c14349059502786b1011f37a9", "fusion_lon": 0.0, "lat": 38.91795316666666, "fusion_lat": 0.0}, {"is_disabled": 0, "rental_uris": {"android": "https://dc.lft.to/lastmile_qr_scan", "ios": "https://dc.lft.to/lastmile_qr_scan"}, "is_reserved": 0, "name": "ef00cf5db939fb41199b5ba4de1863e7", "lon": -76.9963325, "type": "electric_scooter", "bike_id": "ef00cf5db939fb41199b5ba4de1863e7", "fusion_lon": 0.0, "lat": 38.8461825, "fusion_lat": 0.0}, {"is_disabled": 0, "rental_uris": {"android": "https://dc.lft.to/lastmile_qr_scan", "ios": "https://dc.lft.to/lastmile_qr_scan"}, "is_reserved": 0, "name": "f98a65a4701e418c8146c5706728c857", "lon": -77.02306083333333, "type": "electric_scooter", "bike_id": "f98a65a4701e418c8146c5706728c857", "fusion_lon": 0.0, "lat": 38.908866833333335, "fusion_lat": 0.0}, {"is_disabled": 0, "rental_uris": {"android": "https://dc.lft.to/lastmile_qr_scan", "ios": "https://dc.lft.to/lastmile_qr_scan"}, "is_reserved": 0, "name": "ada8b94e4782b1812ddd74e5d31a9bc3", "lon": -77.05002316666666, "type": "electric_scooter", "bike_id": "ada8b94e4782b1812ddd74e5d31a9bc3", "fusion_lon": 0.0, "lat": 38.915766, "fusion_lat": 0.0}, {"is_disabled": 0, "rental_uris": {"android": "https://dc.lft.to/lastmile_qr_scan", "ios": "https://dc.lft.to/lastmile_qr_scan"}, "is_reserved": 0, "name": "a8d7bef2b8d8dc797683d6ad4d08774a", "lon": -76.9288895, "type": "electric_bike", "bike_id": "a8d7bef2b8d8dc797683d6ad4d08774a", "fusion_lon": 0.0, "lat": 38.978453333333334, "fusion_lat": 0.0}, {"is_disabled": 0, "rental_uris": {"android": "https://dc.lft.to/lastmile_qr_scan", "ios": "https://dc.lft.to/lastmile_qr_scan"}, "is_reserved": 0, "name": "407bdb993a3a87fc1d7ee41115745523", "lon": -77.01772966666667, "type": "electric_scooter", "bike_id": "407bdb993a3a87fc1d7ee41115745523", "fusion_lon": 0.0, "lat": 38.9005115, "fusion_lat": 0.0}, {"is_disabled": 0, "rental_uris": {"android": "https://dc.lft.to/lastmile_qr_scan", "ios": "https://dc.lft.to/lastmile_qr_scan"}, "is_reserved": 0, "name": "9c2f892f11002d557a353c0be191e8c7", "lon": -77.00532783333334, "type": "electric_scooter", "bike_id": "9c2f892f11002d557a353c0be191e8c7", "fusion_lon": 0.0, "lat": 38.87470116666667, "fusion_lat": 0.0}, {"is_disabled": 0, "rental_uris": {"android": "https://dc.lft.to/lastmile_qr_scan", "ios": "https://dc.lft.to/lastmile_qr_scan"}, "is_reserved": 0, "name": "6ca97971968f7e7c716688f33cd5617f", "lon": -77.050166, "type": "electric_scooter", "bike_id": "6ca97971968f7e7c716688f33cd5617f", "fusion_lon": 0.0, "lat": 38.905682666666664, "fusion_lat": 0.0}, {"is_disabled": 0, "rental_uris": {"android": "https://dc.lft.to/lastmile_qr_scan", "ios": "https://dc.lft.to/lastmile_qr_scan"}, "is_reserved": 0, "name": "1febe97d9906787cfbbabc4788bdfac3", "lon": -77.0324115, "type": "electric_scooter", "bike_id": "1febe97d9906787cfbbabc4788bdfac3", "fusion_lon": 0.0, "lat": 38.920625, "fusion_lat": 0.0}, {"is_disabled": 0, "rental_uris": {"android": "https://dc.lft.to/lastmile_qr_scan", "ios": "https://dc.lft.to/lastmile_qr_scan"}, "is_reserved": 0, "name": "907bd7c843690f53597fec957bd63a8a", "lon": -77.02502016666666, "type": "electric_scooter", "bike_id": "907bd7c843690f53597fec957bd63a8a", "fusion_lon": 0.0, "lat": 38.90403966666667, "fusion_lat": 0.0}, {"is_disabled": 0, "rental_uris": {"android": "https://dc.lft.to/lastmile_qr_scan", "ios": "https://dc.lft.to/lastmile_qr_scan"}, "is_reserved": 0, "name": "b49da5bdc70ed8e017d46927e48bb954", "lon": -77.0216875, "type": "electric_scooter", "bike_id": "b49da5bdc70ed8e017d46927e48bb954", "fusion_lon": 0.0, "lat": 38.92610033333333, "fusion_lat": 0.0}, {"is_disabled": 0, "rental_uris": {"android": "https://dc.lft.to/lastmile_qr_scan", "ios": "https://dc.lft.to/lastmile_qr_scan"}, "is_reserved": 0, "name": "d7a1c2c6b32aa962155b1c08026e5b8e", "lon": -76.98083616666666, "type": "electric_scooter", "bike_id": "d7a1c2c6b32aa962155b1c08026e5b8e", "fusion_lon": 0.0, "lat": 38.901642, "fusion_lat": 0.0}, {"is_disabled": 0, "rental_uris": {"android": "https://dc.lft.to/lastmile_qr_scan", "ios": "https://dc.lft.to/lastmile_qr_scan"}, "is_reserved": 0, "name": "05badb72a16b1ff0bb1b9871510d2b62", "lon": -77.00201766666666, "type": "electric_scooter", "bike_id": "05badb72a16b1ff0bb1b9871510d2b62", "fusion_lon": 0.0, "lat": 38.90239166666667, "fusion_lat": 0.0}, {"is_disabled": 0, "rental_uris": {"android": "https://dc.lft.to/lastmile_qr_scan", "ios": "https://dc.lft.to/lastmile_qr_scan"}, "is_reserved": 0, "name": "c009c7c8826f662cdd18ae8f2091bfca", "lon": -77.00543966666666, "type": "electric_scooter", "bike_id": "c009c7c8826f662cdd18ae8f2091bfca", "fusion_lon": 0.0, "lat": 38.877166, "fusion_lat": 0.0}, {"is_disabled": 0, "rental_uris": {"android": "https://dc.lft.to/lastmile_qr_scan", "ios": "https://dc.lft.to/lastmile_qr_scan"}, "is_reserved": 0, "name": "3770161fcbd4d4d33dbe5b7c1eb58189", "lon": -77.03097533333333, "type": "electric_scooter", "bike_id": "3770161fcbd4d4d33dbe5b7c1eb58189", "fusion_lon": 0.0, "lat": 38.928569, "fusion_lat": 0.0}, {"is_disabled": 0, "rental_uris": {"android": "https://dc.lft.to/lastmile_qr_scan", "ios": "https://dc.lft.to/lastmile_qr_scan"}, "is_reserved": 0, "name": "66fa9de73b5bee3a14814cc5ec4bdfd6", "lon": -77.01874316666667, "type": "electric_scooter", "bike_id": "66fa9de73b5bee3a14814cc5ec4bdfd6", "fusion_lon": 0.0, "lat": 38.9003175, "fusion_lat": 0.0}, {"is_disabled": 0, "rental_uris": {"android": "https://dc.lft.to/lastmile_qr_scan", "ios": "https://dc.lft.to/lastmile_qr_scan"}, "is_reserved": 0, "name": "e9ee31497b226f7f780980b624cfffe4", "lon": -77.048542, "type": "electric_scooter", "bike_id": "e9ee31497b226f7f780980b624cfffe4", "fusion_lon": 0.0, "lat": 38.90436366666667, "fusion_lat": 0.0}, {"is_disabled": 0, "rental_uris": {"android": "https://dc.lft.to/lastmile_qr_scan", "ios": "https://dc.lft.to/lastmile_qr_scan"}, "is_reserved": 0, "name": "9da4a4393ebcef6d0a2a52172e5c5b5e", "lon": -77.03207233333333, "type": "electric_scooter", "bike_id": "9da4a4393ebcef6d0a2a52172e5c5b5e", "fusion_lon": 0.0, "lat": 38.910176166666666, "fusion_lat": 0.0}, {"is_disabled": 0, "rental_uris": {"android": "https://dc.lft.to/lastmile_qr_scan", "ios": "https://dc.lft.to/lastmile_qr_scan"}, "is_reserved": 0, "name": "30dda2407fe0fc95da1d876305ee5921", "lon": -77.00077033333334, "type": "electric_scooter", "bike_id": "30dda2407fe0fc95da1d876305ee5921", "fusion_lon": 0.0, "lat": 38.900538, "fusion_lat": 0.0}, {"is_disabled": 0, "rental_uris": {"android": "https://dc.lft.to/lastmile_qr_scan", "ios": "https://dc.lft.to/lastmile_qr_scan"}, "is_reserved": 0, "name": "286224aa69ed436a66dd74492ff4e5fd", "lon": -77.03447466666667, "type": "electric_scooter", "bike_id": "286224aa69ed436a66dd74492ff4e5fd", "fusion_lon": 0.0, "lat": 38.92535316666667, "fusion_lat": 0.0}, {"is_disabled": 0, "rental_uris": {"android": "https://dc.lft.to/lastmile_qr_scan", "ios": "https://dc.lft.to/lastmile_qr_scan"}, "is_reserved": 0, "name": "315df49beb32801b5730a95951c2c800", "lon": -77.0547825, "type": "electric_scooter", "bike_id": "315df49beb32801b5730a95951c2c800", "fusion_lon": 0.0, "lat": 38.90439633333333, "fusion_lat": 0.0}, {"is_disabled": 0, "rental_uris": {"android": "https://dc.lft.to/lastmile_qr_scan", "ios": "https://dc.lft.to/lastmile_qr_scan"}, "is_reserved": 0, "name": "4b1c769261a714e57825c0a97aced6cb", "lon": -76.93185183333334, "type": "electric_scooter", "bike_id": "4b1c769261a714e57825c0a97aced6cb", "fusion_lon": 0.0, "lat": 38.898785, "fusion_lat": 0.0}, {"is_disabled": 0, "rental_uris": {"android": "https://dc.lft.to/lastmile_qr_scan", "ios": "https://dc.lft.to/lastmile_qr_scan"}, "is_reserved": 0, "name": "71f3c7aca437a83c300e6cc4442abb32", "lon": -77.02227566666667, "type": "electric_scooter", "bike_id": "71f3c7aca437a83c300e6cc4442abb32", "fusion_lon": 0.0, "lat": 38.8922335, "fusion_lat": 0.0}, {"is_disabled": 0, "rental_uris": {"android": "https://dc.lft.to/lastmile_qr_scan", "ios": "https://dc.lft.to/lastmile_qr_scan"}, "is_reserved": 0, "name": "c79a43a56d60dc953de8cf7379ff90d6", "lon": -77.02495666666667, "type": "electric_bike", "bike_id": "c79a43a56d60dc953de8cf7379ff90d6", "fusion_lon": 0.0, "lat": 38.974073, "fusion_lat": 0.0}, {"is_disabled": 0, "rental_uris": {"android": "https://dc.lft.to/lastmile_qr_scan", "ios": "https://dc.lft.to/lastmile_qr_scan"}, "is_reserved": 0, "name": "52d1bb35e8ae319909bd102c82585594", "lon": -76.93527233333333, "type": "electric_scooter", "bike_id": "52d1bb35e8ae319909bd102c82585594", "fusion_lon": 0.0, "lat": 38.8789695, "fusion_lat": 0.0}, {"is_disabled": 0, "rental_uris": {"android": "https://dc.lft.to/lastmile_qr_scan", "ios": "https://dc.lft.to/lastmile_qr_scan"}, "is_reserved": 0, "name": "8b74670d7144de01dbd3494e4dac1e1e", "lon": -77.038776, "type": "electric_scooter", "bike_id": "8b74670d7144de01dbd3494e4dac1e1e", "fusion_lon": 0.0, "lat": 38.915625166666665, "fusion_lat": 0.0}, {"is_disabled": 0, "rental_uris": {"android": "https://dc.lft.to/lastmile_qr_scan", "ios": "https://dc.lft.to/lastmile_qr_scan"}, "is_reserved": 0, "name": "49fa34dd7a31bb974f690d1deea23aee", "lon": -77.0379175, "type": "electric_bike", "bike_id": "49fa34dd7a31bb974f690d1deea23aee", "fusion_lon": 0.0, "lat": 38.99666666666667, "fusion_lat": 0.0}, {"is_disabled": 0, "rental_uris": {"android": "https://dc.lft.to/lastmile_qr_scan", "ios": "https://dc.lft.to/lastmile_qr_scan"}, "is_reserved": 0, "name": "d47407220c6bddf422ee3c988190691c", "lon": -76.93351516666667, "type": "electric_scooter", "bike_id": "d47407220c6bddf422ee3c988190691c", "fusion_lon": 0.0, "lat": 38.901886, "fusion_lat": 0.0}, {"is_disabled": 0, "rental_uris": {"android": "https://dc.lft.to/lastmile_qr_scan", "ios": "https://dc.lft.to/lastmile_qr_scan"}, "is_reserved": 0, "name": "0e94635239b11ae8a51abcc51df95fab", "lon": -76.99077016666666, "type": "electric_scooter", "bike_id": "0e94635239b11ae8a51abcc51df95fab", "fusion_lon": 0.0, "lat": 38.90420066666667, "fusion_lat": 0.0}, {"is_disabled": 0, "rental_uris": {"android": "https://dc.lft.to/lastmile_qr_scan", "ios": "https://dc.lft.to/lastmile_qr_scan"}, "is_reserved": 0, "name": "5eb10dee6bdc0631162c5d1946d85edf", "lon": -77.09835833333334, "type": "electric_bike", "bike_id": "5eb10dee6bdc0631162c5d1946d85edf", "fusion_lon": 0.0, "lat": 38.85789316666666, "fusion_lat": 0.0}, {"is_disabled": 0, "rental_uris": {"android": "https://dc.lft.to/lastmile_qr_scan", "ios": "https://dc.lft.to/lastmile_qr_scan"}, "is_reserved": 0, "name": "63b169b61067f62525581a766ab81dea", "lon": -77.04671466666667, "type": "electric_scooter", "bike_id": "63b169b61067f62525581a766ab81dea", "fusion_lon": 0.0, "lat": 38.90741716666667, "fusion_lat": 0.0}, {"is_disabled": 0, "rental_uris": {"android": "https://dc.lft.to/lastmile_qr_scan", "ios": "https://dc.lft.to/lastmile_qr_scan"}, "is_reserved": 0, "name": "b24eeb396a926d21fcc3c215bc712eaf", "lon": -77.02795883333333, "type": "electric_scooter", "bike_id": "b24eeb396a926d21fcc3c215bc712eaf", "fusion_lon": 0.0, "lat": 38.91250816666667, "fusion_lat": 0.0}, {"is_disabled": 0, "rental_uris": {"android": "https://dc.lft.to/lastmile_qr_scan", "ios": "https://dc.lft.to/lastmile_qr_scan"}, "is_reserved": 0, "name": "7b9a80a4eeec9d9c0c91311f715588c2", "lon": -77.03478533333333, "type": "electric_scooter", "bike_id": "7b9a80a4eeec9d9c0c91311f715588c2", "fusion_lon": 0.0, "lat": 38.9170955, "fusion_lat": 0.0}, {"is_disabled": 0, "rental_uris": {"android": "https://dc.lft.to/lastmile_qr_scan", "ios": "https://dc.lft.to/lastmile_qr_scan"}, "is_reserved": 0, "name": "4fdaa36d1be990369202ef0d45504f41", "lon": -77.02413016666667, "type": "electric_scooter", "bike_id": "4fdaa36d1be990369202ef0d45504f41", "fusion_lon": 0.0, "lat": 38.9096055, "fusion_lat": 0.0}, {"is_disabled": 0, "rental_uris": {"android": "https://dc.lft.to/lastmile_qr_scan", "ios": "https://dc.lft.to/lastmile_qr_scan"}, "is_reserved": 0, "name": "1eafa825d8f6e00ad119993221010452", "lon": -77.01896816666667, "type": "electric_scooter", "bike_id": "1eafa825d8f6e00ad119993221010452", "fusion_lon": 0.0, "lat": 38.9064385, "fusion_lat": 0.0}, {"is_disabled": 0, "rental_uris": {"android": "https://dc.lft.to/lastmile_qr_scan", "ios": "https://dc.lft.to/lastmile_qr_scan"}, "is_reserved": 0, "name": "1e6a11b70aaf006d82d8804fee4d4fbd", "lon": -76.965612, "type": "electric_bike", "bike_id": "1e6a11b70aaf006d82d8804fee4d4fbd", "fusion_lon": 0.0, "lat": 38.9509, "fusion_lat": 0.0}, {"is_disabled": 0, "rental_uris": {"android": "https://dc.lft.to/lastmile_qr_scan", "ios": "https://dc.lft.to/lastmile_qr_scan"}, "is_reserved": 0, "name": "837c778ec9f3bf50e04e33c49071248f", "lon": -77.04093183333333, "type": "electric_scooter", "bike_id": "837c778ec9f3bf50e04e33c49071248f", "fusion_lon": 0.0, "lat": 38.907790166666665, "fusion_lat": 0.0}, {"is_disabled": 0, "rental_uris": {"android": "https://dc.lft.to/lastmile_qr_scan", "ios": "https://dc.lft.to/lastmile_qr_scan"}, "is_reserved": 0, "name": "028faf0b0ce09e9d65f5101ccaf8d3d9", "lon": -76.96527866666666, "type": "electric_scooter", "bike_id": "028faf0b0ce09e9d65f5101ccaf8d3d9", "fusion_lon": 0.0, "lat": 38.87627616666666, "fusion_lat": 0.0}, {"is_disabled": 0, "rental_uris": {"android": "https://dc.lft.to/lastmile_qr_scan", "ios": "https://dc.lft.to/lastmile_qr_scan"}, "is_reserved": 0, "name": "2ceb17e3c988c65e37531e0b5cf5d863", "lon": -77.02068433333334, "type": "electric_scooter", "bike_id": "2ceb17e3c988c65e37531e0b5cf5d863", "fusion_lon": 0.0, "lat": 38.9311895, "fusion_lat": 0.0}, {"is_disabled": 0, "rental_uris": {"android": "https://dc.lft.to/lastmile_qr_scan", "ios": "https://dc.lft.to/lastmile_qr_scan"}, "is_reserved": 0, "name": "a8d773fbcc9a5e349546df21ff65eb88", "lon": -77.03864933333334, "type": "electric_scooter", "bike_id": "a8d773fbcc9a5e349546df21ff65eb88", "fusion_lon": 0.0, "lat": 38.912537, "fusion_lat": 0.0}, {"is_disabled": 0, "rental_uris": {"android": "https://dc.lft.to/lastmile_qr_scan", "ios": "https://dc.lft.to/lastmile_qr_scan"}, "is_reserved": 0, "name": "f9df8e52b3b029b5e1dbb9475eabf873", "lon": -77.022096, "type": "electric_scooter", "bike_id": "f9df8e52b3b029b5e1dbb9475eabf873", "fusion_lon": 0.0, "lat": 38.9110725, "fusion_lat": 0.0}, {"is_disabled": 0, "rental_uris": {"android": "https://dc.lft.to/lastmile_qr_scan", "ios": "https://dc.lft.to/lastmile_qr_scan"}, "is_reserved": 0, "name": "8d5b51047db141b17aee8f7e7b029870", "lon": -76.96365366666667, "type": "electric_bike", "bike_id": "8d5b51047db141b17aee8f7e7b029870", "fusion_lon": 0.0, "lat": 38.94897266666667, "fusion_lat": 0.0}, {"is_disabled": 0, "rental_uris": {"android": "https://dc.lft.to/lastmile_qr_scan", "ios": "https://dc.lft.to/lastmile_qr_scan"}, "is_reserved": 0, "name": "056d552e0084033d24b6d5e0737d7050", "lon": -77.034442, "type": "electric_scooter", "bike_id": "056d552e0084033d24b6d5e0737d7050", "fusion_lon": 0.0, "lat": 38.91009116666667, "fusion_lat": 0.0}, {"is_disabled": 0, "rental_uris": {"android": "https://dc.lft.to/lastmile_qr_scan", "ios": "https://dc.lft.to/lastmile_qr_scan"}, "is_reserved": 0, "name": "400347067121ded809f75f03c7d76668", "lon": -76.9318765, "type": "electric_scooter", "bike_id": "400347067121ded809f75f03c7d76668", "fusion_lon": 0.0, "lat": 38.898777, "fusion_lat": 0.0}, {"is_disabled": 0, "rental_uris": {"android": "https://dc.lft.to/lastmile_qr_scan", "ios": "https://dc.lft.to/lastmile_qr_scan"}, "is_reserved": 0, "name": "cc68879458680a4f318298e7c8fd8041", "lon": -77.03662433333334, "type": "electric_scooter", "bike_id": "cc68879458680a4f318298e7c8fd8041", "fusion_lon": 0.0, "lat": 38.91709516666667, "fusion_lat": 0.0}, {"is_disabled": 0, "rental_uris": {"android": "https://dc.lft.to/lastmile_qr_scan", "ios": "https://dc.lft.to/lastmile_qr_scan"}, "is_reserved": 0, "name": "a721e23b9b0e14a5d2e002a8a4f1c4d3", "lon": -77.02259566666666, "type": "electric_scooter", "bike_id": "a721e23b9b0e14a5d2e002a8a4f1c4d3", "fusion_lon": 0.0, "lat": 38.92825966666667, "fusion_lat": 0.0}, {"is_disabled": 0, "rental_uris": {"android": "https://dc.lft.to/lastmile_qr_scan", "ios": "https://dc.lft.to/lastmile_qr_scan"}, "is_reserved": 0, "name": "d320d6eb2d3182ba2f7b0ce9bbbeaf9f", "lon": -77.04386866666667, "type": "electric_bike", "bike_id": "d320d6eb2d3182ba2f7b0ce9bbbeaf9f", "fusion_lon": 0.0, "lat": 39.05269533333333, "fusion_lat": 0.0}, {"is_disabled": 0, "rental_uris": {"android": "https://dc.lft.to/lastmile_qr_scan", "ios": "https://dc.lft.to/lastmile_qr_scan"}, "is_reserved": 0, "name": "ec7760a22123a96840949e74a3420e94", "lon": -77.03320266666667, "type": "electric_bike", "bike_id": "ec7760a22123a96840949e74a3420e94", "fusion_lon": 0.0, "lat": 38.92652233333333, "fusion_lat": 0.0}, {"is_disabled": 0, "rental_uris": {"android": "https://dc.lft.to/lastmile_qr_scan", "ios": "https://dc.lft.to/lastmile_qr_scan"}, "is_reserved": 0, "name": "b6421c6ae6f1b02290d14089d81b1aa4", "lon": -77.0295835, "type": "electric_bike", "bike_id": "b6421c6ae6f1b02290d14089d81b1aa4", "fusion_lon": 0.0, "lat": 38.93717183333333, "fusion_lat": 0.0}, {"is_disabled": 0, "rental_uris": {"android": "https://dc.lft.to/lastmile_qr_scan", "ios": "https://dc.lft.to/lastmile_qr_scan"}, "is_reserved": 0, "name": "2b2112d6aecfa3f0a9c1f007c9bfff26", "lon": -77.01627783333333, "type": "electric_scooter", "bike_id": "2b2112d6aecfa3f0a9c1f007c9bfff26", "fusion_lon": 0.0, "lat": 38.8986965, "fusion_lat": 0.0}, {"is_disabled": 0, "rental_uris": {"android": "https://dc.lft.to/lastmile_qr_scan", "ios": "https://dc.lft.to/lastmile_qr_scan"}, "is_reserved": 0, "name": "8a5207b0e24c8325e75d6b8a2f93344c", "lon": -77.03465266666667, "type": "electric_scooter", "bike_id": "8a5207b0e24c8325e75d6b8a2f93344c", "fusion_lon": 0.0, "lat": 38.91388583333333, "fusion_lat": 0.0}, {"is_disabled": 0, "rental_uris": {"android": "https://dc.lft.to/lastmile_qr_scan", "ios": "https://dc.lft.to/lastmile_qr_scan"}, "is_reserved": 0, "name": "62b4e2a09ca32211924b44d2f493cb8b", "lon": -77.04676, "type": "electric_scooter", "bike_id": "62b4e2a09ca32211924b44d2f493cb8b", "fusion_lon": 0.0, "lat": 38.91580066666667, "fusion_lat": 0.0}, {"is_disabled": 0, "rental_uris": {"android": "https://dc.lft.to/lastmile_qr_scan", "ios": "https://dc.lft.to/lastmile_qr_scan"}, "is_reserved": 0, "name": "4201d595dd1ac4abbbce9c07bfda5354", "lon": -77.0248415, "type": "electric_scooter", "bike_id": "4201d595dd1ac4abbbce9c07bfda5354", "fusion_lon": 0.0, "lat": 38.9390225, "fusion_lat": 0.0}, {"is_disabled": 0, "rental_uris": {"android": "https://dc.lft.to/lastmile_qr_scan", "ios": "https://dc.lft.to/lastmile_qr_scan"}, "is_reserved": 0, "name": "3158fca243538c87349390a4f9801e1a", "lon": -77.0451005, "type": "electric_scooter", "bike_id": "3158fca243538c87349390a4f9801e1a", "fusion_lon": 0.0, "lat": 38.90666316666667, "fusion_lat": 0.0}, {"is_disabled": 0, "rental_uris": {"android": "https://dc.lft.to/lastmile_qr_scan", "ios": "https://dc.lft.to/lastmile_qr_scan"}, "is_reserved": 0, "name": "ff277f021bbedfc4b1b912fdf675ca9c", "lon": -76.9375465, "type": "electric_scooter", "bike_id": "ff277f021bbedfc4b1b912fdf675ca9c", "fusion_lon": 0.0, "lat": 38.8903745, "fusion_lat": 0.0}, {"is_disabled": 0, "rental_uris": {"android": "https://dc.lft.to/lastmile_qr_scan", "ios": "https://dc.lft.to/lastmile_qr_scan"}, "is_reserved": 0, "name": "25482fd8538c45e23c528f6f4472e450", "lon": -77.35311383333334, "type": "electric_bike", "bike_id": "25482fd8538c45e23c528f6f4472e450", "fusion_lon": 0.0, "lat": 38.95002266666667, "fusion_lat": 0.0}, {"is_disabled": 0, "rental_uris": {"android": "https://dc.lft.to/lastmile_qr_scan", "ios": "https://dc.lft.to/lastmile_qr_scan"}, "is_reserved": 0, "name": "727e5ccdd256ff6da5726e68ed436d85", "lon": -77.04296333333333, "type": "electric_bike", "bike_id": "727e5ccdd256ff6da5726e68ed436d85", "fusion_lon": 0.0, "lat": 38.830941333333335, "fusion_lat": 0.0}, {"is_disabled": 0, "rental_uris": {"android": "https://dc.lft.to/lastmile_qr_scan", "ios": "https://dc.lft.to/lastmile_qr_scan"}, "is_reserved": 0, "name": "3758b23c3e5a8c838086328a272fd164", "lon": -77.0509245, "type": "electric_scooter", "bike_id": "3758b23c3e5a8c838086328a272fd164", "fusion_lon": 0.0, "lat": 38.912444666666666, "fusion_lat": 0.0}, {"is_disabled": 0, "rental_uris": {"android": "https://dc.lft.to/lastmile_qr_scan", "ios": "https://dc.lft.to/lastmile_qr_scan"}, "is_reserved": 0, "name": "8307bc65adac6d87c79da3bb0e2bdb32", "lon": -77.021582, "type": "electric_scooter", "bike_id": "8307bc65adac6d87c79da3bb0e2bdb32", "fusion_lon": 0.0, "lat": 38.900831333333336, "fusion_lat": 0.0}, {"is_disabled": 0, "rental_uris": {"android": "https://dc.lft.to/lastmile_qr_scan", "ios": "https://dc.lft.to/lastmile_qr_scan"}, "is_reserved": 0, "name": "43110c306fc3766a13e221a92bf4ff32", "lon": -76.99631466666666, "type": "electric_scooter", "bike_id": "43110c306fc3766a13e221a92bf4ff32", "fusion_lon": 0.0, "lat": 38.846219, "fusion_lat": 0.0}, {"is_disabled": 0, "rental_uris": {"android": "https://dc.lft.to/lastmile_qr_scan", "ios": "https://dc.lft.to/lastmile_qr_scan"}, "is_reserved": 0, "name": "8096cbab0773b4323882367e8b4e4b38", "lon": -77.04451383333334, "type": "electric_scooter", "bike_id": "8096cbab0773b4323882367e8b4e4b38", "fusion_lon": 0.0, "lat": 38.918591166666666, "fusion_lat": 0.0}, {"is_disabled": 0, "rental_uris": {"android": "https://dc.lft.to/lastmile_qr_scan", "ios": "https://dc.lft.to/lastmile_qr_scan"}, "is_reserved": 0, "name": "c6e454438b8bdff3822b840d479d1978", "lon": -77.024903, "type": "electric_bike", "bike_id": "c6e454438b8bdff3822b840d479d1978", "fusion_lon": 0.0, "lat": 38.973686, "fusion_lat": 0.0}, {"is_disabled": 0, "rental_uris": {"android": "https://dc.lft.to/lastmile_qr_scan", "ios": "https://dc.lft.to/lastmile_qr_scan"}, "is_reserved": 0, "name": "cedf689f9f0ba74538c34e198585dcb8", "lon": -77.02979283333333, "type": "electric_scooter", "bike_id": "cedf689f9f0ba74538c34e198585dcb8", "fusion_lon": 0.0, "lat": 38.94519183333333, "fusion_lat": 0.0}, {"is_disabled": 0, "rental_uris": {"android": "https://dc.lft.to/lastmile_qr_scan", "ios": "https://dc.lft.to/lastmile_qr_scan"}, "is_reserved": 0, "name": "ad8e0d634321f17ee6abb86869c88db0", "lon": -77.03902283333333, "type": "electric_scooter", "bike_id": "ad8e0d634321f17ee6abb86869c88db0", "fusion_lon": 0.0, "lat": 38.9142445, "fusion_lat": 0.0}, {"is_disabled": 0, "rental_uris": {"android": "https://dc.lft.to/lastmile_qr_scan", "ios": "https://dc.lft.to/lastmile_qr_scan"}, "is_reserved": 0, "name": "d108a8aff40f919738c434841a52e8fc", "lon": -77.02491816666667, "type": "electric_scooter", "bike_id": "d108a8aff40f919738c434841a52e8fc", "fusion_lon": 0.0, "lat": 38.94184716666667, "fusion_lat": 0.0}, {"is_disabled": 0, "rental_uris": {"android": "https://dc.lft.to/lastmile_qr_scan", "ios": "https://dc.lft.to/lastmile_qr_scan"}, "is_reserved": 0, "name": "ac884ef1a7877a05d1d13b617bc12f20", "lon": -76.95756916666667, "type": "electric_scooter", "bike_id": "ac884ef1a7877a05d1d13b617bc12f20", "fusion_lon": 0.0, "lat": 38.884272, "fusion_lat": 0.0}, {"is_disabled": 0, "rental_uris": {"android": "https://dc.lft.to/lastmile_qr_scan", "ios": "https://dc.lft.to/lastmile_qr_scan"}, "is_reserved": 0, "name": "cd631164c07f5816653eb2178ec1e39d", "lon": -76.9901745, "type": "electric_scooter", "bike_id": "cd631164c07f5816653eb2178ec1e39d", "fusion_lon": 0.0, "lat": 38.86108983333333, "fusion_lat": 0.0}, {"is_disabled": 0, "rental_uris": {"android": "https://dc.lft.to/lastmile_qr_scan", "ios": "https://dc.lft.to/lastmile_qr_scan"}, "is_reserved": 0, "name": "46fe52a8a9c3f68d5dfc00600651ca19", "lon": -76.99392683333333, "type": "electric_scooter", "bike_id": "46fe52a8a9c3f68d5dfc00600651ca19", "fusion_lon": 0.0, "lat": 38.88450666666667, "fusion_lat": 0.0}, {"is_disabled": 0, "rental_uris": {"android": "https://dc.lft.to/lastmile_qr_scan", "ios": "https://dc.lft.to/lastmile_qr_scan"}, "is_reserved": 0, "name": "66db183aaac36c07a0518296e48dfb2c", "lon": -77.00771316666666, "type": "electric_scooter", "bike_id": "66db183aaac36c07a0518296e48dfb2c", "fusion_lon": 0.0, "lat": 38.91497733333333, "fusion_lat": 0.0}, {"is_disabled": 0, "rental_uris": {"android": "https://dc.lft.to/lastmile_qr_scan", "ios": "https://dc.lft.to/lastmile_qr_scan"}, "is_reserved": 0, "name": "136f90954c4e4e77ab4e4721a3da929e", "lon": -77.03407883333334, "type": "electric_scooter", "bike_id": "136f90954c4e4e77ab4e4721a3da929e", "fusion_lon": 0.0, "lat": 38.919251333333335, "fusion_lat": 0.0}, {"is_disabled": 0, "rental_uris": {"android": "https://dc.lft.to/lastmile_qr_scan", "ios": "https://dc.lft.to/lastmile_qr_scan"}, "is_reserved": 0, "name": "8357387521f447066e5f2a90872f689d", "lon": -77.01783, "type": "electric_scooter", "bike_id": "8357387521f447066e5f2a90872f689d", "fusion_lon": 0.0, "lat": 38.877331833333336, "fusion_lat": 0.0}, {"is_disabled": 0, "rental_uris": {"android": "https://dc.lft.to/lastmile_qr_scan", "ios": "https://dc.lft.to/lastmile_qr_scan"}, "is_reserved": 0, "name": "36490032555a5d18cab11a7dbd9461f7", "lon": -77.032643, "type": "electric_scooter", "bike_id": "36490032555a5d18cab11a7dbd9461f7", "fusion_lon": 0.0, "lat": 38.935216833333335, "fusion_lat": 0.0}, {"is_disabled": 0, "rental_uris": {"android": "https://dc.lft.to/lastmile_qr_scan", "ios": "https://dc.lft.to/lastmile_qr_scan"}, "is_reserved": 0, "name": "b914686d3e9091e3f26f5de6d37e6f4d", "lon": -76.98951416666667, "type": "electric_scooter", "bike_id": "b914686d3e9091e3f26f5de6d37e6f4d", "fusion_lon": 0.0, "lat": 38.843982, "fusion_lat": 0.0}, {"is_disabled": 0, "rental_uris": {"android": "https://dc.lft.to/lastmile_qr_scan", "ios": "https://dc.lft.to/lastmile_qr_scan"}, "is_reserved": 0, "name": "902fc0f10e65c2dab3a02b432a9bf1b8", "lon": -77.02196066666667, "type": "electric_scooter", "bike_id": "902fc0f10e65c2dab3a02b432a9bf1b8", "fusion_lon": 0.0, "lat": 38.92102233333333, "fusion_lat": 0.0}, {"is_disabled": 0, "rental_uris": {"android": "https://dc.lft.to/lastmile_qr_scan", "ios": "https://dc.lft.to/lastmile_qr_scan"}, "is_reserved": 0, "name": "2e64847084356eb8eab4cb85b9ad6f9c", "lon": -77.0417525, "type": "electric_scooter", "bike_id": "2e64847084356eb8eab4cb85b9ad6f9c", "fusion_lon": 0.0, "lat": 38.915473166666665, "fusion_lat": 0.0}, {"is_disabled": 0, "rental_uris": {"android": "https://dc.lft.to/lastmile_qr_scan", "ios": "https://dc.lft.to/lastmile_qr_scan"}, "is_reserved": 0, "name": "2a3618ff68875db7d7c3d8b32f33e9b1", "lon": -77.09099133333333, "type": "electric_scooter", "bike_id": "2a3618ff68875db7d7c3d8b32f33e9b1", "fusion_lon": 0.0, "lat": 38.956383333333335, "fusion_lat": 0.0}, {"is_disabled": 0, "rental_uris": {"android": "https://dc.lft.to/lastmile_qr_scan", "ios": "https://dc.lft.to/lastmile_qr_scan"}, "is_reserved": 0, "name": "bbb550378cefc8dcbe7197d5b93a9ef6", "lon": -77.04173033333333, "type": "electric_scooter", "bike_id": "bbb550378cefc8dcbe7197d5b93a9ef6", "fusion_lon": 0.0, "lat": 38.911894, "fusion_lat": 0.0}, {"is_disabled": 0, "rental_uris": {"android": "https://dc.lft.to/lastmile_qr_scan", "ios": "https://dc.lft.to/lastmile_qr_scan"}, "is_reserved": 0, "name": "14f571ee5eccf42d6d019eb4d1d02f51", "lon": -77.03211683333333, "type": "electric_scooter", "bike_id": "14f571ee5eccf42d6d019eb4d1d02f51", "fusion_lon": 0.0, "lat": 38.92583166666667, "fusion_lat": 0.0}, {"is_disabled": 0, "rental_uris": {"android": "https://dc.lft.to/lastmile_qr_scan", "ios": "https://dc.lft.to/lastmile_qr_scan"}, "is_reserved": 0, "name": "1ee718662427e0c21d5ca7242f3fc79f", "lon": -76.97236766666667, "type": "electric_scooter", "bike_id": "1ee718662427e0c21d5ca7242f3fc79f", "fusion_lon": 0.0, "lat": 38.85465683333334, "fusion_lat": 0.0}, {"is_disabled": 0, "rental_uris": {"android": "https://dc.lft.to/lastmile_qr_scan", "ios": "https://dc.lft.to/lastmile_qr_scan"}, "is_reserved": 0, "name": "e849024fdf5e5ca0000b734a2363ba42", "lon": -77.0092965, "type": "electric_scooter", "bike_id": "e849024fdf5e5ca0000b734a2363ba42", "fusion_lon": 0.0, "lat": 38.87115083333333, "fusion_lat": 0.0}, {"is_disabled": 0, "rental_uris": {"android": "https://dc.lft.to/lastmile_qr_scan", "ios": "https://dc.lft.to/lastmile_qr_scan"}, "is_reserved": 0, "name": "15d8c3b8ae4670ab991e25b29f70161c", "lon": -76.98069683333334, "type": "electric_scooter", "bike_id": "15d8c3b8ae4670ab991e25b29f70161c", "fusion_lon": 0.0, "lat": 38.90170366666667, "fusion_lat": 0.0}, {"is_disabled": 0, "rental_uris": {"android": "https://dc.lft.to/lastmile_qr_scan", "ios": "https://dc.lft.to/lastmile_qr_scan"}, "is_reserved": 0, "name": "25c372a4116deb9e09e4165b62f9ce86", "lon": -77.009376, "type": "electric_scooter", "bike_id": "25c372a4116deb9e09e4165b62f9ce86", "fusion_lon": 0.0, "lat": 38.89838916666667, "fusion_lat": 0.0}, {"is_disabled": 0, "rental_uris": {"android": "https://dc.lft.to/lastmile_qr_scan", "ios": "https://dc.lft.to/lastmile_qr_scan"}, "is_reserved": 0, "name": "72538fd4382d23a19ad4cd28ff64d7e8", "lon": -77.01134083333334, "type": "electric_scooter", "bike_id": "72538fd4382d23a19ad4cd28ff64d7e8", "fusion_lon": 0.0, "lat": 38.909661666666665, "fusion_lat": 0.0}, {"is_disabled": 0, "rental_uris": {"android": "https://dc.lft.to/lastmile_qr_scan", "ios": "https://dc.lft.to/lastmile_qr_scan"}, "is_reserved": 0, "name": "bace4bcfd4f29857bb21c35004b7cc95", "lon": -77.02373216666666, "type": "electric_scooter", "bike_id": "bace4bcfd4f29857bb21c35004b7cc95", "fusion_lon": 0.0, "lat": 38.9020555, "fusion_lat": 0.0}, {"is_disabled": 0, "rental_uris": {"android": "https://dc.lft.to/lastmile_qr_scan", "ios": "https://dc.lft.to/lastmile_qr_scan"}, "is_reserved": 0, "name": "e3dea9f30676ae9d27a54fd7927cb859", "lon": -77.04378933333334, "type": "electric_scooter", "bike_id": "e3dea9f30676ae9d27a54fd7927cb859", "fusion_lon": 0.0, "lat": 38.92573616666667, "fusion_lat": 0.0}, {"is_disabled": 0, "rental_uris": {"android": "https://dc.lft.to/lastmile_qr_scan", "ios": "https://dc.lft.to/lastmile_qr_scan"}, "is_reserved": 0, "name": "fe16f0a58d92b41b407f2ff6b6cc3b57", "lon": -77.03604883333334, "type": "electric_scooter", "bike_id": "fe16f0a58d92b41b407f2ff6b6cc3b57", "fusion_lon": 0.0, "lat": 38.934875, "fusion_lat": 0.0}, {"is_disabled": 0, "rental_uris": {"android": "https://dc.lft.to/lastmile_qr_scan", "ios": "https://dc.lft.to/lastmile_qr_scan"}, "is_reserved": 0, "name": "1994a0dc7518788e6a628dc4fc7b2d26", "lon": -77.006585, "type": "electric_scooter", "bike_id": "1994a0dc7518788e6a628dc4fc7b2d26", "fusion_lon": 0.0, "lat": 38.9446385, "fusion_lat": 0.0}, {"is_disabled": 0, "rental_uris": {"android": "https://dc.lft.to/lastmile_qr_scan", "ios": "https://dc.lft.to/lastmile_qr_scan"}, "is_reserved": 0, "name": "ad01cf8b96734b09e9ac8149013c1cf1", "lon": -76.9318495, "type": "electric_scooter", "bike_id": "ad01cf8b96734b09e9ac8149013c1cf1", "fusion_lon": 0.0, "lat": 38.8987655, "fusion_lat": 0.0}, {"is_disabled": 0, "rental_uris": {"android": "https://dc.lft.to/lastmile_qr_scan", "ios": "https://dc.lft.to/lastmile_qr_scan"}, "is_reserved": 0, "name": "73f4406874a2c3532d2399756641bcdd", "lon": -77.03951283333333, "type": "electric_scooter", "bike_id": "73f4406874a2c3532d2399756641bcdd", "fusion_lon": 0.0, "lat": 38.9140145, "fusion_lat": 0.0}, {"is_disabled": 0, "rental_uris": {"android": "https://dc.lft.to/lastmile_qr_scan", "ios": "https://dc.lft.to/lastmile_qr_scan"}, "is_reserved": 0, "name": "aa1fae592e9b59b4e14c74dad8dc9712", "lon": -77.0222665, "type": "electric_scooter", "bike_id": "aa1fae592e9b59b4e14c74dad8dc9712", "fusion_lon": 0.0, "lat": 38.892230166666664, "fusion_lat": 0.0}, {"is_disabled": 0, "rental_uris": {"android": "https://dc.lft.to/lastmile_qr_scan", "ios": "https://dc.lft.to/lastmile_qr_scan"}, "is_reserved": 0, "name": "4ea21878a9fa29f0af4ec1e44af50833", "lon": -77.028887, "type": "electric_bike", "bike_id": "4ea21878a9fa29f0af4ec1e44af50833", "fusion_lon": 0.0, "lat": 38.998175, "fusion_lat": 0.0}, {"is_disabled": 0, "rental_uris": {"android": "https://dc.lft.to/lastmile_qr_scan", "ios": "https://dc.lft.to/lastmile_qr_scan"}, "is_reserved": 0, "name": "d801a5756e64034ce22965957fe6edab", "lon": -77.2293895, "type": "electric_bike", "bike_id": "d801a5756e64034ce22965957fe6edab", "fusion_lon": 0.0, "lat": 38.93188516666667, "fusion_lat": 0.0}, {"is_disabled": 0, "rental_uris": {"android": "https://dc.lft.to/lastmile_qr_scan", "ios": "https://dc.lft.to/lastmile_qr_scan"}, "is_reserved": 0, "name": "293377db06008404b33c5a0c830a87e6", "lon": -77.02488083333333, "type": "electric_scooter", "bike_id": "293377db06008404b33c5a0c830a87e6", "fusion_lon": 0.0, "lat": 38.9175075, "fusion_lat": 0.0}, {"is_disabled": 0, "rental_uris": {"android": "https://dc.lft.to/lastmile_qr_scan", "ios": "https://dc.lft.to/lastmile_qr_scan"}, "is_reserved": 0, "name": "afbc28a4636e643a5585ae1857f305d4", "lon": -77.00561, "type": "electric_scooter", "bike_id": "afbc28a4636e643a5585ae1857f305d4", "fusion_lon": 0.0, "lat": 38.88503, "fusion_lat": 0.0}, {"is_disabled": 0, "rental_uris": {"android": "https://dc.lft.to/lastmile_qr_scan", "ios": "https://dc.lft.to/lastmile_qr_scan"}, "is_reserved": 0, "name": "9ab86f7fc6bfa58c427574e3e83be666", "lon": -76.9165755, "type": "electric_bike", "bike_id": "9ab86f7fc6bfa58c427574e3e83be666", "fusion_lon": 0.0, "lat": 38.868598166666665, "fusion_lat": 0.0}, {"is_disabled": 0, "rental_uris": {"android": "https://dc.lft.to/lastmile_qr_scan", "ios": "https://dc.lft.to/lastmile_qr_scan"}, "is_reserved": 0, "name": "7f427812157210600e981a80857a3f23", "lon": -77.02544633333333, "type": "electric_scooter", "bike_id": "7f427812157210600e981a80857a3f23", "fusion_lon": 0.0, "lat": 38.924041833333334, "fusion_lat": 0.0}, {"is_disabled": 0, "rental_uris": {"android": "https://dc.lft.to/lastmile_qr_scan", "ios": "https://dc.lft.to/lastmile_qr_scan"}, "is_reserved": 0, "name": "2d419833e1e5199c4938248c6da8d5db", "lon": -77.02072633333333, "type": "electric_scooter", "bike_id": "2d419833e1e5199c4938248c6da8d5db", "fusion_lon": 0.0, "lat": 38.88115533333333, "fusion_lat": 0.0}, {"is_disabled": 0, "rental_uris": {"android": "https://dc.lft.to/lastmile_qr_scan", "ios": "https://dc.lft.to/lastmile_qr_scan"}, "is_reserved": 0, "name": "8c303ff5114fd896374e2a1f407c18cc", "lon": -77.02693916666666, "type": "electric_scooter", "bike_id": "8c303ff5114fd896374e2a1f407c18cc", "fusion_lon": 0.0, "lat": 38.896546, "fusion_lat": 0.0}, {"is_disabled": 0, "rental_uris": {"android": "https://dc.lft.to/lastmile_qr_scan", "ios": "https://dc.lft.to/lastmile_qr_scan"}, "is_reserved": 0, "name": "dbbc74ad92b37c0488c7fa506266c8a6", "lon": -76.98879, "type": "electric_scooter", "bike_id": "dbbc74ad92b37c0488c7fa506266c8a6", "fusion_lon": 0.0, "lat": 38.866629333333336, "fusion_lat": 0.0}, {"is_disabled": 0, "rental_uris": {"android": "https://dc.lft.to/lastmile_qr_scan", "ios": "https://dc.lft.to/lastmile_qr_scan"}, "is_reserved": 0, "name": "73cf11f260bd2941e46490d989f28003", "lon": -77.02975116666667, "type": "electric_scooter", "bike_id": "73cf11f260bd2941e46490d989f28003", "fusion_lon": 0.0, "lat": 38.92251616666667, "fusion_lat": 0.0}, {"is_disabled": 0, "rental_uris": {"android": "https://dc.lft.to/lastmile_qr_scan", "ios": "https://dc.lft.to/lastmile_qr_scan"}, "is_reserved": 0, "name": "db44b24c924bedc7c5b979c76491e519", "lon": -77.0053675, "type": "electric_scooter", "bike_id": "db44b24c924bedc7c5b979c76491e519", "fusion_lon": 0.0, "lat": 38.87470883333334, "fusion_lat": 0.0}, {"is_disabled": 0, "rental_uris": {"android": "https://dc.lft.to/lastmile_qr_scan", "ios": "https://dc.lft.to/lastmile_qr_scan"}, "is_reserved": 0, "name": "e4968701a4a77166c17572d2d0acbd67", "lon": -77.04279616666666, "type": "electric_scooter", "bike_id": "e4968701a4a77166c17572d2d0acbd67", "fusion_lon": 0.0, "lat": 38.93415916666667, "fusion_lat": 0.0}, {"is_disabled": 0, "rental_uris": {"android": "https://dc.lft.to/lastmile_qr_scan", "ios": "https://dc.lft.to/lastmile_qr_scan"}, "is_reserved": 0, "name": "ac44cef206c1f78b1497a13d05b919bb", "lon": -77.08826633333334, "type": "electric_bike", "bike_id": "ac44cef206c1f78b1497a13d05b919bb", "fusion_lon": 0.0, "lat": 38.909721, "fusion_lat": 0.0}, {"is_disabled": 0, "rental_uris": {"android": "https://dc.lft.to/lastmile_qr_scan", "ios": "https://dc.lft.to/lastmile_qr_scan"}, "is_reserved": 0, "name": "febab19474d1f8a15cc899c07b6e918b", "lon": -77.0440325, "type": "electric_scooter", "bike_id": "febab19474d1f8a15cc899c07b6e918b", "fusion_lon": 0.0, "lat": 38.893965, "fusion_lat": 0.0}, {"is_disabled": 0, "rental_uris": {"android": "https://dc.lft.to/lastmile_qr_scan", "ios": "https://dc.lft.to/lastmile_qr_scan"}, "is_reserved": 0, "name": "9c77de689e894b0cf74d47da280e78e0", "lon": -77.03534966666666, "type": "electric_scooter", "bike_id": "9c77de689e894b0cf74d47da280e78e0", "fusion_lon": 0.0, "lat": 38.923520833333335, "fusion_lat": 0.0}, {"is_disabled": 0, "rental_uris": {"android": "https://dc.lft.to/lastmile_qr_scan", "ios": "https://dc.lft.to/lastmile_qr_scan"}, "is_reserved": 0, "name": "7dd9703969083bb6ef5da3d2a039f320", "lon": -77.0348855, "type": "electric_scooter", "bike_id": "7dd9703969083bb6ef5da3d2a039f320", "fusion_lon": 0.0, "lat": 38.92480833333333, "fusion_lat": 0.0}, {"is_disabled": 0, "rental_uris": {"android": "https://dc.lft.to/lastmile_qr_scan", "ios": "https://dc.lft.to/lastmile_qr_scan"}, "is_reserved": 0, "name": "e723117edd8c1cd9a3c08cf55740be33", "lon": -77.02848333333333, "type": "electric_scooter", "bike_id": "e723117edd8c1cd9a3c08cf55740be33", "fusion_lon": 0.0, "lat": 38.901422, "fusion_lat": 0.0}, {"is_disabled": 0, "rental_uris": {"android": "https://dc.lft.to/lastmile_qr_scan", "ios": "https://dc.lft.to/lastmile_qr_scan"}, "is_reserved": 0, "name": "38fa16649c4836054996fe776966f407", "lon": -76.99646533333333, "type": "electric_scooter", "bike_id": "38fa16649c4836054996fe776966f407", "fusion_lon": 0.0, "lat": 38.88717, "fusion_lat": 0.0}, {"is_disabled": 0, "rental_uris": {"android": "https://dc.lft.to/lastmile_qr_scan", "ios": "https://dc.lft.to/lastmile_qr_scan"}, "is_reserved": 0, "name": "6e983021a6a31a292334d18cbcdc4dc8", "lon": -77.04151816666666, "type": "electric_scooter", "bike_id": "6e983021a6a31a292334d18cbcdc4dc8", "fusion_lon": 0.0, "lat": 38.912697333333334, "fusion_lat": 0.0}, {"is_disabled": 0, "rental_uris": {"android": "https://dc.lft.to/lastmile_qr_scan", "ios": "https://dc.lft.to/lastmile_qr_scan"}, "is_reserved": 0, "name": "439577aa0565fb48c987de9f8360af2f", "lon": -77.04817266666667, "type": "electric_scooter", "bike_id": "439577aa0565fb48c987de9f8360af2f", "fusion_lon": 0.0, "lat": 38.92037333333333, "fusion_lat": 0.0}, {"is_disabled": 0, "rental_uris": {"android": "https://dc.lft.to/lastmile_qr_scan", "ios": "https://dc.lft.to/lastmile_qr_scan"}, "is_reserved": 0, "name": "04b1e0f0ca5aa593e0d8fa7d4dafb4be", "lon": -76.97800316666667, "type": "electric_bike", "bike_id": "04b1e0f0ca5aa593e0d8fa7d4dafb4be", "fusion_lon": 0.0, "lat": 38.89610583333334, "fusion_lat": 0.0}, {"is_disabled": 0, "rental_uris": {"android": "https://dc.lft.to/lastmile_qr_scan", "ios": "https://dc.lft.to/lastmile_qr_scan"}, "is_reserved": 0, "name": "08da759314df0cce1a818733afc106da", "lon": -77.02381883333334, "type": "electric_bike", "bike_id": "08da759314df0cce1a818733afc106da", "fusion_lon": 0.0, "lat": 38.990742166666664, "fusion_lat": 0.0}, {"is_disabled": 0, "rental_uris": {"android": "https://dc.lft.to/lastmile_qr_scan", "ios": "https://dc.lft.to/lastmile_qr_scan"}, "is_reserved": 0, "name": "ae9cad0fc5edefc4fb9251d3e835680c", "lon": -77.03864683333333, "type": "electric_scooter", "bike_id": "ae9cad0fc5edefc4fb9251d3e835680c", "fusion_lon": 0.0, "lat": 38.921530833333335, "fusion_lat": 0.0}, {"is_disabled": 0, "rental_uris": {"android": "https://dc.lft.to/lastmile_qr_scan", "ios": "https://dc.lft.to/lastmile_qr_scan"}, "is_reserved": 0, "name": "21f4e64fa564c6f392c97cf34e23ab2c", "lon": -77.11524383333334, "type": "electric_bike", "bike_id": "21f4e64fa564c6f392c97cf34e23ab2c", "fusion_lon": 0.0, "lat": 38.854940666666664, "fusion_lat": 0.0}, {"is_disabled": 0, "rental_uris": {"android": "https://dc.lft.to/lastmile_qr_scan", "ios": "https://dc.lft.to/lastmile_qr_scan"}, "is_reserved": 0, "name": "aaae1c3dd8d1f47369d775819cc2b24b", "lon": -77.02048566666667, "type": "electric_scooter", "bike_id": "aaae1c3dd8d1f47369d775819cc2b24b", "fusion_lon": 0.0, "lat": 38.958702833333334, "fusion_lat": 0.0}, {"is_disabled": 0, "rental_uris": {"android": "https://dc.lft.to/lastmile_qr_scan", "ios": "https://dc.lft.to/lastmile_qr_scan"}, "is_reserved": 0, "name": "f8ebf97aad94baf558e7e1eaa847f0fd", "lon": -77.05389716666667, "type": "electric_scooter", "bike_id": "f8ebf97aad94baf558e7e1eaa847f0fd", "fusion_lon": 0.0, "lat": 38.910676333333335, "fusion_lat": 0.0}, {"is_disabled": 0, "rental_uris": {"android": "https://dc.lft.to/lastmile_qr_scan", "ios": "https://dc.lft.to/lastmile_qr_scan"}, "is_reserved": 0, "name": "e3c74093194acea7fe2f34e2c288d284", "lon": -77.02787133333334, "type": "electric_scooter", "bike_id": "e3c74093194acea7fe2f34e2c288d284", "fusion_lon": 0.0, "lat": 38.95125316666667, "fusion_lat": 0.0}, {"is_disabled": 0, "rental_uris": {"android": "https://dc.lft.to/lastmile_qr_scan", "ios": "https://dc.lft.to/lastmile_qr_scan"}, "is_reserved": 0, "name": "aa82eaaeaf5ff7dad534f26c5e415b7e", "lon": -77.04131016666666, "type": "electric_scooter", "bike_id": "aa82eaaeaf5ff7dad534f26c5e415b7e", "fusion_lon": 0.0, "lat": 38.92134933333333, "fusion_lat": 0.0}, {"is_disabled": 0, "rental_uris": {"android": "https://dc.lft.to/lastmile_qr_scan", "ios": "https://dc.lft.to/lastmile_qr_scan"}, "is_reserved": 0, "name": "1f5d15af67c22f3493c57724f0e19c11", "lon": -77.02110916666666, "type": "electric_scooter", "bike_id": "1f5d15af67c22f3493c57724f0e19c11", "fusion_lon": 0.0, "lat": 38.94100916666667, "fusion_lat": 0.0}, {"is_disabled": 0, "rental_uris": {"android": "https://dc.lft.to/lastmile_qr_scan", "ios": "https://dc.lft.to/lastmile_qr_scan"}, "is_reserved": 0, "name": "37c28542f8c1b0d8f78eaf3e0c4971d9", "lon": -76.99054116666667, "type": "electric_scooter", "bike_id": "37c28542f8c1b0d8f78eaf3e0c4971d9", "fusion_lon": 0.0, "lat": 38.86360716666667, "fusion_lat": 0.0}, {"is_disabled": 0, "rental_uris": {"android": "https://dc.lft.to/lastmile_qr_scan", "ios": "https://dc.lft.to/lastmile_qr_scan"}, "is_reserved": 0, "name": "6d8871df2d5f8707b0cada5b3eaec0ac", "lon": -77.0124455, "type": "electric_scooter", "bike_id": "6d8871df2d5f8707b0cada5b3eaec0ac", "fusion_lon": 0.0, "lat": 38.93108683333333, "fusion_lat": 0.0}, {"is_disabled": 0, "rental_uris": {"android": "https://dc.lft.to/lastmile_qr_scan", "ios": "https://dc.lft.to/lastmile_qr_scan"}, "is_reserved": 0, "name": "5fa168d67198823c6d0f75f9427e0802", "lon": -77.0247325, "type": "electric_scooter", "bike_id": "5fa168d67198823c6d0f75f9427e0802", "fusion_lon": 0.0, "lat": 38.93764933333333, "fusion_lat": 0.0}, {"is_disabled": 0, "rental_uris": {"android": "https://dc.lft.to/lastmile_qr_scan", "ios": "https://dc.lft.to/lastmile_qr_scan"}, "is_reserved": 0, "name": "3ad804be642c3ac8103a45bab5c9a736", "lon": -77.05093466666666, "type": "electric_scooter", "bike_id": "3ad804be642c3ac8103a45bab5c9a736", "fusion_lon": 0.0, "lat": 38.912442, "fusion_lat": 0.0}, {"is_disabled": 0, "rental_uris": {"android": "https://dc.lft.to/lastmile_qr_scan", "ios": "https://dc.lft.to/lastmile_qr_scan"}, "is_reserved": 0, "name": "84e7abbb7fdb302955acd4c10c12bf68", "lon": -77.01756433333334, "type": "electric_scooter", "bike_id": "84e7abbb7fdb302955acd4c10c12bf68", "fusion_lon": 0.0, "lat": 38.883389666666666, "fusion_lat": 0.0}, {"is_disabled": 0, "rental_uris": {"android": "https://dc.lft.to/lastmile_qr_scan", "ios": "https://dc.lft.to/lastmile_qr_scan"}, "is_reserved": 0, "name": "ea37c5f5f672cf9b074234894d120e81", "lon": -77.03062483333333, "type": "electric_scooter", "bike_id": "ea37c5f5f672cf9b074234894d120e81", "fusion_lon": 0.0, "lat": 38.925838666666664, "fusion_lat": 0.0}, {"is_disabled": 0, "rental_uris": {"android": "https://dc.lft.to/lastmile_qr_scan", "ios": "https://dc.lft.to/lastmile_qr_scan"}, "is_reserved": 0, "name": "4f810ab0d2520403a6d06b9d7df1d5ad", "lon": -76.9870985, "type": "electric_scooter", "bike_id": "4f810ab0d2520403a6d06b9d7df1d5ad", "fusion_lon": 0.0, "lat": 38.865355, "fusion_lat": 0.0}, {"is_disabled": 0, "rental_uris": {"android": "https://dc.lft.to/lastmile_qr_scan", "ios": "https://dc.lft.to/lastmile_qr_scan"}, "is_reserved": 0, "name": "4ea3673f8dfa60d4bcd2677f7a574cb9", "lon": -77.0358195, "type": "electric_scooter", "bike_id": "4ea3673f8dfa60d4bcd2677f7a574cb9", "fusion_lon": 0.0, "lat": 38.90754483333333, "fusion_lat": 0.0}, {"is_disabled": 0, "rental_uris": {"android": "https://dc.lft.to/lastmile_qr_scan", "ios": "https://dc.lft.to/lastmile_qr_scan"}, "is_reserved": 0, "name": "c615a68f1ff368ebd26bc6b5c33e3c53", "lon": -77.070489, "type": "electric_bike", "bike_id": "c615a68f1ff368ebd26bc6b5c33e3c53", "fusion_lon": 0.0, "lat": 38.82443416666667, "fusion_lat": 0.0}, {"is_disabled": 0, "rental_uris": {"android": "https://dc.lft.to/lastmile_qr_scan", "ios": "https://dc.lft.to/lastmile_qr_scan"}, "is_reserved": 0, "name": "afd47440cfaaf4dec835227076830f79", "lon": -77.028402, "type": "electric_scooter", "bike_id": "afd47440cfaaf4dec835227076830f79", "fusion_lon": 0.0, "lat": 38.90441666666667, "fusion_lat": 0.0}, {"is_disabled": 0, "rental_uris": {"android": "https://dc.lft.to/lastmile_qr_scan", "ios": "https://dc.lft.to/lastmile_qr_scan"}, "is_reserved": 0, "name": "6d1444a2142e9ae3234e97a24aa6f2dd", "lon": -77.1281625, "type": "electric_bike", "bike_id": "6d1444a2142e9ae3234e97a24aa6f2dd", "fusion_lon": 0.0, "lat": 38.86530116666667, "fusion_lat": 0.0}, {"is_disabled": 0, "rental_uris": {"android": "https://dc.lft.to/lastmile_qr_scan", "ios": "https://dc.lft.to/lastmile_qr_scan"}, "is_reserved": 0, "name": "0e1ab3fa6953cba4884bb10d5c808754", "lon": -77.025545, "type": "electric_scooter", "bike_id": "0e1ab3fa6953cba4884bb10d5c808754", "fusion_lon": 0.0, "lat": 38.88432666666667, "fusion_lat": 0.0}, {"is_disabled": 0, "rental_uris": {"android": "https://dc.lft.to/lastmile_qr_scan", "ios": "https://dc.lft.to/lastmile_qr_scan"}, "is_reserved": 0, "name": "844b235dff498dd43c0e21c44b40e69d", "lon": -77.04513066666667, "type": "electric_scooter", "bike_id": "844b235dff498dd43c0e21c44b40e69d", "fusion_lon": 0.0, "lat": 38.88602733333333, "fusion_lat": 0.0}, {"is_disabled": 0, "rental_uris": {"android": "https://dc.lft.to/lastmile_qr_scan", "ios": "https://dc.lft.to/lastmile_qr_scan"}, "is_reserved": 0, "name": "a86fbf35c2aded5d107a0e27b663ffae", "lon": -77.006059, "type": "electric_scooter", "bike_id": "a86fbf35c2aded5d107a0e27b663ffae", "fusion_lon": 0.0, "lat": 38.90558333333333, "fusion_lat": 0.0}, {"is_disabled": 0, "rental_uris": {"android": "https://dc.lft.to/lastmile_qr_scan", "ios": "https://dc.lft.to/lastmile_qr_scan"}, "is_reserved": 0, "name": "5c1a34499df2bcb9f710e34a65acc682", "lon": -77.01478366666667, "type": "electric_scooter", "bike_id": "5c1a34499df2bcb9f710e34a65acc682", "fusion_lon": 0.0, "lat": 38.87648866666667, "fusion_lat": 0.0}, {"is_disabled": 0, "rental_uris": {"android": "https://dc.lft.to/lastmile_qr_scan", "ios": "https://dc.lft.to/lastmile_qr_scan"}, "is_reserved": 0, "name": "8059907e66c86e209db3af047b2d320d", "lon": -76.8778165, "type": "electric_bike", "bike_id": "8059907e66c86e209db3af047b2d320d", "fusion_lon": 0.0, "lat": 38.99229, "fusion_lat": 0.0}, {"is_disabled": 0, "rental_uris": {"android": "https://dc.lft.to/lastmile_qr_scan", "ios": "https://dc.lft.to/lastmile_qr_scan"}, "is_reserved": 0, "name": "781d251e6aa6a3f10230253fd4e6e8b9", "lon": -76.93353916666666, "type": "electric_scooter", "bike_id": "781d251e6aa6a3f10230253fd4e6e8b9", "fusion_lon": 0.0, "lat": 38.899121666666666, "fusion_lat": 0.0}, {"is_disabled": 0, "rental_uris": {"android": "https://dc.lft.to/lastmile_qr_scan", "ios": "https://dc.lft.to/lastmile_qr_scan"}, "is_reserved": 0, "name": "8f9e6252dc49dbdde7c2ac986da6ff2b", "lon": -77.01310133333334, "type": "electric_scooter", "bike_id": "8f9e6252dc49dbdde7c2ac986da6ff2b", "fusion_lon": 0.0, "lat": 38.901351166666664, "fusion_lat": 0.0}, {"is_disabled": 0, "rental_uris": {"android": "https://dc.lft.to/lastmile_qr_scan", "ios": "https://dc.lft.to/lastmile_qr_scan"}, "is_reserved": 0, "name": "ab610700fd81faf37bd6d9fa535f075a", "lon": -77.02960783333333, "type": "electric_scooter", "bike_id": "ab610700fd81faf37bd6d9fa535f075a", "fusion_lon": 0.0, "lat": 38.924592833333335, "fusion_lat": 0.0}, {"is_disabled": 0, "rental_uris": {"android": "https://dc.lft.to/lastmile_qr_scan", "ios": "https://dc.lft.to/lastmile_qr_scan"}, "is_reserved": 0, "name": "2bb50df3867ba182dd31ca1ad62d676e", "lon": -76.998152, "type": "electric_bike", "bike_id": "2bb50df3867ba182dd31ca1ad62d676e", "fusion_lon": 0.0, "lat": 38.90005, "fusion_lat": 0.0}, {"is_disabled": 0, "rental_uris": {"android": "https://dc.lft.to/lastmile_qr_scan", "ios": "https://dc.lft.to/lastmile_qr_scan"}, "is_reserved": 0, "name": "33b7825a814b2c82961d19b818c3d08b", "lon": -77.00784683333333, "type": "electric_bike", "bike_id": "33b7825a814b2c82961d19b818c3d08b", "fusion_lon": 0.0, "lat": 38.98123833333333, "fusion_lat": 0.0}, {"is_disabled": 0, "rental_uris": {"android": "https://dc.lft.to/lastmile_qr_scan", "ios": "https://dc.lft.to/lastmile_qr_scan"}, "is_reserved": 0, "name": "ad8a2e65309ba9e73483fc308d51bcee", "lon": -77.03998366666667, "type": "electric_scooter", "bike_id": "ad8a2e65309ba9e73483fc308d51bcee", "fusion_lon": 0.0, "lat": 38.9141605, "fusion_lat": 0.0}, {"is_disabled": 0, "rental_uris": {"android": "https://dc.lft.to/lastmile_qr_scan", "ios": "https://dc.lft.to/lastmile_qr_scan"}, "is_reserved": 0, "name": "d6de4fed12fd0e8b18e930c5ccc1a3df", "lon": -76.96387883333334, "type": "electric_bike", "bike_id": "d6de4fed12fd0e8b18e930c5ccc1a3df", "fusion_lon": 0.0, "lat": 38.9757895, "fusion_lat": 0.0}, {"is_disabled": 0, "rental_uris": {"android": "https://dc.lft.to/lastmile_qr_scan", "ios": "https://dc.lft.to/lastmile_qr_scan"}, "is_reserved": 0, "name": "a556274df3d7e47d9f1a02d722b80ca2", "lon": -77.10736566666667, "type": "electric_bike", "bike_id": "a556274df3d7e47d9f1a02d722b80ca2", "fusion_lon": 0.0, "lat": 38.855431, "fusion_lat": 0.0}, {"is_disabled": 0, "rental_uris": {"android": "https://dc.lft.to/lastmile_qr_scan", "ios": "https://dc.lft.to/lastmile_qr_scan"}, "is_reserved": 0, "name": "b4a086cabe849031de0b327a71bbc457", "lon": -77.02410466666667, "type": "electric_scooter", "bike_id": "b4a086cabe849031de0b327a71bbc457", "fusion_lon": 0.0, "lat": 38.89248766666667, "fusion_lat": 0.0}, {"is_disabled": 0, "rental_uris": {"android": "https://dc.lft.to/lastmile_qr_scan", "ios": "https://dc.lft.to/lastmile_qr_scan"}, "is_reserved": 0, "name": "5c0e5d5d483b5f538acf22ab5aa76f4c", "lon": -76.98376316666666, "type": "electric_scooter", "bike_id": "5c0e5d5d483b5f538acf22ab5aa76f4c", "fusion_lon": 0.0, "lat": 38.8443645, "fusion_lat": 0.0}, {"is_disabled": 0, "rental_uris": {"android": "https://dc.lft.to/lastmile_qr_scan", "ios": "https://dc.lft.to/lastmile_qr_scan"}, "is_reserved": 0, "name": "1f83e77faa7988d37b1fc7aed0b09319", "lon": -76.94867733333334, "type": "electric_bike", "bike_id": "1f83e77faa7988d37b1fc7aed0b09319", "fusion_lon": 0.0, "lat": 38.889740833333335, "fusion_lat": 0.0}, {"is_disabled": 0, "rental_uris": {"android": "https://dc.lft.to/lastmile_qr_scan", "ios": "https://dc.lft.to/lastmile_qr_scan"}, "is_reserved": 0, "name": "7c9f2fb5c427c49f16b71d01c5af3e29", "lon": -77.01629933333334, "type": "electric_scooter", "bike_id": "7c9f2fb5c427c49f16b71d01c5af3e29", "fusion_lon": 0.0, "lat": 38.9290395, "fusion_lat": 0.0}, {"is_disabled": 0, "rental_uris": {"android": "https://dc.lft.to/lastmile_qr_scan", "ios": "https://dc.lft.to/lastmile_qr_scan"}, "is_reserved": 0, "name": "9fa41bdd741c6590327e004facc88f3f", "lon": -76.99003066666667, "type": "electric_scooter", "bike_id": "9fa41bdd741c6590327e004facc88f3f", "fusion_lon": 0.0, "lat": 38.86510216666667, "fusion_lat": 0.0}, {"is_disabled": 0, "rental_uris": {"android": "https://dc.lft.to/lastmile_qr_scan", "ios": "https://dc.lft.to/lastmile_qr_scan"}, "is_reserved": 0, "name": "9f682e1af9c53b511877b23df749f51e", "lon": -77.04336766666667, "type": "electric_scooter", "bike_id": "9f682e1af9c53b511877b23df749f51e", "fusion_lon": 0.0, "lat": 38.898337833333336, "fusion_lat": 0.0}, {"is_disabled": 0, "rental_uris": {"android": "https://dc.lft.to/lastmile_qr_scan", "ios": "https://dc.lft.to/lastmile_qr_scan"}, "is_reserved": 0, "name": "a984b5cca0f7ee9b3d853f77d5f09109", "lon": -76.99632166666666, "type": "electric_scooter", "bike_id": "a984b5cca0f7ee9b3d853f77d5f09109", "fusion_lon": 0.0, "lat": 38.900352166666664, "fusion_lat": 0.0}, {"is_disabled": 0, "rental_uris": {"android": "https://dc.lft.to/lastmile_qr_scan", "ios": "https://dc.lft.to/lastmile_qr_scan"}, "is_reserved": 0, "name": "c60215a92b7c901433a004d8f20518c6", "lon": -76.9542005, "type": "electric_scooter", "bike_id": "c60215a92b7c901433a004d8f20518c6", "fusion_lon": 0.0, "lat": 38.88408283333333, "fusion_lat": 0.0}, {"is_disabled": 0, "rental_uris": {"android": "https://dc.lft.to/lastmile_qr_scan", "ios": "https://dc.lft.to/lastmile_qr_scan"}, "is_reserved": 0, "name": "015b6f970eea5e232e0ff978307b57b7", "lon": -77.0250335, "type": "electric_scooter", "bike_id": "015b6f970eea5e232e0ff978307b57b7", "fusion_lon": 0.0, "lat": 38.9192655, "fusion_lat": 0.0}, {"is_disabled": 0, "rental_uris": {"android": "https://dc.lft.to/lastmile_qr_scan", "ios": "https://dc.lft.to/lastmile_qr_scan"}, "is_reserved": 0, "name": "a83e88e5dd08c9e8feb17fc0c03c562d", "lon": -77.00359533333334, "type": "electric_scooter", "bike_id": "a83e88e5dd08c9e8feb17fc0c03c562d", "fusion_lon": 0.0, "lat": 38.8775045, "fusion_lat": 0.0}, {"is_disabled": 0, "rental_uris": {"android": "https://dc.lft.to/lastmile_qr_scan", "ios": "https://dc.lft.to/lastmile_qr_scan"}, "is_reserved": 0, "name": "0a391af60729e16e18664374ce3e130d", "lon": -77.02836316666667, "type": "electric_scooter", "bike_id": "0a391af60729e16e18664374ce3e130d", "fusion_lon": 0.0, "lat": 38.931904, "fusion_lat": 0.0}, {"is_disabled": 0, "rental_uris": {"android": "https://dc.lft.to/lastmile_qr_scan", "ios": "https://dc.lft.to/lastmile_qr_scan"}, "is_reserved": 0, "name": "055b77b9e5caf121b071a7a1bfd35547", "lon": -77.03581066666666, "type": "electric_scooter", "bike_id": "055b77b9e5caf121b071a7a1bfd35547", "fusion_lon": 0.0, "lat": 38.9075725, "fusion_lat": 0.0}, {"is_disabled": 0, "rental_uris": {"android": "https://dc.lft.to/lastmile_qr_scan", "ios": "https://dc.lft.to/lastmile_qr_scan"}, "is_reserved": 0, "name": "9a6bda074d5db3add36cd18356d28e08", "lon": -77.05121066666666, "type": "electric_scooter", "bike_id": "9a6bda074d5db3add36cd18356d28e08", "fusion_lon": 0.0, "lat": 38.92342633333333, "fusion_lat": 0.0}, {"is_disabled": 0, "rental_uris": {"android": "https://dc.lft.to/lastmile_qr_scan", "ios": "https://dc.lft.to/lastmile_qr_scan"}, "is_reserved": 0, "name": "5bcfbbc80ebf26bd0e52f015d1d5ddc7", "lon": -77.17802066666667, "type": "electric_bike", "bike_id": "5bcfbbc80ebf26bd0e52f015d1d5ddc7", "fusion_lon": 0.0, "lat": 39.08845983333333, "fusion_lat": 0.0}, {"is_disabled": 0, "rental_uris": {"android": "https://dc.lft.to/lastmile_qr_scan", "ios": "https://dc.lft.to/lastmile_qr_scan"}, "is_reserved": 0, "name": "945517f7c0ac8579f82eaec2555903b3", "lon": -76.98886066666667, "type": "electric_scooter", "bike_id": "945517f7c0ac8579f82eaec2555903b3", "fusion_lon": 0.0, "lat": 38.86676683333334, "fusion_lat": 0.0}, {"is_disabled": 0, "rental_uris": {"android": "https://dc.lft.to/lastmile_qr_scan", "ios": "https://dc.lft.to/lastmile_qr_scan"}, "is_reserved": 0, "name": "d3661d685ca0acc2d83ff879c082b4bd", "lon": -77.050106, "type": "electric_scooter", "bike_id": "d3661d685ca0acc2d83ff879c082b4bd", "fusion_lon": 0.0, "lat": 38.897806833333334, "fusion_lat": 0.0}, {"is_disabled": 0, "rental_uris": {"android": "https://dc.lft.to/lastmile_qr_scan", "ios": "https://dc.lft.to/lastmile_qr_scan"}, "is_reserved": 0, "name": "5d58155c4f9bfabb9e9e997722aaca2f", "lon": -77.02911533333334, "type": "electric_bike", "bike_id": "5d58155c4f9bfabb9e9e997722aaca2f", "fusion_lon": 0.0, "lat": 38.90554233333334, "fusion_lat": 0.0}, {"is_disabled": 0, "rental_uris": {"android": "https://dc.lft.to/lastmile_qr_scan", "ios": "https://dc.lft.to/lastmile_qr_scan"}, "is_reserved": 0, "name": "bdf9a40fa5f81c9964458b223d1d06fe", "lon": -77.03299666666666, "type": "electric_scooter", "bike_id": "bdf9a40fa5f81c9964458b223d1d06fe", "fusion_lon": 0.0, "lat": 38.92066716666667, "fusion_lat": 0.0}, {"is_disabled": 0, "rental_uris": {"android": "https://dc.lft.to/lastmile_qr_scan", "ios": "https://dc.lft.to/lastmile_qr_scan"}, "is_reserved": 0, "name": "2a9b5a7e871945f24bb3f33e9b27a935", "lon": -77.032736, "type": "electric_scooter", "bike_id": "2a9b5a7e871945f24bb3f33e9b27a935", "fusion_lon": 0.0, "lat": 38.91338066666667, "fusion_lat": 0.0}, {"is_disabled": 0, "rental_uris": {"android": "https://dc.lft.to/lastmile_qr_scan", "ios": "https://dc.lft.to/lastmile_qr_scan"}, "is_reserved": 0, "name": "8aa7cbe2abd77a148aaf48a366e09c11", "lon": -77.0347255, "type": "electric_scooter", "bike_id": "8aa7cbe2abd77a148aaf48a366e09c11", "fusion_lon": 0.0, "lat": 38.90744683333333, "fusion_lat": 0.0}, {"is_disabled": 0, "rental_uris": {"android": "https://dc.lft.to/lastmile_qr_scan", "ios": "https://dc.lft.to/lastmile_qr_scan"}, "is_reserved": 0, "name": "d86c71ef1c6e52c6c2f577be26c03416", "lon": -77.04368883333333, "type": "electric_scooter", "bike_id": "d86c71ef1c6e52c6c2f577be26c03416", "fusion_lon": 0.0, "lat": 38.92237983333333, "fusion_lat": 0.0}, {"is_disabled": 0, "rental_uris": {"android": "https://dc.lft.to/lastmile_qr_scan", "ios": "https://dc.lft.to/lastmile_qr_scan"}, "is_reserved": 0, "name": "26c70374763855dd0640e51a0a877982", "lon": -77.02834833333333, "type": "electric_scooter", "bike_id": "26c70374763855dd0640e51a0a877982", "fusion_lon": 0.0, "lat": 38.931879, "fusion_lat": 0.0}, {"is_disabled": 0, "rental_uris": {"android": "https://dc.lft.to/lastmile_qr_scan", "ios": "https://dc.lft.to/lastmile_qr_scan"}, "is_reserved": 0, "name": "c3ba26ed2de115f0a51d6cdef5fa47d8", "lon": -77.03346183333333, "type": "electric_scooter", "bike_id": "c3ba26ed2de115f0a51d6cdef5fa47d8", "fusion_lon": 0.0, "lat": 38.892319666666666, "fusion_lat": 0.0}, {"is_disabled": 0, "rental_uris": {"android": "https://dc.lft.to/lastmile_qr_scan", "ios": "https://dc.lft.to/lastmile_qr_scan"}, "is_reserved": 0, "name": "b9878380f4bc9a77665511fc27c40216", "lon": -76.9858215, "type": "electric_scooter", "bike_id": "b9878380f4bc9a77665511fc27c40216", "fusion_lon": 0.0, "lat": 38.9103295, "fusion_lat": 0.0}, {"is_disabled": 0, "rental_uris": {"android": "https://dc.lft.to/lastmile_qr_scan", "ios": "https://dc.lft.to/lastmile_qr_scan"}, "is_reserved": 0, "name": "12f4095d59b5bec9a14057cd5a808054", "lon": -77.01187366666667, "type": "electric_scooter", "bike_id": "12f4095d59b5bec9a14057cd5a808054", "fusion_lon": 0.0, "lat": 38.90034566666667, "fusion_lat": 0.0}, {"is_disabled": 0, "rental_uris": {"android": "https://dc.lft.to/lastmile_qr_scan", "ios": "https://dc.lft.to/lastmile_qr_scan"}, "is_reserved": 0, "name": "28d648694730884349d6279ba5fd8ce2", "lon": -77.03477533333333, "type": "electric_scooter", "bike_id": "28d648694730884349d6279ba5fd8ce2", "fusion_lon": 0.0, "lat": 38.90714666666667, "fusion_lat": 0.0}, {"is_disabled": 0, "rental_uris": {"android": "https://dc.lft.to/lastmile_qr_scan", "ios": "https://dc.lft.to/lastmile_qr_scan"}, "is_reserved": 0, "name": "7121b2c9389fb06a2c9bfca72a3fb6c8", "lon": -77.01898783333333, "type": "electric_scooter", "bike_id": "7121b2c9389fb06a2c9bfca72a3fb6c8", "fusion_lon": 0.0, "lat": 38.90355183333333, "fusion_lat": 0.0}, {"is_disabled": 0, "rental_uris": {"android": "https://dc.lft.to/lastmile_qr_scan", "ios": "https://dc.lft.to/lastmile_qr_scan"}, "is_reserved": 0, "name": "577d2ba183acc89052ddea007006d201", "lon": -77.05056583333334, "type": "electric_scooter", "bike_id": "577d2ba183acc89052ddea007006d201", "fusion_lon": 0.0, "lat": 38.916405, "fusion_lat": 0.0}, {"is_disabled": 0, "rental_uris": {"android": "https://dc.lft.to/lastmile_qr_scan", "ios": "https://dc.lft.to/lastmile_qr_scan"}, "is_reserved": 0, "name": "77052ef7d986c0a2d9109dd4f9027d97", "lon": -76.99620983333334, "type": "electric_scooter", "bike_id": "77052ef7d986c0a2d9109dd4f9027d97", "fusion_lon": 0.0, "lat": 38.90029783333333, "fusion_lat": 0.0}, {"is_disabled": 0, "rental_uris": {"android": "https://dc.lft.to/lastmile_qr_scan", "ios": "https://dc.lft.to/lastmile_qr_scan"}, "is_reserved": 0, "name": "a7752f38f55ee2105a2c8973a1cb3870", "lon": -77.00563733333334, "type": "electric_scooter", "bike_id": "a7752f38f55ee2105a2c8973a1cb3870", "fusion_lon": 0.0, "lat": 38.8789435, "fusion_lat": 0.0}, {"is_disabled": 0, "rental_uris": {"android": "https://dc.lft.to/lastmile_qr_scan", "ios": "https://dc.lft.to/lastmile_qr_scan"}, "is_reserved": 0, "name": "f16ea9b0571404f835ccc55896e4d967", "lon": -77.02305433333333, "type": "electric_scooter", "bike_id": "f16ea9b0571404f835ccc55896e4d967", "fusion_lon": 0.0, "lat": 38.917936166666664, "fusion_lat": 0.0}, {"is_disabled": 0, "rental_uris": {"android": "https://dc.lft.to/lastmile_qr_scan", "ios": "https://dc.lft.to/lastmile_qr_scan"}, "is_reserved": 0, "name": "ec02ce066b583d05b05700701f34a63f", "lon": -77.02171683333333, "type": "electric_scooter", "bike_id": "ec02ce066b583d05b05700701f34a63f", "fusion_lon": 0.0, "lat": 38.94294283333333, "fusion_lat": 0.0}, {"is_disabled": 0, "rental_uris": {"android": "https://dc.lft.to/lastmile_qr_scan", "ios": "https://dc.lft.to/lastmile_qr_scan"}, "is_reserved": 0, "name": "04b25465969b8dfdbf50f71ca7edde52", "lon": -77.06609416666667, "type": "electric_scooter", "bike_id": "04b25465969b8dfdbf50f71ca7edde52", "fusion_lon": 0.0, "lat": 38.90743, "fusion_lat": 0.0}, {"is_disabled": 0, "rental_uris": {"android": "https://dc.lft.to/lastmile_qr_scan", "ios": "https://dc.lft.to/lastmile_qr_scan"}, "is_reserved": 0, "name": "f847bc6f2aa7790226d5250578c5a4d5", "lon": -77.024899, "type": "electric_scooter", "bike_id": "f847bc6f2aa7790226d5250578c5a4d5", "fusion_lon": 0.0, "lat": 38.88494716666666, "fusion_lat": 0.0}, {"is_disabled": 0, "rental_uris": {"android": "https://dc.lft.to/lastmile_qr_scan", "ios": "https://dc.lft.to/lastmile_qr_scan"}, "is_reserved": 0, "name": "dedbfa5d0e77a426e262c62da215fae6", "lon": -76.98798083333334, "type": "electric_bike", "bike_id": "dedbfa5d0e77a426e262c62da215fae6", "fusion_lon": 0.0, "lat": 38.92210583333333, "fusion_lat": 0.0}, {"is_disabled": 0, "rental_uris": {"android": "https://dc.lft.to/lastmile_qr_scan", "ios": "https://dc.lft.to/lastmile_qr_scan"}, "is_reserved": 0, "name": "3d4d4a4bcc958ec02f547591bed222a5", "lon": -77.033085, "type": "electric_scooter", "bike_id": "3d4d4a4bcc958ec02f547591bed222a5", "fusion_lon": 0.0, "lat": 38.91630283333333, "fusion_lat": 0.0}, {"is_disabled": 0, "rental_uris": {"android": "https://dc.lft.to/lastmile_qr_scan", "ios": "https://dc.lft.to/lastmile_qr_scan"}, "is_reserved": 0, "name": "3eba953a315f28beb7b059b6cbcd7ebc", "lon": -77.03201533333333, "type": "electric_bike", "bike_id": "3eba953a315f28beb7b059b6cbcd7ebc", "fusion_lon": 0.0, "lat": 38.92364283333333, "fusion_lat": 0.0}, {"is_disabled": 0, "rental_uris": {"android": "https://dc.lft.to/lastmile_qr_scan", "ios": "https://dc.lft.to/lastmile_qr_scan"}, "is_reserved": 0, "name": "96b0a1df020c8e368cd22d28e8b0ab8f", "lon": -77.13236666666667, "type": "electric_bike", "bike_id": "96b0a1df020c8e368cd22d28e8b0ab8f", "fusion_lon": 0.0, "lat": 38.86974516666667, "fusion_lat": 0.0}, {"is_disabled": 0, "rental_uris": {"android": "https://dc.lft.to/lastmile_qr_scan", "ios": "https://dc.lft.to/lastmile_qr_scan"}, "is_reserved": 0, "name": "d8286ba6144e03956751ee9c142df609", "lon": -77.00034966666666, "type": "electric_scooter", "bike_id": "d8286ba6144e03956751ee9c142df609", "fusion_lon": 0.0, "lat": 38.920880833333335, "fusion_lat": 0.0}, {"is_disabled": 0, "rental_uris": {"android": "https://dc.lft.to/lastmile_qr_scan", "ios": "https://dc.lft.to/lastmile_qr_scan"}, "is_reserved": 0, "name": "284d3b684529883a2ca702dcb636f73e", "lon": -77.051253, "type": "electric_scooter", "bike_id": "284d3b684529883a2ca702dcb636f73e", "fusion_lon": 0.0, "lat": 38.923433333333335, "fusion_lat": 0.0}, {"is_disabled": 0, "rental_uris": {"android": "https://dc.lft.to/lastmile_qr_scan", "ios": "https://dc.lft.to/lastmile_qr_scan"}, "is_reserved": 0, "name": "75b0549a3e5173031ac11bce6f50c85a", "lon": -77.003614, "type": "electric_scooter", "bike_id": "75b0549a3e5173031ac11bce6f50c85a", "fusion_lon": 0.0, "lat": 38.87751933333333, "fusion_lat": 0.0}, {"is_disabled": 0, "rental_uris": {"android": "https://dc.lft.to/lastmile_qr_scan", "ios": "https://dc.lft.to/lastmile_qr_scan"}, "is_reserved": 0, "name": "2b4b14ee59657da07c728837a771f1c5", "lon": -77.04731716666667, "type": "electric_scooter", "bike_id": "2b4b14ee59657da07c728837a771f1c5", "fusion_lon": 0.0, "lat": 38.90604166666667, "fusion_lat": 0.0}, {"is_disabled": 0, "rental_uris": {"android": "https://dc.lft.to/lastmile_qr_scan", "ios": "https://dc.lft.to/lastmile_qr_scan"}, "is_reserved": 0, "name": "f0a1b68253fd92accad3067d7c50046f", "lon": -77.04016166666666, "type": "electric_scooter", "bike_id": "f0a1b68253fd92accad3067d7c50046f", "fusion_lon": 0.0, "lat": 38.91794516666667, "fusion_lat": 0.0}, {"is_disabled": 0, "rental_uris": {"android": "https://dc.lft.to/lastmile_qr_scan", "ios": "https://dc.lft.to/lastmile_qr_scan"}, "is_reserved": 0, "name": "9b6bcb0e58f732fdc00388077ecc1509", "lon": -77.02019216666666, "type": "electric_scooter", "bike_id": "9b6bcb0e58f732fdc00388077ecc1509", "fusion_lon": 0.0, "lat": 38.89738633333333, "fusion_lat": 0.0}, {"is_disabled": 0, "rental_uris": {"android": "https://dc.lft.to/lastmile_qr_scan", "ios": "https://dc.lft.to/lastmile_qr_scan"}, "is_reserved": 0, "name": "4ba97b19b6b6eed1f1fbaf40222a67dc", "lon": -77.0341855, "type": "electric_scooter", "bike_id": "4ba97b19b6b6eed1f1fbaf40222a67dc", "fusion_lon": 0.0, "lat": 38.9353885, "fusion_lat": 0.0}, {"is_disabled": 0, "rental_uris": {"android": "https://dc.lft.to/lastmile_qr_scan", "ios": "https://dc.lft.to/lastmile_qr_scan"}, "is_reserved": 0, "name": "ba5f22236c1e704f1853cdc2839b1b51", "lon": -77.03784966666667, "type": "electric_scooter", "bike_id": "ba5f22236c1e704f1853cdc2839b1b51", "fusion_lon": 0.0, "lat": 38.9302495, "fusion_lat": 0.0}, {"is_disabled": 0, "rental_uris": {"android": "https://dc.lft.to/lastmile_qr_scan", "ios": "https://dc.lft.to/lastmile_qr_scan"}, "is_reserved": 0, "name": "03eb607143d58b1d0f58c10224a10ac5", "lon": -76.9761545, "type": "electric_scooter", "bike_id": "03eb607143d58b1d0f58c10224a10ac5", "fusion_lon": 0.0, "lat": 38.9314305, "fusion_lat": 0.0}, {"is_disabled": 0, "rental_uris": {"android": "https://dc.lft.to/lastmile_qr_scan", "ios": "https://dc.lft.to/lastmile_qr_scan"}, "is_reserved": 0, "name": "c80cd82433327f241e913d2b761ca6cd", "lon": -76.94066483333333, "type": "electric_scooter", "bike_id": "c80cd82433327f241e913d2b761ca6cd", "fusion_lon": 0.0, "lat": 38.890407833333335, "fusion_lat": 0.0}, {"is_disabled": 0, "rental_uris": {"android": "https://dc.lft.to/lastmile_qr_scan", "ios": "https://dc.lft.to/lastmile_qr_scan"}, "is_reserved": 0, "name": "5ed148ca9d43652b7cbf79005e839563", "lon": -77.03186016666666, "type": "electric_scooter", "bike_id": "5ed148ca9d43652b7cbf79005e839563", "fusion_lon": 0.0, "lat": 38.917788, "fusion_lat": 0.0}, {"is_disabled": 0, "rental_uris": {"android": "https://dc.lft.to/lastmile_qr_scan", "ios": "https://dc.lft.to/lastmile_qr_scan"}, "is_reserved": 0, "name": "bb6cac0a8630ee032810e3af1e88b1b0", "lon": -76.9877465, "type": "electric_scooter", "bike_id": "bb6cac0a8630ee032810e3af1e88b1b0", "fusion_lon": 0.0, "lat": 38.911728833333335, "fusion_lat": 0.0}, {"is_disabled": 0, "rental_uris": {"android": "https://dc.lft.to/lastmile_qr_scan", "ios": "https://dc.lft.to/lastmile_qr_scan"}, "is_reserved": 0, "name": "9ca2e490c2238a0c40faec24c91457dc", "lon": -77.03053166666666, "type": "electric_scooter", "bike_id": "9ca2e490c2238a0c40faec24c91457dc", "fusion_lon": 0.0, "lat": 38.934531, "fusion_lat": 0.0}, {"is_disabled": 0, "rental_uris": {"android": "https://dc.lft.to/lastmile_qr_scan", "ios": "https://dc.lft.to/lastmile_qr_scan"}, "is_reserved": 0, "name": "be6bfc309424fa0b8373fb074e820c61", "lon": -76.9373865, "type": "electric_scooter", "bike_id": "be6bfc309424fa0b8373fb074e820c61", "fusion_lon": 0.0, "lat": 38.89013816666667, "fusion_lat": 0.0}, {"is_disabled": 0, "rental_uris": {"android": "https://dc.lft.to/lastmile_qr_scan", "ios": "https://dc.lft.to/lastmile_qr_scan"}, "is_reserved": 0, "name": "a1e78727297b25a01280cef9b6efd491", "lon": -77.03857166666667, "type": "electric_scooter", "bike_id": "a1e78727297b25a01280cef9b6efd491", "fusion_lon": 0.0, "lat": 38.90784166666667, "fusion_lat": 0.0}, {"is_disabled": 0, "rental_uris": {"android": "https://dc.lft.to/lastmile_qr_scan", "ios": "https://dc.lft.to/lastmile_qr_scan"}, "is_reserved": 0, "name": "24c46e399a5c581cd3db4a7a2b0dcc27", "lon": -77.047279, "type": "electric_scooter", "bike_id": "24c46e399a5c581cd3db4a7a2b0dcc27", "fusion_lon": 0.0, "lat": 38.8973205, "fusion_lat": 0.0}, {"is_disabled": 0, "rental_uris": {"android": "https://dc.lft.to/lastmile_qr_scan", "ios": "https://dc.lft.to/lastmile_qr_scan"}, "is_reserved": 0, "name": "65609dda45cf0569a596b69711b0cda6", "lon": -77.03740033333334, "type": "electric_scooter", "bike_id": "65609dda45cf0569a596b69711b0cda6", "fusion_lon": 0.0, "lat": 38.91193833333333, "fusion_lat": 0.0}, {"is_disabled": 0, "rental_uris": {"android": "https://dc.lft.to/lastmile_qr_scan", "ios": "https://dc.lft.to/lastmile_qr_scan"}, "is_reserved": 0, "name": "750e1b4c84c471caef6dea076c5a629a", "lon": -77.1258385, "type": "electric_bike", "bike_id": "750e1b4c84c471caef6dea076c5a629a", "fusion_lon": 0.0, "lat": 38.851453, "fusion_lat": 0.0}, {"is_disabled": 0, "rental_uris": {"android": "https://dc.lft.to/lastmile_qr_scan", "ios": "https://dc.lft.to/lastmile_qr_scan"}, "is_reserved": 0, "name": "ce771096fa4479c0a86df9154e2d76b6", "lon": -76.982735, "type": "electric_scooter", "bike_id": "ce771096fa4479c0a86df9154e2d76b6", "fusion_lon": 0.0, "lat": 38.885299833333335, "fusion_lat": 0.0}, {"is_disabled": 0, "rental_uris": {"android": "https://dc.lft.to/lastmile_qr_scan", "ios": "https://dc.lft.to/lastmile_qr_scan"}, "is_reserved": 0, "name": "44fff0fa9ae6f6477b8ec74290abb7c3", "lon": -77.018335, "type": "electric_scooter", "bike_id": "44fff0fa9ae6f6477b8ec74290abb7c3", "fusion_lon": 0.0, "lat": 38.92214883333333, "fusion_lat": 0.0}, {"is_disabled": 0, "rental_uris": {"android": "https://dc.lft.to/lastmile_qr_scan", "ios": "https://dc.lft.to/lastmile_qr_scan"}, "is_reserved": 0, "name": "a911a4578abae9bd121d4e9608636b73", "lon": -76.93227183333333, "type": "electric_bike", "bike_id": "a911a4578abae9bd121d4e9608636b73", "fusion_lon": 0.0, "lat": 38.865991666666666, "fusion_lat": 0.0}, {"is_disabled": 0, "rental_uris": {"android": "https://dc.lft.to/lastmile_qr_scan", "ios": "https://dc.lft.to/lastmile_qr_scan"}, "is_reserved": 0, "name": "17b91476cac599e70fd7c926e1d40873", "lon": -77.03717266666666, "type": "electric_scooter", "bike_id": "17b91476cac599e70fd7c926e1d40873", "fusion_lon": 0.0, "lat": 38.91114866666667, "fusion_lat": 0.0}, {"is_disabled": 0, "rental_uris": {"android": "https://dc.lft.to/lastmile_qr_scan", "ios": "https://dc.lft.to/lastmile_qr_scan"}, "is_reserved": 0, "name": "bd9c5d1fdea8ef291a980089d2d9b177", "lon": -77.00680283333334, "type": "electric_scooter", "bike_id": "bd9c5d1fdea8ef291a980089d2d9b177", "fusion_lon": 0.0, "lat": 38.90006133333333, "fusion_lat": 0.0}, {"is_disabled": 0, "rental_uris": {"android": "https://dc.lft.to/lastmile_qr_scan", "ios": "https://dc.lft.to/lastmile_qr_scan"}, "is_reserved": 0, "name": "e0e69aaaf145cfd758e786ebf891306a", "lon": -77.05938516666667, "type": "electric_scooter", "bike_id": "e0e69aaaf145cfd758e786ebf891306a", "fusion_lon": 0.0, "lat": 38.9367425, "fusion_lat": 0.0}, {"is_disabled": 0, "rental_uris": {"android": "https://dc.lft.to/lastmile_qr_scan", "ios": "https://dc.lft.to/lastmile_qr_scan"}, "is_reserved": 0, "name": "cb75f3be61163cdb801480c632e2bc7a", "lon": -77.0229715, "type": "electric_scooter", "bike_id": "cb75f3be61163cdb801480c632e2bc7a", "fusion_lon": 0.0, "lat": 38.917862666666664, "fusion_lat": 0.0}, {"is_disabled": 0, "rental_uris": {"android": "https://dc.lft.to/lastmile_qr_scan", "ios": "https://dc.lft.to/lastmile_qr_scan"}, "is_reserved": 0, "name": "5ce892aa7f1f9b9fc137457250107365", "lon": -76.94896533333333, "type": "electric_scooter", "bike_id": "5ce892aa7f1f9b9fc137457250107365", "fusion_lon": 0.0, "lat": 38.895267833333335, "fusion_lat": 0.0}, {"is_disabled": 0, "rental_uris": {"android": "https://dc.lft.to/lastmile_qr_scan", "ios": "https://dc.lft.to/lastmile_qr_scan"}, "is_reserved": 0, "name": "c609eb22da0ac0800c2a7f6c872e1989", "lon": -77.04387583333333, "type": "electric_scooter", "bike_id": "c609eb22da0ac0800c2a7f6c872e1989", "fusion_lon": 0.0, "lat": 38.905838333333335, "fusion_lat": 0.0}, {"is_disabled": 0, "rental_uris": {"android": "https://dc.lft.to/lastmile_qr_scan", "ios": "https://dc.lft.to/lastmile_qr_scan"}, "is_reserved": 0, "name": "b5a2f24faf0292bb69d3b8a44fe79438", "lon": -76.9995695, "type": "electric_scooter", "bike_id": "b5a2f24faf0292bb69d3b8a44fe79438", "fusion_lon": 0.0, "lat": 38.8429025, "fusion_lat": 0.0}, {"is_disabled": 0, "rental_uris": {"android": "https://dc.lft.to/lastmile_qr_scan", "ios": "https://dc.lft.to/lastmile_qr_scan"}, "is_reserved": 0, "name": "752bd250c9a9ad7aa549be5d821f4efa", "lon": -77.02393016666667, "type": "electric_scooter", "bike_id": "752bd250c9a9ad7aa549be5d821f4efa", "fusion_lon": 0.0, "lat": 38.9207555, "fusion_lat": 0.0}, {"is_disabled": 0, "rental_uris": {"android": "https://dc.lft.to/lastmile_qr_scan", "ios": "https://dc.lft.to/lastmile_qr_scan"}, "is_reserved": 0, "name": "458aa57dd06715fbc1f82db33b1a3259", "lon": -77.02489116666666, "type": "electric_scooter", "bike_id": "458aa57dd06715fbc1f82db33b1a3259", "fusion_lon": 0.0, "lat": 38.905690666666665, "fusion_lat": 0.0}, {"is_disabled": 0, "rental_uris": {"android": "https://dc.lft.to/lastmile_qr_scan", "ios": "https://dc.lft.to/lastmile_qr_scan"}, "is_reserved": 0, "name": "7849e335a54b7daf0ce6e318e2a7a148", "lon": -76.94778333333333, "type": "electric_scooter", "bike_id": "7849e335a54b7daf0ce6e318e2a7a148", "fusion_lon": 0.0, "lat": 38.884651833333336, "fusion_lat": 0.0}, {"is_disabled": 0, "rental_uris": {"android": "https://dc.lft.to/lastmile_qr_scan", "ios": "https://dc.lft.to/lastmile_qr_scan"}, "is_reserved": 0, "name": "7098ff1c835d3ac2eae4024c00ec4d3b", "lon": -76.98233816666666, "type": "electric_scooter", "bike_id": "7098ff1c835d3ac2eae4024c00ec4d3b", "fusion_lon": 0.0, "lat": 38.864689, "fusion_lat": 0.0}, {"is_disabled": 0, "rental_uris": {"android": "https://dc.lft.to/lastmile_qr_scan", "ios": "https://dc.lft.to/lastmile_qr_scan"}, "is_reserved": 0, "name": "efffa3697beae0dd0699b65865e17076", "lon": -76.98368033333334, "type": "electric_scooter", "bike_id": "efffa3697beae0dd0699b65865e17076", "fusion_lon": 0.0, "lat": 38.92200866666667, "fusion_lat": 0.0}, {"is_disabled": 0, "rental_uris": {"android": "https://dc.lft.to/lastmile_qr_scan", "ios": "https://dc.lft.to/lastmile_qr_scan"}, "is_reserved": 0, "name": "1551c65ee4e4dc80517e210c08764125", "lon": -77.1072805, "type": "electric_bike", "bike_id": "1551c65ee4e4dc80517e210c08764125", "fusion_lon": 0.0, "lat": 38.85560383333333, "fusion_lat": 0.0}, {"is_disabled": 0, "rental_uris": {"android": "https://dc.lft.to/lastmile_qr_scan", "ios": "https://dc.lft.to/lastmile_qr_scan"}, "is_reserved": 0, "name": "7e6c0476a1cc0f6c931d299ff4e50bcf", "lon": -77.021828, "type": "electric_scooter", "bike_id": "7e6c0476a1cc0f6c931d299ff4e50bcf", "fusion_lon": 0.0, "lat": 38.89741583333333, "fusion_lat": 0.0}, {"is_disabled": 0, "rental_uris": {"android": "https://dc.lft.to/lastmile_qr_scan", "ios": "https://dc.lft.to/lastmile_qr_scan"}, "is_reserved": 0, "name": "ff8cea0695007caad2112d4467aa2ea5", "lon": -77.02831733333333, "type": "electric_scooter", "bike_id": "ff8cea0695007caad2112d4467aa2ea5", "fusion_lon": 0.0, "lat": 38.914148833333336, "fusion_lat": 0.0}, {"is_disabled": 0, "rental_uris": {"android": "https://dc.lft.to/lastmile_qr_scan", "ios": "https://dc.lft.to/lastmile_qr_scan"}, "is_reserved": 0, "name": "36e6a735f441271494bebd24335df295", "lon": -77.03200166666667, "type": "electric_scooter", "bike_id": "36e6a735f441271494bebd24335df295", "fusion_lon": 0.0, "lat": 38.930677833333334, "fusion_lat": 0.0}, {"is_disabled": 0, "rental_uris": {"android": "https://dc.lft.to/lastmile_qr_scan", "ios": "https://dc.lft.to/lastmile_qr_scan"}, "is_reserved": 0, "name": "b9eaa219e1bb526291c7e8028422d9d4", "lon": -77.06366283333334, "type": "electric_scooter", "bike_id": "b9eaa219e1bb526291c7e8028422d9d4", "fusion_lon": 0.0, "lat": 38.94416616666667, "fusion_lat": 0.0}, {"is_disabled": 0, "rental_uris": {"android": "https://dc.lft.to/lastmile_qr_scan", "ios": "https://dc.lft.to/lastmile_qr_scan"}, "is_reserved": 0, "name": "00c7dcc2ded194c528bc1c48216ea5a5", "lon": -77.00645716666666, "type": "electric_bike", "bike_id": "00c7dcc2ded194c528bc1c48216ea5a5", "fusion_lon": 0.0, "lat": 38.9447635, "fusion_lat": 0.0}, {"is_disabled": 0, "rental_uris": {"android": "https://dc.lft.to/lastmile_qr_scan", "ios": "https://dc.lft.to/lastmile_qr_scan"}, "is_reserved": 0, "name": "97b380adbb5d81d2871cc588a0bfe34d", "lon": -77.055256, "type": "electric_scooter", "bike_id": "97b380adbb5d81d2871cc588a0bfe34d", "fusion_lon": 0.0, "lat": 38.9000695, "fusion_lat": 0.0}, {"is_disabled": 0, "rental_uris": {"android": "https://dc.lft.to/lastmile_qr_scan", "ios": "https://dc.lft.to/lastmile_qr_scan"}, "is_reserved": 0, "name": "eafca9c71d7e83775a564556d57339a3", "lon": -76.99959033333333, "type": "electric_scooter", "bike_id": "eafca9c71d7e83775a564556d57339a3", "fusion_lon": 0.0, "lat": 38.90338966666667, "fusion_lat": 0.0}, {"is_disabled": 0, "rental_uris": {"android": "https://dc.lft.to/lastmile_qr_scan", "ios": "https://dc.lft.to/lastmile_qr_scan"}, "is_reserved": 0, "name": "7c5db2ee1ff60912dc49e4d34cff9ccd", "lon": -77.03200783333334, "type": "electric_scooter", "bike_id": "7c5db2ee1ff60912dc49e4d34cff9ccd", "fusion_lon": 0.0, "lat": 38.91907583333333, "fusion_lat": 0.0}, {"is_disabled": 0, "rental_uris": {"android": "https://dc.lft.to/lastmile_qr_scan", "ios": "https://dc.lft.to/lastmile_qr_scan"}, "is_reserved": 0, "name": "cd18dcf71252631536a71b9ed22e2b96", "lon": -77.03881266666667, "type": "electric_scooter", "bike_id": "cd18dcf71252631536a71b9ed22e2b96", "fusion_lon": 0.0, "lat": 38.93428516666667, "fusion_lat": 0.0}, {"is_disabled": 0, "rental_uris": {"android": "https://dc.lft.to/lastmile_qr_scan", "ios": "https://dc.lft.to/lastmile_qr_scan"}, "is_reserved": 0, "name": "f6d33954944cc0ffc77c45b36125e4cd", "lon": -77.05114966666666, "type": "electric_bike", "bike_id": "f6d33954944cc0ffc77c45b36125e4cd", "fusion_lon": 0.0, "lat": 38.945623833333336, "fusion_lat": 0.0}, {"is_disabled": 0, "rental_uris": {"android": "https://dc.lft.to/lastmile_qr_scan", "ios": "https://dc.lft.to/lastmile_qr_scan"}, "is_reserved": 0, "name": "1e8fdbc7b54ab60bc1b7a9c807959255", "lon": -77.05838916666667, "type": "electric_scooter", "bike_id": "1e8fdbc7b54ab60bc1b7a9c807959255", "fusion_lon": 0.0, "lat": 38.934298, "fusion_lat": 0.0}, {"is_disabled": 0, "rental_uris": {"android": "https://dc.lft.to/lastmile_qr_scan", "ios": "https://dc.lft.to/lastmile_qr_scan"}, "is_reserved": 0, "name": "10315acee33bfe2659ffdb0a2be4ce98", "lon": -77.03199683333334, "type": "electric_scooter", "bike_id": "10315acee33bfe2659ffdb0a2be4ce98", "fusion_lon": 0.0, "lat": 38.9191535, "fusion_lat": 0.0}, {"is_disabled": 0, "rental_uris": {"android": "https://dc.lft.to/lastmile_qr_scan", "ios": "https://dc.lft.to/lastmile_qr_scan"}, "is_reserved": 0, "name": "564255ff11af8d53d05047ad039471fb", "lon": -77.041747, "type": "electric_scooter", "bike_id": "564255ff11af8d53d05047ad039471fb", "fusion_lon": 0.0, "lat": 38.91499816666666, "fusion_lat": 0.0}, {"is_disabled": 0, "rental_uris": {"android": "https://dc.lft.to/lastmile_qr_scan", "ios": "https://dc.lft.to/lastmile_qr_scan"}, "is_reserved": 0, "name": "25dc6b556985d0e31d829b63220a5fe3", "lon": -76.93349433333333, "type": "electric_scooter", "bike_id": "25dc6b556985d0e31d829b63220a5fe3", "fusion_lon": 0.0, "lat": 38.89911583333333, "fusion_lat": 0.0}, {"is_disabled": 0, "rental_uris": {"android": "https://dc.lft.to/lastmile_qr_scan", "ios": "https://dc.lft.to/lastmile_qr_scan"}, "is_reserved": 0, "name": "abdfa6270deb2210018e8880c43ef5da", "lon": -77.01121083333334, "type": "electric_scooter", "bike_id": "abdfa6270deb2210018e8880c43ef5da", "fusion_lon": 0.0, "lat": 38.9035225, "fusion_lat": 0.0}, {"is_disabled": 0, "rental_uris": {"android": "https://dc.lft.to/lastmile_qr_scan", "ios": "https://dc.lft.to/lastmile_qr_scan"}, "is_reserved": 0, "name": "e621b3d48a7a975fcba5f21207b524d0", "lon": -77.02269983333333, "type": "electric_scooter", "bike_id": "e621b3d48a7a975fcba5f21207b524d0", "fusion_lon": 0.0, "lat": 38.912711333333334, "fusion_lat": 0.0}, {"is_disabled": 0, "rental_uris": {"android": "https://dc.lft.to/lastmile_qr_scan", "ios": "https://dc.lft.to/lastmile_qr_scan"}, "is_reserved": 0, "name": "3ccee315b5823544d7859ddd8fa6256e", "lon": -77.02427333333333, "type": "electric_scooter", "bike_id": "3ccee315b5823544d7859ddd8fa6256e", "fusion_lon": 0.0, "lat": 38.912446, "fusion_lat": 0.0}, {"is_disabled": 0, "rental_uris": {"android": "https://dc.lft.to/lastmile_qr_scan", "ios": "https://dc.lft.to/lastmile_qr_scan"}, "is_reserved": 0, "name": "50c516a582a6b7ca7552266e6f31dca8", "lon": -77.08524933333334, "type": "electric_bike", "bike_id": "50c516a582a6b7ca7552266e6f31dca8", "fusion_lon": 0.0, "lat": 38.856512333333335, "fusion_lat": 0.0}, {"is_disabled": 0, "rental_uris": {"android": "https://dc.lft.to/lastmile_qr_scan", "ios": "https://dc.lft.to/lastmile_qr_scan"}, "is_reserved": 0, "name": "60108ee95721324e2cca7d7e5ab7de9c", "lon": -77.03150583333333, "type": "electric_scooter", "bike_id": "60108ee95721324e2cca7d7e5ab7de9c", "fusion_lon": 0.0, "lat": 38.887443166666664, "fusion_lat": 0.0}, {"is_disabled": 0, "rental_uris": {"android": "https://dc.lft.to/lastmile_qr_scan", "ios": "https://dc.lft.to/lastmile_qr_scan"}, "is_reserved": 0, "name": "2076588bd4a2406cc16b3c65b4c92903", "lon": -77.00602883333333, "type": "electric_scooter", "bike_id": "2076588bd4a2406cc16b3c65b4c92903", "fusion_lon": 0.0, "lat": 38.905574, "fusion_lat": 0.0}, {"is_disabled": 0, "rental_uris": {"android": "https://dc.lft.to/lastmile_qr_scan", "ios": "https://dc.lft.to/lastmile_qr_scan"}, "is_reserved": 0, "name": "55815052e3da72bfb8f8615865689e95", "lon": -77.002043, "type": "electric_scooter", "bike_id": "55815052e3da72bfb8f8615865689e95", "fusion_lon": 0.0, "lat": 38.90035433333333, "fusion_lat": 0.0}, {"is_disabled": 0, "rental_uris": {"android": "https://dc.lft.to/lastmile_qr_scan", "ios": "https://dc.lft.to/lastmile_qr_scan"}, "is_reserved": 0, "name": "4e880526098447b87c1a60362c03d732", "lon": -77.0272165, "type": "electric_scooter", "bike_id": "4e880526098447b87c1a60362c03d732", "fusion_lon": 0.0, "lat": 38.90852483333333, "fusion_lat": 0.0}, {"is_disabled": 0, "rental_uris": {"android": "https://dc.lft.to/lastmile_qr_scan", "ios": "https://dc.lft.to/lastmile_qr_scan"}, "is_reserved": 0, "name": "17f4f0f30f8d682a2722b5ab8b8f2468", "lon": -77.01193083333334, "type": "electric_scooter", "bike_id": "17f4f0f30f8d682a2722b5ab8b8f2468", "fusion_lon": 0.0, "lat": 38.900255333333334, "fusion_lat": 0.0}, {"is_disabled": 0, "rental_uris": {"android": "https://dc.lft.to/lastmile_qr_scan", "ios": "https://dc.lft.to/lastmile_qr_scan"}, "is_reserved": 0, "name": "1628c83af110d515328b8826bd62278a", "lon": -77.02227033333334, "type": "electric_scooter", "bike_id": "1628c83af110d515328b8826bd62278a", "fusion_lon": 0.0, "lat": 38.89220666666667, "fusion_lat": 0.0}, {"is_disabled": 0, "rental_uris": {"android": "https://dc.lft.to/lastmile_qr_scan", "ios": "https://dc.lft.to/lastmile_qr_scan"}, "is_reserved": 0, "name": "c0af50a889d5b04269c12a2636fd75b4", "lon": -77.01014183333334, "type": "electric_scooter", "bike_id": "c0af50a889d5b04269c12a2636fd75b4", "fusion_lon": 0.0, "lat": 38.87968083333333, "fusion_lat": 0.0}, {"is_disabled": 0, "rental_uris": {"android": "https://dc.lft.to/lastmile_qr_scan", "ios": "https://dc.lft.to/lastmile_qr_scan"}, "is_reserved": 0, "name": "f1e88eecb207919907a3a15c6390f0e8", "lon": -77.00572333333334, "type": "electric_scooter", "bike_id": "f1e88eecb207919907a3a15c6390f0e8", "fusion_lon": 0.0, "lat": 38.928131666666665, "fusion_lat": 0.0}, {"is_disabled": 0, "rental_uris": {"android": "https://dc.lft.to/lastmile_qr_scan", "ios": "https://dc.lft.to/lastmile_qr_scan"}, "is_reserved": 0, "name": "ae2564cb143bb76131f78c09b5ba029d", "lon": -76.990557, "type": "electric_scooter", "bike_id": "ae2564cb143bb76131f78c09b5ba029d", "fusion_lon": 0.0, "lat": 38.86361616666667, "fusion_lat": 0.0}, {"is_disabled": 0, "rental_uris": {"android": "https://dc.lft.to/lastmile_qr_scan", "ios": "https://dc.lft.to/lastmile_qr_scan"}, "is_reserved": 0, "name": "e781d91872a2b2ba4fd995b6a0f1162f", "lon": -76.9951745, "type": "electric_scooter", "bike_id": "e781d91872a2b2ba4fd995b6a0f1162f", "fusion_lon": 0.0, "lat": 38.89483933333333, "fusion_lat": 0.0}, {"is_disabled": 0, "rental_uris": {"android": "https://dc.lft.to/lastmile_qr_scan", "ios": "https://dc.lft.to/lastmile_qr_scan"}, "is_reserved": 0, "name": "76b978926b866eba4f283ec422e65e23", "lon": -77.0478495, "type": "electric_scooter", "bike_id": "76b978926b866eba4f283ec422e65e23", "fusion_lon": 0.0, "lat": 38.899697, "fusion_lat": 0.0}, {"is_disabled": 0, "rental_uris": {"android": "https://dc.lft.to/lastmile_qr_scan", "ios": "https://dc.lft.to/lastmile_qr_scan"}, "is_reserved": 0, "name": "6d2296f78e4f0cd701976ec65d2f1b67", "lon": -76.9941245, "type": "electric_scooter", "bike_id": "6d2296f78e4f0cd701976ec65d2f1b67", "fusion_lon": 0.0, "lat": 38.894731166666666, "fusion_lat": 0.0}, {"is_disabled": 0, "rental_uris": {"android": "https://dc.lft.to/lastmile_qr_scan", "ios": "https://dc.lft.to/lastmile_qr_scan"}, "is_reserved": 0, "name": "bfdb2de087bdd4d36ef8440226ad9027", "lon": -77.03201816666666, "type": "electric_scooter", "bike_id": "bfdb2de087bdd4d36ef8440226ad9027", "fusion_lon": 0.0, "lat": 38.900383166666664, "fusion_lat": 0.0}, {"is_disabled": 0, "rental_uris": {"android": "https://dc.lft.to/lastmile_qr_scan", "ios": "https://dc.lft.to/lastmile_qr_scan"}, "is_reserved": 0, "name": "6d50bfd023843a6f87cfe48c95841458", "lon": -77.0345425, "type": "electric_scooter", "bike_id": "6d50bfd023843a6f87cfe48c95841458", "fusion_lon": 0.0, "lat": 38.9642885, "fusion_lat": 0.0}, {"is_disabled": 0, "rental_uris": {"android": "https://dc.lft.to/lastmile_qr_scan", "ios": "https://dc.lft.to/lastmile_qr_scan"}, "is_reserved": 0, "name": "b86a2a43e437f3940d83907dc1b112d8", "lon": -76.91599883333333, "type": "electric_bike", "bike_id": "b86a2a43e437f3940d83907dc1b112d8", "fusion_lon": 0.0, "lat": 38.87983, "fusion_lat": 0.0}, {"is_disabled": 0, "rental_uris": {"android": "https://dc.lft.to/lastmile_qr_scan", "ios": "https://dc.lft.to/lastmile_qr_scan"}, "is_reserved": 0, "name": "32e78d01a0e37bfecd9fedbfab5a2e9d", "lon": -77.0484815, "type": "electric_scooter", "bike_id": "32e78d01a0e37bfecd9fedbfab5a2e9d", "fusion_lon": 0.0, "lat": 38.88833316666667, "fusion_lat": 0.0}, {"is_disabled": 0, "rental_uris": {"android": "https://dc.lft.to/lastmile_qr_scan", "ios": "https://dc.lft.to/lastmile_qr_scan"}, "is_reserved": 0, "name": "5c4dcc4eab7ca99d95b6596b4abc5db1", "lon": -77.15267833333333, "type": "electric_bike", "bike_id": "5c4dcc4eab7ca99d95b6596b4abc5db1", "fusion_lon": 0.0, "lat": 39.10566766666667, "fusion_lat": 0.0}, {"is_disabled": 0, "rental_uris": {"android": "https://dc.lft.to/lastmile_qr_scan", "ios": "https://dc.lft.to/lastmile_qr_scan"}, "is_reserved": 0, "name": "0990b7c539319756e06b43585519711f", "lon": -77.023749, "type": "electric_scooter", "bike_id": "0990b7c539319756e06b43585519711f", "fusion_lon": 0.0, "lat": 38.914052, "fusion_lat": 0.0}, {"is_disabled": 0, "rental_uris": {"android": "https://dc.lft.to/lastmile_qr_scan", "ios": "https://dc.lft.to/lastmile_qr_scan"}, "is_reserved": 0, "name": "13b3185d6ca5a52af61ad46eeea0b847", "lon": -77.03961283333334, "type": "electric_scooter", "bike_id": "13b3185d6ca5a52af61ad46eeea0b847", "fusion_lon": 0.0, "lat": 38.89891166666666, "fusion_lat": 0.0}, {"is_disabled": 0, "rental_uris": {"android": "https://dc.lft.to/lastmile_qr_scan", "ios": "https://dc.lft.to/lastmile_qr_scan"}, "is_reserved": 0, "name": "f591d5b34eb6f4e7c81929431d12f983", "lon": -76.98326766666666, "type": "electric_scooter", "bike_id": "f591d5b34eb6f4e7c81929431d12f983", "fusion_lon": 0.0, "lat": 38.861732333333336, "fusion_lat": 0.0}, {"is_disabled": 0, "rental_uris": {"android": "https://dc.lft.to/lastmile_qr_scan", "ios": "https://dc.lft.to/lastmile_qr_scan"}, "is_reserved": 0, "name": "17ce156c0d93294a3c2b3c366dde3bb6", "lon": -76.96833416666666, "type": "electric_bike", "bike_id": "17ce156c0d93294a3c2b3c366dde3bb6", "fusion_lon": 0.0, "lat": 38.9244425, "fusion_lat": 0.0}, {"is_disabled": 0, "rental_uris": {"android": "https://dc.lft.to/lastmile_qr_scan", "ios": "https://dc.lft.to/lastmile_qr_scan"},