{"data": {"bikes": [{"bike_id": "f75b7866b3b651460965b5812e9ae305", "is_reserved": 0, "fusion_lon": 0.0, "lat": 38.90382616666667, "is_disabled": 0, "name": "f75b7866b3b651460965b5812e9ae305", "fusion_lat": 0.0, "rental_uris": {"ios": "https://dc.lft.to/lastmile_qr_scan", "android": "https://dc.lft.to/lastmile_qr_scan"}, "lon": -77.04207416666667, "type": "electric_scooter"}, {"bike_id": "adcd8c6f97261f328ae285b4a0c9817a", "is_reserved": 0, "fusion_lon": 0.0, "lat": 38.90490466666667, "is_disabled": 0, "name": "adcd8c6f97261f328ae285b4a0c9817a", "fusion_lat": 0.0, "rental_uris": {"ios": "https://dc.lft.to/lastmile_qr_scan", "android": "https://dc.lft.to/lastmile_qr_scan"}, "lon": -77.06025883333334, "type": "electric_scooter"}, {"bike_id": "be65ea3f185f66f2c5c47f36a34166fc", "is_reserved": 0, "fusion_lon": 0.0, "lat": 38.885155833333336, "is_disabled": 0, "name": "be65ea3f185f66f2c5c47f36a34166fc", "fusion_lat": 0.0, "rental_uris": {"ios": "https://dc.lft.to/lastmile_qr_scan", "android": "https://dc.lft.to/lastmile_qr_scan"}, "lon": -77.03352116666667, "type": "electric_scooter"}, {"bike_id": "96ba2953a6946f67025ac727effab8b0", "is_reserved": 0, "fusion_lon": 0.0, "lat": 38.89195083333333, "is_disabled": 0, "name": "96ba2953a6946f67025ac727effab8b0", "fusion_lat": 0.0, "rental_uris": {"ios": "https://dc.lft.to/lastmile_qr_scan", "android": "https://dc.lft.to/lastmile_qr_scan"}, "lon": -77.02383216666666, "type": "electric_scooter"}, {"bike_id": "88f2a53ab626886bf92a51100267d88d", "is_reserved": 0, "fusion_lon": 0.0, "lat": 38.90409116666667, "is_disabled": 0, "name": "88f2a53ab626886bf92a51100267d88d", "fusion_lat": 0.0, "rental_uris": {"ios": "https://dc.lft.to/lastmile_qr_scan", "android": "https://dc.lft.to/lastmile_qr_scan"}, "lon": -77.0403755, "type": "electric_scooter"}, {"bike_id": "0dac7cecbab62c4cadeb553289ee3fa8", "is_reserved": 0, "fusion_lon": 0.0, "lat": 38.8990195, "is_disabled": 0, "name": "0dac7cecbab62c4cadeb553289ee3fa8", "fusion_lat": 0.0, "rental_uris": {"ios": "https://dc.lft.to/lastmile_qr_scan", "android": "https://dc.lft.to/lastmile_qr_scan"}, "lon": -76.93361866666666, "type": "electric_scooter"}, {"bike_id": "d4c629ba99c11a9cc923fe8fa33e665f", "is_reserved": 0, "fusion_lon": 0.0, "lat": 38.87494083333333, "is_disabled": 0, "name": "d4c629ba99c11a9cc923fe8fa33e665f", "fusion_lat": 0.0, "rental_uris": {"ios": "https://dc.lft.to/lastmile_qr_scan", "android": "https://dc.lft.to/lastmile_qr_scan"}, "lon": -76.99801433333333, "type": "electric_scooter"}, {"bike_id": "af740c24bf334f4a64756a3eca82cab3", "is_reserved": 0, "fusion_lon": 0.0, "lat": 38.94013116666667, "is_disabled": 0, "name": "af740c24bf334f4a64756a3eca82cab3", "fusion_lat": 0.0, "rental_uris": {"ios": "https://dc.lft.to/lastmile_qr_scan", "android": "https://dc.lft.to/lastmile_qr_scan"}, "lon": -77.07173966666667, "type": "electric_scooter"}, {"bike_id": "837c5f119768b2d8c66f4d68317ee569", "is_reserved": 0, "fusion_lon": 0.0, "lat": 38.9241535, "is_disabled": 0, "name": "837c5f119768b2d8c66f4d68317ee569", "fusion_lat": 0.0, "rental_uris": {"ios": "https://dc.lft.to/lastmile_qr_scan", "android": "https://dc.lft.to/lastmile_qr_scan"}, "lon": -77.02242883333334, "type": "electric_scooter"}, {"bike_id": "833aa3afc57c776c12f827966c2ebdb3", "is_reserved": 0, "fusion_lon": 0.0, "lat": 38.85808466666667, "is_disabled": 0, "name": "833aa3afc57c776c12f827966c2ebdb3", "fusion_lat": 0.0, "rental_uris": {"ios": "https://dc.lft.to/lastmile_qr_scan", "android": "https://dc.lft.to/lastmile_qr_scan"}, "lon": -76.9899275, "type": "electric_scooter"}, {"bike_id": "894b4af79ff87a00cf56b240391dd324", "is_reserved": 0, "fusion_lon": 0.0, "lat": 38.904729333333336, "is_disabled": 0, "name": "894b4af79ff87a00cf56b240391dd324", "fusion_lat": 0.0, "rental_uris": {"ios": "https://dc.lft.to/lastmile_qr_scan", "android": "https://dc.lft.to/lastmile_qr_scan"}, "lon": -77.034641, "type": "electric_scooter"}, {"bike_id": "1c39c6b5ceab37ff3af46777281d7917", "is_reserved": 0, "fusion_lon": 0.0, "lat": 38.90360733333333, "is_disabled": 0, "name": "1c39c6b5ceab37ff3af46777281d7917", "fusion_lat": 0.0, "rental_uris": {"ios": "https://dc.lft.to/lastmile_qr_scan", "android": "https://dc.lft.to/lastmile_qr_scan"}, "lon": -77.0450165, "type": "electric_scooter"}, {"bike_id": "af0adbddedacb11e5ee399a164079118", "is_reserved": 0, "fusion_lon": 0.0, "lat": 38.895494666666664, "is_disabled": 0, "name": "af0adbddedacb11e5ee399a164079118", "fusion_lat": 0.0, "rental_uris": {"ios": "https://dc.lft.to/lastmile_qr_scan", "android": "https://dc.lft.to/lastmile_qr_scan"}, "lon": -77.00919733333333, "type": "electric_scooter"}, {"bike_id": "4fed1c74facd00e2efb2b34c25eea050", "is_reserved": 0, "fusion_lon": 0.0, "lat": 38.866198, "is_disabled": 0, "name": "4fed1c74facd00e2efb2b34c25eea050", "fusion_lat": 0.0, "rental_uris": {"ios": "https://dc.lft.to/lastmile_qr_scan", "android": "https://dc.lft.to/lastmile_qr_scan"}, "lon": -76.986689, "type": "electric_scooter"}, {"bike_id": "9d9fd51523159fb077ce948d16134409", "is_reserved": 0, "fusion_lon": 0.0, "lat": 38.90784933333333, "is_disabled": 0, "name": "9d9fd51523159fb077ce948d16134409", "fusion_lat": 0.0, "rental_uris": {"ios": "https://dc.lft.to/lastmile_qr_scan", "android": "https://dc.lft.to/lastmile_qr_scan"}, "lon": -77.04303266666666, "type": "electric_scooter"}, {"bike_id": "b1ba437d2160a1eb8af63231ac90f37d", "is_reserved": 0, "fusion_lon": 0.0, "lat": 38.845896333333336, "is_disabled": 0, "name": "b1ba437d2160a1eb8af63231ac90f37d", "fusion_lat": 0.0, "rental_uris": {"ios": "https://dc.lft.to/lastmile_qr_scan", "android": "https://dc.lft.to/lastmile_qr_scan"}, "lon": -77.07684133333333, "type": "electric_bike"}, {"bike_id": "d450114faf5debac300992c1e6131cfd", "is_reserved": 0, "fusion_lon": 0.0, "lat": 38.947556, "is_disabled": 0, "name": "d450114faf5debac300992c1e6131cfd", "fusion_lat": 0.0, "rental_uris": {"ios": "https://dc.lft.to/lastmile_qr_scan", "android": "https://dc.lft.to/lastmile_qr_scan"}, "lon": -77.07967666666667, "type": "electric_scooter"}, {"bike_id": "e2f4c9f17f3df225636500e6117b948a", "is_reserved": 0, "fusion_lon": 0.0, "lat": 38.892164, "is_disabled": 0, "name": "e2f4c9f17f3df225636500e6117b948a", "fusion_lat": 0.0, "rental_uris": {"ios": "https://dc.lft.to/lastmile_qr_scan", "android": "https://dc.lft.to/lastmile_qr_scan"}, "lon": -77.04196483333334, "type": "electric_scooter"}, {"bike_id": "19c09ba04d8dc186f2576828718884f0", "is_reserved": 0, "fusion_lon": 0.0, "lat": 38.940391166666664, "is_disabled": 0, "name": "19c09ba04d8dc186f2576828718884f0", "fusion_lat": 0.0, "rental_uris": {"ios": "https://dc.lft.to/lastmile_qr_scan", "android": "https://dc.lft.to/lastmile_qr_scan"}, "lon": -77.0291765, "type": "electric_scooter"}, {"bike_id": "153957537575b06c9de4c708b54080b9", "is_reserved": 0, "fusion_lon": 0.0, "lat": 38.89625683333333, "is_disabled": 0, "name": "153957537575b06c9de4c708b54080b9", "fusion_lat": 0.0, "rental_uris": {"ios": "https://dc.lft.to/lastmile_qr_scan", "android": "https://dc.lft.to/lastmile_qr_scan"}, "lon": -77.03957266666667, "type": "electric_scooter"}, {"bike_id": "d7817de6bfab31e6e9d4db4399a806f5", "is_reserved": 0, "fusion_lon": 0.0, "lat": 38.933427333333334, "is_disabled": 0, "name": "d7817de6bfab31e6e9d4db4399a806f5", "fusion_lat": 0.0, "rental_uris": {"ios": "https://dc.lft.to/lastmile_qr_scan", "android": "https://dc.lft.to/lastmile_qr_scan"}, "lon": -77.0571465, "type": "electric_scooter"}, {"bike_id": "74394365508f2e0c0eedf3e4e69da7c3", "is_reserved": 0, "fusion_lon": 0.0, "lat": 38.908058, "is_disabled": 0, "name": "74394365508f2e0c0eedf3e4e69da7c3", "fusion_lat": 0.0, "rental_uris": {"ios": "https://dc.lft.to/lastmile_qr_scan", "android": "https://dc.lft.to/lastmile_qr_scan"}, "lon": -76.9983595, "type": "electric_scooter"}, {"bike_id": "f424e68f177058a51ff84696eba9daeb", "is_reserved": 0, "fusion_lon": 0.0, "lat": 38.907347333333334, "is_disabled": 0, "name": "f424e68f177058a51ff84696eba9daeb", "fusion_lat": 0.0, "rental_uris": {"ios": "https://dc.lft.to/lastmile_qr_scan", "android": "https://dc.lft.to/lastmile_qr_scan"}, "lon": -76.98649383333333, "type": "electric_scooter"}, {"bike_id": "e06345c7a5c93afbaa45afee51d67449", "is_reserved": 0, "fusion_lon": 0.0, "lat": 38.894505333333335, "is_disabled": 0, "name": "e06345c7a5c93afbaa45afee51d67449", "fusion_lat": 0.0, "rental_uris": {"ios": "https://dc.lft.to/lastmile_qr_scan", "android": "https://dc.lft.to/lastmile_qr_scan"}, "lon": -76.9704235, "type": "electric_bike"}, {"bike_id": "651e038795288369a32e5b9c794ece00", "is_reserved": 0, "fusion_lon": 0.0, "lat": 38.911052166666664, "is_disabled": 0, "name": "651e038795288369a32e5b9c794ece00", "fusion_lat": 0.0, "rental_uris": {"ios": "https://dc.lft.to/lastmile_qr_scan", "android": "https://dc.lft.to/lastmile_qr_scan"}, "lon": -77.02418416666667, "type": "electric_scooter"}, {"bike_id": "179de0296be2ec8f3b26404e4b6a0d97", "is_reserved": 0, "fusion_lon": 0.0, "lat": 38.91644433333333, "is_disabled": 0, "name": "179de0296be2ec8f3b26404e4b6a0d97", "fusion_lat": 0.0, "rental_uris": {"ios": "https://dc.lft.to/lastmile_qr_scan", "android": "https://dc.lft.to/lastmile_qr_scan"}, "lon": -77.047793, "type": "electric_scooter"}, {"bike_id": "888a2d0ab89b0f6a6b0763491536b419", "is_reserved": 0, "fusion_lon": 0.0, "lat": 38.89218566666667, "is_disabled": 0, "name": "888a2d0ab89b0f6a6b0763491536b419", "fusion_lat": 0.0, "rental_uris": {"ios": "https://dc.lft.to/lastmile_qr_scan", "android": "https://dc.lft.to/lastmile_qr_scan"}, "lon": -77.0264845, "type": "electric_scooter"}, {"bike_id": "a1f4e20fb860821b59f256027ae3ea53", "is_reserved": 0, "fusion_lon": 0.0, "lat": 38.89260816666667, "is_disabled": 0, "name": "a1f4e20fb860821b59f256027ae3ea53", "fusion_lat": 0.0, "rental_uris": {"ios": "https://dc.lft.to/lastmile_qr_scan", "android": "https://dc.lft.to/lastmile_qr_scan"}, "lon": -76.941632, "type": "electric_scooter"}, {"bike_id": "d19f464b6e91bb92bb7f787807d4c28f", "is_reserved": 0, "fusion_lon": 0.0, "lat": 38.9263645, "is_disabled": 0, "name": "d19f464b6e91bb92bb7f787807d4c28f", "fusion_lat": 0.0, "rental_uris": {"ios": "https://dc.lft.to/lastmile_qr_scan", "android": "https://dc.lft.to/lastmile_qr_scan"}, "lon": -77.03793083333333, "type": "electric_scooter"}, {"bike_id": "524f48260fdbaa3b0784bfc5abd41903", "is_reserved": 0, "fusion_lon": 0.0, "lat": 38.9217495, "is_disabled": 0, "name": "524f48260fdbaa3b0784bfc5abd41903", "fusion_lat": 0.0, "rental_uris": {"ios": "https://dc.lft.to/lastmile_qr_scan", "android": "https://dc.lft.to/lastmile_qr_scan"}, "lon": -76.99795866666666, "type": "electric_scooter"}, {"bike_id": "001996bf875cb37882c00a499c322ba0", "is_reserved": 0, "fusion_lon": 0.0, "lat": 38.86433, "is_disabled": 0, "name": "001996bf875cb37882c00a499c322ba0", "fusion_lat": 0.0, "rental_uris": {"ios": "https://dc.lft.to/lastmile_qr_scan", "android": "https://dc.lft.to/lastmile_qr_scan"}, "lon": -76.97374733333334, "type": "electric_scooter"}, {"bike_id": "a8e4030040e5ef413bc9c621a79605ca", "is_reserved": 0, "fusion_lon": 0.0, "lat": 38.9106465, "is_disabled": 0, "name": "a8e4030040e5ef413bc9c621a79605ca", "fusion_lat": 0.0, "rental_uris": {"ios": "https://dc.lft.to/lastmile_qr_scan", "android": "https://dc.lft.to/lastmile_qr_scan"}, "lon": -77.02976716666667, "type": "electric_scooter"}, {"bike_id": "92b86722fd11eb529b2d5b131cd7b0d4", "is_reserved": 0, "fusion_lon": 0.0, "lat": 38.899531333333336, "is_disabled": 0, "name": "92b86722fd11eb529b2d5b131cd7b0d4", "fusion_lat": 0.0, "rental_uris": {"ios": "https://dc.lft.to/lastmile_qr_scan", "android": "https://dc.lft.to/lastmile_qr_scan"}, "lon": -77.0516495, "type": "electric_scooter"}, {"bike_id": "56bf4c424196975b56da88dc2f2f329b", "is_reserved": 0, "fusion_lon": 0.0, "lat": 38.822566333333334, "is_disabled": 0, "name": "56bf4c424196975b56da88dc2f2f329b", "fusion_lat": 0.0, "rental_uris": {"ios": "https://dc.lft.to/lastmile_qr_scan", "android": "https://dc.lft.to/lastmile_qr_scan"}, "lon": -77.00568716666666, "type": "electric_bike"}, {"bike_id": "0e03f4824f1e48c140e6cf70c7ca0dc2", "is_reserved": 0, "fusion_lon": 0.0, "lat": 38.87475, "is_disabled": 0, "name": "0e03f4824f1e48c140e6cf70c7ca0dc2", "fusion_lat": 0.0, "rental_uris": {"ios": "https://dc.lft.to/lastmile_qr_scan", "android": "https://dc.lft.to/lastmile_qr_scan"}, "lon": -77.01075833333333, "type": "electric_scooter"}, {"bike_id": "a5e3c4d1bc64de2e0c12de06d4703dab", "is_reserved": 0, "fusion_lon": 0.0, "lat": 38.897138166666664, "is_disabled": 0, "name": "a5e3c4d1bc64de2e0c12de06d4703dab", "fusion_lat": 0.0, "rental_uris": {"ios": "https://dc.lft.to/lastmile_qr_scan", "android": "https://dc.lft.to/lastmile_qr_scan"}, "lon": -77.00795883333333, "type": "electric_scooter"}, {"bike_id": "aba6bdb142a3747214caab018cab009c", "is_reserved": 0, "fusion_lon": 0.0, "lat": 38.865144, "is_disabled": 0, "name": "aba6bdb142a3747214caab018cab009c", "fusion_lat": 0.0, "rental_uris": {"ios": "https://dc.lft.to/lastmile_qr_scan", "android": "https://dc.lft.to/lastmile_qr_scan"}, "lon": -76.99039766666667, "type": "electric_scooter"}, {"bike_id": "0c519b0217fc9f3759149e4906759425", "is_reserved": 0, "fusion_lon": 0.0, "lat": 38.90541666666667, "is_disabled": 0, "name": "0c519b0217fc9f3759149e4906759425", "fusion_lat": 0.0, "rental_uris": {"ios": "https://dc.lft.to/lastmile_qr_scan", "android": "https://dc.lft.to/lastmile_qr_scan"}, "lon": -77.04684616666667, "type": "electric_scooter"}, {"bike_id": "0633197937baa2e99a07286eea1c522d", "is_reserved": 0, "fusion_lon": 0.0, "lat": 38.939368333333334, "is_disabled": 0, "name": "0633197937baa2e99a07286eea1c522d", "fusion_lat": 0.0, "rental_uris": {"ios": "https://dc.lft.to/lastmile_qr_scan", "android": "https://dc.lft.to/lastmile_qr_scan"}, "lon": -77.06113133333334, "type": "electric_scooter"}, {"bike_id": "5d63333256e3d34f1a128ac7a7e7539e", "is_reserved": 0, "fusion_lon": 0.0, "lat": 38.861799166666664, "is_disabled": 0, "name": "5d63333256e3d34f1a128ac7a7e7539e", "fusion_lat": 0.0, "rental_uris": {"ios": "https://dc.lft.to/lastmile_qr_scan", "android": "https://dc.lft.to/lastmile_qr_scan"}, "lon": -76.99431866666667, "type": "electric_scooter"}, {"bike_id": "7163553f0466e80c07e6da51c8d3d143", "is_reserved": 0, "fusion_lon": 0.0, "lat": 38.89222566666667, "is_disabled": 0, "name": "7163553f0466e80c07e6da51c8d3d143", "fusion_lat": 0.0, "rental_uris": {"ios": "https://dc.lft.to/lastmile_qr_scan", "android": "https://dc.lft.to/lastmile_qr_scan"}, "lon": -77.04867416666667, "type": "electric_scooter"}, {"bike_id": "cc49399c657e4ccd2b04b83c689ae887", "is_reserved": 0, "fusion_lon": 0.0, "lat": 38.89274316666667, "is_disabled": 0, "name": "cc49399c657e4ccd2b04b83c689ae887", "fusion_lat": 0.0, "rental_uris": {"ios": "https://dc.lft.to/lastmile_qr_scan", "android": "https://dc.lft.to/lastmile_qr_scan"}, "lon": -77.02619766666666, "type": "electric_scooter"}, {"bike_id": "8f69e2f20cb777e975610894df223226", "is_reserved": 0, "fusion_lon": 0.0, "lat": 38.897184833333334, "is_disabled": 0, "name": "8f69e2f20cb777e975610894df223226", "fusion_lat": 0.0, "rental_uris": {"ios": "https://dc.lft.to/lastmile_qr_scan", "android": "https://dc.lft.to/lastmile_qr_scan"}, "lon": -77.04618316666667, "type": "electric_scooter"}, {"bike_id": "5e87149916ba17e76cb09f9ba2246207", "is_reserved": 0, "fusion_lon": 0.0, "lat": 38.859532333333334, "is_disabled": 0, "name": "5e87149916ba17e76cb09f9ba2246207", "fusion_lat": 0.0, "rental_uris": {"ios": "https://dc.lft.to/lastmile_qr_scan", "android": "https://dc.lft.to/lastmile_qr_scan"}, "lon": -76.99095783333334, "type": "electric_scooter"}, {"bike_id": "543cdfb62c779e761cc8b4b8034220be", "is_reserved": 0, "fusion_lon": 0.0, "lat": 38.91805266666667, "is_disabled": 0, "name": "543cdfb62c779e761cc8b4b8034220be", "fusion_lat": 0.0, "rental_uris": {"ios": "https://dc.lft.to/lastmile_qr_scan", "android": "https://dc.lft.to/lastmile_qr_scan"}, "lon": -77.03307166666667, "type": "electric_scooter"}, {"bike_id": "dfce4e4ceed55ba2c0e9663cbce51b31", "is_reserved": 0, "fusion_lon": 0.0, "lat": 38.918129666666665, "is_disabled": 0, "name": "dfce4e4ceed55ba2c0e9663cbce51b31", "fusion_lat": 0.0, "rental_uris": {"ios": "https://dc.lft.to/lastmile_qr_scan", "android": "https://dc.lft.to/lastmile_qr_scan"}, "lon": -77.02475133333333, "type": "electric_scooter"}, {"bike_id": "1c9977e7589ddf51476b8981419119c0", "is_reserved": 0, "fusion_lon": 0.0, "lat": 38.9203765, "is_disabled": 0, "name": "1c9977e7589ddf51476b8981419119c0", "fusion_lat": 0.0, "rental_uris": {"ios": "https://dc.lft.to/lastmile_qr_scan", "android": "https://dc.lft.to/lastmile_qr_scan"}, "lon": -77.02443783333334, "type": "electric_scooter"}, {"bike_id": "301619461d98db08360e0f3e9e6adc8b", "is_reserved": 0, "fusion_lon": 0.0, "lat": 38.89221383333334, "is_disabled": 0, "name": "301619461d98db08360e0f3e9e6adc8b", "fusion_lat": 0.0, "rental_uris": {"ios": "https://dc.lft.to/lastmile_qr_scan", "android": "https://dc.lft.to/lastmile_qr_scan"}, "lon": -77.04660516666667, "type": "electric_scooter"}, {"bike_id": "5a77128ccbcf7da3e11d2fd3a54a2c0a", "is_reserved": 0, "fusion_lon": 0.0, "lat": 38.90366216666666, "is_disabled": 0, "name": "5a77128ccbcf7da3e11d2fd3a54a2c0a", "fusion_lat": 0.0, "rental_uris": {"ios": "https://dc.lft.to/lastmile_qr_scan", "android": "https://dc.lft.to/lastmile_qr_scan"}, "lon": -77.04514333333333, "type": "electric_scooter"}, {"bike_id": "cad7d1d99195b7bd34a47272f91ad8d3", "is_reserved": 0, "fusion_lon": 0.0, "lat": 38.87843933333333, "is_disabled": 0, "name": "cad7d1d99195b7bd34a47272f91ad8d3", "fusion_lat": 0.0, "rental_uris": {"ios": "https://dc.lft.to/lastmile_qr_scan", "android": "https://dc.lft.to/lastmile_qr_scan"}, "lon": -77.01958083333334, "type": "electric_scooter"}, {"bike_id": "9f1af7fed9b116a2c57cfa809ef6be67", "is_reserved": 0, "fusion_lon": 0.0, "lat": 38.90785133333333, "is_disabled": 0, "name": "9f1af7fed9b116a2c57cfa809ef6be67", "fusion_lat": 0.0, "rental_uris": {"ios": "https://dc.lft.to/lastmile_qr_scan", "android": "https://dc.lft.to/lastmile_qr_scan"}, "lon": -77.04262616666666, "type": "electric_scooter"}, {"bike_id": "0f36b946b5f6b82e07afe0b26d31be06", "is_reserved": 0, "fusion_lon": 0.0, "lat": 38.94447266666667, "is_disabled": 0, "name": "0f36b946b5f6b82e07afe0b26d31be06", "fusion_lat": 0.0, "rental_uris": {"ios": "https://dc.lft.to/lastmile_qr_scan", "android": "https://dc.lft.to/lastmile_qr_scan"}, "lon": -77.06351916666667, "type": "electric_scooter"}, {"bike_id": "4b9c115f8333617ed61bea74eff9ef60", "is_reserved": 0, "fusion_lon": 0.0, "lat": 38.9398155, "is_disabled": 0, "name": "4b9c115f8333617ed61bea74eff9ef60", "fusion_lat": 0.0, "rental_uris": {"ios": "https://dc.lft.to/lastmile_qr_scan", "android": "https://dc.lft.to/lastmile_qr_scan"}, "lon": -77.0289385, "type": "electric_scooter"}, {"bike_id": "4c017795b87cf58e002a2dd88705d6a0", "is_reserved": 0, "fusion_lon": 0.0, "lat": 38.9032815, "is_disabled": 0, "name": "4c017795b87cf58e002a2dd88705d6a0", "fusion_lat": 0.0, "rental_uris": {"ios": "https://dc.lft.to/lastmile_qr_scan", "android": "https://dc.lft.to/lastmile_qr_scan"}, "lon": -77.0163995, "type": "electric_bike"}, {"bike_id": "0d50bd29ea30d88215ab0761f9f3d751", "is_reserved": 0, "fusion_lon": 0.0, "lat": 38.923105666666665, "is_disabled": 0, "name": "0d50bd29ea30d88215ab0761f9f3d751", "fusion_lat": 0.0, "rental_uris": {"ios": "https://dc.lft.to/lastmile_qr_scan", "android": "https://dc.lft.to/lastmile_qr_scan"}, "lon": -77.03915683333334, "type": "electric_scooter"}, {"bike_id": "684e902efd1b5a83f228459d022e34f2", "is_reserved": 0, "fusion_lon": 0.0, "lat": 38.876255, "is_disabled": 0, "name": "684e902efd1b5a83f228459d022e34f2", "fusion_lat": 0.0, "rental_uris": {"ios": "https://dc.lft.to/lastmile_qr_scan", "android": "https://dc.lft.to/lastmile_qr_scan"}, "lon": -76.9653135, "type": "electric_scooter"}, {"bike_id": "6caac9b129349f7606965c64f5c6904f", "is_reserved": 0, "fusion_lon": 0.0, "lat": 38.842916833333334, "is_disabled": 0, "name": "6caac9b129349f7606965c64f5c6904f", "fusion_lat": 0.0, "rental_uris": {"ios": "https://dc.lft.to/lastmile_qr_scan", "android": "https://dc.lft.to/lastmile_qr_scan"}, "lon": -76.99951466666667, "type": "electric_scooter"}, {"bike_id": "3f1db793b0e83d738216651643543cda", "is_reserved": 0, "fusion_lon": 0.0, "lat": 38.91197066666667, "is_disabled": 0, "name": "3f1db793b0e83d738216651643543cda", "fusion_lat": 0.0, "rental_uris": {"ios": "https://dc.lft.to/lastmile_qr_scan", "android": "https://dc.lft.to/lastmile_qr_scan"}, "lon": -77.01620633333333, "type": "electric_scooter"}, {"bike_id": "dedb3b08dfb3471c7127a1520ba9bd84", "is_reserved": 0, "fusion_lon": 0.0, "lat": 38.92116716666666, "is_disabled": 0, "name": "dedb3b08dfb3471c7127a1520ba9bd84", "fusion_lat": 0.0, "rental_uris": {"ios": "https://dc.lft.to/lastmile_qr_scan", "android": "https://dc.lft.to/lastmile_qr_scan"}, "lon": -77.01213933333334, "type": "electric_scooter"}, {"bike_id": "990706bf5e09f8b0c7ccc59e59780851", "is_reserved": 0, "fusion_lon": 0.0, "lat": 38.906046833333335, "is_disabled": 0, "name": "990706bf5e09f8b0c7ccc59e59780851", "fusion_lat": 0.0, "rental_uris": {"ios": "https://dc.lft.to/lastmile_qr_scan", "android": "https://dc.lft.to/lastmile_qr_scan"}, "lon": -76.98260583333334, "type": "electric_scooter"}, {"bike_id": "4cc855e830c8ebf0659c3825973dfb28", "is_reserved": 0, "fusion_lon": 0.0, "lat": 38.912583833333336, "is_disabled": 0, "name": "4cc855e830c8ebf0659c3825973dfb28", "fusion_lat": 0.0, "rental_uris": {"ios": "https://dc.lft.to/lastmile_qr_scan", "android": "https://dc.lft.to/lastmile_qr_scan"}, "lon": -77.0315255, "type": "electric_scooter"}, {"bike_id": "4eda88d5ddb74960f30ae48f87347e76", "is_reserved": 0, "fusion_lon": 0.0, "lat": 38.922592, "is_disabled": 0, "name": "4eda88d5ddb74960f30ae48f87347e76", "fusion_lat": 0.0, "rental_uris": {"ios": "https://dc.lft.to/lastmile_qr_scan", "android": "https://dc.lft.to/lastmile_qr_scan"}, "lon": -77.0183125, "type": "electric_scooter"}, {"bike_id": "38ec58d7766aa5ae515001ebbad3de62", "is_reserved": 0, "fusion_lon": 0.0, "lat": 38.9246965, "is_disabled": 0, "name": "38ec58d7766aa5ae515001ebbad3de62", "fusion_lat": 0.0, "rental_uris": {"ios": "https://dc.lft.to/lastmile_qr_scan", "android": "https://dc.lft.to/lastmile_qr_scan"}, "lon": -77.039219, "type": "electric_scooter"}, {"bike_id": "45c98d949a051dced12f7af7c3baa843", "is_reserved": 0, "fusion_lon": 0.0, "lat": 38.94172866666667, "is_disabled": 0, "name": "45c98d949a051dced12f7af7c3baa843", "fusion_lat": 0.0, "rental_uris": {"ios": "https://dc.lft.to/lastmile_qr_scan", "android": "https://dc.lft.to/lastmile_qr_scan"}, "lon": -77.02501833333334, "type": "electric_scooter"}, {"bike_id": "7fd6f832932eb0a2a9f77364931a2f00", "is_reserved": 0, "fusion_lon": 0.0, "lat": 38.893641333333335, "is_disabled": 0, "name": "7fd6f832932eb0a2a9f77364931a2f00", "fusion_lat": 0.0, "rental_uris": {"ios": "https://dc.lft.to/lastmile_qr_scan", "android": "https://dc.lft.to/lastmile_qr_scan"}, "lon": -76.9496435, "type": "electric_scooter"}, {"bike_id": "c19c5b095b509115d627773cf17a25f2", "is_reserved": 0, "fusion_lon": 0.0, "lat": 38.902722, "is_disabled": 0, "name": "c19c5b095b509115d627773cf17a25f2", "fusion_lat": 0.0, "rental_uris": {"ios": "https://dc.lft.to/lastmile_qr_scan", "android": "https://dc.lft.to/lastmile_qr_scan"}, "lon": -77.03377533333334, "type": "electric_scooter"}, {"bike_id": "157f969393712ab121190c72a39f667a", "is_reserved": 0, "fusion_lon": 0.0, "lat": 38.89814, "is_disabled": 0, "name": "157f969393712ab121190c72a39f667a", "fusion_lat": 0.0, "rental_uris": {"ios": "https://dc.lft.to/lastmile_qr_scan", "android": "https://dc.lft.to/lastmile_qr_scan"}, "lon": -77.0090965, "type": "electric_scooter"}, {"bike_id": "bc9592eb44aac9bf9e88f7f545d5f8c9", "is_reserved": 0, "fusion_lon": 0.0, "lat": 38.91808916666667, "is_disabled": 0, "name": "bc9592eb44aac9bf9e88f7f545d5f8c9", "fusion_lat": 0.0, "rental_uris": {"ios": "https://dc.lft.to/lastmile_qr_scan", "android": "https://dc.lft.to/lastmile_qr_scan"}, "lon": -77.03443783333333, "type": "electric_scooter"}, {"bike_id": "15354eeae3d04fbcfe4b838d2d3bcc4a", "is_reserved": 0, "fusion_lon": 0.0, "lat": 38.902009166666666, "is_disabled": 0, "name": "15354eeae3d04fbcfe4b838d2d3bcc4a", "fusion_lat": 0.0, "rental_uris": {"ios": "https://dc.lft.to/lastmile_qr_scan", "android": "https://dc.lft.to/lastmile_qr_scan"}, "lon": -77.06126566666667, "type": "electric_scooter"}, {"bike_id": "ece748c5204d3502afd1eb81c0be9c19", "is_reserved": 0, "fusion_lon": 0.0, "lat": 38.934, "is_disabled": 0, "name": "ece748c5204d3502afd1eb81c0be9c19", "fusion_lat": 0.0, "rental_uris": {"ios": "https://dc.lft.to/lastmile_qr_scan", "android": "https://dc.lft.to/lastmile_qr_scan"}, "lon": -77.03887, "type": "electric_scooter"}, {"bike_id": "733e514d5d539b920a2819c9bf206033", "is_reserved": 0, "fusion_lon": 0.0, "lat": 38.878497333333335, "is_disabled": 0, "name": "733e514d5d539b920a2819c9bf206033", "fusion_lat": 0.0, "rental_uris": {"ios": "https://dc.lft.to/lastmile_qr_scan", "android": "https://dc.lft.to/lastmile_qr_scan"}, "lon": -77.00604133333333, "type": "electric_scooter"}, {"bike_id": "73437b3d2f6783a87e9ba9251be5e2f5", "is_reserved": 0, "fusion_lon": 0.0, "lat": 38.91775833333333, "is_disabled": 0, "name": "73437b3d2f6783a87e9ba9251be5e2f5", "fusion_lat": 0.0, "rental_uris": {"ios": "https://dc.lft.to/lastmile_qr_scan", "android": "https://dc.lft.to/lastmile_qr_scan"}, "lon": -77.02293883333333, "type": "electric_scooter"}, {"bike_id": "03feacb02ed4e5dab98f1bb7f82ed233", "is_reserved": 0, "fusion_lon": 0.0, "lat": 38.90972716666667, "is_disabled": 0, "name": "03feacb02ed4e5dab98f1bb7f82ed233", "fusion_lat": 0.0, "rental_uris": {"ios": "https://dc.lft.to/lastmile_qr_scan", "android": "https://dc.lft.to/lastmile_qr_scan"}, "lon": -77.04801316666666, "type": "electric_scooter"}, {"bike_id": "5cb31fc742ec38f88dea49eb82b6bd2a", "is_reserved": 0, "fusion_lon": 0.0, "lat": 38.92915816666667, "is_disabled": 0, "name": "5cb31fc742ec38f88dea49eb82b6bd2a", "fusion_lat": 0.0, "rental_uris": {"ios": "https://dc.lft.to/lastmile_qr_scan", "android": "https://dc.lft.to/lastmile_qr_scan"}, "lon": -77.03203133333334, "type": "electric_scooter"}, {"bike_id": "86d7a05ad50ce0f8263bc9889a243653", "is_reserved": 0, "fusion_lon": 0.0, "lat": 38.861860166666666, "is_disabled": 0, "name": "86d7a05ad50ce0f8263bc9889a243653", "fusion_lat": 0.0, "rental_uris": {"ios": "https://dc.lft.to/lastmile_qr_scan", "android": "https://dc.lft.to/lastmile_qr_scan"}, "lon": -76.99450833333333, "type": "electric_scooter"}, {"bike_id": "3df60353af98662aa1c83d15e0612c89", "is_reserved": 0, "fusion_lon": 0.0, "lat": 38.90327633333333, "is_disabled": 0, "name": "3df60353af98662aa1c83d15e0612c89", "fusion_lat": 0.0, "rental_uris": {"ios": "https://dc.lft.to/lastmile_qr_scan", "android": "https://dc.lft.to/lastmile_qr_scan"}, "lon": -77.03330133333333, "type": "electric_scooter"}, {"bike_id": "41e497ef79a0a9c94d7c185226ce5b68", "is_reserved": 0, "fusion_lon": 0.0, "lat": 38.925518, "is_disabled": 0, "name": "41e497ef79a0a9c94d7c185226ce5b68", "fusion_lat": 0.0, "rental_uris": {"ios": "https://dc.lft.to/lastmile_qr_scan", "android": "https://dc.lft.to/lastmile_qr_scan"}, "lon": -77.03796633333333, "type": "electric_scooter"}, {"bike_id": "2dbe862226af8e63776e19ea2cb188f6", "is_reserved": 0, "fusion_lon": 0.0, "lat": 38.886788333333335, "is_disabled": 0, "name": "2dbe862226af8e63776e19ea2cb188f6", "fusion_lat": 0.0, "rental_uris": {"ios": "https://dc.lft.to/lastmile_qr_scan", "android": "https://dc.lft.to/lastmile_qr_scan"}, "lon": -77.00213166666667, "type": "electric_scooter"}, {"bike_id": "0a985007e423da80361f94e8eded42b6", "is_reserved": 0, "fusion_lon": 0.0, "lat": 38.84425683333333, "is_disabled": 0, "name": "0a985007e423da80361f94e8eded42b6", "fusion_lat": 0.0, "rental_uris": {"ios": "https://dc.lft.to/lastmile_qr_scan", "android": "https://dc.lft.to/lastmile_qr_scan"}, "lon": -76.99775416666667, "type": "electric_scooter"}, {"bike_id": "0e95ea9919bae640bd4e8bb3a7904c48", "is_reserved": 0, "fusion_lon": 0.0, "lat": 38.8542225, "is_disabled": 0, "name": "0e95ea9919bae640bd4e8bb3a7904c48", "fusion_lat": 0.0, "rental_uris": {"ios": "https://dc.lft.to/lastmile_qr_scan", "android": "https://dc.lft.to/lastmile_qr_scan"}, "lon": -76.9095865, "type": "electric_bike"}, {"bike_id": "c9bc6fff758a55cd53b3f724306f6d3b", "is_reserved": 0, "fusion_lon": 0.0, "lat": 38.903764333333335, "is_disabled": 0, "name": "c9bc6fff758a55cd53b3f724306f6d3b", "fusion_lat": 0.0, "rental_uris": {"ios": "https://dc.lft.to/lastmile_qr_scan", "android": "https://dc.lft.to/lastmile_qr_scan"}, "lon": -77.0531505, "type": "electric_scooter"}, {"bike_id": "54be7a033f53808926285158a5ff3720", "is_reserved": 0, "fusion_lon": 0.0, "lat": 38.892190166666666, "is_disabled": 0, "name": "54be7a033f53808926285158a5ff3720", "fusion_lat": 0.0, "rental_uris": {"ios": "https://dc.lft.to/lastmile_qr_scan", "android": "https://dc.lft.to/lastmile_qr_scan"}, "lon": -77.04862616666666, "type": "electric_scooter"}, {"bike_id": "ae7318a92909e9591513a1889f9d3002", "is_reserved": 0, "fusion_lon": 0.0, "lat": 38.88206616666667, "is_disabled": 0, "name": "ae7318a92909e9591513a1889f9d3002", "fusion_lat": 0.0, "rental_uris": {"ios": "https://dc.lft.to/lastmile_qr_scan", "android": "https://dc.lft.to/lastmile_qr_scan"}, "lon": -76.999499, "type": "electric_scooter"}, {"bike_id": "16dcbcd2d80c87b0519baed1bac43ab6", "is_reserved": 0, "fusion_lon": 0.0, "lat": 38.9054415, "is_disabled": 0, "name": "16dcbcd2d80c87b0519baed1bac43ab6", "fusion_lat": 0.0, "rental_uris": {"ios": "https://dc.lft.to/lastmile_qr_scan", "android": "https://dc.lft.to/lastmile_qr_scan"}, "lon": -77.032466, "type": "electric_scooter"}, {"bike_id": "46e9118914b2c4a4fe35e1b8b3f34879", "is_reserved": 0, "fusion_lon": 0.0, "lat": 38.90641166666666, "is_disabled": 0, "name": "46e9118914b2c4a4fe35e1b8b3f34879", "fusion_lat": 0.0, "rental_uris": {"ios": "https://dc.lft.to/lastmile_qr_scan", "android": "https://dc.lft.to/lastmile_qr_scan"}, "lon": -77.011435, "type": "electric_scooter"}, {"bike_id": "387f13937644798198d2e7241e0fa013", "is_reserved": 0, "fusion_lon": 0.0, "lat": 38.810498, "is_disabled": 0, "name": "387f13937644798198d2e7241e0fa013", "fusion_lat": 0.0, "rental_uris": {"ios": "https://dc.lft.to/lastmile_qr_scan", "android": "https://dc.lft.to/lastmile_qr_scan"}, "lon": -77.08510516666666, "type": "electric_bike"}, {"bike_id": "d0ac9472d7b4531f795ca625cf3184c8", "is_reserved": 0, "fusion_lon": 0.0, "lat": 38.87741, "is_disabled": 0, "name": "d0ac9472d7b4531f795ca625cf3184c8", "fusion_lat": 0.0, "rental_uris": {"ios": "https://dc.lft.to/lastmile_qr_scan", "android": "https://dc.lft.to/lastmile_qr_scan"}, "lon": -76.98059916666666, "type": "electric_bike"}, {"bike_id": "98d1a72b9a98e4c3a23ce37ad758bdd1", "is_reserved": 0, "fusion_lon": 0.0, "lat": 38.897375833333335, "is_disabled": 0, "name": "98d1a72b9a98e4c3a23ce37ad758bdd1", "fusion_lat": 0.0, "rental_uris": {"ios": "https://dc.lft.to/lastmile_qr_scan", "android": "https://dc.lft.to/lastmile_qr_scan"}, "lon": -77.04499933333334, "type": "electric_scooter"}, {"bike_id": "f5a10c8d2015bf6db514b5db997e72b0", "is_reserved": 0, "fusion_lon": 0.0, "lat": 38.9105185, "is_disabled": 0, "name": "f5a10c8d2015bf6db514b5db997e72b0", "fusion_lat": 0.0, "rental_uris": {"ios": "https://dc.lft.to/lastmile_qr_scan", "android": "https://dc.lft.to/lastmile_qr_scan"}, "lon": -77.02197133333334, "type": "electric_scooter"}, {"bike_id": "353d7a5b22457eaf46653638f2178529", "is_reserved": 0, "fusion_lon": 0.0, "lat": 38.92254666666667, "is_disabled": 0, "name": "353d7a5b22457eaf46653638f2178529", "fusion_lat": 0.0, "rental_uris": {"ios": "https://dc.lft.to/lastmile_qr_scan", "android": "https://dc.lft.to/lastmile_qr_scan"}, "lon": -77.0431315, "type": "electric_scooter"}, {"bike_id": "8a82a423f9d33d11bfc2a2262fd62ace", "is_reserved": 0, "fusion_lon": 0.0, "lat": 38.89729333333333, "is_disabled": 0, "name": "8a82a423f9d33d11bfc2a2262fd62ace", "fusion_lat": 0.0, "rental_uris": {"ios": "https://dc.lft.to/lastmile_qr_scan", "android": "https://dc.lft.to/lastmile_qr_scan"}, "lon": -77.05478, "type": "electric_scooter"}, {"bike_id": "5e9a3666f1caef6b621c09e7b5ec3511", "is_reserved": 0, "fusion_lon": 0.0, "lat": 38.93531683333333, "is_disabled": 0, "name": "5e9a3666f1caef6b621c09e7b5ec3511", "fusion_lat": 0.0, "rental_uris": {"ios": "https://dc.lft.to/lastmile_qr_scan", "android": "https://dc.lft.to/lastmile_qr_scan"}, "lon": -77.0236265, "type": "electric_scooter"}, {"bike_id": "9fd2d117e0757a9931445a76dbba7867", "is_reserved": 0, "fusion_lon": 0.0, "lat": 38.959352, "is_disabled": 0, "name": "9fd2d117e0757a9931445a76dbba7867", "fusion_lat": 0.0, "rental_uris": {"ios": "https://dc.lft.to/lastmile_qr_scan", "android": "https://dc.lft.to/lastmile_qr_scan"}, "lon": -77.0312715, "type": "electric_scooter"}, {"bike_id": "b7670f4e501b4afcea2d761c059f9b66", "is_reserved": 0, "fusion_lon": 0.0, "lat": 38.892451333333334, "is_disabled": 0, "name": "b7670f4e501b4afcea2d761c059f9b66", "fusion_lat": 0.0, "rental_uris": {"ios": "https://dc.lft.to/lastmile_qr_scan", "android": "https://dc.lft.to/lastmile_qr_scan"}, "lon": -77.01529916666667, "type": "electric_scooter"}, {"bike_id": "f104623657b455d575cef69700f1ba23", "is_reserved": 0, "fusion_lon": 0.0, "lat": 38.91246133333333, "is_disabled": 0, "name": "f104623657b455d575cef69700f1ba23", "fusion_lat": 0.0, "rental_uris": {"ios": "https://dc.lft.to/lastmile_qr_scan", "android": "https://dc.lft.to/lastmile_qr_scan"}, "lon": -77.02229183333333, "type": "electric_scooter"}, {"bike_id": "6d5dd611ac37c895920baeb6434fd8af", "is_reserved": 0, "fusion_lon": 0.0, "lat": 38.905012, "is_disabled": 0, "name": "6d5dd611ac37c895920baeb6434fd8af", "fusion_lat": 0.0, "rental_uris": {"ios": "https://dc.lft.to/lastmile_qr_scan", "android": "https://dc.lft.to/lastmile_qr_scan"}, "lon": -76.99016583333334, "type": "electric_scooter"}, {"bike_id": "88211d32af3cbb80f61349408e419e0d", "is_reserved": 0, "fusion_lon": 0.0, "lat": 38.90236633333333, "is_disabled": 0, "name": "88211d32af3cbb80f61349408e419e0d", "fusion_lat": 0.0, "rental_uris": {"ios": "https://dc.lft.to/lastmile_qr_scan", "android": "https://dc.lft.to/lastmile_qr_scan"}, "lon": -77.01522966666667, "type": "electric_scooter"}, {"bike_id": "e2a62939ce462b9d566f319a5e5c69f8", "is_reserved": 0, "fusion_lon": 0.0, "lat": 38.917776833333335, "is_disabled": 0, "name": "e2a62939ce462b9d566f319a5e5c69f8", "fusion_lat": 0.0, "rental_uris": {"ios": "https://dc.lft.to/lastmile_qr_scan", "android": "https://dc.lft.to/lastmile_qr_scan"}, "lon": -77.04056966666667, "type": "electric_bike"}, {"bike_id": "9d30a367c725cea2fd3f7755d8357d20", "is_reserved": 0, "fusion_lon": 0.0, "lat": 38.90623216666667, "is_disabled": 0, "name": "9d30a367c725cea2fd3f7755d8357d20", "fusion_lat": 0.0, "rental_uris": {"ios": "https://dc.lft.to/lastmile_qr_scan", "android": "https://dc.lft.to/lastmile_qr_scan"}, "lon": -76.986132, "type": "electric_bike"}, {"bike_id": "a031b481e9f788af518c5f485a630d0f", "is_reserved": 0, "fusion_lon": 0.0, "lat": 38.906679833333335, "is_disabled": 0, "name": "a031b481e9f788af518c5f485a630d0f", "fusion_lat": 0.0, "rental_uris": {"ios": "https://dc.lft.to/lastmile_qr_scan", "android": "https://dc.lft.to/lastmile_qr_scan"}, "lon": -77.000834, "type": "electric_scooter"}, {"bike_id": "8cea74526b3c57a019d341da0359fe31", "is_reserved": 0, "fusion_lon": 0.0, "lat": 38.90411816666666, "is_disabled": 0, "name": "8cea74526b3c57a019d341da0359fe31", "fusion_lat": 0.0, "rental_uris": {"ios": "https://dc.lft.to/lastmile_qr_scan", "android": "https://dc.lft.to/lastmile_qr_scan"}, "lon": -77.02067916666667, "type": "electric_scooter"}, {"bike_id": "66eedd902732414822e8d38f08749586", "is_reserved": 0, "fusion_lon": 0.0, "lat": 38.916895833333335, "is_disabled": 0, "name": "66eedd902732414822e8d38f08749586", "fusion_lat": 0.0, "rental_uris": {"ios": "https://dc.lft.to/lastmile_qr_scan", "android": "https://dc.lft.to/lastmile_qr_scan"}, "lon": -77.023044, "type": "electric_scooter"}, {"bike_id": "9b87fbb5c1cd21e4930d83f74881b7d8", "is_reserved": 0, "fusion_lon": 0.0, "lat": 38.904248833333334, "is_disabled": 0, "name": "9b87fbb5c1cd21e4930d83f74881b7d8", "fusion_lat": 0.0, "rental_uris": {"ios": "https://dc.lft.to/lastmile_qr_scan", "android": "https://dc.lft.to/lastmile_qr_scan"}, "lon": -77.03265766666667, "type": "electric_scooter"}, {"bike_id": "6aafe2eab6fb096333fc5ef9eacdfa65", "is_reserved": 0, "fusion_lon": 0.0, "lat": 38.920244833333335, "is_disabled": 0, "name": "6aafe2eab6fb096333fc5ef9eacdfa65", "fusion_lat": 0.0, "rental_uris": {"ios": "https://dc.lft.to/lastmile_qr_scan", "android": "https://dc.lft.to/lastmile_qr_scan"}, "lon": -77.03128283333334, "type": "electric_scooter"}, {"bike_id": "c979c22e37571acb308728ac08ccc898", "is_reserved": 0, "fusion_lon": 0.0, "lat": 38.902733833333336, "is_disabled": 0, "name": "c979c22e37571acb308728ac08ccc898", "fusion_lat": 0.0, "rental_uris": {"ios": "https://dc.lft.to/lastmile_qr_scan", "android": "https://dc.lft.to/lastmile_qr_scan"}, "lon": -77.06005866666666, "type": "electric_scooter"}, {"bike_id": "e4cdd536f1c932db5109896c4696b223", "is_reserved": 0, "fusion_lon": 0.0, "lat": 38.9170215, "is_disabled": 0, "name": "e4cdd536f1c932db5109896c4696b223", "fusion_lat": 0.0, "rental_uris": {"ios": "https://dc.lft.to/lastmile_qr_scan", "android": "https://dc.lft.to/lastmile_qr_scan"}, "lon": -77.00964533333334, "type": "electric_scooter"}, {"bike_id": "326f9777cee5be3df1611be080b711e1", "is_reserved": 0, "fusion_lon": 0.0, "lat": 38.910272166666665, "is_disabled": 0, "name": "326f9777cee5be3df1611be080b711e1", "fusion_lat": 0.0, "rental_uris": {"ios": "https://dc.lft.to/lastmile_qr_scan", "android": "https://dc.lft.to/lastmile_qr_scan"}, "lon": -77.04398583333334, "type": "electric_scooter"}, {"bike_id": "8f82a9e1bd63ae0d47aba51bcaf246c9", "is_reserved": 0, "fusion_lon": 0.0, "lat": 38.93113, "is_disabled": 0, "name": "8f82a9e1bd63ae0d47aba51bcaf246c9", "fusion_lat": 0.0, "rental_uris": {"ios": "https://dc.lft.to/lastmile_qr_scan", "android": "https://dc.lft.to/lastmile_qr_scan"}, "lon": -77.021474, "type": "electric_scooter"}, {"bike_id": "5fb0c5213178ab996743e18f4c1c3f12", "is_reserved": 0, "fusion_lon": 0.0, "lat": 38.8982975, "is_disabled": 0, "name": "5fb0c5213178ab996743e18f4c1c3f12", "fusion_lat": 0.0, "rental_uris": {"ios": "https://dc.lft.to/lastmile_qr_scan", "android": "https://dc.lft.to/lastmile_qr_scan"}, "lon": -76.94641833333333, "type": "electric_scooter"}, {"bike_id": "8dccac7c3cdb821897e2efc4272adce4", "is_reserved": 0, "fusion_lon": 0.0, "lat": 38.884307166666666, "is_disabled": 0, "name": "8dccac7c3cdb821897e2efc4272adce4", "fusion_lat": 0.0, "rental_uris": {"ios": "https://dc.lft.to/lastmile_qr_scan", "android": "https://dc.lft.to/lastmile_qr_scan"}, "lon": -76.957612, "type": "electric_scooter"}, {"bike_id": "e9877f076f26ff83d7588cdd29f1c9e7", "is_reserved": 0, "fusion_lon": 0.0, "lat": 38.93690266666667, "is_disabled": 0, "name": "e9877f076f26ff83d7588cdd29f1c9e7", "fusion_lat": 0.0, "rental_uris": {"ios": "https://dc.lft.to/lastmile_qr_scan", "android": "https://dc.lft.to/lastmile_qr_scan"}, "lon": -77.0271335, "type": "electric_scooter"}, {"bike_id": "a3a56a298eeea3eb45e621e42804c532", "is_reserved": 0, "fusion_lon": 0.0, "lat": 38.92356183333333, "is_disabled": 0, "name": "a3a56a298eeea3eb45e621e42804c532", "fusion_lat": 0.0, "rental_uris": {"ios": "https://dc.lft.to/lastmile_qr_scan", "android": "https://dc.lft.to/lastmile_qr_scan"}, "lon": -77.05045366666667, "type": "electric_scooter"}, {"bike_id": "7a3a5c8bc5598a3f9cefb3d38a2c3c6c", "is_reserved": 0, "fusion_lon": 0.0, "lat": 38.890172166666666, "is_disabled": 0, "name": "7a3a5c8bc5598a3f9cefb3d38a2c3c6c", "fusion_lat": 0.0, "rental_uris": {"ios": "https://dc.lft.to/lastmile_qr_scan", "android": "https://dc.lft.to/lastmile_qr_scan"}, "lon": -76.93705983333334, "type": "electric_scooter"}, {"bike_id": "50c6b01f7817ca9e8ababb29f8f93064", "is_reserved": 0, "fusion_lon": 0.0, "lat": 38.89294316666667, "is_disabled": 0, "name": "50c6b01f7817ca9e8ababb29f8f93064", "fusion_lat": 0.0, "rental_uris": {"ios": "https://dc.lft.to/lastmile_qr_scan", "android": "https://dc.lft.to/lastmile_qr_scan"}, "lon": -77.039409, "type": "electric_scooter"}, {"bike_id": "c72d53ebe85accb0999921c413fb5a12", "is_reserved": 0, "fusion_lon": 0.0, "lat": 38.9072465, "is_disabled": 0, "name": "c72d53ebe85accb0999921c413fb5a12", "fusion_lat": 0.0, "rental_uris": {"ios": "https://dc.lft.to/lastmile_qr_scan", "android": "https://dc.lft.to/lastmile_qr_scan"}, "lon": -77.0006085, "type": "electric_scooter"}, {"bike_id": "2a3c282eaad4d23b967974528591664f", "is_reserved": 0, "fusion_lon": 0.0, "lat": 38.964927333333335, "is_disabled": 0, "name": "2a3c282eaad4d23b967974528591664f", "fusion_lat": 0.0, "rental_uris": {"ios": "https://dc.lft.to/lastmile_qr_scan", "android": "https://dc.lft.to/lastmile_qr_scan"}, "lon": -77.06494583333334, "type": "electric_bike"}, {"bike_id": "89d710c55972ede92a9e9285e2a377c1", "is_reserved": 0, "fusion_lon": 0.0, "lat": 38.9143275, "is_disabled": 0, "name": "89d710c55972ede92a9e9285e2a377c1", "fusion_lat": 0.0, "rental_uris": {"ios": "https://dc.lft.to/lastmile_qr_scan", "android": "https://dc.lft.to/lastmile_qr_scan"}, "lon": -77.01709333333334, "type": "electric_scooter"}, {"bike_id": "121cc8eb2b34b4cb7af68a598bf940b2", "is_reserved": 0, "fusion_lon": 0.0, "lat": 38.92462166666667, "is_disabled": 0, "name": "121cc8eb2b34b4cb7af68a598bf940b2", "fusion_lat": 0.0, "rental_uris": {"ios": "https://dc.lft.to/lastmile_qr_scan", "android": "https://dc.lft.to/lastmile_qr_scan"}, "lon": -77.035503, "type": "electric_scooter"}, {"bike_id": "a867051772b7979ac50c0ce3aaa22f60", "is_reserved": 0, "fusion_lon": 0.0, "lat": 38.912335, "is_disabled": 0, "name": "a867051772b7979ac50c0ce3aaa22f60", "fusion_lat": 0.0, "rental_uris": {"ios": "https://dc.lft.to/lastmile_qr_scan", "android": "https://dc.lft.to/lastmile_qr_scan"}, "lon": -77.04520733333334, "type": "electric_scooter"}, {"bike_id": "e85c21d35e1ddc62854cf86fe455d3f0", "is_reserved": 0, "fusion_lon": 0.0, "lat": 38.86663883333333, "is_disabled": 0, "name": "e85c21d35e1ddc62854cf86fe455d3f0", "fusion_lat": 0.0, "rental_uris": {"ios": "https://dc.lft.to/lastmile_qr_scan", "android": "https://dc.lft.to/lastmile_qr_scan"}, "lon": -76.98904766666666, "type": "electric_scooter"}, {"bike_id": "f8b4b5947db5d973ce696538a3bcf185", "is_reserved": 0, "fusion_lon": 0.0, "lat": 38.889313, "is_disabled": 0, "name": "f8b4b5947db5d973ce696538a3bcf185", "fusion_lat": 0.0, "rental_uris": {"ios": "https://dc.lft.to/lastmile_qr_scan", "android": "https://dc.lft.to/lastmile_qr_scan"}, "lon": -77.01511733333334, "type": "electric_scooter"}, {"bike_id": "2bf6187f06c1ebed6618f112199e7331", "is_reserved": 0, "fusion_lon": 0.0, "lat": 39.02426066666666, "is_disabled": 0, "name": "2bf6187f06c1ebed6618f112199e7331", "fusion_lat": 0.0, "rental_uris": {"ios": "https://dc.lft.to/lastmile_qr_scan", "android": "https://dc.lft.to/lastmile_qr_scan"}, "lon": -77.1310815, "type": "electric_bike"}, {"bike_id": "5e106b255be7a323d3592cf9191fa019", "is_reserved": 0, "fusion_lon": 0.0, "lat": 38.930841666666666, "is_disabled": 0, "name": "5e106b255be7a323d3592cf9191fa019", "fusion_lat": 0.0, "rental_uris": {"ios": "https://dc.lft.to/lastmile_qr_scan", "android": "https://dc.lft.to/lastmile_qr_scan"}, "lon": -76.9671985, "type": "electric_scooter"}, {"bike_id": "8e583c2fad0cd4802c863cb33e81ab20", "is_reserved": 0, "fusion_lon": 0.0, "lat": 38.907633833333335, "is_disabled": 0, "name": "8e583c2fad0cd4802c863cb33e81ab20", "fusion_lat": 0.0, "rental_uris": {"ios": "https://dc.lft.to/lastmile_qr_scan", "android": "https://dc.lft.to/lastmile_qr_scan"}, "lon": -77.069228, "type": "electric_scooter"}, {"bike_id": "679540ac9a4365ac6bc50b3bdeeab8c1", "is_reserved": 0, "fusion_lon": 0.0, "lat": 38.915724, "is_disabled": 0, "name": "679540ac9a4365ac6bc50b3bdeeab8c1", "fusion_lat": 0.0, "rental_uris": {"ios": "https://dc.lft.to/lastmile_qr_scan", "android": "https://dc.lft.to/lastmile_qr_scan"}, "lon": -77.03187766666667, "type": "electric_scooter"}, {"bike_id": "23ee181a25dd8c91bc9eeee76e779c6a", "is_reserved": 0, "fusion_lon": 0.0, "lat": 38.92182866666667, "is_disabled": 0, "name": "23ee181a25dd8c91bc9eeee76e779c6a", "fusion_lat": 0.0, "rental_uris": {"ios": "https://dc.lft.to/lastmile_qr_scan", "android": "https://dc.lft.to/lastmile_qr_scan"}, "lon": -77.01837466666667, "type": "electric_scooter"}, {"bike_id": "97b41e0263594195e5beb1733cfe6d1e", "is_reserved": 0, "fusion_lon": 0.0, "lat": 39.00509366666667, "is_disabled": 0, "name": "97b41e0263594195e5beb1733cfe6d1e", "fusion_lat": 0.0, "rental_uris": {"ios": "https://dc.lft.to/lastmile_qr_scan", "android": "https://dc.lft.to/lastmile_qr_scan"}, "lon": -76.90380516666667, "type": "electric_bike"}, {"bike_id": "bc5756141b9bf8281fa141995ee0c95c", "is_reserved": 0, "fusion_lon": 0.0, "lat": 38.9247775, "is_disabled": 0, "name": "bc5756141b9bf8281fa141995ee0c95c", "fusion_lat": 0.0, "rental_uris": {"ios": "https://dc.lft.to/lastmile_qr_scan", "android": "https://dc.lft.to/lastmile_qr_scan"}, "lon": -77.05211183333333, "type": "electric_scooter"}, {"bike_id": "a696f94befed94f56f2d3b88337a121a", "is_reserved": 0, "fusion_lon": 0.0, "lat": 38.91364866666667, "is_disabled": 0, "name": "a696f94befed94f56f2d3b88337a121a", "fusion_lat": 0.0, "rental_uris": {"ios": "https://dc.lft.to/lastmile_qr_scan", "android": "https://dc.lft.to/lastmile_qr_scan"}, "lon": -77.06619316666666, "type": "electric_scooter"}, {"bike_id": "57dcdc2fdeb49dfd50e4b236ba9272e0", "is_reserved": 0, "fusion_lon": 0.0, "lat": 39.03043566666667, "is_disabled": 0, "name": "57dcdc2fdeb49dfd50e4b236ba9272e0", "fusion_lat": 0.0, "rental_uris": {"ios": "https://dc.lft.to/lastmile_qr_scan", "android": "https://dc.lft.to/lastmile_qr_scan"}, "lon": -77.09486433333333, "type": "electric_bike"}, {"bike_id": "328424d9a636b273d95ff07867a2987b", "is_reserved": 0, "fusion_lon": 0.0, "lat": 38.900117333333334, "is_disabled": 0, "name": "328424d9a636b273d95ff07867a2987b", "fusion_lat": 0.0, "rental_uris": {"ios": "https://dc.lft.to/lastmile_qr_scan", "android": "https://dc.lft.to/lastmile_qr_scan"}, "lon": -77.000471, "type": "electric_scooter"}, {"bike_id": "bd5f76378e1fbfc00f7eb172b6d9618e", "is_reserved": 0, "fusion_lon": 0.0, "lat": 38.8938825, "is_disabled": 0, "name": "bd5f76378e1fbfc00f7eb172b6d9618e", "fusion_lat": 0.0, "rental_uris": {"ios": "https://dc.lft.to/lastmile_qr_scan", "android": "https://dc.lft.to/lastmile_qr_scan"}, "lon": -76.99876916666666, "type": "electric_scooter"}, {"bike_id": "ca76a5cf3ee86a2a8ee7d0d4c128e970", "is_reserved": 0, "fusion_lon": 0.0, "lat": 38.89896533333334, "is_disabled": 0, "name": "ca76a5cf3ee86a2a8ee7d0d4c128e970", "fusion_lat": 0.0, "rental_uris": {"ios": "https://dc.lft.to/lastmile_qr_scan", "android": "https://dc.lft.to/lastmile_qr_scan"}, "lon": -77.00746083333334, "type": "electric_scooter"}, {"bike_id": "8aada9901a83e89710519506faf2924e", "is_reserved": 0, "fusion_lon": 0.0, "lat": 38.820887, "is_disabled": 0, "name": "8aada9901a83e89710519506faf2924e", "fusion_lat": 0.0, "rental_uris": {"ios": "https://dc.lft.to/lastmile_qr_scan", "android": "https://dc.lft.to/lastmile_qr_scan"}, "lon": -77.053717, "type": "electric_bike"}, {"bike_id": "5f0451500546c46dfccc308d403caae5", "is_reserved": 0, "fusion_lon": 0.0, "lat": 38.9192605, "is_disabled": 0, "name": "5f0451500546c46dfccc308d403caae5", "fusion_lat": 0.0, "rental_uris": {"ios": "https://dc.lft.to/lastmile_qr_scan", "android": "https://dc.lft.to/lastmile_qr_scan"}, "lon": -77.031976, "type": "electric_scooter"}, {"bike_id": "b111a2cd4da5708bd98681b516f6fbb7", "is_reserved": 0, "fusion_lon": 0.0, "lat": 38.94086133333333, "is_disabled": 0, "name": "b111a2cd4da5708bd98681b516f6fbb7", "fusion_lat": 0.0, "rental_uris": {"ios": "https://dc.lft.to/lastmile_qr_scan", "android": "https://dc.lft.to/lastmile_qr_scan"}, "lon": -77.027226, "type": "electric_scooter"}, {"bike_id": "e89cf97189aa026893bddf0fb5172e0a", "is_reserved": 0, "fusion_lon": 0.0, "lat": 38.926358666666665, "is_disabled": 0, "name": "e89cf97189aa026893bddf0fb5172e0a", "fusion_lat": 0.0, "rental_uris": {"ios": "https://dc.lft.to/lastmile_qr_scan", "android": "https://dc.lft.to/lastmile_qr_scan"}, "lon": -77.01339033333333, "type": "electric_scooter"}, {"bike_id": "6ee4c313898d569161b33e36e8a48206", "is_reserved": 0, "fusion_lon": 0.0, "lat": 38.91823133333333, "is_disabled": 0, "name": "6ee4c313898d569161b33e36e8a48206", "fusion_lat": 0.0, "rental_uris": {"ios": "https://dc.lft.to/lastmile_qr_scan", "android": "https://dc.lft.to/lastmile_qr_scan"}, "lon": -77.0353145, "type": "electric_scooter"}, {"bike_id": "2f2c7b78ff37a70d4bd84296814a7b2b", "is_reserved": 0, "fusion_lon": 0.0, "lat": 38.921890166666664, "is_disabled": 0, "name": "2f2c7b78ff37a70d4bd84296814a7b2b", "fusion_lat": 0.0, "rental_uris": {"ios": "https://dc.lft.to/lastmile_qr_scan", "android": "https://dc.lft.to/lastmile_qr_scan"}, "lon": -77.04267, "type": "electric_scooter"}, {"bike_id": "168ad31eed7719515c066b0492ae1bae", "is_reserved": 0, "fusion_lon": 0.0, "lat": 38.898352833333334, "is_disabled": 0, "name": "168ad31eed7719515c066b0492ae1bae", "fusion_lat": 0.0, "rental_uris": {"ios": "https://dc.lft.to/lastmile_qr_scan", "android": "https://dc.lft.to/lastmile_qr_scan"}, "lon": -77.04347116666666, "type": "electric_scooter"}, {"bike_id": "4c85bec376f7ef54cd5131ccb4331a3b", "is_reserved": 0, "fusion_lon": 0.0, "lat": 38.893533833333336, "is_disabled": 0, "name": "4c85bec376f7ef54cd5131ccb4331a3b", "fusion_lat": 0.0, "rental_uris": {"ios": "https://dc.lft.to/lastmile_qr_scan", "android": "https://dc.lft.to/lastmile_qr_scan"}, "lon": -77.03183416666667, "type": "electric_scooter"}, {"bike_id": "28eb0cf1d32e0bbe83e4a94de44f75ad", "is_reserved": 0, "fusion_lon": 0.0, "lat": 38.91962483333333, "is_disabled": 0, "name": "28eb0cf1d32e0bbe83e4a94de44f75ad", "fusion_lat": 0.0, "rental_uris": {"ios": "https://dc.lft.to/lastmile_qr_scan", "android": "https://dc.lft.to/lastmile_qr_scan"}, "lon": -77.032135, "type": "electric_scooter"}, {"bike_id": "853a0926aa42e9406e290f9fce25551e", "is_reserved": 0, "fusion_lon": 0.0, "lat": 38.91944516666667, "is_disabled": 0, "name": "853a0926aa42e9406e290f9fce25551e", "fusion_lat": 0.0, "rental_uris": {"ios": "https://dc.lft.to/lastmile_qr_scan", "android": "https://dc.lft.to/lastmile_qr_scan"}, "lon": -77.03212366666666, "type": "electric_scooter"}, {"bike_id": "a23aa92ff708b9574fb71920b3a7ad89", "is_reserved": 0, "fusion_lon": 0.0, "lat": 38.935281333333336, "is_disabled": 0, "name": "a23aa92ff708b9574fb71920b3a7ad89", "fusion_lat": 0.0, "rental_uris": {"ios": "https://dc.lft.to/lastmile_qr_scan", "android": "https://dc.lft.to/lastmile_qr_scan"}, "lon": -77.02353183333334, "type": "electric_scooter"}, {"bike_id": "3a1910f239cc0c872977454aa468b696", "is_reserved": 0, "fusion_lon": 0.0, "lat": 38.9508435, "is_disabled": 0, "name": "3a1910f239cc0c872977454aa468b696", "fusion_lat": 0.0, "rental_uris": {"ios": "https://dc.lft.to/lastmile_qr_scan", "android": "https://dc.lft.to/lastmile_qr_scan"}, "lon": -77.02831266666666, "type": "electric_scooter"}, {"bike_id": "04fe75b235efae1cbe2d0c727eef52fe", "is_reserved": 0, "fusion_lon": 0.0, "lat": 38.935059833333334, "is_disabled": 0, "name": "04fe75b235efae1cbe2d0c727eef52fe", "fusion_lat": 0.0, "rental_uris": {"ios": "https://dc.lft.to/lastmile_qr_scan", "android": "https://dc.lft.to/lastmile_qr_scan"}, "lon": -77.03306016666667, "type": "electric_scooter"}, {"bike_id": "7fbcc4491c6c88bb25615b6d87a14061", "is_reserved": 0, "fusion_lon": 0.0, "lat": 38.9182105, "is_disabled": 0, "name": "7fbcc4491c6c88bb25615b6d87a14061", "fusion_lat": 0.0, "rental_uris": {"ios": "https://dc.lft.to/lastmile_qr_scan", "android": "https://dc.lft.to/lastmile_qr_scan"}, "lon": -77.03529716666667, "type": "electric_scooter"}, {"bike_id": "6a266bbd3f387ea5a632d13bec875c46", "is_reserved": 0, "fusion_lon": 0.0, "lat": 38.90655316666667, "is_disabled": 0, "name": "6a266bbd3f387ea5a632d13bec875c46", "fusion_lat": 0.0, "rental_uris": {"ios": "https://dc.lft.to/lastmile_qr_scan", "android": "https://dc.lft.to/lastmile_qr_scan"}, "lon": -77.00898233333334, "type": "electric_scooter"}, {"bike_id": "0e03fa2776a48676f00f0f77082df2ee", "is_reserved": 0, "fusion_lon": 0.0, "lat": 38.9359525, "is_disabled": 0, "name": "0e03fa2776a48676f00f0f77082df2ee", "fusion_lat": 0.0, "rental_uris": {"ios": "https://dc.lft.to/lastmile_qr_scan", "android": "https://dc.lft.to/lastmile_qr_scan"}, "lon": -77.03813083333333, "type": "electric_scooter"}, {"bike_id": "268da4bbbe6d3ef4325fa8a9976c6b98", "is_reserved": 0, "fusion_lon": 0.0, "lat": 38.89601566666666, "is_disabled": 0, "name": "268da4bbbe6d3ef4325fa8a9976c6b98", "fusion_lat": 0.0, "rental_uris": {"ios": "https://dc.lft.to/lastmile_qr_scan", "android": "https://dc.lft.to/lastmile_qr_scan"}, "lon": -77.03171033333334, "type": "electric_scooter"}, {"bike_id": "d9c2e8ca8f91c74b4c32d545ff9d7e1c", "is_reserved": 0, "fusion_lon": 0.0, "lat": 38.90383216666667, "is_disabled": 0, "name": "d9c2e8ca8f91c74b4c32d545ff9d7e1c", "fusion_lat": 0.0, "rental_uris": {"ios": "https://dc.lft.to/lastmile_qr_scan", "android": "https://dc.lft.to/lastmile_qr_scan"}, "lon": -77.04524616666667, "type": "electric_scooter"}, {"bike_id": "e487c016ab6754173a9150f1d3bf960a", "is_reserved": 0, "fusion_lon": 0.0, "lat": 38.90273716666667, "is_disabled": 0, "name": "e487c016ab6754173a9150f1d3bf960a", "fusion_lat": 0.0, "rental_uris": {"ios": "https://dc.lft.to/lastmile_qr_scan", "android": "https://dc.lft.to/lastmile_qr_scan"}, "lon": -77.03853583333333, "type": "electric_scooter"}, {"bike_id": "0a98ec60a360ad12bab0a8b740ee1c03", "is_reserved": 0, "fusion_lon": 0.0, "lat": 38.902430333333335, "is_disabled": 0, "name": "0a98ec60a360ad12bab0a8b740ee1c03", "fusion_lat": 0.0, "rental_uris": {"ios": "https://dc.lft.to/lastmile_qr_scan", "android": "https://dc.lft.to/lastmile_qr_scan"}, "lon": -77.039558, "type": "electric_scooter"}, {"bike_id": "efced84f0fd988d2f820cb72ee93cb28", "is_reserved": 0, "fusion_lon": 0.0, "lat": 38.845882, "is_disabled": 0, "name": "efced84f0fd988d2f820cb72ee93cb28", "fusion_lat": 0.0, "rental_uris": {"ios": "https://dc.lft.to/lastmile_qr_scan", "android": "https://dc.lft.to/lastmile_qr_scan"}, "lon": -76.98161916666666, "type": "electric_scooter"}, {"bike_id": "7f1b9940734411da42e2d7316de8f4d0", "is_reserved": 0, "fusion_lon": 0.0, "lat": 38.9323215, "is_disabled": 0, "name": "7f1b9940734411da42e2d7316de8f4d0", "fusion_lat": 0.0, "rental_uris": {"ios": "https://dc.lft.to/lastmile_qr_scan", "android": "https://dc.lft.to/lastmile_qr_scan"}, "lon": -77.03671933333334, "type": "electric_scooter"}, {"bike_id": "19c50404630b953d834fae63d4f1b498", "is_reserved": 0, "fusion_lon": 0.0, "lat": 38.92074266666667, "is_disabled": 0, "name": "19c50404630b953d834fae63d4f1b498", "fusion_lat": 0.0, "rental_uris": {"ios": "https://dc.lft.to/lastmile_qr_scan", "android": "https://dc.lft.to/lastmile_qr_scan"}, "lon": -77.022247, "type": "electric_scooter"}, {"bike_id": "ba06e363b6e73abb7407d613f7a39b65", "is_reserved": 0, "fusion_lon": 0.0, "lat": 38.92180583333333, "is_disabled": 0, "name": "ba06e363b6e73abb7407d613f7a39b65", "fusion_lat": 0.0, "rental_uris": {"ios": "https://dc.lft.to/lastmile_qr_scan", "android": "https://dc.lft.to/lastmile_qr_scan"}, "lon": -77.04231116666666, "type": "electric_scooter"}, {"bike_id": "4b2301d17685705163b394a47ea49a0f", "is_reserved": 0, "fusion_lon": 0.0, "lat": 38.92005316666667, "is_disabled": 0, "name": "4b2301d17685705163b394a47ea49a0f", "fusion_lat": 0.0, "rental_uris": {"ios": "https://dc.lft.to/lastmile_qr_scan", "android": "https://dc.lft.to/lastmile_qr_scan"}, "lon": -77.04175816666667, "type": "electric_scooter"}, {"bike_id": "711192dbec3fefdbab22a1a17c186b25", "is_reserved": 0, "fusion_lon": 0.0, "lat": 38.874882666666664, "is_disabled": 0, "name": "711192dbec3fefdbab22a1a17c186b25", "fusion_lat": 0.0, "rental_uris": {"ios": "https://dc.lft.to/lastmile_qr_scan", "android": "https://dc.lft.to/lastmile_qr_scan"}, "lon": -77.001198, "type": "electric_scooter"}, {"bike_id": "5764cdfe1c04a8e0e092bc90f2c1f7cc", "is_reserved": 0, "fusion_lon": 0.0, "lat": 38.892182166666665, "is_disabled": 0, "name": "5764cdfe1c04a8e0e092bc90f2c1f7cc", "fusion_lat": 0.0, "rental_uris": {"ios": "https://dc.lft.to/lastmile_qr_scan", "android": "https://dc.lft.to/lastmile_qr_scan"}, "lon": -77.03980633333333, "type": "electric_scooter"}, {"bike_id": "6927f4e86f34d1a533f3341fe08de7bc", "is_reserved": 0, "fusion_lon": 0.0, "lat": 38.8763515, "is_disabled": 0, "name": "6927f4e86f34d1a533f3341fe08de7bc", "fusion_lat": 0.0, "rental_uris": {"ios": "https://dc.lft.to/lastmile_qr_scan", "android": "https://dc.lft.to/lastmile_qr_scan"}, "lon": -77.00525816666666, "type": "electric_scooter"}, {"bike_id": "dc493f6e3cdec1fcbd0c6faaefc49c42", "is_reserved": 0, "fusion_lon": 0.0, "lat": 38.90508616666666, "is_disabled": 0, "name": "dc493f6e3cdec1fcbd0c6faaefc49c42", "fusion_lat": 0.0, "rental_uris": {"ios": "https://dc.lft.to/lastmile_qr_scan", "android": "https://dc.lft.to/lastmile_qr_scan"}, "lon": -77.059123, "type": "electric_scooter"}, {"bike_id": "7d076ecf2551e6052f9dbdba63e4239b", "is_reserved": 0, "fusion_lon": 0.0, "lat": 38.90503866666667, "is_disabled": 0, "name": "7d076ecf2551e6052f9dbdba63e4239b", "fusion_lat": 0.0, "rental_uris": {"ios": "https://dc.lft.to/lastmile_qr_scan", "android": "https://dc.lft.to/lastmile_qr_scan"}, "lon": -77.06665, "type": "electric_scooter"}, {"bike_id": "449739bd920d66b449c2721e1575b742", "is_reserved": 0, "fusion_lon": 0.0, "lat": 38.904856, "is_disabled": 0, "name": "449739bd920d66b449c2721e1575b742", "fusion_lat": 0.0, "rental_uris": {"ios": "https://dc.lft.to/lastmile_qr_scan", "android": "https://dc.lft.to/lastmile_qr_scan"}, "lon": -77.067955, "type": "electric_scooter"}, {"bike_id": "c05936f2ab3e9f1a89d1737a680ba5c3", "is_reserved": 0, "fusion_lon": 0.0, "lat": 38.90062833333333, "is_disabled": 0, "name": "c05936f2ab3e9f1a89d1737a680ba5c3", "fusion_lat": 0.0, "rental_uris": {"ios": "https://dc.lft.to/lastmile_qr_scan", "android": "https://dc.lft.to/lastmile_qr_scan"}, "lon": -77.05025266666667, "type": "electric_scooter"}, {"bike_id": "933a85cf8bc4bfe6398fe06b364a662a", "is_reserved": 0, "fusion_lon": 0.0, "lat": 38.93359683333333, "is_disabled": 0, "name": "933a85cf8bc4bfe6398fe06b364a662a", "fusion_lat": 0.0, "rental_uris": {"ios": "https://dc.lft.to/lastmile_qr_scan", "android": "https://dc.lft.to/lastmile_qr_scan"}, "lon": -77.05718833333333, "type": "electric_scooter"}, {"bike_id": "06bd363b7b3dcb0922e3eea99e002c92", "is_reserved": 0, "fusion_lon": 0.0, "lat": 38.89726983333333, "is_disabled": 0, "name": "06bd363b7b3dcb0922e3eea99e002c92", "fusion_lat": 0.0, "rental_uris": {"ios": "https://dc.lft.to/lastmile_qr_scan", "android": "https://dc.lft.to/lastmile_qr_scan"}, "lon": -77.05529783333333, "type": "electric_scooter"}, {"bike_id": "3bb0b32688ffe9ebc020e90dcb766e87", "is_reserved": 0, "fusion_lon": 0.0, "lat": 38.90367, "is_disabled": 0, "name": "3bb0b32688ffe9ebc020e90dcb766e87", "fusion_lat": 0.0, "rental_uris": {"ios": "https://dc.lft.to/lastmile_qr_scan", "android": "https://dc.lft.to/lastmile_qr_scan"}, "lon": -77.04355633333333, "type": "electric_scooter"}, {"bike_id": "7d592312c945ec10f1fcccba12c6e691", "is_reserved": 0, "fusion_lon": 0.0, "lat": 38.93120366666667, "is_disabled": 0, "name": "7d592312c945ec10f1fcccba12c6e691", "fusion_lat": 0.0, "rental_uris": {"ios": "https://dc.lft.to/lastmile_qr_scan", "android": "https://dc.lft.to/lastmile_qr_scan"}, "lon": -77.02802066666666, "type": "electric_scooter"}, {"bike_id": "445d51cd7d2f736a7052f78b1d673ce7", "is_reserved": 0, "fusion_lon": 0.0, "lat": 38.902551833333334, "is_disabled": 0, "name": "445d51cd7d2f736a7052f78b1d673ce7", "fusion_lat": 0.0, "rental_uris": {"ios": "https://dc.lft.to/lastmile_qr_scan", "android": "https://dc.lft.to/lastmile_qr_scan"}, "lon": -77.01638183333333, "type": "electric_scooter"}, {"bike_id": "31bf093a8b70c8370dcb5b42a8cf35a2", "is_reserved": 0, "fusion_lon": 0.0, "lat": 38.91679466666667, "is_disabled": 0, "name": "31bf093a8b70c8370dcb5b42a8cf35a2", "fusion_lat": 0.0, "rental_uris": {"ios": "https://dc.lft.to/lastmile_qr_scan", "android": "https://dc.lft.to/lastmile_qr_scan"}, "lon": -77.03850116666666, "type": "electric_scooter"}, {"bike_id": "9b9007264cea4b3f0069269071d995bb", "is_reserved": 0, "fusion_lon": 0.0, "lat": 38.93510466666667, "is_disabled": 0, "name": "9b9007264cea4b3f0069269071d995bb", "fusion_lat": 0.0, "rental_uris": {"ios": "https://dc.lft.to/lastmile_qr_scan", "android": "https://dc.lft.to/lastmile_qr_scan"}, "lon": -77.03037816666667, "type": "electric_bike"}, {"bike_id": "765c085cf5ad799e601c1e91f7c6b07f", "is_reserved": 0, "fusion_lon": 0.0, "lat": 38.905166, "is_disabled": 0, "name": "765c085cf5ad799e601c1e91f7c6b07f", "fusion_lat": 0.0, "rental_uris": {"ios": "https://dc.lft.to/lastmile_qr_scan", "android": "https://dc.lft.to/lastmile_qr_scan"}, "lon": -77.06537233333333, "type": "electric_scooter"}, {"bike_id": "664240e0b0f8beeb1d2ee5cc7fa02c50", "is_reserved": 0, "fusion_lon": 0.0, "lat": 38.93068, "is_disabled": 0, "name": "664240e0b0f8beeb1d2ee5cc7fa02c50", "fusion_lat": 0.0, "rental_uris": {"ios": "https://dc.lft.to/lastmile_qr_scan", "android": "https://dc.lft.to/lastmile_qr_scan"}, "lon": -77.03177616666666, "type": "electric_scooter"}, {"bike_id": "ee7b67b7f5c42b06bb203fca0cc0b4cb", "is_reserved": 0, "fusion_lon": 0.0, "lat": 38.94165433333333, "is_disabled": 0, "name": "ee7b67b7f5c42b06bb203fca0cc0b4cb", "fusion_lat": 0.0, "rental_uris": {"ios": "https://dc.lft.to/lastmile_qr_scan", "android": "https://dc.lft.to/lastmile_qr_scan"}, "lon": -77.0234615, "type": "electric_scooter"}, {"bike_id": "2983efaf5d1a8e58bc6846cf2f2e0620", "is_reserved": 0, "fusion_lon": 0.0, "lat": 38.86290666666667, "is_disabled": 0, "name": "2983efaf5d1a8e58bc6846cf2f2e0620", "fusion_lat": 0.0, "rental_uris": {"ios": "https://dc.lft.to/lastmile_qr_scan", "android": "https://dc.lft.to/lastmile_qr_scan"}, "lon": -76.99236166666667, "type": "electric_scooter"}, {"bike_id": "ecac8862c1b0e43d02bd41a21ed299cd", "is_reserved": 0, "fusion_lon": 0.0, "lat": 38.92309783333333, "is_disabled": 0, "name": "ecac8862c1b0e43d02bd41a21ed299cd", "fusion_lat": 0.0, "rental_uris": {"ios": "https://dc.lft.to/lastmile_qr_scan", "android": "https://dc.lft.to/lastmile_qr_scan"}, "lon": -77.04226566666667, "type": "electric_scooter"}, {"bike_id": "7671568f48bc42fc08c0067275361c47", "is_reserved": 0, "fusion_lon": 0.0, "lat": 38.92357966666667, "is_disabled": 0, "name": "7671568f48bc42fc08c0067275361c47", "fusion_lat": 0.0, "rental_uris": {"ios": "https://dc.lft.to/lastmile_qr_scan", "android": "https://dc.lft.to/lastmile_qr_scan"}, "lon": -77.0524175, "type": "electric_scooter"}, {"bike_id": "9879226f2f6f1350a1a8f00e2e8b2d26", "is_reserved": 0, "fusion_lon": 0.0, "lat": 38.90159033333333, "is_disabled": 0, "name": "9879226f2f6f1350a1a8f00e2e8b2d26", "fusion_lat": 0.0, "rental_uris": {"ios": "https://dc.lft.to/lastmile_qr_scan", "android": "https://dc.lft.to/lastmile_qr_scan"}, "lon": -77.041835, "type": "electric_scooter"}, {"bike_id": "de648a9dcb2e326755ad477d9c3c835b", "is_reserved": 0, "fusion_lon": 0.0, "lat": 38.88414216666666, "is_disabled": 0, "name": "de648a9dcb2e326755ad477d9c3c835b", "fusion_lat": 0.0, "rental_uris": {"ios": "https://dc.lft.to/lastmile_qr_scan", "android": "https://dc.lft.to/lastmile_qr_scan"}, "lon": -77.0194125, "type": "electric_scooter"}, {"bike_id": "4287b91fccb66889f1f54bdd0e1b0179", "is_reserved": 0, "fusion_lon": 0.0, "lat": 38.885295, "is_disabled": 0, "name": "4287b91fccb66889f1f54bdd0e1b0179", "fusion_lat": 0.0, "rental_uris": {"ios": "https://dc.lft.to/lastmile_qr_scan", "android": "https://dc.lft.to/lastmile_qr_scan"}, "lon": -76.98069366666667, "type": "electric_scooter"}, {"bike_id": "4110c8b0a743f9663ccfa73b40c84364", "is_reserved": 0, "fusion_lon": 0.0, "lat": 38.8922175, "is_disabled": 0, "name": "4110c8b0a743f9663ccfa73b40c84364", "fusion_lat": 0.0, "rental_uris": {"ios": "https://dc.lft.to/lastmile_qr_scan", "android": "https://dc.lft.to/lastmile_qr_scan"}, "lon": -77.024471, "type": "electric_scooter"}, {"bike_id": "964483c4c1be1407c8aced329c9dacc4", "is_reserved": 0, "fusion_lon": 0.0, "lat": 38.90122, "is_disabled": 0, "name": "964483c4c1be1407c8aced329c9dacc4", "fusion_lat": 0.0, "rental_uris": {"ios": "https://dc.lft.to/lastmile_qr_scan", "android": "https://dc.lft.to/lastmile_qr_scan"}, "lon": -77.04991666666666, "type": "electric_scooter"}, {"bike_id": "974ca607f356b0c5bb596aac71ac6ca7", "is_reserved": 0, "fusion_lon": 0.0, "lat": 38.94227383333333, "is_disabled": 0, "name": "974ca607f356b0c5bb596aac71ac6ca7", "fusion_lat": 0.0, "rental_uris": {"ios": "https://dc.lft.to/lastmile_qr_scan", "android": "https://dc.lft.to/lastmile_qr_scan"}, "lon": -77.0153625, "type": "electric_scooter"}, {"bike_id": "3ac25ed4507ad44cd55ab505d659c50a", "is_reserved": 0, "fusion_lon": 0.0, "lat": 38.90489183333333, "is_disabled": 0, "name": "3ac25ed4507ad44cd55ab505d659c50a", "fusion_lat": 0.0, "rental_uris": {"ios": "https://dc.lft.to/lastmile_qr_scan", "android": "https://dc.lft.to/lastmile_qr_scan"}, "lon": -77.06018366666666, "type": "electric_scooter"}, {"bike_id": "baf7c1395c0ed6de4d48d94f76a19e85", "is_reserved": 0, "fusion_lon": 0.0, "lat": 39.038808333333336, "is_disabled": 0, "name": "baf7c1395c0ed6de4d48d94f76a19e85", "fusion_lat": 0.0, "rental_uris": {"ios": "https://dc.lft.to/lastmile_qr_scan", "android": "https://dc.lft.to/lastmile_qr_scan"}, "lon": -76.99043583333334, "type": "electric_bike"}, {"bike_id": "7d885707b50dcc3639b409df677ec21c", "is_reserved": 0, "fusion_lon": 0.0, "lat": 38.89761416666666, "is_disabled": 0, "name": "7d885707b50dcc3639b409df677ec21c", "fusion_lat": 0.0, "rental_uris": {"ios": "https://dc.lft.to/lastmile_qr_scan", "android": "https://dc.lft.to/lastmile_qr_scan"}, "lon": -76.98555166666667, "type": "electric_scooter"}, {"bike_id": "a29b0ae937fd8f1725eb99fa479b092a", "is_reserved": 0, "fusion_lon": 0.0, "lat": 38.858066666666666, "is_disabled": 0, "name": "a29b0ae937fd8f1725eb99fa479b092a", "fusion_lat": 0.0, "rental_uris": {"ios": "https://dc.lft.to/lastmile_qr_scan", "android": "https://dc.lft.to/lastmile_qr_scan"}, "lon": -76.986582, "type": "electric_scooter"}, {"bike_id": "be5b06e969ac978475c42302d53a93c3", "is_reserved": 0, "fusion_lon": 0.0, "lat": 38.944349833333334, "is_disabled": 0, "name": "be5b06e969ac978475c42302d53a93c3", "fusion_lat": 0.0, "rental_uris": {"ios": "https://dc.lft.to/lastmile_qr_scan", "android": "https://dc.lft.to/lastmile_qr_scan"}, "lon": -77.06359016666667, "type": "electric_scooter"}, {"bike_id": "addfa44dfb5c1c27938f893a39e7b844", "is_reserved": 0, "fusion_lon": 0.0, "lat": 38.866626333333336, "is_disabled": 0, "name": "addfa44dfb5c1c27938f893a39e7b844", "fusion_lat": 0.0, "rental_uris": {"ios": "https://dc.lft.to/lastmile_qr_scan", "android": "https://dc.lft.to/lastmile_qr_scan"}, "lon": -76.989044, "type": "electric_scooter"}, {"bike_id": "ab4c9270be7eb720718ddcb7eabaa8c9", "is_reserved": 0, "fusion_lon": 0.0, "lat": 38.91800033333333, "is_disabled": 0, "name": "ab4c9270be7eb720718ddcb7eabaa8c9", "fusion_lat": 0.0, "rental_uris": {"ios": "https://dc.lft.to/lastmile_qr_scan", "android": "https://dc.lft.to/lastmile_qr_scan"}, "lon": -77.0415285, "type": "electric_scooter"}, {"bike_id": "c328676e0c7204f02f01d8a0e4c8843c", "is_reserved": 0, "fusion_lon": 0.0, "lat": 38.9165995, "is_disabled": 0, "name": "c328676e0c7204f02f01d8a0e4c8843c", "fusion_lat": 0.0, "rental_uris": {"ios": "https://dc.lft.to/lastmile_qr_scan", "android": "https://dc.lft.to/lastmile_qr_scan"}, "lon": -77.041937, "type": "electric_scooter"}, {"bike_id": "f81d35025ec590faa065703735c118ad", "is_reserved": 0, "fusion_lon": 0.0, "lat": 38.9027055, "is_disabled": 0, "name": "f81d35025ec590faa065703735c118ad", "fusion_lat": 0.0, "rental_uris": {"ios": "https://dc.lft.to/lastmile_qr_scan", "android": "https://dc.lft.to/lastmile_qr_scan"}, "lon": -77.03852683333334, "type": "electric_scooter"}, {"bike_id": "36f630b7cbd40c21db7f3f6ac3272ad2", "is_reserved": 0, "fusion_lon": 0.0, "lat": 38.9335685, "is_disabled": 0, "name": "36f630b7cbd40c21db7f3f6ac3272ad2", "fusion_lat": 0.0, "rental_uris": {"ios": "https://dc.lft.to/lastmile_qr_scan", "android": "https://dc.lft.to/lastmile_qr_scan"}, "lon": -77.06937633333334, "type": "electric_scooter"}, {"bike_id": "b54ce2371a0adf5346fde25fe119e89d", "is_reserved": 0, "fusion_lon": 0.0, "lat": 38.90490583333333, "is_disabled": 0, "name": "b54ce2371a0adf5346fde25fe119e89d", "fusion_lat": 0.0, "rental_uris": {"ios": "https://dc.lft.to/lastmile_qr_scan", "android": "https://dc.lft.to/lastmile_qr_scan"}, "lon": -77.05155983333333, "type": "electric_scooter"}, {"bike_id": "277465fde08ab437669a3695b8ce045f", "is_reserved": 0, "fusion_lon": 0.0, "lat": 38.9035615, "is_disabled": 0, "name": "277465fde08ab437669a3695b8ce045f", "fusion_lat": 0.0, "rental_uris": {"ios": "https://dc.lft.to/lastmile_qr_scan", "android": "https://dc.lft.to/lastmile_qr_scan"}, "lon": -77.03469166666666, "type": "electric_scooter"}, {"bike_id": "e59b76d7d6b051f3a56e847c1648aec5", "is_reserved": 0, "fusion_lon": 0.0, "lat": 38.911136, "is_disabled": 0, "name": "e59b76d7d6b051f3a56e847c1648aec5", "fusion_lat": 0.0, "rental_uris": {"ios": "https://dc.lft.to/lastmile_qr_scan", "android": "https://dc.lft.to/lastmile_qr_scan"}, "lon": -77.0446905, "type": "electric_scooter"}, {"bike_id": "aae93bb47759b4baa4970db99bac6327", "is_reserved": 0, "fusion_lon": 0.0, "lat": 38.892204166666666, "is_disabled": 0, "name": "aae93bb47759b4baa4970db99bac6327", "fusion_lat": 0.0, "rental_uris": {"ios": "https://dc.lft.to/lastmile_qr_scan", "android": "https://dc.lft.to/lastmile_qr_scan"}, "lon": -77.04511416666666, "type": "electric_scooter"}, {"bike_id": "d438daef2c0ba7a081b5fa921738294d", "is_reserved": 0, "fusion_lon": 0.0, "lat": 38.92096, "is_disabled": 0, "name": "d438daef2c0ba7a081b5fa921738294d", "fusion_lat": 0.0, "rental_uris": {"ios": "https://dc.lft.to/lastmile_qr_scan", "android": "https://dc.lft.to/lastmile_qr_scan"}, "lon": -77.06337166666667, "type": "electric_scooter"}, {"bike_id": "16347262d2f151501771da3a79feeb36", "is_reserved": 0, "fusion_lon": 0.0, "lat": 38.88030083333334, "is_disabled": 0, "name": "16347262d2f151501771da3a79feeb36", "fusion_lat": 0.0, "rental_uris": {"ios": "https://dc.lft.to/lastmile_qr_scan", "android": "https://dc.lft.to/lastmile_qr_scan"}, "lon": -77.0250355, "type": "electric_scooter"}, {"bike_id": "6b624efd363f0597c9dea132dfe8a51e", "is_reserved": 0, "fusion_lon": 0.0, "lat": 38.88858166666667, "is_disabled": 0, "name": "6b624efd363f0597c9dea132dfe8a51e", "fusion_lat": 0.0, "rental_uris": {"ios": "https://dc.lft.to/lastmile_qr_scan", "android": "https://dc.lft.to/lastmile_qr_scan"}, "lon": -77.0012155, "type": "electric_scooter"}, {"bike_id": "a30298137452e66437464aaccc7da958", "is_reserved": 0, "fusion_lon": 0.0, "lat": 38.900254, "is_disabled": 0, "name": "a30298137452e66437464aaccc7da958", "fusion_lat": 0.0, "rental_uris": {"ios": "https://dc.lft.to/lastmile_qr_scan", "android": "https://dc.lft.to/lastmile_qr_scan"}, "lon": -77.00211816666666, "type": "electric_scooter"}, {"bike_id": "b34cd07a8715aa9c85bcd23527127562", "is_reserved": 0, "fusion_lon": 0.0, "lat": 38.907846, "is_disabled": 0, "name": "b34cd07a8715aa9c85bcd23527127562", "fusion_lat": 0.0, "rental_uris": {"ios": "https://dc.lft.to/lastmile_qr_scan", "android": "https://dc.lft.to/lastmile_qr_scan"}, "lon": -77.0367645, "type": "electric_scooter"}, {"bike_id": "6177e9063b629ee4e9a66800623ec56d", "is_reserved": 0, "fusion_lon": 0.0, "lat": 38.92852383333334, "is_disabled": 0, "name": "6177e9063b629ee4e9a66800623ec56d", "fusion_lat": 0.0, "rental_uris": {"ios": "https://dc.lft.to/lastmile_qr_scan", "android": "https://dc.lft.to/lastmile_qr_scan"}, "lon": -77.03105483333333, "type": "electric_scooter"}, {"bike_id": "a26fe880b4b6fd45e25390c47cc9252c", "is_reserved": 0, "fusion_lon": 0.0, "lat": 38.985032333333336, "is_disabled": 0, "name": "a26fe880b4b6fd45e25390c47cc9252c", "fusion_lat": 0.0, "rental_uris": {"ios": "https://dc.lft.to/lastmile_qr_scan", "android": "https://dc.lft.to/lastmile_qr_scan"}, "lon": -76.98210033333334, "type": "electric_bike"}, {"bike_id": "0e919efbc0357587061414f16f4381a1", "is_reserved": 0, "fusion_lon": 0.0, "lat": 38.82263, "is_disabled": 0, "name": "0e919efbc0357587061414f16f4381a1", "fusion_lat": 0.0, "rental_uris": {"ios": "https://dc.lft.to/lastmile_qr_scan", "android": "https://dc.lft.to/lastmile_qr_scan"}, "lon": -77.05821533333334, "type": "electric_bike"}, {"bike_id": "7b787a838d87ee99693c427b7a342596", "is_reserved": 0, "fusion_lon": 0.0, "lat": 38.884918166666665, "is_disabled": 0, "name": "7b787a838d87ee99693c427b7a342596", "fusion_lat": 0.0, "rental_uris": {"ios": "https://dc.lft.to/lastmile_qr_scan", "android": "https://dc.lft.to/lastmile_qr_scan"}, "lon": -77.007118, "type": "electric_scooter"}, {"bike_id": "dd4d5ad270f55e52f6c301f249a6d686", "is_reserved": 0, "fusion_lon": 0.0, "lat": 38.892197833333334, "is_disabled": 0, "name": "dd4d5ad270f55e52f6c301f249a6d686", "fusion_lat": 0.0, "rental_uris": {"ios": "https://dc.lft.to/lastmile_qr_scan", "android": "https://dc.lft.to/lastmile_qr_scan"}, "lon": -77.04874883333333, "type": "electric_scooter"}, {"bike_id": "c86faf71c1240f1a0bb5b1fc710948eb", "is_reserved": 0, "fusion_lon": 0.0, "lat": 38.90982266666666, "is_disabled": 0, "name": "c86faf71c1240f1a0bb5b1fc710948eb", "fusion_lat": 0.0, "rental_uris": {"ios": "https://dc.lft.to/lastmile_qr_scan", "android": "https://dc.lft.to/lastmile_qr_scan"}, "lon": -77.02408733333333, "type": "electric_scooter"}, {"bike_id": "e059efcb89f7533eb12b33342db49945", "is_reserved": 0, "fusion_lon": 0.0, "lat": 38.897089666666666, "is_disabled": 0, "name": "e059efcb89f7533eb12b33342db49945", "fusion_lat": 0.0, "rental_uris": {"ios": "https://dc.lft.to/lastmile_qr_scan", "android": "https://dc.lft.to/lastmile_qr_scan"}, "lon": -77.02411733333334, "type": "electric_scooter"}, {"bike_id": "6f09f9873c09c7163b98d9773cdb6198", "is_reserved": 0, "fusion_lon": 0.0, "lat": 38.92231966666667, "is_disabled": 0, "name": "6f09f9873c09c7163b98d9773cdb6198", "fusion_lat": 0.0, "rental_uris": {"ios": "https://dc.lft.to/lastmile_qr_scan", "android": "https://dc.lft.to/lastmile_qr_scan"}, "lon": -77.04251633333334, "type": "electric_scooter"}, {"bike_id": "e08ba6406ff32a859a23cb9ff0f574ad", "is_reserved": 0, "fusion_lon": 0.0, "lat": 38.89739316666667, "is_disabled": 0, "name": "e08ba6406ff32a859a23cb9ff0f574ad", "fusion_lat": 0.0, "rental_uris": {"ios": "https://dc.lft.to/lastmile_qr_scan", "android": "https://dc.lft.to/lastmile_qr_scan"}, "lon": -77.01750216666667, "type": "electric_scooter"}, {"bike_id": "ba78583a849ef05108e5fa3dbc851fcd", "is_reserved": 0, "fusion_lon": 0.0, "lat": 38.92094083333333, "is_disabled": 0, "name": "ba78583a849ef05108e5fa3dbc851fcd", "fusion_lat": 0.0, "rental_uris": {"ios": "https://dc.lft.to/lastmile_qr_scan", "android": "https://dc.lft.to/lastmile_qr_scan"}, "lon": -77.0254545, "type": "electric_scooter"}, {"bike_id": "b631b8618674955edc74df1cdb083266", "is_reserved": 0, "fusion_lon": 0.0, "lat": 38.869848833333336, "is_disabled": 0, "name": "b631b8618674955edc74df1cdb083266", "fusion_lat": 0.0, "rental_uris": {"ios": "https://dc.lft.to/lastmile_qr_scan", "android": "https://dc.lft.to/lastmile_qr_scan"}, "lon": -76.959938, "type": "electric_bike"}, {"bike_id": "ffbec28eb70919893e09b4dd76961a59", "is_reserved": 0, "fusion_lon": 0.0, "lat": 38.9079185, "is_disabled": 0, "name": "ffbec28eb70919893e09b4dd76961a59", "fusion_lat": 0.0, "rental_uris": {"ios": "https://dc.lft.to/lastmile_qr_scan", "android": "https://dc.lft.to/lastmile_qr_scan"}, "lon": -77.03670783333334, "type": "electric_scooter"}, {"bike_id": "6200696a2c59330bd69b283312efaea3", "is_reserved": 0, "fusion_lon": 0.0, "lat": 38.862480166666664, "is_disabled": 0, "name": "6200696a2c59330bd69b283312efaea3", "fusion_lat": 0.0, "rental_uris": {"ios": "https://dc.lft.to/lastmile_qr_scan", "android": "https://dc.lft.to/lastmile_qr_scan"}, "lon": -76.9948085, "type": "electric_scooter"}, {"bike_id": "f76e972c848ebccae4ac611a8cc41b0c", "is_reserved": 0, "fusion_lon": 0.0, "lat": 38.806176, "is_disabled": 0, "name": "f76e972c848ebccae4ac611a8cc41b0c", "fusion_lat": 0.0, "rental_uris": {"ios": "https://dc.lft.to/lastmile_qr_scan", "android": "https://dc.lft.to/lastmile_qr_scan"}, "lon": -77.06351566666666, "type": "electric_bike"}, {"bike_id": "791f8ae02c66e12c55daa112da682998", "is_reserved": 0, "fusion_lon": 0.0, "lat": 38.88131766666667, "is_disabled": 0, "name": "791f8ae02c66e12c55daa112da682998", "fusion_lat": 0.0, "rental_uris": {"ios": "https://dc.lft.to/lastmile_qr_scan", "android": "https://dc.lft.to/lastmile_qr_scan"}, "lon": -76.98095316666667, "type": "electric_bike"}, {"bike_id": "19cfa43fac9ef9d8d3579603d1cec0db", "is_reserved": 0, "fusion_lon": 0.0, "lat": 38.93750933333333, "is_disabled": 0, "name": "19cfa43fac9ef9d8d3579603d1cec0db", "fusion_lat": 0.0, "rental_uris": {"ios": "https://dc.lft.to/lastmile_qr_scan", "android": "https://dc.lft.to/lastmile_qr_scan"}, "lon": -77.02487166666667, "type": "electric_scooter"}, {"bike_id": "cd4adbae6a8ce9e0a3c1e26a7c92f7c3", "is_reserved": 0, "fusion_lon": 0.0, "lat": 38.9087655, "is_disabled": 0, "name": "cd4adbae6a8ce9e0a3c1e26a7c92f7c3", "fusion_lat": 0.0, "rental_uris": {"ios": "https://dc.lft.to/lastmile_qr_scan", "android": "https://dc.lft.to/lastmile_qr_scan"}, "lon": -77.04343216666666, "type": "electric_scooter"}, {"bike_id": "1273e9183ef2c346bfe1095630a4fc1a", "is_reserved": 0, "fusion_lon": 0.0, "lat": 38.90782733333333, "is_disabled": 0, "name": "1273e9183ef2c346bfe1095630a4fc1a", "fusion_lat": 0.0, "rental_uris": {"ios": "https://dc.lft.to/lastmile_qr_scan", "android": "https://dc.lft.to/lastmile_qr_scan"}, "lon": -77.01112183333333, "type": "electric_scooter"}, {"bike_id": "ac9487400837698dcad2ec9fc87503e1", "is_reserved": 0, "fusion_lon": 0.0, "lat": 38.83982483333333, "is_disabled": 0, "name": "ac9487400837698dcad2ec9fc87503e1", "fusion_lat": 0.0, "rental_uris": {"ios": "https://dc.lft.to/lastmile_qr_scan", "android": "https://dc.lft.to/lastmile_qr_scan"}, "lon": -77.00571266666667, "type": "electric_bike"}, {"bike_id": "8a0ee22051a0202922d5be906ff1011f", "is_reserved": 0, "fusion_lon": 0.0, "lat": 38.9004705, "is_disabled": 0, "name": "8a0ee22051a0202922d5be906ff1011f", "fusion_lat": 0.0, "rental_uris": {"ios": "https://dc.lft.to/lastmile_qr_scan", "android": "https://dc.lft.to/lastmile_qr_scan"}, "lon": -77.05067516666666, "type": "electric_scooter"}, {"bike_id": "6bcf510886bb7d4a33d129e4a4a71cf8", "is_reserved": 0, "fusion_lon": 0.0, "lat": 38.89994033333333, "is_disabled": 0, "name": "6bcf510886bb7d4a33d129e4a4a71cf8", "fusion_lat": 0.0, "rental_uris": {"ios": "https://dc.lft.to/lastmile_qr_scan", "android": "https://dc.lft.to/lastmile_qr_scan"}, "lon": -77.05249766666667, "type": "electric_scooter"}, {"bike_id": "fe8ded3600d926c38a11c5285b278355", "is_reserved": 0, "fusion_lon": 0.0, "lat": 38.866572833333336, "is_disabled": 0, "name": "fe8ded3600d926c38a11c5285b278355", "fusion_lat": 0.0, "rental_uris": {"ios": "https://dc.lft.to/lastmile_qr_scan", "android": "https://dc.lft.to/lastmile_qr_scan"}, "lon": -76.99016916666666, "type": "electric_scooter"}, {"bike_id": "6daac8b719e4218a15621a2948b620e2", "is_reserved": 0, "fusion_lon": 0.0, "lat": 38.90354716666667, "is_disabled": 0, "name": "6daac8b719e4218a15621a2948b620e2", "fusion_lat": 0.0, "rental_uris": {"ios": "https://dc.lft.to/lastmile_qr_scan", "android": "https://dc.lft.to/lastmile_qr_scan"}, "lon": -77.02965416666666, "type": "electric_scooter"}, {"bike_id": "456d055466a2e0cd501cf692eb910645", "is_reserved": 0, "fusion_lon": 0.0, "lat": 38.907841833333336, "is_disabled": 0, "name": "456d055466a2e0cd501cf692eb910645", "fusion_lat": 0.0, "rental_uris": {"ios": "https://dc.lft.to/lastmile_qr_scan", "android": "https://dc.lft.to/lastmile_qr_scan"}, "lon": -77.03219183333333, "type": "electric_scooter"}, {"bike_id": "9c67dee4f5f422358be015c5ce26d8a9", "is_reserved": 0, "fusion_lon": 0.0, "lat": 38.8982725, "is_disabled": 0, "name": "9c67dee4f5f422358be015c5ce26d8a9", "fusion_lat": 0.0, "rental_uris": {"ios": "https://dc.lft.to/lastmile_qr_scan", "android": "https://dc.lft.to/lastmile_qr_scan"}, "lon": -76.9465215, "type": "electric_scooter"}, {"bike_id": "312c89f4826e396f805ae7d7ca18f891", "is_reserved": 0, "fusion_lon": 0.0, "lat": 38.90516316666667, "is_disabled": 0, "name": "312c89f4826e396f805ae7d7ca18f891", "fusion_lat": 0.0, "rental_uris": {"ios": "https://dc.lft.to/lastmile_qr_scan", "android": "https://dc.lft.to/lastmile_qr_scan"}, "lon": -77.06539816666667, "type": "electric_scooter"}, {"bike_id": "ac5bde3fcb30d4b37df3cf8892045bb6", "is_reserved": 0, "fusion_lon": 0.0, "lat": 38.924082, "is_disabled": 0, "name": "ac5bde3fcb30d4b37df3cf8892045bb6", "fusion_lat": 0.0, "rental_uris": {"ios": "https://dc.lft.to/lastmile_qr_scan", "android": "https://dc.lft.to/lastmile_qr_scan"}, "lon": -77.20818916666667, "type": "electric_bike"}, {"bike_id": "bc247c554df05adaddb0eeb8cd5375c3", "is_reserved": 0, "fusion_lon": 0.0, "lat": 38.845712, "is_disabled": 0, "name": "bc247c554df05adaddb0eeb8cd5375c3", "fusion_lat": 0.0, "rental_uris": {"ios": "https://dc.lft.to/lastmile_qr_scan", "android": "https://dc.lft.to/lastmile_qr_scan"}, "lon": -77.09627166666667, "type": "electric_bike"}, {"bike_id": "cd6f05a9e8a42d1db2d4c9bfcb399eae", "is_reserved": 0, "fusion_lon": 0.0, "lat": 38.89854916666667, "is_disabled": 0, "name": "cd6f05a9e8a42d1db2d4c9bfcb399eae", "fusion_lat": 0.0, "rental_uris": {"ios": "https://dc.lft.to/lastmile_qr_scan", "android": "https://dc.lft.to/lastmile_qr_scan"}, "lon": -77.02928083333333, "type": "electric_scooter"}, {"bike_id": "b8ae840ec47806c48e54b3d6ddc7ee35", "is_reserved": 0, "fusion_lon": 0.0, "lat": 38.90092, "is_disabled": 0, "name": "b8ae840ec47806c48e54b3d6ddc7ee35", "fusion_lat": 0.0, "rental_uris": {"ios": "https://dc.lft.to/lastmile_qr_scan", "android": "https://dc.lft.to/lastmile_qr_scan"}, "lon": -77.05054266666667, "type": "electric_scooter"}, {"bike_id": "5128e41be820473257ac2c1e8e6ff08c", "is_reserved": 0, "fusion_lon": 0.0, "lat": 38.901374, "is_disabled": 0, "name": "5128e41be820473257ac2c1e8e6ff08c", "fusion_lat": 0.0, "rental_uris": {"ios": "https://dc.lft.to/lastmile_qr_scan", "android": "https://dc.lft.to/lastmile_qr_scan"}, "lon": -77.04202783333334, "type": "electric_scooter"}, {"bike_id": "fa7d419bf5f2c5cdde5959eff5dd3bb8", "is_reserved": 0, "fusion_lon": 0.0, "lat": 38.873229, "is_disabled": 0, "name": "fa7d419bf5f2c5cdde5959eff5dd3bb8", "fusion_lat": 0.0, "rental_uris": {"ios": "https://dc.lft.to/lastmile_qr_scan", "android": "https://dc.lft.to/lastmile_qr_scan"}, "lon": -77.1062905, "type": "electric_bike"}, {"bike_id": "ac0fdbb37389189ba041c37ea062c15f", "is_reserved": 0, "fusion_lon": 0.0, "lat": 38.90443166666667, "is_disabled": 0, "name": "ac0fdbb37389189ba041c37ea062c15f", "fusion_lat": 0.0, "rental_uris": {"ios": "https://dc.lft.to/lastmile_qr_scan", "android": "https://dc.lft.to/lastmile_qr_scan"}, "lon": -77.061247, "type": "electric_scooter"}, {"bike_id": "dceb24cb893743d03b612d5d0b4ca87b", "is_reserved": 0, "fusion_lon": 0.0, "lat": 38.92647683333333, "is_disabled": 0, "name": "dceb24cb893743d03b612d5d0b4ca87b", "fusion_lat": 0.0, "rental_uris": {"ios": "https://dc.lft.to/lastmile_qr_scan", "android": "https://dc.lft.to/lastmile_qr_scan"}, "lon": -77.01537066666667, "type": "electric_scooter"}, {"bike_id": "1e9388c2de52da59483ea0fa7f9de048", "is_reserved": 0, "fusion_lon": 0.0, "lat": 38.876779166666665, "is_disabled": 0, "name": "1e9388c2de52da59483ea0fa7f9de048", "fusion_lat": 0.0, "rental_uris": {"ios": "https://dc.lft.to/lastmile_qr_scan", "android": "https://dc.lft.to/lastmile_qr_scan"}, "lon": -77.01798716666667, "type": "electric_scooter"}, {"bike_id": "10ab68ba7697d74c30b7221e2869d3ff", "is_reserved": 0, "fusion_lon": 0.0, "lat": 38.90845783333333, "is_disabled": 0, "name": "10ab68ba7697d74c30b7221e2869d3ff", "fusion_lat": 0.0, "rental_uris": {"ios": "https://dc.lft.to/lastmile_qr_scan", "android": "https://dc.lft.to/lastmile_qr_scan"}, "lon": -77.03292716666667, "type": "electric_scooter"}, {"bike_id": "a3fc5eec39b02ff0e6cd1e26a5d9994d", "is_reserved": 0, "fusion_lon": 0.0, "lat": 38.91401333333334, "is_disabled": 0, "name": "a3fc5eec39b02ff0e6cd1e26a5d9994d", "fusion_lat": 0.0, "rental_uris": {"ios": "https://dc.lft.to/lastmile_qr_scan", "android": "https://dc.lft.to/lastmile_qr_scan"}, "lon": -77.03156016666667, "type": "electric_scooter"}, {"bike_id": "32764c73f6bcdfa25cbac8c67d3c3d2a", "is_reserved": 0, "fusion_lon": 0.0, "lat": 38.9198035, "is_disabled": 0, "name": "32764c73f6bcdfa25cbac8c67d3c3d2a", "fusion_lat": 0.0, "rental_uris": {"ios": "https://dc.lft.to/lastmile_qr_scan", "android": "https://dc.lft.to/lastmile_qr_scan"}, "lon": -77.04179966666666, "type": "electric_scooter"}, {"bike_id": "e6188cd506b53b348cebbcf73522533d", "is_reserved": 0, "fusion_lon": 0.0, "lat": 38.919859333333335, "is_disabled": 0, "name": "e6188cd506b53b348cebbcf73522533d", "fusion_lat": 0.0, "rental_uris": {"ios": "https://dc.lft.to/lastmile_qr_scan", "android": "https://dc.lft.to/lastmile_qr_scan"}, "lon": -76.97308766666667, "type": "electric_scooter"}, {"bike_id": "308a64f5140073750d333039a5a4a0e6", "is_reserved": 0, "fusion_lon": 0.0, "lat": 38.860513166666664, "is_disabled": 0, "name": "308a64f5140073750d333039a5a4a0e6", "fusion_lat": 0.0, "rental_uris": {"ios": "https://dc.lft.to/lastmile_qr_scan", "android": "https://dc.lft.to/lastmile_qr_scan"}, "lon": -77.05658683333333, "type": "electric_bike"}, {"bike_id": "e1da879c9d15601da62f9077b25efedd", "is_reserved": 0, "fusion_lon": 0.0, "lat": 38.886385833333335, "is_disabled": 0, "name": "e1da879c9d15601da62f9077b25efedd", "fusion_lat": 0.0, "rental_uris": {"ios": "https://dc.lft.to/lastmile_qr_scan", "android": "https://dc.lft.to/lastmile_qr_scan"}, "lon": -77.02138516666666, "type": "electric_scooter"}, {"bike_id": "930aed7f7620c83653e306bb248103f9", "is_reserved": 0, "fusion_lon": 0.0, "lat": 38.9110075, "is_disabled": 0, "name": "930aed7f7620c83653e306bb248103f9", "fusion_lat": 0.0, "rental_uris": {"ios": "https://dc.lft.to/lastmile_qr_scan", "android": "https://dc.lft.to/lastmile_qr_scan"}, "lon": -76.9971785, "type": "electric_scooter"}, {"bike_id": "fd490e4dcc5478682bff3e1a9f2e164e", "is_reserved": 0, "fusion_lon": 0.0, "lat": 38.8204725, "is_disabled": 0, "name": "fd490e4dcc5478682bff3e1a9f2e164e", "fusion_lat": 0.0, "rental_uris": {"ios": "https://dc.lft.to/lastmile_qr_scan", "android": "https://dc.lft.to/lastmile_qr_scan"}, "lon": -77.05319266666666, "type": "electric_bike"}, {"bike_id": "b054cbf8fb5e9321edd859e97193151b", "is_reserved": 0, "fusion_lon": 0.0, "lat": 38.95071016666667, "is_disabled": 0, "name": "b054cbf8fb5e9321edd859e97193151b", "fusion_lat": 0.0, "rental_uris": {"ios": "https://dc.lft.to/lastmile_qr_scan", "android": "https://dc.lft.to/lastmile_qr_scan"}, "lon": -77.0121025, "type": "electric_bike"}, {"bike_id": "4e6ea3a8aac85845e6e21bd390e2421d", "is_reserved": 0, "fusion_lon": 0.0, "lat": 38.917153, "is_disabled": 0, "name": "4e6ea3a8aac85845e6e21bd390e2421d", "fusion_lat": 0.0, "rental_uris": {"ios": "https://dc.lft.to/lastmile_qr_scan", "android": "https://dc.lft.to/lastmile_qr_scan"}, "lon": -77.024167, "type": "electric_scooter"}, {"bike_id": "329ea2c8c943c266b3e7f3abab12b962", "is_reserved": 0, "fusion_lon": 0.0, "lat": 38.883306833333336, "is_disabled": 0, "name": "329ea2c8c943c266b3e7f3abab12b962", "fusion_lat": 0.0, "rental_uris": {"ios": "https://dc.lft.to/lastmile_qr_scan", "android": "https://dc.lft.to/lastmile_qr_scan"}, "lon": -77.02046816666666, "type": "electric_scooter"}, {"bike_id": "0acf1f82d7822dc9c8b277a490366e98", "is_reserved": 0, "fusion_lon": 0.0, "lat": 38.90293716666667, "is_disabled": 0, "name": "0acf1f82d7822dc9c8b277a490366e98", "fusion_lat": 0.0, "rental_uris": {"ios": "https://dc.lft.to/lastmile_qr_scan", "android": "https://dc.lft.to/lastmile_qr_scan"}, "lon": -76.99264183333334, "type": "electric_scooter"}, {"bike_id": "c9e1a785ebf238e1e25c88a3ef7a3f66", "is_reserved": 0, "fusion_lon": 0.0, "lat": 38.973253, "is_disabled": 0, "name": "c9e1a785ebf238e1e25c88a3ef7a3f66", "fusion_lat": 0.0, "rental_uris": {"ios": "https://dc.lft.to/lastmile_qr_scan", "android": "https://dc.lft.to/lastmile_qr_scan"}, "lon": -77.02149116666666, "type": "electric_bike"}, {"bike_id": "ebd27f35c2226972706a7fd871371e2f", "is_reserved": 0, "fusion_lon": 0.0, "lat": 38.84423966666667, "is_disabled": 0, "name": "ebd27f35c2226972706a7fd871371e2f", "fusion_lat": 0.0, "rental_uris": {"ios": "https://dc.lft.to/lastmile_qr_scan", "android": "https://dc.lft.to/lastmile_qr_scan"}, "lon": -76.99786, "type": "electric_scooter"}, {"bike_id": "f5d5217d3bceab232aa3d28df6e5a07f", "is_reserved": 0, "fusion_lon": 0.0, "lat": 38.90600083333333, "is_disabled": 0, "name": "f5d5217d3bceab232aa3d28df6e5a07f", "fusion_lat": 0.0, "rental_uris": {"ios": "https://dc.lft.to/lastmile_qr_scan", "android": "https://dc.lft.to/lastmile_qr_scan"}, "lon": -77.06301883333333, "type": "electric_scooter"}, {"bike_id": "36bfd9e5f8f1f4ca2b4eab716716c890", "is_reserved": 0, "fusion_lon": 0.0, "lat": 38.94945333333333, "is_disabled": 0, "name": "36bfd9e5f8f1f4ca2b4eab716716c890", "fusion_lat": 0.0, "rental_uris": {"ios": "https://dc.lft.to/lastmile_qr_scan", "android": "https://dc.lft.to/lastmile_qr_scan"}, "lon": -77.016171, "type": "electric_bike"}, {"bike_id": "79c26ec215ec4971ad3f0494e2ee6f24", "is_reserved": 0, "fusion_lon": 0.0, "lat": 38.89829133333333, "is_disabled": 0, "name": "79c26ec215ec4971ad3f0494e2ee6f24", "fusion_lat": 0.0, "rental_uris": {"ios": "https://dc.lft.to/lastmile_qr_scan", "android": "https://dc.lft.to/lastmile_qr_scan"}, "lon": -76.94636733333333, "type": "electric_scooter"}, {"bike_id": "99d4e92bb2f64424defd3f6b650b0ba0", "is_reserved": 0, "fusion_lon": 0.0, "lat": 38.952535, "is_disabled": 0, "name": "99d4e92bb2f64424defd3f6b650b0ba0", "fusion_lat": 0.0, "rental_uris": {"ios": "https://dc.lft.to/lastmile_qr_scan", "android": "https://dc.lft.to/lastmile_qr_scan"}, "lon": -77.06981583333334, "type": "electric_scooter"}, {"bike_id": "62fa88c81e0b5d8a44d90b4947e07561", "is_reserved": 0, "fusion_lon": 0.0, "lat": 38.91628583333333, "is_disabled": 0, "name": "62fa88c81e0b5d8a44d90b4947e07561", "fusion_lat": 0.0, "rental_uris": {"ios": "https://dc.lft.to/lastmile_qr_scan", "android": "https://dc.lft.to/lastmile_qr_scan"}, "lon": -77.03137316666667, "type": "electric_scooter"}, {"bike_id": "f5036f99b8da8b45aa916c831633f0aa", "is_reserved": 0, "fusion_lon": 0.0, "lat": 38.917412, "is_disabled": 0, "name": "f5036f99b8da8b45aa916c831633f0aa", "fusion_lat": 0.0, "rental_uris": {"ios": "https://dc.lft.to/lastmile_qr_scan", "android": "https://dc.lft.to/lastmile_qr_scan"}, "lon": -77.04177633333333, "type": "electric_scooter"}, {"bike_id": "b437eb7c327b609c8e434a2f3f0b649e", "is_reserved": 0, "fusion_lon": 0.0, "lat": 38.90041183333334, "is_disabled": 0, "name": "b437eb7c327b609c8e434a2f3f0b649e", "fusion_lat": 0.0, "rental_uris": {"ios": "https://dc.lft.to/lastmile_qr_scan", "android": "https://dc.lft.to/lastmile_qr_scan"}, "lon": -77.001888, "type": "electric_scooter"}, {"bike_id": "db0221547d677fa278816ef1f8d2818f", "is_reserved": 0, "fusion_lon": 0.0, "lat": 38.8997225, "is_disabled": 0, "name": "db0221547d677fa278816ef1f8d2818f", "fusion_lat": 0.0, "rental_uris": {"ios": "https://dc.lft.to/lastmile_qr_scan", "android": "https://dc.lft.to/lastmile_qr_scan"}, "lon": -76.991498, "type": "electric_scooter"}, {"bike_id": "4ed2078c62be7870638db95dbc9b854d", "is_reserved": 0, "fusion_lon": 0.0, "lat": 38.92969983333333, "is_disabled": 0, "name": "4ed2078c62be7870638db95dbc9b854d", "fusion_lat": 0.0, "rental_uris": {"ios": "https://dc.lft.to/lastmile_qr_scan", "android": "https://dc.lft.to/lastmile_qr_scan"}, "lon": -77.027921, "type": "electric_scooter"}, {"bike_id": "8f76372ce19ada6984f500296e7a0e0f", "is_reserved": 0, "fusion_lon": 0.0, "lat": 38.89079266666667, "is_disabled": 0, "name": "8f76372ce19ada6984f500296e7a0e0f", "fusion_lat": 0.0, "rental_uris": {"ios": "https://dc.lft.to/lastmile_qr_scan", "android": "https://dc.lft.to/lastmile_qr_scan"}, "lon": -77.04043283333333, "type": "electric_scooter"}, {"bike_id": "3f588895a2546f962d97e51c3e0f69e1", "is_reserved": 0, "fusion_lon": 0.0, "lat": 38.945476166666666, "is_disabled": 0, "name": "3f588895a2546f962d97e51c3e0f69e1", "fusion_lat": 0.0, "rental_uris": {"ios": "https://dc.lft.to/lastmile_qr_scan", "android": "https://dc.lft.to/lastmile_qr_scan"}, "lon": -76.895555, "type": "electric_bike"}, {"bike_id": "7ff5b82436d3a42e67d6d76d3b484287", "is_reserved": 0, "fusion_lon": 0.0, "lat": 38.8656015, "is_disabled": 0, "name": "7ff5b82436d3a42e67d6d76d3b484287", "fusion_lat": 0.0, "rental_uris": {"ios": "https://dc.lft.to/lastmile_qr_scan", "android": "https://dc.lft.to/lastmile_qr_scan"}, "lon": -76.98953983333334, "type": "electric_scooter"}, {"bike_id": "d2eb806b10b5ee1048896c0ad957e31a", "is_reserved": 0, "fusion_lon": 0.0, "lat": 38.91115516666667, "is_disabled": 0, "name": "d2eb806b10b5ee1048896c0ad957e31a", "fusion_lat": 0.0, "rental_uris": {"ios": "https://dc.lft.to/lastmile_qr_scan", "android": "https://dc.lft.to/lastmile_qr_scan"}, "lon": -77.03597166666667, "type": "electric_scooter"}, {"bike_id": "2e49483e756fb2fc78e23f372d68cd55", "is_reserved": 0, "fusion_lon": 0.0, "lat": 38.916988833333335, "is_disabled": 0, "name": "2e49483e756fb2fc78e23f372d68cd55", "fusion_lat": 0.0, "rental_uris": {"ios": "https://dc.lft.to/lastmile_qr_scan", "android": "https://dc.lft.to/lastmile_qr_scan"}, "lon": -77.022571, "type": "electric_scooter"}, {"bike_id": "0c47afd9af9a5a5a58ae3b9076f9429e", "is_reserved": 0, "fusion_lon": 0.0, "lat": 38.861773, "is_disabled": 0, "name": "0c47afd9af9a5a5a58ae3b9076f9429e", "fusion_lat": 0.0, "rental_uris": {"ios": "https://dc.lft.to/lastmile_qr_scan", "android": "https://dc.lft.to/lastmile_qr_scan"}, "lon": -76.96912816666666, "type": "electric_scooter"}, {"bike_id": "05fc083b7700c3838779f2d261fb6d17", "is_reserved": 0, "fusion_lon": 0.0, "lat": 38.899991166666666, "is_disabled": 0, "name": "05fc083b7700c3838779f2d261fb6d17", "fusion_lat": 0.0, "rental_uris": {"ios": "https://dc.lft.to/lastmile_qr_scan", "android": "https://dc.lft.to/lastmile_qr_scan"}, "lon": -77.03379816666667, "type": "electric_scooter"}, {"bike_id": "39f4ad2ac34adc2e11a9b6155337803c", "is_reserved": 0, "fusion_lon": 0.0, "lat": 38.89291016666667, "is_disabled": 0, "name": "39f4ad2ac34adc2e11a9b6155337803c", "fusion_lat": 0.0, "rental_uris": {"ios": "https://dc.lft.to/lastmile_qr_scan", "android": "https://dc.lft.to/lastmile_qr_scan"}, "lon": -76.99858666666667, "type": "electric_scooter"}, {"bike_id": "ee39cbe4b641218b9e31c9f3b285b0b2", "is_reserved": 0, "fusion_lon": 0.0, "lat": 38.94470116666667, "is_disabled": 0, "name": "ee39cbe4b641218b9e31c9f3b285b0b2", "fusion_lat": 0.0, "rental_uris": {"ios": "https://dc.lft.to/lastmile_qr_scan", "android": "https://dc.lft.to/lastmile_qr_scan"}, "lon": -77.022973, "type": "electric_bike"}, {"bike_id": "84e37f7d9e9c1b27266eb9bec9be0f50", "is_reserved": 0, "fusion_lon": 0.0, "lat": 38.93427883333333, "is_disabled": 0, "name": "84e37f7d9e9c1b27266eb9bec9be0f50", "fusion_lat": 0.0, "rental_uris": {"ios": "https://dc.lft.to/lastmile_qr_scan", "android": "https://dc.lft.to/lastmile_qr_scan"}, "lon": -77.04002983333334, "type": "electric_scooter"}, {"bike_id": "1b577acf533763ee1cc9b4c73d9ebcfb", "is_reserved": 0, "fusion_lon": 0.0, "lat": 38.884978, "is_disabled": 0, "name": "1b577acf533763ee1cc9b4c73d9ebcfb", "fusion_lat": 0.0, "rental_uris": {"ios": "https://dc.lft.to/lastmile_qr_scan", "android": "https://dc.lft.to/lastmile_qr_scan"}, "lon": -77.00345016666667, "type": "electric_scooter"}, {"bike_id": "f68b54ff97243132d19bbb018c808934", "is_reserved": 0, "fusion_lon": 0.0, "lat": 38.837232666666665, "is_disabled": 0, "name": "f68b54ff97243132d19bbb018c808934", "fusion_lat": 0.0, "rental_uris": {"ios": "https://dc.lft.to/lastmile_qr_scan", "android": "https://dc.lft.to/lastmile_qr_scan"}, "lon": -76.99768266666666, "type": "electric_bike"}, {"bike_id": "f2bba45b148af38d2d9abb8ad633524d", "is_reserved": 0, "fusion_lon": 0.0, "lat": 38.937091833333334, "is_disabled": 0, "name": "f2bba45b148af38d2d9abb8ad633524d", "fusion_lat": 0.0, "rental_uris": {"ios": "https://dc.lft.to/lastmile_qr_scan", "android": "https://dc.lft.to/lastmile_qr_scan"}, "lon": -77.02940516666666, "type": "electric_scooter"}, {"bike_id": "60d2d61180badcceffcab44774537169", "is_reserved": 0, "fusion_lon": 0.0, "lat": 38.9282665, "is_disabled": 0, "name": "60d2d61180badcceffcab44774537169", "fusion_lat": 0.0, "rental_uris": {"ios": "https://dc.lft.to/lastmile_qr_scan", "android": "https://dc.lft.to/lastmile_qr_scan"}, "lon": -77.013454, "type": "electric_scooter"}, {"bike_id": "77455aa49844f6788bbf64173137a41d", "is_reserved": 0, "fusion_lon": 0.0, "lat": 38.8983015, "is_disabled": 0, "name": "77455aa49844f6788bbf64173137a41d", "fusion_lat": 0.0, "rental_uris": {"ios": "https://dc.lft.to/lastmile_qr_scan", "android": "https://dc.lft.to/lastmile_qr_scan"}, "lon": -77.007495, "type": "electric_scooter"}, {"bike_id": "f716308650d7098037db3ada49b25d5b", "is_reserved": 0, "fusion_lon": 0.0, "lat": 38.909781833333334, "is_disabled": 0, "name": "f716308650d7098037db3ada49b25d5b", "fusion_lat": 0.0, "rental_uris": {"ios": "https://dc.lft.to/lastmile_qr_scan", "android": "https://dc.lft.to/lastmile_qr_scan"}, "lon": -77.02186016666667, "type": "electric_scooter"}, {"bike_id": "3e64fa102c6f2576b765a48088260800", "is_reserved": 0, "fusion_lon": 0.0, "lat": 38.87494233333334, "is_disabled": 0, "name": "3e64fa102c6f2576b765a48088260800", "fusion_lat": 0.0, "rental_uris": {"ios": "https://dc.lft.to/lastmile_qr_scan", "android": "https://dc.lft.to/lastmile_qr_scan"}, "lon": -77.001862, "type": "electric_scooter"}, {"bike_id": "d70975f2010ad8fa7833be65cb1504e3", "is_reserved": 0, "fusion_lon": 0.0, "lat": 38.897411, "is_disabled": 0, "name": "d70975f2010ad8fa7833be65cb1504e3", "fusion_lat": 0.0, "rental_uris": {"ios": "https://dc.lft.to/lastmile_qr_scan", "android": "https://dc.lft.to/lastmile_qr_scan"}, "lon": -77.00755466666666, "type": "electric_scooter"}, {"bike_id": "2fd5a892773deab44e16e4c01db3f047", "is_reserved": 0, "fusion_lon": 0.0, "lat": 38.88378083333333, "is_disabled": 0, "name": "2fd5a892773deab44e16e4c01db3f047", "fusion_lat": 0.0, "rental_uris": {"ios": "https://dc.lft.to/lastmile_qr_scan", "android": "https://dc.lft.to/lastmile_qr_scan"}, "lon": -77.046067, "type": "electric_scooter"}, {"bike_id": "221593142446cef90e32aa9c7e6399c9", "is_reserved": 0, "fusion_lon": 0.0, "lat": 38.91780083333333, "is_disabled": 0, "name": "221593142446cef90e32aa9c7e6399c9", "fusion_lat": 0.0, "rental_uris": {"ios": "https://dc.lft.to/lastmile_qr_scan", "android": "https://dc.lft.to/lastmile_qr_scan"}, "lon": -77.02286783333334, "type": "electric_scooter"}, {"bike_id": "ef7e152115f293d1507a66c7be6dafdc", "is_reserved": 0, "fusion_lon": 0.0, "lat": 38.88994433333333, "is_disabled": 0, "name": "ef7e152115f293d1507a66c7be6dafdc", "fusion_lat": 0.0, "rental_uris": {"ios": "https://dc.lft.to/lastmile_qr_scan", "android": "https://dc.lft.to/lastmile_qr_scan"}, "lon": -76.95570266666667, "type": "electric_scooter"},