{"data": {"bikes": [{"lon": -77.03479616666667, "lat": 38.90283433333333, "name": "3fa99526fb624bbd94e68e312fb52190", "fusion_lat": 0.0, "fusion_lon": 0.0, "rental_uris": {"android": "https://dc.lft.to/lastmile_qr_scan", "ios": "https://dc.lft.to/lastmile_qr_scan"}, "is_reserved": 0, "is_disabled": 0, "type": "electric_scooter", "bike_id": "3fa99526fb624bbd94e68e312fb52190"}, {"lon": -76.988257, "lat": 38.880284, "name": "166d7b040fc9fea5e2824a39b3afab01", "fusion_lat": 0.0, "fusion_lon": 0.0, "rental_uris": {"android": "https://dc.lft.to/lastmile_qr_scan", "ios": "https://dc.lft.to/lastmile_qr_scan"}, "is_reserved": 0, "is_disabled": 0, "type": "electric_scooter", "bike_id": "166d7b040fc9fea5e2824a39b3afab01"}, {"lon": -77.02688183333333, "lat": 38.92489066666667, "name": "5445649f58a852f0b880b27781a69169", "fusion_lat": 0.0, "fusion_lon": 0.0, "rental_uris": {"android": "https://dc.lft.to/lastmile_qr_scan", "ios": "https://dc.lft.to/lastmile_qr_scan"}, "is_reserved": 0, "is_disabled": 0, "type": "electric_scooter", "bike_id": "5445649f58a852f0b880b27781a69169"}, {"lon": -77.03355583333334, "lat": 38.89969583333333, "name": "a2d10ff3e34726e20a0c04c9a8727a11", "fusion_lat": 0.0, "fusion_lon": 0.0, "rental_uris": {"android": "https://dc.lft.to/lastmile_qr_scan", "ios": "https://dc.lft.to/lastmile_qr_scan"}, "is_reserved": 0, "is_disabled": 0, "type": "electric_scooter", "bike_id": "a2d10ff3e34726e20a0c04c9a8727a11"}, {"lon": -77.02704533333333, "lat": 38.9068405, "name": "d5a8ebafcda7e813a074940868bed342", "fusion_lat": 0.0, "fusion_lon": 0.0, "rental_uris": {"android": "https://dc.lft.to/lastmile_qr_scan", "ios": "https://dc.lft.to/lastmile_qr_scan"}, "is_reserved": 0, "is_disabled": 0, "type": "electric_scooter", "bike_id": "d5a8ebafcda7e813a074940868bed342"}, {"lon": -76.98065, "lat": 38.901778, "name": "7edac4ebcefb3333920de3b27a927fe3", "fusion_lat": 0.0, "fusion_lon": 0.0, "rental_uris": {"android": "https://dc.lft.to/lastmile_qr_scan", "ios": "https://dc.lft.to/lastmile_qr_scan"}, "is_reserved": 0, "is_disabled": 0, "type": "electric_scooter", "bike_id": "7edac4ebcefb3333920de3b27a927fe3"}, {"lon": -77.04230266666667, "lat": 38.911101, "name": "8d778f3c8e1673145231e87e5612083b", "fusion_lat": 0.0, "fusion_lon": 0.0, "rental_uris": {"android": "https://dc.lft.to/lastmile_qr_scan", "ios": "https://dc.lft.to/lastmile_qr_scan"}, "is_reserved": 0, "is_disabled": 0, "type": "electric_scooter", "bike_id": "8d778f3c8e1673145231e87e5612083b"}, {"lon": -77.02640783333334, "lat": 38.881077, "name": "fe48adf0b103f73cbbfa52523eb9dcc4", "fusion_lat": 0.0, "fusion_lon": 0.0, "rental_uris": {"android": "https://dc.lft.to/lastmile_qr_scan", "ios": "https://dc.lft.to/lastmile_qr_scan"}, "is_reserved": 0, "is_disabled": 0, "type": "electric_scooter", "bike_id": "fe48adf0b103f73cbbfa52523eb9dcc4"}, {"lon": -77.044812, "lat": 38.89963383333333, "name": "d9f8a919e5095279c857477adecd12cb", "fusion_lat": 0.0, "fusion_lon": 0.0, "rental_uris": {"android": "https://dc.lft.to/lastmile_qr_scan", "ios": "https://dc.lft.to/lastmile_qr_scan"}, "is_reserved": 0, "is_disabled": 0, "type": "electric_scooter", "bike_id": "d9f8a919e5095279c857477adecd12cb"}, {"lon": -77.00998216666666, "lat": 38.90699033333333, "name": "7392404050ac05c0b795291022efdf39", "fusion_lat": 0.0, "fusion_lon": 0.0, "rental_uris": {"android": "https://dc.lft.to/lastmile_qr_scan", "ios": "https://dc.lft.to/lastmile_qr_scan"}, "is_reserved": 0, "is_disabled": 0, "type": "electric_scooter", "bike_id": "7392404050ac05c0b795291022efdf39"}, {"lon": -77.03282366666667, "lat": 38.93758483333333, "name": "5ca08da36d5c44a873d6f5bcf71bbfd3", "fusion_lat": 0.0, "fusion_lon": 0.0, "rental_uris": {"android": "https://dc.lft.to/lastmile_qr_scan", "ios": "https://dc.lft.to/lastmile_qr_scan"}, "is_reserved": 0, "is_disabled": 0, "type": "electric_scooter", "bike_id": "5ca08da36d5c44a873d6f5bcf71bbfd3"}, {"lon": -76.99126283333334, "lat": 38.90016516666667, "name": "593e7202d9f3018703c774e0d600890b", "fusion_lat": 0.0, "fusion_lon": 0.0, "rental_uris": {"android": "https://dc.lft.to/lastmile_qr_scan", "ios": "https://dc.lft.to/lastmile_qr_scan"}, "is_reserved": 0, "is_disabled": 0, "type": "electric_scooter", "bike_id": "593e7202d9f3018703c774e0d600890b"}, {"lon": -77.03897283333333, "lat": 38.91712, "name": "444d54d04e675c1d9e183b58d5b24035", "fusion_lat": 0.0, "fusion_lon": 0.0, "rental_uris": {"android": "https://dc.lft.to/lastmile_qr_scan", "ios": "https://dc.lft.to/lastmile_qr_scan"}, "is_reserved": 0, "is_disabled": 0, "type": "electric_scooter", "bike_id": "444d54d04e675c1d9e183b58d5b24035"}, {"lon": -77.01815433333333, "lat": 38.91194183333333, "name": "bcfd4e29313e97ebd142a079e85c7ba7", "fusion_lat": 0.0, "fusion_lon": 0.0, "rental_uris": {"android": "https://dc.lft.to/lastmile_qr_scan", "ios": "https://dc.lft.to/lastmile_qr_scan"}, "is_reserved": 0, "is_disabled": 0, "type": "electric_scooter", "bike_id": "bcfd4e29313e97ebd142a079e85c7ba7"}, {"lon": -77.0442735, "lat": 38.93285183333333, "name": "0bbba78fc1d1d43eebc58e21a2b6e62a", "fusion_lat": 0.0, "fusion_lon": 0.0, "rental_uris": {"android": "https://dc.lft.to/lastmile_qr_scan", "ios": "https://dc.lft.to/lastmile_qr_scan"}, "is_reserved": 0, "is_disabled": 0, "type": "electric_scooter", "bike_id": "0bbba78fc1d1d43eebc58e21a2b6e62a"}, {"lon": -77.0730275, "lat": 38.906659166666664, "name": "a05a17b4d3ed3f7e5966e9407a1b9dde", "fusion_lat": 0.0, "fusion_lon": 0.0, "rental_uris": {"android": "https://dc.lft.to/lastmile_qr_scan", "ios": "https://dc.lft.to/lastmile_qr_scan"}, "is_reserved": 0, "is_disabled": 0, "type": "electric_scooter", "bike_id": "a05a17b4d3ed3f7e5966e9407a1b9dde"}, {"lon": -77.100251, "lat": 38.990663166666664, "name": "daf88d860b28568c782bfdd369f4e78b", "fusion_lat": 0.0, "fusion_lon": 0.0, "rental_uris": {"android": "https://dc.lft.to/lastmile_qr_scan", "ios": "https://dc.lft.to/lastmile_qr_scan"}, "is_reserved": 0, "is_disabled": 0, "type": "electric_bike", "bike_id": "daf88d860b28568c782bfdd369f4e78b"}, {"lon": -77.04184316666667, "lat": 38.920547166666665, "name": "55c0d8bfb4efd87b6f1b66946e1b218c", "fusion_lat": 0.0, "fusion_lon": 0.0, "rental_uris": {"android": "https://dc.lft.to/lastmile_qr_scan", "ios": "https://dc.lft.to/lastmile_qr_scan"}, "is_reserved": 0, "is_disabled": 0, "type": "electric_scooter", "bike_id": "55c0d8bfb4efd87b6f1b66946e1b218c"}, {"lon": -76.946537, "lat": 38.898267833333335, "name": "217ef2d61e51189b5c6e9b5e650344ee", "fusion_lat": 0.0, "fusion_lon": 0.0, "rental_uris": {"android": "https://dc.lft.to/lastmile_qr_scan", "ios": "https://dc.lft.to/lastmile_qr_scan"}, "is_reserved": 0, "is_disabled": 0, "type": "electric_scooter", "bike_id": "217ef2d61e51189b5c6e9b5e650344ee"}, {"lon": -77.016051, "lat": 38.917581, "name": "56c87a31d1b6afe0b4770c068120decc", "fusion_lat": 0.0, "fusion_lon": 0.0, "rental_uris": {"android": "https://dc.lft.to/lastmile_qr_scan", "ios": "https://dc.lft.to/lastmile_qr_scan"}, "is_reserved": 0, "is_disabled": 0, "type": "electric_scooter", "bike_id": "56c87a31d1b6afe0b4770c068120decc"}, {"lon": -77.04904016666667, "lat": 38.87497233333333, "name": "e2d26856b962140c19098df342e07352", "fusion_lat": 0.0, "fusion_lon": 0.0, "rental_uris": {"android": "https://dc.lft.to/lastmile_qr_scan", "ios": "https://dc.lft.to/lastmile_qr_scan"}, "is_reserved": 0, "is_disabled": 0, "type": "electric_bike", "bike_id": "e2d26856b962140c19098df342e07352"}, {"lon": -77.04095166666667, "lat": 38.912573333333334, "name": "c67d252bd07264beb48692f28273356a", "fusion_lat": 0.0, "fusion_lon": 0.0, "rental_uris": {"android": "https://dc.lft.to/lastmile_qr_scan", "ios": "https://dc.lft.to/lastmile_qr_scan"}, "is_reserved": 0, "is_disabled": 0, "type": "electric_scooter", "bike_id": "c67d252bd07264beb48692f28273356a"}, {"lon": -77.0214015, "lat": 38.924881166666665, "name": "2ce9fffce7762e100fbfbc6e0b981b94", "fusion_lat": 0.0, "fusion_lon": 0.0, "rental_uris": {"android": "https://dc.lft.to/lastmile_qr_scan", "ios": "https://dc.lft.to/lastmile_qr_scan"}, "is_reserved": 0, "is_disabled": 0, "type": "electric_scooter", "bike_id": "2ce9fffce7762e100fbfbc6e0b981b94"}, {"lon": -77.024862, "lat": 38.938828, "name": "59ee78875118b33d4b43b34598dff0b8", "fusion_lat": 0.0, "fusion_lon": 0.0, "rental_uris": {"android": "https://dc.lft.to/lastmile_qr_scan", "ios": "https://dc.lft.to/lastmile_qr_scan"}, "is_reserved": 0, "is_disabled": 0, "type": "electric_scooter", "bike_id": "59ee78875118b33d4b43b34598dff0b8"}, {"lon": -77.028075, "lat": 38.9237745, "name": "5edb82b51f5a7db7d492a06843fbdf78", "fusion_lat": 0.0, "fusion_lon": 0.0, "rental_uris": {"android": "https://dc.lft.to/lastmile_qr_scan", "ios": "https://dc.lft.to/lastmile_qr_scan"}, "is_reserved": 0, "is_disabled": 0, "type": "electric_scooter", "bike_id": "5edb82b51f5a7db7d492a06843fbdf78"}, {"lon": -77.04996183333333, "lat": 38.90124133333333, "name": "ee36e75e7823843351b2a69b0c4b7487", "fusion_lat": 0.0, "fusion_lon": 0.0, "rental_uris": {"android": "https://dc.lft.to/lastmile_qr_scan", "ios": "https://dc.lft.to/lastmile_qr_scan"}, "is_reserved": 0, "is_disabled": 0, "type": "electric_scooter", "bike_id": "ee36e75e7823843351b2a69b0c4b7487"}, {"lon": -77.0370815, "lat": 38.92787583333333, "name": "2e59d5fd3fe55327c25dca021536adb9", "fusion_lat": 0.0, "fusion_lon": 0.0, "rental_uris": {"android": "https://dc.lft.to/lastmile_qr_scan", "ios": "https://dc.lft.to/lastmile_qr_scan"}, "is_reserved": 0, "is_disabled": 0, "type": "electric_scooter", "bike_id": "2e59d5fd3fe55327c25dca021536adb9"}, {"lon": -77.00557066666667, "lat": 38.9071425, "name": "7ceb400b59fc9585cda5aa8932337f7f", "fusion_lat": 0.0, "fusion_lon": 0.0, "rental_uris": {"android": "https://dc.lft.to/lastmile_qr_scan", "ios": "https://dc.lft.to/lastmile_qr_scan"}, "is_reserved": 0, "is_disabled": 0, "type": "electric_scooter", "bike_id": "7ceb400b59fc9585cda5aa8932337f7f"}, {"lon": -76.98568883333333, "lat": 38.898863, "name": "74985c9837324f4f9c869213b1d32711", "fusion_lat": 0.0, "fusion_lon": 0.0, "rental_uris": {"android": "https://dc.lft.to/lastmile_qr_scan", "ios": "https://dc.lft.to/lastmile_qr_scan"}, "is_reserved": 0, "is_disabled": 0, "type": "electric_scooter", "bike_id": "74985c9837324f4f9c869213b1d32711"}, {"lon": -77.026042, "lat": 38.9042875, "name": "4158d841d1d146e9b8775d879537080a", "fusion_lat": 0.0, "fusion_lon": 0.0, "rental_uris": {"android": "https://dc.lft.to/lastmile_qr_scan", "ios": "https://dc.lft.to/lastmile_qr_scan"}, "is_reserved": 0, "is_disabled": 0, "type": "electric_scooter", "bike_id": "4158d841d1d146e9b8775d879537080a"}, {"lon": -77.03164866666667, "lat": 38.905324666666665, "name": "42f0a233590df672a203f1ef24e6645f", "fusion_lat": 0.0, "fusion_lon": 0.0, "rental_uris": {"android": "https://dc.lft.to/lastmile_qr_scan", "ios": "https://dc.lft.to/lastmile_qr_scan"}, "is_reserved": 0, "is_disabled": 0, "type": "electric_scooter", "bike_id": "42f0a233590df672a203f1ef24e6645f"}, {"lon": -77.04867433333334, "lat": 38.91960016666667, "name": "12901ceef5704807b09a3be79f970cae", "fusion_lat": 0.0, "fusion_lon": 0.0, "rental_uris": {"android": "https://dc.lft.to/lastmile_qr_scan", "ios": "https://dc.lft.to/lastmile_qr_scan"}, "is_reserved": 0, "is_disabled": 0, "type": "electric_scooter", "bike_id": "12901ceef5704807b09a3be79f970cae"}, {"lon": -77.00287033333333, "lat": 38.9148815, "name": "9db67e84ee1c27193d7a10cb7ec9b6e0", "fusion_lat": 0.0, "fusion_lon": 0.0, "rental_uris": {"android": "https://dc.lft.to/lastmile_qr_scan", "ios": "https://dc.lft.to/lastmile_qr_scan"}, "is_reserved": 0, "is_disabled": 0, "type": "electric_scooter", "bike_id": "9db67e84ee1c27193d7a10cb7ec9b6e0"}, {"lon": -77.02774066666667, "lat": 38.894752, "name": "b8513047c7deb6895d0b4dd38b97b522", "fusion_lat": 0.0, "fusion_lon": 0.0, "rental_uris": {"android": "https://dc.lft.to/lastmile_qr_scan", "ios": "https://dc.lft.to/lastmile_qr_scan"}, "is_reserved": 0, "is_disabled": 0, "type": "electric_scooter", "bike_id": "b8513047c7deb6895d0b4dd38b97b522"}, {"lon": -76.93353816666666, "lat": 38.899009, "name": "b9cdc6dd2939b4a31f2b449dc6660187", "fusion_lat": 0.0, "fusion_lon": 0.0, "rental_uris": {"android": "https://dc.lft.to/lastmile_qr_scan", "ios": "https://dc.lft.to/lastmile_qr_scan"}, "is_reserved": 0, "is_disabled": 0, "type": "electric_scooter", "bike_id": "b9cdc6dd2939b4a31f2b449dc6660187"}, {"lon": -77.0254675, "lat": 38.89230116666667, "name": "1760ca6621841e5820a236b940ec18c9", "fusion_lat": 0.0, "fusion_lon": 0.0, "rental_uris": {"android": "https://dc.lft.to/lastmile_qr_scan", "ios": "https://dc.lft.to/lastmile_qr_scan"}, "is_reserved": 0, "is_disabled": 0, "type": "electric_scooter", "bike_id": "1760ca6621841e5820a236b940ec18c9"}, {"lon": -76.99530533333333, "lat": 38.90027033333333, "name": "a642dde909b13eefab4caa58eb8411a0", "fusion_lat": 0.0, "fusion_lon": 0.0, "rental_uris": {"android": "https://dc.lft.to/lastmile_qr_scan", "ios": "https://dc.lft.to/lastmile_qr_scan"}, "is_reserved": 0, "is_disabled": 0, "type": "electric_scooter", "bike_id": "a642dde909b13eefab4caa58eb8411a0"}, {"lon": -76.991766, "lat": 38.905053333333335, "name": "6a2552ef5578aa1a5c8d774356c5e4b1", "fusion_lat": 0.0, "fusion_lon": 0.0, "rental_uris": {"android": "https://dc.lft.to/lastmile_qr_scan", "ios": "https://dc.lft.to/lastmile_qr_scan"}, "is_reserved": 0, "is_disabled": 0, "type": "electric_scooter", "bike_id": "6a2552ef5578aa1a5c8d774356c5e4b1"}, {"lon": -77.03205816666667, "lat": 38.90792716666667, "name": "ddf472906a0ea01f7deaa4893877b21d", "fusion_lat": 0.0, "fusion_lon": 0.0, "rental_uris": {"android": "https://dc.lft.to/lastmile_qr_scan", "ios": "https://dc.lft.to/lastmile_qr_scan"}, "is_reserved": 0, "is_disabled": 0, "type": "electric_scooter", "bike_id": "ddf472906a0ea01f7deaa4893877b21d"}, {"lon": -76.99018883333333, "lat": 38.85869233333333, "name": "44aa27f215b8c3e0fd3985b6d25c4c94", "fusion_lat": 0.0, "fusion_lon": 0.0, "rental_uris": {"android": "https://dc.lft.to/lastmile_qr_scan", "ios": "https://dc.lft.to/lastmile_qr_scan"}, "is_reserved": 0, "is_disabled": 0, "type": "electric_scooter", "bike_id": "44aa27f215b8c3e0fd3985b6d25c4c94"}, {"lon": -77.04318716666667, "lat": 38.90345033333333, "name": "1ce3140ab27acf9bc13fbd640a200d15", "fusion_lat": 0.0, "fusion_lon": 0.0, "rental_uris": {"android": "https://dc.lft.to/lastmile_qr_scan", "ios": "https://dc.lft.to/lastmile_qr_scan"}, "is_reserved": 0, "is_disabled": 0, "type": "electric_scooter", "bike_id": "1ce3140ab27acf9bc13fbd640a200d15"}, {"lon": -77.021965, "lat": 38.93130216666667, "name": "544aacf525a870ecbb7e64960cbe1589", "fusion_lat": 0.0, "fusion_lon": 0.0, "rental_uris": {"android": "https://dc.lft.to/lastmile_qr_scan", "ios": "https://dc.lft.to/lastmile_qr_scan"}, "is_reserved": 0, "is_disabled": 0, "type": "electric_scooter", "bike_id": "544aacf525a870ecbb7e64960cbe1589"}, {"lon": -77.01846783333333, "lat": 38.908843166666664, "name": "b4608d35eb07076bb5cbb4ac1d943506", "fusion_lat": 0.0, "fusion_lon": 0.0, "rental_uris": {"android": "https://dc.lft.to/lastmile_qr_scan", "ios": "https://dc.lft.to/lastmile_qr_scan"}, "is_reserved": 0, "is_disabled": 0, "type": "electric_scooter", "bike_id": "b4608d35eb07076bb5cbb4ac1d943506"}, {"lon": -77.04232316666666, "lat": 38.938696, "name": "ef045420c838dff313a197e32997a499", "fusion_lat": 0.0, "fusion_lon": 0.0, "rental_uris": {"android": "https://dc.lft.to/lastmile_qr_scan", "ios": "https://dc.lft.to/lastmile_qr_scan"}, "is_reserved": 0, "is_disabled": 0, "type": "electric_bike", "bike_id": "ef045420c838dff313a197e32997a499"}, {"lon": -76.98264883333333, "lat": 38.86355433333333, "name": "60e07f35c54c309366053e4dbaab6f0b", "fusion_lat": 0.0, "fusion_lon": 0.0, "rental_uris": {"android": "https://dc.lft.to/lastmile_qr_scan", "ios": "https://dc.lft.to/lastmile_qr_scan"}, "is_reserved": 0, "is_disabled": 0, "type": "electric_scooter", "bike_id": "60e07f35c54c309366053e4dbaab6f0b"}, {"lon": -77.03006466666666, "lat": 38.914145166666664, "name": "21e0307e3aa39fafab67ed88f004f808", "fusion_lat": 0.0, "fusion_lon": 0.0, "rental_uris": {"android": "https://dc.lft.to/lastmile_qr_scan", "ios": "https://dc.lft.to/lastmile_qr_scan"}, "is_reserved": 0, "is_disabled": 0, "type": "electric_scooter", "bike_id": "21e0307e3aa39fafab67ed88f004f808"}, {"lon": -77.0324175, "lat": 38.91566233333333, "name": "974eec6d27e21f20850b50b45ca9965a", "fusion_lat": 0.0, "fusion_lon": 0.0, "rental_uris": {"android": "https://dc.lft.to/lastmile_qr_scan", "ios": "https://dc.lft.to/lastmile_qr_scan"}, "is_reserved": 0, "is_disabled": 0, "type": "electric_scooter", "bike_id": "974eec6d27e21f20850b50b45ca9965a"}, {"lon": -77.032619, "lat": 38.93820016666667, "name": "ceb87540817306ba8f06e7a01d4887d8", "fusion_lat": 0.0, "fusion_lon": 0.0, "rental_uris": {"android": "https://dc.lft.to/lastmile_qr_scan", "ios": "https://dc.lft.to/lastmile_qr_scan"}, "is_reserved": 0, "is_disabled": 0, "type": "electric_scooter", "bike_id": "ceb87540817306ba8f06e7a01d4887d8"}, {"lon": -76.99748833333334, "lat": 38.92254366666667, "name": "f3ac28e52eb87fda645072f488f66c21", "fusion_lat": 0.0, "fusion_lon": 0.0, "rental_uris": {"android": "https://dc.lft.to/lastmile_qr_scan", "ios": "https://dc.lft.to/lastmile_qr_scan"}, "is_reserved": 0, "is_disabled": 0, "type": "electric_scooter", "bike_id": "f3ac28e52eb87fda645072f488f66c21"}, {"lon": -76.99034733333333, "lat": 38.89855166666667, "name": "094f1b19ecb7518e6c848b2930152523", "fusion_lat": 0.0, "fusion_lon": 0.0, "rental_uris": {"android": "https://dc.lft.to/lastmile_qr_scan", "ios": "https://dc.lft.to/lastmile_qr_scan"}, "is_reserved": 0, "is_disabled": 0, "type": "electric_scooter", "bike_id": "094f1b19ecb7518e6c848b2930152523"}, {"lon": -76.97559083333333, "lat": 38.9245905, "name": "e766c4c82c00e54781f4c384ddc8d4d2", "fusion_lat": 0.0, "fusion_lon": 0.0, "rental_uris": {"android": "https://dc.lft.to/lastmile_qr_scan", "ios": "https://dc.lft.to/lastmile_qr_scan"}, "is_reserved": 0, "is_disabled": 0, "type": "electric_bike", "bike_id": "e766c4c82c00e54781f4c384ddc8d4d2"}, {"lon": -77.01659816666667, "lat": 38.953289, "name": "56fd3179f6c0cf3814b20eac030b2591", "fusion_lat": 0.0, "fusion_lon": 0.0, "rental_uris": {"android": "https://dc.lft.to/lastmile_qr_scan", "ios": "https://dc.lft.to/lastmile_qr_scan"}, "is_reserved": 0, "is_disabled": 0, "type": "electric_scooter", "bike_id": "56fd3179f6c0cf3814b20eac030b2591"}, {"lon": -76.99411516666666, "lat": 38.92288, "name": "7cdbc941b029190abe55f2af124802ea", "fusion_lat": 0.0, "fusion_lon": 0.0, "rental_uris": {"android": "https://dc.lft.to/lastmile_qr_scan", "ios": "https://dc.lft.to/lastmile_qr_scan"}, "is_reserved": 0, "is_disabled": 0, "type": "electric_scooter", "bike_id": "7cdbc941b029190abe55f2af124802ea"}, {"lon": -77.03835583333333, "lat": 38.902755666666664, "name": "cc29bc183379b1b11f114ad2f19dfbcf", "fusion_lat": 0.0, "fusion_lon": 0.0, "rental_uris": {"android": "https://dc.lft.to/lastmile_qr_scan", "ios": "https://dc.lft.to/lastmile_qr_scan"}, "is_reserved": 0, "is_disabled": 0, "type": "electric_scooter", "bike_id": "cc29bc183379b1b11f114ad2f19dfbcf"}, {"lon": -76.98855983333333, "lat": 38.900120333333334, "name": "97885b9fa647675783b4fcfb9df9a5a1", "fusion_lat": 0.0, "fusion_lon": 0.0, "rental_uris": {"android": "https://dc.lft.to/lastmile_qr_scan", "ios": "https://dc.lft.to/lastmile_qr_scan"}, "is_reserved": 0, "is_disabled": 0, "type": "electric_scooter", "bike_id": "97885b9fa647675783b4fcfb9df9a5a1"}, {"lon": -76.96524266666667, "lat": 38.874855333333336, "name": "966c1e4983c56a917b37846d7e48d236", "fusion_lat": 0.0, "fusion_lon": 0.0, "rental_uris": {"android": "https://dc.lft.to/lastmile_qr_scan", "ios": "https://dc.lft.to/lastmile_qr_scan"}, "is_reserved": 0, "is_disabled": 0, "type": "electric_scooter", "bike_id": "966c1e4983c56a917b37846d7e48d236"}, {"lon": -77.038481, "lat": 38.912168, "name": "a0f3e426eb198e3196ba1e2428485a5a", "fusion_lat": 0.0, "fusion_lon": 0.0, "rental_uris": {"android": "https://dc.lft.to/lastmile_qr_scan", "ios": "https://dc.lft.to/lastmile_qr_scan"}, "is_reserved": 0, "is_disabled": 0, "type": "electric_scooter", "bike_id": "a0f3e426eb198e3196ba1e2428485a5a"}, {"lon": -77.02712983333333, "lat": 38.950003833333334, "name": "636837bbc8b9731fb23385ea279e6330", "fusion_lat": 0.0, "fusion_lon": 0.0, "rental_uris": {"android": "https://dc.lft.to/lastmile_qr_scan", "ios": "https://dc.lft.to/lastmile_qr_scan"}, "is_reserved": 0, "is_disabled": 0, "type": "electric_scooter", "bike_id": "636837bbc8b9731fb23385ea279e6330"}, {"lon": -77.0124705, "lat": 38.908644333333335, "name": "4c63ac3a29fc535681f086e7bc54b9d0", "fusion_lat": 0.0, "fusion_lon": 0.0, "rental_uris": {"android": "https://dc.lft.to/lastmile_qr_scan", "ios": "https://dc.lft.to/lastmile_qr_scan"}, "is_reserved": 0, "is_disabled": 0, "type": "electric_scooter", "bike_id": "4c63ac3a29fc535681f086e7bc54b9d0"}, {"lon": -77.03274933333333, "lat": 38.933252833333334, "name": "cc8682b2cea4e7accb34c1b757232e42", "fusion_lat": 0.0, "fusion_lon": 0.0, "rental_uris": {"android": "https://dc.lft.to/lastmile_qr_scan", "ios": "https://dc.lft.to/lastmile_qr_scan"}, "is_reserved": 0, "is_disabled": 0, "type": "electric_scooter", "bike_id": "cc8682b2cea4e7accb34c1b757232e42"}, {"lon": -77.01447316666666, "lat": 38.9119925, "name": "ce3c4c6c090882d87b2f16cfc06941fd", "fusion_lat": 0.0, "fusion_lon": 0.0, "rental_uris": {"android": "https://dc.lft.to/lastmile_qr_scan", "ios": "https://dc.lft.to/lastmile_qr_scan"}, "is_reserved": 0, "is_disabled": 0, "type": "electric_scooter", "bike_id": "ce3c4c6c090882d87b2f16cfc06941fd"}, {"lon": -77.018092, "lat": 38.914379, "name": "ecfe4a955d32991330d05aa4f1775421", "fusion_lat": 0.0, "fusion_lon": 0.0, "rental_uris": {"android": "https://dc.lft.to/lastmile_qr_scan", "ios": "https://dc.lft.to/lastmile_qr_scan"}, "is_reserved": 0, "is_disabled": 0, "type": "electric_scooter", "bike_id": "ecfe4a955d32991330d05aa4f1775421"}, {"lon": -77.03508233333334, "lat": 38.92148183333333, "name": "600bb2f086ccba6ebe14c45f465eabb4", "fusion_lat": 0.0, "fusion_lon": 0.0, "rental_uris": {"android": "https://dc.lft.to/lastmile_qr_scan", "ios": "https://dc.lft.to/lastmile_qr_scan"}, "is_reserved": 0, "is_disabled": 0, "type": "electric_scooter", "bike_id": "600bb2f086ccba6ebe14c45f465eabb4"}, {"lon": -77.01345166666667, "lat": 38.919465833333334, "name": "12ac60064604c8aa0f6008c31ef6c235", "fusion_lat": 0.0, "fusion_lon": 0.0, "rental_uris": {"android": "https://dc.lft.to/lastmile_qr_scan", "ios": "https://dc.lft.to/lastmile_qr_scan"}, "is_reserved": 0, "is_disabled": 0, "type": "electric_scooter", "bike_id": "12ac60064604c8aa0f6008c31ef6c235"}, {"lon": -77.02179833333334, "lat": 38.892525, "name": "47b850a16a2eab6faa0b397de4f90428", "fusion_lat": 0.0, "fusion_lon": 0.0, "rental_uris": {"android": "https://dc.lft.to/lastmile_qr_scan", "ios": "https://dc.lft.to/lastmile_qr_scan"}, "is_reserved": 0, "is_disabled": 0, "type": "electric_scooter", "bike_id": "47b850a16a2eab6faa0b397de4f90428"}, {"lon": -77.06285333333334, "lat": 38.9068605, "name": "dff08ee3659df24523e0d70a39193900", "fusion_lat": 0.0, "fusion_lon": 0.0, "rental_uris": {"android": "https://dc.lft.to/lastmile_qr_scan", "ios": "https://dc.lft.to/lastmile_qr_scan"}, "is_reserved": 0, "is_disabled": 0, "type": "electric_scooter", "bike_id": "dff08ee3659df24523e0d70a39193900"}, {"lon": -77.023711, "lat": 38.91908683333333, "name": "3fd5d19e021958e72d660096e04b5b02", "fusion_lat": 0.0, "fusion_lon": 0.0, "rental_uris": {"android": "https://dc.lft.to/lastmile_qr_scan", "ios": "https://dc.lft.to/lastmile_qr_scan"}, "is_reserved": 0, "is_disabled": 0, "type": "electric_scooter", "bike_id": "3fd5d19e021958e72d660096e04b5b02"}, {"lon": -77.009197, "lat": 38.910204666666665, "name": "b7df5cfee2fe36eb2366ec7f788c93b8", "fusion_lat": 0.0, "fusion_lon": 0.0, "rental_uris": {"android": "https://dc.lft.to/lastmile_qr_scan", "ios": "https://dc.lft.to/lastmile_qr_scan"}, "is_reserved": 0, "is_disabled": 0, "type": "electric_scooter", "bike_id": "b7df5cfee2fe36eb2366ec7f788c93b8"}, {"lon": -76.973503, "lat": 38.865133666666665, "name": "2cbde3208cba25ca13f4a3017c23bc22", "fusion_lat": 0.0, "fusion_lon": 0.0, "rental_uris": {"android": "https://dc.lft.to/lastmile_qr_scan", "ios": "https://dc.lft.to/lastmile_qr_scan"}, "is_reserved": 0, "is_disabled": 0, "type": "electric_scooter", "bike_id": "2cbde3208cba25ca13f4a3017c23bc22"}, {"lon": -76.92402116666666, "lat": 38.889885666666665, "name": "8d7bdb1517d59dad22dd8f3c7f80482f", "fusion_lat": 0.0, "fusion_lon": 0.0, "rental_uris": {"android": "https://dc.lft.to/lastmile_qr_scan", "ios": "https://dc.lft.to/lastmile_qr_scan"}, "is_reserved": 0, "is_disabled": 0, "type": "electric_scooter", "bike_id": "8d7bdb1517d59dad22dd8f3c7f80482f"}, {"lon": -76.991641, "lat": 38.879233166666666, "name": "cdc8710dfe2f0fb30b881e2f53b64352", "fusion_lat": 0.0, "fusion_lon": 0.0, "rental_uris": {"android": "https://dc.lft.to/lastmile_qr_scan", "ios": "https://dc.lft.to/lastmile_qr_scan"}, "is_reserved": 0, "is_disabled": 0, "type": "electric_scooter", "bike_id": "cdc8710dfe2f0fb30b881e2f53b64352"}, {"lon": -77.04517933333334, "lat": 38.9078725, "name": "2a28b8a86fca89b07a2fd0f77991ef06", "fusion_lat": 0.0, "fusion_lon": 0.0, "rental_uris": {"android": "https://dc.lft.to/lastmile_qr_scan", "ios": "https://dc.lft.to/lastmile_qr_scan"}, "is_reserved": 0, "is_disabled": 0, "type": "electric_scooter", "bike_id": "2a28b8a86fca89b07a2fd0f77991ef06"}, {"lon": -77.02965133333333, "lat": 38.89320433333334, "name": "32bcf6940ffd44cae7811f4c2bd7da21", "fusion_lat": 0.0, "fusion_lon": 0.0, "rental_uris": {"android": "https://dc.lft.to/lastmile_qr_scan", "ios": "https://dc.lft.to/lastmile_qr_scan"}, "is_reserved": 0, "is_disabled": 0, "type": "electric_scooter", "bike_id": "32bcf6940ffd44cae7811f4c2bd7da21"}, {"lon": -77.03361183333334, "lat": 38.921631833333336, "name": "aae44b58f3f613077a7205cd11b3b2bd", "fusion_lat": 0.0, "fusion_lon": 0.0, "rental_uris": {"android": "https://dc.lft.to/lastmile_qr_scan", "ios": "https://dc.lft.to/lastmile_qr_scan"}, "is_reserved": 0, "is_disabled": 0, "type": "electric_scooter", "bike_id": "aae44b58f3f613077a7205cd11b3b2bd"}, {"lon": -77.03285483333333, "lat": 38.93797566666667, "name": "99e496aab8db3c25b7ebb96f1329f5ba", "fusion_lat": 0.0, "fusion_lon": 0.0, "rental_uris": {"android": "https://dc.lft.to/lastmile_qr_scan", "ios": "https://dc.lft.to/lastmile_qr_scan"}, "is_reserved": 0, "is_disabled": 0, "type": "electric_scooter", "bike_id": "99e496aab8db3c25b7ebb96f1329f5ba"}, {"lon": -76.981209, "lat": 38.89202983333333, "name": "80d88625afccf24f12e37f4b02531ee3", "fusion_lat": 0.0, "fusion_lon": 0.0, "rental_uris": {"android": "https://dc.lft.to/lastmile_qr_scan", "ios": "https://dc.lft.to/lastmile_qr_scan"}, "is_reserved": 0, "is_disabled": 0, "type": "electric_scooter", "bike_id": "80d88625afccf24f12e37f4b02531ee3"}, {"lon": -77.032645, "lat": 38.93091866666666, "name": "2b4a12a65a569fd861e7d7a2dc8a3ab4", "fusion_lat": 0.0, "fusion_lon": 0.0, "rental_uris": {"android": "https://dc.lft.to/lastmile_qr_scan", "ios": "https://dc.lft.to/lastmile_qr_scan"}, "is_reserved": 0, "is_disabled": 0, "type": "electric_scooter", "bike_id": "2b4a12a65a569fd861e7d7a2dc8a3ab4"}, {"lon": -76.95518033333333, "lat": 38.89055883333333, "name": "2d71031c1f164d73bd90a2a15dd87260", "fusion_lat": 0.0, "fusion_lon": 0.0, "rental_uris": {"android": "https://dc.lft.to/lastmile_qr_scan", "ios": "https://dc.lft.to/lastmile_qr_scan"}, "is_reserved": 0, "is_disabled": 0, "type": "electric_scooter", "bike_id": "2d71031c1f164d73bd90a2a15dd87260"}, {"lon": -77.00380383333334, "lat": 38.89470683333333, "name": "8b2ae2af3aea58d102cdae8d8747f18f", "fusion_lat": 0.0, "fusion_lon": 0.0, "rental_uris": {"android": "https://dc.lft.to/lastmile_qr_scan", "ios": "https://dc.lft.to/lastmile_qr_scan"}, "is_reserved": 0, "is_disabled": 0, "type": "electric_bike", "bike_id": "8b2ae2af3aea58d102cdae8d8747f18f"}, {"lon": -77.03870833333333, "lat": 38.909698, "name": "d718f7dd65d3fbe5ff690111e84a6dde", "fusion_lat": 0.0, "fusion_lon": 0.0, "rental_uris": {"android": "https://dc.lft.to/lastmile_qr_scan", "ios": "https://dc.lft.to/lastmile_qr_scan"}, "is_reserved": 0, "is_disabled": 0, "type": "electric_scooter", "bike_id": "d718f7dd65d3fbe5ff690111e84a6dde"}, {"lon": -77.03438866666667, "lat": 38.907444166666664, "name": "831cbe233738100c1fe0564bcd7c6e05", "fusion_lat": 0.0, "fusion_lon": 0.0, "rental_uris": {"android": "https://dc.lft.to/lastmile_qr_scan", "ios": "https://dc.lft.to/lastmile_qr_scan"}, "is_reserved": 0, "is_disabled": 0, "type": "electric_scooter", "bike_id": "831cbe233738100c1fe0564bcd7c6e05"}, {"lon": -77.07659283333334, "lat": 38.9062855, "name": "d1d4ae6f0fd24f96e6b819f72354898d", "fusion_lat": 0.0, "fusion_lon": 0.0, "rental_uris": {"android": "https://dc.lft.to/lastmile_qr_scan", "ios": "https://dc.lft.to/lastmile_qr_scan"}, "is_reserved": 0, "is_disabled": 0, "type": "electric_scooter", "bike_id": "d1d4ae6f0fd24f96e6b819f72354898d"}, {"lon": -76.93616466666667, "lat": 38.97064566666667, "name": "e8d125efaac77e31ccae4c0371a5367f", "fusion_lat": 0.0, "fusion_lon": 0.0, "rental_uris": {"android": "https://dc.lft.to/lastmile_qr_scan", "ios": "https://dc.lft.to/lastmile_qr_scan"}, "is_reserved": 0, "is_disabled": 0, "type": "electric_bike", "bike_id": "e8d125efaac77e31ccae4c0371a5367f"}, {"lon": -77.0367235, "lat": 38.912569833333336, "name": "89bf2e6944a52179f8265f648034b7ad", "fusion_lat": 0.0, "fusion_lon": 0.0, "rental_uris": {"android": "https://dc.lft.to/lastmile_qr_scan", "ios": "https://dc.lft.to/lastmile_qr_scan"}, "is_reserved": 0, "is_disabled": 0, "type": "electric_scooter", "bike_id": "89bf2e6944a52179f8265f648034b7ad"}, {"lon": -77.0423035, "lat": 38.91109483333334, "name": "636b165865b2dab53957e5e0b64f1870", "fusion_lat": 0.0, "fusion_lon": 0.0, "rental_uris": {"android": "https://dc.lft.to/lastmile_qr_scan", "ios": "https://dc.lft.to/lastmile_qr_scan"}, "is_reserved": 0, "is_disabled": 0, "type": "electric_scooter", "bike_id": "636b165865b2dab53957e5e0b64f1870"}, {"lon": -76.9856355, "lat": 38.8688905, "name": "dc4c4f1162e14e78da1fce618486d3b5", "fusion_lat": 0.0, "fusion_lon": 0.0, "rental_uris": {"android": "https://dc.lft.to/lastmile_qr_scan", "ios": "https://dc.lft.to/lastmile_qr_scan"}, "is_reserved": 0, "is_disabled": 0, "type": "electric_bike", "bike_id": "dc4c4f1162e14e78da1fce618486d3b5"}, {"lon": -77.03180016666667, "lat": 38.8939205, "name": "0d17205a7e2a02a2facc81bbbe2ccacb", "fusion_lat": 0.0, "fusion_lon": 0.0, "rental_uris": {"android": "https://dc.lft.to/lastmile_qr_scan", "ios": "https://dc.lft.to/lastmile_qr_scan"}, "is_reserved": 0, "is_disabled": 0, "type": "electric_scooter", "bike_id": "0d17205a7e2a02a2facc81bbbe2ccacb"}, {"lon": -77.021897, "lat": 38.911340333333335, "name": "e9dcc9b548ade97f556ec7ea93bcb135", "fusion_lat": 0.0, "fusion_lon": 0.0, "rental_uris": {"android": "https://dc.lft.to/lastmile_qr_scan", "ios": "https://dc.lft.to/lastmile_qr_scan"}, "is_reserved": 0, "is_disabled": 0, "type": "electric_scooter", "bike_id": "e9dcc9b548ade97f556ec7ea93bcb135"}, {"lon": -76.990627, "lat": 38.9041415, "name": "b64edffc73d237f6f8073585042ae9a7", "fusion_lat": 0.0, "fusion_lon": 0.0, "rental_uris": {"android": "https://dc.lft.to/lastmile_qr_scan", "ios": "https://dc.lft.to/lastmile_qr_scan"}, "is_reserved": 0, "is_disabled": 0, "type": "electric_scooter", "bike_id": "b64edffc73d237f6f8073585042ae9a7"}, {"lon": -77.01833933333333, "lat": 38.91345783333333, "name": "a0c8e74e99d86713ddbd84595a822070", "fusion_lat": 0.0, "fusion_lon": 0.0, "rental_uris": {"android": "https://dc.lft.to/lastmile_qr_scan", "ios": "https://dc.lft.to/lastmile_qr_scan"}, "is_reserved": 0, "is_disabled": 0, "type": "electric_scooter", "bike_id": "a0c8e74e99d86713ddbd84595a822070"}, {"lon": -77.02200633333334, "lat": 38.916947666666665, "name": "2d4add0097de1b37ec34b4761daffe0f", "fusion_lat": 0.0, "fusion_lon": 0.0, "rental_uris": {"android": "https://dc.lft.to/lastmile_qr_scan", "ios": "https://dc.lft.to/lastmile_qr_scan"}, "is_reserved": 0, "is_disabled": 0, "type": "electric_scooter", "bike_id": "2d4add0097de1b37ec34b4761daffe0f"}, {"lon": -76.99630733333333, "lat": 38.846194, "name": "519c35eef077fc363868db37ab10bc40", "fusion_lat": 0.0, "fusion_lon": 0.0, "rental_uris": {"android": "https://dc.lft.to/lastmile_qr_scan", "ios": "https://dc.lft.to/lastmile_qr_scan"}, "is_reserved": 0, "is_disabled": 0, "type": "electric_scooter", "bike_id": "519c35eef077fc363868db37ab10bc40"}, {"lon": -77.02569833333334, "lat": 38.938629, "name": "d42c742f0db8e0216ec1f457ee0045ff", "fusion_lat": 0.0, "fusion_lon": 0.0, "rental_uris": {"android": "https://dc.lft.to/lastmile_qr_scan", "ios": "https://dc.lft.to/lastmile_qr_scan"}, "is_reserved": 0, "is_disabled": 0, "type": "electric_scooter", "bike_id": "d42c742f0db8e0216ec1f457ee0045ff"}, {"lon": -77.04153366666667, "lat": 38.919202, "name": "90de0f2f161284b71db672221c0d8c0a", "fusion_lat": 0.0, "fusion_lon": 0.0, "rental_uris": {"android": "https://dc.lft.to/lastmile_qr_scan", "ios": "https://dc.lft.to/lastmile_qr_scan"}, "is_reserved": 0, "is_disabled": 0, "type": "electric_scooter", "bike_id": "90de0f2f161284b71db672221c0d8c0a"}, {"lon": -76.99869983333333, "lat": 38.90033866666667, "name": "52124ddf28de21c94387ccba544b2900", "fusion_lat": 0.0, "fusion_lon": 0.0, "rental_uris": {"android": "https://dc.lft.to/lastmile_qr_scan", "ios": "https://dc.lft.to/lastmile_qr_scan"}, "is_reserved": 0, "is_disabled": 0, "type": "electric_scooter", "bike_id": "52124ddf28de21c94387ccba544b2900"}, {"lon": -77.02482183333333, "lat": 38.938807, "name": "7e2f818fecc93623befbedb44864ea37", "fusion_lat": 0.0, "fusion_lon": 0.0, "rental_uris": {"android": "https://dc.lft.to/lastmile_qr_scan", "ios": "https://dc.lft.to/lastmile_qr_scan"}, "is_reserved": 0, "is_disabled": 0, "type": "electric_scooter", "bike_id": "7e2f818fecc93623befbedb44864ea37"}, {"lon": -77.0215195, "lat": 38.894051, "name": "9c7827cda2b66f7d93c4b64315c0736e", "fusion_lat": 0.0, "fusion_lon": 0.0, "rental_uris": {"android": "https://dc.lft.to/lastmile_qr_scan", "ios": "https://dc.lft.to/lastmile_qr_scan"}, "is_reserved": 0, "is_disabled": 0, "type": "electric_scooter", "bike_id": "9c7827cda2b66f7d93c4b64315c0736e"}, {"lon": -77.031751, "lat": 38.91924433333333, "name": "c7ef52ee3959cb4062bcf1b42c2bc275", "fusion_lat": 0.0, "fusion_lon": 0.0, "rental_uris": {"android": "https://dc.lft.to/lastmile_qr_scan", "ios": "https://dc.lft.to/lastmile_qr_scan"}, "is_reserved": 0, "is_disabled": 0, "type": "electric_scooter", "bike_id": "c7ef52ee3959cb4062bcf1b42c2bc275"}, {"lon": -76.99013633333334, "lat": 38.86113683333333, "name": "a571fe850520ac4eb90edf5ec02ac0f7", "fusion_lat": 0.0, "fusion_lon": 0.0, "rental_uris": {"android": "https://dc.lft.to/lastmile_qr_scan", "ios": "https://dc.lft.to/lastmile_qr_scan"}, "is_reserved": 0, "is_disabled": 0, "type": "electric_scooter", "bike_id": "a571fe850520ac4eb90edf5ec02ac0f7"}, {"lon": -77.016066, "lat": 38.909615, "name": "8e958e33a86a5289d245aac30e75b51e", "fusion_lat": 0.0, "fusion_lon": 0.0, "rental_uris": {"android": "https://dc.lft.to/lastmile_qr_scan", "ios": "https://dc.lft.to/lastmile_qr_scan"}, "is_reserved": 0, "is_disabled": 0, "type": "electric_scooter", "bike_id": "8e958e33a86a5289d245aac30e75b51e"}, {"lon": -77.03643466666666, "lat": 38.92411466666667, "name": "7d26dd05f9a8c96e5556e764a288a458", "fusion_lat": 0.0, "fusion_lon": 0.0, "rental_uris": {"android": "https://dc.lft.to/lastmile_qr_scan", "ios": "https://dc.lft.to/lastmile_qr_scan"}, "is_reserved": 0, "is_disabled": 0, "type": "electric_scooter", "bike_id": "7d26dd05f9a8c96e5556e764a288a458"}, {"lon": -76.94893533333334, "lat": 38.895264166666664, "name": "fad1b3c2c3f6f88c43748732fecf8d31", "fusion_lat": 0.0, "fusion_lon": 0.0, "rental_uris": {"android": "https://dc.lft.to/lastmile_qr_scan", "ios": "https://dc.lft.to/lastmile_qr_scan"}, "is_reserved": 0, "is_disabled": 0, "type": "electric_scooter", "bike_id": "fad1b3c2c3f6f88c43748732fecf8d31"}, {"lon": -77.00053516666667, "lat": 38.903635333333334, "name": "fbfd8f11bc471c1f9396adaea85aceff", "fusion_lat": 0.0, "fusion_lon": 0.0, "rental_uris": {"android": "https://dc.lft.to/lastmile_qr_scan", "ios": "https://dc.lft.to/lastmile_qr_scan"}, "is_reserved": 0, "is_disabled": 0, "type": "electric_scooter", "bike_id": "fbfd8f11bc471c1f9396adaea85aceff"}, {"lon": -77.01750533333333, "lat": 38.90253416666667, "name": "ed166c85397cc9f747ce31e0ca726b3f", "fusion_lat": 0.0, "fusion_lon": 0.0, "rental_uris": {"android": "https://dc.lft.to/lastmile_qr_scan", "ios": "https://dc.lft.to/lastmile_qr_scan"}, "is_reserved": 0, "is_disabled": 0, "type": "electric_scooter", "bike_id": "ed166c85397cc9f747ce31e0ca726b3f"}, {"lon": -76.9750605, "lat": 38.919373, "name": "9b557a41821bcf0fea10b85a470f4a02", "fusion_lat": 0.0, "fusion_lon": 0.0, "rental_uris": {"android": "https://dc.lft.to/lastmile_qr_scan", "ios": "https://dc.lft.to/lastmile_qr_scan"}, "is_reserved": 0, "is_disabled": 0, "type": "electric_bike", "bike_id": "9b557a41821bcf0fea10b85a470f4a02"}, {"lon": -77.03181083333334, "lat": 38.919097, "name": "aad1d8aa0ef56c98d20d18b7456dc98e", "fusion_lat": 0.0, "fusion_lon": 0.0, "rental_uris": {"android": "https://dc.lft.to/lastmile_qr_scan", "ios": "https://dc.lft.to/lastmile_qr_scan"}, "is_reserved": 0, "is_disabled": 0, "type": "electric_scooter", "bike_id": "aad1d8aa0ef56c98d20d18b7456dc98e"}, {"lon": -77.010731, "lat": 38.87118916666667, "name": "123f81cbd88142ac4c324863c16eb95d", "fusion_lat": 0.0, "fusion_lon": 0.0, "rental_uris": {"android": "https://dc.lft.to/lastmile_qr_scan", "ios": "https://dc.lft.to/lastmile_qr_scan"}, "is_reserved": 0, "is_disabled": 0, "type": "electric_scooter", "bike_id": "123f81cbd88142ac4c324863c16eb95d"}, {"lon": -77.083688, "lat": 38.80840933333333, "name": "b571ed94bb94903ca079107000e07f72", "fusion_lat": 0.0, "fusion_lon": 0.0, "rental_uris": {"android": "https://dc.lft.to/lastmile_qr_scan", "ios": "https://dc.lft.to/lastmile_qr_scan"}, "is_reserved": 0, "is_disabled": 0, "type": "electric_bike", "bike_id": "b571ed94bb94903ca079107000e07f72"}, {"lon": -76.9859995, "lat": 38.86097083333333, "name": "657493d0137e6af1aed134872e217d1e", "fusion_lat": 0.0, "fusion_lon": 0.0, "rental_uris": {"android": "https://dc.lft.to/lastmile_qr_scan", "ios": "https://dc.lft.to/lastmile_qr_scan"}, "is_reserved": 0, "is_disabled": 0, "type": "electric_scooter", "bike_id": "657493d0137e6af1aed134872e217d1e"}, {"lon": -77.00136333333333, "lat": 38.90019066666667, "name": "12a52ab673a031bbc86a200024987479", "fusion_lat": 0.0, "fusion_lon": 0.0, "rental_uris": {"android": "https://dc.lft.to/lastmile_qr_scan", "ios": "https://dc.lft.to/lastmile_qr_scan"}, "is_reserved": 0, "is_disabled": 0, "type": "electric_scooter", "bike_id": "12a52ab673a031bbc86a200024987479"}, {"lon": -77.03813566666666, "lat": 38.909787, "name": "ed96ec643be271971bf80b51652c0b53", "fusion_lat": 0.0, "fusion_lon": 0.0, "rental_uris": {"android": "https://dc.lft.to/lastmile_qr_scan", "ios": "https://dc.lft.to/lastmile_qr_scan"}, "is_reserved": 0, "is_disabled": 0, "type": "electric_scooter", "bike_id": "ed96ec643be271971bf80b51652c0b53"}, {"lon": -77.04585616666667, "lat": 38.91914216666667, "name": "2c8fb2a3340fe1f044af5a2faa541a34", "fusion_lat": 0.0, "fusion_lon": 0.0, "rental_uris": {"android": "https://dc.lft.to/lastmile_qr_scan", "ios": "https://dc.lft.to/lastmile_qr_scan"}, "is_reserved": 0, "is_disabled": 0, "type": "electric_scooter", "bike_id": "2c8fb2a3340fe1f044af5a2faa541a34"}, {"lon": -76.97562683333334, "lat": 38.90445416666667, "name": "1607de3b0d0601e31b8fd2ad973841fd", "fusion_lat": 0.0, "fusion_lon": 0.0, "rental_uris": {"android": "https://dc.lft.to/lastmile_qr_scan", "ios": "https://dc.lft.to/lastmile_qr_scan"}, "is_reserved": 0, "is_disabled": 0, "type": "electric_scooter", "bike_id": "1607de3b0d0601e31b8fd2ad973841fd"}, {"lon": -76.98784283333333, "lat": 38.900322333333335, "name": "fe0b4f37dedc499d1eb451cc018f71d8", "fusion_lat": 0.0, "fusion_lon": 0.0, "rental_uris": {"android": "https://dc.lft.to/lastmile_qr_scan", "ios": "https://dc.lft.to/lastmile_qr_scan"}, "is_reserved": 0, "is_disabled": 0, "type": "electric_scooter", "bike_id": "fe0b4f37dedc499d1eb451cc018f71d8"}, {"lon": -77.03837666666666, "lat": 38.915528, "name": "799716b09b50fe275dbe9192fa236d47", "fusion_lat": 0.0, "fusion_lon": 0.0, "rental_uris": {"android": "https://dc.lft.to/lastmile_qr_scan", "ios": "https://dc.lft.to/lastmile_qr_scan"}, "is_reserved": 0, "is_disabled": 0, "type": "electric_scooter", "bike_id": "799716b09b50fe275dbe9192fa236d47"}, {"lon": -76.9837715, "lat": 38.860314833333334, "name": "4fbd53505e4c7b277e81b9ec2d972bea", "fusion_lat": 0.0, "fusion_lon": 0.0, "rental_uris": {"android": "https://dc.lft.to/lastmile_qr_scan", "ios": "https://dc.lft.to/lastmile_qr_scan"}, "is_reserved": 0, "is_disabled": 0, "type": "electric_scooter", "bike_id": "4fbd53505e4c7b277e81b9ec2d972bea"}, {"lon": -76.9822945, "lat": 38.91669016666667, "name": "299001f085eb82e3e006a1b0a123fb75", "fusion_lat": 0.0, "fusion_lon": 0.0, "rental_uris": {"android": "https://dc.lft.to/lastmile_qr_scan", "ios": "https://dc.lft.to/lastmile_qr_scan"}, "is_reserved": 0, "is_disabled": 0, "type": "electric_scooter", "bike_id": "299001f085eb82e3e006a1b0a123fb75"}, {"lon": -76.98804983333333, "lat": 38.8923595, "name": "6a6dffaed5354bfd7cc1192665a2f923", "fusion_lat": 0.0, "fusion_lon": 0.0, "rental_uris": {"android": "https://dc.lft.to/lastmile_qr_scan", "ios": "https://dc.lft.to/lastmile_qr_scan"}, "is_reserved": 0, "is_disabled": 0, "type": "electric_scooter", "bike_id": "6a6dffaed5354bfd7cc1192665a2f923"}, {"lon": -77.07844583333333, "lat": 38.93134583333333, "name": "48f85016a53d27b78689daeef5dd4719", "fusion_lat": 0.0, "fusion_lon": 0.0, "rental_uris": {"android": "https://dc.lft.to/lastmile_qr_scan", "ios": "https://dc.lft.to/lastmile_qr_scan"}, "is_reserved": 0, "is_disabled": 0, "type": "electric_scooter", "bike_id": "48f85016a53d27b78689daeef5dd4719"}, {"lon": -76.96553766666666, "lat": 38.951026666666664, "name": "43a09e3665514bf413c6cdad735c0104", "fusion_lat": 0.0, "fusion_lon": 0.0, "rental_uris": {"android": "https://dc.lft.to/lastmile_qr_scan", "ios": "https://dc.lft.to/lastmile_qr_scan"}, "is_reserved": 0, "is_disabled": 0, "type": "electric_bike", "bike_id": "43a09e3665514bf413c6cdad735c0104"}, {"lon": -76.99268516666666, "lat": 38.899849, "name": "8362cfc4b43682dd88efc76e7463933e", "fusion_lat": 0.0, "fusion_lon": 0.0, "rental_uris": {"android": "https://dc.lft.to/lastmile_qr_scan", "ios": "https://dc.lft.to/lastmile_qr_scan"}, "is_reserved": 0, "is_disabled": 0, "type": "electric_scooter", "bike_id": "8362cfc4b43682dd88efc76e7463933e"}, {"lon": -77.03750333333333, "lat": 38.928956166666666, "name": "f3f8ed9b074419125ae8e23cc6d61b27", "fusion_lat": 0.0, "fusion_lon": 0.0, "rental_uris": {"android": "https://dc.lft.to/lastmile_qr_scan", "ios": "https://dc.lft.to/lastmile_qr_scan"}, "is_reserved": 0, "is_disabled": 0, "type": "electric_scooter", "bike_id": "f3f8ed9b074419125ae8e23cc6d61b27"}, {"lon": -77.04592533333333, "lat": 38.899921166666665, "name": "21d2a7f9ac5621e2f75028f6486aa668", "fusion_lat": 0.0, "fusion_lon": 0.0, "rental_uris": {"android": "https://dc.lft.to/lastmile_qr_scan", "ios": "https://dc.lft.to/lastmile_qr_scan"}, "is_reserved": 0, "is_disabled": 0, "type": "electric_scooter", "bike_id": "21d2a7f9ac5621e2f75028f6486aa668"}, {"lon": -77.04036583333334, "lat": 38.91709783333334, "name": "12dc081b3e82b9a5479435207941fdee", "fusion_lat": 0.0, "fusion_lon": 0.0, "rental_uris": {"android": "https://dc.lft.to/lastmile_qr_scan", "ios": "https://dc.lft.to/lastmile_qr_scan"}, "is_reserved": 0, "is_disabled": 0, "type": "electric_scooter", "bike_id": "12dc081b3e82b9a5479435207941fdee"}, {"lon": -77.03938533333333, "lat": 38.914198, "name": "e1c4522d40d273db3279be788388d49f", "fusion_lat": 0.0, "fusion_lon": 0.0, "rental_uris": {"android": "https://dc.lft.to/lastmile_qr_scan", "ios": "https://dc.lft.to/lastmile_qr_scan"}, "is_reserved": 0, "is_disabled": 0, "type": "electric_scooter", "bike_id": "e1c4522d40d273db3279be788388d49f"}, {"lon": -77.02958266666667, "lat": 38.905052166666664, "name": "7592958d14786634b35b97061b6f6ed1", "fusion_lat": 0.0, "fusion_lon": 0.0, "rental_uris": {"android": "https://dc.lft.to/lastmile_qr_scan", "ios": "https://dc.lft.to/lastmile_qr_scan"}, "is_reserved": 0, "is_disabled": 0, "type": "electric_scooter", "bike_id": "7592958d14786634b35b97061b6f6ed1"}, {"lon": -77.00858583333333, "lat": 38.8694725, "name": "b4d37824d05ba2f640251448088d36d2", "fusion_lat": 0.0, "fusion_lon": 0.0, "rental_uris": {"android": "https://dc.lft.to/lastmile_qr_scan", "ios": "https://dc.lft.to/lastmile_qr_scan"}, "is_reserved": 0, "is_disabled": 0, "type": "electric_scooter", "bike_id": "b4d37824d05ba2f640251448088d36d2"}, {"lon": -77.037044, "lat": 38.916628833333334, "name": "fe0ee7756724747d5c20cfe440969c1c", "fusion_lat": 0.0, "fusion_lon": 0.0, "rental_uris": {"android": "https://dc.lft.to/lastmile_qr_scan", "ios": "https://dc.lft.to/lastmile_qr_scan"}, "is_reserved": 0, "is_disabled": 0, "type": "electric_scooter", "bike_id": "fe0ee7756724747d5c20cfe440969c1c"}, {"lon": -77.11431866666666, "lat": 38.84309566666667, "name": "92673d398dcd935b92eb9d75b105516f", "fusion_lat": 0.0, "fusion_lon": 0.0, "rental_uris": {"android": "https://dc.lft.to/lastmile_qr_scan", "ios": "https://dc.lft.to/lastmile_qr_scan"}, "is_reserved": 0, "is_disabled": 0, "type": "electric_bike", "bike_id": "92673d398dcd935b92eb9d75b105516f"}, {"lon": -77.01325766666666, "lat": 38.914789, "name": "07fe42864404e0e42395eea7121ca80d", "fusion_lat": 0.0, "fusion_lon": 0.0, "rental_uris": {"android": "https://dc.lft.to/lastmile_qr_scan", "ios": "https://dc.lft.to/lastmile_qr_scan"}, "is_reserved": 0, "is_disabled": 0, "type": "electric_scooter", "bike_id": "07fe42864404e0e42395eea7121ca80d"}, {"lon": -77.03165116666666, "lat": 38.91420033333333, "name": "71eb2d5063b17530dd66e14ee7155890", "fusion_lat": 0.0, "fusion_lon": 0.0, "rental_uris": {"android": "https://dc.lft.to/lastmile_qr_scan", "ios": "https://dc.lft.to/lastmile_qr_scan"}, "is_reserved": 0, "is_disabled": 0, "type": "electric_scooter", "bike_id": "71eb2d5063b17530dd66e14ee7155890"}, {"lon": -77.015272, "lat": 38.88740383333333, "name": "d7334015cebf31c6491e22bdc240e1cf", "fusion_lat": 0.0, "fusion_lon": 0.0, "rental_uris": {"android": "https://dc.lft.to/lastmile_qr_scan", "ios": "https://dc.lft.to/lastmile_qr_scan"}, "is_reserved": 0, "is_disabled": 0, "type": "electric_scooter", "bike_id": "d7334015cebf31c6491e22bdc240e1cf"}, {"lon": -77.025204, "lat": 38.92136566666667, "name": "4aab02b071cd700003209ebbee4f1787", "fusion_lat": 0.0, "fusion_lon": 0.0, "rental_uris": {"android": "https://dc.lft.to/lastmile_qr_scan", "ios": "https://dc.lft.to/lastmile_qr_scan"}, "is_reserved": 0, "is_disabled": 0, "type": "electric_scooter", "bike_id": "4aab02b071cd700003209ebbee4f1787"}, {"lon": -77.07907133333333, "lat": 38.83942016666666, "name": "862a973497965b601dacb3048794f2c6", "fusion_lat": 0.0, "fusion_lon": 0.0, "rental_uris": {"android": "https://dc.lft.to/lastmile_qr_scan", "ios": "https://dc.lft.to/lastmile_qr_scan"}, "is_reserved": 0, "is_disabled": 0, "type": "electric_bike", "bike_id": "862a973497965b601dacb3048794f2c6"}, {"lon": -77.0381815, "lat": 38.91473383333334, "name": "f47000165ddf1876e7b05284508e6536", "fusion_lat": 0.0, "fusion_lon": 0.0, "rental_uris": {"android": "https://dc.lft.to/lastmile_qr_scan", "ios": "https://dc.lft.to/lastmile_qr_scan"}, "is_reserved": 0, "is_disabled": 0, "type": "electric_scooter", "bike_id": "f47000165ddf1876e7b05284508e6536"}, {"lon": -77.05313533333333, "lat": 38.8205145, "name": "c12817e3f9cdc1c6e0a9f9eb43ab8adc", "fusion_lat": 0.0, "fusion_lon": 0.0, "rental_uris": {"android": "https://dc.lft.to/lastmile_qr_scan", "ios": "https://dc.lft.to/lastmile_qr_scan"}, "is_reserved": 0, "is_disabled": 0, "type": "electric_bike", "bike_id": "c12817e3f9cdc1c6e0a9f9eb43ab8adc"}, {"lon": -77.0290355, "lat": 38.884482, "name": "c52a243edaf6de3c294276601e9d3970", "fusion_lat": 0.0, "fusion_lon": 0.0, "rental_uris": {"android": "https://dc.lft.to/lastmile_qr_scan", "ios": "https://dc.lft.to/lastmile_qr_scan"}, "is_reserved": 0, "is_disabled": 0, "type": "electric_scooter", "bike_id": "c52a243edaf6de3c294276601e9d3970"}, {"lon": -77.02975916666666, "lat": 38.90495516666667, "name": "de86873861f0efd9e770c37c61a0c330", "fusion_lat": 0.0, "fusion_lon": 0.0, "rental_uris": {"android": "https://dc.lft.to/lastmile_qr_scan", "ios": "https://dc.lft.to/lastmile_qr_scan"}, "is_reserved": 0, "is_disabled": 0, "type": "electric_scooter", "bike_id": "de86873861f0efd9e770c37c61a0c330"}, {"lon": -77.02606416666667, "lat": 38.90433766666666, "name": "02f7b824940cd887a03cc209ccb95c0a", "fusion_lat": 0.0, "fusion_lon": 0.0, "rental_uris": {"android": "https://dc.lft.to/lastmile_qr_scan", "ios": "https://dc.lft.to/lastmile_qr_scan"}, "is_reserved": 0, "is_disabled": 0, "type": "electric_scooter", "bike_id": "02f7b824940cd887a03cc209ccb95c0a"}, {"lon": -76.99015283333334, "lat": 38.901521833333334, "name": "97cbb88689e81ca25836d352b0ccb400", "fusion_lat": 0.0, "fusion_lon": 0.0, "rental_uris": {"android": "https://dc.lft.to/lastmile_qr_scan", "ios": "https://dc.lft.to/lastmile_qr_scan"}, "is_reserved": 0, "is_disabled": 0, "type": "electric_scooter", "bike_id": "97cbb88689e81ca25836d352b0ccb400"}, {"lon": -77.04729316666666, "lat": 38.911187, "name": "94a5d76951be0cd91d71b4720e50db39", "fusion_lat": 0.0, "fusion_lon": 0.0, "rental_uris": {"android": "https://dc.lft.to/lastmile_qr_scan", "ios": "https://dc.lft.to/lastmile_qr_scan"}, "is_reserved": 0, "is_disabled": 0, "type": "electric_scooter", "bike_id": "94a5d76951be0cd91d71b4720e50db39"}, {"lon": -77.03056783333334, "lat": 38.907811, "name": "c88c67bfda9922e20f6f54175ba9f4a5", "fusion_lat": 0.0, "fusion_lon": 0.0, "rental_uris": {"android": "https://dc.lft.to/lastmile_qr_scan", "ios": "https://dc.lft.to/lastmile_qr_scan"}, "is_reserved": 0, "is_disabled": 0, "type": "electric_scooter", "bike_id": "c88c67bfda9922e20f6f54175ba9f4a5"}, {"lon": -77.038282, "lat": 38.912686666666666, "name": "2cffc7aa7c9bee2748184d8f360fd456", "fusion_lat": 0.0, "fusion_lon": 0.0, "rental_uris": {"android": "https://dc.lft.to/lastmile_qr_scan", "ios": "https://dc.lft.to/lastmile_qr_scan"}, "is_reserved": 0, "is_disabled": 0, "type": "electric_scooter", "bike_id": "2cffc7aa7c9bee2748184d8f360fd456"}, {"lon": -77.069524, "lat": 38.99047933333333, "name": "1253b0fb51ecbcac6d7b6798a3d7dd63", "fusion_lat": 0.0, "fusion_lon": 0.0, "rental_uris": {"android": "https://dc.lft.to/lastmile_qr_scan", "ios": "https://dc.lft.to/lastmile_qr_scan"}, "is_reserved": 0, "is_disabled": 0, "type": "electric_bike", "bike_id": "1253b0fb51ecbcac6d7b6798a3d7dd63"}, {"lon": -77.00533916666667, "lat": 38.874719999999996, "name": "877574c225d812a1f4f066453b49a0c3", "fusion_lat": 0.0, "fusion_lon": 0.0, "rental_uris": {"android": "https://dc.lft.to/lastmile_qr_scan", "ios": "https://dc.lft.to/lastmile_qr_scan"}, "is_reserved": 0, "is_disabled": 0, "type": "electric_scooter", "bike_id": "877574c225d812a1f4f066453b49a0c3"}, {"lon": -77.02512083333333, "lat": 38.92641033333334, "name": "a69f473722a932f73183f60dbe9aea04", "fusion_lat": 0.0, "fusion_lon": 0.0, "rental_uris": {"android": "https://dc.lft.to/lastmile_qr_scan", "ios": "https://dc.lft.to/lastmile_qr_scan"}, "is_reserved": 0, "is_disabled": 0, "type": "electric_scooter", "bike_id": "a69f473722a932f73183f60dbe9aea04"}, {"lon": -76.986088, "lat": 38.906245, "name": "c8012a6fd0a0a05e1b9988b0b97887eb", "fusion_lat": 0.0, "fusion_lon": 0.0, "rental_uris": {"android": "https://dc.lft.to/lastmile_qr_scan", "ios": "https://dc.lft.to/lastmile_qr_scan"}, "is_reserved": 0, "is_disabled": 0, "type": "electric_bike", "bike_id": "c8012a6fd0a0a05e1b9988b0b97887eb"}, {"lon": -77.03302833333333, "lat": 38.9182, "name": "4d286d52a0d20a7abdfc316016f6ee33", "fusion_lat": 0.0, "fusion_lon": 0.0, "rental_uris": {"android": "https://dc.lft.to/lastmile_qr_scan", "ios": "https://dc.lft.to/lastmile_qr_scan"}, "is_reserved": 0, "is_disabled": 0, "type": "electric_scooter", "bike_id": "4d286d52a0d20a7abdfc316016f6ee33"}, {"lon": -76.93756633333334, "lat": 38.899693166666665, "name": "03c48d13cc4a94199cfb3232cbef403f", "fusion_lat": 0.0, "fusion_lon": 0.0, "rental_uris": {"android": "https://dc.lft.to/lastmile_qr_scan", "ios": "https://dc.lft.to/lastmile_qr_scan"}, "is_reserved": 0, "is_disabled": 0, "type": "electric_scooter", "bike_id": "03c48d13cc4a94199cfb3232cbef403f"}, {"lon": -77.04590516666667, "lat": 38.902543, "name": "a1864f365b5365207f631272b135aca0", "fusion_lat": 0.0, "fusion_lon": 0.0, "rental_uris": {"android": "https://dc.lft.to/lastmile_qr_scan", "ios": "https://dc.lft.to/lastmile_qr_scan"}, "is_reserved": 0, "is_disabled": 0, "type": "electric_scooter", "bike_id": "a1864f365b5365207f631272b135aca0"}, {"lon": -77.021206, "lat": 38.9173725, "name": "1ee132856f081239fa63f2aab9a1c719", "fusion_lat": 0.0, "fusion_lon": 0.0, "rental_uris": {"android": "https://dc.lft.to/lastmile_qr_scan", "ios": "https://dc.lft.to/lastmile_qr_scan"}, "is_reserved": 0, "is_disabled": 0, "type": "electric_scooter", "bike_id": "1ee132856f081239fa63f2aab9a1c719"}, {"lon": -77.03290383333334, "lat": 38.922127, "name": "92007f3a528327efa624f763c30a34bc", "fusion_lat": 0.0, "fusion_lon": 0.0, "rental_uris": {"android": "https://dc.lft.to/lastmile_qr_scan", "ios": "https://dc.lft.to/lastmile_qr_scan"}, "is_reserved": 0, "is_disabled": 0, "type": "electric_scooter", "bike_id": "92007f3a528327efa624f763c30a34bc"}, {"lon": -77.03256866666666, "lat": 38.935285666666665, "name": "a25485c4a0f2da9c76cdc643e96be43f", "fusion_lat": 0.0, "fusion_lon": 0.0, "rental_uris": {"android": "https://dc.lft.to/lastmile_qr_scan", "ios": "https://dc.lft.to/lastmile_qr_scan"}, "is_reserved": 0, "is_disabled": 0, "type": "electric_scooter", "bike_id": "a25485c4a0f2da9c76cdc643e96be43f"}, {"lon": -76.979865, "lat": 38.87754866666667, "name": "fe42d2a1bb898c11e7c94b8252d672d2", "fusion_lat": 0.0, "fusion_lon": 0.0, "rental_uris": {"android": "https://dc.lft.to/lastmile_qr_scan", "ios": "https://dc.lft.to/lastmile_qr_scan"}, "is_reserved": 0, "is_disabled": 0, "type": "electric_bike", "bike_id": "fe42d2a1bb898c11e7c94b8252d672d2"}, {"lon": -77.022084, "lat": 38.9020195, "name": "d7b30187bf1baf05207c9cef6acb0049", "fusion_lat": 0.0, "fusion_lon": 0.0, "rental_uris": {"android": "https://dc.lft.to/lastmile_qr_scan", "ios": "https://dc.lft.to/lastmile_qr_scan"}, "is_reserved": 0, "is_disabled": 0, "type": "electric_scooter", "bike_id": "d7b30187bf1baf05207c9cef6acb0049"}, {"lon": -77.03139216666666, "lat": 38.91567916666666, "name": "37a46d6e786a768ec07a4f787ae13d40", "fusion_lat": 0.0, "fusion_lon": 0.0, "rental_uris": {"android": "https://dc.lft.to/lastmile_qr_scan", "ios": "https://dc.lft.to/lastmile_qr_scan"}, "is_reserved": 0, "is_disabled": 0, "type": "electric_scooter", "bike_id": "37a46d6e786a768ec07a4f787ae13d40"}, {"lon": -77.03793583333334, "lat": 38.90572183333333, "name": "3ec6eea0477af6ea48dd65c916492b0f", "fusion_lat": 0.0, "fusion_lon": 0.0, "rental_uris": {"android": "https://dc.lft.to/lastmile_qr_scan", "ios": "https://dc.lft.to/lastmile_qr_scan"}, "is_reserved": 0, "is_disabled": 0, "type": "electric_scooter", "bike_id": "3ec6eea0477af6ea48dd65c916492b0f"}, {"lon": -76.99719516666667, "lat": 38.9109325, "name": "c4180c99aaccf319d2f7c884deaca2c0", "fusion_lat": 0.0, "fusion_lon": 0.0, "rental_uris": {"android": "https://dc.lft.to/lastmile_qr_scan", "ios": "https://dc.lft.to/lastmile_qr_scan"}, "is_reserved": 0, "is_disabled": 0, "type": "electric_scooter", "bike_id": "c4180c99aaccf319d2f7c884deaca2c0"}, {"lon": -76.9774545, "lat": 38.90504266666667, "name": "442ca95d4d4ef3ebba16e2a6d27be61a", "fusion_lat": 0.0, "fusion_lon": 0.0, "rental_uris": {"android": "https://dc.lft.to/lastmile_qr_scan", "ios": "https://dc.lft.to/lastmile_qr_scan"}, "is_reserved": 0, "is_disabled": 0, "type": "electric_scooter", "bike_id": "442ca95d4d4ef3ebba16e2a6d27be61a"}, {"lon": -76.94784383333334, "lat": 38.894390333333334, "name": "3d2044a87c3d14b6241c27a9e39a46cd", "fusion_lat": 0.0, "fusion_lon": 0.0, "rental_uris": {"android": "https://dc.lft.to/lastmile_qr_scan", "ios": "https://dc.lft.to/lastmile_qr_scan"}, "is_reserved": 0, "is_disabled": 0, "type": "electric_bike", "bike_id": "3d2044a87c3d14b6241c27a9e39a46cd"}, {"lon": -77.03192616666666, "lat": 38.907996, "name": "751a6d9a92249f91a5cfa877418d2a9c", "fusion_lat": 0.0, "fusion_lon": 0.0, "rental_uris": {"android": "https://dc.lft.to/lastmile_qr_scan", "ios": "https://dc.lft.to/lastmile_qr_scan"}, "is_reserved": 0, "is_disabled": 0, "type": "electric_scooter", "bike_id": "751a6d9a92249f91a5cfa877418d2a9c"}, {"lon": -77.36088766666667, "lat": 38.93965166666667, "name": "9ed30845009f971ce1434786d409e73c", "fusion_lat": 0.0, "fusion_lon": 0.0, "rental_uris": {"android": "https://dc.lft.to/lastmile_qr_scan", "ios": "https://dc.lft.to/lastmile_qr_scan"}, "is_reserved": 0, "is_disabled": 0, "type": "electric_bike", "bike_id": "9ed30845009f971ce1434786d409e73c"}, {"lon": -77.02278133333333, "lat": 38.9095825, "name": "3787a19b29b45efc5d9eb36650f1741e", "fusion_lat": 0.0, "fusion_lon": 0.0, "rental_uris": {"android": "https://dc.lft.to/lastmile_qr_scan", "ios": "https://dc.lft.to/lastmile_qr_scan"}, "is_reserved": 0, "is_disabled": 0, "type": "electric_scooter", "bike_id": "3787a19b29b45efc5d9eb36650f1741e"}, {"lon": -77.02543083333333, "lat": 38.940923833333336, "name": "de75c63f26f12448832947193c222285", "fusion_lat": 0.0, "fusion_lon": 0.0, "rental_uris": {"android": "https://dc.lft.to/lastmile_qr_scan", "ios": "https://dc.lft.to/lastmile_qr_scan"}, "is_reserved": 0, "is_disabled": 0, "type": "electric_scooter", "bike_id": "de75c63f26f12448832947193c222285"}, {"lon": -77.01223316666666, "lat": 38.9152565, "name": "4a5fc60e365996c9bb02fb9c316ab993", "fusion_lat": 0.0, "fusion_lon": 0.0, "rental_uris": {"android": "https://dc.lft.to/lastmile_qr_scan", "ios": "https://dc.lft.to/lastmile_qr_scan"}, "is_reserved": 0, "is_disabled": 0, "type": "electric_scooter", "bike_id": "4a5fc60e365996c9bb02fb9c316ab993"}, {"lon": -77.03409, "lat": 38.934919, "name": "f1043d6bf4fd0fd14074944c015e1135", "fusion_lat": 0.0, "fusion_lon": 0.0, "rental_uris": {"android": "https://dc.lft.to/lastmile_qr_scan", "ios": "https://dc.lft.to/lastmile_qr_scan"}, "is_reserved": 0, "is_disabled": 0, "type": "electric_scooter", "bike_id": "f1043d6bf4fd0fd14074944c015e1135"}, {"lon": -76.99840833333333, "lat": 38.83921216666667, "name": "191040616a73d9c1f3a15ae4281bfe5d", "fusion_lat": 0.0, "fusion_lon": 0.0, "rental_uris": {"android": "https://dc.lft.to/lastmile_qr_scan", "ios": "https://dc.lft.to/lastmile_qr_scan"}, "is_reserved": 0, "is_disabled": 0, "type": "electric_bike", "bike_id": "191040616a73d9c1f3a15ae4281bfe5d"}, {"lon": -77.01671683333333, "lat": 38.905702, "name": "51c5a768d6bf3e9c9f227fe4f77c7e2a", "fusion_lat": 0.0, "fusion_lon": 0.0, "rental_uris": {"android": "https://dc.lft.to/lastmile_qr_scan", "ios": "https://dc.lft.to/lastmile_qr_scan"}, "is_reserved": 0, "is_disabled": 0, "type": "electric_scooter", "bike_id": "51c5a768d6bf3e9c9f227fe4f77c7e2a"}, {"lon": -77.03848966666666, "lat": 38.91551283333333, "name": "5d005a9bbd4a764cd297161d629ba05f", "fusion_lat": 0.0, "fusion_lon": 0.0, "rental_uris": {"android": "https://dc.lft.to/lastmile_qr_scan", "ios": "https://dc.lft.to/lastmile_qr_scan"}, "is_reserved": 0, "is_disabled": 0, "type": "electric_scooter", "bike_id": "5d005a9bbd4a764cd297161d629ba05f"}, {"lon": -77.04060983333333, "lat": 38.91772816666667, "name": "7406c32d93b0c26ba4afd69b65d8cba7", "fusion_lat": 0.0, "fusion_lon": 0.0, "rental_uris": {"android": "https://dc.lft.to/lastmile_qr_scan", "ios": "https://dc.lft.to/lastmile_qr_scan"}, "is_reserved": 0, "is_disabled": 0, "type": "electric_scooter", "bike_id": "7406c32d93b0c26ba4afd69b65d8cba7"}, {"lon": -77.0310605, "lat": 38.933824, "name": "2065b66294273d48f57d70f3272025f3", "fusion_lat": 0.0, "fusion_lon": 0.0, "rental_uris": {"android": "https://dc.lft.to/lastmile_qr_scan", "ios": "https://dc.lft.to/lastmile_qr_scan"}, "is_reserved": 0, "is_disabled": 0, "type": "electric_scooter", "bike_id": "2065b66294273d48f57d70f3272025f3"}, {"lon": -77.037288, "lat": 38.9336255, "name": "efe187b46fcde4b00f6f64b537967495", "fusion_lat": 0.0, "fusion_lon": 0.0, "rental_uris": {"android": "https://dc.lft.to/lastmile_qr_scan", "ios": "https://dc.lft.to/lastmile_qr_scan"}, "is_reserved": 0, "is_disabled": 0, "type": "electric_scooter", "bike_id": "efe187b46fcde4b00f6f64b537967495"}, {"lon": -76.98615633333333, "lat": 38.8546115, "name": "3d38037ef526d1da5ac200840a4bb891", "fusion_lat": 0.0, "fusion_lon": 0.0, "rental_uris": {"android": "https://dc.lft.to/lastmile_qr_scan", "ios": "https://dc.lft.to/lastmile_qr_scan"}, "is_reserved": 0, "is_disabled": 0, "type": "electric_scooter", "bike_id": "3d38037ef526d1da5ac200840a4bb891"}, {"lon": -77.038519, "lat": 38.91555966666667, "name": "c25b871c0d81118f654c3f8b49fb5638", "fusion_lat": 0.0, "fusion_lon": 0.0, "rental_uris": {"android": "https://dc.lft.to/lastmile_qr_scan", "ios": "https://dc.lft.to/lastmile_qr_scan"}, "is_reserved": 0, "is_disabled": 0, "type": "electric_scooter", "bike_id": "c25b871c0d81118f654c3f8b49fb5638"}, {"lon": -77.00917533333333, "lat": 38.9105295, "name": "bc20a7d7c67af2661921c1544db8c43f", "fusion_lat": 0.0, "fusion_lon": 0.0, "rental_uris": {"android": "https://dc.lft.to/lastmile_qr_scan", "ios": "https://dc.lft.to/lastmile_qr_scan"}, "is_reserved": 0, "is_disabled": 0, "type": "electric_scooter", "bike_id": "bc20a7d7c67af2661921c1544db8c43f"}, {"lon": -77.03472716666667, "lat": 38.91707016666667, "name": "0acfcf27500e0e7fd850eabcbc4844fd", "fusion_lat": 0.0, "fusion_lon": 0.0, "rental_uris": {"android": "https://dc.lft.to/lastmile_qr_scan", "ios": "https://dc.lft.to/lastmile_qr_scan"}, "is_reserved": 0, "is_disabled": 0, "type": "electric_scooter", "bike_id": "0acfcf27500e0e7fd850eabcbc4844fd"}, {"lon": -77.0283, "lat": 38.887472, "name": "9fb43256f5c6b852e72c2c9a63c56b4b", "fusion_lat": 0.0, "fusion_lon": 0.0, "rental_uris": {"android": "https://dc.lft.to/lastmile_qr_scan", "ios": "https://dc.lft.to/lastmile_qr_scan"}, "is_reserved": 0, "is_disabled": 0, "type": "electric_scooter", "bike_id": "9fb43256f5c6b852e72c2c9a63c56b4b"}, {"lon": -77.01342016666666, "lat": 38.8705755, "name": "3b2c2ca3643ce078a52e49c8c77a5b4f", "fusion_lat": 0.0, "fusion_lon": 0.0, "rental_uris": {"android": "https://dc.lft.to/lastmile_qr_scan", "ios": "https://dc.lft.to/lastmile_qr_scan"}, "is_reserved": 0, "is_disabled": 0, "type": "electric_bike", "bike_id": "3b2c2ca3643ce078a52e49c8c77a5b4f"}, {"lon": -77.01075783333333, "lat": 38.9626195, "name": "f86fe9799d99416e7d630c320115be0c", "fusion_lat": 0.0, "fusion_lon": 0.0, "rental_uris": {"android": "https://dc.lft.to/lastmile_qr_scan", "ios": "https://dc.lft.to/lastmile_qr_scan"}, "is_reserved": 0, "is_disabled": 0, "type": "electric_bike", "bike_id": "f86fe9799d99416e7d630c320115be0c"}, {"lon": -77.01700633333333, "lat": 38.905749, "name": "72825231f74844143db8ae0d78d41631", "fusion_lat": 0.0, "fusion_lon": 0.0, "rental_uris": {"android": "https://dc.lft.to/lastmile_qr_scan", "ios": "https://dc.lft.to/lastmile_qr_scan"}, "is_reserved": 0, "is_disabled": 0, "type": "electric_bike", "bike_id": "72825231f74844143db8ae0d78d41631"}, {"lon": -77.0359645, "lat": 38.933144, "name": "6a6f665b5dde20eca65296b7fb7528d2", "fusion_lat": 0.0, "fusion_lon": 0.0, "rental_uris": {"android": "https://dc.lft.to/lastmile_qr_scan", "ios": "https://dc.lft.to/lastmile_qr_scan"}, "is_reserved": 0, "is_disabled": 0, "type": "electric_scooter", "bike_id": "6a6f665b5dde20eca65296b7fb7528d2"}, {"lon": -76.9802145, "lat": 38.90380566666666, "name": "c6b3ef09f1c3538813d47107591c7edc", "fusion_lat": 0.0, "fusion_lon": 0.0, "rental_uris": {"android": "https://dc.lft.to/lastmile_qr_scan", "ios": "https://dc.lft.to/lastmile_qr_scan"}, "is_reserved": 0, "is_disabled": 0, "type": "electric_scooter", "bike_id": "c6b3ef09f1c3538813d47107591c7edc"}, {"lon": -76.990362, "lat": 38.85874716666667, "name": "12ce4e7c0dff85347dd0542dda348b3e", "fusion_lat": 0.0, "fusion_lon": 0.0, "rental_uris": {"android": "https://dc.lft.to/lastmile_qr_scan", "ios": "https://dc.lft.to/lastmile_qr_scan"}, "is_reserved": 0, "is_disabled": 0, "type": "electric_scooter", "bike_id": "12ce4e7c0dff85347dd0542dda348b3e"}, {"lon": -77.0240355, "lat": 38.8874305, "name": "951d123ef75e68883666d5bc2819d2a8", "fusion_lat": 0.0, "fusion_lon": 0.0, "rental_uris": {"android": "https://dc.lft.to/lastmile_qr_scan", "ios": "https://dc.lft.to/lastmile_qr_scan"}, "is_reserved": 0, "is_disabled": 0, "type": "electric_scooter", "bike_id": "951d123ef75e68883666d5bc2819d2a8"}, {"lon": -76.97186333333333, "lat": 38.91264966666667, "name": "8219d82283766bad891b575102836fc8", "fusion_lat": 0.0, "fusion_lon": 0.0, "rental_uris": {"android": "https://dc.lft.to/lastmile_qr_scan", "ios": "https://dc.lft.to/lastmile_qr_scan"}, "is_reserved": 0, "is_disabled": 0, "type": "electric_scooter", "bike_id": "8219d82283766bad891b575102836fc8"}, {"lon": -77.01821283333334, "lat": 38.908129, "name": "6ebcf321557e4d186e6ef8abbca941f1", "fusion_lat": 0.0, "fusion_lon": 0.0, "rental_uris": {"android": "https://dc.lft.to/lastmile_qr_scan", "ios": "https://dc.lft.to/lastmile_qr_scan"}, "is_reserved": 0, "is_disabled": 0, "type": "electric_scooter", "bike_id": "6ebcf321557e4d186e6ef8abbca941f1"}, {"lon": -77.043873, "lat": 38.92278683333333, "name": "7e5b539946b37bfe827950ffd4690b61", "fusion_lat": 0.0, "fusion_lon": 0.0, "rental_uris": {"android": "https://dc.lft.to/lastmile_qr_scan", "ios": "https://dc.lft.to/lastmile_qr_scan"}, "is_reserved": 0, "is_disabled": 0, "type": "electric_scooter", "bike_id": "7e5b539946b37bfe827950ffd4690b61"}, {"lon": -76.9650575, "lat": 38.87649416666667, "name": "b48d806a9ba34ab78df42a79b62e2973", "fusion_lat": 0.0, "fusion_lon": 0.0, "rental_uris": {"android": "https://dc.lft.to/lastmile_qr_scan", "ios": "https://dc.lft.to/lastmile_qr_scan"}, "is_reserved": 0, "is_disabled": 0, "type": "electric_scooter", "bike_id": "b48d806a9ba34ab78df42a79b62e2973"}, {"lon": -77.023529, "lat": 38.90857533333333, "name": "412f8fcf66aaf3c1b34ab6f95e19172a", "fusion_lat": 0.0, "fusion_lon": 0.0, "rental_uris": {"android": "https://dc.lft.to/lastmile_qr_scan", "ios": "https://dc.lft.to/lastmile_qr_scan"}, "is_reserved": 0, "is_disabled": 0, "type": "electric_scooter", "bike_id": "412f8fcf66aaf3c1b34ab6f95e19172a"}, {"lon": -77.032185, "lat": 38.91481783333333, "name": "00c09d37e7ac5d92e3e81091279790ca", "fusion_lat": 0.0, "fusion_lon": 0.0, "rental_uris": {"android": "https://dc.lft.to/lastmile_qr_scan", "ios": "https://dc.lft.to/lastmile_qr_scan"}, "is_reserved": 0, "is_disabled": 0, "type": "electric_scooter", "bike_id": "00c09d37e7ac5d92e3e81091279790ca"}, {"lon": -77.01075583333333, "lat": 38.871084333333336, "name": "0ae1396540daed3c0579e041f34506f1", "fusion_lat": 0.0, "fusion_lon": 0.0, "rental_uris": {"android": "https://dc.lft.to/lastmile_qr_scan", "ios": "https://dc.lft.to/lastmile_qr_scan"}, "is_reserved": 0, "is_disabled": 0, "type": "electric_scooter", "bike_id": "0ae1396540daed3c0579e041f34506f1"}, {"lon": -77.10917316666666, "lat": 39.052064666666666, "name": "a6b209befe82222b72621ef3d9f12c5e", "fusion_lat": 0.0, "fusion_lon": 0.0, "rental_uris": {"android": "https://dc.lft.to/lastmile_qr_scan", "ios": "https://dc.lft.to/lastmile_qr_scan"}, "is_reserved": 0, "is_disabled": 0, "type": "electric_bike", "bike_id": "a6b209befe82222b72621ef3d9f12c5e"}, {"lon": -77.05297766666666, "lat": 38.92551516666666, "name": "5589c515ad4a6ff310ee69e496bdb527", "fusion_lat": 0.0, "fusion_lon": 0.0, "rental_uris": {"android": "https://dc.lft.to/lastmile_qr_scan", "ios": "https://dc.lft.to/lastmile_qr_scan"}, "is_reserved": 0, "is_disabled": 0, "type": "electric_scooter", "bike_id": "5589c515ad4a6ff310ee69e496bdb527"}, {"lon": -77.0137725, "lat": 38.928313, "name": "ecd725fc0e06651c0a3eaad3bbc67b4a", "fusion_lat": 0.0, "fusion_lon": 0.0, "rental_uris": {"android": "https://dc.lft.to/lastmile_qr_scan", "ios": "https://dc.lft.to/lastmile_qr_scan"}, "is_reserved": 0, "is_disabled": 0, "type": "electric_scooter", "bike_id": "ecd725fc0e06651c0a3eaad3bbc67b4a"}, {"lon": -77.03210166666666, "lat": 38.90763716666667, "name": "cd0b8f6e6af836668636d2c0120bcf35", "fusion_lat": 0.0, "fusion_lon": 0.0, "rental_uris": {"android": "https://dc.lft.to/lastmile_qr_scan", "ios": "https://dc.lft.to/lastmile_qr_scan"}, "is_reserved": 0, "is_disabled": 0, "type": "electric_scooter", "bike_id": "cd0b8f6e6af836668636d2c0120bcf35"}, {"lon": -76.957563, "lat": 38.88429716666667, "name": "6aac88f20283b10a97baa1a9497246c3", "fusion_lat": 0.0, "fusion_lon": 0.0, "rental_uris": {"android": "https://dc.lft.to/lastmile_qr_scan", "ios": "https://dc.lft.to/lastmile_qr_scan"}, "is_reserved": 0, "is_disabled": 0, "type": "electric_scooter", "bike_id": "6aac88f20283b10a97baa1a9497246c3"}, {"lon": -77.04048333333333, "lat": 38.927174, "name": "142ed87cdb48f172a585948eb923e377", "fusion_lat": 0.0, "fusion_lon": 0.0, "rental_uris": {"android": "https://dc.lft.to/lastmile_qr_scan", "ios": "https://dc.lft.to/lastmile_qr_scan"}, "is_reserved": 0, "is_disabled": 0, "type": "electric_scooter", "bike_id": "142ed87cdb48f172a585948eb923e377"}, {"lon": -76.96508166666666, "lat": 38.87649716666667, "name": "7455a962d9dd204b7bcfd3f03e204a92", "fusion_lat": 0.0, "fusion_lon": 0.0, "rental_uris": {"android": "https://dc.lft.to/lastmile_qr_scan", "ios": "https://dc.lft.to/lastmile_qr_scan"}, "is_reserved": 0, "is_disabled": 0, "type": "electric_scooter", "bike_id": "7455a962d9dd204b7bcfd3f03e204a92"}, {"lon": -77.0415405, "lat": 38.91901466666667, "name": "0db46334a0e34d0b95459af0474e846b", "fusion_lat": 0.0, "fusion_lon": 0.0, "rental_uris": {"android": "https://dc.lft.to/lastmile_qr_scan", "ios": "https://dc.lft.to/lastmile_qr_scan"}, "is_reserved": 0, "is_disabled": 0, "type": "electric_scooter", "bike_id": "0db46334a0e34d0b95459af0474e846b"}, {"lon": -77.15267516666667, "lat": 39.1056765, "name": "8af094884af4aa7c948bb868ec1163ee", "fusion_lat": 0.0, "fusion_lon": 0.0, "rental_uris": {"android": "https://dc.lft.to/lastmile_qr_scan", "ios": "https://dc.lft.to/lastmile_qr_scan"}, "is_reserved": 0, "is_disabled": 0, "type": "electric_bike", "bike_id": "8af094884af4aa7c948bb868ec1163ee"}, {"lon": -77.030309, "lat": 38.915543166666666, "name": "90539ccea17c94e58ea7ad7eb67fb9ad", "fusion_lat": 0.0, "fusion_lon": 0.0, "rental_uris": {"android": "https://dc.lft.to/lastmile_qr_scan", "ios": "https://dc.lft.to/lastmile_qr_scan"}, "is_reserved": 0, "is_disabled": 0, "type": "electric_scooter", "bike_id": "90539ccea17c94e58ea7ad7eb67fb9ad"}, {"lon": -77.02370016666667, "lat": 38.925181, "name": "b3418aacec0121ba2810ad1a38068004", "fusion_lat": 0.0, "fusion_lon": 0.0, "rental_uris": {"android": "https://dc.lft.to/lastmile_qr_scan", "ios": "https://dc.lft.to/lastmile_qr_scan"}, "is_reserved": 0, "is_disabled": 0, "type": "electric_scooter", "bike_id": "b3418aacec0121ba2810ad1a38068004"}, {"lon": -77.03467466666666, "lat": 38.91819816666667, "name": "0404771bada87a65cf0b1a7013471f0f", "fusion_lat": 0.0, "fusion_lon": 0.0, "rental_uris": {"android": "https://dc.lft.to/lastmile_qr_scan", "ios": "https://dc.lft.to/lastmile_qr_scan"}, "is_reserved": 0, "is_disabled": 0, "type": "electric_scooter", "bike_id": "0404771bada87a65cf0b1a7013471f0f"}, {"lon": -77.02165533333333, "lat": 38.88642316666667, "name": "772eb0dec6f617b73202cf5781ba2c1d", "fusion_lat": 0.0, "fusion_lon": 0.0, "rental_uris": {"android": "https://dc.lft.to/lastmile_qr_scan", "ios": "https://dc.lft.to/lastmile_qr_scan"}, "is_reserved": 0, "is_disabled": 0, "type": "electric_scooter", "bike_id": "772eb0dec6f617b73202cf5781ba2c1d"}, {"lon": -77.0424905, "lat": 38.922391, "name": "080e282c4e4f77e087680a8c21de6f64", "fusion_lat": 0.0, "fusion_lon": 0.0, "rental_uris": {"android": "https://dc.lft.to/lastmile_qr_scan", "ios": "https://dc.lft.to/lastmile_qr_scan"}, "is_reserved": 0, "is_disabled": 0, "type": "electric_scooter", "bike_id": "080e282c4e4f77e087680a8c21de6f64"}, {"lon": -77.02864566666666, "lat": 38.8973835, "name": "825dfe7f627605caf6d05c48ffbb9c33", "fusion_lat": 0.0, "fusion_lon": 0.0, "rental_uris": {"android": "https://dc.lft.to/lastmile_qr_scan", "ios": "https://dc.lft.to/lastmile_qr_scan"}, "is_reserved": 0, "is_disabled": 0, "type": "electric_scooter", "bike_id": "825dfe7f627605caf6d05c48ffbb9c33"}, {"lon": -76.99632933333334, "lat": 38.846222166666664, "name": "a36b39c5973cf9d1f1094acd227eb46d", "fusion_lat": 0.0, "fusion_lon": 0.0, "rental_uris": {"android": "https://dc.lft.to/lastmile_qr_scan", "ios": "https://dc.lft.to/lastmile_qr_scan"}, "is_reserved": 0, "is_disabled": 0, "type": "electric_scooter", "bike_id": "a36b39c5973cf9d1f1094acd227eb46d"}, {"lon": -77.03870033333334, "lat": 38.903867166666664, "name": "a3ac48262fb1ffc559a6aeab781fec02", "fusion_lat": 0.0, "fusion_lon": 0.0, "rental_uris": {"android": "https://dc.lft.to/lastmile_qr_scan", "ios": "https://dc.lft.to/lastmile_qr_scan"}, "is_reserved": 0, "is_disabled": 0, "type": "electric_scooter", "bike_id": "a3ac48262fb1ffc559a6aeab781fec02"}, {"lon": -77.041628, "lat": 38.91463233333333, "name": "a7393d1113d640769a5361a4f83f4585", "fusion_lat": 0.0, "fusion_lon": 0.0, "rental_uris": {"android": "https://dc.lft.to/lastmile_qr_scan", "ios": "https://dc.lft.to/lastmile_qr_scan"}, "is_reserved": 0, "is_disabled": 0, "type": "electric_scooter", "bike_id": "a7393d1113d640769a5361a4f83f4585"}, {"lon": -76.97836016666666, "lat": 38.971554166666664, "name": "11c3b55b3cc1a21ce284338c0a908fc8", "fusion_lat": 0.0, "fusion_lon": 0.0, "rental_uris": {"android": "https://dc.lft.to/lastmile_qr_scan", "ios": "https://dc.lft.to/lastmile_qr_scan"}, "is_reserved": 0, "is_disabled": 0, "type": "electric_bike", "bike_id": "11c3b55b3cc1a21ce284338c0a908fc8"}, {"lon": -76.942841, "lat": 38.953992666666664, "name": "d9d4bd0e894cbf604b8d70bbe37a5960", "fusion_lat": 0.0, "fusion_lon": 0.0, "rental_uris": {"android": "https://dc.lft.to/lastmile_qr_scan", "ios": "https://dc.lft.to/lastmile_qr_scan"}, "is_reserved": 0, "is_disabled": 0, "type": "electric_bike", "bike_id": "d9d4bd0e894cbf604b8d70bbe37a5960"}, {"lon": -76.9977845, "lat": 38.844249, "name": "ea10c7efeae8a4adebdbaa042e404755", "fusion_lat": 0.0, "fusion_lon": 0.0, "rental_uris": {"android": "https://dc.lft.to/lastmile_qr_scan", "ios": "https://dc.lft.to/lastmile_qr_scan"}, "is_reserved": 0, "is_disabled": 0, "type": "electric_scooter", "bike_id": "ea10c7efeae8a4adebdbaa042e404755"}, {"lon": -77.03254183333334, "lat": 38.93526283333333, "name": "4c2ae8169b9f75cb9c43bbe013fedcea", "fusion_lat": 0.0, "fusion_lon": 0.0, "rental_uris": {"android": "https://dc.lft.to/lastmile_qr_scan", "ios": "https://dc.lft.to/lastmile_qr_scan"}, "is_reserved": 0, "is_disabled": 0, "type": "electric_scooter", "bike_id": "4c2ae8169b9f75cb9c43bbe013fedcea"}, {"lon": -77.040491, "lat": 38.909632, "name": "d6f0dd75d8f097dad761b1194a8b9caa", "fusion_lat": 0.0, "fusion_lon": 0.0, "rental_uris": {"android": "https://dc.lft.to/lastmile_qr_scan", "ios": "https://dc.lft.to/lastmile_qr_scan"}, "is_reserved": 0, "is_disabled": 0, "type": "electric_scooter", "bike_id": "d6f0dd75d8f097dad761b1194a8b9caa"}, {"lon": -77.04153716666667, "lat": 38.91573133333333, "name": "0f4cf705c06e64aee25c58e8c826d6b8", "fusion_lat": 0.0, "fusion_lon": 0.0, "rental_uris": {"android": "https://dc.lft.to/lastmile_qr_scan", "ios": "https://dc.lft.to/lastmile_qr_scan"}, "is_reserved": 0, "is_disabled": 0, "type": "electric_scooter", "bike_id": "0f4cf705c06e64aee25c58e8c826d6b8"}, {"lon": -76.99547166666666, "lat": 38.884201166666664, "name": "a450778a0f3154b5186a99ca1b581a07", "fusion_lat": 0.0, "fusion_lon": 0.0, "rental_uris": {"android": "https://dc.lft.to/lastmile_qr_scan", "ios": "https://dc.lft.to/lastmile_qr_scan"}, "is_reserved": 0, "is_disabled": 0, "type": "electric_scooter", "bike_id": "a450778a0f3154b5186a99ca1b581a07"}, {"lon": -77.00516633333334, "lat": 38.92897833333333, "name": "e5e74ea17ade41c28440aafb148183ae", "fusion_lat": 0.0, "fusion_lon": 0.0, "rental_uris": {"android": "https://dc.lft.to/lastmile_qr_scan", "ios": "https://dc.lft.to/lastmile_qr_scan"}, "is_reserved": 0, "is_disabled": 0, "type": "electric_scooter", "bike_id": "e5e74ea17ade41c28440aafb148183ae"}, {"lon": -76.99010033333333, "lat": 38.864416, "name": "c3652f1a83d6cd714b459516e9848671", "fusion_lat": 0.0, "fusion_lon": 0.0, "rental_uris": {"android": "https://dc.lft.to/lastmile_qr_scan", "ios": "https://dc.lft.to/lastmile_qr_scan"}, "is_reserved": 0, "is_disabled": 0, "type": "electric_scooter", "bike_id": "c3652f1a83d6cd714b459516e9848671"}, {"lon": -77.03216733333333, "lat": 38.92176083333333, "name": "b3b6ad26b7fd8bd0d2c544dbeb30f374", "fusion_lat": 0.0, "fusion_lon": 0.0, "rental_uris": {"android": "https://dc.lft.to/lastmile_qr_scan", "ios": "https://dc.lft.to/lastmile_qr_scan"}, "is_reserved": 0, "is_disabled": 0, "type": "electric_scooter", "bike_id": "b3b6ad26b7fd8bd0d2c544dbeb30f374"}, {"lon": -77.01936216666667, "lat": 38.935832833333336, "name": "80f4fcada783ca2406b3ee0be8c3cf18", "fusion_lat": 0.0, "fusion_lon": 0.0, "rental_uris": {"android": "https://dc.lft.to/lastmile_qr_scan", "ios": "https://dc.lft.to/lastmile_qr_scan"}, "is_reserved": 0, "is_disabled": 0, "type": "electric_scooter", "bike_id": "80f4fcada783ca2406b3ee0be8c3cf18"}, {"lon": -77.02349783333334, "lat": 38.962067, "name": "b3e17b1d6f026f62219743e8c4d07f17", "fusion_lat": 0.0, "fusion_lon": 0.0, "rental_uris": {"android": "https://dc.lft.to/lastmile_qr_scan", "ios": "https://dc.lft.to/lastmile_qr_scan"}, "is_reserved": 0, "is_disabled": 0, "type": "electric_scooter", "bike_id": "b3e17b1d6f026f62219743e8c4d07f17"}, {"lon": -76.98562133333333, "lat": 38.8995695, "name": "7f00e4f127427fb97567064f8032f098", "fusion_lat": 0.0, "fusion_lon": 0.0, "rental_uris": {"android": "https://dc.lft.to/lastmile_qr_scan", "ios": "https://dc.lft.to/lastmile_qr_scan"}, "is_reserved": 0, "is_disabled": 0, "type": "electric_scooter", "bike_id": "7f00e4f127427fb97567064f8032f098"}, {"lon": -77.03672316666666, "lat": 38.936083833333335, "name": "22c916b1684c2a4b2cf00563642df5ef", "fusion_lat": 0.0, "fusion_lon": 0.0, "rental_uris": {"android": "https://dc.lft.to/lastmile_qr_scan", "ios": "https://dc.lft.to/lastmile_qr_scan"}, "is_reserved": 0, "is_disabled": 0, "type": "electric_scooter", "bike_id": "22c916b1684c2a4b2cf00563642df5ef"}, {"lon": -77.05759566666667, "lat": 38.93368683333333, "name": "c3981dafb09d38e0e14f46eb9d287b7e", "fusion_lat": 0.0, "fusion_lon": 0.0, "rental_uris": {"android": "https://dc.lft.to/lastmile_qr_scan", "ios": "https://dc.lft.to/lastmile_qr_scan"}, "is_reserved": 0, "is_disabled": 0, "type": "electric_scooter", "bike_id": "c3981dafb09d38e0e14f46eb9d287b7e"}, {"lon": -77.03840333333333, "lat": 38.91479966666667, "name": "b4206c5c2d11063aaacffb9145a150e9", "fusion_lat": 0.0, "fusion_lon": 0.0, "rental_uris": {"android": "https://dc.lft.to/lastmile_qr_scan", "ios": "https://dc.lft.to/lastmile_qr_scan"}, "is_reserved": 0, "is_disabled": 0, "type": "electric_scooter", "bike_id": "b4206c5c2d11063aaacffb9145a150e9"}, {"lon": -76.996308, "lat": 38.900362, "name": "e6a4aea4c6ae1a8158c2b4a59816f238", "fusion_lat": 0.0, "fusion_lon": 0.0, "rental_uris": {"android": "https://dc.lft.to/lastmile_qr_scan", "ios": "https://dc.lft.to/lastmile_qr_scan"}, "is_reserved": 0, "is_disabled": 0, "type": "electric_scooter", "bike_id": "e6a4aea4c6ae1a8158c2b4a59816f238"}, {"lon": -77.007617, "lat": 38.92679833333333, "name": "e5fa685cb4e97f85cd7514de73136ddb", "fusion_lat": 0.0, "fusion_lon": 0.0, "rental_uris": {"android": "https://dc.lft.to/lastmile_qr_scan", "ios": "https://dc.lft.to/lastmile_qr_scan"}, "is_reserved": 0, "is_disabled": 0, "type": "electric_scooter", "bike_id": "e5fa685cb4e97f85cd7514de73136ddb"}, {"lon": -77.0118515, "lat": 38.900300666666666, "name": "d7c8fdbb6824056197f1ed38f4eb8f27", "fusion_lat": 0.0, "fusion_lon": 0.0, "rental_uris": {"android": "https://dc.lft.to/lastmile_qr_scan", "ios": "https://dc.lft.to/lastmile_qr_scan"}, "is_reserved": 0, "is_disabled": 0, "type": "electric_scooter", "bike_id": "d7c8fdbb6824056197f1ed38f4eb8f27"}, {"lon": -77.00047833333333, "lat": 38.8753265, "name": "3c4bdde4b79e66d3d576821aef583204", "fusion_lat": 0.0, "fusion_lon": 0.0, "rental_uris": {"android": "https://dc.lft.to/lastmile_qr_scan", "ios": "https://dc.lft.to/lastmile_qr_scan"}, "is_reserved": 0, "is_disabled": 0, "type": "electric_scooter", "bike_id": "3c4bdde4b79e66d3d576821aef583204"}, {"lon": -77.0346165, "lat": 38.90366083333333, "name": "0d268f3f1c13fab9ca6a10202bbc2135", "fusion_lat": 0.0, "fusion_lon": 0.0, "rental_uris": {"android": "https://dc.lft.to/lastmile_qr_scan", "ios": "https://dc.lft.to/lastmile_qr_scan"}, "is_reserved": 0, "is_disabled": 0, "type": "electric_scooter", "bike_id": "0d268f3f1c13fab9ca6a10202bbc2135"}, {"lon": -76.9691595, "lat": 38.855259333333336, "name": "84057ced2da5531cdf2b166dd8f59f9b", "fusion_lat": 0.0, "fusion_lon": 0.0, "rental_uris": {"android": "https://dc.lft.to/lastmile_qr_scan", "ios": "https://dc.lft.to/lastmile_qr_scan"}, "is_reserved": 0, "is_disabled": 0, "type": "electric_scooter", "bike_id": "84057ced2da5531cdf2b166dd8f59f9b"}, {"lon": -77.03122766666667, "lat": 38.97378233333333, "name": "3eaa46234261fea3489e50996569dc02", "fusion_lat": 0.0, "fusion_lon": 0.0, "rental_uris": {"android": "https://dc.lft.to/lastmile_qr_scan", "ios": "https://dc.lft.to/lastmile_qr_scan"}, "is_reserved": 0, "is_disabled": 0, "type": "electric_scooter", "bike_id": "3eaa46234261fea3489e50996569dc02"}, {"lon": -77.03267966666667, "lat": 38.912605666666664, "name": "d80fe877676c989e7f8e925655b4e670", "fusion_lat": 0.0, "fusion_lon": 0.0, "rental_uris": {"android": "https://dc.lft.to/lastmile_qr_scan", "ios": "https://dc.lft.to/lastmile_qr_scan"}, "is_reserved": 0, "is_disabled": 0, "type": "electric_scooter", "bike_id": "d80fe877676c989e7f8e925655b4e670"}, {"lon": -77.03369366666666, "lat": 38.9104735, "name": "e60d4b5142fb56778baaaa91cb938f3e", "fusion_lat": 0.0, "fusion_lon": 0.0, "rental_uris": {"android": "https://dc.lft.to/lastmile_qr_scan", "ios": "https://dc.lft.to/lastmile_qr_scan"}, "is_reserved": 0, "is_disabled": 0, "type": "electric_scooter", "bike_id": "e60d4b5142fb56778baaaa91cb938f3e"}, {"lon": -77.0559695, "lat": 38.936987333333335, "name": "eb0ce76fbeee3885215d8dd0c507eded", "fusion_lat": 0.0, "fusion_lon": 0.0, "rental_uris": {"android": "https://dc.lft.to/lastmile_qr_scan", "ios": "https://dc.lft.to/lastmile_qr_scan"}, "is_reserved": 0, "is_disabled": 0, "type": "electric_scooter", "bike_id": "eb0ce76fbeee3885215d8dd0c507eded"}, {"lon": -77.0916235, "lat": 38.96763283333333, "name": "d25a7d3c72f286d84f21db80a874ba41", "fusion_lat": 0.0, "fusion_lon": 0.0, "rental_uris": {"android": "https://dc.lft.to/lastmile_qr_scan", "ios": "https://dc.lft.to/lastmile_qr_scan"}, "is_reserved": 0, "is_disabled": 0, "type": "electric_bike", "bike_id": "d25a7d3c72f286d84f21db80a874ba41"}, {"lon": -77.04129883333333, "lat": 38.921844, "name": "5bcc017ebe88d3c5cc07443ddb03fb87", "fusion_lat": 0.0, "fusion_lon": 0.0, "rental_uris": {"android": "https://dc.lft.to/lastmile_qr_scan", "ios": "https://dc.lft.to/lastmile_qr_scan"}, "is_reserved": 0, "is_disabled": 0, "type": "electric_scooter", "bike_id": "5bcc017ebe88d3c5cc07443ddb03fb87"}, {"lon": -77.02343133333333, "lat": 38.883479666666666, "name": "a24fcb27339273fb596c377aa8ff5111", "fusion_lat": 0.0, "fusion_lon": 0.0, "rental_uris": {"android": "https://dc.lft.to/lastmile_qr_scan", "ios": "https://dc.lft.to/lastmile_qr_scan"}, "is_reserved": 0, "is_disabled": 0, "type": "electric_scooter", "bike_id": "a24fcb27339273fb596c377aa8ff5111"}, {"lon": -77.02151666666667, "lat": 38.92501466666667, "name": "c3fd433ceeb0b7330eed15c973ab3c9c", "fusion_lat": 0.0, "fusion_lon": 0.0, "rental_uris": {"android": "https://dc.lft.to/lastmile_qr_scan", "ios": "https://dc.lft.to/lastmile_qr_scan"}, "is_reserved": 0, "is_disabled": 0, "type": "electric_scooter", "bike_id": "c3fd433ceeb0b7330eed15c973ab3c9c"}, {"lon": -77.04406516666667, "lat": 38.874343333333336, "name": "2bee4a848280401591b03596cca0af18", "fusion_lat": 0.0, "fusion_lon": 0.0, "rental_uris": {"android": "https://dc.lft.to/lastmile_qr_scan", "ios": "https://dc.lft.to/lastmile_qr_scan"}, "is_reserved": 0, "is_disabled": 0, "type": "electric_scooter", "bike_id": "2bee4a848280401591b03596cca0af18"}, {"lon": -77.02612416666666, "lat": 38.962027666666664, "name": "da759b1d4720fd901e727d4b96a8b228", "fusion_lat": 0.0, "fusion_lon": 0.0, "rental_uris": {"android": "https://dc.lft.to/lastmile_qr_scan", "ios": "https://dc.lft.to/lastmile_qr_scan"}, "is_reserved": 0, "is_disabled": 0, "type": "electric_bike", "bike_id": "da759b1d4720fd901e727d4b96a8b228"}, {"lon": -77.03829866666666, "lat": 38.91224966666667, "name": "6c1345f6be32e2243752fb81a7c7e523", "fusion_lat": 0.0, "fusion_lon": 0.0, "rental_uris": {"android": "https://dc.lft.to/lastmile_qr_scan", "ios": "https://dc.lft.to/lastmile_qr_scan"}, "is_reserved": 0, "is_disabled": 0, "type": "electric_scooter", "bike_id": "6c1345f6be32e2243752fb81a7c7e523"}, {"lon": -77.02387883333333, "lat": 38.91684583333333, "name": "1a9bad2df39616189ce3e4441d919a8b", "fusion_lat": 0.0, "fusion_lon": 0.0, "rental_uris": {"android": "https://dc.lft.to/lastmile_qr_scan", "ios": "https://dc.lft.to/lastmile_qr_scan"}, "is_reserved": 0, "is_disabled": 0, "type": "electric_bike", "bike_id": "1a9bad2df39616189ce3e4441d919a8b"}, {"lon": -77.032668, "lat": 38.93065583333333, "name": "4959aaa46c8cec3a1baf2c1011895754", "fusion_lat": 0.0, "fusion_lon": 0.0, "rental_uris": {"android": "https://dc.lft.to/lastmile_qr_scan", "ios": "https://dc.lft.to/lastmile_qr_scan"}, "is_reserved": 0, "is_disabled": 0, "type": "electric_scooter", "bike_id": "4959aaa46c8cec3a1baf2c1011895754"}, {"lon": -77.02705116666667, "lat": 38.915202666666666, "name": "c327deacb670a06190f0951c022aa0df", "fusion_lat": 0.0, "fusion_lon": 0.0, "rental_uris": {"android": "https://dc.lft.to/lastmile_qr_scan", "ios": "https://dc.lft.to/lastmile_qr_scan"}, "is_reserved": 0, "is_disabled": 0, "type": "electric_scooter", "bike_id": "c327deacb670a06190f0951c022aa0df"}, {"lon": -77.034445, "lat": 38.90741166666667, "name": "fdd9dab77efc41b0f2db838f1064e267", "fusion_lat": 0.0, "fusion_lon": 0.0, "rental_uris": {"android": "https://dc.lft.to/lastmile_qr_scan", "ios": "https://dc.lft.to/lastmile_qr_scan"}, "is_reserved": 0, "is_disabled": 0, "type": "electric_scooter", "bike_id": "fdd9dab77efc41b0f2db838f1064e267"}, {"lon": -76.95407566666667, "lat": 38.89160833333333, "name": "a0b19c8b45af100e9adcdabe5f4b52f8", "fusion_lat": 0.0, "fusion_lon": 0.0, "rental_uris": {"android": "https://dc.lft.to/lastmile_qr_scan", "ios": "https://dc.lft.to/lastmile_qr_scan"}, "is_reserved": 0, "is_disabled": 0, "type": "electric_scooter", "bike_id": "a0b19c8b45af100e9adcdabe5f4b52f8"}, {"lon": -77.043643, "lat": 38.903796, "name": "0c15197a4ecc9542b0d5da3a51bdc448", "fusion_lat": 0.0, "fusion_lon": 0.0, "rental_uris": {"android": "https://dc.lft.to/lastmile_qr_scan", "ios": "https://dc.lft.to/lastmile_qr_scan"}, "is_reserved": 0, "is_disabled": 0, "type": "electric_scooter", "bike_id": "0c15197a4ecc9542b0d5da3a51bdc448"}, {"lon": -77.0318705, "lat": 38.919142, "name": "3666227223e172ced6261e3b532e69d6", "fusion_lat": 0.0, "fusion_lon": 0.0, "rental_uris": {"android": "https://dc.lft.to/lastmile_qr_scan", "ios": "https://dc.lft.to/lastmile_qr_scan"}, "is_reserved": 0, "is_disabled": 0, "type": "electric_scooter", "bike_id": "3666227223e172ced6261e3b532e69d6"}, {"lon": -77.07283266666667, "lat": 38.9092315, "name": "44f8b5bde63ab07e5906ef2989e975b7", "fusion_lat": 0.0, "fusion_lon": 0.0, "rental_uris": {"android": "https://dc.lft.to/lastmile_qr_scan", "ios": "https://dc.lft.to/lastmile_qr_scan"}, "is_reserved": 0, "is_disabled": 0, "type": "electric_scooter", "bike_id": "44f8b5bde63ab07e5906ef2989e975b7"}, {"lon": -77.00210866666667, "lat": 38.902215, "name": "1e35a83df151dbfad91871f7ecbed690", "fusion_lat": 0.0, "fusion_lon": 0.0, "rental_uris": {"android": "https://dc.lft.to/lastmile_qr_scan", "ios": "https://dc.lft.to/lastmile_qr_scan"}, "is_reserved": 0, "is_disabled": 0, "type": "electric_scooter", "bike_id": "1e35a83df151dbfad91871f7ecbed690"}, {"lon": -77.107716, "lat": 38.8922915, "name": "c47ed114071283570c1a251c97ad0108", "fusion_lat": 0.0, "fusion_lon": 0.0, "rental_uris": {"android": "https://dc.lft.to/lastmile_qr_scan", "ios": "https://dc.lft.to/lastmile_qr_scan"}, "is_reserved": 0, "is_disabled": 0, "type": "electric_bike", "bike_id": "c47ed114071283570c1a251c97ad0108"}, {"lon": -77.01737866666667, "lat": 38.9026455, "name": "11b61749b455184ea2630fde2813db55", "fusion_lat": 0.0, "fusion_lon": 0.0, "rental_uris": {"android": "https://dc.lft.to/lastmile_qr_scan", "ios": "https://dc.lft.to/lastmile_qr_scan"}, "is_reserved": 0, "is_disabled": 0, "type": "electric_scooter", "bike_id": "11b61749b455184ea2630fde2813db55"}, {"lon": -77.04155983333334, "lat": 38.9157735, "name": "71e4bf70fa9842285a63b2335b384d65", "fusion_lat": 0.0, "fusion_lon": 0.0, "rental_uris": {"android": "https://dc.lft.to/lastmile_qr_scan", "ios": "https://dc.lft.to/lastmile_qr_scan"}, "is_reserved": 0, "is_disabled": 0, "type": "electric_scooter", "bike_id": "71e4bf70fa9842285a63b2335b384d65"}, {"lon": -76.9164985, "lat": 38.86856816666667, "name": "ae60d971f003c428de0208bde73f4d9f", "fusion_lat": 0.0, "fusion_lon": 0.0, "rental_uris": {"android": "https://dc.lft.to/lastmile_qr_scan", "ios": "https://dc.lft.to/lastmile_qr_scan"}, "is_reserved": 0, "is_disabled": 0, "type": "electric_bike", "bike_id": "ae60d971f003c428de0208bde73f4d9f"}, {"lon": -77.10899683333334, "lat": 38.830411, "name": "7fabbd0b254b61a7bf4ad5712fb5ff66", "fusion_lat": 0.0, "fusion_lon": 0.0, "rental_uris": {"android": "https://dc.lft.to/lastmile_qr_scan", "ios": "https://dc.lft.to/lastmile_qr_scan"}, "is_reserved": 0, "is_disabled": 0, "type": "electric_bike", "bike_id": "7fabbd0b254b61a7bf4ad5712fb5ff66"}, {"lon": -76.95026383333334, "lat": 38.89185066666667, "name": "2cf607d1401fe3f749e106dfbedcde90", "fusion_lat": 0.0, "fusion_lon": 0.0, "rental_uris": {"android": "https://dc.lft.to/lastmile_qr_scan", "ios": "https://dc.lft.to/lastmile_qr_scan"}, "is_reserved": 0, "is_disabled": 0, "type": "electric_bike", "bike_id": "2cf607d1401fe3f749e106dfbedcde90"}, {"lon": -77.03475483333334, "lat": 38.9028565, "name": "65292f4d87a8e755658508d6abcc7243", "fusion_lat": 0.0, "fusion_lon": 0.0, "rental_uris": {"android": "https://dc.lft.to/lastmile_qr_scan", "ios": "https://dc.lft.to/lastmile_qr_scan"}, "is_reserved": 0, "is_disabled": 0, "type": "electric_scooter", "bike_id": "65292f4d87a8e755658508d6abcc7243"}, {"lon": -76.97331366666667, "lat": 38.904810166666664, "name": "1768632310965978761f3271e9a6f8db", "fusion_lat": 0.0, "fusion_lon": 0.0, "rental_uris": {"android": "https://dc.lft.to/lastmile_qr_scan", "ios": "https://dc.lft.to/lastmile_qr_scan"}, "is_reserved": 0, "is_disabled": 0, "type": "electric_scooter", "bike_id": "1768632310965978761f3271e9a6f8db"}, {"lon": -77.02210666666667, "lat": 38.905733833333336, "name": "e5bca368581dfbd0ea12372ece807466", "fusion_lat": 0.0, "fusion_lon": 0.0, "rental_uris": {"android": "https://dc.lft.to/lastmile_qr_scan", "ios": "https://dc.lft.to/lastmile_qr_scan"}, "is_reserved": 0, "is_disabled": 0, "type": "electric_scooter", "bike_id": "e5bca368581dfbd0ea12372ece807466"}, {"lon": -77.02433783333333, "lat": 38.925997, "name": "c4e96a23c274d57415d8a01a3073012c", "fusion_lat": 0.0, "fusion_lon": 0.0, "rental_uris": {"android": "https://dc.lft.to/lastmile_qr_scan", "ios": "https://dc.lft.to/lastmile_qr_scan"}, "is_reserved": 0, "is_disabled": 0, "type": "electric_bike", "bike_id": "c4e96a23c274d57415d8a01a3073012c"}, {"lon": -77.0013815, "lat": 38.90410516666667, "name": "66c2c181a2c3e9234c0030fbed621031", "fusion_lat": 0.0, "fusion_lon": 0.0, "rental_uris": {"android": "https://dc.lft.to/lastmile_qr_scan", "ios": "https://dc.lft.to/lastmile_qr_scan"}, "is_reserved": 0, "is_disabled": 0, "type": "electric_scooter", "bike_id": "66c2c181a2c3e9234c0030fbed621031"}, {"lon": -77.01109733333334, "lat": 38.9630465, "name": "11dcbb1f9ffd451f00c3fdb4b67ce376", "fusion_lat": 0.0, "fusion_lon": 0.0, "rental_uris": {"android": "https://dc.lft.to/lastmile_qr_scan", "ios": "https://dc.lft.to/lastmile_qr_scan"}, "is_reserved": 0, "is_disabled": 0, "type": "electric_bike", "bike_id": "11dcbb1f9ffd451f00c3fdb4b67ce376"}, {"lon": -77.03838333333333, "lat": 38.9155325, "name": "e2c1292af7f004b29d2e1ac5b1b59f94", "fusion_lat": 0.0, "fusion_lon": 0.0, "rental_uris": {"android": "https://dc.lft.to/lastmile_qr_scan", "ios": "https://dc.lft.to/lastmile_qr_scan"}, "is_reserved": 0, "is_disabled": 0, "type": "electric_scooter", "bike_id": "e2c1292af7f004b29d2e1ac5b1b59f94"}, {"lon": -77.02412233333334, "lat": 38.899435833333335, "name": "a7c2109c5495796a4a21cf09fc28e44c", "fusion_lat": 0.0, "fusion_lon": 0.0, "rental_uris": {"android": "https://dc.lft.to/lastmile_qr_scan", "ios": "https://dc.lft.to/lastmile_qr_scan"}, "is_reserved": 0, "is_disabled": 0, "type": "electric_scooter", "bike_id": "a7c2109c5495796a4a21cf09fc28e44c"}, {"lon": -77.02952366666666, "lat": 38.90663133333334, "name": "151a9ca2018858f65be0acf2e6201c5d", "fusion_lat": 0.0, "fusion_lon": 0.0, "rental_uris": {"android": "https://dc.lft.to/lastmile_qr_scan", "ios": "https://dc.lft.to/lastmile_qr_scan"}, "is_reserved": 0, "is_disabled": 0, "type": "electric_scooter", "bike_id": "151a9ca2018858f65be0acf2e6201c5d"}, {"lon": -77.007957, "lat": 38.897177166666665, "name": "a0f8a7e095080a62d61bbf0684d0947b", "fusion_lat": 0.0, "fusion_lon": 0.0, "rental_uris": {"android": "https://dc.lft.to/lastmile_qr_scan", "ios": "https://dc.lft.to/lastmile_qr_scan"}, "is_reserved": 0, "is_disabled": 0, "type": "electric_scooter", "bike_id": "a0f8a7e095080a62d61bbf0684d0947b"}, {"lon": -77.0230695, "lat": 38.909792, "name": "c132080120c8a76850c25b6c24dd2699", "fusion_lat": 0.0, "fusion_lon": 0.0, "rental_uris": {"android": "https://dc.lft.to/lastmile_qr_scan", "ios": "https://dc.lft.to/lastmile_qr_scan"}, "is_reserved": 0, "is_disabled": 0, "type": "electric_scooter", "bike_id": "c132080120c8a76850c25b6c24dd2699"}, {"lon": -77.04989966666666, "lat": 38.90513833333333, "name": "d9c49c2e9a3f0684a0db92dce9a09394", "fusion_lat": 0.0, "fusion_lon": 0.0, "rental_uris": {"android": "https://dc.lft.to/lastmile_qr_scan", "ios": "https://dc.lft.to/lastmile_qr_scan"}, "is_reserved": 0, "is_disabled": 0, "type": "electric_scooter", "bike_id": "d9c49c2e9a3f0684a0db92dce9a09394"}, {"lon": -77.0574685, "lat": 38.93376766666667, "name": "cb70c3a193499c4824e0405d3f28968a", "fusion_lat": 0.0, "fusion_lon": 0.0, "rental_uris": {"android": "https://dc.lft.to/lastmile_qr_scan", "ios": "https://dc.lft.to/lastmile_qr_scan"}, "is_reserved": 0, "is_disabled": 0, "type": "electric_scooter", "bike_id": "cb70c3a193499c4824e0405d3f28968a"}, {"lon": -77.0499005, "lat": 38.90123083333334, "name": "7df88cebe4442641bafacb92346fccef", "fusion_lat": 0.0, "fusion_lon": 0.0, "rental_uris": {"android": "https://dc.lft.to/lastmile_qr_scan", "ios": "https://dc.lft.to/lastmile_qr_scan"}, "is_reserved": 0, "is_disabled": 0, "type": "electric_scooter", "bike_id": "7df88cebe4442641bafacb92346fccef"}, {"lon": -77.116056, "lat": 38.85483833333333, "name": "049e1bf6c88ec196b854cbcf4f793471", "fusion_lat": 0.0, "fusion_lon": 0.0, "rental_uris": {"android": "https://dc.lft.to/lastmile_qr_scan", "ios": "https://dc.lft.to/lastmile_qr_scan"}, "is_reserved": 0, "is_disabled": 0, "type": "electric_bike", "bike_id": "049e1bf6c88ec196b854cbcf4f793471"}, {"lon": -76.9845175, "lat": 38.91141483333333, "name": "d70d9716a2c6bf2c12e90dc44a3ec1af", "fusion_lat": 0.0, "fusion_lon": 0.0, "rental_uris": {"android": "https://dc.lft.to/lastmile_qr_scan", "ios": "https://dc.lft.to/lastmile_qr_scan"}, "is_reserved": 0, "is_disabled": 0, "type": "electric_scooter", "bike_id": "d70d9716a2c6bf2c12e90dc44a3ec1af"}, {"lon": -77.04058283333333, "lat": 38.91771983333334, "name": "704e19f24fcaf3f3f5f4c422a50d7a42", "fusion_lat": 0.0, "fusion_lon": 0.0, "rental_uris": {"android": "https://dc.lft.to/lastmile_qr_scan", "ios": "https://dc.lft.to/lastmile_qr_scan"}, "is_reserved": 0, "is_disabled": 0, "type": "electric_scooter", "bike_id": "704e19f24fcaf3f3f5f4c422a50d7a42"}, {"lon": -77.04506266666667, "lat": 38.912789833333335, "name": "70ff1bb996109a982f4427671f7c0293", "fusion_lat": 0.0, "fusion_lon": 0.0, "rental_uris": {"android": "https://dc.lft.to/lastmile_qr_scan", "ios": "https://dc.lft.to/lastmile_qr_scan"}, "is_reserved": 0, "is_disabled": 0, "type": "electric_scooter", "bike_id": "70ff1bb996109a982f4427671f7c0293"}, {"lon": -76.98722366666667, "lat": 38.86717766666666, "name": "45598e08837566d4562aa2f480459862", "fusion_lat": 0.0, "fusion_lon": 0.0, "rental_uris": {"android": "https://dc.lft.to/lastmile_qr_scan", "ios": "https://dc.lft.to/lastmile_qr_scan"}, "is_reserved": 0, "is_disabled": 0, "type": "electric_scooter", "bike_id": "45598e08837566d4562aa2f480459862"}, {"lon": -76.99630566666667, "lat": 38.885527, "name": "ac88172ce257cb23092689fd22489d22", "fusion_lat": 0.0, "fusion_lon": 0.0, "rental_uris": {"android": "https://dc.lft.to/lastmile_qr_scan", "ios": "https://dc.lft.to/lastmile_qr_scan"}, "is_reserved": 0, "is_disabled": 0, "type": "electric_scooter", "bike_id": "ac88172ce257cb23092689fd22489d22"}, {"lon": -76.98097033333333, "lat": 38.8571955, "name": "cb050f2231e8e3e7f883b7b4126320a2", "fusion_lat": 0.0, "fusion_lon": 0.0, "rental_uris": {"android": "https://dc.lft.to/lastmile_qr_scan", "ios": "https://dc.lft.to/lastmile_qr_scan"}, "is_reserved": 0, "is_disabled": 0, "type": "electric_scooter", "bike_id": "cb050f2231e8e3e7f883b7b4126320a2"}, {"lon": -77.02661033333334, "lat": 38.93861966666667, "name": "c4c3160f51302c9329da78fe3ac5abbf", "fusion_lat": 0.0, "fusion_lon": 0.0, "rental_uris": {"android": "https://dc.lft.to/lastmile_qr_scan", "ios": "https://dc.lft.to/lastmile_qr_scan"}, "is_reserved": 0, "is_disabled": 0, "type": "electric_scooter", "bike_id": "c4c3160f51302c9329da78fe3ac5abbf"}, {"lon": -77.00920033333334, "lat": 38.902712, "name": "0b50120132dac15d9500a4a7200c48ef", "fusion_lat": 0.0, "fusion_lon": 0.0, "rental_uris": {"android": "https://dc.lft.to/lastmile_qr_scan", "ios": "https://dc.lft.to/lastmile_qr_scan"}, "is_reserved": 0, "is_disabled": 0, "type": "electric_scooter", "bike_id": "0b50120132dac15d9500a4a7200c48ef"}, {"lon": -77.01875116666666, "lat": 38.887484, "name": "d53578bf3b3592f548419b2a6027f024", "fusion_lat": 0.0, "fusion_lon": 0.0, "rental_uris": {"android": "https://dc.lft.to/lastmile_qr_scan", "ios": "https://dc.lft.to/lastmile_qr_scan"}, "is_reserved": 0, "is_disabled": 0, "type": "electric_scooter", "bike_id": "d53578bf3b3592f548419b2a6027f024"}, {"lon": -77.04355966666667, "lat": 38.9083835, "name": "bbd66d0537d5ee76909159cc2274c83a", "fusion_lat": 0.0, "fusion_lon": 0.0, "rental_uris": {"android": "https://dc.lft.to/lastmile_qr_scan", "ios": "https://dc.lft.to/lastmile_qr_scan"}, "is_reserved": 0, "is_disabled": 0, "type": "electric_scooter", "bike_id": "bbd66d0537d5ee76909159cc2274c83a"}, {"lon": -77.02386833333334, "lat": 38.909643, "name": "d3581925e9bcf0f521369df19b0c4384", "fusion_lat": 0.0, "fusion_lon": 0.0, "rental_uris": {"android": "https://dc.lft.to/lastmile_qr_scan", "ios": "https://dc.lft.to/lastmile_qr_scan"},