{"data": {"bikes": [{"fusion_lat": 0.0, "name": "9bfb433b77425671e2afa6f8eefafe9e", "is_disabled": 0, "rental_uris": {"android": "https://dc.lft.to/lastmile_qr_scan", "ios": "https://dc.lft.to/lastmile_qr_scan"}, "fusion_lon": 0.0, "lat": 38.916569833333334, "bike_id": "9bfb433b77425671e2afa6f8eefafe9e", "type": "electric_scooter", "is_reserved": 0, "lon": -77.009542}, {"fusion_lat": 0.0, "name": "2c3f0c2c2460f4f5877a39cfa71c29fa", "is_disabled": 0, "rental_uris": {"android": "https://dc.lft.to/lastmile_qr_scan", "ios": "https://dc.lft.to/lastmile_qr_scan"}, "fusion_lon": 0.0, "lat": 38.90538016666667, "bike_id": "2c3f0c2c2460f4f5877a39cfa71c29fa", "type": "electric_scooter", "is_reserved": 0, "lon": -76.98196383333334}, {"fusion_lat": 0.0, "name": "5f4b5c78e3876d92b844dec1ce5b3ef1", "is_disabled": 0, "rental_uris": {"android": "https://dc.lft.to/lastmile_qr_scan", "ios": "https://dc.lft.to/lastmile_qr_scan"}, "fusion_lon": 0.0, "lat": 38.903974, "bike_id": "5f4b5c78e3876d92b844dec1ce5b3ef1", "type": "electric_scooter", "is_reserved": 0, "lon": -77.01768466666667}, {"fusion_lat": 0.0, "name": "6deb9c7c99ecd759300c8df7c5a5ae8c", "is_disabled": 0, "rental_uris": {"android": "https://dc.lft.to/lastmile_qr_scan", "ios": "https://dc.lft.to/lastmile_qr_scan"}, "fusion_lon": 0.0, "lat": 38.92244633333333, "bike_id": "6deb9c7c99ecd759300c8df7c5a5ae8c", "type": "electric_scooter", "is_reserved": 0, "lon": -77.02235916666666}, {"fusion_lat": 0.0, "name": "4f20dcd91963bcf787b1f81eb7cbc8eb", "is_disabled": 0, "rental_uris": {"android": "https://dc.lft.to/lastmile_qr_scan", "ios": "https://dc.lft.to/lastmile_qr_scan"}, "fusion_lon": 0.0, "lat": 38.91556383333333, "bike_id": "4f20dcd91963bcf787b1f81eb7cbc8eb", "type": "electric_scooter", "is_reserved": 0, "lon": -77.04605066666667}, {"fusion_lat": 0.0, "name": "cf72dd445b4c6e314fb54708b01050ef", "is_disabled": 0, "rental_uris": {"android": "https://dc.lft.to/lastmile_qr_scan", "ios": "https://dc.lft.to/lastmile_qr_scan"}, "fusion_lon": 0.0, "lat": 38.901234333333335, "bike_id": "cf72dd445b4c6e314fb54708b01050ef", "type": "electric_scooter", "is_reserved": 0, "lon": -77.023163}, {"fusion_lat": 0.0, "name": "9ad5db3ad75649e5ba2fe3afb11137d5", "is_disabled": 0, "rental_uris": {"android": "https://dc.lft.to/lastmile_qr_scan", "ios": "https://dc.lft.to/lastmile_qr_scan"}, "fusion_lon": 0.0, "lat": 38.865192666666665, "bike_id": "9ad5db3ad75649e5ba2fe3afb11137d5", "type": "electric_bike", "is_reserved": 0, "lon": -77.129377}, {"fusion_lat": 0.0, "name": "7ccacea8eb986b32cca4eb51aa21e9f4", "is_disabled": 0, "rental_uris": {"android": "https://dc.lft.to/lastmile_qr_scan", "ios": "https://dc.lft.to/lastmile_qr_scan"}, "fusion_lon": 0.0, "lat": 38.914159, "bike_id": "7ccacea8eb986b32cca4eb51aa21e9f4", "type": "electric_scooter", "is_reserved": 0, "lon": -77.04243716666667}, {"fusion_lat": 0.0, "name": "f5a3586085f195f44fa633e815d50af2", "is_disabled": 0, "rental_uris": {"android": "https://dc.lft.to/lastmile_qr_scan", "ios": "https://dc.lft.to/lastmile_qr_scan"}, "fusion_lon": 0.0, "lat": 38.887396, "bike_id": "f5a3586085f195f44fa633e815d50af2", "type": "electric_scooter", "is_reserved": 0, "lon": -77.0151065}, {"fusion_lat": 0.0, "name": "df1fc9f82f5011bfc62f60b0a461e2b1", "is_disabled": 0, "rental_uris": {"android": "https://dc.lft.to/lastmile_qr_scan", "ios": "https://dc.lft.to/lastmile_qr_scan"}, "fusion_lon": 0.0, "lat": 38.91265816666667, "bike_id": "df1fc9f82f5011bfc62f60b0a461e2b1", "type": "electric_scooter", "is_reserved": 0, "lon": -77.036334}, {"fusion_lat": 0.0, "name": "b57cec55792fbce727852f41fcb05e3a", "is_disabled": 0, "rental_uris": {"android": "https://dc.lft.to/lastmile_qr_scan", "ios": "https://dc.lft.to/lastmile_qr_scan"}, "fusion_lon": 0.0, "lat": 38.917972, "bike_id": "b57cec55792fbce727852f41fcb05e3a", "type": "electric_scooter", "is_reserved": 0, "lon": -77.03204933333333}, {"fusion_lat": 0.0, "name": "3dc1c73e7862cd35b05ba202cc134693", "is_disabled": 0, "rental_uris": {"android": "https://dc.lft.to/lastmile_qr_scan", "ios": "https://dc.lft.to/lastmile_qr_scan"}, "fusion_lon": 0.0, "lat": 38.929795, "bike_id": "3dc1c73e7862cd35b05ba202cc134693", "type": "electric_scooter", "is_reserved": 0, "lon": -77.03100516666667}, {"fusion_lat": 0.0, "name": "3fa45f798492d8e48918ad8263a43130", "is_disabled": 0, "rental_uris": {"android": "https://dc.lft.to/lastmile_qr_scan", "ios": "https://dc.lft.to/lastmile_qr_scan"}, "fusion_lon": 0.0, "lat": 38.887694833333335, "bike_id": "3fa45f798492d8e48918ad8263a43130", "type": "electric_scooter", "is_reserved": 0, "lon": -77.028625}, {"fusion_lat": 0.0, "name": "3bcfa427a150a3e9abda5a06307966c1", "is_disabled": 0, "rental_uris": {"android": "https://dc.lft.to/lastmile_qr_scan", "ios": "https://dc.lft.to/lastmile_qr_scan"}, "fusion_lon": 0.0, "lat": 38.901746833333334, "bike_id": "3bcfa427a150a3e9abda5a06307966c1", "type": "electric_scooter", "is_reserved": 0, "lon": -77.0247005}, {"fusion_lat": 0.0, "name": "60a0c17d0ac221079cef04ecdba299f4", "is_disabled": 0, "rental_uris": {"android": "https://dc.lft.to/lastmile_qr_scan", "ios": "https://dc.lft.to/lastmile_qr_scan"}, "fusion_lon": 0.0, "lat": 38.916794833333334, "bike_id": "60a0c17d0ac221079cef04ecdba299f4", "type": "electric_scooter", "is_reserved": 0, "lon": -77.03688633333333}, {"fusion_lat": 0.0, "name": "e641d74f8eb53bf9d33870c6062518cb", "is_disabled": 0, "rental_uris": {"android": "https://dc.lft.to/lastmile_qr_scan", "ios": "https://dc.lft.to/lastmile_qr_scan"}, "fusion_lon": 0.0, "lat": 38.843584, "bike_id": "e641d74f8eb53bf9d33870c6062518cb", "type": "electric_bike", "is_reserved": 0, "lon": -76.978276}, {"fusion_lat": 0.0, "name": "cf2e47a1dbcef2ed79e543552af2054d", "is_disabled": 0, "rental_uris": {"android": "https://dc.lft.to/lastmile_qr_scan", "ios": "https://dc.lft.to/lastmile_qr_scan"}, "fusion_lon": 0.0, "lat": 38.9027325, "bike_id": "cf2e47a1dbcef2ed79e543552af2054d", "type": "electric_scooter", "is_reserved": 0, "lon": -77.03945866666666}, {"fusion_lat": 0.0, "name": "2584011ce349b60b488c9ea6255a5361", "is_disabled": 0, "rental_uris": {"android": "https://dc.lft.to/lastmile_qr_scan", "ios": "https://dc.lft.to/lastmile_qr_scan"}, "fusion_lon": 0.0, "lat": 38.89373583333333, "bike_id": "2584011ce349b60b488c9ea6255a5361", "type": "electric_scooter", "is_reserved": 0, "lon": -76.94810116666666}, {"fusion_lat": 0.0, "name": "ef052b7988cda270118a30e779f1ed00", "is_disabled": 0, "rental_uris": {"android": "https://dc.lft.to/lastmile_qr_scan", "ios": "https://dc.lft.to/lastmile_qr_scan"}, "fusion_lon": 0.0, "lat": 38.89977616666667, "bike_id": "ef052b7988cda270118a30e779f1ed00", "type": "electric_scooter", "is_reserved": 0, "lon": -77.016143}, {"fusion_lat": 0.0, "name": "4c79b44de39bd4cb005aab97836ed5da", "is_disabled": 0, "rental_uris": {"android": "https://dc.lft.to/lastmile_qr_scan", "ios": "https://dc.lft.to/lastmile_qr_scan"}, "fusion_lon": 0.0, "lat": 38.903905333333334, "bike_id": "4c79b44de39bd4cb005aab97836ed5da", "type": "electric_scooter", "is_reserved": 0, "lon": -77.03821433333333}, {"fusion_lat": 0.0, "name": "94f32154f14d420126100253db5d5313", "is_disabled": 0, "rental_uris": {"android": "https://dc.lft.to/lastmile_qr_scan", "ios": "https://dc.lft.to/lastmile_qr_scan"}, "fusion_lon": 0.0, "lat": 38.92348416666667, "bike_id": "94f32154f14d420126100253db5d5313", "type": "electric_scooter", "is_reserved": 0, "lon": -77.05221266666666}, {"fusion_lat": 0.0, "name": "01f39ab755cc15e50a12639c6e3bf335", "is_disabled": 0, "rental_uris": {"android": "https://dc.lft.to/lastmile_qr_scan", "ios": "https://dc.lft.to/lastmile_qr_scan"}, "fusion_lon": 0.0, "lat": 38.91718566666667, "bike_id": "01f39ab755cc15e50a12639c6e3bf335", "type": "electric_scooter", "is_reserved": 0, "lon": -77.03223383333334}, {"fusion_lat": 0.0, "name": "f589cceee355559d221d025777eada10", "is_disabled": 0, "rental_uris": {"android": "https://dc.lft.to/lastmile_qr_scan", "ios": "https://dc.lft.to/lastmile_qr_scan"}, "fusion_lon": 0.0, "lat": 38.91573133333333, "bike_id": "f589cceee355559d221d025777eada10", "type": "electric_scooter", "is_reserved": 0, "lon": -76.983948}, {"fusion_lat": 0.0, "name": "c4ff025ee348b803841ac92c03b6ba9d", "is_disabled": 0, "rental_uris": {"android": "https://dc.lft.to/lastmile_qr_scan", "ios": "https://dc.lft.to/lastmile_qr_scan"}, "fusion_lon": 0.0, "lat": 38.90812833333333, "bike_id": "c4ff025ee348b803841ac92c03b6ba9d", "type": "electric_scooter", "is_reserved": 0, "lon": -77.034487}, {"fusion_lat": 0.0, "name": "d456c4b8fc1a8fa3de72819575f0882f", "is_disabled": 0, "rental_uris": {"android": "https://dc.lft.to/lastmile_qr_scan", "ios": "https://dc.lft.to/lastmile_qr_scan"}, "fusion_lon": 0.0, "lat": 38.924308833333335, "bike_id": "d456c4b8fc1a8fa3de72819575f0882f", "type": "electric_scooter", "is_reserved": 0, "lon": -77.0298015}, {"fusion_lat": 0.0, "name": "bb153ff0e819c9b8ca8619bdc9de0b85", "is_disabled": 0, "rental_uris": {"android": "https://dc.lft.to/lastmile_qr_scan", "ios": "https://dc.lft.to/lastmile_qr_scan"}, "fusion_lon": 0.0, "lat": 38.94502383333333, "bike_id": "bb153ff0e819c9b8ca8619bdc9de0b85", "type": "electric_scooter", "is_reserved": 0, "lon": -77.031478}, {"fusion_lat": 0.0, "name": "d40cacec3f70d9e83f47a3e7bbfa3615", "is_disabled": 0, "rental_uris": {"android": "https://dc.lft.to/lastmile_qr_scan", "ios": "https://dc.lft.to/lastmile_qr_scan"}, "fusion_lon": 0.0, "lat": 38.92323416666667, "bike_id": "d40cacec3f70d9e83f47a3e7bbfa3615", "type": "electric_scooter", "is_reserved": 0, "lon": -77.03750333333333}, {"fusion_lat": 0.0, "name": "a81a452cc8e8adb0929346b581147992", "is_disabled": 0, "rental_uris": {"android": "https://dc.lft.to/lastmile_qr_scan", "ios": "https://dc.lft.to/lastmile_qr_scan"}, "fusion_lon": 0.0, "lat": 38.89223283333333, "bike_id": "a81a452cc8e8adb0929346b581147992", "type": "electric_scooter", "is_reserved": 0, "lon": -77.02629383333333}, {"fusion_lat": 0.0, "name": "e51fdf361fd78618285c85817abc66d4", "is_disabled": 0, "rental_uris": {"android": "https://dc.lft.to/lastmile_qr_scan", "ios": "https://dc.lft.to/lastmile_qr_scan"}, "fusion_lon": 0.0, "lat": 38.90102566666667, "bike_id": "e51fdf361fd78618285c85817abc66d4", "type": "electric_scooter", "is_reserved": 0, "lon": -77.0197945}, {"fusion_lat": 0.0, "name": "31547dbaacea4efbea5a7beb29d9d705", "is_disabled": 0, "rental_uris": {"android": "https://dc.lft.to/lastmile_qr_scan", "ios": "https://dc.lft.to/lastmile_qr_scan"}, "fusion_lon": 0.0, "lat": 38.91030716666667, "bike_id": "31547dbaacea4efbea5a7beb29d9d705", "type": "electric_scooter", "is_reserved": 0, "lon": -77.00759416666666}, {"fusion_lat": 0.0, "name": "fc370135d9ab8d9dabd6e86e53760002", "is_disabled": 0, "rental_uris": {"android": "https://dc.lft.to/lastmile_qr_scan", "ios": "https://dc.lft.to/lastmile_qr_scan"}, "fusion_lon": 0.0, "lat": 38.86256783333333, "bike_id": "fc370135d9ab8d9dabd6e86e53760002", "type": "electric_bike", "is_reserved": 0, "lon": -76.98336783333333}, {"fusion_lat": 0.0, "name": "1f8c81bb89debc93eba64fd5432e2c17", "is_disabled": 0, "rental_uris": {"android": "https://dc.lft.to/lastmile_qr_scan", "ios": "https://dc.lft.to/lastmile_qr_scan"}, "fusion_lon": 0.0, "lat": 38.91820166666667, "bike_id": "1f8c81bb89debc93eba64fd5432e2c17", "type": "electric_scooter", "is_reserved": 0, "lon": -77.040009}, {"fusion_lat": 0.0, "name": "34b9d3ebaaa9e0111da80225fc892dbe", "is_disabled": 0, "rental_uris": {"android": "https://dc.lft.to/lastmile_qr_scan", "ios": "https://dc.lft.to/lastmile_qr_scan"}, "fusion_lon": 0.0, "lat": 38.8922785, "bike_id": "34b9d3ebaaa9e0111da80225fc892dbe", "type": "electric_scooter", "is_reserved": 0, "lon": -77.02222533333334}, {"fusion_lat": 0.0, "name": "36991573e05caad6009c2b00d5743ffd", "is_disabled": 0, "rental_uris": {"android": "https://dc.lft.to/lastmile_qr_scan", "ios": "https://dc.lft.to/lastmile_qr_scan"}, "fusion_lon": 0.0, "lat": 38.9142405, "bike_id": "36991573e05caad6009c2b00d5743ffd", "type": "electric_scooter", "is_reserved": 0, "lon": -77.04503866666667}, {"fusion_lat": 0.0, "name": "d44174e319d1e95268ac0885d3fe836f", "is_disabled": 0, "rental_uris": {"android": "https://dc.lft.to/lastmile_qr_scan", "ios": "https://dc.lft.to/lastmile_qr_scan"}, "fusion_lon": 0.0, "lat": 38.9027405, "bike_id": "d44174e319d1e95268ac0885d3fe836f", "type": "electric_scooter", "is_reserved": 0, "lon": -77.01762866666667}, {"fusion_lat": 0.0, "name": "5e3bf1e3d6d08a2dcad1c8af3edcbaa9", "is_disabled": 0, "rental_uris": {"android": "https://dc.lft.to/lastmile_qr_scan", "ios": "https://dc.lft.to/lastmile_qr_scan"}, "fusion_lon": 0.0, "lat": 38.9418485, "bike_id": "5e3bf1e3d6d08a2dcad1c8af3edcbaa9", "type": "electric_scooter", "is_reserved": 0, "lon": -77.036551}, {"fusion_lat": 0.0, "name": "c47757c70876976dd8822abd5f812846", "is_disabled": 0, "rental_uris": {"android": "https://dc.lft.to/lastmile_qr_scan", "ios": "https://dc.lft.to/lastmile_qr_scan"}, "fusion_lon": 0.0, "lat": 38.921459166666665, "bike_id": "c47757c70876976dd8822abd5f812846", "type": "electric_scooter", "is_reserved": 0, "lon": -77.04009}, {"fusion_lat": 0.0, "name": "b2fa9b42360b145267ede9528de403ca", "is_disabled": 0, "rental_uris": {"android": "https://dc.lft.to/lastmile_qr_scan", "ios": "https://dc.lft.to/lastmile_qr_scan"}, "fusion_lon": 0.0, "lat": 38.917259333333334, "bike_id": "b2fa9b42360b145267ede9528de403ca", "type": "electric_scooter", "is_reserved": 0, "lon": -77.00810183333333}, {"fusion_lat": 0.0, "name": "6f0019d9063b4c17e51fada993579981", "is_disabled": 0, "rental_uris": {"android": "https://dc.lft.to/lastmile_qr_scan", "ios": "https://dc.lft.to/lastmile_qr_scan"}, "fusion_lon": 0.0, "lat": 38.85798583333333, "bike_id": "6f0019d9063b4c17e51fada993579981", "type": "electric_bike", "is_reserved": 0, "lon": -76.98736333333333}, {"fusion_lat": 0.0, "name": "e59ae3338c3fd8b443fc37edbd2f372d", "is_disabled": 0, "rental_uris": {"android": "https://dc.lft.to/lastmile_qr_scan", "ios": "https://dc.lft.to/lastmile_qr_scan"}, "fusion_lon": 0.0, "lat": 38.885444166666666, "bike_id": "e59ae3338c3fd8b443fc37edbd2f372d", "type": "electric_scooter", "is_reserved": 0, "lon": -77.0334185}, {"fusion_lat": 0.0, "name": "52fe81f68061ffc7c3641d589480a50f", "is_disabled": 0, "rental_uris": {"android": "https://dc.lft.to/lastmile_qr_scan", "ios": "https://dc.lft.to/lastmile_qr_scan"}, "fusion_lon": 0.0, "lat": 38.878258833333334, "bike_id": "52fe81f68061ffc7c3641d589480a50f", "type": "electric_scooter", "is_reserved": 0, "lon": -77.00122733333333}, {"fusion_lat": 0.0, "name": "2d8e6017ec0d1af02c402d2a7ab27b7b", "is_disabled": 0, "rental_uris": {"android": "https://dc.lft.to/lastmile_qr_scan", "ios": "https://dc.lft.to/lastmile_qr_scan"}, "fusion_lon": 0.0, "lat": 38.918609333333336, "bike_id": "2d8e6017ec0d1af02c402d2a7ab27b7b", "type": "electric_scooter", "is_reserved": 0, "lon": -77.02389816666667}, {"fusion_lat": 0.0, "name": "4a5a49033e296581d3a1cebb39ca05af", "is_disabled": 0, "rental_uris": {"android": "https://dc.lft.to/lastmile_qr_scan", "ios": "https://dc.lft.to/lastmile_qr_scan"}, "fusion_lon": 0.0, "lat": 38.91721033333334, "bike_id": "4a5a49033e296581d3a1cebb39ca05af", "type": "electric_scooter", "is_reserved": 0, "lon": -77.03185616666667}, {"fusion_lat": 0.0, "name": "40e2b4bc46a28cf0257581500596b68f", "is_disabled": 0, "rental_uris": {"android": "https://dc.lft.to/lastmile_qr_scan", "ios": "https://dc.lft.to/lastmile_qr_scan"}, "fusion_lon": 0.0, "lat": 38.86519666666667, "bike_id": "40e2b4bc46a28cf0257581500596b68f", "type": "electric_bike", "is_reserved": 0, "lon": -76.97332566666667}, {"fusion_lat": 0.0, "name": "7f04176bb63d8d4298621ca7fe952b30", "is_disabled": 0, "rental_uris": {"android": "https://dc.lft.to/lastmile_qr_scan", "ios": "https://dc.lft.to/lastmile_qr_scan"}, "fusion_lon": 0.0, "lat": 38.919360166666664, "bike_id": "7f04176bb63d8d4298621ca7fe952b30", "type": "electric_scooter", "is_reserved": 0, "lon": -77.031788}, {"fusion_lat": 0.0, "name": "d0bf1fde6872cf0f6886f6058a50adde", "is_disabled": 0, "rental_uris": {"android": "https://dc.lft.to/lastmile_qr_scan", "ios": "https://dc.lft.to/lastmile_qr_scan"}, "fusion_lon": 0.0, "lat": 38.88779916666667, "bike_id": "d0bf1fde6872cf0f6886f6058a50adde", "type": "electric_scooter", "is_reserved": 0, "lon": -77.0228115}, {"fusion_lat": 0.0, "name": "5d139e4c3500a83ba154e68e9141fbb9", "is_disabled": 0, "rental_uris": {"android": "https://dc.lft.to/lastmile_qr_scan", "ios": "https://dc.lft.to/lastmile_qr_scan"}, "fusion_lon": 0.0, "lat": 38.849217, "bike_id": "5d139e4c3500a83ba154e68e9141fbb9", "type": "electric_bike", "is_reserved": 0, "lon": -77.09981116666667}, {"fusion_lat": 0.0, "name": "b787c489ae545dde1af0ab49e4c50126", "is_disabled": 0, "rental_uris": {"android": "https://dc.lft.to/lastmile_qr_scan", "ios": "https://dc.lft.to/lastmile_qr_scan"}, "fusion_lon": 0.0, "lat": 38.91667966666667, "bike_id": "b787c489ae545dde1af0ab49e4c50126", "type": "electric_scooter", "is_reserved": 0, "lon": -77.03849316666667}, {"fusion_lat": 0.0, "name": "8bec9abb913da8b620ce297666cd3f5d", "is_disabled": 0, "rental_uris": {"android": "https://dc.lft.to/lastmile_qr_scan", "ios": "https://dc.lft.to/lastmile_qr_scan"}, "fusion_lon": 0.0, "lat": 38.91218083333333, "bike_id": "8bec9abb913da8b620ce297666cd3f5d", "type": "electric_scooter", "is_reserved": 0, "lon": -77.03182116666666}, {"fusion_lat": 0.0, "name": "3a02938d2ffc4648b6c666825f94930d", "is_disabled": 0, "rental_uris": {"android": "https://dc.lft.to/lastmile_qr_scan", "ios": "https://dc.lft.to/lastmile_qr_scan"}, "fusion_lon": 0.0, "lat": 38.92813566666667, "bike_id": "3a02938d2ffc4648b6c666825f94930d", "type": "electric_scooter", "is_reserved": 0, "lon": -77.04359616666666}, {"fusion_lat": 0.0, "name": "325e4167abc3c305eb604d6bb5a75e65", "is_disabled": 0, "rental_uris": {"android": "https://dc.lft.to/lastmile_qr_scan", "ios": "https://dc.lft.to/lastmile_qr_scan"}, "fusion_lon": 0.0, "lat": 38.9149055, "bike_id": "325e4167abc3c305eb604d6bb5a75e65", "type": "electric_scooter", "is_reserved": 0, "lon": -77.02173383333333}, {"fusion_lat": 0.0, "name": "1b9bfc4239f60a753b72c703ea4244c5", "is_disabled": 0, "rental_uris": {"android": "https://dc.lft.to/lastmile_qr_scan", "ios": "https://dc.lft.to/lastmile_qr_scan"}, "fusion_lon": 0.0, "lat": 38.9158355, "bike_id": "1b9bfc4239f60a753b72c703ea4244c5", "type": "electric_scooter", "is_reserved": 0, "lon": -77.04489416666667}, {"fusion_lat": 0.0, "name": "ae13def8beacc88aa11c9ee12521215e", "is_disabled": 0, "rental_uris": {"android": "https://dc.lft.to/lastmile_qr_scan", "ios": "https://dc.lft.to/lastmile_qr_scan"}, "fusion_lon": 0.0, "lat": 38.88901716666667, "bike_id": "ae13def8beacc88aa11c9ee12521215e", "type": "electric_scooter", "is_reserved": 0, "lon": -76.9920415}, {"fusion_lat": 0.0, "name": "02a3400bfded080dcfd0e3cd4d3d29ab", "is_disabled": 0, "rental_uris": {"android": "https://dc.lft.to/lastmile_qr_scan", "ios": "https://dc.lft.to/lastmile_qr_scan"}, "fusion_lon": 0.0, "lat": 38.901112833333336, "bike_id": "02a3400bfded080dcfd0e3cd4d3d29ab", "type": "electric_scooter", "is_reserved": 0, "lon": -77.031868}, {"fusion_lat": 0.0, "name": "4608d757c09cdd97a0b7ed1999d22841", "is_disabled": 0, "rental_uris": {"android": "https://dc.lft.to/lastmile_qr_scan", "ios": "https://dc.lft.to/lastmile_qr_scan"}, "fusion_lon": 0.0, "lat": 38.879344333333336, "bike_id": "4608d757c09cdd97a0b7ed1999d22841", "type": "electric_scooter", "is_reserved": 0, "lon": -77.02371883333333}, {"fusion_lat": 0.0, "name": "f019d9f1dfb6808dd634a01c73e78bf7", "is_disabled": 0, "rental_uris": {"android": "https://dc.lft.to/lastmile_qr_scan", "ios": "https://dc.lft.to/lastmile_qr_scan"}, "fusion_lon": 0.0, "lat": 38.92323583333334, "bike_id": "f019d9f1dfb6808dd634a01c73e78bf7", "type": "electric_scooter", "is_reserved": 0, "lon": -77.03565366666666}, {"fusion_lat": 0.0, "name": "2aa7ea36418555a6a7eeb942341d2ddc", "is_disabled": 0, "rental_uris": {"android": "https://dc.lft.to/lastmile_qr_scan", "ios": "https://dc.lft.to/lastmile_qr_scan"}, "fusion_lon": 0.0, "lat": 38.95370233333333, "bike_id": "2aa7ea36418555a6a7eeb942341d2ddc", "type": "electric_scooter", "is_reserved": 0, "lon": -76.9984745}, {"fusion_lat": 0.0, "name": "9380c8a03968ec8606ae3b5092af2998", "is_disabled": 0, "rental_uris": {"android": "https://dc.lft.to/lastmile_qr_scan", "ios": "https://dc.lft.to/lastmile_qr_scan"}, "fusion_lon": 0.0, "lat": 38.90627216666667, "bike_id": "9380c8a03968ec8606ae3b5092af2998", "type": "electric_scooter", "is_reserved": 0, "lon": -77.02609183333334}, {"fusion_lat": 0.0, "name": "8ef724811e217ac41b8de1a645eb184e", "is_disabled": 0, "rental_uris": {"android": "https://dc.lft.to/lastmile_qr_scan", "ios": "https://dc.lft.to/lastmile_qr_scan"}, "fusion_lon": 0.0, "lat": 38.90495583333333, "bike_id": "8ef724811e217ac41b8de1a645eb184e", "type": "electric_scooter", "is_reserved": 0, "lon": -77.03232433333334}, {"fusion_lat": 0.0, "name": "a40702f6d07ed13242b583232296cab0", "is_disabled": 0, "rental_uris": {"android": "https://dc.lft.to/lastmile_qr_scan", "ios": "https://dc.lft.to/lastmile_qr_scan"}, "fusion_lon": 0.0, "lat": 38.92382033333333, "bike_id": "a40702f6d07ed13242b583232296cab0", "type": "electric_scooter", "is_reserved": 0, "lon": -77.05250266666667}, {"fusion_lat": 0.0, "name": "b3659164b7f8672018a935bf9c0768d6", "is_disabled": 0, "rental_uris": {"android": "https://dc.lft.to/lastmile_qr_scan", "ios": "https://dc.lft.to/lastmile_qr_scan"}, "fusion_lon": 0.0, "lat": 38.90531333333333, "bike_id": "b3659164b7f8672018a935bf9c0768d6", "type": "electric_scooter", "is_reserved": 0, "lon": -77.04768033333333}, {"fusion_lat": 0.0, "name": "b5ab103093ba8e38fbcdc229c90f215b", "is_disabled": 0, "rental_uris": {"android": "https://dc.lft.to/lastmile_qr_scan", "ios": "https://dc.lft.to/lastmile_qr_scan"}, "fusion_lon": 0.0, "lat": 38.907371166666664, "bike_id": "b5ab103093ba8e38fbcdc229c90f215b", "type": "electric_scooter", "is_reserved": 0, "lon": -77.0432865}, {"fusion_lat": 0.0, "name": "960a85c21f3144de163c15e79f5253f9", "is_disabled": 0, "rental_uris": {"android": "https://dc.lft.to/lastmile_qr_scan", "ios": "https://dc.lft.to/lastmile_qr_scan"}, "fusion_lon": 0.0, "lat": 38.919942666666664, "bike_id": "960a85c21f3144de163c15e79f5253f9", "type": "electric_scooter", "is_reserved": 0, "lon": -77.0218455}, {"fusion_lat": 0.0, "name": "d1e4b67603b47928901e1f1b1a84c6cc", "is_disabled": 0, "rental_uris": {"android": "https://dc.lft.to/lastmile_qr_scan", "ios": "https://dc.lft.to/lastmile_qr_scan"}, "fusion_lon": 0.0, "lat": 38.90065033333333, "bike_id": "d1e4b67603b47928901e1f1b1a84c6cc", "type": "electric_scooter", "is_reserved": 0, "lon": -76.9338835}, {"fusion_lat": 0.0, "name": "794260d407a164d9f9065beb54a6aec2", "is_disabled": 0, "rental_uris": {"android": "https://dc.lft.to/lastmile_qr_scan", "ios": "https://dc.lft.to/lastmile_qr_scan"}, "fusion_lon": 0.0, "lat": 38.87656883333333, "bike_id": "794260d407a164d9f9065beb54a6aec2", "type": "electric_scooter", "is_reserved": 0, "lon": -77.001168}, {"fusion_lat": 0.0, "name": "5af599c077fba8762459aed06e83bdfb", "is_disabled": 0, "rental_uris": {"android": "https://dc.lft.to/lastmile_qr_scan", "ios": "https://dc.lft.to/lastmile_qr_scan"}, "fusion_lon": 0.0, "lat": 38.898324833333334, "bike_id": "5af599c077fba8762459aed06e83bdfb", "type": "electric_scooter", "is_reserved": 0, "lon": -76.946372}, {"fusion_lat": 0.0, "name": "7b11440c8aa2e5c70072976a00460a91", "is_disabled": 0, "rental_uris": {"android": "https://dc.lft.to/lastmile_qr_scan", "ios": "https://dc.lft.to/lastmile_qr_scan"}, "fusion_lon": 0.0, "lat": 38.91212133333333, "bike_id": "7b11440c8aa2e5c70072976a00460a91", "type": "electric_scooter", "is_reserved": 0, "lon": -77.0321095}, {"fusion_lat": 0.0, "name": "b9be7251e1ec290923299d9381a1c92a", "is_disabled": 0, "rental_uris": {"android": "https://dc.lft.to/lastmile_qr_scan", "ios": "https://dc.lft.to/lastmile_qr_scan"}, "fusion_lon": 0.0, "lat": 38.9051675, "bike_id": "b9be7251e1ec290923299d9381a1c92a", "type": "electric_scooter", "is_reserved": 0, "lon": -77.04829033333333}, {"fusion_lat": 0.0, "name": "dbd0f372d278c1a359ce5a3dc23235c2", "is_disabled": 0, "rental_uris": {"android": "https://dc.lft.to/lastmile_qr_scan", "ios": "https://dc.lft.to/lastmile_qr_scan"}, "fusion_lon": 0.0, "lat": 38.89855266666667, "bike_id": "dbd0f372d278c1a359ce5a3dc23235c2", "type": "electric_scooter", "is_reserved": 0, "lon": -77.02216683333333}, {"fusion_lat": 0.0, "name": "5ed721a01b06c06f90edc6a94f969a28", "is_disabled": 0, "rental_uris": {"android": "https://dc.lft.to/lastmile_qr_scan", "ios": "https://dc.lft.to/lastmile_qr_scan"}, "fusion_lon": 0.0, "lat": 38.90399633333333, "bike_id": "5ed721a01b06c06f90edc6a94f969a28", "type": "electric_scooter", "is_reserved": 0, "lon": -77.03659833333333}, {"fusion_lat": 0.0, "name": "b61caa93a914d034c896965356b06eb8", "is_disabled": 0, "rental_uris": {"android": "https://dc.lft.to/lastmile_qr_scan", "ios": "https://dc.lft.to/lastmile_qr_scan"}, "fusion_lon": 0.0, "lat": 38.878867166666666, "bike_id": "b61caa93a914d034c896965356b06eb8", "type": "electric_scooter", "is_reserved": 0, "lon": -76.965403}, {"fusion_lat": 0.0, "name": "85275d021881384a52dca7aaacfbc45f", "is_disabled": 0, "rental_uris": {"android": "https://dc.lft.to/lastmile_qr_scan", "ios": "https://dc.lft.to/lastmile_qr_scan"}, "fusion_lon": 0.0, "lat": 38.9081415, "bike_id": "85275d021881384a52dca7aaacfbc45f", "type": "electric_scooter", "is_reserved": 0, "lon": -77.03453833333333}, {"fusion_lat": 0.0, "name": "e1fded867da748248c82603fa167bf63", "is_disabled": 0, "rental_uris": {"android": "https://dc.lft.to/lastmile_qr_scan", "ios": "https://dc.lft.to/lastmile_qr_scan"}, "fusion_lon": 0.0, "lat": 38.91596216666667, "bike_id": "e1fded867da748248c82603fa167bf63", "type": "electric_scooter", "is_reserved": 0, "lon": -77.04657533333334}, {"fusion_lat": 0.0, "name": "9243fdcb6716bb7aa84f0341dc19f766", "is_disabled": 0, "rental_uris": {"android": "https://dc.lft.to/lastmile_qr_scan", "ios": "https://dc.lft.to/lastmile_qr_scan"}, "fusion_lon": 0.0, "lat": 38.899396, "bike_id": "9243fdcb6716bb7aa84f0341dc19f766", "type": "electric_scooter", "is_reserved": 0, "lon": -77.02198133333333}, {"fusion_lat": 0.0, "name": "0cb34079fc45d1b0d995dfd48147641a", "is_disabled": 0, "rental_uris": {"android": "https://dc.lft.to/lastmile_qr_scan", "ios": "https://dc.lft.to/lastmile_qr_scan"}, "fusion_lon": 0.0, "lat": 38.923935666666665, "bike_id": "0cb34079fc45d1b0d995dfd48147641a", "type": "electric_scooter", "is_reserved": 0, "lon": -77.0273945}, {"fusion_lat": 0.0, "name": "32b8b2541d4698bb3f167c438c93b168", "is_disabled": 0, "rental_uris": {"android": "https://dc.lft.to/lastmile_qr_scan", "ios": "https://dc.lft.to/lastmile_qr_scan"}, "fusion_lon": 0.0, "lat": 38.911748333333335, "bike_id": "32b8b2541d4698bb3f167c438c93b168", "type": "electric_scooter", "is_reserved": 0, "lon": -76.9872085}, {"fusion_lat": 0.0, "name": "e76901fc0f8d76580b56820b0b3bae6a", "is_disabled": 0, "rental_uris": {"android": "https://dc.lft.to/lastmile_qr_scan", "ios": "https://dc.lft.to/lastmile_qr_scan"}, "fusion_lon": 0.0, "lat": 38.895214333333335, "bike_id": "e76901fc0f8d76580b56820b0b3bae6a", "type": "electric_scooter", "is_reserved": 0, "lon": -77.00916833333333}, {"fusion_lat": 0.0, "name": "5ca2a6469d7ea7ef78e8bd4b6aca18d9", "is_disabled": 0, "rental_uris": {"android": "https://dc.lft.to/lastmile_qr_scan", "ios": "https://dc.lft.to/lastmile_qr_scan"}, "fusion_lon": 0.0, "lat": 38.925085333333335, "bike_id": "5ca2a6469d7ea7ef78e8bd4b6aca18d9", "type": "electric_scooter", "is_reserved": 0, "lon": -77.03878516666667}, {"fusion_lat": 0.0, "name": "d500cd3c4a37048cd26cba18e1f97dc2", "is_disabled": 0, "rental_uris": {"android": "https://dc.lft.to/lastmile_qr_scan", "ios": "https://dc.lft.to/lastmile_qr_scan"}, "fusion_lon": 0.0, "lat": 39.00486766666667, "bike_id": "d500cd3c4a37048cd26cba18e1f97dc2", "type": "electric_bike", "is_reserved": 0, "lon": -77.02182366666666}, {"fusion_lat": 0.0, "name": "6ace1eb5eceef4aca5a3e3cdc6497339", "is_disabled": 0, "rental_uris": {"android": "https://dc.lft.to/lastmile_qr_scan", "ios": "https://dc.lft.to/lastmile_qr_scan"}, "fusion_lon": 0.0, "lat": 38.900180666666664, "bike_id": "6ace1eb5eceef4aca5a3e3cdc6497339", "type": "electric_scooter", "is_reserved": 0, "lon": -77.0117525}, {"fusion_lat": 0.0, "name": "086cb908f13c28694a57e9196cea6fe9", "is_disabled": 0, "rental_uris": {"android": "https://dc.lft.to/lastmile_qr_scan", "ios": "https://dc.lft.to/lastmile_qr_scan"}, "fusion_lon": 0.0, "lat": 38.84764716666667, "bike_id": "086cb908f13c28694a57e9196cea6fe9", "type": "electric_bike", "is_reserved": 0, "lon": -76.967304}, {"fusion_lat": 0.0, "name": "b51cc1a068c9f8c48ad52013bc357761", "is_disabled": 0, "rental_uris": {"android": "https://dc.lft.to/lastmile_qr_scan", "ios": "https://dc.lft.to/lastmile_qr_scan"}, "fusion_lon": 0.0, "lat": 38.93222933333333, "bike_id": "b51cc1a068c9f8c48ad52013bc357761", "type": "electric_scooter", "is_reserved": 0, "lon": -77.04412066666667}, {"fusion_lat": 0.0, "name": "0fdaae1954e0a5582796ca7d44ef635f", "is_disabled": 0, "rental_uris": {"android": "https://dc.lft.to/lastmile_qr_scan", "ios": "https://dc.lft.to/lastmile_qr_scan"}, "fusion_lon": 0.0, "lat": 38.83591966666667, "bike_id": "0fdaae1954e0a5582796ca7d44ef635f", "type": "electric_bike", "is_reserved": 0, "lon": -76.990111}, {"fusion_lat": 0.0, "name": "f3402880e6630f1d42a63b9cfb3b75a9", "is_disabled": 0, "rental_uris": {"android": "https://dc.lft.to/lastmile_qr_scan", "ios": "https://dc.lft.to/lastmile_qr_scan"}, "fusion_lon": 0.0, "lat": 38.907677666666665, "bike_id": "f3402880e6630f1d42a63b9cfb3b75a9", "type": "electric_scooter", "is_reserved": 0, "lon": -77.03859366666667}, {"fusion_lat": 0.0, "name": "5dd35bba6409d5cdb2d5da6394aeada2", "is_disabled": 0, "rental_uris": {"android": "https://dc.lft.to/lastmile_qr_scan", "ios": "https://dc.lft.to/lastmile_qr_scan"}, "fusion_lon": 0.0, "lat": 38.898549333333335, "bike_id": "5dd35bba6409d5cdb2d5da6394aeada2", "type": "electric_scooter", "is_reserved": 0, "lon": -76.98165183333333}, {"fusion_lat": 0.0, "name": "3821ac26d18154baf20e2a01b5f0a0ac", "is_disabled": 0, "rental_uris": {"android": "https://dc.lft.to/lastmile_qr_scan", "ios": "https://dc.lft.to/lastmile_qr_scan"}, "fusion_lon": 0.0, "lat": 38.91965183333333, "bike_id": "3821ac26d18154baf20e2a01b5f0a0ac", "type": "electric_scooter", "is_reserved": 0, "lon": -77.04149616666666}, {"fusion_lat": 0.0, "name": "d31153f317de22e067f69021287faf4d", "is_disabled": 0, "rental_uris": {"android": "https://dc.lft.to/lastmile_qr_scan", "ios": "https://dc.lft.to/lastmile_qr_scan"}, "fusion_lon": 0.0, "lat": 38.892370666666665, "bike_id": "d31153f317de22e067f69021287faf4d", "type": "electric_scooter", "is_reserved": 0, "lon": -77.02376733333334}, {"fusion_lat": 0.0, "name": "cf98c675bfddbf142ff7f271b2e5aefe", "is_disabled": 0, "rental_uris": {"android": "https://dc.lft.to/lastmile_qr_scan", "ios": "https://dc.lft.to/lastmile_qr_scan"}, "fusion_lon": 0.0, "lat": 38.905973333333336, "bike_id": "cf98c675bfddbf142ff7f271b2e5aefe", "type": "electric_scooter", "is_reserved": 0, "lon": -77.0407945}, {"fusion_lat": 0.0, "name": "16d0ec1adfec4bcb0fb47f91954394da", "is_disabled": 0, "rental_uris": {"android": "https://dc.lft.to/lastmile_qr_scan", "ios": "https://dc.lft.to/lastmile_qr_scan"}, "fusion_lon": 0.0, "lat": 38.878133166666665, "bike_id": "16d0ec1adfec4bcb0fb47f91954394da", "type": "electric_scooter", "is_reserved": 0, "lon": -77.01526416666667}, {"fusion_lat": 0.0, "name": "c7ba01cc3051a0cbf95325834cc9a96f", "is_disabled": 0, "rental_uris": {"android": "https://dc.lft.to/lastmile_qr_scan", "ios": "https://dc.lft.to/lastmile_qr_scan"}, "fusion_lon": 0.0, "lat": 38.89796466666667, "bike_id": "c7ba01cc3051a0cbf95325834cc9a96f", "type": "electric_scooter", "is_reserved": 0, "lon": -76.98455816666667}, {"fusion_lat": 0.0, "name": "9759adadc9fd50681859c62b69815a9e", "is_disabled": 0, "rental_uris": {"android": "https://dc.lft.to/lastmile_qr_scan", "ios": "https://dc.lft.to/lastmile_qr_scan"}, "fusion_lon": 0.0, "lat": 38.93456, "bike_id": "9759adadc9fd50681859c62b69815a9e", "type": "electric_scooter", "is_reserved": 0, "lon": -77.03864966666667}, {"fusion_lat": 0.0, "name": "8f16fde9f3327e464404f6b7c5d01251", "is_disabled": 0, "rental_uris": {"android": "https://dc.lft.to/lastmile_qr_scan", "ios": "https://dc.lft.to/lastmile_qr_scan"}, "fusion_lon": 0.0, "lat": 38.928185, "bike_id": "8f16fde9f3327e464404f6b7c5d01251", "type": "electric_scooter", "is_reserved": 0, "lon": -77.02327566666666}, {"fusion_lat": 0.0, "name": "9a65a9e4b46841aaeb60e2e59e28a64e", "is_disabled": 0, "rental_uris": {"android": "https://dc.lft.to/lastmile_qr_scan", "ios": "https://dc.lft.to/lastmile_qr_scan"}, "fusion_lon": 0.0, "lat": 38.892863, "bike_id": "9a65a9e4b46841aaeb60e2e59e28a64e", "type": "electric_scooter", "is_reserved": 0, "lon": -77.03193216666666}, {"fusion_lat": 0.0, "name": "ab82843ec3105eb3e3900ba8a10c3211", "is_disabled": 0, "rental_uris": {"android": "https://dc.lft.to/lastmile_qr_scan", "ios": "https://dc.lft.to/lastmile_qr_scan"}, "fusion_lon": 0.0, "lat": 38.89540866666667, "bike_id": "ab82843ec3105eb3e3900ba8a10c3211", "type": "electric_scooter", "is_reserved": 0, "lon": -77.0267225}, {"fusion_lat": 0.0, "name": "5e03127bc83c99ccbae6d6a2d3df43c4", "is_disabled": 0, "rental_uris": {"android": "https://dc.lft.to/lastmile_qr_scan", "ios": "https://dc.lft.to/lastmile_qr_scan"}, "fusion_lon": 0.0, "lat": 38.91665583333333, "bike_id": "5e03127bc83c99ccbae6d6a2d3df43c4", "type": "electric_scooter", "is_reserved": 0, "lon": -77.03851583333334}, {"fusion_lat": 0.0, "name": "6c31f750fc0c857a2689d2455ad7ce75", "is_disabled": 0, "rental_uris": {"android": "https://dc.lft.to/lastmile_qr_scan", "ios": "https://dc.lft.to/lastmile_qr_scan"}, "fusion_lon": 0.0, "lat": 38.858749, "bike_id": "6c31f750fc0c857a2689d2455ad7ce75", "type": "electric_bike", "is_reserved": 0, "lon": -77.095552}, {"fusion_lat": 0.0, "name": "0624d9ab65e1801579e0e815ee604f64", "is_disabled": 0, "rental_uris": {"android": "https://dc.lft.to/lastmile_qr_scan", "ios": "https://dc.lft.to/lastmile_qr_scan"}, "fusion_lon": 0.0, "lat": 38.92816333333333, "bike_id": "0624d9ab65e1801579e0e815ee604f64", "type": "electric_scooter", "is_reserved": 0, "lon": -77.04332316666667}, {"fusion_lat": 0.0, "name": "1abf65c3b0dabb7f21b2b44ed0bf9634", "is_disabled": 0, "rental_uris": {"android": "https://dc.lft.to/lastmile_qr_scan", "ios": "https://dc.lft.to/lastmile_qr_scan"}, "fusion_lon": 0.0, "lat": 38.871652833333336, "bike_id": "1abf65c3b0dabb7f21b2b44ed0bf9634", "type": "electric_scooter", "is_reserved": 0, "lon": -77.00574333333333}, {"fusion_lat": 0.0, "name": "806adf419086fbcd8f5c0a5a41146204", "is_disabled": 0, "rental_uris": {"android": "https://dc.lft.to/lastmile_qr_scan", "ios": "https://dc.lft.to/lastmile_qr_scan"}, "fusion_lon": 0.0, "lat": 38.90302633333334, "bike_id": "806adf419086fbcd8f5c0a5a41146204", "type": "electric_scooter", "is_reserved": 0, "lon": -77.04951466666667}, {"fusion_lat": 0.0, "name": "b730da100e017102f88e832f234c1383", "is_disabled": 0, "rental_uris": {"android": "https://dc.lft.to/lastmile_qr_scan", "ios": "https://dc.lft.to/lastmile_qr_scan"}, "fusion_lon": 0.0, "lat": 38.929343833333334, "bike_id": "b730da100e017102f88e832f234c1383", "type": "electric_scooter", "is_reserved": 0, "lon": -77.03249033333333}, {"fusion_lat": 0.0, "name": "94544cf9a6f0ff34099c61bb7dcbea6a", "is_disabled": 0, "rental_uris": {"android": "https://dc.lft.to/lastmile_qr_scan", "ios": "https://dc.lft.to/lastmile_qr_scan"}, "fusion_lon": 0.0, "lat": 38.917112, "bike_id": "94544cf9a6f0ff34099c61bb7dcbea6a", "type": "electric_scooter", "is_reserved": 0, "lon": -77.02423683333333}, {"fusion_lat": 0.0, "name": "fa15343236652e35905a1537020a26a0", "is_disabled": 0, "rental_uris": {"android": "https://dc.lft.to/lastmile_qr_scan", "ios": "https://dc.lft.to/lastmile_qr_scan"}, "fusion_lon": 0.0, "lat": 38.90408433333333, "bike_id": "fa15343236652e35905a1537020a26a0", "type": "electric_scooter", "is_reserved": 0, "lon": -77.01783083333333}, {"fusion_lat": 0.0, "name": "6db49d25ebcdaffe5258696ea0e82b85", "is_disabled": 0, "rental_uris": {"android": "https://dc.lft.to/lastmile_qr_scan", "ios": "https://dc.lft.to/lastmile_qr_scan"}, "fusion_lon": 0.0, "lat": 38.91930983333334, "bike_id": "6db49d25ebcdaffe5258696ea0e82b85", "type": "electric_scooter", "is_reserved": 0, "lon": -77.0120705}, {"fusion_lat": 0.0, "name": "0db6517ae5c390f42da4b20de4422523", "is_disabled": 0, "rental_uris": {"android": "https://dc.lft.to/lastmile_qr_scan", "ios": "https://dc.lft.to/lastmile_qr_scan"}, "fusion_lon": 0.0, "lat": 38.915808166666665, "bike_id": "0db6517ae5c390f42da4b20de4422523", "type": "electric_scooter", "is_reserved": 0, "lon": -77.03178716666666}, {"fusion_lat": 0.0, "name": "ab5782132593529986e9e81c3507b556", "is_disabled": 0, "rental_uris": {"android": "https://dc.lft.to/lastmile_qr_scan", "ios": "https://dc.lft.to/lastmile_qr_scan"}, "fusion_lon": 0.0, "lat": 38.919296333333335, "bike_id": "ab5782132593529986e9e81c3507b556", "type": "electric_scooter", "is_reserved": 0, "lon": -77.02400316666666}, {"fusion_lat": 0.0, "name": "031ac594cd6d5b8335d610f56a04da06", "is_disabled": 0, "rental_uris": {"android": "https://dc.lft.to/lastmile_qr_scan", "ios": "https://dc.lft.to/lastmile_qr_scan"}, "fusion_lon": 0.0, "lat": 38.94525616666667, "bike_id": "031ac594cd6d5b8335d610f56a04da06", "type": "electric_scooter", "is_reserved": 0, "lon": -77.02098183333334}, {"fusion_lat": 0.0, "name": "96ea60ae0bdc003c9d4e7208c0829660", "is_disabled": 0, "rental_uris": {"android": "https://dc.lft.to/lastmile_qr_scan", "ios": "https://dc.lft.to/lastmile_qr_scan"}, "fusion_lon": 0.0, "lat": 38.8743655, "bike_id": "96ea60ae0bdc003c9d4e7208c0829660", "type": "electric_scooter", "is_reserved": 0, "lon": -77.00034033333333}, {"fusion_lat": 0.0, "name": "8e6e065c8dc7f4ba61f8156b954bbfe8", "is_disabled": 0, "rental_uris": {"android": "https://dc.lft.to/lastmile_qr_scan", "ios": "https://dc.lft.to/lastmile_qr_scan"}, "fusion_lon": 0.0, "lat": 38.901432166666666, "bike_id": "8e6e065c8dc7f4ba61f8156b954bbfe8", "type": "electric_scooter", "is_reserved": 0, "lon": -77.02271816666666}, {"fusion_lat": 0.0, "name": "127e50c4c78f45752cab656e0c72d3b4", "is_disabled": 0, "rental_uris": {"android": "https://dc.lft.to/lastmile_qr_scan", "ios": "https://dc.lft.to/lastmile_qr_scan"}, "fusion_lon": 0.0, "lat": 38.9154285, "bike_id": "127e50c4c78f45752cab656e0c72d3b4", "type": "electric_scooter", "is_reserved": 0, "lon": -77.03205316666667}, {"fusion_lat": 0.0, "name": "89355cd467ba8584b97ab24a72687e8f", "is_disabled": 0, "rental_uris": {"android": "https://dc.lft.to/lastmile_qr_scan", "ios": "https://dc.lft.to/lastmile_qr_scan"}, "fusion_lon": 0.0, "lat": 38.8998425, "bike_id": "89355cd467ba8584b97ab24a72687e8f", "type": "electric_scooter", "is_reserved": 0, "lon": -77.02216833333334}, {"fusion_lat": 0.0, "name": "b936802c3baecd56ab47831e84d8e3df", "is_disabled": 0, "rental_uris": {"android": "https://dc.lft.to/lastmile_qr_scan", "ios": "https://dc.lft.to/lastmile_qr_scan"}, "fusion_lon": 0.0, "lat": 38.92122333333333, "bike_id": "b936802c3baecd56ab47831e84d8e3df", "type": "electric_scooter", "is_reserved": 0, "lon": -77.01208133333333}, {"fusion_lat": 0.0, "name": "664110d91523f7f18c2a67d1755bdbd3", "is_disabled": 0, "rental_uris": {"android": "https://dc.lft.to/lastmile_qr_scan", "ios": "https://dc.lft.to/lastmile_qr_scan"}, "fusion_lon": 0.0, "lat": 38.909736, "bike_id": "664110d91523f7f18c2a67d1755bdbd3", "type": "electric_scooter", "is_reserved": 0, "lon": -77.0342435}, {"fusion_lat": 0.0, "name": "c3e4eae4fbfa3becb3fa05dd8cbcd7a2", "is_disabled": 0, "rental_uris": {"android": "https://dc.lft.to/lastmile_qr_scan", "ios": "https://dc.lft.to/lastmile_qr_scan"}, "fusion_lon": 0.0, "lat": 39.010811, "bike_id": "c3e4eae4fbfa3becb3fa05dd8cbcd7a2", "type": "electric_bike", "is_reserved": 0, "lon": -76.9106435}, {"fusion_lat": 0.0, "name": "c1af2674050e103b1877075de127d760", "is_disabled": 0, "rental_uris": {"android": "https://dc.lft.to/lastmile_qr_scan", "ios": "https://dc.lft.to/lastmile_qr_scan"}, "fusion_lon": 0.0, "lat": 38.937162666666666, "bike_id": "c1af2674050e103b1877075de127d760", "type": "electric_scooter", "is_reserved": 0, "lon": -77.0610395}, {"fusion_lat": 0.0, "name": "e308a60fb5bf49402ecb60ebd836ada5", "is_disabled": 0, "rental_uris": {"android": "https://dc.lft.to/lastmile_qr_scan", "ios": "https://dc.lft.to/lastmile_qr_scan"}, "fusion_lon": 0.0, "lat": 38.8777445, "bike_id": "e308a60fb5bf49402ecb60ebd836ada5", "type": "electric_scooter", "is_reserved": 0, "lon": -77.00582516666667}, {"fusion_lat": 0.0, "name": "162c391d0b0f99dda4b41794eb0ebc4a", "is_disabled": 0, "rental_uris": {"android": "https://dc.lft.to/lastmile_qr_scan", "ios": "https://dc.lft.to/lastmile_qr_scan"}, "fusion_lon": 0.0, "lat": 38.907862, "bike_id": "162c391d0b0f99dda4b41794eb0ebc4a", "type": "electric_scooter", "is_reserved": 0, "lon": -77.0352285}, {"fusion_lat": 0.0, "name": "7d95f969ecf7038eb7e12045215e5bcb", "is_disabled": 0, "rental_uris": {"android": "https://dc.lft.to/lastmile_qr_scan", "ios": "https://dc.lft.to/lastmile_qr_scan"}, "fusion_lon": 0.0, "lat": 38.90484883333333, "bike_id": "7d95f969ecf7038eb7e12045215e5bcb", "type": "electric_scooter", "is_reserved": 0, "lon": -77.0259565}, {"fusion_lat": 0.0, "name": "822a6261560565f9000814ffaa5f89d6", "is_disabled": 0, "rental_uris": {"android": "https://dc.lft.to/lastmile_qr_scan", "ios": "https://dc.lft.to/lastmile_qr_scan"}, "fusion_lon": 0.0, "lat": 38.909215333333336, "bike_id": "822a6261560565f9000814ffaa5f89d6", "type": "electric_scooter", "is_reserved": 0, "lon": -77.04206033333334}, {"fusion_lat": 0.0, "name": "76c309b326816179ca1b3bd46bef2d1d", "is_disabled": 0, "rental_uris": {"android": "https://dc.lft.to/lastmile_qr_scan", "ios": "https://dc.lft.to/lastmile_qr_scan"}, "fusion_lon": 0.0, "lat": 38.916156666666666, "bike_id": "76c309b326816179ca1b3bd46bef2d1d", "type": "electric_scooter", "is_reserved": 0, "lon": -77.023856}, {"fusion_lat": 0.0, "name": "6e262cfb544f31fc4ec4a75ac3815f71", "is_disabled": 0, "rental_uris": {"android": "https://dc.lft.to/lastmile_qr_scan", "ios": "https://dc.lft.to/lastmile_qr_scan"}, "fusion_lon": 0.0, "lat": 38.92284566666667, "bike_id": "6e262cfb544f31fc4ec4a75ac3815f71", "type": "electric_scooter", "is_reserved": 0, "lon": -77.02240633333334}, {"fusion_lat": 0.0, "name": "04d6e89fd99e7cb764329b2abf81379b", "is_disabled": 0, "rental_uris": {"android": "https://dc.lft.to/lastmile_qr_scan", "ios": "https://dc.lft.to/lastmile_qr_scan"}, "fusion_lon": 0.0, "lat": 38.92042, "bike_id": "04d6e89fd99e7cb764329b2abf81379b", "type": "electric_scooter", "is_reserved": 0, "lon": -77.02586083333334}, {"fusion_lat": 0.0, "name": "6a72c8399480b15f03835c0dd25fc111", "is_disabled": 0, "rental_uris": {"android": "https://dc.lft.to/lastmile_qr_scan", "ios": "https://dc.lft.to/lastmile_qr_scan"}, "fusion_lon": 0.0, "lat": 38.903826333333335, "bike_id": "6a72c8399480b15f03835c0dd25fc111", "type": "electric_scooter", "is_reserved": 0, "lon": -77.03836666666666}, {"fusion_lat": 0.0, "name": "ec75f025a6a9e3d11549bdbc22fa6a17", "is_disabled": 0, "rental_uris": {"android": "https://dc.lft.to/lastmile_qr_scan", "ios": "https://dc.lft.to/lastmile_qr_scan"}, "fusion_lon": 0.0, "lat": 38.9382775, "bike_id": "ec75f025a6a9e3d11549bdbc22fa6a17", "type": "electric_scooter", "is_reserved": 0, "lon": -76.9918825}, {"fusion_lat": 0.0, "name": "4094cad06115eaf78f2b400010c8d0b0", "is_disabled": 0, "rental_uris": {"android": "https://dc.lft.to/lastmile_qr_scan", "ios": "https://dc.lft.to/lastmile_qr_scan"}, "fusion_lon": 0.0, "lat": 38.91727316666667, "bike_id": "4094cad06115eaf78f2b400010c8d0b0", "type": "electric_scooter", "is_reserved": 0, "lon": -77.0270135}, {"fusion_lat": 0.0, "name": "7ee9c03ba61ae8d4d02c3670151b84bf", "is_disabled": 0, "rental_uris": {"android": "https://dc.lft.to/lastmile_qr_scan", "ios": "https://dc.lft.to/lastmile_qr_scan"}, "fusion_lon": 0.0, "lat": 38.90238383333333, "bike_id": "7ee9c03ba61ae8d4d02c3670151b84bf", "type": "electric_scooter", "is_reserved": 0, "lon": -77.04350366666667}, {"fusion_lat": 0.0, "name": "2099b08dbc10f9cc5b9a11bb9b2db998", "is_disabled": 0, "rental_uris": {"android": "https://dc.lft.to/lastmile_qr_scan", "ios": "https://dc.lft.to/lastmile_qr_scan"}, "fusion_lon": 0.0, "lat": 38.910965166666664, "bike_id": "2099b08dbc10f9cc5b9a11bb9b2db998", "type": "electric_scooter", "is_reserved": 0, "lon": -77.07349683333334}, {"fusion_lat": 0.0, "name": "802b6e4c06a75860058778ec9ea0ec30", "is_disabled": 0, "rental_uris": {"android": "https://dc.lft.to/lastmile_qr_scan", "ios": "https://dc.lft.to/lastmile_qr_scan"}, "fusion_lon": 0.0, "lat": 38.902171833333334, "bike_id": "802b6e4c06a75860058778ec9ea0ec30", "type": "electric_scooter", "is_reserved": 0, "lon": -76.9861005}, {"fusion_lat": 0.0, "name": "cc567c21f6cb7427ef823318e6a0962e", "is_disabled": 0, "rental_uris": {"android": "https://dc.lft.to/lastmile_qr_scan", "ios": "https://dc.lft.to/lastmile_qr_scan"}, "fusion_lon": 0.0, "lat": 38.878921166666665, "bike_id": "cc567c21f6cb7427ef823318e6a0962e", "type": "electric_scooter", "is_reserved": 0, "lon": -77.00559033333333}, {"fusion_lat": 0.0, "name": "33ac870b70fc6b313bf17d720c696f17", "is_disabled": 0, "rental_uris": {"android": "https://dc.lft.to/lastmile_qr_scan", "ios": "https://dc.lft.to/lastmile_qr_scan"}, "fusion_lon": 0.0, "lat": 38.8850835, "bike_id": "33ac870b70fc6b313bf17d720c696f17", "type": "electric_scooter", "is_reserved": 0, "lon": -77.01115966666667}, {"fusion_lat": 0.0, "name": "82239d4b2d274715afeb12c6e662cb98", "is_disabled": 0, "rental_uris": {"android": "https://dc.lft.to/lastmile_qr_scan", "ios": "https://dc.lft.to/lastmile_qr_scan"}, "fusion_lon": 0.0, "lat": 38.91271316666667, "bike_id": "82239d4b2d274715afeb12c6e662cb98", "type": "electric_scooter", "is_reserved": 0, "lon": -76.97209016666666}, {"fusion_lat": 0.0, "name": "48080494c85442aedc951fe5389dd4ff", "is_disabled": 0, "rental_uris": {"android": "https://dc.lft.to/lastmile_qr_scan", "ios": "https://dc.lft.to/lastmile_qr_scan"}, "fusion_lon": 0.0, "lat": 38.96481883333333, "bike_id": "48080494c85442aedc951fe5389dd4ff", "type": "electric_bike", "is_reserved": 0, "lon": -77.1071905}, {"fusion_lat": 0.0, "name": "93de229b883133a9f4353b5269f13979", "is_disabled": 0, "rental_uris": {"android": "https://dc.lft.to/lastmile_qr_scan", "ios": "https://dc.lft.to/lastmile_qr_scan"}, "fusion_lon": 0.0, "lat": 38.94199866666666, "bike_id": "93de229b883133a9f4353b5269f13979", "type": "electric_scooter", "is_reserved": 0, "lon": -77.02491533333334}, {"fusion_lat": 0.0, "name": "af19fac84ae812ddc68f95de902f77ea", "is_disabled": 0, "rental_uris": {"android": "https://dc.lft.to/lastmile_qr_scan", "ios": "https://dc.lft.to/lastmile_qr_scan"}, "fusion_lon": 0.0, "lat": 38.908442666666666, "bike_id": "af19fac84ae812ddc68f95de902f77ea", "type": "electric_scooter", "is_reserved": 0, "lon": -77.002072}, {"fusion_lat": 0.0, "name": "04cc0fb1da331e681187c9faebaf8cdc", "is_disabled": 0, "rental_uris": {"android": "https://dc.lft.to/lastmile_qr_scan", "ios": "https://dc.lft.to/lastmile_qr_scan"}, "fusion_lon": 0.0, "lat": 38.92858833333333, "bike_id": "04cc0fb1da331e681187c9faebaf8cdc", "type": "electric_scooter", "is_reserved": 0, "lon": -77.035272}, {"fusion_lat": 0.0, "name": "bb7692cb3269a43782e8a471d5b431be", "is_disabled": 0, "rental_uris": {"android": "https://dc.lft.to/lastmile_qr_scan", "ios": "https://dc.lft.to/lastmile_qr_scan"}, "fusion_lon": 0.0, "lat": 38.90512116666667, "bike_id": "bb7692cb3269a43782e8a471d5b431be", "type": "electric_scooter", "is_reserved": 0, "lon": -77.06018333333333}, {"fusion_lat": 0.0, "name": "b77c7dc26f8d98bb03b3c0547951e587", "is_disabled": 0, "rental_uris": {"android": "https://dc.lft.to/lastmile_qr_scan", "ios": "https://dc.lft.to/lastmile_qr_scan"}, "fusion_lon": 0.0, "lat": 38.916832666666664, "bike_id": "b77c7dc26f8d98bb03b3c0547951e587", "type": "electric_scooter", "is_reserved": 0, "lon": -77.02969016666667}, {"fusion_lat": 0.0, "name": "9707e5eb68b779775dbeb67dbb44d5d1", "is_disabled": 0, "rental_uris": {"android": "https://dc.lft.to/lastmile_qr_scan", "ios": "https://dc.lft.to/lastmile_qr_scan"}, "fusion_lon": 0.0, "lat": 38.93960583333333, "bike_id": "9707e5eb68b779775dbeb67dbb44d5d1", "type": "electric_scooter", "is_reserved": 0, "lon": -77.0328525}, {"fusion_lat": 0.0, "name": "97091a930f4a88cf051c121e77ea828e", "is_disabled": 0, "rental_uris": {"android": "https://dc.lft.to/lastmile_qr_scan", "ios": "https://dc.lft.to/lastmile_qr_scan"}, "fusion_lon": 0.0, "lat": 38.92333, "bike_id": "97091a930f4a88cf051c121e77ea828e", "type": "electric_scooter", "is_reserved": 0, "lon": -77.0381175}, {"fusion_lat": 0.0, "name": "a456e45c0fbe1dcb35b493eb1be6837f", "is_disabled": 0, "rental_uris": {"android": "https://dc.lft.to/lastmile_qr_scan", "ios": "https://dc.lft.to/lastmile_qr_scan"}, "fusion_lon": 0.0, "lat": 38.9121005, "bike_id": "a456e45c0fbe1dcb35b493eb1be6837f", "type": "electric_scooter", "is_reserved": 0, "lon": -77.03200966666667}, {"fusion_lat": 0.0, "name": "646819318316060354725455f607da90", "is_disabled": 0, "rental_uris": {"android": "https://dc.lft.to/lastmile_qr_scan", "ios": "https://dc.lft.to/lastmile_qr_scan"}, "fusion_lon": 0.0, "lat": 38.932060666666665, "bike_id": "646819318316060354725455f607da90", "type": "electric_scooter", "is_reserved": 0, "lon": -77.0366565}, {"fusion_lat": 0.0, "name": "4cdd9ac20e6888260e5ab21cfc5116a5", "is_disabled": 0, "rental_uris": {"android": "https://dc.lft.to/lastmile_qr_scan", "ios": "https://dc.lft.to/lastmile_qr_scan"}, "fusion_lon": 0.0, "lat": 38.89728133333333, "bike_id": "4cdd9ac20e6888260e5ab21cfc5116a5", "type": "electric_scooter", "is_reserved": 0, "lon": -77.01914183333334}, {"fusion_lat": 0.0, "name": "356a131b20737a4d2a3c1ff3b91d0ec0", "is_disabled": 0, "rental_uris": {"android": "https://dc.lft.to/lastmile_qr_scan", "ios": "https://dc.lft.to/lastmile_qr_scan"}, "fusion_lon": 0.0, "lat": 38.91335516666667, "bike_id": "356a131b20737a4d2a3c1ff3b91d0ec0", "type": "electric_scooter", "is_reserved": 0, "lon": -77.019816}, {"fusion_lat": 0.0, "name": "e9c3313be342498e30dacae8de64414b", "is_disabled": 0, "rental_uris": {"android": "https://dc.lft.to/lastmile_qr_scan", "ios": "https://dc.lft.to/lastmile_qr_scan"}, "fusion_lon": 0.0, "lat": 38.893129, "bike_id": "e9c3313be342498e30dacae8de64414b", "type": "electric_scooter", "is_reserved": 0, "lon": -77.04871883333334}, {"fusion_lat": 0.0, "name": "75a96b376ed489fafe3d5f3840607a5b", "is_disabled": 0, "rental_uris": {"android": "https://dc.lft.to/lastmile_qr_scan", "ios": "https://dc.lft.to/lastmile_qr_scan"}, "fusion_lon": 0.0, "lat": 38.91714266666666, "bike_id": "75a96b376ed489fafe3d5f3840607a5b", "type": "electric_scooter", "is_reserved": 0, "lon": -77.0420795}, {"fusion_lat": 0.0, "name": "ec0977302cf7e092dc6f97fe378511d8", "is_disabled": 0, "rental_uris": {"android": "https://dc.lft.to/lastmile_qr_scan", "ios": "https://dc.lft.to/lastmile_qr_scan"}, "fusion_lon": 0.0, "lat": 38.887081, "bike_id": "ec0977302cf7e092dc6f97fe378511d8", "type": "electric_scooter", "is_reserved": 0, "lon": -76.99675683333334}, {"fusion_lat": 0.0, "name": "0f93da74d32a913152659057c4521f06", "is_disabled": 0, "rental_uris": {"android": "https://dc.lft.to/lastmile_qr_scan", "ios": "https://dc.lft.to/lastmile_qr_scan"}, "fusion_lon": 0.0, "lat": 38.9345755, "bike_id": "0f93da74d32a913152659057c4521f06", "type": "electric_scooter", "is_reserved": 0, "lon": -77.03873483333334}, {"fusion_lat": 0.0, "name": "ceda22792915ad90a05cfa4a3ad9bcb4", "is_disabled": 0, "rental_uris": {"android": "https://dc.lft.to/lastmile_qr_scan", "ios": "https://dc.lft.to/lastmile_qr_scan"}, "fusion_lon": 0.0, "lat": 38.90721333333333, "bike_id": "ceda22792915ad90a05cfa4a3ad9bcb4", "type": "electric_scooter", "is_reserved": 0, "lon": -77.00062133333333}, {"fusion_lat": 0.0, "name": "88065a0e909012b5e0e86c8e5621d271", "is_disabled": 0, "rental_uris": {"android": "https://dc.lft.to/lastmile_qr_scan", "ios": "https://dc.lft.to/lastmile_qr_scan"}, "fusion_lon": 0.0, "lat": 38.8920155, "bike_id": "88065a0e909012b5e0e86c8e5621d271", "type": "electric_scooter", "is_reserved": 0, "lon": -77.04336783333333}, {"fusion_lat": 0.0, "name": "b3ba4a941b6312ede062522432fa5c7c", "is_disabled": 0, "rental_uris": {"android": "https://dc.lft.to/lastmile_qr_scan", "ios": "https://dc.lft.to/lastmile_qr_scan"}, "fusion_lon": 0.0, "lat": 38.92439866666667, "bike_id": "b3ba4a941b6312ede062522432fa5c7c", "type": "electric_scooter", "is_reserved": 0, "lon": -77.05209083333334}, {"fusion_lat": 0.0, "name": "aeb21c5f633b80a5c775fda3b6b81c52", "is_disabled": 0, "rental_uris": {"android": "https://dc.lft.to/lastmile_qr_scan", "ios": "https://dc.lft.to/lastmile_qr_scan"}, "fusion_lon": 0.0, "lat": 38.90562883333333, "bike_id": "aeb21c5f633b80a5c775fda3b6b81c52", "type": "electric_scooter", "is_reserved": 0, "lon": -77.03272366666667}, {"fusion_lat": 0.0, "name": "c638f27a6e9d7783fcf6b5592e58f08b", "is_disabled": 0, "rental_uris": {"android": "https://dc.lft.to/lastmile_qr_scan", "ios": "https://dc.lft.to/lastmile_qr_scan"}, "fusion_lon": 0.0, "lat": 38.90579116666667, "bike_id": "c638f27a6e9d7783fcf6b5592e58f08b", "type": "electric_scooter", "is_reserved": 0, "lon": -77.00709383333333}, {"fusion_lat": 0.0, "name": "3d3b5cf8a11441e04f44916776ebcc9f", "is_disabled": 0, "rental_uris": {"android": "https://dc.lft.to/lastmile_qr_scan", "ios": "https://dc.lft.to/lastmile_qr_scan"}, "fusion_lon": 0.0, "lat": 38.89550333333333, "bike_id": "3d3b5cf8a11441e04f44916776ebcc9f", "type": "electric_scooter", "is_reserved": 0, "lon": -76.98338133333333}, {"fusion_lat": 0.0, "name": "75be649317f7136f92bd20c337ca9b92", "is_disabled": 0, "rental_uris": {"android": "https://dc.lft.to/lastmile_qr_scan", "ios": "https://dc.lft.to/lastmile_qr_scan"}, "fusion_lon": 0.0, "lat": 38.925546, "bike_id": "75be649317f7136f92bd20c337ca9b92", "type": "electric_scooter", "is_reserved": 0, "lon": -77.03487383333334}, {"fusion_lat": 0.0, "name": "26cffb0cc59c8e846e645ab3f4082a6c", "is_disabled": 0, "rental_uris": {"android": "https://dc.lft.to/lastmile_qr_scan", "ios": "https://dc.lft.to/lastmile_qr_scan"}, "fusion_lon": 0.0, "lat": 38.933757166666666, "bike_id": "26cffb0cc59c8e846e645ab3f4082a6c", "type": "electric_scooter", "is_reserved": 0, "lon": -77.03872033333333}, {"fusion_lat": 0.0, "name": "fd9d53fb1ec6b55d3b91942a7808a7e1", "is_disabled": 0, "rental_uris": {"android": "https://dc.lft.to/lastmile_qr_scan", "ios": "https://dc.lft.to/lastmile_qr_scan"}, "fusion_lon": 0.0, "lat": 38.94137416666667, "bike_id": "fd9d53fb1ec6b55d3b91942a7808a7e1", "type": "electric_scooter", "is_reserved": 0, "lon": -77.00611066666667}, {"fusion_lat": 0.0, "name": "398f9b5e9ad6673f2517ad65af066d9e", "is_disabled": 0, "rental_uris": {"android": "https://dc.lft.to/lastmile_qr_scan", "ios": "https://dc.lft.to/lastmile_qr_scan"}, "fusion_lon": 0.0, "lat": 38.83943, "bike_id": "398f9b5e9ad6673f2517ad65af066d9e", "type": "electric_bike", "is_reserved": 0, "lon": -77.07896083333333}, {"fusion_lat": 0.0, "name": "89835fbb0652488be53b493b16e4b56d", "is_disabled": 0, "rental_uris": {"android": "https://dc.lft.to/lastmile_qr_scan", "ios": "https://dc.lft.to/lastmile_qr_scan"}, "fusion_lon": 0.0, "lat": 38.8950675, "bike_id": "89835fbb0652488be53b493b16e4b56d", "type": "electric_scooter", "is_reserved": 0, "lon": -77.00331116666666}, {"fusion_lat": 0.0, "name": "b7d8747a2111a530bb8dc030849d072d", "is_disabled": 0, "rental_uris": {"android": "https://dc.lft.to/lastmile_qr_scan", "ios": "https://dc.lft.to/lastmile_qr_scan"}, "fusion_lon": 0.0, "lat": 38.93044533333333, "bike_id": "b7d8747a2111a530bb8dc030849d072d", "type": "electric_scooter", "is_reserved": 0, "lon": -77.0324015}, {"fusion_lat": 0.0, "name": "1d9b39e11562ab1769afbff2777e0204", "is_disabled": 0, "rental_uris": {"android": "https://dc.lft.to/lastmile_qr_scan", "ios": "https://dc.lft.to/lastmile_qr_scan"}, "fusion_lon": 0.0, "lat": 38.926149333333335, "bike_id": "1d9b39e11562ab1769afbff2777e0204", "type": "electric_scooter", "is_reserved": 0, "lon": -77.02391283333333}, {"fusion_lat": 0.0, "name": "6e3a7c7dca40e8f50d0a7ebbdc7e3528", "is_disabled": 0, "rental_uris": {"android": "https://dc.lft.to/lastmile_qr_scan", "ios": "https://dc.lft.to/lastmile_qr_scan"}, "fusion_lon": 0.0, "lat": 38.8908455, "bike_id": "6e3a7c7dca40e8f50d0a7ebbdc7e3528", "type": "electric_scooter", "is_reserved": 0, "lon": -77.04041216666667}, {"fusion_lat": 0.0, "name": "4046790f58abe0b911950b86c5f536e9", "is_disabled": 0, "rental_uris": {"android": "https://dc.lft.to/lastmile_qr_scan", "ios": "https://dc.lft.to/lastmile_qr_scan"}, "fusion_lon": 0.0, "lat": 38.92628033333333, "bike_id": "4046790f58abe0b911950b86c5f536e9", "type": "electric_scooter", "is_reserved": 0, "lon": -77.04193583333333}, {"fusion_lat": 0.0, "name": "5817ca1f2708cbf6e7c541903188b3f0", "is_disabled": 0, "rental_uris": {"android": "https://dc.lft.to/lastmile_qr_scan", "ios": "https://dc.lft.to/lastmile_qr_scan"}, "fusion_lon": 0.0, "lat": 38.91927183333333, "bike_id": "5817ca1f2708cbf6e7c541903188b3f0", "type": "electric_scooter", "is_reserved": 0, "lon": -77.034847}, {"fusion_lat": 0.0, "name": "82e59e36ffe95c1f98a71b0d80e1abd6", "is_disabled": 0, "rental_uris": {"android": "https://dc.lft.to/lastmile_qr_scan", "ios": "https://dc.lft.to/lastmile_qr_scan"}, "fusion_lon": 0.0, "lat": 38.911107333333334, "bike_id": "82e59e36ffe95c1f98a71b0d80e1abd6", "type": "electric_scooter", "is_reserved": 0, "lon": -77.01390183333334}, {"fusion_lat": 0.0, "name": "dc25e83a1cda30214a5ab7240edbb69f", "is_disabled": 0, "rental_uris": {"android": "https://dc.lft.to/lastmile_qr_scan", "ios": "https://dc.lft.to/lastmile_qr_scan"}, "fusion_lon": 0.0, "lat": 38.84282016666667, "bike_id": "dc25e83a1cda30214a5ab7240edbb69f", "type": "electric_bike", "is_reserved": 0, "lon": -76.98843333333333}, {"fusion_lat": 0.0, "name": "4ab4f7c1611d636e6b94af1dc4a45311", "is_disabled": 0, "rental_uris": {"android": "https://dc.lft.to/lastmile_qr_scan", "ios": "https://dc.lft.to/lastmile_qr_scan"}, "fusion_lon": 0.0, "lat": 38.9142725, "bike_id": "4ab4f7c1611d636e6b94af1dc4a45311", "type": "electric_scooter", "is_reserved": 0, "lon": -77.040725}, {"fusion_lat": 0.0, "name": "e6a91cfdbbc3a56966c92af54bf0b6d4", "is_disabled": 0, "rental_uris": {"android": "https://dc.lft.to/lastmile_qr_scan", "ios": "https://dc.lft.to/lastmile_qr_scan"}, "fusion_lon": 0.0, "lat": 38.88733766666667, "bike_id": "e6a91cfdbbc3a56966c92af54bf0b6d4", "type": "electric_scooter", "is_reserved": 0, "lon": -77.03223816666667}, {"fusion_lat": 0.0, "name": "f2dfb67ea5a85d368967904f97bf8c98", "is_disabled": 0, "rental_uris": {"android": "https://dc.lft.to/lastmile_qr_scan", "ios": "https://dc.lft.to/lastmile_qr_scan"}, "fusion_lon": 0.0, "lat": 38.909690499999996, "bike_id": "f2dfb67ea5a85d368967904f97bf8c98", "type": "electric_scooter", "is_reserved": 0, "lon": -77.03941033333334}, {"fusion_lat": 0.0, "name": "da0eb96bf9e5568985182ddb5392ce58", "is_disabled": 0, "rental_uris": {"android": "https://dc.lft.to/lastmile_qr_scan", "ios": "https://dc.lft.to/lastmile_qr_scan"}, "fusion_lon": 0.0, "lat": 38.91991, "bike_id": "da0eb96bf9e5568985182ddb5392ce58", "type": "electric_scooter", "is_reserved": 0, "lon": -77.032859}, {"fusion_lat": 0.0, "name": "c0c04ee4162fd5b3de10582b6812b5c8", "is_disabled": 0, "rental_uris": {"android": "https://dc.lft.to/lastmile_qr_scan", "ios": "https://dc.lft.to/lastmile_qr_scan"}, "fusion_lon": 0.0, "lat": 38.9078385, "bike_id": "c0c04ee4162fd5b3de10582b6812b5c8", "type": "electric_scooter", "is_reserved": 0, "lon": -77.0034655}, {"fusion_lat": 0.0, "name": "70b29e7ef4e4537a34ac2cbc8adce649", "is_disabled": 0, "rental_uris": {"android": "https://dc.lft.to/lastmile_qr_scan", "ios": "https://dc.lft.to/lastmile_qr_scan"}, "fusion_lon": 0.0, "lat": 38.93636983333333, "bike_id": "70b29e7ef4e4537a34ac2cbc8adce649", "type": "electric_scooter", "is_reserved": 0, "lon": -77.03657833333334}, {"fusion_lat": 0.0, "name": "e1e55cdc8f6fc3bb6c09d2027ed743a8", "is_disabled": 0, "rental_uris": {"android": "https://dc.lft.to/lastmile_qr_scan", "ios": "https://dc.lft.to/lastmile_qr_scan"}, "fusion_lon": 0.0, "lat": 38.8922885, "bike_id": "e1e55cdc8f6fc3bb6c09d2027ed743a8", "type": "electric_scooter", "is_reserved": 0, "lon": -77.0333845}, {"fusion_lat": 0.0, "name": "e7362c1b6450125588ff5e8b4dc9103f", "is_disabled": 0, "rental_uris": {"android": "https://dc.lft.to/lastmile_qr_scan", "ios": "https://dc.lft.to/lastmile_qr_scan"}, "fusion_lon": 0.0, "lat": 38.92780583333333, "bike_id": "e7362c1b6450125588ff5e8b4dc9103f", "type": "electric_scooter", "is_reserved": 0, "lon": -77.02290766666667}, {"fusion_lat": 0.0, "name": "7f79f0fed50975ce2440ce3d80f1fc56", "is_disabled": 0, "rental_uris": {"android": "https://dc.lft.to/lastmile_qr_scan", "ios": "https://dc.lft.to/lastmile_qr_scan"}, "fusion_lon": 0.0, "lat": 38.9233205, "bike_id": "7f79f0fed50975ce2440ce3d80f1fc56", "type": "electric_scooter", "is_reserved": 0, "lon": -77.0413295}, {"fusion_lat": 0.0, "name": "bc5a8d513fbb887ca0ae1c4c26407ad0", "is_disabled": 0, "rental_uris": {"android": "https://dc.lft.to/lastmile_qr_scan", "ios": "https://dc.lft.to/lastmile_qr_scan"}, "fusion_lon": 0.0, "lat": 38.919390666666665, "bike_id": "bc5a8d513fbb887ca0ae1c4c26407ad0", "type": "electric_scooter", "is_reserved": 0, "lon": -77.024257}, {"fusion_lat": 0.0, "name": "9d486ff2e5ab74582fa2222fad19b375", "is_disabled": 0, "rental_uris": {"android": "https://dc.lft.to/lastmile_qr_scan", "ios": "https://dc.lft.to/lastmile_qr_scan"}, "fusion_lon": 0.0, "lat": 38.9097145, "bike_id": "9d486ff2e5ab74582fa2222fad19b375", "type": "electric_scooter", "is_reserved": 0, "lon": -77.04608633333334}, {"fusion_lat": 0.0, "name": "4dbaecb9dadf1b459aa076116882a65e", "is_disabled": 0, "rental_uris": {"android": "https://dc.lft.to/lastmile_qr_scan", "ios": "https://dc.lft.to/lastmile_qr_scan"}, "fusion_lon": 0.0, "lat": 38.911218, "bike_id": "4dbaecb9dadf1b459aa076116882a65e", "type": "electric_scooter", "is_reserved": 0, "lon": -77.01161016666667}, {"fusion_lat": 0.0, "name": "64c9f6673403a492512cc17a7ba8fea0", "is_disabled": 0, "rental_uris": {"android": "https://dc.lft.to/lastmile_qr_scan", "ios": "https://dc.lft.to/lastmile_qr_scan"}, "fusion_lon": 0.0, "lat": 38.90438866666667, "bike_id": "64c9f6673403a492512cc17a7ba8fea0", "type": "electric_scooter", "is_reserved": 0, "lon": -77.02591966666667}, {"fusion_lat": 0.0, "name": "f470bbe6187a0e42e8d7b730594c7d88", "is_disabled": 0, "rental_uris": {"android": "https://dc.lft.to/lastmile_qr_scan", "ios": "https://dc.lft.to/lastmile_qr_scan"}, "fusion_lon": 0.0, "lat": 38.90155266666667, "bike_id": "f470bbe6187a0e42e8d7b730594c7d88", "type": "electric_scooter", "is_reserved": 0, "lon": -77.0415355}, {"fusion_lat": 0.0, "name": "d28da60e07b060e62b86b10fb63f2334", "is_disabled": 0, "rental_uris": {"android": "https://dc.lft.to/lastmile_qr_scan", "ios": "https://dc.lft.to/lastmile_qr_scan"}, "fusion_lon": 0.0, "lat": 38.91739483333333, "bike_id": "d28da60e07b060e62b86b10fb63f2334", "type": "electric_scooter", "is_reserved": 0, "lon": -77.03184633333333}, {"fusion_lat": 0.0, "name": "09041ee58951a94b08d4d94c2a09f103", "is_disabled": 0, "rental_uris": {"android": "https://dc.lft.to/lastmile_qr_scan", "ios": "https://dc.lft.to/lastmile_qr_scan"}, "fusion_lon": 0.0, "lat": 38.931137166666666, "bike_id": "09041ee58951a94b08d4d94c2a09f103", "type": "electric_scooter", "is_reserved": 0, "lon": -77.02382816666666}, {"fusion_lat": 0.0, "name": "cc444a34ea96524c7065f02cd37416a8", "is_disabled": 0, "rental_uris": {"android": "https://dc.lft.to/lastmile_qr_scan", "ios": "https://dc.lft.to/lastmile_qr_scan"}, "fusion_lon": 0.0, "lat": 38.90023566666667, "bike_id": "cc444a34ea96524c7065f02cd37416a8", "type": "electric_scooter", "is_reserved": 0, "lon": -77.0488065}, {"fusion_lat": 0.0, "name": "dc7284bc0ffc9488f87452f50e480fcf", "is_disabled": 0, "rental_uris": {"android": "https://dc.lft.to/lastmile_qr_scan", "ios": "https://dc.lft.to/lastmile_qr_scan"}, "fusion_lon": 0.0, "lat": 38.92263033333333, "bike_id": "dc7284bc0ffc9488f87452f50e480fcf", "type": "electric_scooter", "is_reserved": 0, "lon": -77.01950966666666}, {"fusion_lat": 0.0, "name": "71f80235df9e3665a2fd5477d8885c74", "is_disabled": 0, "rental_uris": {"android": "https://dc.lft.to/lastmile_qr_scan", "ios": "https://dc.lft.to/lastmile_qr_scan"}, "fusion_lon": 0.0, "lat": 38.926291666666664, "bike_id": "71f80235df9e3665a2fd5477d8885c74", "type": "electric_scooter", "is_reserved": 0, "lon": -77.04327383333333}, {"fusion_lat": 0.0, "name": "57f7c419dc175a6850223d586e5a6cb2", "is_disabled": 0, "rental_uris": {"android": "https://dc.lft.to/lastmile_qr_scan", "ios": "https://dc.lft.to/lastmile_qr_scan"}, "fusion_lon": 0.0, "lat": 38.925566833333335, "bike_id": "57f7c419dc175a6850223d586e5a6cb2", "type": "electric_scooter", "is_reserved": 0, "lon": -77.04296566666666}, {"fusion_lat": 0.0, "name": "331399e4753b11316cecfd556b4a163f", "is_disabled": 0, "rental_uris": {"android": "https://dc.lft.to/lastmile_qr_scan", "ios": "https://dc.lft.to/lastmile_qr_scan"}, "fusion_lon": 0.0, "lat": 38.91919166666667, "bike_id": "331399e4753b11316cecfd556b4a163f", "type": "electric_scooter", "is_reserved": 0, "lon": -77.01359916666667}, {"fusion_lat": 0.0, "name": "a75153cb71c5685915452046b5536a35", "is_disabled": 0, "rental_uris": {"android": "https://dc.lft.to/lastmile_qr_scan", "ios": "https://dc.lft.to/lastmile_qr_scan"}, "fusion_lon": 0.0, "lat": 38.91819816666667, "bike_id": "a75153cb71c5685915452046b5536a35", "type": "electric_scooter", "is_reserved": 0, "lon": -77.03749466666666}, {"fusion_lat": 0.0, "name": "714020c2908ae508313a450200d61147", "is_disabled": 0, "rental_uris": {"android": "https://dc.lft.to/lastmile_qr_scan", "ios": "https://dc.lft.to/lastmile_qr_scan"}, "fusion_lon": 0.0, "lat": 38.87645216666667, "bike_id": "714020c2908ae508313a450200d61147", "type": "electric_scooter", "is_reserved": 0, "lon": -77.00111266666667}, {"fusion_lat": 0.0, "name": "1cb9ca16012f15cad98c115590946de9", "is_disabled": 0, "rental_uris": {"android": "https://dc.lft.to/lastmile_qr_scan", "ios": "https://dc.lft.to/lastmile_qr_scan"}, "fusion_lon": 0.0, "lat": 38.918232, "bike_id": "1cb9ca16012f15cad98c115590946de9", "type": "electric_scooter", "is_reserved": 0, "lon": -77.030732}, {"fusion_lat": 0.0, "name": "9fbde5875a901183a4510e9bc52bfb55", "is_disabled": 0, "rental_uris": {"android": "https://dc.lft.to/lastmile_qr_scan", "ios": "https://dc.lft.to/lastmile_qr_scan"}, "fusion_lon": 0.0, "lat": 38.918155166666665, "bike_id": "9fbde5875a901183a4510e9bc52bfb55", "type": "electric_scooter", "is_reserved": 0, "lon": -77.02678966666667}, {"fusion_lat": 0.0, "name": "ac3aeb260cbb1f1b969ea4cf35b56b0f", "is_disabled": 0, "rental_uris": {"android": "https://dc.lft.to/lastmile_qr_scan", "ios": "https://dc.lft.to/lastmile_qr_scan"}, "fusion_lon": 0.0, "lat": 38.91345866666666, "bike_id": "ac3aeb260cbb1f1b969ea4cf35b56b0f", "type": "electric_scooter", "is_reserved": 0, "lon": -77.04783316666666}, {"fusion_lat": 0.0, "name": "075b11d1ffceac040b379a22b0cb74e3", "is_disabled": 0, "rental_uris": {"android": "https://dc.lft.to/lastmile_qr_scan", "ios": "https://dc.lft.to/lastmile_qr_scan"}, "fusion_lon": 0.0, "lat": 38.915749, "bike_id": "075b11d1ffceac040b379a22b0cb74e3", "type": "electric_scooter", "is_reserved": 0, "lon": -77.03247533333334}, {"fusion_lat": 0.0, "name": "fd3c6e834a13fcbd7fabf611acd52d1f", "is_disabled": 0, "rental_uris": {"android": "https://dc.lft.to/lastmile_qr_scan", "ios": "https://dc.lft.to/lastmile_qr_scan"}, "fusion_lon": 0.0, "lat": 38.87727133333333, "bike_id": "fd3c6e834a13fcbd7fabf611acd52d1f", "type": "electric_scooter", "is_reserved": 0, "lon": -77.0075915}, {"fusion_lat": 0.0, "name": "cd9046f4c705abb1ba717af7031ac3f2", "is_disabled": 0, "rental_uris": {"android": "https://dc.lft.to/lastmile_qr_scan", "ios": "https://dc.lft.to/lastmile_qr_scan"}, "fusion_lon": 0.0, "lat": 38.8922875, "bike_id": "cd9046f4c705abb1ba717af7031ac3f2", "type": "electric_scooter", "is_reserved": 0, "lon": -77.03336716666666}, {"fusion_lat": 0.0, "name": "9f14bd655b3fc9aadc7692bfbea3e64a", "is_disabled": 0, "rental_uris": {"android": "https://dc.lft.to/lastmile_qr_scan", "ios": "https://dc.lft.to/lastmile_qr_scan"}, "fusion_lon": 0.0, "lat": 38.921728, "bike_id": "9f14bd655b3fc9aadc7692bfbea3e64a", "type": "electric_scooter", "is_reserved": 0, "lon": -77.042401}, {"fusion_lat": 0.0, "name": "f2583325c228037b6050db3f37f67452", "is_disabled": 0, "rental_uris": {"android": "https://dc.lft.to/lastmile_qr_scan", "ios": "https://dc.lft.to/lastmile_qr_scan"}, "fusion_lon": 0.0, "lat": 38.916748, "bike_id": "f2583325c228037b6050db3f37f67452", "type": "electric_scooter", "is_reserved": 0, "lon": -77.0319085}, {"fusion_lat": 0.0, "name": "14a2ad36360dbf2ea7bb61c251e0995f", "is_disabled": 0, "rental_uris": {"android": "https://dc.lft.to/lastmile_qr_scan", "ios": "https://dc.lft.to/lastmile_qr_scan"}, "fusion_lon": 0.0, "lat": 38.930748, "bike_id": "14a2ad36360dbf2ea7bb61c251e0995f", "type": "electric_scooter", "is_reserved": 0, "lon": -77.022719}, {"fusion_lat": 0.0, "name": "14d350da72f0a03ce0607542a97c449c", "is_disabled": 0, "rental_uris": {"android": "https://dc.lft.to/lastmile_qr_scan", "ios": "https://dc.lft.to/lastmile_qr_scan"}, "fusion_lon": 0.0, "lat": 38.931944, "bike_id": "14d350da72f0a03ce0607542a97c449c", "type": "electric_scooter", "is_reserved": 0, "lon": -77.0196955}, {"fusion_lat": 0.0, "name": "e535db9f56636e1df138b93719d52887", "is_disabled": 0, "rental_uris": {"android": "https://dc.lft.to/lastmile_qr_scan", "ios": "https://dc.lft.to/lastmile_qr_scan"}, "fusion_lon": 0.0, "lat": 38.89741983333333, "bike_id": "e535db9f56636e1df138b93719d52887", "type": "electric_scooter", "is_reserved": 0, "lon": -77.003623}, {"fusion_lat": 0.0, "name": "b9f4941b9272a4fdd712042f62a591ce", "is_disabled": 0, "rental_uris": {"android": "https://dc.lft.to/lastmile_qr_scan", "ios": "https://dc.lft.to/lastmile_qr_scan"}, "fusion_lon": 0.0, "lat": 38.897194666666664, "bike_id": "b9f4941b9272a4fdd712042f62a591ce", "type": "electric_scooter", "is_reserved": 0, "lon": -77.00794716666667}, {"fusion_lat": 0.0, "name": "166c7028813a096b8915b41e3ae888fc", "is_disabled": 0, "rental_uris": {"android": "https://dc.lft.to/lastmile_qr_scan", "ios": "https://dc.lft.to/lastmile_qr_scan"}, "fusion_lon": 0.0, "lat": 38.921308, "bike_id": "166c7028813a096b8915b41e3ae888fc", "type": "electric_scooter", "is_reserved": 0, "lon": -77.04388766666666}, {"fusion_lat": 0.0, "name": "61f1afdd3249896681912d7f2856fd44", "is_disabled": 0, "rental_uris": {"android": "https://dc.lft.to/lastmile_qr_scan", "ios": "https://dc.lft.to/lastmile_qr_scan"}, "fusion_lon": 0.0, "lat": 38.926805, "bike_id": "61f1afdd3249896681912d7f2856fd44", "type": "electric_scooter", "is_reserved": 0, "lon": -77.03100316666666}, {"fusion_lat": 0.0, "name": "ff2a124ffb803433079f1d83a5589c2f", "is_disabled": 0, "rental_uris": {"android": "https://dc.lft.to/lastmile_qr_scan", "ios": "https://dc.lft.to/lastmile_qr_scan"}, "fusion_lon": 0.0, "lat": 38.913874, "bike_id": "ff2a124ffb803433079f1d83a5589c2f", "type": "electric_scooter", "is_reserved": 0, "lon": -77.01800033333333}, {"fusion_lat": 0.0, "name": "a2b84024cc106e06557e7ba381d6f756", "is_disabled": 0, "rental_uris": {"android": "https://dc.lft.to/lastmile_qr_scan", "ios": "https://dc.lft.to/lastmile_qr_scan"}, "fusion_lon": 0.0, "lat": 38.88761183333333, "bike_id": "a2b84024cc106e06557e7ba381d6f756", "type": "electric_scooter", "is_reserved": 0, "lon": -76.993624}, {"fusion_lat": 0.0, "name": "6c65b31d732c9d45e262805a0dc870c5", "is_disabled": 0, "rental_uris": {"android": "https://dc.lft.to/lastmile_qr_scan", "ios": "https://dc.lft.to/lastmile_qr_scan"}, "fusion_lon": 0.0, "lat": 38.890204833333335, "bike_id": "6c65b31d732c9d45e262805a0dc870c5", "type": "electric_scooter", "is_reserved": 0, "lon": -76.9373275}, {"fusion_lat": 0.0, "name": "0b0b430b36870072f6c89291a98c0d8b", "is_disabled": 0, "rental_uris": {"android": "https://dc.lft.to/lastmile_qr_scan", "ios": "https://dc.lft.to/lastmile_qr_scan"}, "fusion_lon": 0.0, "lat": 38.91661383333334, "bike_id": "0b0b430b36870072f6c89291a98c0d8b", "type": "electric_scooter", "is_reserved": 0, "lon": -77.02577183333334}, {"fusion_lat": 0.0, "name": "dd9c9e4f1e0216f8d08caaf8c83cbee3", "is_disabled": 0, "rental_uris": {"android": "https://dc.lft.to/lastmile_qr_scan", "ios": "https://dc.lft.to/lastmile_qr_scan"}, "fusion_lon": 0.0, "lat": 38.91490483333333, "bike_id": "dd9c9e4f1e0216f8d08caaf8c83cbee3", "type": "electric_scooter", "is_reserved": 0, "lon": -77.03528733333333}, {"fusion_lat": 0.0, "name": "09a360efd9e9dad7e7eecf6a5b49d8aa", "is_disabled": 0, "rental_uris": {"android": "https://dc.lft.to/lastmile_qr_scan", "ios": "https://dc.lft.to/lastmile_qr_scan"}, "fusion_lon": 0.0, "lat": 38.9454285, "bike_id": "09a360efd9e9dad7e7eecf6a5b49d8aa", "type": "electric_scooter", "is_reserved": 0, "lon": -77.01686616666667}, {"fusion_lat": 0.0, "name": "67695f23f74b621a2b5e7396fdce5ece", "is_disabled": 0, "rental_uris": {"android": "https://dc.lft.to/lastmile_qr_scan", "ios": "https://dc.lft.to/lastmile_qr_scan"}, "fusion_lon": 0.0, "lat": 38.90912183333333, "bike_id": "67695f23f74b621a2b5e7396fdce5ece", "type": "electric_scooter", "is_reserved": 0, "lon": -77.02717533333333}, {"fusion_lat": 0.0, "name": "664771902aa5f645e1086cc542209f49", "is_disabled": 0, "rental_uris": {"android": "https://dc.lft.to/lastmile_qr_scan", "ios": "https://dc.lft.to/lastmile_qr_scan"}, "fusion_lon": 0.0, "lat": 38.86565783333333, "bike_id": "664771902aa5f645e1086cc542209f49", "type": "electric_bike", "is_reserved": 0, "lon": -76.97362083333333}, {"fusion_lat": 0.0, "name": "8f25f35bfdad4dce287e4af331ada5a3", "is_disabled": 0, "rental_uris": {"android": "https://dc.lft.to/lastmile_qr_scan", "ios": "https://dc.lft.to/lastmile_qr_scan"}, "fusion_lon": 0.0, "lat": 38.90506466666667, "bike_id": "8f25f35bfdad4dce287e4af331ada5a3", "type": "electric_scooter", "is_reserved": 0, "lon": -77.05809633333334}, {"fusion_lat": 0.0, "name": "c1050f41bafd718c2fbd17e199d37ad4", "is_disabled": 0, "rental_uris": {"android": "https://dc.lft.to/lastmile_qr_scan", "ios": "https://dc.lft.to/lastmile_qr_scan"}, "fusion_lon": 0.0, "lat": 38.91352233333333, "bike_id": "c1050f41bafd718c2fbd17e199d37ad4", "type": "electric_scooter", "is_reserved": 0, "lon": -77.020659}, {"fusion_lat": 0.0, "name": "6de5801c6d3a320b8a517710bec4973e", "is_disabled": 0, "rental_uris": {"android": "https://dc.lft.to/lastmile_qr_scan", "ios": "https://dc.lft.to/lastmile_qr_scan"}, "fusion_lon": 0.0, "lat": 38.90054816666667, "bike_id": "6de5801c6d3a320b8a517710bec4973e", "type": "electric_scooter", "is_reserved": 0, "lon": -77.01618166666667}, {"fusion_lat": 0.0, "name": "ce4f1544512431a00ed00a801e1358c6", "is_disabled": 0, "rental_uris": {"android": "https://dc.lft.to/lastmile_qr_scan", "ios": "https://dc.lft.to/lastmile_qr_scan"}, "fusion_lon": 0.0, "lat": 38.928127833333335, "bike_id": "ce4f1544512431a00ed00a801e1358c6", "type": "electric_scooter", "is_reserved": 0, "lon": -77.04326383333333}, {"fusion_lat": 0.0, "name": "9963094711044b0435b8f5d7cee8dcfd", "is_disabled": 0, "rental_uris": {"android": "https://dc.lft.to/lastmile_qr_scan", "ios": "https://dc.lft.to/lastmile_qr_scan"}, "fusion_lon": 0.0, "lat": 38.914771333333334, "bike_id": "9963094711044b0435b8f5d7cee8dcfd", "type": "electric_scooter", "is_reserved": 0, "lon": -77.03188366666667}, {"fusion_lat": 0.0, "name": "c940ba9786cbaf3233c4ad9e1876c5a3", "is_disabled": 0, "rental_uris": {"android": "https://dc.lft.to/lastmile_qr_scan", "ios": "https://dc.lft.to/lastmile_qr_scan"}, "fusion_lon": 0.0, "lat": 38.833186, "bike_id": "c940ba9786cbaf3233c4ad9e1876c5a3", "type": "electric_bike", "is_reserved": 0, "lon": -77.041704}, {"fusion_lat": 0.0, "name": "15f69b4dfb18d1fd501ef7b16e3d00d2", "is_disabled": 0, "rental_uris": {"android": "https://dc.lft.to/lastmile_qr_scan", "ios": "https://dc.lft.to/lastmile_qr_scan"}, "fusion_lon": 0.0, "lat": 38.89225966666667, "bike_id": "15f69b4dfb18d1fd501ef7b16e3d00d2", "type": "electric_scooter", "is_reserved": 0, "lon": -77.04323633333334}, {"fusion_lat": 0.0, "name": "f6dba0b0558f92e21301dc0c66f3f679", "is_disabled": 0, "rental_uris": {"android": "https://dc.lft.to/lastmile_qr_scan", "ios": "https://dc.lft.to/lastmile_qr_scan"}, "fusion_lon": 0.0, "lat": 38.934230166666666, "bike_id": "f6dba0b0558f92e21301dc0c66f3f679", "type": "electric_scooter", "is_reserved": 0, "lon": -77.02407283333334}, {"fusion_lat": 0.0, "name": "265f60cbc03410cd375c6872218c16f7", "is_disabled": 0, "rental_uris": {"android": "https://dc.lft.to/lastmile_qr_scan", "ios": "https://dc.lft.to/lastmile_qr_scan"}, "fusion_lon": 0.0, "lat": 38.909130166666664, "bike_id": "265f60cbc03410cd375c6872218c16f7", "type": "electric_scooter", "is_reserved": 0, "lon": -77.02711716666667}, {"fusion_lat": 0.0, "name": "f2a524cbf57b57280e0b58cac7d701ab", "is_disabled": 0, "rental_uris": {"android": "https://dc.lft.to/lastmile_qr_scan", "ios": "https://dc.lft.to/lastmile_qr_scan"}, "fusion_lon": 0.0, "lat": 38.942782, "bike_id": "f2a524cbf57b57280e0b58cac7d701ab", "type": "electric_scooter", "is_reserved": 0, "lon": -77.03253083333334}, {"fusion_lat": 0.0, "name": "69a075da9f641139cb6c08566bb31c4f", "is_disabled": 0, "rental_uris": {"android": "https://dc.lft.to/lastmile_qr_scan", "ios": "https://dc.lft.to/lastmile_qr_scan"}, "fusion_lon": 0.0, "lat": 38.8972755, "bike_id": "69a075da9f641139cb6c08566bb31c4f", "type": "electric_scooter", "is_reserved": 0, "lon": -77.01912383333334}, {"fusion_lat": 0.0, "name": "a1b41f2b33cdf9457dd7c0a687bb6ef8", "is_disabled": 0, "rental_uris": {"android": "https://dc.lft.to/lastmile_qr_scan", "ios": "https://dc.lft.to/lastmile_qr_scan"}, "fusion_lon": 0.0, "lat": 38.906915833333336, "bike_id": "a1b41f2b33cdf9457dd7c0a687bb6ef8", "type": "electric_scooter", "is_reserved": 0, "lon": -77.07209816666666}, {"fusion_lat": 0.0, "name": "572ec2e5ff403cef24548f7bac7ec1a8", "is_disabled": 0, "rental_uris": {"android": "https://dc.lft.to/lastmile_qr_scan", "ios": "https://dc.lft.to/lastmile_qr_scan"}, "fusion_lon": 0.0, "lat": 38.9143745, "bike_id": "572ec2e5ff403cef24548f7bac7ec1a8", "type": "electric_scooter", "is_reserved": 0, "lon": -77.02199016666667}, {"fusion_lat": 0.0, "name": "4848056ca9a9a5c9be5f25e9cc2e822f", "is_disabled": 0, "rental_uris": {"android": "https://dc.lft.to/lastmile_qr_scan", "ios": "https://dc.lft.to/lastmile_qr_scan"}, "fusion_lon": 0.0, "lat": 38.90239233333333, "bike_id": "4848056ca9a9a5c9be5f25e9cc2e822f", "type": "electric_scooter", "is_reserved": 0, "lon": -77.0433365}, {"fusion_lat": 0.0, "name": "00abfe49180a7750ae87c8e349a6040f", "is_disabled": 0, "rental_uris": {"android": "https://dc.lft.to/lastmile_qr_scan", "ios": "https://dc.lft.to/lastmile_qr_scan"}, "fusion_lon": 0.0, "lat": 38.9004145, "bike_id": "00abfe49180a7750ae87c8e349a6040f", "type": "electric_scooter", "is_reserved": 0, "lon": -76.99157533333333}, {"fusion_lat": 0.0, "name": "647bf4f2c08e5d9a87851e9f10e61fec", "is_disabled": 0, "rental_uris": {"android": "https://dc.lft.to/lastmile_qr_scan", "ios": "https://dc.lft.to/lastmile_qr_scan"}, "fusion_lon": 0.0, "lat": 38.91526916666667, "bike_id": "647bf4f2c08e5d9a87851e9f10e61fec", "type": "electric_scooter", "is_reserved": 0, "lon": -77.01986}, {"fusion_lat": 0.0, "name": "455e5226cc1058f17adb1efdbbc9802e", "is_disabled": 0, "rental_uris": {"android": "https://dc.lft.to/lastmile_qr_scan", "ios": "https://dc.lft.to/lastmile_qr_scan"}, "fusion_lon": 0.0, "lat": 38.906937666666664, "bike_id": "455e5226cc1058f17adb1efdbbc9802e", "type": "electric_scooter", "is_reserved": 0, "lon": -77.0688945}, {"fusion_lat": 0.0, "name": "42769bba9ea6a69b2934a349bf71a443", "is_disabled": 0, "rental_uris": {"android": "https://dc.lft.to/lastmile_qr_scan", "ios": "https://dc.lft.to/lastmile_qr_scan"}, "fusion_lon": 0.0, "lat": 38.900665000000004, "bike_id": "42769bba9ea6a69b2934a349bf71a443", "type": "electric_scooter", "is_reserved": 0, "lon": -76.93384416666666}, {"fusion_lat": 0.0, "name": "3d63a76114fd3175d6281ce6a3a2a42f", "is_disabled": 0, "rental_uris": {"android": "https://dc.lft.to/lastmile_qr_scan", "ios": "https://dc.lft.to/lastmile_qr_scan"}, "fusion_lon": 0.0, "lat": 38.93998033333333, "bike_id": "3d63a76114fd3175d6281ce6a3a2a42f", "type": "electric_scooter", "is_reserved": 0, "lon": -77.08420366666667}, {"fusion_lat": 0.0, "name": "140b3899d94b7a7098c0eb7b5341cced", "is_disabled": 0, "rental_uris": {"android": "https://dc.lft.to/lastmile_qr_scan", "ios": "https://dc.lft.to/lastmile_qr_scan"}, "fusion_lon": 0.0, "lat": 38.83526116666667, "bike_id": "140b3899d94b7a7098c0eb7b5341cced", "type": "electric_bike", "is_reserved": 0, "lon": -76.98665666666666}, {"fusion_lat": 0.0, "name": "2b48532ee5b2e4c63e648361fe2d3bd9", "is_disabled": 0, "rental_uris": {"android": "https://dc.lft.to/lastmile_qr_scan", "ios": "https://dc.lft.to/lastmile_qr_scan"}, "fusion_lon": 0.0, "lat": 38.920797666666665, "bike_id": "2b48532ee5b2e4c63e648361fe2d3bd9", "type": "electric_bike", "is_reserved": 0, "lon": -76.98945016666667}, {"fusion_lat": 0.0, "name": "2769365c434231ee93abb2487ae4d4b4", "is_disabled": 0, "rental_uris": {"android": "https://dc.lft.to/lastmile_qr_scan", "ios": "https://dc.lft.to/lastmile_qr_scan"}, "fusion_lon": 0.0, "lat": 38.89970616666667, "bike_id": "2769365c434231ee93abb2487ae4d4b4", "type": "electric_scooter", "is_reserved": 0, "lon": -76.9870585}, {"fusion_lat": 0.0, "name": "fddf002989fe5b8dc757aabea0f983c2", "is_disabled": 0, "rental_uris": {"android": "https://dc.lft.to/lastmile_qr_scan", "ios": "https://dc.lft.to/lastmile_qr_scan"}, "fusion_lon": 0.0, "lat": 38.920963, "bike_id": "fddf002989fe5b8dc757aabea0f983c2", "type": "electric_scooter", "is_reserved": 0, "lon": -77.0250545}, {"fusion_lat": 0.0, "name": "5b426f8432a21e982e8676b020030259", "is_disabled": 0, "rental_uris": {"android": "https://dc.lft.to/lastmile_qr_scan", "ios": "https://dc.lft.to/lastmile_qr_scan"}, "fusion_lon": 0.0, "lat": 38.90629166666667, "bike_id": "5b426f8432a21e982e8676b020030259", "type": "electric_scooter", "is_reserved": 0, "lon": -77.02961266666667}, {"fusion_lat": 0.0, "name": "91e03a79a7482d9322811f875193222c", "is_disabled": 0, "rental_uris": {"android": "https://dc.lft.to/lastmile_qr_scan", "ios": "https://dc.lft.to/lastmile_qr_scan"}, "fusion_lon": 0.0, "lat": 38.91557233333333, "bike_id": "91e03a79a7482d9322811f875193222c", "type": "electric_scooter", "is_reserved": 0, "lon": -77.01989083333333}, {"fusion_lat": 0.0, "name": "4fd4d5cd1d8d1472f0c4113786091fd3", "is_disabled": 0, "rental_uris": {"android": "https://dc.lft.to/lastmile_qr_scan", "ios": "https://dc.lft.to/lastmile_qr_scan"}, "fusion_lon": 0.0, "lat": 38.94232916666667, "bike_id": "4fd4d5cd1d8d1472f0c4113786091fd3", "type": "electric_scooter", "is_reserved": 0, "lon": -77.013848}, {"fusion_lat": 0.0, "name": "c03544815686e242ee3ad384c84ab34f", "is_disabled": 0, "rental_uris": {"android": "https://dc.lft.to/lastmile_qr_scan", "ios": "https://dc.lft.to/lastmile_qr_scan"}, "fusion_lon": 0.0, "lat": 38.887517333333335, "bike_id": "c03544815686e242ee3ad384c84ab34f", "type": "electric_scooter", "is_reserved": 0, "lon": -77.017829}, {"fusion_lat": 0.0, "name": "8b315abe06dbdb44ca9154569d9fedc8", "is_disabled": 0, "rental_uris": {"android": "https://dc.lft.to/lastmile_qr_scan", "ios": "https://dc.lft.to/lastmile_qr_scan"}, "fusion_lon": 0.0, "lat": 38.88726883333333, "bike_id": "8b315abe06dbdb44ca9154569d9fedc8", "type": "electric_scooter", "is_reserved": 0, "lon": -76.9835535}, {"fusion_lat": 0.0, "name": "9c1d6cb9f03ec2f1be3690584b0fed93", "is_disabled": 0, "rental_uris": {"android": "https://dc.lft.to/lastmile_qr_scan", "ios": "https://dc.lft.to/lastmile_qr_scan"}, "fusion_lon": 0.0, "lat": 38.90370683333333, "bike_id": "9c1d6cb9f03ec2f1be3690584b0fed93", "type": "electric_scooter", "is_reserved": 0, "lon": -77.016275}, {"fusion_lat": 0.0, "name": "ba56a4e354715df7670760603fd5bc2e", "is_disabled": 0, "rental_uris": {"android": "https://dc.lft.to/lastmile_qr_scan", "ios": "https://dc.lft.to/lastmile_qr_scan"}, "fusion_lon": 0.0, "lat": 38.91996616666667, "bike_id": "ba56a4e354715df7670760603fd5bc2e", "type": "electric_scooter", "is_reserved": 0, "lon": -77.03284816666667}, {"fusion_lat": 0.0, "name": "a732b8b7eb76440fa37b6a2e6677232e", "is_disabled": 0, "rental_uris": {"android": "https://dc.lft.to/lastmile_qr_scan", "ios": "https://dc.lft.to/lastmile_qr_scan"}, "fusion_lon": 0.0, "lat": 38.90777666666666, "bike_id": "a732b8b7eb76440fa37b6a2e6677232e", "type": "electric_scooter", "is_reserved": 0, "lon": -77.000168}, {"fusion_lat": 0.0, "name": "a8962f561724e9bc604f4d6660ba71b4", "is_disabled": 0, "rental_uris": {"android": "https://dc.lft.to/lastmile_qr_scan", "ios": "https://dc.lft.to/lastmile_qr_scan"}, "fusion_lon": 0.0, "lat": 38.924374, "bike_id": "a8962f561724e9bc604f4d6660ba71b4", "type": "electric_scooter", "is_reserved": 0, "lon": -77.00066016666666}, {"fusion_lat": 0.0, "name": "2975fe94ee2b0fd400d672d8ea65c88e", "is_disabled": 0, "rental_uris": {"android": "https://dc.lft.to/lastmile_qr_scan", "ios": "https://dc.lft.to/lastmile_qr_scan"}, "fusion_lon": 0.0, "lat": 38.900159333333335, "bike_id": "2975fe94ee2b0fd400d672d8ea65c88e", "type": "electric_scooter", "is_reserved": 0, "lon": -77.011873}, {"fusion_lat": 0.0, "name": "dd0439c2fe3075bcfb5c73f0338fd005", "is_disabled": 0, "rental_uris": {"android": "https://dc.lft.to/lastmile_qr_scan", "ios": "https://dc.lft.to/lastmile_qr_scan"}, "fusion_lon": 0.0, "lat": 38.88753083333334, "bike_id": "dd0439c2fe3075bcfb5c73f0338fd005", "type": "electric_scooter", "is_reserved": 0, "lon": -77.00323283333333}, {"fusion_lat": 0.0, "name": "225b10bd2f582f3ae0197b7e391e583b", "is_disabled": 0, "rental_uris": {"android": "https://dc.lft.to/lastmile_qr_scan", "ios": "https://dc.lft.to/lastmile_qr_scan"}, "fusion_lon": 0.0, "lat": 38.89758483333333, "bike_id": "225b10bd2f582f3ae0197b7e391e583b", "type": "electric_scooter", "is_reserved": 0, "lon": -77.02775783333334}, {"fusion_lat": 0.0, "name": "68a0d9d3bb4acbb1d21b777c567af466", "is_disabled": 0, "rental_uris": {"android": "https://dc.lft.to/lastmile_qr_scan", "ios": "https://dc.lft.to/lastmile_qr_scan"}, "fusion_lon": 0.0, "lat": 38.883845, "bike_id": "68a0d9d3bb4acbb1d21b777c567af466", "type": "electric_scooter", "is_reserved": 0, "lon": -77.02526233333333}, {"fusion_lat": 0.0, "name": "419a2da6abf3176d10dcd7d667a7a40d", "is_disabled": 0, "rental_uris": {"android": "https://dc.lft.to/lastmile_qr_scan", "ios": "https://dc.lft.to/lastmile_qr_scan"}, "fusion_lon": 0.0, "lat": 38.90279683333333, "bike_id": "419a2da6abf3176d10dcd7d667a7a40d", "type": "electric_scooter", "is_reserved": 0, "lon": -77.0394725}, {"fusion_lat": 0.0, "name": "d921156df40cf34c8b8d62e61e5b78bc", "is_disabled": 0, "rental_uris": {"android": "https://dc.lft.to/lastmile_qr_scan", "ios": "https://dc.lft.to/lastmile_qr_scan"}, "fusion_lon": 0.0, "lat": 38.91207833333333, "bike_id": "d921156df40cf34c8b8d62e61e5b78bc", "type": "electric_scooter", "is_reserved": 0, "lon": -77.0319925}, {"fusion_lat": 0.0, "name": "a84fdc2e30fab20a39d4222489ed4a74", "is_disabled": 0, "rental_uris": {"android": "https://dc.lft.to/lastmile_qr_scan", "ios": "https://dc.lft.to/lastmile_qr_scan"}, "fusion_lon": 0.0, "lat": 38.906472666666666, "bike_id": "a84fdc2e30fab20a39d4222489ed4a74", "type": "electric_scooter", "is_reserved": 0, "lon": -77.06284766666667}, {"fusion_lat": 0.0, "name": "bccc5083b30812d6ae3b1be6e5db07a5", "is_disabled": 0, "rental_uris": {"android": "https://dc.lft.to/lastmile_qr_scan", "ios": "https://dc.lft.to/lastmile_qr_scan"}, "fusion_lon": 0.0, "lat": 38.945973, "bike_id": "bccc5083b30812d6ae3b1be6e5db07a5", "type": "electric_scooter", "is_reserved": 0, "lon": -77.02982316666667}, {"fusion_lat": 0.0, "name": "4c1a0cd218fa75ba3b7ac4544e321692", "is_disabled": 0, "rental_uris": {"android": "https://dc.lft.to/lastmile_qr_scan", "ios": "https://dc.lft.to/lastmile_qr_scan"}, "fusion_lon": 0.0, "lat": 38.90555366666667, "bike_id": "4c1a0cd218fa75ba3b7ac4544e321692", "type": "electric_scooter", "is_reserved": 0, "lon": -77.00567216666667}, {"fusion_lat": 0.0, "name": "71e6bdd4ca0eb2d105612cd5c5a66120", "is_disabled": 0, "rental_uris": {"android": "https://dc.lft.to/lastmile_qr_scan", "ios": "https://dc.lft.to/lastmile_qr_scan"}, "fusion_lon": 0.0, "lat": 38.909608166666665, "bike_id": "71e6bdd4ca0eb2d105612cd5c5a66120", "type": "electric_scooter", "is_reserved": 0, "lon": -77.034773}, {"fusion_lat": 0.0, "name": "4485eaace55d427005aa0b50bd3407bf", "is_disabled": 0, "rental_uris": {"android": "https://dc.lft.to/lastmile_qr_scan", "ios": "https://dc.lft.to/lastmile_qr_scan"}, "fusion_lon": 0.0, "lat": 38.87101066666666, "bike_id": "4485eaace55d427005aa0b50bd3407bf", "type": "electric_scooter", "is_reserved": 0, "lon": -77.01198666666667}, {"fusion_lat": 0.0, "name": "4586d2a35926ba84199c42fc46d82ed0", "is_disabled": 0, "rental_uris": {"android": "https://dc.lft.to/lastmile_qr_scan", "ios": "https://dc.lft.to/lastmile_qr_scan"}, "fusion_lon": 0.0, "lat": 38.91932766666667, "bike_id": "4586d2a35926ba84199c42fc46d82ed0", "type": "electric_scooter", "is_reserved": 0, "lon": -77.024085}, {"fusion_lat": 0.0, "name": "2bec3cab10a6bdabe15d6e7a04567607", "is_disabled": 0, "rental_uris": {"android": "https://dc.lft.to/lastmile_qr_scan", "ios": "https://dc.lft.to/lastmile_qr_scan"}, "fusion_lon": 0.0, "lat": 38.91848, "bike_id": "2bec3cab10a6bdabe15d6e7a04567607", "type": "electric_scooter", "is_reserved": 0, "lon": -77.02449866666667}, {"fusion_lat": 0.0, "name": "32d15dc0f6f214e1bb294b4717df1382", "is_disabled": 0, "rental_uris": {"android": "https://dc.lft.to/lastmile_qr_scan", "ios": "https://dc.lft.to/lastmile_qr_scan"}, "fusion_lon": 0.0, "lat": 38.8393775, "bike_id": "32d15dc0f6f214e1bb294b4717df1382", "type": "electric_bike", "is_reserved": 0, "lon": -77.07902016666667}, {"fusion_lat": 0.0, "name": "d786875eae021cc6b96b8c8594bdc92f", "is_disabled": 0, "rental_uris": {"android": "https://dc.lft.to/lastmile_qr_scan", "ios": "https://dc.lft.to/lastmile_qr_scan"}, "fusion_lon": 0.0, "lat": 38.978896, "bike_id": "d786875eae021cc6b96b8c8594bdc92f", "type": "electric_bike", "is_reserved": 0, "lon": -77.0602955}, {"fusion_lat": 0.0, "name": "9ba20da26d641200b4473857d04987f5", "is_disabled": 0, "rental_uris": {"android": "https://dc.lft.to/lastmile_qr_scan", "ios": "https://dc.lft.to/lastmile_qr_scan"}, "fusion_lon": 0.0, "lat": 38.918273, "bike_id": "9ba20da26d641200b4473857d04987f5", "type": "electric_scooter", "is_reserved": 0, "lon": -77.01208133333333}, {"fusion_lat": 0.0, "name": "2953d4e1b10777fb63567a7628f25611", "is_disabled": 0, "rental_uris": {"android": "https://dc.lft.to/lastmile_qr_scan", "ios": "https://dc.lft.to/lastmile_qr_scan"}, "fusion_lon": 0.0, "lat": 38.90145716666667, "bike_id": "2953d4e1b10777fb63567a7628f25611", "type": "electric_scooter", "is_reserved": 0, "lon": -77.04157433333333}, {"fusion_lat": 0.0, "name": "b4538527391df7fff9c1084bfa2aa2dc", "is_disabled": 0, "rental_uris": {"android": "https://dc.lft.to/lastmile_qr_scan", "ios": "https://dc.lft.to/lastmile_qr_scan"}, "fusion_lon": 0.0, "lat": 38.921378, "bike_id": "b4538527391df7fff9c1084bfa2aa2dc", "type": "electric_scooter", "is_reserved": 0, "lon": -77.00401033333333}, {"fusion_lat": 0.0, "name": "6c8fadcb4d5bd7be58b3dbaa0749c419", "is_disabled": 0, "rental_uris": {"android": "https://dc.lft.to/lastmile_qr_scan", "ios": "https://dc.lft.to/lastmile_qr_scan"}, "fusion_lon": 0.0, "lat": 38.905613, "bike_id": "6c8fadcb4d5bd7be58b3dbaa0749c419", "type": "electric_scooter", "is_reserved": 0, "lon": -77.05800133333334}, {"fusion_lat": 0.0, "name": "36f48cf12235716d68ea7ae0d2026bec", "is_disabled": 0, "rental_uris": {"android": "https://dc.lft.to/lastmile_qr_scan", "ios": "https://dc.lft.to/lastmile_qr_scan"}, "fusion_lon": 0.0, "lat": 38.93306466666667, "bike_id": "36f48cf12235716d68ea7ae0d2026bec", "type": "electric_scooter", "is_reserved": 0, "lon": -77.030764}, {"fusion_lat": 0.0, "name": "19db7db38614d0eb6503662d2b8ea83a", "is_disabled": 0, "rental_uris": {"android": "https://dc.lft.to/lastmile_qr_scan", "ios": "https://dc.lft.to/lastmile_qr_scan"}, "fusion_lon": 0.0, "lat": 38.88737716666667, "bike_id": "19db7db38614d0eb6503662d2b8ea83a", "type": "electric_scooter", "is_reserved": 0, "lon": -77.01516483333333}, {"fusion_lat": 0.0, "name": "9aefde627ede2f2e610c81666840506e", "is_disabled": 0, "rental_uris": {"android": "https://dc.lft.to/lastmile_qr_scan", "ios": "https://dc.lft.to/lastmile_qr_scan"}, "fusion_lon": 0.0, "lat": 38.806873333333336, "bike_id": "9aefde627ede2f2e610c81666840506e", "type": "electric_bike", "is_reserved": 0, "lon": -77.06915416666666}, {"fusion_lat": 0.0, "name": "641cc54a96d7abda3d3625bf3983a52b", "is_disabled": 0, "rental_uris": {"android": "https://dc.lft.to/lastmile_qr_scan", "ios": "https://dc.lft.to/lastmile_qr_scan"}, "fusion_lon": 0.0, "lat": 38.892368833333336, "bike_id": "641cc54a96d7abda3d3625bf3983a52b", "type": "electric_scooter", "is_reserved": 0, "lon": -76.98818766666666}, {"fusion_lat": 0.0, "name": "8ac90975391928a4a9d214428596f413", "is_disabled": 0, "rental_uris": {"android": "https://dc.lft.to/lastmile_qr_scan", "ios": "https://dc.lft.to/lastmile_qr_scan"}, "fusion_lon": 0.0, "lat": 38.9020915, "bike_id": "8ac90975391928a4a9d214428596f413", "type": "electric_scooter", "is_reserved": 0, "lon": -77.01873366666666}, {"fusion_lat": 0.0, "name": "476c6ccc3dfba47853822d5d5399bad3", "is_disabled": 0, "rental_uris": {"android": "https://dc.lft.to/lastmile_qr_scan", "ios": "https://dc.lft.to/lastmile_qr_scan"}, "fusion_lon": 0.0, "lat": 38.90705583333333, "bike_id": "476c6ccc3dfba47853822d5d5399bad3", "type": "electric_scooter", "is_reserved": 0, "lon": -77.05062866666667}, {"fusion_lat": 0.0, "name": "8de6e3d85512f516357cfc7106e22be2", "is_disabled": 0, "rental_uris": {"android": "https://dc.lft.to/lastmile_qr_scan", "ios": "https://dc.lft.to/lastmile_qr_scan"}, "fusion_lon": 0.0, "lat": 38.901751, "bike_id": "8de6e3d85512f516357cfc7106e22be2", "type": "electric_scooter", "is_reserved": 0, "lon": -76.99260133333334}, {"fusion_lat": 0.0, "name": "ea251e9d27918087f6322e22833aa88a", "is_disabled": 0, "rental_uris": {"android": "https://dc.lft.to/lastmile_qr_scan", "ios": "https://dc.lft.to/lastmile_qr_scan"}, "fusion_lon": 0.0, "lat": 38.905740333333334, "bike_id": "ea251e9d27918087f6322e22833aa88a", "type": "electric_scooter", "is_reserved": 0, "lon": -77.045729}, {"fusion_lat": 0.0, "name": "aacd3cbda7ed52ef567cfc6e2a010297", "is_disabled": 0, "rental_uris": {"android": "https://dc.lft.to/lastmile_qr_scan", "ios": "https://dc.lft.to/lastmile_qr_scan"}, "fusion_lon": 0.0, "lat": 38.904999, "bike_id": "aacd3cbda7ed52ef567cfc6e2a010297", "type": "electric_scooter", "is_reserved": 0, "lon": -77.00920383333333}, {"fusion_lat": 0.0, "name": "b863f48634b3a4146e37a67742fb2ca8", "is_disabled": 0, "rental_uris": {"android": "https://dc.lft.to/lastmile_qr_scan", "ios": "https://dc.lft.to/lastmile_qr_scan"}, "fusion_lon": 0.0, "lat": 38.902771, "bike_id": "b863f48634b3a4146e37a67742fb2ca8", "type": "electric_scooter", "is_reserved": 0, "lon": -77.01368133333334}, {"fusion_lat": 0.0, "name": "de9ee9d26be4ace2727379cebbdbcdda", "is_disabled": 0, "rental_uris": {"android": "https://dc.lft.to/lastmile_qr_scan", "ios": "https://dc.lft.to/lastmile_qr_scan"}, "fusion_lon": 0.0, "lat": 38.92184966666667, "bike_id": "de9ee9d26be4ace2727379cebbdbcdda", "type": "electric_scooter", "is_reserved": 0, "lon": -77.04013516666667}, {"fusion_lat": 0.0, "name": "6308551b8d7c893b1755beb4dfab85b1", "is_disabled": 0, "rental_uris": {"android": "https://dc.lft.to/lastmile_qr_scan", "ios": "https://dc.lft.to/lastmile_qr_scan"}, "fusion_lon": 0.0, "lat": 38.87130966666667, "bike_id": "6308551b8d7c893b1755beb4dfab85b1", "type": "electric_scooter", "is_reserved": 0, "lon": -77.00580183333334}, {"fusion_lat": 0.0, "name": "763b1134d06493a8121be7004d1d6db6", "is_disabled": 0, "rental_uris": {"android": "https://dc.lft.to/lastmile_qr_scan", "ios": "https://dc.lft.to/lastmile_qr_scan"}, "fusion_lon": 0.0, "lat": 38.928871666666666, "bike_id": "763b1134d06493a8121be7004d1d6db6", "type": "electric_scooter", "is_reserved": 0, "lon": -77.01378666666666}, {"fusion_lat": 0.0, "name": "c6f43f73e36607e1954c5432096fcf26", "is_disabled": 0, "rental_uris": {"android": "https://dc.lft.to/lastmile_qr_scan", "ios": "https://dc.lft.to/lastmile_qr_scan"}, "fusion_lon": 0.0, "lat": 38.922414333333336, "bike_id": "c6f43f73e36607e1954c5432096fcf26", "type": "electric_scooter", "is_reserved": 0, "lon": -77.02911}, {"fusion_lat": 0.0, "name": "6627f1138c90f59713c3e8530cb333f5", "is_disabled": 0, "rental_uris": {"android": "https://dc.lft.to/lastmile_qr_scan", "ios": "https://dc.lft.to/lastmile_qr_scan"}, "fusion_lon": 0.0, "lat": 38.90574566666667, "bike_id": "6627f1138c90f59713c3e8530cb333f5", "type": "electric_scooter", "is_reserved": 0, "lon": -77.02103716666667}, {"fusion_lat": 0.0, "name": "99d9c8e551751daa84501b8779a78939", "is_disabled": 0, "rental_uris": {"android": "https://dc.lft.to/lastmile_qr_scan", "ios": "https://dc.lft.to/lastmile_qr_scan"}, "fusion_lon": 0.0, "lat": 38.917221166666664, "bike_id": "99d9c8e551751daa84501b8779a78939", "type": "electric_scooter", "is_reserved": 0, "lon": -77.02946316666667}, {"fusion_lat": 0.0, "name": "a004e1834bc8beeb31831d8ebf315275", "is_disabled": 0, "rental_uris": {"android": "https://dc.lft.to/lastmile_qr_scan", "ios": "https://dc.lft.to/lastmile_qr_scan"}, "fusion_lon": 0.0, "lat": 38.904675166666664, "bike_id": "a004e1834bc8beeb31831d8ebf315275", "type": "electric_scooter", "is_reserved": 0, "lon": -77.05841866666667}, {"fusion_lat": 0.0, "name": "fa001762ed8d6be1b0c712da7877e576", "is_disabled": 0, "rental_uris": {"android": "https://dc.lft.to/lastmile_qr_scan", "ios": "https://dc.lft.to/lastmile_qr_scan"}, "fusion_lon": 0.0, "lat": 38.887303833333334, "bike_id": "fa001762ed8d6be1b0c712da7877e576", "type": "electric_scooter", "is_reserved": 0, "lon": -77.025792}, {"fusion_lat": 0.0, "name": "5af4d738214c3945ee74d613f2d22855", "is_disabled": 0, "rental_uris": {"android": "https://dc.lft.to/lastmile_qr_scan", "ios": "https://dc.lft.to/lastmile_qr_scan"}, "fusion_lon": 0.0, "lat": 38.94171566666667, "bike_id": "5af4d738214c3945ee74d613f2d22855", "type": "electric_bike", "is_reserved": 0, "lon": -76.96641483333333}, {"fusion_lat": 0.0, "name": "1bf35b6bcab8c1a9634d1e9a6bc92f78", "is_disabled": 0, "rental_uris": {"android": "https://dc.lft.to/lastmile_qr_scan", "ios": "https://dc.lft.to/lastmile_qr_scan"}, "fusion_lon": 0.0, "lat": 38.895519666666665, "bike_id": "1bf35b6bcab8c1a9634d1e9a6bc92f78", "type": "electric_scooter", "is_reserved": 0, "lon": -77.02374183333333}, {"fusion_lat": 0.0, "name": "017e1e130358e6bb2f5a9574bc539890", "is_disabled": 0, "rental_uris": {"android": "https://dc.lft.to/lastmile_qr_scan", "ios": "https://dc.lft.to/lastmile_qr_scan"}, "fusion_lon": 0.0, "lat": 38.90020766666667, "bike_id": "017e1e130358e6bb2f5a9574bc539890", "type": "electric_scooter", "is_reserved": 0, "lon": -77.02402683333334}, {"fusion_lat": 0.0, "name": "9d202979bdb0246f4a531e8df0f5750c", "is_disabled": 0, "rental_uris": {"android": "https://dc.lft.to/lastmile_qr_scan", "ios": "https://dc.lft.to/lastmile_qr_scan"}, "fusion_lon": 0.0, "lat": 38.98795633333334, "bike_id": "9d202979bdb0246f4a531e8df0f5750c", "type": "electric_bike", "is_reserved": 0, "lon": -77.1410055},