{"data": {"bikes": [{"rental_uris": {"ios": "https://dc.lft.to/lastmile_qr_scan", "android": "https://dc.lft.to/lastmile_qr_scan"}, "type": "electric_bike", "name": "4618c155bceefc62bef2dda5b1abe0ea", "is_reserved": 0, "lon": -77.12905783333333, "is_disabled": 0, "fusion_lat": 0.0, "lat": 38.799705833333334, "bike_id": "4618c155bceefc62bef2dda5b1abe0ea", "fusion_lon": 0.0}, {"rental_uris": {"ios": "https://dc.lft.to/lastmile_qr_scan", "android": "https://dc.lft.to/lastmile_qr_scan"}, "type": "electric_scooter", "name": "97f8614c2033aacf53bce5ad7526373b", "is_reserved": 0, "lon": -77.054974, "is_disabled": 0, "fusion_lat": 0.0, "lat": 38.929779333333336, "bike_id": "97f8614c2033aacf53bce5ad7526373b", "fusion_lon": 0.0}, {"rental_uris": {"ios": "https://dc.lft.to/lastmile_qr_scan", "android": "https://dc.lft.to/lastmile_qr_scan"}, "type": "electric_scooter", "name": "737e4987ba5294fb742fad95c5c12894", "is_reserved": 0, "lon": -77.03634533333333, "is_disabled": 0, "fusion_lat": 0.0, "lat": 38.91270933333333, "bike_id": "737e4987ba5294fb742fad95c5c12894", "fusion_lon": 0.0}, {"rental_uris": {"ios": "https://dc.lft.to/lastmile_qr_scan", "android": "https://dc.lft.to/lastmile_qr_scan"}, "type": "electric_bike", "name": "befffe53f53016aa18c92131e5e9aedc", "is_reserved": 0, "lon": -76.91804466666666, "is_disabled": 0, "fusion_lat": 0.0, "lat": 39.0000065, "bike_id": "befffe53f53016aa18c92131e5e9aedc", "fusion_lon": 0.0}, {"rental_uris": {"ios": "https://dc.lft.to/lastmile_qr_scan", "android": "https://dc.lft.to/lastmile_qr_scan"}, "type": "electric_bike", "name": "b723068561a36883ecaaa0e99d697c0c", "is_reserved": 0, "lon": -77.01449183333334, "is_disabled": 0, "fusion_lat": 0.0, "lat": 38.876854333333334, "bike_id": "b723068561a36883ecaaa0e99d697c0c", "fusion_lon": 0.0}, {"rental_uris": {"ios": "https://dc.lft.to/lastmile_qr_scan", "android": "https://dc.lft.to/lastmile_qr_scan"}, "type": "electric_scooter", "name": "aa77fa7b4ce051c474a202d25b022de8", "is_reserved": 0, "lon": -77.03646133333334, "is_disabled": 0, "fusion_lat": 0.0, "lat": 38.92311183333333, "bike_id": "aa77fa7b4ce051c474a202d25b022de8", "fusion_lon": 0.0}, {"rental_uris": {"ios": "https://dc.lft.to/lastmile_qr_scan", "android": "https://dc.lft.to/lastmile_qr_scan"}, "type": "electric_scooter", "name": "e78098c8e1e38f73884b18f72f6a72c8", "is_reserved": 0, "lon": -76.9949805, "is_disabled": 0, "fusion_lat": 0.0, "lat": 38.8822845, "bike_id": "e78098c8e1e38f73884b18f72f6a72c8", "fusion_lon": 0.0}, {"rental_uris": {"ios": "https://dc.lft.to/lastmile_qr_scan", "android": "https://dc.lft.to/lastmile_qr_scan"}, "type": "electric_scooter", "name": "e6ccf2a66a58865a1caf5a0e28692f2c", "is_reserved": 0, "lon": -77.02204716666667, "is_disabled": 0, "fusion_lat": 0.0, "lat": 38.910851, "bike_id": "e6ccf2a66a58865a1caf5a0e28692f2c", "fusion_lon": 0.0}, {"rental_uris": {"ios": "https://dc.lft.to/lastmile_qr_scan", "android": "https://dc.lft.to/lastmile_qr_scan"}, "type": "electric_scooter", "name": "687c3fc728575d0267ff3e6aa4ea2765", "is_reserved": 0, "lon": -77.04357183333333, "is_disabled": 0, "fusion_lat": 0.0, "lat": 38.92250416666667, "bike_id": "687c3fc728575d0267ff3e6aa4ea2765", "fusion_lon": 0.0}, {"rental_uris": {"ios": "https://dc.lft.to/lastmile_qr_scan", "android": "https://dc.lft.to/lastmile_qr_scan"}, "type": "electric_scooter", "name": "96b73c07701ee499d1a0e7e0bd7424a3", "is_reserved": 0, "lon": -77.006722, "is_disabled": 0, "fusion_lat": 0.0, "lat": 38.876749333333336, "bike_id": "96b73c07701ee499d1a0e7e0bd7424a3", "fusion_lon": 0.0}, {"rental_uris": {"ios": "https://dc.lft.to/lastmile_qr_scan", "android": "https://dc.lft.to/lastmile_qr_scan"}, "type": "electric_scooter", "name": "2d87134fec37695f5947faede1436246", "is_reserved": 0, "lon": -76.982601, "is_disabled": 0, "fusion_lat": 0.0, "lat": 38.86631716666667, "bike_id": "2d87134fec37695f5947faede1436246", "fusion_lon": 0.0}, {"rental_uris": {"ios": "https://dc.lft.to/lastmile_qr_scan", "android": "https://dc.lft.to/lastmile_qr_scan"}, "type": "electric_scooter", "name": "ad8e8064be979aa932f3b0b328f8bce4", "is_reserved": 0, "lon": -77.02663116666666, "is_disabled": 0, "fusion_lat": 0.0, "lat": 38.922206, "bike_id": "ad8e8064be979aa932f3b0b328f8bce4", "fusion_lon": 0.0}, {"rental_uris": {"ios": "https://dc.lft.to/lastmile_qr_scan", "android": "https://dc.lft.to/lastmile_qr_scan"}, "type": "electric_scooter", "name": "02e22555b35abb59dc4923498d9bde80", "is_reserved": 0, "lon": -77.06555183333333, "is_disabled": 0, "fusion_lat": 0.0, "lat": 38.911741166666665, "bike_id": "02e22555b35abb59dc4923498d9bde80", "fusion_lon": 0.0}, {"rental_uris": {"ios": "https://dc.lft.to/lastmile_qr_scan", "android": "https://dc.lft.to/lastmile_qr_scan"}, "type": "electric_scooter", "name": "a6b756b9f03fc0b344bb483269ee2c23", "is_reserved": 0, "lon": -77.04715316666666, "is_disabled": 0, "fusion_lat": 0.0, "lat": 38.917971333333334, "bike_id": "a6b756b9f03fc0b344bb483269ee2c23", "fusion_lon": 0.0}, {"rental_uris": {"ios": "https://dc.lft.to/lastmile_qr_scan", "android": "https://dc.lft.to/lastmile_qr_scan"}, "type": "electric_scooter", "name": "3b7ae87ccd4da9159e49b4aceeab4599", "is_reserved": 0, "lon": -77.02141483333334, "is_disabled": 0, "fusion_lat": 0.0, "lat": 38.89748566666667, "bike_id": "3b7ae87ccd4da9159e49b4aceeab4599", "fusion_lon": 0.0}, {"rental_uris": {"ios": "https://dc.lft.to/lastmile_qr_scan", "android": "https://dc.lft.to/lastmile_qr_scan"}, "type": "electric_scooter", "name": "5b85106e051fce55b1fbfa7e97413cba", "is_reserved": 0, "lon": -77.04348033333333, "is_disabled": 0, "fusion_lat": 0.0, "lat": 38.92354733333333, "bike_id": "5b85106e051fce55b1fbfa7e97413cba", "fusion_lon": 0.0}, {"rental_uris": {"ios": "https://dc.lft.to/lastmile_qr_scan", "android": "https://dc.lft.to/lastmile_qr_scan"}, "type": "electric_scooter", "name": "6820223da10f5c52444c36c5632d2590", "is_reserved": 0, "lon": -76.97890966666667, "is_disabled": 0, "fusion_lat": 0.0, "lat": 38.885436166666665, "bike_id": "6820223da10f5c52444c36c5632d2590", "fusion_lon": 0.0}, {"rental_uris": {"ios": "https://dc.lft.to/lastmile_qr_scan", "android": "https://dc.lft.to/lastmile_qr_scan"}, "type": "electric_bike", "name": "8c0207f015631526fbe9ae712b0dbee2", "is_reserved": 0, "lon": -77.0201135, "is_disabled": 0, "fusion_lat": 0.0, "lat": 38.964423333333336, "bike_id": "8c0207f015631526fbe9ae712b0dbee2", "fusion_lon": 0.0}, {"rental_uris": {"ios": "https://dc.lft.to/lastmile_qr_scan", "android": "https://dc.lft.to/lastmile_qr_scan"}, "type": "electric_scooter", "name": "e5d2050454602fc6705a8e21dd8f4f81", "is_reserved": 0, "lon": -77.02612216666667, "is_disabled": 0, "fusion_lat": 0.0, "lat": 38.91691383333333, "bike_id": "e5d2050454602fc6705a8e21dd8f4f81", "fusion_lon": 0.0}, {"rental_uris": {"ios": "https://dc.lft.to/lastmile_qr_scan", "android": "https://dc.lft.to/lastmile_qr_scan"}, "type": "electric_scooter", "name": "e96f36e202572960459aa637297c55fb", "is_reserved": 0, "lon": -77.0233275, "is_disabled": 0, "fusion_lat": 0.0, "lat": 38.92301166666667, "bike_id": "e96f36e202572960459aa637297c55fb", "fusion_lon": 0.0}, {"rental_uris": {"ios": "https://dc.lft.to/lastmile_qr_scan", "android": "https://dc.lft.to/lastmile_qr_scan"}, "type": "electric_scooter", "name": "3ee82730e75915333e3b7c70f77ae1c2", "is_reserved": 0, "lon": -77.02622366666667, "is_disabled": 0, "fusion_lat": 0.0, "lat": 38.89219166666667, "bike_id": "3ee82730e75915333e3b7c70f77ae1c2", "fusion_lon": 0.0}, {"rental_uris": {"ios": "https://dc.lft.to/lastmile_qr_scan", "android": "https://dc.lft.to/lastmile_qr_scan"}, "type": "electric_bike", "name": "af6137be9488f8935280f5378d801cac", "is_reserved": 0, "lon": -76.97539366666666, "is_disabled": 0, "fusion_lat": 0.0, "lat": 38.904270333333336, "bike_id": "af6137be9488f8935280f5378d801cac", "fusion_lon": 0.0}, {"rental_uris": {"ios": "https://dc.lft.to/lastmile_qr_scan", "android": "https://dc.lft.to/lastmile_qr_scan"}, "type": "electric_bike", "name": "e564c25d62ef68c667ebd5d568c8f630", "is_reserved": 0, "lon": -76.95159433333333, "is_disabled": 0, "fusion_lat": 0.0, "lat": 39.0844175, "bike_id": "e564c25d62ef68c667ebd5d568c8f630", "fusion_lon": 0.0}, {"rental_uris": {"ios": "https://dc.lft.to/lastmile_qr_scan", "android": "https://dc.lft.to/lastmile_qr_scan"}, "type": "electric_scooter", "name": "971ee9a8855cbd247f9244c0839b6a9e", "is_reserved": 0, "lon": -77.01946966666667, "is_disabled": 0, "fusion_lat": 0.0, "lat": 38.95049816666667, "bike_id": "971ee9a8855cbd247f9244c0839b6a9e", "fusion_lon": 0.0}, {"rental_uris": {"ios": "https://dc.lft.to/lastmile_qr_scan", "android": "https://dc.lft.to/lastmile_qr_scan"}, "type": "electric_scooter", "name": "8b38789c5edcf26ddd43e8fdadacf7a5", "is_reserved": 0, "lon": -77.01389083333333, "is_disabled": 0, "fusion_lat": 0.0, "lat": 38.91953783333334, "bike_id": "8b38789c5edcf26ddd43e8fdadacf7a5", "fusion_lon": 0.0}, {"rental_uris": {"ios": "https://dc.lft.to/lastmile_qr_scan", "android": "https://dc.lft.to/lastmile_qr_scan"}, "type": "electric_scooter", "name": "a1756a8e8f08edef1eac9e1e03cffeaa", "is_reserved": 0, "lon": -77.001559, "is_disabled": 0, "fusion_lat": 0.0, "lat": 38.821349833333336, "bike_id": "a1756a8e8f08edef1eac9e1e03cffeaa", "fusion_lon": 0.0}, {"rental_uris": {"ios": "https://dc.lft.to/lastmile_qr_scan", "android": "https://dc.lft.to/lastmile_qr_scan"}, "type": "electric_scooter", "name": "4d7d75b7d0d3c0b536c2630acb6c7a12", "is_reserved": 0, "lon": -76.99942016666667, "is_disabled": 0, "fusion_lat": 0.0, "lat": 38.890990333333335, "bike_id": "4d7d75b7d0d3c0b536c2630acb6c7a12", "fusion_lon": 0.0}, {"rental_uris": {"ios": "https://dc.lft.to/lastmile_qr_scan", "android": "https://dc.lft.to/lastmile_qr_scan"}, "type": "electric_scooter", "name": "9b5044c0d9c1f3bd71326d6f28031ee3", "is_reserved": 0, "lon": -77.0758005, "is_disabled": 0, "fusion_lat": 0.0, "lat": 38.90625883333333, "bike_id": "9b5044c0d9c1f3bd71326d6f28031ee3", "fusion_lon": 0.0}, {"rental_uris": {"ios": "https://dc.lft.to/lastmile_qr_scan", "android": "https://dc.lft.to/lastmile_qr_scan"}, "type": "electric_scooter", "name": "6b2f0372ee232c2be61cad79aaf892a0", "is_reserved": 0, "lon": -77.01723683333333, "is_disabled": 0, "fusion_lat": 0.0, "lat": 38.892292, "bike_id": "6b2f0372ee232c2be61cad79aaf892a0", "fusion_lon": 0.0}, {"rental_uris": {"ios": "https://dc.lft.to/lastmile_qr_scan", "android": "https://dc.lft.to/lastmile_qr_scan"}, "type": "electric_scooter", "name": "1f1fc23a2ef23ad271344e1c8334b4ab", "is_reserved": 0, "lon": -77.07248683333333, "is_disabled": 0, "fusion_lat": 0.0, "lat": 38.934448333333336, "bike_id": "1f1fc23a2ef23ad271344e1c8334b4ab", "fusion_lon": 0.0}, {"rental_uris": {"ios": "https://dc.lft.to/lastmile_qr_scan", "android": "https://dc.lft.to/lastmile_qr_scan"}, "type": "electric_scooter", "name": "6014036818c8ba61cad212cc78c3c0ac", "is_reserved": 0, "lon": -77.02947566666667, "is_disabled": 0, "fusion_lat": 0.0, "lat": 38.898187, "bike_id": "6014036818c8ba61cad212cc78c3c0ac", "fusion_lon": 0.0}, {"rental_uris": {"ios": "https://dc.lft.to/lastmile_qr_scan", "android": "https://dc.lft.to/lastmile_qr_scan"}, "type": "electric_scooter", "name": "4d5f7cd407aaedb80a9809a1e869039e", "is_reserved": 0, "lon": -77.0306205, "is_disabled": 0, "fusion_lat": 0.0, "lat": 38.898257, "bike_id": "4d5f7cd407aaedb80a9809a1e869039e", "fusion_lon": 0.0}, {"rental_uris": {"ios": "https://dc.lft.to/lastmile_qr_scan", "android": "https://dc.lft.to/lastmile_qr_scan"}, "type": "electric_scooter", "name": "84e75bed46b5e43fa8d20b16e9b6683c", "is_reserved": 0, "lon": -76.9990815, "is_disabled": 0, "fusion_lat": 0.0, "lat": 38.93748883333333, "bike_id": "84e75bed46b5e43fa8d20b16e9b6683c", "fusion_lon": 0.0}, {"rental_uris": {"ios": "https://dc.lft.to/lastmile_qr_scan", "android": "https://dc.lft.to/lastmile_qr_scan"}, "type": "electric_scooter", "name": "b238e511067e8d9a815eabee59e80026", "is_reserved": 0, "lon": -77.02384866666667, "is_disabled": 0, "fusion_lat": 0.0, "lat": 38.920154333333336, "bike_id": "b238e511067e8d9a815eabee59e80026", "fusion_lon": 0.0}, {"rental_uris": {"ios": "https://dc.lft.to/lastmile_qr_scan", "android": "https://dc.lft.to/lastmile_qr_scan"}, "type": "electric_scooter", "name": "36efafbf8c5660b7728399f857fdf72c", "is_reserved": 0, "lon": -76.983589, "is_disabled": 0, "fusion_lat": 0.0, "lat": 38.887487666666665, "bike_id": "36efafbf8c5660b7728399f857fdf72c", "fusion_lon": 0.0}, {"rental_uris": {"ios": "https://dc.lft.to/lastmile_qr_scan", "android": "https://dc.lft.to/lastmile_qr_scan"}, "type": "electric_scooter", "name": "08bda6707fb6b0f8fb340a5c4c5704e4", "is_reserved": 0, "lon": -77.04869233333334, "is_disabled": 0, "fusion_lat": 0.0, "lat": 38.911069, "bike_id": "08bda6707fb6b0f8fb340a5c4c5704e4", "fusion_lon": 0.0}, {"rental_uris": {"ios": "https://dc.lft.to/lastmile_qr_scan", "android": "https://dc.lft.to/lastmile_qr_scan"}, "type": "electric_scooter", "name": "f6a26fd660faeaba0179a232edb9fc9d", "is_reserved": 0, "lon": -77.03857066666667, "is_disabled": 0, "fusion_lat": 0.0, "lat": 38.91179916666667, "bike_id": "f6a26fd660faeaba0179a232edb9fc9d", "fusion_lon": 0.0}, {"rental_uris": {"ios": "https://dc.lft.to/lastmile_qr_scan", "android": "https://dc.lft.to/lastmile_qr_scan"}, "type": "electric_bike", "name": "363e29d3454762df3199b2136e3f924d", "is_reserved": 0, "lon": -76.98688083333333, "is_disabled": 0, "fusion_lat": 0.0, "lat": 38.9447655, "bike_id": "363e29d3454762df3199b2136e3f924d", "fusion_lon": 0.0}, {"rental_uris": {"ios": "https://dc.lft.to/lastmile_qr_scan", "android": "https://dc.lft.to/lastmile_qr_scan"}, "type": "electric_scooter", "name": "c6d107b48cf954723503a346260e12fc", "is_reserved": 0, "lon": -77.03191766666667, "is_disabled": 0, "fusion_lat": 0.0, "lat": 38.922154166666665, "bike_id": "c6d107b48cf954723503a346260e12fc", "fusion_lon": 0.0}, {"rental_uris": {"ios": "https://dc.lft.to/lastmile_qr_scan", "android": "https://dc.lft.to/lastmile_qr_scan"}, "type": "electric_scooter", "name": "df8b00bafa9d81d2bcbeb6a477d04771", "is_reserved": 0, "lon": -77.02699766666667, "is_disabled": 0, "fusion_lat": 0.0, "lat": 38.90533116666667, "bike_id": "df8b00bafa9d81d2bcbeb6a477d04771", "fusion_lon": 0.0}, {"rental_uris": {"ios": "https://dc.lft.to/lastmile_qr_scan", "android": "https://dc.lft.to/lastmile_qr_scan"}, "type": "electric_scooter", "name": "10639a189097b59c07360753a13cbb59", "is_reserved": 0, "lon": -77.03208516666666, "is_disabled": 0, "fusion_lat": 0.0, "lat": 38.9013895, "bike_id": "10639a189097b59c07360753a13cbb59", "fusion_lon": 0.0}, {"rental_uris": {"ios": "https://dc.lft.to/lastmile_qr_scan", "android": "https://dc.lft.to/lastmile_qr_scan"}, "type": "electric_scooter", "name": "c0bc14715e5104cf05b23c4ee366dd45", "is_reserved": 0, "lon": -76.98695566666666, "is_disabled": 0, "fusion_lat": 0.0, "lat": 38.9129765, "bike_id": "c0bc14715e5104cf05b23c4ee366dd45", "fusion_lon": 0.0}, {"rental_uris": {"ios": "https://dc.lft.to/lastmile_qr_scan", "android": "https://dc.lft.to/lastmile_qr_scan"}, "type": "electric_scooter", "name": "1f4900f823776fcb7de5d68a4c2863a0", "is_reserved": 0, "lon": -77.03637183333333, "is_disabled": 0, "fusion_lat": 0.0, "lat": 38.9064005, "bike_id": "1f4900f823776fcb7de5d68a4c2863a0", "fusion_lon": 0.0}, {"rental_uris": {"ios": "https://dc.lft.to/lastmile_qr_scan", "android": "https://dc.lft.to/lastmile_qr_scan"}, "type": "electric_scooter", "name": "aea5dedce3fb1563c1a06329a3a436e4", "is_reserved": 0, "lon": -77.0669345, "is_disabled": 0, "fusion_lat": 0.0, "lat": 38.909819166666665, "bike_id": "aea5dedce3fb1563c1a06329a3a436e4", "fusion_lon": 0.0}, {"rental_uris": {"ios": "https://dc.lft.to/lastmile_qr_scan", "android": "https://dc.lft.to/lastmile_qr_scan"}, "type": "electric_scooter", "name": "8e0651c41044ef47e1235cbf4f65f41c", "is_reserved": 0, "lon": -77.0164075, "is_disabled": 0, "fusion_lat": 0.0, "lat": 38.929399, "bike_id": "8e0651c41044ef47e1235cbf4f65f41c", "fusion_lon": 0.0}, {"rental_uris": {"ios": "https://dc.lft.to/lastmile_qr_scan", "android": "https://dc.lft.to/lastmile_qr_scan"}, "type": "electric_scooter", "name": "4dfea64278b5ccd08fbbeffac043131d", "is_reserved": 0, "lon": -77.02915283333333, "is_disabled": 0, "fusion_lat": 0.0, "lat": 38.933314833333334, "bike_id": "4dfea64278b5ccd08fbbeffac043131d", "fusion_lon": 0.0}, {"rental_uris": {"ios": "https://dc.lft.to/lastmile_qr_scan", "android": "https://dc.lft.to/lastmile_qr_scan"}, "type": "electric_scooter", "name": "e6a01a97de95ce104ebfd74f6cfef331", "is_reserved": 0, "lon": -77.0150625, "is_disabled": 0, "fusion_lat": 0.0, "lat": 38.91050466666667, "bike_id": "e6a01a97de95ce104ebfd74f6cfef331", "fusion_lon": 0.0}, {"rental_uris": {"ios": "https://dc.lft.to/lastmile_qr_scan", "android": "https://dc.lft.to/lastmile_qr_scan"}, "type": "electric_scooter", "name": "dc3f7a44bb02d09fab480761ae9ecd7b", "is_reserved": 0, "lon": -77.04010566666666, "is_disabled": 0, "fusion_lat": 0.0, "lat": 38.92256033333334, "bike_id": "dc3f7a44bb02d09fab480761ae9ecd7b", "fusion_lon": 0.0}, {"rental_uris": {"ios": "https://dc.lft.to/lastmile_qr_scan", "android": "https://dc.lft.to/lastmile_qr_scan"}, "type": "electric_bike", "name": "db38e5c036b5175b3b53f5d5ac8ac2fe", "is_reserved": 0, "lon": -76.96305916666667, "is_disabled": 0, "fusion_lat": 0.0, "lat": 38.89702583333333, "bike_id": "db38e5c036b5175b3b53f5d5ac8ac2fe", "fusion_lon": 0.0}, {"rental_uris": {"ios": "https://dc.lft.to/lastmile_qr_scan", "android": "https://dc.lft.to/lastmile_qr_scan"}, "type": "electric_scooter", "name": "dd06a42e3462d7eb461a3c53e37b3fc1", "is_reserved": 0, "lon": -77.040247, "is_disabled": 0, "fusion_lat": 0.0, "lat": 38.8991885, "bike_id": "dd06a42e3462d7eb461a3c53e37b3fc1", "fusion_lon": 0.0}, {"rental_uris": {"ios": "https://dc.lft.to/lastmile_qr_scan", "android": "https://dc.lft.to/lastmile_qr_scan"}, "type": "electric_scooter", "name": "e11d052522485ec027a4e5b8309b0e69", "is_reserved": 0, "lon": -77.00642833333333, "is_disabled": 0, "fusion_lat": 0.0, "lat": 38.87824333333333, "bike_id": "e11d052522485ec027a4e5b8309b0e69", "fusion_lon": 0.0}, {"rental_uris": {"ios": "https://dc.lft.to/lastmile_qr_scan", "android": "https://dc.lft.to/lastmile_qr_scan"}, "type": "electric_scooter", "name": "31fb86669ce6bfefeab1ed817a45aa03", "is_reserved": 0, "lon": -77.06054516666667, "is_disabled": 0, "fusion_lat": 0.0, "lat": 38.902607333333336, "bike_id": "31fb86669ce6bfefeab1ed817a45aa03", "fusion_lon": 0.0}, {"rental_uris": {"ios": "https://dc.lft.to/lastmile_qr_scan", "android": "https://dc.lft.to/lastmile_qr_scan"}, "type": "electric_scooter", "name": "30f53e7d1988f3ed8e70f522432575c8", "is_reserved": 0, "lon": -77.05074233333333, "is_disabled": 0, "fusion_lat": 0.0, "lat": 38.90374283333333, "bike_id": "30f53e7d1988f3ed8e70f522432575c8", "fusion_lon": 0.0}, {"rental_uris": {"ios": "https://dc.lft.to/lastmile_qr_scan", "android": "https://dc.lft.to/lastmile_qr_scan"}, "type": "electric_scooter", "name": "f4ca11ad5bec91f94f4afab5c74edcea", "is_reserved": 0, "lon": -77.04556633333333, "is_disabled": 0, "fusion_lat": 0.0, "lat": 38.90077133333333, "bike_id": "f4ca11ad5bec91f94f4afab5c74edcea", "fusion_lon": 0.0}, {"rental_uris": {"ios": "https://dc.lft.to/lastmile_qr_scan", "android": "https://dc.lft.to/lastmile_qr_scan"}, "type": "electric_scooter", "name": "fdcc2f3cdd756a1ccb7c017492692c04", "is_reserved": 0, "lon": -77.02808833333333, "is_disabled": 0, "fusion_lat": 0.0, "lat": 38.8924315, "bike_id": "fdcc2f3cdd756a1ccb7c017492692c04", "fusion_lon": 0.0}, {"rental_uris": {"ios": "https://dc.lft.to/lastmile_qr_scan", "android": "https://dc.lft.to/lastmile_qr_scan"}, "type": "electric_scooter", "name": "0eaf5478cb50a5ea5d1b4da22f27947b", "is_reserved": 0, "lon": -77.029632, "is_disabled": 0, "fusion_lat": 0.0, "lat": 38.91670666666667, "bike_id": "0eaf5478cb50a5ea5d1b4da22f27947b", "fusion_lon": 0.0}, {"rental_uris": {"ios": "https://dc.lft.to/lastmile_qr_scan", "android": "https://dc.lft.to/lastmile_qr_scan"}, "type": "electric_scooter", "name": "18b32d2026309dfcfade0dfd2847d8be", "is_reserved": 0, "lon": -77.03805066666666, "is_disabled": 0, "fusion_lat": 0.0, "lat": 38.93121216666667, "bike_id": "18b32d2026309dfcfade0dfd2847d8be", "fusion_lon": 0.0}, {"rental_uris": {"ios": "https://dc.lft.to/lastmile_qr_scan", "android": "https://dc.lft.to/lastmile_qr_scan"}, "type": "electric_bike", "name": "fd4f8ab238846210f9047fb96e0c0750", "is_reserved": 0, "lon": -77.035445, "is_disabled": 0, "fusion_lat": 0.0, "lat": 38.93402966666667, "bike_id": "fd4f8ab238846210f9047fb96e0c0750", "fusion_lon": 0.0}, {"rental_uris": {"ios": "https://dc.lft.to/lastmile_qr_scan", "android": "https://dc.lft.to/lastmile_qr_scan"}, "type": "electric_scooter", "name": "ca765e687d16faa489ac4557720e7b0a", "is_reserved": 0, "lon": -77.0634185, "is_disabled": 0, "fusion_lat": 0.0, "lat": 38.9436935, "bike_id": "ca765e687d16faa489ac4557720e7b0a", "fusion_lon": 0.0}, {"rental_uris": {"ios": "https://dc.lft.to/lastmile_qr_scan", "android": "https://dc.lft.to/lastmile_qr_scan"}, "type": "electric_scooter", "name": "95c1d1f57442a69c6083338d0ac4422d", "is_reserved": 0, "lon": -77.02609933333333, "is_disabled": 0, "fusion_lat": 0.0, "lat": 38.90344733333333, "bike_id": "95c1d1f57442a69c6083338d0ac4422d", "fusion_lon": 0.0}, {"rental_uris": {"ios": "https://dc.lft.to/lastmile_qr_scan", "android": "https://dc.lft.to/lastmile_qr_scan"}, "type": "electric_scooter", "name": "0f2bfb0a4ddd0713f288609eda3a38a4", "is_reserved": 0, "lon": -77.02804983333333, "is_disabled": 0, "fusion_lat": 0.0, "lat": 38.893646333333336, "bike_id": "0f2bfb0a4ddd0713f288609eda3a38a4", "fusion_lon": 0.0}, {"rental_uris": {"ios": "https://dc.lft.to/lastmile_qr_scan", "android": "https://dc.lft.to/lastmile_qr_scan"}, "type": "electric_scooter", "name": "d4bfb930f42afe4c510ca1db7f19a274", "is_reserved": 0, "lon": -76.943815, "is_disabled": 0, "fusion_lat": 0.0, "lat": 38.89127883333333, "bike_id": "d4bfb930f42afe4c510ca1db7f19a274", "fusion_lon": 0.0}, {"rental_uris": {"ios": "https://dc.lft.to/lastmile_qr_scan", "android": "https://dc.lft.to/lastmile_qr_scan"}, "type": "electric_scooter", "name": "c0ef4adc4cc12a980c0945d43cb48b0c", "is_reserved": 0, "lon": -77.03616283333334, "is_disabled": 0, "fusion_lat": 0.0, "lat": 38.923373166666664, "bike_id": "c0ef4adc4cc12a980c0945d43cb48b0c", "fusion_lon": 0.0}, {"rental_uris": {"ios": "https://dc.lft.to/lastmile_qr_scan", "android": "https://dc.lft.to/lastmile_qr_scan"}, "type": "electric_scooter", "name": "29863c982bdeba6b9c6f818a98bc41ca", "is_reserved": 0, "lon": -76.952571, "is_disabled": 0, "fusion_lat": 0.0, "lat": 38.892787166666665, "bike_id": "29863c982bdeba6b9c6f818a98bc41ca", "fusion_lon": 0.0}, {"rental_uris": {"ios": "https://dc.lft.to/lastmile_qr_scan", "android": "https://dc.lft.to/lastmile_qr_scan"}, "type": "electric_scooter", "name": "02d71653fe8064cc5c574e732fe71646", "is_reserved": 0, "lon": -76.946532, "is_disabled": 0, "fusion_lat": 0.0, "lat": 38.89829816666666, "bike_id": "02d71653fe8064cc5c574e732fe71646", "fusion_lon": 0.0}, {"rental_uris": {"ios": "https://dc.lft.to/lastmile_qr_scan", "android": "https://dc.lft.to/lastmile_qr_scan"}, "type": "electric_scooter", "name": "8694cb0036f03951b54f927cbd7297b0", "is_reserved": 0, "lon": -77.03856983333333, "is_disabled": 0, "fusion_lat": 0.0, "lat": 38.91090916666667, "bike_id": "8694cb0036f03951b54f927cbd7297b0", "fusion_lon": 0.0}, {"rental_uris": {"ios": "https://dc.lft.to/lastmile_qr_scan", "android": "https://dc.lft.to/lastmile_qr_scan"}, "type": "electric_scooter", "name": "eecb73fa2249f6d60868b0280d41d3bd", "is_reserved": 0, "lon": -76.9754855, "is_disabled": 0, "fusion_lat": 0.0, "lat": 38.87578116666667, "bike_id": "eecb73fa2249f6d60868b0280d41d3bd", "fusion_lon": 0.0}, {"rental_uris": {"ios": "https://dc.lft.to/lastmile_qr_scan", "android": "https://dc.lft.to/lastmile_qr_scan"}, "type": "electric_bike", "name": "617db1b705ddf4b5f6676ae42cb8b511", "is_reserved": 0, "lon": -77.09525233333333, "is_disabled": 0, "fusion_lat": 0.0, "lat": 38.83812666666667, "bike_id": "617db1b705ddf4b5f6676ae42cb8b511", "fusion_lon": 0.0}, {"rental_uris": {"ios": "https://dc.lft.to/lastmile_qr_scan", "android": "https://dc.lft.to/lastmile_qr_scan"}, "type": "electric_scooter", "name": "8c5a6419fafd002a387b22e54eb2f663", "is_reserved": 0, "lon": -77.065061, "is_disabled": 0, "fusion_lat": 0.0, "lat": 38.90523183333333, "bike_id": "8c5a6419fafd002a387b22e54eb2f663", "fusion_lon": 0.0}, {"rental_uris": {"ios": "https://dc.lft.to/lastmile_qr_scan", "android": "https://dc.lft.to/lastmile_qr_scan"}, "type": "electric_scooter", "name": "666b909139ceb4b5eca847e13353e0e7", "is_reserved": 0, "lon": -77.0355585, "is_disabled": 0, "fusion_lat": 0.0, "lat": 38.92645266666667, "bike_id": "666b909139ceb4b5eca847e13353e0e7", "fusion_lon": 0.0}, {"rental_uris": {"ios": "https://dc.lft.to/lastmile_qr_scan", "android": "https://dc.lft.to/lastmile_qr_scan"}, "type": "electric_scooter", "name": "ef1aeb9723cd727a7be7a6c457045a1f", "is_reserved": 0, "lon": -77.01703766666667, "is_disabled": 0, "fusion_lat": 0.0, "lat": 38.913867, "bike_id": "ef1aeb9723cd727a7be7a6c457045a1f", "fusion_lon": 0.0}, {"rental_uris": {"ios": "https://dc.lft.to/lastmile_qr_scan", "android": "https://dc.lft.to/lastmile_qr_scan"}, "type": "electric_scooter", "name": "dcec4a99f3998d7b18170aa4df5bec2b", "is_reserved": 0, "lon": -77.03519333333334, "is_disabled": 0, "fusion_lat": 0.0, "lat": 38.900563, "bike_id": "dcec4a99f3998d7b18170aa4df5bec2b", "fusion_lon": 0.0}, {"rental_uris": {"ios": "https://dc.lft.to/lastmile_qr_scan", "android": "https://dc.lft.to/lastmile_qr_scan"}, "type": "electric_bike", "name": "21888a0fed9f326a2165c0dcdd38b620", "is_reserved": 0, "lon": -76.91723616666667, "is_disabled": 0, "fusion_lat": 0.0, "lat": 38.880282333333334, "bike_id": "21888a0fed9f326a2165c0dcdd38b620", "fusion_lon": 0.0}, {"rental_uris": {"ios": "https://dc.lft.to/lastmile_qr_scan", "android": "https://dc.lft.to/lastmile_qr_scan"}, "type": "electric_scooter", "name": "9a2d9067d05a949b63ad17fce7a19140", "is_reserved": 0, "lon": -77.03071483333333, "is_disabled": 0, "fusion_lat": 0.0, "lat": 38.922520666666664, "bike_id": "9a2d9067d05a949b63ad17fce7a19140", "fusion_lon": 0.0}, {"rental_uris": {"ios": "https://dc.lft.to/lastmile_qr_scan", "android": "https://dc.lft.to/lastmile_qr_scan"}, "type": "electric_scooter", "name": "6b6a895553aa3675cf6f3b4e07a6b669", "is_reserved": 0, "lon": -77.04692716666666, "is_disabled": 0, "fusion_lat": 0.0, "lat": 38.897433166666666, "bike_id": "6b6a895553aa3675cf6f3b4e07a6b669", "fusion_lon": 0.0}, {"rental_uris": {"ios": "https://dc.lft.to/lastmile_qr_scan", "android": "https://dc.lft.to/lastmile_qr_scan"}, "type": "electric_scooter", "name": "b93f3ce81c55961e52d566354f4ad847", "is_reserved": 0, "lon": -76.99036166666667, "is_disabled": 0, "fusion_lat": 0.0, "lat": 38.888825833333335, "bike_id": "b93f3ce81c55961e52d566354f4ad847", "fusion_lon": 0.0}, {"rental_uris": {"ios": "https://dc.lft.to/lastmile_qr_scan", "android": "https://dc.lft.to/lastmile_qr_scan"}, "type": "electric_scooter", "name": "5c9ef506143aedbba7d548beec77d431", "is_reserved": 0, "lon": -77.04162083333334, "is_disabled": 0, "fusion_lat": 0.0, "lat": 38.91487333333333, "bike_id": "5c9ef506143aedbba7d548beec77d431", "fusion_lon": 0.0}, {"rental_uris": {"ios": "https://dc.lft.to/lastmile_qr_scan", "android": "https://dc.lft.to/lastmile_qr_scan"}, "type": "electric_scooter", "name": "7616d80b2fc9f9667d92b539a85d428b", "is_reserved": 0, "lon": -77.057901, "is_disabled": 0, "fusion_lat": 0.0, "lat": 38.901024166666666, "bike_id": "7616d80b2fc9f9667d92b539a85d428b", "fusion_lon": 0.0}, {"rental_uris": {"ios": "https://dc.lft.to/lastmile_qr_scan", "android": "https://dc.lft.to/lastmile_qr_scan"}, "type": "electric_scooter", "name": "2855384b50cc81a0be754e6d22b91289", "is_reserved": 0, "lon": -77.03268816666667, "is_disabled": 0, "fusion_lat": 0.0, "lat": 38.91048683333333, "bike_id": "2855384b50cc81a0be754e6d22b91289", "fusion_lon": 0.0}, {"rental_uris": {"ios": "https://dc.lft.to/lastmile_qr_scan", "android": "https://dc.lft.to/lastmile_qr_scan"}, "type": "electric_scooter", "name": "59231b97a15166d95ee54018c5477c96", "is_reserved": 0, "lon": -77.0419805, "is_disabled": 0, "fusion_lat": 0.0, "lat": 38.90361866666667, "bike_id": "59231b97a15166d95ee54018c5477c96", "fusion_lon": 0.0}, {"rental_uris": {"ios": "https://dc.lft.to/lastmile_qr_scan", "android": "https://dc.lft.to/lastmile_qr_scan"}, "type": "electric_bike", "name": "788a9674bcbb27478b11dc5a26dceb34", "is_reserved": 0, "lon": -77.0363695, "is_disabled": 0, "fusion_lat": 0.0, "lat": 38.93761116666667, "bike_id": "788a9674bcbb27478b11dc5a26dceb34", "fusion_lon": 0.0}, {"rental_uris": {"ios": "https://dc.lft.to/lastmile_qr_scan", "android": "https://dc.lft.to/lastmile_qr_scan"}, "type": "electric_scooter", "name": "3ad33ccf4fdfc46d5f8cf7507bd1dabb", "is_reserved": 0, "lon": -77.01474033333334, "is_disabled": 0, "fusion_lat": 0.0, "lat": 38.92670116666667, "bike_id": "3ad33ccf4fdfc46d5f8cf7507bd1dabb", "fusion_lon": 0.0}, {"rental_uris": {"ios": "https://dc.lft.to/lastmile_qr_scan", "android": "https://dc.lft.to/lastmile_qr_scan"}, "type": "electric_scooter", "name": "77a918e4c9ef21dbc701979aba404acd", "is_reserved": 0, "lon": -77.003314, "is_disabled": 0, "fusion_lat": 0.0, "lat": 38.913447833333336, "bike_id": "77a918e4c9ef21dbc701979aba404acd", "fusion_lon": 0.0}, {"rental_uris": {"ios": "https://dc.lft.to/lastmile_qr_scan", "android": "https://dc.lft.to/lastmile_qr_scan"}, "type": "electric_scooter", "name": "7c9357f2f13cf0c59cb75f72c61cd250", "is_reserved": 0, "lon": -77.02085233333334, "is_disabled": 0, "fusion_lat": 0.0, "lat": 38.9141885, "bike_id": "7c9357f2f13cf0c59cb75f72c61cd250", "fusion_lon": 0.0}, {"rental_uris": {"ios": "https://dc.lft.to/lastmile_qr_scan", "android": "https://dc.lft.to/lastmile_qr_scan"}, "type": "electric_scooter", "name": "e6df087d75fe672affe5aa9ad088b19d", "is_reserved": 0, "lon": -77.01870383333333, "is_disabled": 0, "fusion_lat": 0.0, "lat": 38.95152366666667, "bike_id": "e6df087d75fe672affe5aa9ad088b19d", "fusion_lon": 0.0}, {"rental_uris": {"ios": "https://dc.lft.to/lastmile_qr_scan", "android": "https://dc.lft.to/lastmile_qr_scan"}, "type": "electric_scooter", "name": "e2abbe28f61005babb7304df5846a92c", "is_reserved": 0, "lon": -77.03275583333334, "is_disabled": 0, "fusion_lat": 0.0, "lat": 38.929292833333335, "bike_id": "e2abbe28f61005babb7304df5846a92c", "fusion_lon": 0.0}, {"rental_uris": {"ios": "https://dc.lft.to/lastmile_qr_scan", "android": "https://dc.lft.to/lastmile_qr_scan"}, "type": "electric_scooter", "name": "2a648d58b183a2742652379ab3706835", "is_reserved": 0, "lon": -77.02101866666666, "is_disabled": 0, "fusion_lat": 0.0, "lat": 38.9163755, "bike_id": "2a648d58b183a2742652379ab3706835", "fusion_lon": 0.0}, {"rental_uris": {"ios": "https://dc.lft.to/lastmile_qr_scan", "android": "https://dc.lft.to/lastmile_qr_scan"}, "type": "electric_scooter", "name": "bf447271d950e93e1260f7fd2ef76056", "is_reserved": 0, "lon": -77.0076805, "is_disabled": 0, "fusion_lat": 0.0, "lat": 38.907383833333334, "bike_id": "bf447271d950e93e1260f7fd2ef76056", "fusion_lon": 0.0}, {"rental_uris": {"ios": "https://dc.lft.to/lastmile_qr_scan", "android": "https://dc.lft.to/lastmile_qr_scan"}, "type": "electric_bike", "name": "e902d8296072aae3041ab880babbe921", "is_reserved": 0, "lon": -76.98564033333334, "is_disabled": 0, "fusion_lat": 0.0, "lat": 38.89960116666666, "bike_id": "e902d8296072aae3041ab880babbe921", "fusion_lon": 0.0}, {"rental_uris": {"ios": "https://dc.lft.to/lastmile_qr_scan", "android": "https://dc.lft.to/lastmile_qr_scan"}, "type": "electric_scooter", "name": "fc9f7e6a352fb79af918d07b50856b1c", "is_reserved": 0, "lon": -77.0320875, "is_disabled": 0, "fusion_lat": 0.0, "lat": 38.91678433333333, "bike_id": "fc9f7e6a352fb79af918d07b50856b1c", "fusion_lon": 0.0}, {"rental_uris": {"ios": "https://dc.lft.to/lastmile_qr_scan", "android": "https://dc.lft.to/lastmile_qr_scan"}, "type": "electric_scooter", "name": "e87c82485a70813693d7c93fe1b00e10", "is_reserved": 0, "lon": -76.94666466666666, "is_disabled": 0, "fusion_lat": 0.0, "lat": 38.89870283333333, "bike_id": "e87c82485a70813693d7c93fe1b00e10", "fusion_lon": 0.0}, {"rental_uris": {"ios": "https://dc.lft.to/lastmile_qr_scan", "android": "https://dc.lft.to/lastmile_qr_scan"}, "type": "electric_scooter", "name": "46035a3a0b3e73c4243dd6077934a1a2", "is_reserved": 0, "lon": -77.023091, "is_disabled": 0, "fusion_lat": 0.0, "lat": 38.918433, "bike_id": "46035a3a0b3e73c4243dd6077934a1a2", "fusion_lon": 0.0}, {"rental_uris": {"ios": "https://dc.lft.to/lastmile_qr_scan", "android": "https://dc.lft.to/lastmile_qr_scan"}, "type": "electric_scooter", "name": "ebc1b849ef3c95bed6276a136b351cb9", "is_reserved": 0, "lon": -77.008935, "is_disabled": 0, "fusion_lat": 0.0, "lat": 38.89595583333333, "bike_id": "ebc1b849ef3c95bed6276a136b351cb9", "fusion_lon": 0.0}, {"rental_uris": {"ios": "https://dc.lft.to/lastmile_qr_scan", "android": "https://dc.lft.to/lastmile_qr_scan"}, "type": "electric_scooter", "name": "640454f9c576154fa87d35c80f57f22c", "is_reserved": 0, "lon": -77.03075566666666, "is_disabled": 0, "fusion_lat": 0.0, "lat": 38.91268216666667, "bike_id": "640454f9c576154fa87d35c80f57f22c", "fusion_lon": 0.0}, {"rental_uris": {"ios": "https://dc.lft.to/lastmile_qr_scan", "android": "https://dc.lft.to/lastmile_qr_scan"}, "type": "electric_scooter", "name": "f44021f3b0c48dd0d69bc7168e783b38", "is_reserved": 0, "lon": -77.04086833333334, "is_disabled": 0, "fusion_lat": 0.0, "lat": 38.92026233333333, "bike_id": "f44021f3b0c48dd0d69bc7168e783b38", "fusion_lon": 0.0}, {"rental_uris": {"ios": "https://dc.lft.to/lastmile_qr_scan", "android": "https://dc.lft.to/lastmile_qr_scan"}, "type": "electric_scooter", "name": "78ba1b603d2a8a26a5ed4572134051cd", "is_reserved": 0, "lon": -77.0273945, "is_disabled": 0, "fusion_lat": 0.0, "lat": 38.9238555, "bike_id": "78ba1b603d2a8a26a5ed4572134051cd", "fusion_lon": 0.0}, {"rental_uris": {"ios": "https://dc.lft.to/lastmile_qr_scan", "android": "https://dc.lft.to/lastmile_qr_scan"}, "type": "electric_scooter", "name": "dbc35ed6ac367b274e5e3ac53cd87ad2", "is_reserved": 0, "lon": -77.05211566666667, "is_disabled": 0, "fusion_lat": 0.0, "lat": 38.924788666666664, "bike_id": "dbc35ed6ac367b274e5e3ac53cd87ad2", "fusion_lon": 0.0}, {"rental_uris": {"ios": "https://dc.lft.to/lastmile_qr_scan", "android": "https://dc.lft.to/lastmile_qr_scan"}, "type": "electric_scooter", "name": "2e4f3a6e9b76870f3d72b984cfd611d3", "is_reserved": 0, "lon": -77.05217033333334, "is_disabled": 0, "fusion_lat": 0.0, "lat": 38.924773333333334, "bike_id": "2e4f3a6e9b76870f3d72b984cfd611d3", "fusion_lon": 0.0}, {"rental_uris": {"ios": "https://dc.lft.to/lastmile_qr_scan", "android": "https://dc.lft.to/lastmile_qr_scan"}, "type": "electric_scooter", "name": "9fae76e2359f541172a43d0086a47718", "is_reserved": 0, "lon": -77.02354183333334, "is_disabled": 0, "fusion_lat": 0.0, "lat": 38.92090183333333, "bike_id": "9fae76e2359f541172a43d0086a47718", "fusion_lon": 0.0}, {"rental_uris": {"ios": "https://dc.lft.to/lastmile_qr_scan", "android": "https://dc.lft.to/lastmile_qr_scan"}, "type": "electric_scooter", "name": "79565639b152644a86201af423ff758d", "is_reserved": 0, "lon": -77.03181266666667, "is_disabled": 0, "fusion_lat": 0.0, "lat": 38.916403333333335, "bike_id": "79565639b152644a86201af423ff758d", "fusion_lon": 0.0}, {"rental_uris": {"ios": "https://dc.lft.to/lastmile_qr_scan", "android": "https://dc.lft.to/lastmile_qr_scan"}, "type": "electric_scooter", "name": "f54773c94314bf7a595ed3c51121595b", "is_reserved": 0, "lon": -76.93268866666666, "is_disabled": 0, "fusion_lat": 0.0, "lat": 38.887494333333336, "bike_id": "f54773c94314bf7a595ed3c51121595b", "fusion_lon": 0.0}, {"rental_uris": {"ios": "https://dc.lft.to/lastmile_qr_scan", "android": "https://dc.lft.to/lastmile_qr_scan"}, "type": "electric_scooter", "name": "da420d9bced354c45d8a9c16cb8ff661", "is_reserved": 0, "lon": -77.04047866666667, "is_disabled": 0, "fusion_lat": 0.0, "lat": 38.917909, "bike_id": "da420d9bced354c45d8a9c16cb8ff661", "fusion_lon": 0.0}, {"rental_uris": {"ios": "https://dc.lft.to/lastmile_qr_scan", "android": "https://dc.lft.to/lastmile_qr_scan"}, "type": "electric_scooter", "name": "6595fcdee6301f03f273ff903f60941b", "is_reserved": 0, "lon": -77.01606816666667, "is_disabled": 0, "fusion_lat": 0.0, "lat": 38.900487166666665, "bike_id": "6595fcdee6301f03f273ff903f60941b", "fusion_lon": 0.0}, {"rental_uris": {"ios": "https://dc.lft.to/lastmile_qr_scan", "android": "https://dc.lft.to/lastmile_qr_scan"}, "type": "electric_scooter", "name": "a33eecbe96a09d7585b57f966265adaf", "is_reserved": 0, "lon": -77.03179366666667, "is_disabled": 0, "fusion_lat": 0.0, "lat": 38.91660183333333, "bike_id": "a33eecbe96a09d7585b57f966265adaf", "fusion_lon": 0.0}, {"rental_uris": {"ios": "https://dc.lft.to/lastmile_qr_scan", "android": "https://dc.lft.to/lastmile_qr_scan"}, "type": "electric_scooter", "name": "379fa7f5fb609b51feb06766644a578d", "is_reserved": 0, "lon": -76.93389883333333, "is_disabled": 0, "fusion_lat": 0.0, "lat": 38.8991595, "bike_id": "379fa7f5fb609b51feb06766644a578d", "fusion_lon": 0.0}, {"rental_uris": {"ios": "https://dc.lft.to/lastmile_qr_scan", "android": "https://dc.lft.to/lastmile_qr_scan"}, "type": "electric_bike", "name": "8d0161454884ec41f0e2c3e3a8c0c4e4", "is_reserved": 0, "lon": -76.99914466666667, "is_disabled": 0, "fusion_lat": 0.0, "lat": 38.86453183333333, "bike_id": "8d0161454884ec41f0e2c3e3a8c0c4e4", "fusion_lon": 0.0}, {"rental_uris": {"ios": "https://dc.lft.to/lastmile_qr_scan", "android": "https://dc.lft.to/lastmile_qr_scan"}, "type": "electric_scooter", "name": "3219a184450809e4b56cb88dd8353208", "is_reserved": 0, "lon": -77.040766, "is_disabled": 0, "fusion_lat": 0.0, "lat": 38.9172115, "bike_id": "3219a184450809e4b56cb88dd8353208", "fusion_lon": 0.0}, {"rental_uris": {"ios": "https://dc.lft.to/lastmile_qr_scan", "android": "https://dc.lft.to/lastmile_qr_scan"}, "type": "electric_scooter", "name": "3a308fccfd900a3d5a9c1dba90ad53b4", "is_reserved": 0, "lon": -77.04226483333333, "is_disabled": 0, "fusion_lat": 0.0, "lat": 38.911112833333334, "bike_id": "3a308fccfd900a3d5a9c1dba90ad53b4", "fusion_lon": 0.0}, {"rental_uris": {"ios": "https://dc.lft.to/lastmile_qr_scan", "android": "https://dc.lft.to/lastmile_qr_scan"}, "type": "electric_scooter", "name": "cc1db111927486d2f435dbd93dd035f6", "is_reserved": 0, "lon": -77.05960916666666, "is_disabled": 0, "fusion_lat": 0.0, "lat": 38.928377166666664, "bike_id": "cc1db111927486d2f435dbd93dd035f6", "fusion_lon": 0.0}, {"rental_uris": {"ios": "https://dc.lft.to/lastmile_qr_scan", "android": "https://dc.lft.to/lastmile_qr_scan"}, "type": "electric_scooter", "name": "b643e0c9592daaf26af44421d165d99d", "is_reserved": 0, "lon": -77.0204505, "is_disabled": 0, "fusion_lat": 0.0, "lat": 38.934101166666665, "bike_id": "b643e0c9592daaf26af44421d165d99d", "fusion_lon": 0.0}, {"rental_uris": {"ios": "https://dc.lft.to/lastmile_qr_scan", "android": "https://dc.lft.to/lastmile_qr_scan"}, "type": "electric_bike", "name": "96563e800323aa5f5b29ff5c44d06354", "is_reserved": 0, "lon": -77.00410516666666, "is_disabled": 0, "fusion_lat": 0.0, "lat": 38.98532083333333, "bike_id": "96563e800323aa5f5b29ff5c44d06354", "fusion_lon": 0.0}, {"rental_uris": {"ios": "https://dc.lft.to/lastmile_qr_scan", "android": "https://dc.lft.to/lastmile_qr_scan"}, "type": "electric_scooter", "name": "179cdc9142f4309b40c8eb6944d3b5d6", "is_reserved": 0, "lon": -77.03362333333334, "is_disabled": 0, "fusion_lat": 0.0, "lat": 38.8999255, "bike_id": "179cdc9142f4309b40c8eb6944d3b5d6", "fusion_lon": 0.0}, {"rental_uris": {"ios": "https://dc.lft.to/lastmile_qr_scan", "android": "https://dc.lft.to/lastmile_qr_scan"}, "type": "electric_scooter", "name": "62e9e8bb3c96d9d12502fc1dc2d88f87", "is_reserved": 0, "lon": -77.00379733333334, "is_disabled": 0, "fusion_lat": 0.0, "lat": 38.8794865, "bike_id": "62e9e8bb3c96d9d12502fc1dc2d88f87", "fusion_lon": 0.0}, {"rental_uris": {"ios": "https://dc.lft.to/lastmile_qr_scan", "android": "https://dc.lft.to/lastmile_qr_scan"}, "type": "electric_scooter", "name": "b4e8b6ef30b3b895a9b9ad2091f5ce43", "is_reserved": 0, "lon": -77.05302816666666, "is_disabled": 0, "fusion_lat": 0.0, "lat": 38.9027255, "bike_id": "b4e8b6ef30b3b895a9b9ad2091f5ce43", "fusion_lon": 0.0}, {"rental_uris": {"ios": "https://dc.lft.to/lastmile_qr_scan", "android": "https://dc.lft.to/lastmile_qr_scan"}, "type": "electric_scooter", "name": "cfa8cfd3bd2af5de8d2794b0014decf7", "is_reserved": 0, "lon": -77.049093, "is_disabled": 0, "fusion_lat": 0.0, "lat": 38.90085066666666, "bike_id": "cfa8cfd3bd2af5de8d2794b0014decf7", "fusion_lon": 0.0}, {"rental_uris": {"ios": "https://dc.lft.to/lastmile_qr_scan", "android": "https://dc.lft.to/lastmile_qr_scan"}, "type": "electric_bike", "name": "53d618505e1e978cbf129bdfbd90a8e5", "is_reserved": 0, "lon": -77.11282883333334, "is_disabled": 0, "fusion_lat": 0.0, "lat": 38.83104816666667, "bike_id": "53d618505e1e978cbf129bdfbd90a8e5", "fusion_lon": 0.0}, {"rental_uris": {"ios": "https://dc.lft.to/lastmile_qr_scan", "android": "https://dc.lft.to/lastmile_qr_scan"}, "type": "electric_scooter", "name": "1eb2beb38d2a41da1738a0236323f7bd", "is_reserved": 0, "lon": -77.032612, "is_disabled": 0, "fusion_lat": 0.0, "lat": 38.930239666666665, "bike_id": "1eb2beb38d2a41da1738a0236323f7bd", "fusion_lon": 0.0}, {"rental_uris": {"ios": "https://dc.lft.to/lastmile_qr_scan", "android": "https://dc.lft.to/lastmile_qr_scan"}, "type": "electric_scooter", "name": "d1a723b8c2511db5fc6b46486f22dffe", "is_reserved": 0, "lon": -77.087782, "is_disabled": 0, "fusion_lat": 0.0, "lat": 38.935616333333336, "bike_id": "d1a723b8c2511db5fc6b46486f22dffe", "fusion_lon": 0.0}, {"rental_uris": {"ios": "https://dc.lft.to/lastmile_qr_scan", "android": "https://dc.lft.to/lastmile_qr_scan"}, "type": "electric_scooter", "name": "74a26382b89f70d194b68532afd48519", "is_reserved": 0, "lon": -77.00822116666667, "is_disabled": 0, "fusion_lat": 0.0, "lat": 38.915660333333335, "bike_id": "74a26382b89f70d194b68532afd48519", "fusion_lon": 0.0}, {"rental_uris": {"ios": "https://dc.lft.to/lastmile_qr_scan", "android": "https://dc.lft.to/lastmile_qr_scan"}, "type": "electric_scooter", "name": "b3cad9d3e77f1fc14b9d96b6327fc01a", "is_reserved": 0, "lon": -77.06325716666667, "is_disabled": 0, "fusion_lat": 0.0, "lat": 38.91338566666667, "bike_id": "b3cad9d3e77f1fc14b9d96b6327fc01a", "fusion_lon": 0.0}, {"rental_uris": {"ios": "https://dc.lft.to/lastmile_qr_scan", "android": "https://dc.lft.to/lastmile_qr_scan"}, "type": "electric_scooter", "name": "68d78ceb0e4d06c0ebc9f2bce41b7f0a", "is_reserved": 0, "lon": -77.02947466666667, "is_disabled": 0, "fusion_lat": 0.0, "lat": 38.898193166666665, "bike_id": "68d78ceb0e4d06c0ebc9f2bce41b7f0a", "fusion_lon": 0.0}, {"rental_uris": {"ios": "https://dc.lft.to/lastmile_qr_scan", "android": "https://dc.lft.to/lastmile_qr_scan"}, "type": "electric_scooter", "name": "c8bdd4b9b222099d816dcea3ef95c482", "is_reserved": 0, "lon": -77.02188266666667, "is_disabled": 0, "fusion_lat": 0.0, "lat": 38.929176166666664, "bike_id": "c8bdd4b9b222099d816dcea3ef95c482", "fusion_lon": 0.0}, {"rental_uris": {"ios": "https://dc.lft.to/lastmile_qr_scan", "android": "https://dc.lft.to/lastmile_qr_scan"}, "type": "electric_scooter", "name": "5180a08e657ebbd7f16c55754b85900b", "is_reserved": 0, "lon": -77.04180233333334, "is_disabled": 0, "fusion_lat": 0.0, "lat": 38.91415033333333, "bike_id": "5180a08e657ebbd7f16c55754b85900b", "fusion_lon": 0.0}, {"rental_uris": {"ios": "https://dc.lft.to/lastmile_qr_scan", "android": "https://dc.lft.to/lastmile_qr_scan"}, "type": "electric_bike", "name": "8a71f1bd123d7ce2f7c0296257d358c4", "is_reserved": 0, "lon": -77.02007383333333, "is_disabled": 0, "fusion_lat": 0.0, "lat": 39.026238, "bike_id": "8a71f1bd123d7ce2f7c0296257d358c4", "fusion_lon": 0.0}, {"rental_uris": {"ios": "https://dc.lft.to/lastmile_qr_scan", "android": "https://dc.lft.to/lastmile_qr_scan"}, "type": "electric_scooter", "name": "01beb659c0a704e98b2449fa23ad5b11", "is_reserved": 0, "lon": -77.000495, "is_disabled": 0, "fusion_lat": 0.0, "lat": 38.876798666666666, "bike_id": "01beb659c0a704e98b2449fa23ad5b11", "fusion_lon": 0.0}, {"rental_uris": {"ios": "https://dc.lft.to/lastmile_qr_scan", "android": "https://dc.lft.to/lastmile_qr_scan"}, "type": "electric_bike", "name": "e07e731784c6d16773768bdc220abad9", "is_reserved": 0, "lon": -77.007615, "is_disabled": 0, "fusion_lat": 0.0, "lat": 38.997916833333335, "bike_id": "e07e731784c6d16773768bdc220abad9", "fusion_lon": 0.0}, {"rental_uris": {"ios": "https://dc.lft.to/lastmile_qr_scan", "android": "https://dc.lft.to/lastmile_qr_scan"}, "type": "electric_scooter", "name": "b4a0d56a5404576ae158bf2c0341fdd0", "is_reserved": 0, "lon": -77.01758283333334, "is_disabled": 0, "fusion_lat": 0.0, "lat": 38.876882, "bike_id": "b4a0d56a5404576ae158bf2c0341fdd0", "fusion_lon": 0.0}, {"rental_uris": {"ios": "https://dc.lft.to/lastmile_qr_scan", "android": "https://dc.lft.to/lastmile_qr_scan"}, "type": "electric_scooter", "name": "b8ab5f66cf7eb68252015861cd535f08", "is_reserved": 0, "lon": -77.00261216666667, "is_disabled": 0, "fusion_lat": 0.0, "lat": 38.87727183333333, "bike_id": "b8ab5f66cf7eb68252015861cd535f08", "fusion_lon": 0.0}, {"rental_uris": {"ios": "https://dc.lft.to/lastmile_qr_scan", "android": "https://dc.lft.to/lastmile_qr_scan"}, "type": "electric_scooter", "name": "36ec36c3c198a2d1df8f8b79159775db", "is_reserved": 0, "lon": -77.04018066666667, "is_disabled": 0, "fusion_lat": 0.0, "lat": 38.91846666666667, "bike_id": "36ec36c3c198a2d1df8f8b79159775db", "fusion_lon": 0.0}, {"rental_uris": {"ios": "https://dc.lft.to/lastmile_qr_scan", "android": "https://dc.lft.to/lastmile_qr_scan"}, "type": "electric_bike", "name": "1d898b1fbb68dc059bb317fe7c0a9b3f", "is_reserved": 0, "lon": -76.95242133333333, "is_disabled": 0, "fusion_lat": 0.0, "lat": 38.88470266666667, "bike_id": "1d898b1fbb68dc059bb317fe7c0a9b3f", "fusion_lon": 0.0}, {"rental_uris": {"ios": "https://dc.lft.to/lastmile_qr_scan", "android": "https://dc.lft.to/lastmile_qr_scan"}, "type": "electric_bike", "name": "23be22a5f5468209ef1c0e12d4413def", "is_reserved": 0, "lon": -76.94540966666666, "is_disabled": 0, "fusion_lat": 0.0, "lat": 38.98324516666667, "bike_id": "23be22a5f5468209ef1c0e12d4413def", "fusion_lon": 0.0}, {"rental_uris": {"ios": "https://dc.lft.to/lastmile_qr_scan", "android": "https://dc.lft.to/lastmile_qr_scan"}, "type": "electric_scooter", "name": "995e52b17ea2a70bea8a0418569c1ec1", "is_reserved": 0, "lon": -77.02613066666666, "is_disabled": 0, "fusion_lat": 0.0, "lat": 38.916953166666666, "bike_id": "995e52b17ea2a70bea8a0418569c1ec1", "fusion_lon": 0.0}, {"rental_uris": {"ios": "https://dc.lft.to/lastmile_qr_scan", "android": "https://dc.lft.to/lastmile_qr_scan"}, "type": "electric_scooter", "name": "082815a66e3173b39acc9c821e760cd4", "is_reserved": 0, "lon": -77.09670166666666, "is_disabled": 0, "fusion_lat": 0.0, "lat": 38.91764, "bike_id": "082815a66e3173b39acc9c821e760cd4", "fusion_lon": 0.0}, {"rental_uris": {"ios": "https://dc.lft.to/lastmile_qr_scan", "android": "https://dc.lft.to/lastmile_qr_scan"}, "type": "electric_scooter", "name": "09c6fa3b74ef5ec463c050b283c0e6f2", "is_reserved": 0, "lon": -77.02043033333334, "is_disabled": 0, "fusion_lat": 0.0, "lat": 38.899748833333334, "bike_id": "09c6fa3b74ef5ec463c050b283c0e6f2", "fusion_lon": 0.0}, {"rental_uris": {"ios": "https://dc.lft.to/lastmile_qr_scan", "android": "https://dc.lft.to/lastmile_qr_scan"}, "type": "electric_scooter", "name": "609f50e06f5e3336b041aea2d4f32022", "is_reserved": 0, "lon": -77.03961, "is_disabled": 0, "fusion_lat": 0.0, "lat": 38.8982765, "bike_id": "609f50e06f5e3336b041aea2d4f32022", "fusion_lon": 0.0}, {"rental_uris": {"ios": "https://dc.lft.to/lastmile_qr_scan", "android": "https://dc.lft.to/lastmile_qr_scan"}, "type": "electric_scooter", "name": "f5e835067e9c92c4a1fb2503337b7922", "is_reserved": 0, "lon": -77.057213, "is_disabled": 0, "fusion_lat": 0.0, "lat": 38.93363566666667, "bike_id": "f5e835067e9c92c4a1fb2503337b7922", "fusion_lon": 0.0}, {"rental_uris": {"ios": "https://dc.lft.to/lastmile_qr_scan", "android": "https://dc.lft.to/lastmile_qr_scan"}, "type": "electric_scooter", "name": "7e978cdb0f7a78513e04a8fe9953e619", "is_reserved": 0, "lon": -77.00052866666667, "is_disabled": 0, "fusion_lat": 0.0, "lat": 38.87689266666667, "bike_id": "7e978cdb0f7a78513e04a8fe9953e619", "fusion_lon": 0.0}, {"rental_uris": {"ios": "https://dc.lft.to/lastmile_qr_scan", "android": "https://dc.lft.to/lastmile_qr_scan"}, "type": "electric_scooter", "name": "d8f913f1251d4c88d6db63f19ce83369", "is_reserved": 0, "lon": -76.932159, "is_disabled": 0, "fusion_lat": 0.0, "lat": 38.880577833333334, "bike_id": "d8f913f1251d4c88d6db63f19ce83369", "fusion_lon": 0.0}, {"rental_uris": {"ios": "https://dc.lft.to/lastmile_qr_scan", "android": "https://dc.lft.to/lastmile_qr_scan"}, "type": "electric_scooter", "name": "d342f95455610ddc90cb36d64368281b", "is_reserved": 0, "lon": -77.0250345, "is_disabled": 0, "fusion_lat": 0.0, "lat": 38.92021033333333, "bike_id": "d342f95455610ddc90cb36d64368281b", "fusion_lon": 0.0}, {"rental_uris": {"ios": "https://dc.lft.to/lastmile_qr_scan", "android": "https://dc.lft.to/lastmile_qr_scan"}, "type": "electric_scooter", "name": "7fa8cc0baf8f5408777e173edd322f32", "is_reserved": 0, "lon": -77.041367, "is_disabled": 0, "fusion_lat": 0.0, "lat": 38.893573833333335, "bike_id": "7fa8cc0baf8f5408777e173edd322f32", "fusion_lon": 0.0}, {"rental_uris": {"ios": "https://dc.lft.to/lastmile_qr_scan", "android": "https://dc.lft.to/lastmile_qr_scan"}, "type": "electric_scooter", "name": "51d31ca7196f1066c49d1dbe4e505d3b", "is_reserved": 0, "lon": -77.0344105, "is_disabled": 0, "fusion_lat": 0.0, "lat": 38.90737266666667, "bike_id": "51d31ca7196f1066c49d1dbe4e505d3b", "fusion_lon": 0.0}, {"rental_uris": {"ios": "https://dc.lft.to/lastmile_qr_scan", "android": "https://dc.lft.to/lastmile_qr_scan"}, "type": "electric_bike", "name": "a9026316307137bb02c7a60ba11cc125", "is_reserved": 0, "lon": -77.04377666666667, "is_disabled": 0, "fusion_lat": 0.0, "lat": 38.9072065, "bike_id": "a9026316307137bb02c7a60ba11cc125", "fusion_lon": 0.0}, {"rental_uris": {"ios": "https://dc.lft.to/lastmile_qr_scan", "android": "https://dc.lft.to/lastmile_qr_scan"}, "type": "electric_scooter", "name": "e2e87e6800f243fbabdadcc77b7cbf6a", "is_reserved": 0, "lon": -77.01339183333333, "is_disabled": 0, "fusion_lat": 0.0, "lat": 38.88128316666667, "bike_id": "e2e87e6800f243fbabdadcc77b7cbf6a", "fusion_lon": 0.0}, {"rental_uris": {"ios": "https://dc.lft.to/lastmile_qr_scan", "android": "https://dc.lft.to/lastmile_qr_scan"}, "type": "electric_scooter", "name": "935c6beef1456bd3692e68d9f9d723c3", "is_reserved": 0, "lon": -77.027739, "is_disabled": 0, "fusion_lat": 0.0, "lat": 38.965838, "bike_id": "935c6beef1456bd3692e68d9f9d723c3", "fusion_lon": 0.0}, {"rental_uris": {"ios": "https://dc.lft.to/lastmile_qr_scan", "android": "https://dc.lft.to/lastmile_qr_scan"}, "type": "electric_scooter", "name": "84e3323984b7e7276f0a9fbfc4cab823", "is_reserved": 0, "lon": -77.03484816666666, "is_disabled": 0, "fusion_lat": 0.0, "lat": 38.917139666666664, "bike_id": "84e3323984b7e7276f0a9fbfc4cab823", "fusion_lon": 0.0}, {"rental_uris": {"ios": "https://dc.lft.to/lastmile_qr_scan", "android": "https://dc.lft.to/lastmile_qr_scan"}, "type": "electric_bike", "name": "8e034b12f6bfd877052b5c0fb9286313", "is_reserved": 0, "lon": -77.089237, "is_disabled": 0, "fusion_lat": 0.0, "lat": 38.84106766666667, "bike_id": "8e034b12f6bfd877052b5c0fb9286313", "fusion_lon": 0.0}, {"rental_uris": {"ios": "https://dc.lft.to/lastmile_qr_scan", "android": "https://dc.lft.to/lastmile_qr_scan"}, "type": "electric_scooter", "name": "4912b9941a1cd676e3aa923291b53934", "is_reserved": 0, "lon": -76.976545, "is_disabled": 0, "fusion_lat": 0.0, "lat": 38.903683, "bike_id": "4912b9941a1cd676e3aa923291b53934", "fusion_lon": 0.0}, {"rental_uris": {"ios": "https://dc.lft.to/lastmile_qr_scan", "android": "https://dc.lft.to/lastmile_qr_scan"}, "type": "electric_scooter", "name": "c5ed580ecf50675d9fd800da59010238", "is_reserved": 0, "lon": -77.04099533333333, "is_disabled": 0, "fusion_lat": 0.0, "lat": 38.920707666666665, "bike_id": "c5ed580ecf50675d9fd800da59010238", "fusion_lon": 0.0}, {"rental_uris": {"ios": "https://dc.lft.to/lastmile_qr_scan", "android": "https://dc.lft.to/lastmile_qr_scan"}, "type": "electric_scooter", "name": "f7965d20d0362cf995d844f984916706", "is_reserved": 0, "lon": -77.03838483333334, "is_disabled": 0, "fusion_lat": 0.0, "lat": 38.903751666666665, "bike_id": "f7965d20d0362cf995d844f984916706", "fusion_lon": 0.0}, {"rental_uris": {"ios": "https://dc.lft.to/lastmile_qr_scan", "android": "https://dc.lft.to/lastmile_qr_scan"}, "type": "electric_scooter", "name": "796d607ee0be1fd3b37ec3732110c86d", "is_reserved": 0, "lon": -77.00763733333334, "is_disabled": 0, "fusion_lat": 0.0, "lat": 38.871203, "bike_id": "796d607ee0be1fd3b37ec3732110c86d", "fusion_lon": 0.0}, {"rental_uris": {"ios": "https://dc.lft.to/lastmile_qr_scan", "android": "https://dc.lft.to/lastmile_qr_scan"}, "type": "electric_scooter", "name": "adf4adac3fcf34976cfbab1d143c6c6c", "is_reserved": 0, "lon": -77.04201833333333, "is_disabled": 0, "fusion_lat": 0.0, "lat": 38.917019333333336, "bike_id": "adf4adac3fcf34976cfbab1d143c6c6c", "fusion_lon": 0.0}, {"rental_uris": {"ios": "https://dc.lft.to/lastmile_qr_scan", "android": "https://dc.lft.to/lastmile_qr_scan"}, "type": "electric_scooter", "name": "7da38247d0d6b96dda82c2eecf2f78bc", "is_reserved": 0, "lon": -77.00943, "is_disabled": 0, "fusion_lat": 0.0, "lat": 38.91269833333333, "bike_id": "7da38247d0d6b96dda82c2eecf2f78bc", "fusion_lon": 0.0}, {"rental_uris": {"ios": "https://dc.lft.to/lastmile_qr_scan", "android": "https://dc.lft.to/lastmile_qr_scan"}, "type": "electric_bike", "name": "c5b04cceda01788e8205044a2c7785bd", "is_reserved": 0, "lon": -76.9785735, "is_disabled": 0, "fusion_lat": 0.0, "lat": 38.98380783333333, "bike_id": "c5b04cceda01788e8205044a2c7785bd", "fusion_lon": 0.0}, {"rental_uris": {"ios": "https://dc.lft.to/lastmile_qr_scan", "android": "https://dc.lft.to/lastmile_qr_scan"}, "type": "electric_scooter", "name": "4f04e0fc2981a8dd12f115031d28e8d5", "is_reserved": 0, "lon": -77.06344433333334, "is_disabled": 0, "fusion_lat": 0.0, "lat": 38.943679833333334, "bike_id": "4f04e0fc2981a8dd12f115031d28e8d5", "fusion_lon": 0.0}, {"rental_uris": {"ios": "https://dc.lft.to/lastmile_qr_scan", "android": "https://dc.lft.to/lastmile_qr_scan"}, "type": "electric_scooter", "name": "e55cdf35453e63f96460e88914229115", "is_reserved": 0, "lon": -77.01344833333333, "is_disabled": 0, "fusion_lat": 0.0, "lat": 38.919177166666664, "bike_id": "e55cdf35453e63f96460e88914229115", "fusion_lon": 0.0}, {"rental_uris": {"ios": "https://dc.lft.to/lastmile_qr_scan", "android": "https://dc.lft.to/lastmile_qr_scan"}, "type": "electric_scooter", "name": "765720275ecb5be6b60972ba5873ecb8", "is_reserved": 0, "lon": -76.97943333333333, "is_disabled": 0, "fusion_lat": 0.0, "lat": 38.91605216666667, "bike_id": "765720275ecb5be6b60972ba5873ecb8", "fusion_lon": 0.0}, {"rental_uris": {"ios": "https://dc.lft.to/lastmile_qr_scan", "android": "https://dc.lft.to/lastmile_qr_scan"}, "type": "electric_scooter", "name": "3e5fd28b5e1dcfb687197bea79205615", "is_reserved": 0, "lon": -77.03206733333333, "is_disabled": 0, "fusion_lat": 0.0, "lat": 38.91633733333333, "bike_id": "3e5fd28b5e1dcfb687197bea79205615", "fusion_lon": 0.0}, {"rental_uris": {"ios": "https://dc.lft.to/lastmile_qr_scan", "android": "https://dc.lft.to/lastmile_qr_scan"}, "type": "electric_scooter", "name": "72b23b981300e6f678affc3b6df2c04d", "is_reserved": 0, "lon": -77.0297375, "is_disabled": 0, "fusion_lat": 0.0, "lat": 38.9229225, "bike_id": "72b23b981300e6f678affc3b6df2c04d", "fusion_lon": 0.0}, {"rental_uris": {"ios": "https://dc.lft.to/lastmile_qr_scan", "android": "https://dc.lft.to/lastmile_qr_scan"}, "type": "electric_scooter", "name": "36e55d49342f980c47fb4d3b20d5aae6", "is_reserved": 0, "lon": -77.03278566666667, "is_disabled": 0, "fusion_lat": 0.0, "lat": 38.92000766666666, "bike_id": "36e55d49342f980c47fb4d3b20d5aae6", "fusion_lon": 0.0}, {"rental_uris": {"ios": "https://dc.lft.to/lastmile_qr_scan", "android": "https://dc.lft.to/lastmile_qr_scan"}, "type": "electric_bike", "name": "54b3f0896d56e18e9f6749f0f31ac83e", "is_reserved": 0, "lon": -77.09958783333333, "is_disabled": 0, "fusion_lat": 0.0, "lat": 38.85792333333333, "bike_id": "54b3f0896d56e18e9f6749f0f31ac83e", "fusion_lon": 0.0}, {"rental_uris": {"ios": "https://dc.lft.to/lastmile_qr_scan", "android": "https://dc.lft.to/lastmile_qr_scan"}, "type": "electric_scooter", "name": "3d670ded7c775e3c6d2ac4f6add26609", "is_reserved": 0, "lon": -77.00568616666666, "is_disabled": 0, "fusion_lat": 0.0, "lat": 38.87455283333333, "bike_id": "3d670ded7c775e3c6d2ac4f6add26609", "fusion_lon": 0.0}, {"rental_uris": {"ios": "https://dc.lft.to/lastmile_qr_scan", "android": "https://dc.lft.to/lastmile_qr_scan"}, "type": "electric_scooter", "name": "dcc4093a77b6160e776758b0eea94d4b", "is_reserved": 0, "lon": -76.98703433333333, "is_disabled": 0, "fusion_lat": 0.0, "lat": 38.88842666666667, "bike_id": "dcc4093a77b6160e776758b0eea94d4b", "fusion_lon": 0.0}, {"rental_uris": {"ios": "https://dc.lft.to/lastmile_qr_scan", "android": "https://dc.lft.to/lastmile_qr_scan"}, "type": "electric_scooter", "name": "f72144cc58f8e07b8141a7b7189b0f6c", "is_reserved": 0, "lon": -77.02623633333333, "is_disabled": 0, "fusion_lat": 0.0, "lat": 38.892231, "bike_id": "f72144cc58f8e07b8141a7b7189b0f6c", "fusion_lon": 0.0}, {"rental_uris": {"ios": "https://dc.lft.to/lastmile_qr_scan", "android": "https://dc.lft.to/lastmile_qr_scan"}, "type": "electric_scooter", "name": "22e5dff8e35e610ea52e43c8ce6f5fa5", "is_reserved": 0, "lon": -77.020076, "is_disabled": 0, "fusion_lat": 0.0, "lat": 38.92806983333333, "bike_id": "22e5dff8e35e610ea52e43c8ce6f5fa5", "fusion_lon": 0.0}, {"rental_uris": {"ios": "https://dc.lft.to/lastmile_qr_scan", "android": "https://dc.lft.to/lastmile_qr_scan"}, "type": "electric_scooter", "name": "f8c2100e8a7226e436dbf9432f2a4b9a", "is_reserved": 0, "lon": -77.0045565, "is_disabled": 0, "fusion_lat": 0.0, "lat": 38.9117475, "bike_id": "f8c2100e8a7226e436dbf9432f2a4b9a", "fusion_lon": 0.0}, {"rental_uris": {"ios": "https://dc.lft.to/lastmile_qr_scan", "android": "https://dc.lft.to/lastmile_qr_scan"}, "type": "electric_scooter", "name": "bc30212078a8599ca50e86b884c53d7c", "is_reserved": 0, "lon": -77.0270645, "is_disabled": 0, "fusion_lat": 0.0, "lat": 38.90604666666667, "bike_id": "bc30212078a8599ca50e86b884c53d7c", "fusion_lon": 0.0}, {"rental_uris": {"ios": "https://dc.lft.to/lastmile_qr_scan", "android": "https://dc.lft.to/lastmile_qr_scan"}, "type": "electric_bike", "name": "e9264f6524928c964dd8df8c2c0c2b7d", "is_reserved": 0, "lon": -77.2317555, "is_disabled": 0, "fusion_lat": 0.0, "lat": 38.92895516666667, "bike_id": "e9264f6524928c964dd8df8c2c0c2b7d", "fusion_lon": 0.0}, {"rental_uris": {"ios": "https://dc.lft.to/lastmile_qr_scan", "android": "https://dc.lft.to/lastmile_qr_scan"}, "type": "electric_scooter", "name": "304989047f1f7c2d42a36b98661eeba8", "is_reserved": 0, "lon": -76.9463615, "is_disabled": 0, "fusion_lat": 0.0, "lat": 38.898701, "bike_id": "304989047f1f7c2d42a36b98661eeba8", "fusion_lon": 0.0}, {"rental_uris": {"ios": "https://dc.lft.to/lastmile_qr_scan", "android": "https://dc.lft.to/lastmile_qr_scan"}, "type": "electric_bike", "name": "f99af7f24ded586c0881db64be11ae87", "is_reserved": 0, "lon": -77.10290483333333, "is_disabled": 0, "fusion_lat": 0.0, "lat": 38.8525885, "bike_id": "f99af7f24ded586c0881db64be11ae87", "fusion_lon": 0.0}, {"rental_uris": {"ios": "https://dc.lft.to/lastmile_qr_scan", "android": "https://dc.lft.to/lastmile_qr_scan"}, "type": "electric_scooter", "name": "cbe3eeb21ead4d86a91d3357cc97b6dc", "is_reserved": 0, "lon": -77.01464883333334, "is_disabled": 0, "fusion_lat": 0.0, "lat": 38.92670066666667, "bike_id": "cbe3eeb21ead4d86a91d3357cc97b6dc", "fusion_lon": 0.0}, {"rental_uris": {"ios": "https://dc.lft.to/lastmile_qr_scan", "android": "https://dc.lft.to/lastmile_qr_scan"}, "type": "electric_bike", "name": "6757c937911f24b7073296586d696c1a", "is_reserved": 0, "lon": -76.97954933333334, "is_disabled": 0, "fusion_lat": 0.0, "lat": 38.92040466666667, "bike_id": "6757c937911f24b7073296586d696c1a", "fusion_lon": 0.0}, {"rental_uris": {"ios": "https://dc.lft.to/lastmile_qr_scan", "android": "https://dc.lft.to/lastmile_qr_scan"}, "type": "electric_scooter", "name": "8b2259f0e9df394936f3722cb5849d86", "is_reserved": 0, "lon": -77.034126, "is_disabled": 0, "fusion_lat": 0.0, "lat": 38.901267833333335, "bike_id": "8b2259f0e9df394936f3722cb5849d86", "fusion_lon": 0.0}, {"rental_uris": {"ios": "https://dc.lft.to/lastmile_qr_scan", "android": "https://dc.lft.to/lastmile_qr_scan"}, "type": "electric_scooter", "name": "3d4adfc17345f182ee7a27fc4480d2cd", "is_reserved": 0, "lon": -77.03841733333333, "is_disabled": 0, "fusion_lat": 0.0, "lat": 38.91036166666667, "bike_id": "3d4adfc17345f182ee7a27fc4480d2cd", "fusion_lon": 0.0}, {"rental_uris": {"ios": "https://dc.lft.to/lastmile_qr_scan", "android": "https://dc.lft.to/lastmile_qr_scan"}, "type": "electric_scooter", "name": "8af89333370bd09e77dae2d89751bda5", "is_reserved": 0, "lon": -77.0447295, "is_disabled": 0, "fusion_lat": 0.0, "lat": 38.913637666666666, "bike_id": "8af89333370bd09e77dae2d89751bda5", "fusion_lon": 0.0}, {"rental_uris": {"ios": "https://dc.lft.to/lastmile_qr_scan", "android": "https://dc.lft.to/lastmile_qr_scan"}, "type": "electric_scooter", "name": "38d1513b8657977950965c9cb5c572bd", "is_reserved": 0, "lon": -77.02570966666667, "is_disabled": 0, "fusion_lat": 0.0, "lat": 38.94852216666666, "bike_id": "38d1513b8657977950965c9cb5c572bd", "fusion_lon": 0.0}, {"rental_uris": {"ios": "https://dc.lft.to/lastmile_qr_scan", "android": "https://dc.lft.to/lastmile_qr_scan"}, "type": "electric_scooter", "name": "a96965b348805e79c75c0440ec48c01e", "is_reserved": 0, "lon": -76.99473466666667, "is_disabled": 0, "fusion_lat": 0.0, "lat": 38.88279983333334, "bike_id": "a96965b348805e79c75c0440ec48c01e", "fusion_lon": 0.0}, {"rental_uris": {"ios": "https://dc.lft.to/lastmile_qr_scan", "android": "https://dc.lft.to/lastmile_qr_scan"}, "type": "electric_scooter", "name": "64d5f748f74fa994c9d8ec6391773e56", "is_reserved": 0, "lon": -77.01497716666667, "is_disabled": 0, "fusion_lat": 0.0, "lat": 38.90657133333333, "bike_id": "64d5f748f74fa994c9d8ec6391773e56", "fusion_lon": 0.0}, {"rental_uris": {"ios": "https://dc.lft.to/lastmile_qr_scan", "android": "https://dc.lft.to/lastmile_qr_scan"}, "type": "electric_scooter", "name": "e3ae443f965b7b7de6383ca6bc18166a", "is_reserved": 0, "lon": -77.06385466666667, "is_disabled": 0, "fusion_lat": 0.0, "lat": 38.9051015, "bike_id": "e3ae443f965b7b7de6383ca6bc18166a", "fusion_lon": 0.0}, {"rental_uris": {"ios": "https://dc.lft.to/lastmile_qr_scan", "android": "https://dc.lft.to/lastmile_qr_scan"}, "type": "electric_scooter", "name": "0067ebb5eb941e5b4b5b87affead872b", "is_reserved": 0, "lon": -76.92302683333334, "is_disabled": 0, "fusion_lat": 0.0, "lat": 38.89387083333333, "bike_id": "0067ebb5eb941e5b4b5b87affead872b", "fusion_lon": 0.0}, {"rental_uris": {"ios": "https://dc.lft.to/lastmile_qr_scan", "android": "https://dc.lft.to/lastmile_qr_scan"}, "type": "electric_bike", "name": "6acba12ca2d417e626fbf108974241ad", "is_reserved": 0, "lon": -77.07903, "is_disabled": 0, "fusion_lat": 0.0, "lat": 38.83935116666667, "bike_id": "6acba12ca2d417e626fbf108974241ad", "fusion_lon": 0.0}, {"rental_uris": {"ios": "https://dc.lft.to/lastmile_qr_scan", "android": "https://dc.lft.to/lastmile_qr_scan"}, "type": "electric_scooter", "name": "dfd1b7e9a4245780badbfefec194c10e", "is_reserved": 0, "lon": -77.02454466666667, "is_disabled": 0, "fusion_lat": 0.0, "lat": 38.91864866666667, "bike_id": "dfd1b7e9a4245780badbfefec194c10e", "fusion_lon": 0.0}, {"rental_uris": {"ios": "https://dc.lft.to/lastmile_qr_scan", "android": "https://dc.lft.to/lastmile_qr_scan"}, "type": "electric_scooter", "name": "7674c3661b87c206c029aa102e8e135e", "is_reserved": 0, "lon": -77.00559933333334, "is_disabled": 0, "fusion_lat": 0.0, "lat": 38.8766735, "bike_id": "7674c3661b87c206c029aa102e8e135e", "fusion_lon": 0.0}, {"rental_uris": {"ios": "https://dc.lft.to/lastmile_qr_scan", "android": "https://dc.lft.to/lastmile_qr_scan"}, "type": "electric_bike", "name": "43b7529eccd2e730f046d060540b9762", "is_reserved": 0, "lon": -77.03684066666666, "is_disabled": 0, "fusion_lat": 0.0, "lat": 38.916819, "bike_id": "43b7529eccd2e730f046d060540b9762", "fusion_lon": 0.0}, {"rental_uris": {"ios": "https://dc.lft.to/lastmile_qr_scan", "android": "https://dc.lft.to/lastmile_qr_scan"}, "type": "electric_scooter", "name": "a0c52e6b17e08e1b3a436b5649647885", "is_reserved": 0, "lon": -76.99234116666666, "is_disabled": 0, "fusion_lat": 0.0, "lat": 38.887518, "bike_id": "a0c52e6b17e08e1b3a436b5649647885", "fusion_lon": 0.0}, {"rental_uris": {"ios": "https://dc.lft.to/lastmile_qr_scan", "android": "https://dc.lft.to/lastmile_qr_scan"}, "type": "electric_scooter", "name": "e8117a0c722c1db8f139309e31dd0250", "is_reserved": 0, "lon": -77.03196866666667, "is_disabled": 0, "fusion_lat": 0.0, "lat": 38.884715, "bike_id": "e8117a0c722c1db8f139309e31dd0250", "fusion_lon": 0.0}, {"rental_uris": {"ios": "https://dc.lft.to/lastmile_qr_scan", "android": "https://dc.lft.to/lastmile_qr_scan"}, "type": "electric_scooter", "name": "15e026ed3f9e8f70915f92bc7ef53f4a", "is_reserved": 0, "lon": -77.02962516666666, "is_disabled": 0, "fusion_lat": 0.0, "lat": 38.916825833333334, "bike_id": "15e026ed3f9e8f70915f92bc7ef53f4a", "fusion_lon": 0.0}, {"rental_uris": {"ios": "https://dc.lft.to/lastmile_qr_scan", "android": "https://dc.lft.to/lastmile_qr_scan"}, "type": "electric_bike", "name": "1549b15b95eb3272cb434ce321957ed8", "is_reserved": 0, "lon": -76.9073465, "is_disabled": 0, "fusion_lat": 0.0, "lat": 38.896238, "bike_id": "1549b15b95eb3272cb434ce321957ed8", "fusion_lon": 0.0}, {"rental_uris": {"ios": "https://dc.lft.to/lastmile_qr_scan", "android": "https://dc.lft.to/lastmile_qr_scan"}, "type": "electric_scooter", "name": "d1cc45977a4c07afdd1065aed85db606", "is_reserved": 0, "lon": -77.048807, "is_disabled": 0, "fusion_lat": 0.0, "lat": 38.91613983333333, "bike_id": "d1cc45977a4c07afdd1065aed85db606", "fusion_lon": 0.0}, {"rental_uris": {"ios": "https://dc.lft.to/lastmile_qr_scan", "android": "https://dc.lft.to/lastmile_qr_scan"}, "type": "electric_scooter", "name": "be8351f87eb948e2d74bcbadaf12dfac", "is_reserved": 0, "lon": -77.00832066666666, "is_disabled": 0, "fusion_lat": 0.0, "lat": 38.91373316666667, "bike_id": "be8351f87eb948e2d74bcbadaf12dfac", "fusion_lon": 0.0}, {"rental_uris": {"ios": "https://dc.lft.to/lastmile_qr_scan", "android": "https://dc.lft.to/lastmile_qr_scan"}, "type": "electric_scooter", "name": "4211c50e3ca53ca131580683a3db70bb", "is_reserved": 0, "lon": -77.0463875, "is_disabled": 0, "fusion_lat": 0.0, "lat": 38.9149655, "bike_id": "4211c50e3ca53ca131580683a3db70bb", "fusion_lon": 0.0}, {"rental_uris": {"ios": "https://dc.lft.to/lastmile_qr_scan", "android": "https://dc.lft.to/lastmile_qr_scan"}, "type": "electric_scooter", "name": "f26363fd43845de15be43e9e087e7dc2", "is_reserved": 0, "lon": -77.0261925, "is_disabled": 0, "fusion_lat": 0.0, "lat": 38.90360616666667, "bike_id": "f26363fd43845de15be43e9e087e7dc2", "fusion_lon": 0.0}, {"rental_uris": {"ios": "https://dc.lft.to/lastmile_qr_scan", "android": "https://dc.lft.to/lastmile_qr_scan"}, "type": "electric_scooter", "name": "48116918840dd85bc08fe75c869e8c09", "is_reserved": 0, "lon": -77.04334816666666, "is_disabled": 0, "fusion_lat": 0.0, "lat": 38.922230666666664, "bike_id": "48116918840dd85bc08fe75c869e8c09", "fusion_lon": 0.0}, {"rental_uris": {"ios": "https://dc.lft.to/lastmile_qr_scan", "android": "https://dc.lft.to/lastmile_qr_scan"}, "type": "electric_scooter", "name": "6509f28b0a44c7102467abed0ed55b30", "is_reserved": 0, "lon": -77.01227016666667, "is_disabled": 0, "fusion_lat": 0.0, "lat": 38.86722283333334, "bike_id": "6509f28b0a44c7102467abed0ed55b30", "fusion_lon": 0.0}, {"rental_uris": {"ios": "https://dc.lft.to/lastmile_qr_scan", "android": "https://dc.lft.to/lastmile_qr_scan"}, "type": "electric_scooter", "name": "a428d0302fffef7169f446e658527bf0", "is_reserved": 0, "lon": -77.0384145, "is_disabled": 0, "fusion_lat": 0.0, "lat": 38.90731316666667, "bike_id": "a428d0302fffef7169f446e658527bf0", "fusion_lon": 0.0}, {"rental_uris": {"ios": "https://dc.lft.to/lastmile_qr_scan", "android": "https://dc.lft.to/lastmile_qr_scan"}, "type": "electric_scooter", "name": "36d1442258f1d054bd337b2d8770518e", "is_reserved": 0, "lon": -77.00745416666666, "is_disabled": 0, "fusion_lat": 0.0, "lat": 38.9253105, "bike_id": "36d1442258f1d054bd337b2d8770518e", "fusion_lon": 0.0}, {"rental_uris": {"ios": "https://dc.lft.to/lastmile_qr_scan", "android": "https://dc.lft.to/lastmile_qr_scan"}, "type": "electric_scooter", "name": "37c0deab365c4151c83d10c22a6dabe4", "is_reserved": 0, "lon": -77.03977683333333, "is_disabled": 0, "fusion_lat": 0.0, "lat": 38.89226016666667, "bike_id": "37c0deab365c4151c83d10c22a6dabe4", "fusion_lon": 0.0}, {"rental_uris": {"ios": "https://dc.lft.to/lastmile_qr_scan", "android": "https://dc.lft.to/lastmile_qr_scan"}, "type": "electric_scooter", "name": "f7a968faa99ffe2121f24a59c48cf8f1", "is_reserved": 0, "lon": -77.00482583333333, "is_disabled": 0, "fusion_lat": 0.0, "lat": 38.874599, "bike_id": "f7a968faa99ffe2121f24a59c48cf8f1", "fusion_lon": 0.0}, {"rental_uris": {"ios": "https://dc.lft.to/lastmile_qr_scan", "android": "https://dc.lft.to/lastmile_qr_scan"}, "type": "electric_scooter", "name": "4325e12b21dfb10c67bb316f2b0d7951", "is_reserved": 0, "lon": -77.00615966666666, "is_disabled": 0, "fusion_lat": 0.0, "lat": 38.871825, "bike_id": "4325e12b21dfb10c67bb316f2b0d7951", "fusion_lon": 0.0}, {"rental_uris": {"ios": "https://dc.lft.to/lastmile_qr_scan", "android": "https://dc.lft.to/lastmile_qr_scan"}, "type": "electric_bike", "name": "14ad6927f0db01cabd0875ece0a46f00", "is_reserved": 0, "lon": -77.02422433333334, "is_disabled": 0, "fusion_lat": 0.0, "lat": 38.94921383333333, "bike_id": "14ad6927f0db01cabd0875ece0a46f00", "fusion_lon": 0.0}, {"rental_uris": {"ios": "https://dc.lft.to/lastmile_qr_scan", "android": "https://dc.lft.to/lastmile_qr_scan"}, "type": "electric_bike", "name": "49d64d5b3c02f468359d99431034dbf2", "is_reserved": 0, "lon": -76.980589, "is_disabled": 0, "fusion_lat": 0.0, "lat": 38.972550166666664, "bike_id": "49d64d5b3c02f468359d99431034dbf2", "fusion_lon": 0.0}, {"rental_uris": {"ios": "https://dc.lft.to/lastmile_qr_scan", "android": "https://dc.lft.to/lastmile_qr_scan"}, "type": "electric_scooter", "name": "d3f8123e0229b26e01bfea8130a37c26", "is_reserved": 0, "lon": -77.00691666666667, "is_disabled": 0, "fusion_lat": 0.0, "lat": 38.906039666666665, "bike_id": "d3f8123e0229b26e01bfea8130a37c26", "fusion_lon": 0.0}, {"rental_uris": {"ios": "https://dc.lft.to/lastmile_qr_scan", "android": "https://dc.lft.to/lastmile_qr_scan"}, "type": "electric_scooter", "name": "e4008388ec6cfcccaa1de45317e6d6bb", "is_reserved": 0, "lon": -77.0368185, "is_disabled": 0, "fusion_lat": 0.0, "lat": 38.93932316666667, "bike_id": "e4008388ec6cfcccaa1de45317e6d6bb", "fusion_lon": 0.0}, {"rental_uris": {"ios": "https://dc.lft.to/lastmile_qr_scan", "android": "https://dc.lft.to/lastmile_qr_scan"}, "type": "electric_bike", "name": "08a89ff1f74ffe926a5d35fcfb990dca", "is_reserved": 0, "lon": -77.00401233333334, "is_disabled": 0, "fusion_lat": 0.0, "lat": 38.921204, "bike_id": "08a89ff1f74ffe926a5d35fcfb990dca", "fusion_lon": 0.0}, {"rental_uris": {"ios": "https://dc.lft.to/lastmile_qr_scan", "android": "https://dc.lft.to/lastmile_qr_scan"}, "type": "electric_scooter", "name": "b4b69cf40facaad8db5df151072104eb", "is_reserved": 0, "lon": -77.03988533333333, "is_disabled": 0, "fusion_lat": 0.0, "lat": 38.93404483333333, "bike_id": "b4b69cf40facaad8db5df151072104eb", "fusion_lon": 0.0}, {"rental_uris": {"ios": "https://dc.lft.to/lastmile_qr_scan", "android": "https://dc.lft.to/lastmile_qr_scan"}, "type": "electric_scooter", "name": "62ceebd269d4d903ded5f3887cba214b", "is_reserved": 0, "lon": -77.04343166666666, "is_disabled": 0, "fusion_lat": 0.0, "lat": 38.913073, "bike_id": "62ceebd269d4d903ded5f3887cba214b", "fusion_lon": 0.0}, {"rental_uris": {"ios": "https://dc.lft.to/lastmile_qr_scan", "android": "https://dc.lft.to/lastmile_qr_scan"}, "type": "electric_scooter", "name": "dc178a6e232264ce23b6c0436060cade", "is_reserved": 0, "lon": -76.985399, "is_disabled": 0, "fusion_lat": 0.0, "lat": 38.912930833333334, "bike_id": "dc178a6e232264ce23b6c0436060cade", "fusion_lon": 0.0}, {"rental_uris": {"ios": "https://dc.lft.to/lastmile_qr_scan", "android": "https://dc.lft.to/lastmile_qr_scan"}, "type": "electric_scooter", "name": "fbf832b31e4967fc52971fb0ad25ad10", "is_reserved": 0, "lon": -77.0267605, "is_disabled": 0, "fusion_lat": 0.0, "lat": 38.91705966666667, "bike_id": "fbf832b31e4967fc52971fb0ad25ad10", "fusion_lon": 0.0}, {"rental_uris": {"ios": "https://dc.lft.to/lastmile_qr_scan", "android": "https://dc.lft.to/lastmile_qr_scan"}, "type": "electric_scooter", "name": "e6aee5692bad1a00b7fe7cdbcd558847", "is_reserved": 0, "lon": -77.02607966666666, "is_disabled": 0, "fusion_lat": 0.0, "lat": 38.92439066666667, "bike_id": "e6aee5692bad1a00b7fe7cdbcd558847", "fusion_lon": 0.0}, {"rental_uris": {"ios": "https://dc.lft.to/lastmile_qr_scan", "android": "https://dc.lft.to/lastmile_qr_scan"}, "type": "electric_scooter", "name": "d096d31b01317ef05263f976f63d2f54", "is_reserved": 0, "lon": -76.95741433333333, "is_disabled": 0, "fusion_lat": 0.0, "lat": 38.883925833333336, "bike_id": "d096d31b01317ef05263f976f63d2f54", "fusion_lon": 0.0}, {"rental_uris": {"ios": "https://dc.lft.to/lastmile_qr_scan", "android": "https://dc.lft.to/lastmile_qr_scan"}, "type": "electric_scooter", "name": "ad3fe61364aa8e64a8376c94c24977b7", "is_reserved": 0, "lon": -77.02955166666666, "is_disabled": 0, "fusion_lat": 0.0, "lat": 38.9041295, "bike_id": "ad3fe61364aa8e64a8376c94c24977b7", "fusion_lon": 0.0}, {"rental_uris": {"ios": "https://dc.lft.to/lastmile_qr_scan", "android": "https://dc.lft.to/lastmile_qr_scan"}, "type": "electric_scooter", "name": "5d00475097c8d87fe38f87e04c589d9a", "is_reserved": 0, "lon": -77.03442133333333, "is_disabled": 0, "fusion_lat": 0.0, "lat": 38.9180375, "bike_id": "5d00475097c8d87fe38f87e04c589d9a", "fusion_lon": 0.0}, {"rental_uris": {"ios": "https://dc.lft.to/lastmile_qr_scan", "android": "https://dc.lft.to/lastmile_qr_scan"}, "type": "electric_scooter", "name": "dce50552405c931b6e2f42e3bb670b90", "is_reserved": 0, "lon": -77.02759766666667, "is_disabled": 0, "fusion_lat": 0.0, "lat": 38.901152, "bike_id": "dce50552405c931b6e2f42e3bb670b90", "fusion_lon": 0.0}, {"rental_uris": {"ios": "https://dc.lft.to/lastmile_qr_scan", "android": "https://dc.lft.to/lastmile_qr_scan"}, "type": "electric_scooter", "name": "672cce9da1447f94b6fcf75cc1e3c068", "is_reserved": 0, "lon": -77.02805966666666, "is_disabled": 0, "fusion_lat": 0.0, "lat": 38.899227333333336, "bike_id": "672cce9da1447f94b6fcf75cc1e3c068", "fusion_lon": 0.0}, {"rental_uris": {"ios": "https://dc.lft.to/lastmile_qr_scan", "android": "https://dc.lft.to/lastmile_qr_scan"}, "type": "electric_scooter", "name": "47a37516148cf9d3a1e586e94380cf7a", "is_reserved": 0, "lon": -77.0384835, "is_disabled": 0, "fusion_lat": 0.0, "lat": 38.90966, "bike_id": "47a37516148cf9d3a1e586e94380cf7a", "fusion_lon": 0.0}, {"rental_uris": {"ios": "https://dc.lft.to/lastmile_qr_scan", "android": "https://dc.lft.to/lastmile_qr_scan"}, "type": "electric_bike", "name": "07a229ff54d72a2c72bb21f0ecbfe10c", "is_reserved": 0, "lon": -77.106117, "is_disabled": 0, "fusion_lat": 0.0, "lat": 38.837330666666666, "bike_id": "07a229ff54d72a2c72bb21f0ecbfe10c", "fusion_lon": 0.0}, {"rental_uris": {"ios": "https://dc.lft.to/lastmile_qr_scan", "android": "https://dc.lft.to/lastmile_qr_scan"}, "type": "electric_scooter", "name": "372ce133dc17e7de52884418de644158", "is_reserved": 0, "lon": -77.03445516666666, "is_disabled": 0, "fusion_lat": 0.0, "lat": 38.922241666666665, "bike_id": "372ce133dc17e7de52884418de644158", "fusion_lon": 0.0}, {"rental_uris": {"ios": "https://dc.lft.to/lastmile_qr_scan", "android": "https://dc.lft.to/lastmile_qr_scan"}, "type": "electric_scooter", "name": "aad884dff0ade12a1ca5f572fc9a360c", "is_reserved": 0, "lon": -76.980327, "is_disabled": 0, "fusion_lat": 0.0, "lat": 38.91687683333333, "bike_id": "aad884dff0ade12a1ca5f572fc9a360c", "fusion_lon": 0.0}, {"rental_uris": {"ios": "https://dc.lft.to/lastmile_qr_scan", "android": "https://dc.lft.to/lastmile_qr_scan"}, "type": "electric_scooter", "name": "80870d8d1a034182f2ead031ee241e17", "is_reserved": 0, "lon": -77.0386485, "is_disabled": 0, "fusion_lat": 0.0, "lat": 38.92153916666667, "bike_id": "80870d8d1a034182f2ead031ee241e17", "fusion_lon": 0.0}, {"rental_uris": {"ios": "https://dc.lft.to/lastmile_qr_scan", "android": "https://dc.lft.to/lastmile_qr_scan"}, "type": "electric_scooter", "name": "cb829b9b3977cef14f31a60b4d187946", "is_reserved": 0, "lon": -77.01734566666667, "is_disabled": 0, "fusion_lat": 0.0, "lat": 38.91242833333333, "bike_id": "cb829b9b3977cef14f31a60b4d187946", "fusion_lon": 0.0}, {"rental_uris": {"ios": "https://dc.lft.to/lastmile_qr_scan", "android": "https://dc.lft.to/lastmile_qr_scan"}, "type": "electric_scooter", "name": "d389fd7e9c609572397179ead5d79618", "is_reserved": 0, "lon": -77.04391116666666, "is_disabled": 0, "fusion_lat": 0.0, "lat": 38.9235455, "bike_id": "d389fd7e9c609572397179ead5d79618", "fusion_lon": 0.0}, {"rental_uris": {"ios": "https://dc.lft.to/lastmile_qr_scan", "android": "https://dc.lft.to/lastmile_qr_scan"}, "type": "electric_scooter", "name": "43e7ffcc0eb0e1c01969856bb13034ed", "is_reserved": 0, "lon": -77.00991333333333, "is_disabled": 0, "fusion_lat": 0.0, "lat": 38.8729195, "bike_id": "43e7ffcc0eb0e1c01969856bb13034ed", "fusion_lon": 0.0}, {"rental_uris": {"ios": "https://dc.lft.to/lastmile_qr_scan", "android": "https://dc.lft.to/lastmile_qr_scan"}, "type": "electric_bike", "name": "cf511027d20995dba04d67c665f78338", "is_reserved": 0, "lon": -77.0342475, "is_disabled": 0, "fusion_lat": 0.0, "lat": 38.9367055, "bike_id": "cf511027d20995dba04d67c665f78338", "fusion_lon": 0.0}, {"rental_uris": {"ios": "https://dc.lft.to/lastmile_qr_scan", "android": "https://dc.lft.to/lastmile_qr_scan"}, "type": "electric_scooter", "name": "c9d6eee94410a0721c521293ae6902f9", "is_reserved": 0, "lon": -77.04923783333334, "is_disabled": 0, "fusion_lat": 0.0, "lat": 38.919265, "bike_id": "c9d6eee94410a0721c521293ae6902f9", "fusion_lon": 0.0}, {"rental_uris": {"ios": "https://dc.lft.to/lastmile_qr_scan", "android": "https://dc.lft.to/lastmile_qr_scan"}, "type": "electric_bike", "name": "e02a3d3b26d0147073223d537bd5bf43", "is_reserved": 0, "lon": -77.0000435, "is_disabled": 0, "fusion_lat": 0.0, "lat": 38.92398583333333, "bike_id": "e02a3d3b26d0147073223d537bd5bf43", "fusion_lon": 0.0}, {"rental_uris": {"ios": "https://dc.lft.to/lastmile_qr_scan", "android": "https://dc.lft.to/lastmile_qr_scan"}, "type": "electric_scooter", "name": "9d71db37f88515513680747680ea73aa", "is_reserved": 0, "lon": -77.040248, "is_disabled": 0, "fusion_lat": 0.0, "lat": 38.89926483333333, "bike_id": "9d71db37f88515513680747680ea73aa", "fusion_lon": 0.0}, {"rental_uris": {"ios": "https://dc.lft.to/lastmile_qr_scan", "android": "https://dc.lft.to/lastmile_qr_scan"}, "type": "electric_scooter", "name": "3f20c01b4b719d5aeedec81b889506c7", "is_reserved": 0, "lon": -77.03468916666667, "is_disabled": 0, "fusion_lat": 0.0, "lat": 38.907145166666666, "bike_id": "3f20c01b4b719d5aeedec81b889506c7", "fusion_lon": 0.0}, {"rental_uris": {"ios": "https://dc.lft.to/lastmile_qr_scan", "android": "https://dc.lft.to/lastmile_qr_scan"}, "type": "electric_scooter", "name": "4128ebfc7f63b313c478d62ec64c4bd8", "is_reserved": 0, "lon": -77.01839383333333, "is_disabled": 0, "fusion_lat": 0.0, "lat": 38.90958966666667, "bike_id": "4128ebfc7f63b313c478d62ec64c4bd8", "fusion_lon": 0.0}, {"rental_uris": {"ios": "https://dc.lft.to/lastmile_qr_scan", "android": "https://dc.lft.to/lastmile_qr_scan"}, "type": "electric_scooter", "name": "7c8ef97edbcd4b528508d12fae232bdf", "is_reserved": 0, "lon": -77.039634, "is_disabled": 0, "fusion_lat": 0.0, "lat": 38.90707283333333, "bike_id": "7c8ef97edbcd4b528508d12fae232bdf", "fusion_lon": 0.0}, {"rental_uris": {"ios": "https://dc.lft.to/lastmile_qr_scan", "android": "https://dc.lft.to/lastmile_qr_scan"}, "type": "electric_bike", "name": "1c04f5864d9eb074bb5a653f0e1a017d", "is_reserved": 0, "lon": -76.9416355, "is_disabled": 0, "fusion_lat": 0.0, "lat": 38.8655605, "bike_id": "1c04f5864d9eb074bb5a653f0e1a017d", "fusion_lon": 0.0}, {"rental_uris": {"ios": "https://dc.lft.to/lastmile_qr_scan", "android": "https://dc.lft.to/lastmile_qr_scan"}, "type": "electric_scooter", "name": "2b0320403225d229082726c4bdbf5bfa", "is_reserved": 0, "lon": -77.01998933333333, "is_disabled": 0, "fusion_lat": 0.0, "lat": 38.899193333333336, "bike_id": "2b0320403225d229082726c4bdbf5bfa", "fusion_lon": 0.0}, {"rental_uris": {"ios": "https://dc.lft.to/lastmile_qr_scan", "android": "https://dc.lft.to/lastmile_qr_scan"}, "type": "electric_scooter", "name": "950c9eebe0a75869f8158346f576ebd2", "is_reserved": 0, "lon": -77.03215666666667, "is_disabled": 0, "fusion_lat": 0.0, "lat": 38.899040666666664, "bike_id": "950c9eebe0a75869f8158346f576ebd2", "fusion_lon": 0.0}, {"rental_uris": {"ios": "https://dc.lft.to/lastmile_qr_scan", "android": "https://dc.lft.to/lastmile_qr_scan"}, "type": "electric_scooter", "name": "b47046cfe175aa23f5b894a478fa22cc", "is_reserved": 0, "lon": -77.03379833333334, "is_disabled": 0, "fusion_lat": 0.0, "lat": 38.89965266666667, "bike_id": "b47046cfe175aa23f5b894a478fa22cc", "fusion_lon": 0.0}, {"rental_uris": {"ios": "https://dc.lft.to/lastmile_qr_scan", "android": "https://dc.lft.to/lastmile_qr_scan"}, "type": "electric_scooter", "name": "260b3a3eb84e78375b4f36219887b941", "is_reserved": 0, "lon": -77.04058633333334, "is_disabled": 0, "fusion_lat": 0.0, "lat": 38.91770983333333, "bike_id": "260b3a3eb84e78375b4f36219887b941", "fusion_lon": 0.0}, {"rental_uris": {"ios": "https://dc.lft.to/lastmile_qr_scan", "android": "https://dc.lft.to/lastmile_qr_scan"}, "type": "electric_scooter", "name": "b20ffe17f0a2e667392e8ec73b9b172f", "is_reserved": 0, "lon": -77.03281533333333, "is_disabled": 0, "fusion_lat": 0.0, "lat": 38.917193166666664, "bike_id": "b20ffe17f0a2e667392e8ec73b9b172f", "fusion_lon": 0.0}, {"rental_uris": {"ios": "https://dc.lft.to/lastmile_qr_scan", "android": "https://dc.lft.to/lastmile_qr_scan"}, "type": "electric_scooter", "name": "1c3e743c1430b920e86095d322ce9d8c", "is_reserved": 0, "lon": -77.01924933333333, "is_disabled": 0, "fusion_lat": 0.0, "lat": 38.928763333333336, "bike_id": "1c3e743c1430b920e86095d322ce9d8c", "fusion_lon": 0.0}, {"rental_uris": {"ios": "https://dc.lft.to/lastmile_qr_scan", "android": "https://dc.lft.to/lastmile_qr_scan"}, "type": "electric_scooter", "name": "99f1273c31c4eadc9175b8975b3fc6d2", "is_reserved": 0, "lon": -77.05816883333334, "is_disabled": 0, "fusion_lat": 0.0, "lat": 38.93516233333333, "bike_id": "99f1273c31c4eadc9175b8975b3fc6d2", "fusion_lon": 0.0}, {"rental_uris": {"ios": "https://dc.lft.to/lastmile_qr_scan", "android": "https://dc.lft.to/lastmile_qr_scan"}, "type": "electric_scooter", "name": "6f731c3b5a7accb4eecaedd9999e38e5", "is_reserved": 0, "lon": -77.03054966666667, "is_disabled": 0, "fusion_lat": 0.0, "lat": 38.9073, "bike_id": "6f731c3b5a7accb4eecaedd9999e38e5", "fusion_lon": 0.0}, {"rental_uris": {"ios": "https://dc.lft.to/lastmile_qr_scan", "android": "https://dc.lft.to/lastmile_qr_scan"}, "type": "electric_bike", "name": "97bc1c3262286efae40f4545bd6bc005", "is_reserved": 0, "lon": -76.98635716666666, "is_disabled": 0, "fusion_lat": 0.0, "lat": 38.936878666666665, "bike_id": "97bc1c3262286efae40f4545bd6bc005", "fusion_lon": 0.0}, {"rental_uris": {"ios": "https://dc.lft.to/lastmile_qr_scan", "android": "https://dc.lft.to/lastmile_qr_scan"}, "type": "electric_scooter", "name": "bddc751c88d589fd2e829da813149a62", "is_reserved": 0, "lon": -77.04358, "is_disabled": 0, "fusion_lat": 0.0, "lat": 38.8922255, "bike_id": "bddc751c88d589fd2e829da813149a62", "fusion_lon": 0.0}, {"rental_uris": {"ios": "https://dc.lft.to/lastmile_qr_scan", "android": "https://dc.lft.to/lastmile_qr_scan"}, "type": "electric_scooter", "name": "a1d077ef3873f8c029e9a14bb085dce8", "is_reserved": 0, "lon": -77.03459216666667, "is_disabled": 0, "fusion_lat": 0.0, "lat": 38.911851666666664, "bike_id": "a1d077ef3873f8c029e9a14bb085dce8", "fusion_lon": 0.0}, {"rental_uris": {"ios": "https://dc.lft.to/lastmile_qr_scan", "android": "https://dc.lft.to/lastmile_qr_scan"}, "type": "electric_scooter", "name": "635715049cc2ced0f2b0a8f528a8414e", "is_reserved": 0, "lon": -77.0480665, "is_disabled": 0, "fusion_lat": 0.0, "lat": 38.89955666666667, "bike_id": "635715049cc2ced0f2b0a8f528a8414e", "fusion_lon": 0.0}, {"rental_uris": {"ios": "https://dc.lft.to/lastmile_qr_scan", "android": "https://dc.lft.to/lastmile_qr_scan"}, "type": "electric_scooter", "name": "c517c7bf84d62984613de16b79a1a7b2", "is_reserved": 0, "lon": -77.0327785, "is_disabled": 0, "fusion_lat": 0.0, "lat": 38.91998183333333, "bike_id": "c517c7bf84d62984613de16b79a1a7b2", "fusion_lon": 0.0}, {"rental_uris": {"ios": "https://dc.lft.to/lastmile_qr_scan", "android": "https://dc.lft.to/lastmile_qr_scan"}, "type": "electric_scooter", "name": "45ff6efc9fa13c38e831b2276540f2a0", "is_reserved": 0, "lon": -77.04819733333333, "is_disabled": 0, "fusion_lat": 0.0, "lat": 38.9204165, "bike_id": "45ff6efc9fa13c38e831b2276540f2a0", "fusion_lon": 0.0}, {"rental_uris": {"ios": "https://dc.lft.to/lastmile_qr_scan", "android": "https://dc.lft.to/lastmile_qr_scan"}, "type": "electric_scooter", "name": "b0cb16aaba1312c14cd4632b189206c2", "is_reserved": 0, "lon": -77.03156116666666, "is_disabled": 0, "fusion_lat": 0.0, "lat": 38.9593705, "bike_id": "b0cb16aaba1312c14cd4632b189206c2", "fusion_lon": 0.0}, {"rental_uris": {"ios": "https://dc.lft.to/lastmile_qr_scan", "android": "https://dc.lft.to/lastmile_qr_scan"}, "type": "electric_bike", "name": "2fe13ae46e4673685e9cfd686a02886f", "is_reserved": 0, "lon": -77.0015065, "is_disabled": 0, "fusion_lat": 0.0, "lat": 38.94168883333333, "bike_id": "2fe13ae46e4673685e9cfd686a02886f", "fusion_lon": 0.0}, {"rental_uris": {"ios": "https://dc.lft.to/lastmile_qr_scan", "android": "https://dc.lft.to/lastmile_qr_scan"}, "type": "electric_scooter", "name": "cc9a35010dcd405489a173b20b2463b4", "is_reserved": 0, "lon": -77.02186383333333, "is_disabled": 0, "fusion_lat": 0.0, "lat": 38.914831, "bike_id": "cc9a35010dcd405489a173b20b2463b4", "fusion_lon": 0.0}, {"rental_uris": {"ios": "https://dc.lft.to/lastmile_qr_scan", "android": "https://dc.lft.to/lastmile_qr_scan"}, "type": "electric_scooter", "name": "7e7b5f6192d38e7da82c95d67e66f6e8", "is_reserved": 0, "lon": -77.01110983333334, "is_disabled": 0, "fusion_lat": 0.0, "lat": 38.909772333333336, "bike_id": "7e7b5f6192d38e7da82c95d67e66f6e8", "fusion_lon": 0.0}, {"rental_uris": {"ios": "https://dc.lft.to/lastmile_qr_scan", "android": "https://dc.lft.to/lastmile_qr_scan"}, "type": "electric_scooter", "name": "4b07ca38d1ad047628035cc5095681bf", "is_reserved": 0, "lon": -76.99071633333334, "is_disabled": 0, "fusion_lat": 0.0, "lat": 38.9042015, "bike_id": "4b07ca38d1ad047628035cc5095681bf", "fusion_lon": 0.0}, {"rental_uris": {"ios": "https://dc.lft.to/lastmile_qr_scan", "android": "https://dc.lft.to/lastmile_qr_scan"}, "type": "electric_scooter", "name": "1cd9b5f1c7a5144a887bd780f1c34d1e", "is_reserved": 0, "lon": -76.983334, "is_disabled": 0, "fusion_lat": 0.0, "lat": 38.90091066666667, "bike_id": "1cd9b5f1c7a5144a887bd780f1c34d1e", "fusion_lon": 0.0}, {"rental_uris": {"ios": "https://dc.lft.to/lastmile_qr_scan", "android": "https://dc.lft.to/lastmile_qr_scan"}, "type": "electric_bike", "name": "aca019e19fccb2762377f7eb9033061d", "is_reserved": 0, "lon": -77.03697483333333, "is_disabled": 0, "fusion_lat": 0.0, "lat": 38.93553416666666, "bike_id": "aca019e19fccb2762377f7eb9033061d", "fusion_lon": 0.0}, {"rental_uris": {"ios": "https://dc.lft.to/lastmile_qr_scan", "android": "https://dc.lft.to/lastmile_qr_scan"}, "type": "electric_scooter", "name": "7682c3091b5faffcbc31e676eb7fc394", "is_reserved": 0, "lon": -77.03458066666667, "is_disabled": 0, "fusion_lat": 0.0, "lat": 38.908332333333334, "bike_id": "7682c3091b5faffcbc31e676eb7fc394", "fusion_lon": 0.0}, {"rental_uris": {"ios": "https://dc.lft.to/lastmile_qr_scan", "android": "https://dc.lft.to/lastmile_qr_scan"}, "type": "electric_scooter", "name": "216e57202b90f39b02908676a98ef982", "is_reserved": 0, "lon": -77.0421985, "is_disabled": 0, "fusion_lat": 0.0, "lat": 38.921723, "bike_id": "216e57202b90f39b02908676a98ef982", "fusion_lon": 0.0}, {"rental_uris": {"ios": "https://dc.lft.to/lastmile_qr_scan", "android": "https://dc.lft.to/lastmile_qr_scan"}, "type": "electric_scooter", "name": "ccd67932c29e4d55765762507f731a92", "is_reserved": 0, "lon": -77.022743, "is_disabled": 0, "fusion_lat": 0.0, "lat": 38.8922465, "bike_id": "ccd67932c29e4d55765762507f731a92", "fusion_lon": 0.0}, {"rental_uris": {"ios": "https://dc.lft.to/lastmile_qr_scan", "android": "https://dc.lft.to/lastmile_qr_scan"}, "type": "electric_scooter", "name": "8ad5e8f26a9e78f83e8a6acb2dc3ab7e", "is_reserved": 0, "lon": -77.0425695, "is_disabled": 0, "fusion_lat": 0.0, "lat": 38.922315833333336, "bike_id": "8ad5e8f26a9e78f83e8a6acb2dc3ab7e", "fusion_lon": 0.0}, {"rental_uris": {"ios": "https://dc.lft.to/lastmile_qr_scan", "android": "https://dc.lft.to/lastmile_qr_scan"}, "type": "electric_scooter", "name": "ca1b6672a62411ba30c5ecf9a759a3f5", "is_reserved": 0, "lon": -77.05178833333333, "is_disabled": 0, "fusion_lat": 0.0, "lat": 38.90314433333333, "bike_id": "ca1b6672a62411ba30c5ecf9a759a3f5", "fusion_lon": 0.0}, {"rental_uris": {"ios": "https://dc.lft.to/lastmile_qr_scan", "android": "https://dc.lft.to/lastmile_qr_scan"}, "type": "electric_scooter", "name": "f236156c0946c0991570e6eb328b3963", "is_reserved": 0, "lon": -77.04767166666667, "is_disabled": 0, "fusion_lat": 0.0, "lat": 38.91258166666667, "bike_id": "f236156c0946c0991570e6eb328b3963", "fusion_lon": 0.0}, {"rental_uris": {"ios": "https://dc.lft.to/lastmile_qr_scan", "android": "https://dc.lft.to/lastmile_qr_scan"}, "type": "electric_bike", "name": "136ee24ac36d629c2e69ac7e64a7ebf9", "is_reserved": 0, "lon": -77.00541083333333, "is_disabled": 0, "fusion_lat": 0.0, "lat": 38.82445583333333, "bike_id": "136ee24ac36d629c2e69ac7e64a7ebf9", "fusion_lon": 0.0}, {"rental_uris": {"ios": "https://dc.lft.to/lastmile_qr_scan", "android": "https://dc.lft.to/lastmile_qr_scan"}, "type": "electric_scooter", "name": "bd3819bd855bff4cbe06a29814183a42", "is_reserved": 0, "lon": -76.98899683333333, "is_disabled": 0, "fusion_lat": 0.0, "lat": 38.906548, "bike_id": "bd3819bd855bff4cbe06a29814183a42", "fusion_lon": 0.0}, {"rental_uris": {"ios": "https://dc.lft.to/lastmile_qr_scan", "android": "https://dc.lft.to/lastmile_qr_scan"}, "type": "electric_scooter", "name": "14bb043a09ff776499009fd449798e42", "is_reserved": 0, "lon": -77.02154683333333, "is_disabled": 0, "fusion_lat": 0.0, "lat": 38.8874895, "bike_id": "14bb043a09ff776499009fd449798e42", "fusion_lon": 0.0}, {"rental_uris": {"ios": "https://dc.lft.to/lastmile_qr_scan", "android": "https://dc.lft.to/lastmile_qr_scan"}, "type": "electric_scooter", "name": "b02509faba0b3419823b677efdb71076", "is_reserved": 0, "lon": -77.0486075, "is_disabled": 0, "fusion_lat": 0.0, "lat": 38.9126175, "bike_id": "b02509faba0b3419823b677efdb71076", "fusion_lon": 0.0}, {"rental_uris": {"ios": "https://dc.lft.to/lastmile_qr_scan", "android": "https://dc.lft.to/lastmile_qr_scan"}, "type": "electric_scooter", "name": "eba8d747c7fc2c2b5eed939cf80dbfa3", "is_reserved": 0, "lon": -77.041734, "is_disabled": 0, "fusion_lat": 0.0, "lat": 38.919432, "bike_id": "eba8d747c7fc2c2b5eed939cf80dbfa3", "fusion_lon": 0.0}, {"rental_uris": {"ios": "https://dc.lft.to/lastmile_qr_scan", "android": "https://dc.lft.to/lastmile_qr_scan"}, "type": "electric_scooter", "name": "fe5ca2309515a95d50a7b824240d6bd8", "is_reserved": 0, "lon": -77.00317783333334, "is_disabled": 0, "fusion_lat": 0.0, "lat": 38.90734416666667, "bike_id": "fe5ca2309515a95d50a7b824240d6bd8", "fusion_lon": 0.0}, {"rental_uris": {"ios": "https://dc.lft.to/lastmile_qr_scan", "android": "https://dc.lft.to/lastmile_qr_scan"}, "type": "electric_scooter", "name": "1ebd26f437b4a95e292eae6470969e9e", "is_reserved": 0, "lon": -77.02145516666667, "is_disabled": 0, "fusion_lat": 0.0, "lat": 38.927482166666664, "bike_id": "1ebd26f437b4a95e292eae6470969e9e", "fusion_lon": 0.0}, {"rental_uris": {"ios": "https://dc.lft.to/lastmile_qr_scan", "android": "https://dc.lft.to/lastmile_qr_scan"}, "type": "electric_scooter", "name": "23f0cd24a3262d2086388dd408cc4a55", "is_reserved": 0, "lon": -77.020544, "is_disabled": 0, "fusion_lat": 0.0, "lat": 38.9293005, "bike_id": "23f0cd24a3262d2086388dd408cc4a55", "fusion_lon": 0.0}, {"rental_uris": {"ios": "https://dc.lft.to/lastmile_qr_scan", "android": "https://dc.lft.to/lastmile_qr_scan"}, "type": "electric_scooter", "name": "38c6c00e5e3938ab7419d55ed03b07dc", "is_reserved": 0, "lon": -77.00243383333333, "is_disabled": 0, "fusion_lat": 0.0, "lat": 38.9004505, "bike_id": "38c6c00e5e3938ab7419d55ed03b07dc", "fusion_lon": 0.0}, {"rental_uris": {"ios": "https://dc.lft.to/lastmile_qr_scan", "android": "https://dc.lft.to/lastmile_qr_scan"}, "type": "electric_scooter", "name": "99aec8d4c7de560ee8edb543a1d0d257", "is_reserved": 0, "lon": -77.02534933333334, "is_disabled": 0, "fusion_lat": 0.0, "lat": 38.94536733333333, "bike_id": "99aec8d4c7de560ee8edb543a1d0d257", "fusion_lon": 0.0}, {"rental_uris": {"ios": "https://dc.lft.to/lastmile_qr_scan", "android": "https://dc.lft.to/lastmile_qr_scan"}, "type": "electric_scooter", "name": "962c15d7bad581b3b7e1ccdf64fc50e3", "is_reserved": 0, "lon": -77.03461883333334, "is_disabled": 0, "fusion_lat": 0.0, "lat": 38.911848666666664, "bike_id": "962c15d7bad581b3b7e1ccdf64fc50e3", "fusion_lon": 0.0}, {"rental_uris": {"ios": "https://dc.lft.to/lastmile_qr_scan", "android": "https://dc.lft.to/lastmile_qr_scan"}, "type": "electric_scooter", "name": "4be52c1252fc6c9fbc12539993193da6", "is_reserved": 0, "lon": -76.97993983333333, "is_disabled": 0, "fusion_lat": 0.0, "lat": 38.89442433333333, "bike_id": "4be52c1252fc6c9fbc12539993193da6", "fusion_lon": 0.0}, {"rental_uris": {"ios": "https://dc.lft.to/lastmile_qr_scan", "android": "https://dc.lft.to/lastmile_qr_scan"}, "type": "electric_scooter", "name": "3e1d81d047d8a7c8fb9ef0f93d7aa46a", "is_reserved": 0, "lon": -77.00629083333334, "is_disabled": 0, "fusion_lat": 0.0, "lat": 38.871717, "bike_id": "3e1d81d047d8a7c8fb9ef0f93d7aa46a", "fusion_lon": 0.0}, {"rental_uris": {"ios": "https://dc.lft.to/lastmile_qr_scan", "android": "https://dc.lft.to/lastmile_qr_scan"}, "type": "electric_scooter", "name": "ba60be5b0cb66084f04ef031c6820d68", "is_reserved": 0, "lon": -77.063725, "is_disabled": 0, "fusion_lat": 0.0, "lat": 38.93566366666667, "bike_id": "ba60be5b0cb66084f04ef031c6820d68", "fusion_lon": 0.0}, {"rental_uris": {"ios": "https://dc.lft.to/lastmile_qr_scan", "android": "https://dc.lft.to/lastmile_qr_scan"}, "type": "electric_scooter", "name": "96926299eb79d70d0e65e68ac7cd687f", "is_reserved": 0, "lon": -76.979641, "is_disabled": 0, "fusion_lat": 0.0, "lat": 38.897922, "bike_id": "96926299eb79d70d0e65e68ac7cd687f", "fusion_lon": 0.0}, {"rental_uris": {"ios": "https://dc.lft.to/lastmile_qr_scan", "android": "https://dc.lft.to/lastmile_qr_scan"}, "type": "electric_scooter", "name": "5d8f7e6d20a36dda515f4f43b0e66a2b", "is_reserved": 0, "lon": -77.03584583333334, "is_disabled": 0, "fusion_lat": 0.0, "lat": 38.92787716666667, "bike_id": "5d8f7e6d20a36dda515f4f43b0e66a2b", "fusion_lon": 0.0}, {"rental_uris": {"ios": "https://dc.lft.to/lastmile_qr_scan", "android": "https://dc.lft.to/lastmile_qr_scan"}, "type": "electric_scooter", "name": "505566e9731d1a96cfab4082ec45e42c", "is_reserved": 0, "lon": -77.03192983333334, "is_disabled": 0, "fusion_lat": 0.0, "lat": 38.915677, "bike_id": "505566e9731d1a96cfab4082ec45e42c", "fusion_lon": 0.0}, {"rental_uris": {"ios": "https://dc.lft.to/lastmile_qr_scan", "android": "https://dc.lft.to/lastmile_qr_scan"}, "type": "electric_scooter", "name": "6fd7613fc3c70ccebf503855e7992e56", "is_reserved": 0, "lon": -77.01390266666667, "is_disabled": 0, "fusion_lat": 0.0, "lat": 38.91112116666667, "bike_id": "6fd7613fc3c70ccebf503855e7992e56", "fusion_lon": 0.0}, {"rental_uris": {"ios": "https://dc.lft.to/lastmile_qr_scan", "android": "https://dc.lft.to/lastmile_qr_scan"}, "type": "electric_bike", "name": "61b452a1b84812d8f6151f92487eb7f2", "is_reserved": 0, "lon": -77.02457666666666, "is_disabled": 0, "fusion_lat": 0.0, "lat": 38.9573835, "bike_id": "61b452a1b84812d8f6151f92487eb7f2", "fusion_lon": 0.0}, {"rental_uris": {"ios": "https://dc.lft.to/lastmile_qr_scan", "android": "https://dc.lft.to/lastmile_qr_scan"}, "type": "electric_scooter", "name": "ef11aadb0c224caf0167584213f44cfd", "is_reserved": 0, "lon": -77.02253533333334, "is_disabled": 0, "fusion_lat": 0.0, "lat": 38.900355833333336, "bike_id": "ef11aadb0c224caf0167584213f44cfd", "fusion_lon": 0.0}, {"rental_uris": {"ios": "https://dc.lft.to/lastmile_qr_scan", "android": "https://dc.lft.to/lastmile_qr_scan"}, "type": "electric_bike", "name": "d7fdf110b0d66316cfe010be29cc3eb5", "is_reserved": 0, "lon": -76.97136383333333, "is_disabled": 0, "fusion_lat": 0.0, "lat": 38.92354666666667, "bike_id": "d7fdf110b0d66316cfe010be29cc3eb5", "fusion_lon": 0.0}, {"rental_uris": {"ios": "https://dc.lft.to/lastmile_qr_scan", "android": "https://dc.lft.to/lastmile_qr_scan"}, "type": "electric_scooter", "name": "e5d170434298d02aedff2d7902e69867", "is_reserved": 0, "lon": -76.98805416666667, "is_disabled": 0, "fusion_lat": 0.0, "lat": 38.89371233333333, "bike_id": "e5d170434298d02aedff2d7902e69867", "fusion_lon": 0.0}, {"rental_uris": {"ios": "https://dc.lft.to/lastmile_qr_scan", "android": "https://dc.lft.to/lastmile_qr_scan"}, "type": "electric_bike", "name": "29940cafc1f55d5bef832c2b3ead4f4c", "is_reserved": 0, "lon": -77.12649033333334, "is_disabled": 0, "fusion_lat": 0.0, "lat": 38.8191, "bike_id": "29940cafc1f55d5bef832c2b3ead4f4c", "fusion_lon": 0.0}, {"rental_uris": {"ios": "https://dc.lft.to/lastmile_qr_scan", "android": "https://dc.lft.to/lastmile_qr_scan"}, "type": "electric_bike", "name": "f0768fc46625525ea7df97f60f007f45", "is_reserved": 0, "lon": -76.95248866666667, "is_disabled": 0, "fusion_lat": 0.0, "lat": 38.9070145, "bike_id": "f0768fc46625525ea7df97f60f007f45", "fusion_lon": 0.0}, {"rental_uris": {"ios": "https://dc.lft.to/lastmile_qr_scan", "android": "https://dc.lft.to/lastmile_qr_scan"}, "type": "electric_scooter", "name": "d7bcbb6995399dc6c34746e68ba6a2d5", "is_reserved": 0, "lon": -77.00062283333334, "is_disabled": 0, "fusion_lat": 0.0, "lat": 38.88118016666667, "bike_id": "d7bcbb6995399dc6c34746e68ba6a2d5", "fusion_lon": 0.0}, {"rental_uris": {"ios": "https://dc.lft.to/lastmile_qr_scan", "android": "https://dc.lft.to/lastmile_qr_scan"}, "type": "electric_scooter", "name": "9b9a3a55097a3540efc8aa036f912e96", "is_reserved": 0, "lon": -77.0344905, "is_disabled": 0, "fusion_lat": 0.0, "lat": 38.92046933333334, "bike_id": "9b9a3a55097a3540efc8aa036f912e96", "fusion_lon": 0.0}, {"rental_uris": {"ios": "https://dc.lft.to/lastmile_qr_scan", "android": "https://dc.lft.to/lastmile_qr_scan"},