{"data": {"bikes": [{"name": "b966b8b58be7c679c27a7b5b1958080e", "lon": -77.021846, "lat": 38.9150555, "type": "electric_scooter", "fusion_lon": 0.0, "is_reserved": 0, "bike_id": "b966b8b58be7c679c27a7b5b1958080e", "fusion_lat": 0.0, "is_disabled": 0, "rental_uris": {"ios": "https://dc.lft.to/lastmile_qr_scan", "android": "https://dc.lft.to/lastmile_qr_scan"}}, {"name": "16649561fd5d5309705633b6bd13d786", "lon": -77.04344383333333, "lat": 38.923508166666664, "type": "electric_scooter", "fusion_lon": 0.0, "is_reserved": 0, "bike_id": "16649561fd5d5309705633b6bd13d786", "fusion_lat": 0.0, "is_disabled": 0, "rental_uris": {"ios": "https://dc.lft.to/lastmile_qr_scan", "android": "https://dc.lft.to/lastmile_qr_scan"}}, {"name": "c7bb43eb65c7c20d953309641ad0575a", "lon": -77.0234145, "lat": 38.945040166666665, "type": "electric_scooter", "fusion_lon": 0.0, "is_reserved": 0, "bike_id": "c7bb43eb65c7c20d953309641ad0575a", "fusion_lat": 0.0, "is_disabled": 0, "rental_uris": {"ios": "https://dc.lft.to/lastmile_qr_scan", "android": "https://dc.lft.to/lastmile_qr_scan"}}, {"name": "eeeac87f9c2a561d5389bf67850fe523", "lon": -76.97701183333334, "lat": 38.90254066666667, "type": "electric_scooter", "fusion_lon": 0.0, "is_reserved": 0, "bike_id": "eeeac87f9c2a561d5389bf67850fe523", "fusion_lat": 0.0, "is_disabled": 0, "rental_uris": {"ios": "https://dc.lft.to/lastmile_qr_scan", "android": "https://dc.lft.to/lastmile_qr_scan"}}, {"name": "1d811cbf402850e322fbc6e3288706ad", "lon": -77.022628, "lat": 38.90143616666667, "type": "electric_bike", "fusion_lon": 0.0, "is_reserved": 0, "bike_id": "1d811cbf402850e322fbc6e3288706ad", "fusion_lat": 0.0, "is_disabled": 0, "rental_uris": {"ios": "https://dc.lft.to/lastmile_qr_scan", "android": "https://dc.lft.to/lastmile_qr_scan"}}, {"name": "a1fa63fbca1065da5e59743157ce8b6d", "lon": -77.03209033333333, "lat": 38.909691, "type": "electric_scooter", "fusion_lon": 0.0, "is_reserved": 0, "bike_id": "a1fa63fbca1065da5e59743157ce8b6d", "fusion_lat": 0.0, "is_disabled": 0, "rental_uris": {"ios": "https://dc.lft.to/lastmile_qr_scan", "android": "https://dc.lft.to/lastmile_qr_scan"}}, {"name": "1bf8ec8ee170aceaefb7493926dbf04c", "lon": -77.04279616666666, "lat": 38.90880466666667, "type": "electric_scooter", "fusion_lon": 0.0, "is_reserved": 0, "bike_id": "1bf8ec8ee170aceaefb7493926dbf04c", "fusion_lat": 0.0, "is_disabled": 0, "rental_uris": {"ios": "https://dc.lft.to/lastmile_qr_scan", "android": "https://dc.lft.to/lastmile_qr_scan"}}, {"name": "a7e6d43e401513451e8ca6e8607137ce", "lon": -77.03262066666667, "lat": 38.935234333333334, "type": "electric_scooter", "fusion_lon": 0.0, "is_reserved": 0, "bike_id": "a7e6d43e401513451e8ca6e8607137ce", "fusion_lat": 0.0, "is_disabled": 0, "rental_uris": {"ios": "https://dc.lft.to/lastmile_qr_scan", "android": "https://dc.lft.to/lastmile_qr_scan"}}, {"name": "054f73762447515f4c844cb7301803e9", "lon": -77.004447, "lat": 38.87670516666667, "type": "electric_scooter", "fusion_lon": 0.0, "is_reserved": 0, "bike_id": "054f73762447515f4c844cb7301803e9", "fusion_lat": 0.0, "is_disabled": 0, "rental_uris": {"ios": "https://dc.lft.to/lastmile_qr_scan", "android": "https://dc.lft.to/lastmile_qr_scan"}}, {"name": "985940c11a6a898116629e10ae825c0e", "lon": -77.02976333333334, "lat": 38.92440116666667, "type": "electric_scooter", "fusion_lon": 0.0, "is_reserved": 0, "bike_id": "985940c11a6a898116629e10ae825c0e", "fusion_lat": 0.0, "is_disabled": 0, "rental_uris": {"ios": "https://dc.lft.to/lastmile_qr_scan", "android": "https://dc.lft.to/lastmile_qr_scan"}}, {"name": "19ac99c85ac9eee4e071eefdad51c1cd", "lon": -77.04997816666666, "lat": 38.89232966666667, "type": "electric_scooter", "fusion_lon": 0.0, "is_reserved": 0, "bike_id": "19ac99c85ac9eee4e071eefdad51c1cd", "fusion_lat": 0.0, "is_disabled": 0, "rental_uris": {"ios": "https://dc.lft.to/lastmile_qr_scan", "android": "https://dc.lft.to/lastmile_qr_scan"}}, {"name": "3cb1da0c6e1eff18185d49fa2e90e6ab", "lon": -77.0773615, "lat": 38.923725833333336, "type": "electric_scooter", "fusion_lon": 0.0, "is_reserved": 0, "bike_id": "3cb1da0c6e1eff18185d49fa2e90e6ab", "fusion_lat": 0.0, "is_disabled": 0, "rental_uris": {"ios": "https://dc.lft.to/lastmile_qr_scan", "android": "https://dc.lft.to/lastmile_qr_scan"}}, {"name": "c76bd6e1ece44fc7a976ff3fca4a18ef", "lon": -77.03665233333334, "lat": 38.92726016666667, "type": "electric_scooter", "fusion_lon": 0.0, "is_reserved": 0, "bike_id": "c76bd6e1ece44fc7a976ff3fca4a18ef", "fusion_lat": 0.0, "is_disabled": 0, "rental_uris": {"ios": "https://dc.lft.to/lastmile_qr_scan", "android": "https://dc.lft.to/lastmile_qr_scan"}}, {"name": "7e72a718df79f3a3f43f19dc7441c03b", "lon": -77.02947683333333, "lat": 38.90533283333333, "type": "electric_scooter", "fusion_lon": 0.0, "is_reserved": 0, "bike_id": "7e72a718df79f3a3f43f19dc7441c03b", "fusion_lat": 0.0, "is_disabled": 0, "rental_uris": {"ios": "https://dc.lft.to/lastmile_qr_scan", "android": "https://dc.lft.to/lastmile_qr_scan"}}, {"name": "cd8395811bfd280d86b6f5936f913d1f", "lon": -77.0330805, "lat": 38.9563535, "type": "electric_scooter", "fusion_lon": 0.0, "is_reserved": 0, "bike_id": "cd8395811bfd280d86b6f5936f913d1f", "fusion_lat": 0.0, "is_disabled": 0, "rental_uris": {"ios": "https://dc.lft.to/lastmile_qr_scan", "android": "https://dc.lft.to/lastmile_qr_scan"}}, {"name": "0e60c0e5b13c601b4789776b677c91f5", "lon": -76.92514383333334, "lat": 38.95928416666667, "type": "electric_bike", "fusion_lon": 0.0, "is_reserved": 0, "bike_id": "0e60c0e5b13c601b4789776b677c91f5", "fusion_lat": 0.0, "is_disabled": 0, "rental_uris": {"ios": "https://dc.lft.to/lastmile_qr_scan", "android": "https://dc.lft.to/lastmile_qr_scan"}}, {"name": "76f8dda0813ee770bfff91b5174d7c3e", "lon": -77.0297375, "lat": 38.91678183333333, "type": "electric_scooter", "fusion_lon": 0.0, "is_reserved": 0, "bike_id": "76f8dda0813ee770bfff91b5174d7c3e", "fusion_lat": 0.0, "is_disabled": 0, "rental_uris": {"ios": "https://dc.lft.to/lastmile_qr_scan", "android": "https://dc.lft.to/lastmile_qr_scan"}}, {"name": "d633fca0b9928a291c9750fb6e49c177", "lon": -76.9898845, "lat": 38.86389166666667, "type": "electric_bike", "fusion_lon": 0.0, "is_reserved": 0, "bike_id": "d633fca0b9928a291c9750fb6e49c177", "fusion_lat": 0.0, "is_disabled": 0, "rental_uris": {"ios": "https://dc.lft.to/lastmile_qr_scan", "android": "https://dc.lft.to/lastmile_qr_scan"}}, {"name": "f45c73e7636164600b56b978bedec16e", "lon": -77.02758083333333, "lat": 38.95428833333333, "type": "electric_scooter", "fusion_lon": 0.0, "is_reserved": 0, "bike_id": "f45c73e7636164600b56b978bedec16e", "fusion_lat": 0.0, "is_disabled": 0, "rental_uris": {"ios": "https://dc.lft.to/lastmile_qr_scan", "android": "https://dc.lft.to/lastmile_qr_scan"}}, {"name": "e2258b69a5cc46a7cf7300d13e1ee11e", "lon": -76.99083866666666, "lat": 38.86239033333333, "type": "electric_bike", "fusion_lon": 0.0, "is_reserved": 0, "bike_id": "e2258b69a5cc46a7cf7300d13e1ee11e", "fusion_lat": 0.0, "is_disabled": 0, "rental_uris": {"ios": "https://dc.lft.to/lastmile_qr_scan", "android": "https://dc.lft.to/lastmile_qr_scan"}}, {"name": "6c26978548f7da4eddd66a3ba6b37fb3", "lon": -77.02387916666666, "lat": 38.907449, "type": "electric_scooter", "fusion_lon": 0.0, "is_reserved": 0, "bike_id": "6c26978548f7da4eddd66a3ba6b37fb3", "fusion_lat": 0.0, "is_disabled": 0, "rental_uris": {"ios": "https://dc.lft.to/lastmile_qr_scan", "android": "https://dc.lft.to/lastmile_qr_scan"}}, {"name": "be8e1493af9d26d7d97f835bfcaa100a", "lon": -77.0586105, "lat": 38.93606416666667, "type": "electric_scooter", "fusion_lon": 0.0, "is_reserved": 0, "bike_id": "be8e1493af9d26d7d97f835bfcaa100a", "fusion_lat": 0.0, "is_disabled": 0, "rental_uris": {"ios": "https://dc.lft.to/lastmile_qr_scan", "android": "https://dc.lft.to/lastmile_qr_scan"}}, {"name": "02f94a5572895f99ab483fba1398f6cb", "lon": -77.02822133333333, "lat": 38.887336, "type": "electric_scooter", "fusion_lon": 0.0, "is_reserved": 0, "bike_id": "02f94a5572895f99ab483fba1398f6cb", "fusion_lat": 0.0, "is_disabled": 0, "rental_uris": {"ios": "https://dc.lft.to/lastmile_qr_scan", "android": "https://dc.lft.to/lastmile_qr_scan"}}, {"name": "078683a23ed52efa6db884408eef552d", "lon": -77.04637966666667, "lat": 38.9027495, "type": "electric_scooter", "fusion_lon": 0.0, "is_reserved": 0, "bike_id": "078683a23ed52efa6db884408eef552d", "fusion_lat": 0.0, "is_disabled": 0, "rental_uris": {"ios": "https://dc.lft.to/lastmile_qr_scan", "android": "https://dc.lft.to/lastmile_qr_scan"}}, {"name": "2d26314d0bfadec222bd9316c04a6223", "lon": -77.04754416666667, "lat": 38.9176455, "type": "electric_scooter", "fusion_lon": 0.0, "is_reserved": 0, "bike_id": "2d26314d0bfadec222bd9316c04a6223", "fusion_lat": 0.0, "is_disabled": 0, "rental_uris": {"ios": "https://dc.lft.to/lastmile_qr_scan", "android": "https://dc.lft.to/lastmile_qr_scan"}}, {"name": "428e62fc57b2b5d8c711304cd7e83a50", "lon": -77.05580483333334, "lat": 38.8932615, "type": "electric_scooter", "fusion_lon": 0.0, "is_reserved": 0, "bike_id": "428e62fc57b2b5d8c711304cd7e83a50", "fusion_lat": 0.0, "is_disabled": 0, "rental_uris": {"ios": "https://dc.lft.to/lastmile_qr_scan", "android": "https://dc.lft.to/lastmile_qr_scan"}}, {"name": "b4d515d8f54c23c777443cc4a82c9550", "lon": -76.985517, "lat": 38.9042055, "type": "electric_scooter", "fusion_lon": 0.0, "is_reserved": 0, "bike_id": "b4d515d8f54c23c777443cc4a82c9550", "fusion_lat": 0.0, "is_disabled": 0, "rental_uris": {"ios": "https://dc.lft.to/lastmile_qr_scan", "android": "https://dc.lft.to/lastmile_qr_scan"}}, {"name": "082fe17d4aad3f1ddcfb48c59ac5e791", "lon": -77.01176483333333, "lat": 38.872313166666665, "type": "electric_bike", "fusion_lon": 0.0, "is_reserved": 0, "bike_id": "082fe17d4aad3f1ddcfb48c59ac5e791", "fusion_lat": 0.0, "is_disabled": 0, "rental_uris": {"ios": "https://dc.lft.to/lastmile_qr_scan", "android": "https://dc.lft.to/lastmile_qr_scan"}}, {"name": "cf7eb5145672859e5703b52c2af4a90d", "lon": -77.00734383333334, "lat": 38.89840816666667, "type": "electric_scooter", "fusion_lon": 0.0, "is_reserved": 0, "bike_id": "cf7eb5145672859e5703b52c2af4a90d", "fusion_lat": 0.0, "is_disabled": 0, "rental_uris": {"ios": "https://dc.lft.to/lastmile_qr_scan", "android": "https://dc.lft.to/lastmile_qr_scan"}}, {"name": "c834548229a3f236551fbd5e705a8a09", "lon": -77.050318, "lat": 38.904119333333334, "type": "electric_scooter", "fusion_lon": 0.0, "is_reserved": 0, "bike_id": "c834548229a3f236551fbd5e705a8a09", "fusion_lat": 0.0, "is_disabled": 0, "rental_uris": {"ios": "https://dc.lft.to/lastmile_qr_scan", "android": "https://dc.lft.to/lastmile_qr_scan"}}, {"name": "603d5ad97138c80d58a37c56c51bcb54", "lon": -77.02532233333334, "lat": 38.9426085, "type": "electric_scooter", "fusion_lon": 0.0, "is_reserved": 0, "bike_id": "603d5ad97138c80d58a37c56c51bcb54", "fusion_lat": 0.0, "is_disabled": 0, "rental_uris": {"ios": "https://dc.lft.to/lastmile_qr_scan", "android": "https://dc.lft.to/lastmile_qr_scan"}}, {"name": "f46e50bd4346d446f289e29728e2e877", "lon": -77.0461305, "lat": 38.9096255, "type": "electric_scooter", "fusion_lon": 0.0, "is_reserved": 0, "bike_id": "f46e50bd4346d446f289e29728e2e877", "fusion_lat": 0.0, "is_disabled": 0, "rental_uris": {"ios": "https://dc.lft.to/lastmile_qr_scan", "android": "https://dc.lft.to/lastmile_qr_scan"}}, {"name": "76e525a304751e08e3f7325098c2e39f", "lon": -77.01033316666667, "lat": 38.866665166666664, "type": "electric_scooter", "fusion_lon": 0.0, "is_reserved": 0, "bike_id": "76e525a304751e08e3f7325098c2e39f", "fusion_lat": 0.0, "is_disabled": 0, "rental_uris": {"ios": "https://dc.lft.to/lastmile_qr_scan", "android": "https://dc.lft.to/lastmile_qr_scan"}}, {"name": "c65de435c21ba9edfcb2b7733bcd4ee7", "lon": -77.01487666666667, "lat": 38.88138133333333, "type": "electric_scooter", "fusion_lon": 0.0, "is_reserved": 0, "bike_id": "c65de435c21ba9edfcb2b7733bcd4ee7", "fusion_lat": 0.0, "is_disabled": 0, "rental_uris": {"ios": "https://dc.lft.to/lastmile_qr_scan", "android": "https://dc.lft.to/lastmile_qr_scan"}}, {"name": "c29440e30686bdc4cc788866d68fc588", "lon": -77.04271433333334, "lat": 38.91339466666667, "type": "electric_scooter", "fusion_lon": 0.0, "is_reserved": 0, "bike_id": "c29440e30686bdc4cc788866d68fc588", "fusion_lat": 0.0, "is_disabled": 0, "rental_uris": {"ios": "https://dc.lft.to/lastmile_qr_scan", "android": "https://dc.lft.to/lastmile_qr_scan"}}, {"name": "a2dc3c8eb592377f2b67faae4957a6c1", "lon": -76.97834983333334, "lat": 38.8721015, "type": "electric_scooter", "fusion_lon": 0.0, "is_reserved": 0, "bike_id": "a2dc3c8eb592377f2b67faae4957a6c1", "fusion_lat": 0.0, "is_disabled": 0, "rental_uris": {"ios": "https://dc.lft.to/lastmile_qr_scan", "android": "https://dc.lft.to/lastmile_qr_scan"}}, {"name": "909371c923d9e7f970f90d985ea200fc", "lon": -76.98884233333334, "lat": 38.86657016666667, "type": "electric_scooter", "fusion_lon": 0.0, "is_reserved": 0, "bike_id": "909371c923d9e7f970f90d985ea200fc", "fusion_lat": 0.0, "is_disabled": 0, "rental_uris": {"ios": "https://dc.lft.to/lastmile_qr_scan", "android": "https://dc.lft.to/lastmile_qr_scan"}}, {"name": "ed4f7f7dce9633399f3f34068318d9da", "lon": -77.03778066666666, "lat": 38.916942166666665, "type": "electric_scooter", "fusion_lon": 0.0, "is_reserved": 0, "bike_id": "ed4f7f7dce9633399f3f34068318d9da", "fusion_lat": 0.0, "is_disabled": 0, "rental_uris": {"ios": "https://dc.lft.to/lastmile_qr_scan", "android": "https://dc.lft.to/lastmile_qr_scan"}}, {"name": "691ea7bc10944956794c32de50c661a2", "lon": -77.04189233333334, "lat": 38.919852666666664, "type": "electric_scooter", "fusion_lon": 0.0, "is_reserved": 0, "bike_id": "691ea7bc10944956794c32de50c661a2", "fusion_lat": 0.0, "is_disabled": 0, "rental_uris": {"ios": "https://dc.lft.to/lastmile_qr_scan", "android": "https://dc.lft.to/lastmile_qr_scan"}}, {"name": "66b4a6d0b7fb408d5fbf6918bab04806", "lon": -77.02981866666667, "lat": 38.9072945, "type": "electric_scooter", "fusion_lon": 0.0, "is_reserved": 0, "bike_id": "66b4a6d0b7fb408d5fbf6918bab04806", "fusion_lat": 0.0, "is_disabled": 0, "rental_uris": {"ios": "https://dc.lft.to/lastmile_qr_scan", "android": "https://dc.lft.to/lastmile_qr_scan"}}, {"name": "5676cea00d0ffa76ce91dbf02ed58c74", "lon": -77.02500166666667, "lat": 38.93852966666667, "type": "electric_scooter", "fusion_lon": 0.0, "is_reserved": 0, "bike_id": "5676cea00d0ffa76ce91dbf02ed58c74", "fusion_lat": 0.0, "is_disabled": 0, "rental_uris": {"ios": "https://dc.lft.to/lastmile_qr_scan", "android": "https://dc.lft.to/lastmile_qr_scan"}}, {"name": "6f4961b3c0bda023c7e0237c1027b623", "lon": -76.90960033333333, "lat": 38.8541515, "type": "electric_bike", "fusion_lon": 0.0, "is_reserved": 0, "bike_id": "6f4961b3c0bda023c7e0237c1027b623", "fusion_lat": 0.0, "is_disabled": 0, "rental_uris": {"ios": "https://dc.lft.to/lastmile_qr_scan", "android": "https://dc.lft.to/lastmile_qr_scan"}}, {"name": "86f8a37e609f609ce7800e281f81cc60", "lon": -77.0057395, "lat": 38.90221566666666, "type": "electric_scooter", "fusion_lon": 0.0, "is_reserved": 0, "bike_id": "86f8a37e609f609ce7800e281f81cc60", "fusion_lat": 0.0, "is_disabled": 0, "rental_uris": {"ios": "https://dc.lft.to/lastmile_qr_scan", "android": "https://dc.lft.to/lastmile_qr_scan"}}, {"name": "8f169a377ee8ef7c2261e5ee6417c12d", "lon": -77.02174416666666, "lat": 38.902285666666664, "type": "electric_scooter", "fusion_lon": 0.0, "is_reserved": 0, "bike_id": "8f169a377ee8ef7c2261e5ee6417c12d", "fusion_lat": 0.0, "is_disabled": 0, "rental_uris": {"ios": "https://dc.lft.to/lastmile_qr_scan", "android": "https://dc.lft.to/lastmile_qr_scan"}}, {"name": "53ca7624b3a908d5c52c6652f44646b3", "lon": -77.01511633333334, "lat": 38.910484333333336, "type": "electric_scooter", "fusion_lon": 0.0, "is_reserved": 0, "bike_id": "53ca7624b3a908d5c52c6652f44646b3", "fusion_lat": 0.0, "is_disabled": 0, "rental_uris": {"ios": "https://dc.lft.to/lastmile_qr_scan", "android": "https://dc.lft.to/lastmile_qr_scan"}}, {"name": "bc2ed8a6019a6da162a1a2ad9823b0b6", "lon": -77.0409315, "lat": 38.917696666666664, "type": "electric_scooter", "fusion_lon": 0.0, "is_reserved": 0, "bike_id": "bc2ed8a6019a6da162a1a2ad9823b0b6", "fusion_lat": 0.0, "is_disabled": 0, "rental_uris": {"ios": "https://dc.lft.to/lastmile_qr_scan", "android": "https://dc.lft.to/lastmile_qr_scan"}}, {"name": "bf7bd2cfb91cf14231e9dd0867bc9af4", "lon": -77.00897783333333, "lat": 38.879432333333334, "type": "electric_scooter", "fusion_lon": 0.0, "is_reserved": 0, "bike_id": "bf7bd2cfb91cf14231e9dd0867bc9af4", "fusion_lat": 0.0, "is_disabled": 0, "rental_uris": {"ios": "https://dc.lft.to/lastmile_qr_scan", "android": "https://dc.lft.to/lastmile_qr_scan"}}, {"name": "65c48fd39484d30c0b7fdd86e6be5065", "lon": -77.022893, "lat": 38.9367275, "type": "electric_scooter", "fusion_lon": 0.0, "is_reserved": 0, "bike_id": "65c48fd39484d30c0b7fdd86e6be5065", "fusion_lat": 0.0, "is_disabled": 0, "rental_uris": {"ios": "https://dc.lft.to/lastmile_qr_scan", "android": "https://dc.lft.to/lastmile_qr_scan"}}, {"name": "dd19f4e09f11492f0e55bb5831514bc6", "lon": -77.04009933333333, "lat": 38.92261166666667, "type": "electric_scooter", "fusion_lon": 0.0, "is_reserved": 0, "bike_id": "dd19f4e09f11492f0e55bb5831514bc6", "fusion_lat": 0.0, "is_disabled": 0, "rental_uris": {"ios": "https://dc.lft.to/lastmile_qr_scan", "android": "https://dc.lft.to/lastmile_qr_scan"}}, {"name": "d7617aa1776cd7dbc0b23efe6e41015a", "lon": -77.043399, "lat": 38.902278, "type": "electric_scooter", "fusion_lon": 0.0, "is_reserved": 0, "bike_id": "d7617aa1776cd7dbc0b23efe6e41015a", "fusion_lat": 0.0, "is_disabled": 0, "rental_uris": {"ios": "https://dc.lft.to/lastmile_qr_scan", "android": "https://dc.lft.to/lastmile_qr_scan"}}, {"name": "e4e7971bc395af85e7a0c04eff16cac2", "lon": -77.00480566666667, "lat": 38.8747745, "type": "electric_scooter", "fusion_lon": 0.0, "is_reserved": 0, "bike_id": "e4e7971bc395af85e7a0c04eff16cac2", "fusion_lat": 0.0, "is_disabled": 0, "rental_uris": {"ios": "https://dc.lft.to/lastmile_qr_scan", "android": "https://dc.lft.to/lastmile_qr_scan"}}, {"name": "02bfeb3a5e838bcf84add6e1efea1112", "lon": -77.0432935, "lat": 38.89222016666667, "type": "electric_scooter", "fusion_lon": 0.0, "is_reserved": 0, "bike_id": "02bfeb3a5e838bcf84add6e1efea1112", "fusion_lat": 0.0, "is_disabled": 0, "rental_uris": {"ios": "https://dc.lft.to/lastmile_qr_scan", "android": "https://dc.lft.to/lastmile_qr_scan"}}, {"name": "94f76387add88b52f944359788c2025f", "lon": -76.980976, "lat": 38.92105266666667, "type": "electric_bike", "fusion_lon": 0.0, "is_reserved": 0, "bike_id": "94f76387add88b52f944359788c2025f", "fusion_lat": 0.0, "is_disabled": 0, "rental_uris": {"ios": "https://dc.lft.to/lastmile_qr_scan", "android": "https://dc.lft.to/lastmile_qr_scan"}}, {"name": "34e1172cd0f70d6e38b98773cd018b3e", "lon": -77.03260033333333, "lat": 38.94621566666667, "type": "electric_scooter", "fusion_lon": 0.0, "is_reserved": 0, "bike_id": "34e1172cd0f70d6e38b98773cd018b3e", "fusion_lat": 0.0, "is_disabled": 0, "rental_uris": {"ios": "https://dc.lft.to/lastmile_qr_scan", "android": "https://dc.lft.to/lastmile_qr_scan"}}, {"name": "115b98ed887cfc167c1aff254d490305", "lon": -77.028128, "lat": 38.916891, "type": "electric_scooter", "fusion_lon": 0.0, "is_reserved": 0, "bike_id": "115b98ed887cfc167c1aff254d490305", "fusion_lat": 0.0, "is_disabled": 0, "rental_uris": {"ios": "https://dc.lft.to/lastmile_qr_scan", "android": "https://dc.lft.to/lastmile_qr_scan"}}, {"name": "b1a76635dcc10f3f92530a8a51f3c4bc", "lon": -77.02282866666667, "lat": 38.894886166666666, "type": "electric_scooter", "fusion_lon": 0.0, "is_reserved": 0, "bike_id": "b1a76635dcc10f3f92530a8a51f3c4bc", "fusion_lat": 0.0, "is_disabled": 0, "rental_uris": {"ios": "https://dc.lft.to/lastmile_qr_scan", "android": "https://dc.lft.to/lastmile_qr_scan"}}, {"name": "0ef7b91b3b23fb372032b131583c7e98", "lon": -77.02590616666667, "lat": 38.904897166666665, "type": "electric_scooter", "fusion_lon": 0.0, "is_reserved": 0, "bike_id": "0ef7b91b3b23fb372032b131583c7e98", "fusion_lat": 0.0, "is_disabled": 0, "rental_uris": {"ios": "https://dc.lft.to/lastmile_qr_scan", "android": "https://dc.lft.to/lastmile_qr_scan"}}, {"name": "3b6be56c4c52ea232635a8e88b2dd3ed", "lon": -77.007564, "lat": 38.91027966666667, "type": "electric_scooter", "fusion_lon": 0.0, "is_reserved": 0, "bike_id": "3b6be56c4c52ea232635a8e88b2dd3ed", "fusion_lat": 0.0, "is_disabled": 0, "rental_uris": {"ios": "https://dc.lft.to/lastmile_qr_scan", "android": "https://dc.lft.to/lastmile_qr_scan"}}, {"name": "316c4f5287bd9f8a7550f1cca5b255cd", "lon": -77.01613416666666, "lat": 38.899633666666666, "type": "electric_scooter", "fusion_lon": 0.0, "is_reserved": 0, "bike_id": "316c4f5287bd9f8a7550f1cca5b255cd", "fusion_lat": 0.0, "is_disabled": 0, "rental_uris": {"ios": "https://dc.lft.to/lastmile_qr_scan", "android": "https://dc.lft.to/lastmile_qr_scan"}}, {"name": "57635e543b61568021203c1f799c5030", "lon": -77.036629, "lat": 38.917258, "type": "electric_scooter", "fusion_lon": 0.0, "is_reserved": 0, "bike_id": "57635e543b61568021203c1f799c5030", "fusion_lat": 0.0, "is_disabled": 0, "rental_uris": {"ios": "https://dc.lft.to/lastmile_qr_scan", "android": "https://dc.lft.to/lastmile_qr_scan"}}, {"name": "48000fcbcd6c8b6bf7cb4028c2d26f54", "lon": -77.0434565, "lat": 38.923504333333334, "type": "electric_scooter", "fusion_lon": 0.0, "is_reserved": 0, "bike_id": "48000fcbcd6c8b6bf7cb4028c2d26f54", "fusion_lat": 0.0, "is_disabled": 0, "rental_uris": {"ios": "https://dc.lft.to/lastmile_qr_scan", "android": "https://dc.lft.to/lastmile_qr_scan"}}, {"name": "b1f48de04fe9eb32a4d845d5b3a7a6ae", "lon": -77.06283733333333, "lat": 38.964989, "type": "electric_scooter", "fusion_lon": 0.0, "is_reserved": 0, "bike_id": "b1f48de04fe9eb32a4d845d5b3a7a6ae", "fusion_lat": 0.0, "is_disabled": 0, "rental_uris": {"ios": "https://dc.lft.to/lastmile_qr_scan", "android": "https://dc.lft.to/lastmile_qr_scan"}}, {"name": "45440fdeea84cc2f078d62b47d731b1c", "lon": -77.02949233333334, "lat": 38.90532733333333, "type": "electric_scooter", "fusion_lon": 0.0, "is_reserved": 0, "bike_id": "45440fdeea84cc2f078d62b47d731b1c", "fusion_lat": 0.0, "is_disabled": 0, "rental_uris": {"ios": "https://dc.lft.to/lastmile_qr_scan", "android": "https://dc.lft.to/lastmile_qr_scan"}}, {"name": "b3f89dc84665e808d2b996a4b57850fe", "lon": -77.03462883333333, "lat": 38.905632, "type": "electric_scooter", "fusion_lon": 0.0, "is_reserved": 0, "bike_id": "b3f89dc84665e808d2b996a4b57850fe", "fusion_lat": 0.0, "is_disabled": 0, "rental_uris": {"ios": "https://dc.lft.to/lastmile_qr_scan", "android": "https://dc.lft.to/lastmile_qr_scan"}}, {"name": "496af0ba96d9b5d01a1055d48ddab10d", "lon": -77.03704733333333, "lat": 38.935587, "type": "electric_bike", "fusion_lon": 0.0, "is_reserved": 0, "bike_id": "496af0ba96d9b5d01a1055d48ddab10d", "fusion_lat": 0.0, "is_disabled": 0, "rental_uris": {"ios": "https://dc.lft.to/lastmile_qr_scan", "android": "https://dc.lft.to/lastmile_qr_scan"}}, {"name": "c96202da2d02e12a8d745b8f1fde4976", "lon": -77.03637333333333, "lat": 38.92341366666667, "type": "electric_scooter", "fusion_lon": 0.0, "is_reserved": 0, "bike_id": "c96202da2d02e12a8d745b8f1fde4976", "fusion_lat": 0.0, "is_disabled": 0, "rental_uris": {"ios": "https://dc.lft.to/lastmile_qr_scan", "android": "https://dc.lft.to/lastmile_qr_scan"}}, {"name": "270e66caba88ba38fa383741756156ab", "lon": -77.05002166666667, "lat": 38.9064515, "type": "electric_scooter", "fusion_lon": 0.0, "is_reserved": 0, "bike_id": "270e66caba88ba38fa383741756156ab", "fusion_lat": 0.0, "is_disabled": 0, "rental_uris": {"ios": "https://dc.lft.to/lastmile_qr_scan", "android": "https://dc.lft.to/lastmile_qr_scan"}}, {"name": "63f9e5bb15916ed14f90a3c04cd438d4", "lon": -77.18738, "lat": 38.89353716666667, "type": "electric_bike", "fusion_lon": 0.0, "is_reserved": 0, "bike_id": "63f9e5bb15916ed14f90a3c04cd438d4", "fusion_lat": 0.0, "is_disabled": 0, "rental_uris": {"ios": "https://dc.lft.to/lastmile_qr_scan", "android": "https://dc.lft.to/lastmile_qr_scan"}}, {"name": "d4fe44742be51710cd90d53b5dbe6a22", "lon": -77.01204316666667, "lat": 38.870955, "type": "electric_scooter", "fusion_lon": 0.0, "is_reserved": 0, "bike_id": "d4fe44742be51710cd90d53b5dbe6a22", "fusion_lat": 0.0, "is_disabled": 0, "rental_uris": {"ios": "https://dc.lft.to/lastmile_qr_scan", "android": "https://dc.lft.to/lastmile_qr_scan"}}, {"name": "6e5e8e389f26c70e547787d81f99e0e4", "lon": -77.03866766666667, "lat": 38.921488833333335, "type": "electric_scooter", "fusion_lon": 0.0, "is_reserved": 0, "bike_id": "6e5e8e389f26c70e547787d81f99e0e4", "fusion_lat": 0.0, "is_disabled": 0, "rental_uris": {"ios": "https://dc.lft.to/lastmile_qr_scan", "android": "https://dc.lft.to/lastmile_qr_scan"}}, {"name": "21a930018f214a8c9613793f28eae4b0", "lon": -77.021894, "lat": 38.90847633333333, "type": "electric_scooter", "fusion_lon": 0.0, "is_reserved": 0, "bike_id": "21a930018f214a8c9613793f28eae4b0", "fusion_lat": 0.0, "is_disabled": 0, "rental_uris": {"ios": "https://dc.lft.to/lastmile_qr_scan", "android": "https://dc.lft.to/lastmile_qr_scan"}}, {"name": "833b69e4785f7f79bddae8fa529734d0", "lon": -77.02161733333334, "lat": 38.926103499999996, "type": "electric_scooter", "fusion_lon": 0.0, "is_reserved": 0, "bike_id": "833b69e4785f7f79bddae8fa529734d0", "fusion_lat": 0.0, "is_disabled": 0, "rental_uris": {"ios": "https://dc.lft.to/lastmile_qr_scan", "android": "https://dc.lft.to/lastmile_qr_scan"}}, {"name": "c7fde4d50cd0d95a2fb5ab4d410e4df0", "lon": -77.06710083333333, "lat": 38.95064033333333, "type": "electric_scooter", "fusion_lon": 0.0, "is_reserved": 0, "bike_id": "c7fde4d50cd0d95a2fb5ab4d410e4df0", "fusion_lat": 0.0, "is_disabled": 0, "rental_uris": {"ios": "https://dc.lft.to/lastmile_qr_scan", "android": "https://dc.lft.to/lastmile_qr_scan"}}, {"name": "7b079bd5149401651b75583022608c32", "lon": -77.04440516666666, "lat": 38.90366083333333, "type": "electric_scooter", "fusion_lon": 0.0, "is_reserved": 0, "bike_id": "7b079bd5149401651b75583022608c32", "fusion_lat": 0.0, "is_disabled": 0, "rental_uris": {"ios": "https://dc.lft.to/lastmile_qr_scan", "android": "https://dc.lft.to/lastmile_qr_scan"}}, {"name": "49247fa6ee16e7d1ac8b94fa3abf87f2", "lon": -77.00192, "lat": 38.9024295, "type": "electric_scooter", "fusion_lon": 0.0, "is_reserved": 0, "bike_id": "49247fa6ee16e7d1ac8b94fa3abf87f2", "fusion_lat": 0.0, "is_disabled": 0, "rental_uris": {"ios": "https://dc.lft.to/lastmile_qr_scan", "android": "https://dc.lft.to/lastmile_qr_scan"}}, {"name": "be8f5d4f357b61d6fc0e66a660ccd611", "lon": -77.04849833333333, "lat": 38.900690833333336, "type": "electric_scooter", "fusion_lon": 0.0, "is_reserved": 0, "bike_id": "be8f5d4f357b61d6fc0e66a660ccd611", "fusion_lat": 0.0, "is_disabled": 0, "rental_uris": {"ios": "https://dc.lft.to/lastmile_qr_scan", "android": "https://dc.lft.to/lastmile_qr_scan"}}, {"name": "069aeecf16ad47d14c45e1f372268d5c", "lon": -77.0436685, "lat": 38.89222983333333, "type": "electric_scooter", "fusion_lon": 0.0, "is_reserved": 0, "bike_id": "069aeecf16ad47d14c45e1f372268d5c", "fusion_lat": 0.0, "is_disabled": 0, "rental_uris": {"ios": "https://dc.lft.to/lastmile_qr_scan", "android": "https://dc.lft.to/lastmile_qr_scan"}}, {"name": "930637beebeb6eed3065ed4b3eebc77f", "lon": -77.034995, "lat": 38.9170745, "type": "electric_scooter", "fusion_lon": 0.0, "is_reserved": 0, "bike_id": "930637beebeb6eed3065ed4b3eebc77f", "fusion_lat": 0.0, "is_disabled": 0, "rental_uris": {"ios": "https://dc.lft.to/lastmile_qr_scan", "android": "https://dc.lft.to/lastmile_qr_scan"}}, {"name": "2d74f76a195826fc3cc22647a6b68af2", "lon": -77.038263, "lat": 38.92476083333333, "type": "electric_scooter", "fusion_lon": 0.0, "is_reserved": 0, "bike_id": "2d74f76a195826fc3cc22647a6b68af2", "fusion_lat": 0.0, "is_disabled": 0, "rental_uris": {"ios": "https://dc.lft.to/lastmile_qr_scan", "android": "https://dc.lft.to/lastmile_qr_scan"}}, {"name": "f4b60bac25bf5e7bc033e498f2d32f9f", "lon": -77.03494783333333, "lat": 38.9248965, "type": "electric_scooter", "fusion_lon": 0.0, "is_reserved": 0, "bike_id": "f4b60bac25bf5e7bc033e498f2d32f9f", "fusion_lat": 0.0, "is_disabled": 0, "rental_uris": {"ios": "https://dc.lft.to/lastmile_qr_scan", "android": "https://dc.lft.to/lastmile_qr_scan"}}, {"name": "0410af1366f5fab13ea0776a270aa740", "lon": -77.00191716666667, "lat": 38.900389, "type": "electric_scooter", "fusion_lon": 0.0, "is_reserved": 0, "bike_id": "0410af1366f5fab13ea0776a270aa740", "fusion_lat": 0.0, "is_disabled": 0, "rental_uris": {"ios": "https://dc.lft.to/lastmile_qr_scan", "android": "https://dc.lft.to/lastmile_qr_scan"}}, {"name": "da0cbc9efab7049cc817f9b5fea72c2f", "lon": -77.00799416666666, "lat": 38.94919383333333, "type": "electric_bike", "fusion_lon": 0.0, "is_reserved": 0, "bike_id": "da0cbc9efab7049cc817f9b5fea72c2f", "fusion_lat": 0.0, "is_disabled": 0, "rental_uris": {"ios": "https://dc.lft.to/lastmile_qr_scan", "android": "https://dc.lft.to/lastmile_qr_scan"}}, {"name": "5343f0a72d24b7ed7c70415b39f69c49", "lon": -77.03266466666666, "lat": 38.91980683333333, "type": "electric_scooter", "fusion_lon": 0.0, "is_reserved": 0, "bike_id": "5343f0a72d24b7ed7c70415b39f69c49", "fusion_lat": 0.0, "is_disabled": 0, "rental_uris": {"ios": "https://dc.lft.to/lastmile_qr_scan", "android": "https://dc.lft.to/lastmile_qr_scan"}}, {"name": "b9e0760e4eace016fc82dd7e902c2175", "lon": -77.03367966666667, "lat": 38.935908166666664, "type": "electric_scooter", "fusion_lon": 0.0, "is_reserved": 0, "bike_id": "b9e0760e4eace016fc82dd7e902c2175", "fusion_lat": 0.0, "is_disabled": 0, "rental_uris": {"ios": "https://dc.lft.to/lastmile_qr_scan", "android": "https://dc.lft.to/lastmile_qr_scan"}}, {"name": "7f1646db99a64c75f551b4d584bcc6fd", "lon": -76.97323066666667, "lat": 38.864676, "type": "electric_scooter", "fusion_lon": 0.0, "is_reserved": 0, "bike_id": "7f1646db99a64c75f551b4d584bcc6fd", "fusion_lat": 0.0, "is_disabled": 0, "rental_uris": {"ios": "https://dc.lft.to/lastmile_qr_scan", "android": "https://dc.lft.to/lastmile_qr_scan"}}, {"name": "7d6c486504831182bdc5287a9df4823a", "lon": -77.0296315, "lat": 38.927762333333334, "type": "electric_bike", "fusion_lon": 0.0, "is_reserved": 0, "bike_id": "7d6c486504831182bdc5287a9df4823a", "fusion_lat": 0.0, "is_disabled": 0, "rental_uris": {"ios": "https://dc.lft.to/lastmile_qr_scan", "android": "https://dc.lft.to/lastmile_qr_scan"}}, {"name": "6459a3ac44ee07d599b0a483b2feca2b", "lon": -77.02964566666667, "lat": 38.92327233333334, "type": "electric_scooter", "fusion_lon": 0.0, "is_reserved": 0, "bike_id": "6459a3ac44ee07d599b0a483b2feca2b", "fusion_lat": 0.0, "is_disabled": 0, "rental_uris": {"ios": "https://dc.lft.to/lastmile_qr_scan", "android": "https://dc.lft.to/lastmile_qr_scan"}}, {"name": "2b7b650c3abf08a101c482454dfab4f9", "lon": -77.03250333333334, "lat": 38.911848666666664, "type": "electric_scooter", "fusion_lon": 0.0, "is_reserved": 0, "bike_id": "2b7b650c3abf08a101c482454dfab4f9", "fusion_lat": 0.0, "is_disabled": 0, "rental_uris": {"ios": "https://dc.lft.to/lastmile_qr_scan", "android": "https://dc.lft.to/lastmile_qr_scan"}}, {"name": "dcd6cd756fb06c684d070e8e8f3b5b93", "lon": -77.023785, "lat": 38.91960066666667, "type": "electric_scooter", "fusion_lon": 0.0, "is_reserved": 0, "bike_id": "dcd6cd756fb06c684d070e8e8f3b5b93", "fusion_lat": 0.0, "is_disabled": 0, "rental_uris": {"ios": "https://dc.lft.to/lastmile_qr_scan", "android": "https://dc.lft.to/lastmile_qr_scan"}}, {"name": "bdefc8101f86f5b480cc7e46da0ce600", "lon": -77.04686833333334, "lat": 39.023971, "type": "electric_bike", "fusion_lon": 0.0, "is_reserved": 0, "bike_id": "bdefc8101f86f5b480cc7e46da0ce600", "fusion_lat": 0.0, "is_disabled": 0, "rental_uris": {"ios": "https://dc.lft.to/lastmile_qr_scan", "android": "https://dc.lft.to/lastmile_qr_scan"}}, {"name": "3550c13b376ed8ae713ab2237d07d439", "lon": -77.03341166666667, "lat": 38.920529333333334, "type": "electric_scooter", "fusion_lon": 0.0, "is_reserved": 0, "bike_id": "3550c13b376ed8ae713ab2237d07d439", "fusion_lat": 0.0, "is_disabled": 0, "rental_uris": {"ios": "https://dc.lft.to/lastmile_qr_scan", "android": "https://dc.lft.to/lastmile_qr_scan"}}, {"name": "f9ac5f23a7f6728578620327dcfdb6af", "lon": -76.98357733333333, "lat": 38.896096, "type": "electric_bike", "fusion_lon": 0.0, "is_reserved": 0, "bike_id": "f9ac5f23a7f6728578620327dcfdb6af", "fusion_lat": 0.0, "is_disabled": 0, "rental_uris": {"ios": "https://dc.lft.to/lastmile_qr_scan", "android": "https://dc.lft.to/lastmile_qr_scan"}}, {"name": "391eef8d07059facc1e4e47709bbe95c", "lon": -77.05816816666666, "lat": 38.9356375, "type": "electric_scooter", "fusion_lon": 0.0, "is_reserved": 0, "bike_id": "391eef8d07059facc1e4e47709bbe95c", "fusion_lat": 0.0, "is_disabled": 0, "rental_uris": {"ios": "https://dc.lft.to/lastmile_qr_scan", "android": "https://dc.lft.to/lastmile_qr_scan"}}, {"name": "9aa284becb5c84fe32ad728b1203c4dd", "lon": -76.96058933333333, "lat": 38.884061, "type": "electric_bike", "fusion_lon": 0.0, "is_reserved": 0, "bike_id": "9aa284becb5c84fe32ad728b1203c4dd", "fusion_lat": 0.0, "is_disabled": 0, "rental_uris": {"ios": "https://dc.lft.to/lastmile_qr_scan", "android": "https://dc.lft.to/lastmile_qr_scan"}}, {"name": "ed36f03a9bd7758e6f520d74775f4596", "lon": -77.0229895, "lat": 38.92757133333333, "type": "electric_scooter", "fusion_lon": 0.0, "is_reserved": 0, "bike_id": "ed36f03a9bd7758e6f520d74775f4596", "fusion_lat": 0.0, "is_disabled": 0, "rental_uris": {"ios": "https://dc.lft.to/lastmile_qr_scan", "android": "https://dc.lft.to/lastmile_qr_scan"}}, {"name": "ee3005ab7da826aeed95767971a82d91", "lon": -77.07729866666666, "lat": 38.9436365, "type": "electric_bike", "fusion_lon": 0.0, "is_reserved": 0, "bike_id": "ee3005ab7da826aeed95767971a82d91", "fusion_lat": 0.0, "is_disabled": 0, "rental_uris": {"ios": "https://dc.lft.to/lastmile_qr_scan", "android": "https://dc.lft.to/lastmile_qr_scan"}}, {"name": "15701b7dcf58437f9bd6ce55948e4640", "lon": -77.02169916666666, "lat": 38.9055845, "type": "electric_scooter", "fusion_lon": 0.0, "is_reserved": 0, "bike_id": "15701b7dcf58437f9bd6ce55948e4640", "fusion_lat": 0.0, "is_disabled": 0, "rental_uris": {"ios": "https://dc.lft.to/lastmile_qr_scan", "android": "https://dc.lft.to/lastmile_qr_scan"}}, {"name": "9b4434aef892b3ed22fb9c75ef848ae9", "lon": -76.9375305, "lat": 38.890502833333336, "type": "electric_scooter", "fusion_lon": 0.0, "is_reserved": 0, "bike_id": "9b4434aef892b3ed22fb9c75ef848ae9", "fusion_lat": 0.0, "is_disabled": 0, "rental_uris": {"ios": "https://dc.lft.to/lastmile_qr_scan", "android": "https://dc.lft.to/lastmile_qr_scan"}}, {"name": "486f06decdfeb442dde669a6f151a999", "lon": -76.99516166666666, "lat": 38.88373433333334, "type": "electric_scooter", "fusion_lon": 0.0, "is_reserved": 0, "bike_id": "486f06decdfeb442dde669a6f151a999", "fusion_lat": 0.0, "is_disabled": 0, "rental_uris": {"ios": "https://dc.lft.to/lastmile_qr_scan", "android": "https://dc.lft.to/lastmile_qr_scan"}}, {"name": "4d8fc39019e230d84f90bbc99a34375d", "lon": -77.02974816666666, "lat": 38.91682216666667, "type": "electric_scooter", "fusion_lon": 0.0, "is_reserved": 0, "bike_id": "4d8fc39019e230d84f90bbc99a34375d", "fusion_lat": 0.0, "is_disabled": 0, "rental_uris": {"ios": "https://dc.lft.to/lastmile_qr_scan", "android": "https://dc.lft.to/lastmile_qr_scan"}}, {"name": "0b15004047229ed567bd1c9f10aba387", "lon": -76.99333266666666, "lat": 38.87142, "type": "electric_scooter", "fusion_lon": 0.0, "is_reserved": 0, "bike_id": "0b15004047229ed567bd1c9f10aba387", "fusion_lat": 0.0, "is_disabled": 0, "rental_uris": {"ios": "https://dc.lft.to/lastmile_qr_scan", "android": "https://dc.lft.to/lastmile_qr_scan"}}, {"name": "11e41ac0ad64156035d5fc8d8c024dc4", "lon": -76.988654, "lat": 38.95486983333333, "type": "electric_bike", "fusion_lon": 0.0, "is_reserved": 0, "bike_id": "11e41ac0ad64156035d5fc8d8c024dc4", "fusion_lat": 0.0, "is_disabled": 0, "rental_uris": {"ios": "https://dc.lft.to/lastmile_qr_scan", "android": "https://dc.lft.to/lastmile_qr_scan"}}, {"name": "acf29d4e89993e03b757cf6a55adb048", "lon": -76.948142, "lat": 38.89382066666667, "type": "electric_bike", "fusion_lon": 0.0, "is_reserved": 0, "bike_id": "acf29d4e89993e03b757cf6a55adb048", "fusion_lat": 0.0, "is_disabled": 0, "rental_uris": {"ios": "https://dc.lft.to/lastmile_qr_scan", "android": "https://dc.lft.to/lastmile_qr_scan"}}, {"name": "ad6e15b1f997ac31ed42011b2d595637", "lon": -77.016947, "lat": 38.97498233333334, "type": "electric_scooter", "fusion_lon": 0.0, "is_reserved": 0, "bike_id": "ad6e15b1f997ac31ed42011b2d595637", "fusion_lat": 0.0, "is_disabled": 0, "rental_uris": {"ios": "https://dc.lft.to/lastmile_qr_scan", "android": "https://dc.lft.to/lastmile_qr_scan"}}, {"name": "8879ad335491bf05990834aaac7a28d2", "lon": -77.026088, "lat": 38.93140966666667, "type": "electric_scooter", "fusion_lon": 0.0, "is_reserved": 0, "bike_id": "8879ad335491bf05990834aaac7a28d2", "fusion_lat": 0.0, "is_disabled": 0, "rental_uris": {"ios": "https://dc.lft.to/lastmile_qr_scan", "android": "https://dc.lft.to/lastmile_qr_scan"}}, {"name": "0170a9aa82f5de0bf33e960e35a73921", "lon": -77.034374, "lat": 38.909788, "type": "electric_scooter", "fusion_lon": 0.0, "is_reserved": 0, "bike_id": "0170a9aa82f5de0bf33e960e35a73921", "fusion_lat": 0.0, "is_disabled": 0, "rental_uris": {"ios": "https://dc.lft.to/lastmile_qr_scan", "android": "https://dc.lft.to/lastmile_qr_scan"}}, {"name": "82cca8a0d34164fd59a241640e1454f6", "lon": -77.04467316666667, "lat": 38.908627833333334, "type": "electric_scooter", "fusion_lon": 0.0, "is_reserved": 0, "bike_id": "82cca8a0d34164fd59a241640e1454f6", "fusion_lat": 0.0, "is_disabled": 0, "rental_uris": {"ios": "https://dc.lft.to/lastmile_qr_scan", "android": "https://dc.lft.to/lastmile_qr_scan"}}, {"name": "73ad7686c295ba1093449df2d88052a8", "lon": -77.04106483333334, "lat": 38.92801516666667, "type": "electric_scooter", "fusion_lon": 0.0, "is_reserved": 0, "bike_id": "73ad7686c295ba1093449df2d88052a8", "fusion_lat": 0.0, "is_disabled": 0, "rental_uris": {"ios": "https://dc.lft.to/lastmile_qr_scan", "android": "https://dc.lft.to/lastmile_qr_scan"}}, {"name": "0aa4b5b6c8da5dc0ad9ba078769708a0", "lon": -77.013566, "lat": 38.899263, "type": "electric_scooter", "fusion_lon": 0.0, "is_reserved": 0, "bike_id": "0aa4b5b6c8da5dc0ad9ba078769708a0", "fusion_lat": 0.0, "is_disabled": 0, "rental_uris": {"ios": "https://dc.lft.to/lastmile_qr_scan", "android": "https://dc.lft.to/lastmile_qr_scan"}}, {"name": "dd1e01c3913758d717d7cbd40d87a0e6", "lon": -77.02408983333333, "lat": 38.892551, "type": "electric_scooter", "fusion_lon": 0.0, "is_reserved": 0, "bike_id": "dd1e01c3913758d717d7cbd40d87a0e6", "fusion_lat": 0.0, "is_disabled": 0, "rental_uris": {"ios": "https://dc.lft.to/lastmile_qr_scan", "android": "https://dc.lft.to/lastmile_qr_scan"}}, {"name": "98ec3e73d0bd957a35a5db200dc06107", "lon": -77.02375816666667, "lat": 38.91963583333333, "type": "electric_scooter", "fusion_lon": 0.0, "is_reserved": 0, "bike_id": "98ec3e73d0bd957a35a5db200dc06107", "fusion_lat": 0.0, "is_disabled": 0, "rental_uris": {"ios": "https://dc.lft.to/lastmile_qr_scan", "android": "https://dc.lft.to/lastmile_qr_scan"}}, {"name": "ac69a05146da313733f33dc0fe122cc0", "lon": -77.02326316666667, "lat": 38.935964166666665, "type": "electric_scooter", "fusion_lon": 0.0, "is_reserved": 0, "bike_id": "ac69a05146da313733f33dc0fe122cc0", "fusion_lat": 0.0, "is_disabled": 0, "rental_uris": {"ios": "https://dc.lft.to/lastmile_qr_scan", "android": "https://dc.lft.to/lastmile_qr_scan"}}, {"name": "bb20acb6213397fed5c30d219fb10e79", "lon": -77.02948, "lat": 38.9050295, "type": "electric_scooter", "fusion_lon": 0.0, "is_reserved": 0, "bike_id": "bb20acb6213397fed5c30d219fb10e79", "fusion_lat": 0.0, "is_disabled": 0, "rental_uris": {"ios": "https://dc.lft.to/lastmile_qr_scan", "android": "https://dc.lft.to/lastmile_qr_scan"}}, {"name": "fc90a4c874c4560d0f43d687367f9ebe", "lon": -77.02257983333334, "lat": 38.91637, "type": "electric_scooter", "fusion_lon": 0.0, "is_reserved": 0, "bike_id": "fc90a4c874c4560d0f43d687367f9ebe", "fusion_lat": 0.0, "is_disabled": 0, "rental_uris": {"ios": "https://dc.lft.to/lastmile_qr_scan", "android": "https://dc.lft.to/lastmile_qr_scan"}}, {"name": "896e3fd6fa41873280c635b04ec2edb5", "lon": -77.02465483333333, "lat": 38.93296566666667, "type": "electric_scooter", "fusion_lon": 0.0, "is_reserved": 0, "bike_id": "896e3fd6fa41873280c635b04ec2edb5", "fusion_lat": 0.0, "is_disabled": 0, "rental_uris": {"ios": "https://dc.lft.to/lastmile_qr_scan", "android": "https://dc.lft.to/lastmile_qr_scan"}}, {"name": "d2f87f84478df254351632c2b7b87af0", "lon": -77.03471133333333, "lat": 38.91707183333333, "type": "electric_scooter", "fusion_lon": 0.0, "is_reserved": 0, "bike_id": "d2f87f84478df254351632c2b7b87af0", "fusion_lat": 0.0, "is_disabled": 0, "rental_uris": {"ios": "https://dc.lft.to/lastmile_qr_scan", "android": "https://dc.lft.to/lastmile_qr_scan"}}, {"name": "5a48316ee31f7cd8e68d638c2b8728ee", "lon": -77.02919866666667, "lat": 38.898382166666664, "type": "electric_scooter", "fusion_lon": 0.0, "is_reserved": 0, "bike_id": "5a48316ee31f7cd8e68d638c2b8728ee", "fusion_lat": 0.0, "is_disabled": 0, "rental_uris": {"ios": "https://dc.lft.to/lastmile_qr_scan", "android": "https://dc.lft.to/lastmile_qr_scan"}}, {"name": "c85805714b9047b0a492fb8aef90ebe0", "lon": -77.0238265, "lat": 38.92002683333333, "type": "electric_scooter", "fusion_lon": 0.0, "is_reserved": 0, "bike_id": "c85805714b9047b0a492fb8aef90ebe0", "fusion_lat": 0.0, "is_disabled": 0, "rental_uris": {"ios": "https://dc.lft.to/lastmile_qr_scan", "android": "https://dc.lft.to/lastmile_qr_scan"}}, {"name": "4eb4b851094ad7f6c023a4364ea1dff5", "lon": -77.02698316666667, "lat": 38.91345883333334, "type": "electric_scooter", "fusion_lon": 0.0, "is_reserved": 0, "bike_id": "4eb4b851094ad7f6c023a4364ea1dff5", "fusion_lat": 0.0, "is_disabled": 0, "rental_uris": {"ios": "https://dc.lft.to/lastmile_qr_scan", "android": "https://dc.lft.to/lastmile_qr_scan"}}, {"name": "e6ef296654e6f8881a5d85e62c5adea3", "lon": -77.009163, "lat": 38.895559166666665, "type": "electric_scooter", "fusion_lon": 0.0, "is_reserved": 0, "bike_id": "e6ef296654e6f8881a5d85e62c5adea3", "fusion_lat": 0.0, "is_disabled": 0, "rental_uris": {"ios": "https://dc.lft.to/lastmile_qr_scan", "android": "https://dc.lft.to/lastmile_qr_scan"}}, {"name": "4e1fa6888d3f0e428de6dc554af19b8f", "lon": -77.062678, "lat": 38.90547733333333, "type": "electric_bike", "fusion_lon": 0.0, "is_reserved": 0, "bike_id": "4e1fa6888d3f0e428de6dc554af19b8f", "fusion_lat": 0.0, "is_disabled": 0, "rental_uris": {"ios": "https://dc.lft.to/lastmile_qr_scan", "android": "https://dc.lft.to/lastmile_qr_scan"}}, {"name": "65c6ac3ec3dc7e38a0d1dc78c2b03122", "lon": -77.0455165, "lat": 38.9177165, "type": "electric_scooter", "fusion_lon": 0.0, "is_reserved": 0, "bike_id": "65c6ac3ec3dc7e38a0d1dc78c2b03122", "fusion_lat": 0.0, "is_disabled": 0, "rental_uris": {"ios": "https://dc.lft.to/lastmile_qr_scan", "android": "https://dc.lft.to/lastmile_qr_scan"}}, {"name": "a98e7d5fd81aa4fd8856d851b1fbf651", "lon": -77.04158666666666, "lat": 38.919527333333335, "type": "electric_scooter", "fusion_lon": 0.0, "is_reserved": 0, "bike_id": "a98e7d5fd81aa4fd8856d851b1fbf651", "fusion_lat": 0.0, "is_disabled": 0, "rental_uris": {"ios": "https://dc.lft.to/lastmile_qr_scan", "android": "https://dc.lft.to/lastmile_qr_scan"}}, {"name": "446dace5f7df9b2138cc6631bace5914", "lon": -77.034455, "lat": 38.910105333333334, "type": "electric_scooter", "fusion_lon": 0.0, "is_reserved": 0, "bike_id": "446dace5f7df9b2138cc6631bace5914", "fusion_lat": 0.0, "is_disabled": 0, "rental_uris": {"ios": "https://dc.lft.to/lastmile_qr_scan", "android": "https://dc.lft.to/lastmile_qr_scan"}}, {"name": "7ad72e5749cb75fef6a9c3056a75d93f", "lon": -77.02296733333333, "lat": 38.917916, "type": "electric_scooter", "fusion_lon": 0.0, "is_reserved": 0, "bike_id": "7ad72e5749cb75fef6a9c3056a75d93f", "fusion_lat": 0.0, "is_disabled": 0, "rental_uris": {"ios": "https://dc.lft.to/lastmile_qr_scan", "android": "https://dc.lft.to/lastmile_qr_scan"}}, {"name": "c7a2aa4730fa8e22c437cb083aa386dd", "lon": -77.03845416666667, "lat": 38.9216675, "type": "electric_scooter", "fusion_lon": 0.0, "is_reserved": 0, "bike_id": "c7a2aa4730fa8e22c437cb083aa386dd", "fusion_lat": 0.0, "is_disabled": 0, "rental_uris": {"ios": "https://dc.lft.to/lastmile_qr_scan", "android": "https://dc.lft.to/lastmile_qr_scan"}}, {"name": "6000dc9b2c973faa782439df948c31e6", "lon": -76.93642583333333, "lat": 38.8715255, "type": "electric_bike", "fusion_lon": 0.0, "is_reserved": 0, "bike_id": "6000dc9b2c973faa782439df948c31e6", "fusion_lat": 0.0, "is_disabled": 0, "rental_uris": {"ios": "https://dc.lft.to/lastmile_qr_scan", "android": "https://dc.lft.to/lastmile_qr_scan"}}, {"name": "126d8c5780b5b96597223430349648d1", "lon": -77.01138133333333, "lat": 38.90644733333333, "type": "electric_scooter", "fusion_lon": 0.0, "is_reserved": 0, "bike_id": "126d8c5780b5b96597223430349648d1", "fusion_lat": 0.0, "is_disabled": 0, "rental_uris": {"ios": "https://dc.lft.to/lastmile_qr_scan", "android": "https://dc.lft.to/lastmile_qr_scan"}}, {"name": "35d976dde90ea1a8b105db4a726b8f68", "lon": -77.03115916666667, "lat": 38.9170425, "type": "electric_scooter", "fusion_lon": 0.0, "is_reserved": 0, "bike_id": "35d976dde90ea1a8b105db4a726b8f68", "fusion_lat": 0.0, "is_disabled": 0, "rental_uris": {"ios": "https://dc.lft.to/lastmile_qr_scan", "android": "https://dc.lft.to/lastmile_qr_scan"}}, {"name": "26026dac23f78047f936a18400fe718f", "lon": -77.02438416666666, "lat": 38.90973016666667, "type": "electric_scooter", "fusion_lon": 0.0, "is_reserved": 0, "bike_id": "26026dac23f78047f936a18400fe718f", "fusion_lat": 0.0, "is_disabled": 0, "rental_uris": {"ios": "https://dc.lft.to/lastmile_qr_scan", "android": "https://dc.lft.to/lastmile_qr_scan"}}, {"name": "936f9e36c8e566b797247c5e3251dec4", "lon": -76.99014833333334, "lat": 38.90507233333334, "type": "electric_scooter", "fusion_lon": 0.0, "is_reserved": 0, "bike_id": "936f9e36c8e566b797247c5e3251dec4", "fusion_lat": 0.0, "is_disabled": 0, "rental_uris": {"ios": "https://dc.lft.to/lastmile_qr_scan", "android": "https://dc.lft.to/lastmile_qr_scan"}}, {"name": "4833525ac0dff1cd529d6fe6f427f648", "lon": -77.0446235, "lat": 38.91890166666666, "type": "electric_scooter", "fusion_lon": 0.0, "is_reserved": 0, "bike_id": "4833525ac0dff1cd529d6fe6f427f648", "fusion_lat": 0.0, "is_disabled": 0, "rental_uris": {"ios": "https://dc.lft.to/lastmile_qr_scan", "android": "https://dc.lft.to/lastmile_qr_scan"}}, {"name": "90c20544c5e26c0b42183c5c6784ac21", "lon": -76.966045, "lat": 38.873856333333336, "type": "electric_scooter", "fusion_lon": 0.0, "is_reserved": 0, "bike_id": "90c20544c5e26c0b42183c5c6784ac21", "fusion_lat": 0.0, "is_disabled": 0, "rental_uris": {"ios": "https://dc.lft.to/lastmile_qr_scan", "android": "https://dc.lft.to/lastmile_qr_scan"}}, {"name": "a2b444228fcaf395868941b9ddd543ea", "lon": -77.00185116666667, "lat": 38.90010316666667, "type": "electric_scooter", "fusion_lon": 0.0, "is_reserved": 0, "bike_id": "a2b444228fcaf395868941b9ddd543ea", "fusion_lat": 0.0, "is_disabled": 0, "rental_uris": {"ios": "https://dc.lft.to/lastmile_qr_scan", "android": "https://dc.lft.to/lastmile_qr_scan"}}, {"name": "76611b2660b34e465f755daf15ded464", "lon": -77.01535566666666, "lat": 38.8874085, "type": "electric_scooter", "fusion_lon": 0.0, "is_reserved": 0, "bike_id": "76611b2660b34e465f755daf15ded464", "fusion_lat": 0.0, "is_disabled": 0, "rental_uris": {"ios": "https://dc.lft.to/lastmile_qr_scan", "android": "https://dc.lft.to/lastmile_qr_scan"}}, {"name": "bfe4db64ef3944a30080729df4affa00", "lon": -77.05911833333333, "lat": 38.901035666666665, "type": "electric_scooter", "fusion_lon": 0.0, "is_reserved": 0, "bike_id": "bfe4db64ef3944a30080729df4affa00", "fusion_lat": 0.0, "is_disabled": 0, "rental_uris": {"ios": "https://dc.lft.to/lastmile_qr_scan", "android": "https://dc.lft.to/lastmile_qr_scan"}}, {"name": "e0a460f886abc13ca9675362eba2c1c6", "lon": -77.0471235, "lat": 38.897312, "type": "electric_scooter", "fusion_lon": 0.0, "is_reserved": 0, "bike_id": "e0a460f886abc13ca9675362eba2c1c6", "fusion_lat": 0.0, "is_disabled": 0, "rental_uris": {"ios": "https://dc.lft.to/lastmile_qr_scan", "android": "https://dc.lft.to/lastmile_qr_scan"}}, {"name": "83bd7c462a7c34c1df22fefcba069b03", "lon": -76.9809055, "lat": 38.953576, "type": "electric_bike", "fusion_lon": 0.0, "is_reserved": 0, "bike_id": "83bd7c462a7c34c1df22fefcba069b03", "fusion_lat": 0.0, "is_disabled": 0, "rental_uris": {"ios": "https://dc.lft.to/lastmile_qr_scan", "android": "https://dc.lft.to/lastmile_qr_scan"}}, {"name": "4670604a560bec1ed9b7a49b8f5e4347", "lon": -77.04697383333334, "lat": 38.92172133333333, "type": "electric_scooter", "fusion_lon": 0.0, "is_reserved": 0, "bike_id": "4670604a560bec1ed9b7a49b8f5e4347", "fusion_lat": 0.0, "is_disabled": 0, "rental_uris": {"ios": "https://dc.lft.to/lastmile_qr_scan", "android": "https://dc.lft.to/lastmile_qr_scan"}}, {"name": "3389861748d6f642500f6e3537c9e347", "lon": -76.99510616666667, "lat": 38.86253833333333, "type": "electric_scooter", "fusion_lon": 0.0, "is_reserved": 0, "bike_id": "3389861748d6f642500f6e3537c9e347", "fusion_lat": 0.0, "is_disabled": 0, "rental_uris": {"ios": "https://dc.lft.to/lastmile_qr_scan", "android": "https://dc.lft.to/lastmile_qr_scan"}}, {"name": "48cd139400d9bb4f6026d4c12d37cd60", "lon": -77.0120125, "lat": 38.917094666666664, "type": "electric_scooter", "fusion_lon": 0.0, "is_reserved": 0, "bike_id": "48cd139400d9bb4f6026d4c12d37cd60", "fusion_lat": 0.0, "is_disabled": 0, "rental_uris": {"ios": "https://dc.lft.to/lastmile_qr_scan", "android": "https://dc.lft.to/lastmile_qr_scan"}}, {"name": "31e939e0d4a039c7041aedeef179fe45", "lon": -77.01746916666667, "lat": 38.887394, "type": "electric_scooter", "fusion_lon": 0.0, "is_reserved": 0, "bike_id": "31e939e0d4a039c7041aedeef179fe45", "fusion_lat": 0.0, "is_disabled": 0, "rental_uris": {"ios": "https://dc.lft.to/lastmile_qr_scan", "android": "https://dc.lft.to/lastmile_qr_scan"}}, {"name": "067184ec3bf8ac6010e173737be68db0", "lon": -77.051551, "lat": 38.904281, "type": "electric_scooter", "fusion_lon": 0.0, "is_reserved": 0, "bike_id": "067184ec3bf8ac6010e173737be68db0", "fusion_lat": 0.0, "is_disabled": 0, "rental_uris": {"ios": "https://dc.lft.to/lastmile_qr_scan", "android": "https://dc.lft.to/lastmile_qr_scan"}}, {"name": "64a74ab41c3798f90658c1cb0dc09e1c", "lon": -76.9687, "lat": 38.870907, "type": "electric_scooter", "fusion_lon": 0.0, "is_reserved": 0, "bike_id": "64a74ab41c3798f90658c1cb0dc09e1c", "fusion_lat": 0.0, "is_disabled": 0, "rental_uris": {"ios": "https://dc.lft.to/lastmile_qr_scan", "android": "https://dc.lft.to/lastmile_qr_scan"}}, {"name": "f82a34d892864e97a0985f4400ce9f0a", "lon": -77.02677566666667, "lat": 38.92779016666667, "type": "electric_scooter", "fusion_lon": 0.0, "is_reserved": 0, "bike_id": "f82a34d892864e97a0985f4400ce9f0a", "fusion_lat": 0.0, "is_disabled": 0, "rental_uris": {"ios": "https://dc.lft.to/lastmile_qr_scan", "android": "https://dc.lft.to/lastmile_qr_scan"}}, {"name": "09d684ab6fac58c8309e204ce5f9365e", "lon": -76.96007166666666, "lat": 38.896482666666664, "type": "electric_scooter", "fusion_lon": 0.0, "is_reserved": 0, "bike_id": "09d684ab6fac58c8309e204ce5f9365e", "fusion_lat": 0.0, "is_disabled": 0, "rental_uris": {"ios": "https://dc.lft.to/lastmile_qr_scan", "android": "https://dc.lft.to/lastmile_qr_scan"}}, {"name": "9f5cfddc6b9ef10dcac0ee4a33eacac4", "lon": -77.03501433333334, "lat": 38.932657666666664, "type": "electric_scooter", "fusion_lon": 0.0, "is_reserved": 0, "bike_id": "9f5cfddc6b9ef10dcac0ee4a33eacac4", "fusion_lat": 0.0, "is_disabled": 0, "rental_uris": {"ios": "https://dc.lft.to/lastmile_qr_scan", "android": "https://dc.lft.to/lastmile_qr_scan"}}, {"name": "98a4e762c2696e8dbd44edd0293861e6", "lon": -77.02812616666667, "lat": 38.916314666666665, "type": "electric_scooter", "fusion_lon": 0.0, "is_reserved": 0, "bike_id": "98a4e762c2696e8dbd44edd0293861e6", "fusion_lat": 0.0, "is_disabled": 0, "rental_uris": {"ios": "https://dc.lft.to/lastmile_qr_scan", "android": "https://dc.lft.to/lastmile_qr_scan"}}, {"name": "22427699fdbcb2b0e102e5ffed623689", "lon": -77.078142, "lat": 38.84908266666667, "type": "electric_bike", "fusion_lon": 0.0, "is_reserved": 0, "bike_id": "22427699fdbcb2b0e102e5ffed623689", "fusion_lat": 0.0, "is_disabled": 0, "rental_uris": {"ios": "https://dc.lft.to/lastmile_qr_scan", "android": "https://dc.lft.to/lastmile_qr_scan"}}, {"name": "004dab5c3cfb35e3f688638f295b8703", "lon": -77.03516616666667, "lat": 38.90682066666667, "type": "electric_scooter", "fusion_lon": 0.0, "is_reserved": 0, "bike_id": "004dab5c3cfb35e3f688638f295b8703", "fusion_lat": 0.0, "is_disabled": 0, "rental_uris": {"ios": "https://dc.lft.to/lastmile_qr_scan", "android": "https://dc.lft.to/lastmile_qr_scan"}}, {"name": "69704efc5884f1c71763b6b2761a6d7c", "lon": -77.02478716666667, "lat": 38.909720666666665, "type": "electric_scooter", "fusion_lon": 0.0, "is_reserved": 0, "bike_id": "69704efc5884f1c71763b6b2761a6d7c", "fusion_lat": 0.0, "is_disabled": 0, "rental_uris": {"ios": "https://dc.lft.to/lastmile_qr_scan", "android": "https://dc.lft.to/lastmile_qr_scan"}}, {"name": "da9af96a4808b857a1e1a62645aeb8c7", "lon": -77.02551716666666, "lat": 38.9422515, "type": "electric_scooter", "fusion_lon": 0.0, "is_reserved": 0, "bike_id": "da9af96a4808b857a1e1a62645aeb8c7", "fusion_lat": 0.0, "is_disabled": 0, "rental_uris": {"ios": "https://dc.lft.to/lastmile_qr_scan", "android": "https://dc.lft.to/lastmile_qr_scan"}}, {"name": "8dd2f0532be75a934eb3a138693f67c0", "lon": -76.98090066666667, "lat": 38.95361533333333, "type": "electric_bike", "fusion_lon": 0.0, "is_reserved": 0, "bike_id": "8dd2f0532be75a934eb3a138693f67c0", "fusion_lat": 0.0, "is_disabled": 0, "rental_uris": {"ios": "https://dc.lft.to/lastmile_qr_scan", "android": "https://dc.lft.to/lastmile_qr_scan"}}, {"name": "30f1e124ffe283e5fe69547ec406201c", "lon": -77.025994, "lat": 38.8967775, "type": "electric_scooter", "fusion_lon": 0.0, "is_reserved": 0, "bike_id": "30f1e124ffe283e5fe69547ec406201c", "fusion_lat": 0.0, "is_disabled": 0, "rental_uris": {"ios": "https://dc.lft.to/lastmile_qr_scan", "android": "https://dc.lft.to/lastmile_qr_scan"}}, {"name": "46e3cf10a3194dd02bede5938cfb4ce5", "lon": -77.023246, "lat": 38.907267, "type": "electric_scooter", "fusion_lon": 0.0, "is_reserved": 0, "bike_id": "46e3cf10a3194dd02bede5938cfb4ce5", "fusion_lat": 0.0, "is_disabled": 0, "rental_uris": {"ios": "https://dc.lft.to/lastmile_qr_scan", "android": "https://dc.lft.to/lastmile_qr_scan"}}, {"name": "c1e04bf5c220f8eb592d630a20b0f54e", "lon": -77.00200366666667, "lat": 38.902474, "type": "electric_scooter", "fusion_lon": 0.0, "is_reserved": 0, "bike_id": "c1e04bf5c220f8eb592d630a20b0f54e", "fusion_lat": 0.0, "is_disabled": 0, "rental_uris": {"ios": "https://dc.lft.to/lastmile_qr_scan", "android": "https://dc.lft.to/lastmile_qr_scan"}}, {"name": "e26f6a981849debe0349d9bac6b6effc", "lon": -77.03855116666666, "lat": 38.91565216666667, "type": "electric_scooter", "fusion_lon": 0.0, "is_reserved": 0, "bike_id": "e26f6a981849debe0349d9bac6b6effc", "fusion_lat": 0.0, "is_disabled": 0, "rental_uris": {"ios": "https://dc.lft.to/lastmile_qr_scan", "android": "https://dc.lft.to/lastmile_qr_scan"}}, {"name": "66dfd4d0059762cff5d5fac3a5b7970b", "lon": -77.0435225, "lat": 38.9079535, "type": "electric_scooter", "fusion_lon": 0.0, "is_reserved": 0, "bike_id": "66dfd4d0059762cff5d5fac3a5b7970b", "fusion_lat": 0.0, "is_disabled": 0, "rental_uris": {"ios": "https://dc.lft.to/lastmile_qr_scan", "android": "https://dc.lft.to/lastmile_qr_scan"}}, {"name": "6e92cd460a03ffe7630992941c562e01", "lon": -76.995249, "lat": 38.926694833333336, "type": "electric_scooter", "fusion_lon": 0.0, "is_reserved": 0, "bike_id": "6e92cd460a03ffe7630992941c562e01", "fusion_lat": 0.0, "is_disabled": 0, "rental_uris": {"ios": "https://dc.lft.to/lastmile_qr_scan", "android": "https://dc.lft.to/lastmile_qr_scan"}}, {"name": "d1513c661fd4af60048b60873102cf8e", "lon": -77.0323895, "lat": 38.9155035, "type": "electric_scooter", "fusion_lon": 0.0, "is_reserved": 0, "bike_id": "d1513c661fd4af60048b60873102cf8e", "fusion_lat": 0.0, "is_disabled": 0, "rental_uris": {"ios": "https://dc.lft.to/lastmile_qr_scan", "android": "https://dc.lft.to/lastmile_qr_scan"}}, {"name": "64bed035313861b75bd7a4cb20e4f0a4", "lon": -77.02194583333333, "lat": 38.911276, "type": "electric_scooter", "fusion_lon": 0.0, "is_reserved": 0, "bike_id": "64bed035313861b75bd7a4cb20e4f0a4", "fusion_lat": 0.0, "is_disabled": 0, "rental_uris": {"ios": "https://dc.lft.to/lastmile_qr_scan", "android": "https://dc.lft.to/lastmile_qr_scan"}}, {"name": "da87c02ddd2c538063b5721f11732683", "lon": -77.09797566666667, "lat": 38.8502585, "type": "electric_bike", "fusion_lon": 0.0, "is_reserved": 0, "bike_id": "da87c02ddd2c538063b5721f11732683", "fusion_lat": 0.0, "is_disabled": 0, "rental_uris": {"ios": "https://dc.lft.to/lastmile_qr_scan", "android": "https://dc.lft.to/lastmile_qr_scan"}}, {"name": "a9bbf4513c8f2c6c75e9269be1961b30", "lon": -77.02895, "lat": 38.91703016666666, "type": "electric_scooter", "fusion_lon": 0.0, "is_reserved": 0, "bike_id": "a9bbf4513c8f2c6c75e9269be1961b30", "fusion_lat": 0.0, "is_disabled": 0, "rental_uris": {"ios": "https://dc.lft.to/lastmile_qr_scan", "android": "https://dc.lft.to/lastmile_qr_scan"}}, {"name": "fd689fb14135365ecb9cb5d42c4678df", "lon": -77.00909966666667, "lat": 38.914454666666664, "type": "electric_scooter", "fusion_lon": 0.0, "is_reserved": 0, "bike_id": "fd689fb14135365ecb9cb5d42c4678df", "fusion_lat": 0.0, "is_disabled": 0, "rental_uris": {"ios": "https://dc.lft.to/lastmile_qr_scan", "android": "https://dc.lft.to/lastmile_qr_scan"}}, {"name": "a6e39119e12396bf9d31a1980ed12e6c", "lon": -77.01165616666667, "lat": 38.91561933333333, "type": "electric_scooter", "fusion_lon": 0.0, "is_reserved": 0, "bike_id": "a6e39119e12396bf9d31a1980ed12e6c", "fusion_lat": 0.0, "is_disabled": 0, "rental_uris": {"ios": "https://dc.lft.to/lastmile_qr_scan", "android": "https://dc.lft.to/lastmile_qr_scan"}}, {"name": "a52d88fe629d1c48cbac09c66a026ffa", "lon": -77.03045083333333, "lat": 38.88405133333333, "type": "electric_scooter", "fusion_lon": 0.0, "is_reserved": 0, "bike_id": "a52d88fe629d1c48cbac09c66a026ffa", "fusion_lat": 0.0, "is_disabled": 0, "rental_uris": {"ios": "https://dc.lft.to/lastmile_qr_scan", "android": "https://dc.lft.to/lastmile_qr_scan"}}, {"name": "db16bbba801129e151da43772af84f17", "lon": -77.02810366666667, "lat": 38.9607955, "type": "electric_scooter", "fusion_lon": 0.0, "is_reserved": 0, "bike_id": "db16bbba801129e151da43772af84f17", "fusion_lat": 0.0, "is_disabled": 0, "rental_uris": {"ios": "https://dc.lft.to/lastmile_qr_scan", "android": "https://dc.lft.to/lastmile_qr_scan"}}, {"name": "2839be516479e50cb862941b9857397d", "lon": -77.04691516666666, "lat": 38.921604, "type": "electric_scooter", "fusion_lon": 0.0, "is_reserved": 0, "bike_id": "2839be516479e50cb862941b9857397d", "fusion_lat": 0.0, "is_disabled": 0, "rental_uris": {"ios": "https://dc.lft.to/lastmile_qr_scan", "android": "https://dc.lft.to/lastmile_qr_scan"}}, {"name": "d76f672dfd7ec5ce8ddd41e310d5f632", "lon": -77.05342783333333, "lat": 38.90004733333333, "type": "electric_scooter", "fusion_lon": 0.0, "is_reserved": 0, "bike_id": "d76f672dfd7ec5ce8ddd41e310d5f632", "fusion_lat": 0.0, "is_disabled": 0, "rental_uris": {"ios": "https://dc.lft.to/lastmile_qr_scan", "android": "https://dc.lft.to/lastmile_qr_scan"}}, {"name": "6c4200953336ff71d18c004a74bdf2a5", "lon": -77.03639183333334, "lat": 38.90388883333333, "type": "electric_scooter", "fusion_lon": 0.0, "is_reserved": 0, "bike_id": "6c4200953336ff71d18c004a74bdf2a5", "fusion_lat": 0.0, "is_disabled": 0, "rental_uris": {"ios": "https://dc.lft.to/lastmile_qr_scan", "android": "https://dc.lft.to/lastmile_qr_scan"}}, {"name": "ac595bd912aec51c74c441bdbc49fcab", "lon": -77.00596883333333, "lat": 38.9054725, "type": "electric_scooter", "fusion_lon": 0.0, "is_reserved": 0, "bike_id": "ac595bd912aec51c74c441bdbc49fcab", "fusion_lat": 0.0, "is_disabled": 0, "rental_uris": {"ios": "https://dc.lft.to/lastmile_qr_scan", "android": "https://dc.lft.to/lastmile_qr_scan"}}, {"name": "4dcc259dfe6a285abed386ff8802e5dc", "lon": -77.01742716666666, "lat": 38.883368833333336, "type": "electric_scooter", "fusion_lon": 0.0, "is_reserved": 0, "bike_id": "4dcc259dfe6a285abed386ff8802e5dc", "fusion_lat": 0.0, "is_disabled": 0, "rental_uris": {"ios": "https://dc.lft.to/lastmile_qr_scan", "android": "https://dc.lft.to/lastmile_qr_scan"}}, {"name": "874406671159f651b48377ed2858aa17", "lon": -77.03909383333334, "lat": 38.918307666666664, "type": "electric_scooter", "fusion_lon": 0.0, "is_reserved": 0, "bike_id": "874406671159f651b48377ed2858aa17", "fusion_lat": 0.0, "is_disabled": 0, "rental_uris": {"ios": "https://dc.lft.to/lastmile_qr_scan", "android": "https://dc.lft.to/lastmile_qr_scan"}}, {"name": "cbb3643c0a6e26c7a55899ff3e5f083e", "lon": -77.03867866666667, "lat": 38.91176033333333, "type": "electric_scooter", "fusion_lon": 0.0, "is_reserved": 0, "bike_id": "cbb3643c0a6e26c7a55899ff3e5f083e", "fusion_lat": 0.0, "is_disabled": 0, "rental_uris": {"ios": "https://dc.lft.to/lastmile_qr_scan", "android": "https://dc.lft.to/lastmile_qr_scan"}}, {"name": "7dd0c76acb2588239d9f90f397bd930c", "lon": -77.011768, "lat": 38.917098333333335, "type": "electric_scooter", "fusion_lon": 0.0, "is_reserved": 0, "bike_id": "7dd0c76acb2588239d9f90f397bd930c", "fusion_lat": 0.0, "is_disabled": 0, "rental_uris": {"ios": "https://dc.lft.to/lastmile_qr_scan", "android": "https://dc.lft.to/lastmile_qr_scan"}}, {"name": "09a08d4da8700c751f99f425f27e86a6", "lon": -76.99774016666667, "lat": 38.844351, "type": "electric_scooter", "fusion_lon": 0.0, "is_reserved": 0, "bike_id": "09a08d4da8700c751f99f425f27e86a6", "fusion_lat": 0.0, "is_disabled": 0, "rental_uris": {"ios": "https://dc.lft.to/lastmile_qr_scan", "android": "https://dc.lft.to/lastmile_qr_scan"}}, {"name": "6372163e88578ea10f58d97076a9a710", "lon": -77.022578, "lat": 38.92307983333333, "type": "electric_scooter", "fusion_lon": 0.0, "is_reserved": 0, "bike_id": "6372163e88578ea10f58d97076a9a710", "fusion_lat": 0.0, "is_disabled": 0, "rental_uris": {"ios": "https://dc.lft.to/lastmile_qr_scan", "android": "https://dc.lft.to/lastmile_qr_scan"}}, {"name": "0c5cc81178b4a06c40919fd97cf913d5", "lon": -77.095236, "lat": 38.83815533333333, "type": "electric_bike", "fusion_lon": 0.0, "is_reserved": 0, "bike_id": "0c5cc81178b4a06c40919fd97cf913d5", "fusion_lat": 0.0, "is_disabled": 0, "rental_uris": {"ios": "https://dc.lft.to/lastmile_qr_scan", "android": "https://dc.lft.to/lastmile_qr_scan"}}, {"name": "c2c92a8cfa5948a27af4b86f74c95c21", "lon": -77.032029, "lat": 38.914254166666666, "type": "electric_scooter", "fusion_lon": 0.0, "is_reserved": 0, "bike_id": "c2c92a8cfa5948a27af4b86f74c95c21", "fusion_lat": 0.0, "is_disabled": 0, "rental_uris": {"ios": "https://dc.lft.to/lastmile_qr_scan", "android": "https://dc.lft.to/lastmile_qr_scan"}}, {"name": "76423d245b6bd6add07d750bb88ff4e7", "lon": -77.0385145, "lat": 38.91556033333333, "type": "electric_scooter", "fusion_lon": 0.0, "is_reserved": 0, "bike_id": "76423d245b6bd6add07d750bb88ff4e7", "fusion_lat": 0.0, "is_disabled": 0, "rental_uris": {"ios": "https://dc.lft.to/lastmile_qr_scan", "android": "https://dc.lft.to/lastmile_qr_scan"}}, {"name": "0cd1883caf68030521b6fad3a88bf4b8", "lon": -77.03099383333333, "lat": 38.92857266666667, "type": "electric_scooter", "fusion_lon": 0.0, "is_reserved": 0, "bike_id": "0cd1883caf68030521b6fad3a88bf4b8", "fusion_lat": 0.0, "is_disabled": 0, "rental_uris": {"ios": "https://dc.lft.to/lastmile_qr_scan", "android": "https://dc.lft.to/lastmile_qr_scan"}}, {"name": "ed4dc0a65fdc50923d2352efd826eb3f", "lon": -76.996215, "lat": 38.900340166666666, "type": "electric_scooter", "fusion_lon": 0.0, "is_reserved": 0, "bike_id": "ed4dc0a65fdc50923d2352efd826eb3f", "fusion_lat": 0.0, "is_disabled": 0, "rental_uris": {"ios": "https://dc.lft.to/lastmile_qr_scan", "android": "https://dc.lft.to/lastmile_qr_scan"}}, {"name": "a63bbafeefc768ab28c939cc27b968c2", "lon": -77.024965, "lat": 38.9063815, "type": "electric_scooter", "fusion_lon": 0.0, "is_reserved": 0, "bike_id": "a63bbafeefc768ab28c939cc27b968c2", "fusion_lat": 0.0, "is_disabled": 0, "rental_uris": {"ios": "https://dc.lft.to/lastmile_qr_scan", "android": "https://dc.lft.to/lastmile_qr_scan"}}, {"name": "733d9633256ed0ee315a78f25cc99b89", "lon": -77.03207333333333, "lat": 38.89535166666667, "type": "electric_scooter", "fusion_lon": 0.0, "is_reserved": 0, "bike_id": "733d9633256ed0ee315a78f25cc99b89", "fusion_lat": 0.0, "is_disabled": 0, "rental_uris": {"ios": "https://dc.lft.to/lastmile_qr_scan", "android": "https://dc.lft.to/lastmile_qr_scan"}}, {"name": "e8e402b927159d437620a32e0ea0b1ca", "lon": -77.0482905, "lat": 38.91102266666667, "type": "electric_scooter", "fusion_lon": 0.0, "is_reserved": 0, "bike_id": "e8e402b927159d437620a32e0ea0b1ca", "fusion_lat": 0.0, "is_disabled": 0, "rental_uris": {"ios": "https://dc.lft.to/lastmile_qr_scan", "android": "https://dc.lft.to/lastmile_qr_scan"}}, {"name": "7677337158b6f6fb47493d72922dd613", "lon": -77.02180666666666, "lat": 38.92495133333333, "type": "electric_scooter", "fusion_lon": 0.0, "is_reserved": 0, "bike_id": "7677337158b6f6fb47493d72922dd613", "fusion_lat": 0.0, "is_disabled": 0, "rental_uris": {"ios": "https://dc.lft.to/lastmile_qr_scan", "android": "https://dc.lft.to/lastmile_qr_scan"}}, {"name": "a04905f53b31321988f7a1a4511066d3", "lon": -76.97556283333333, "lat": 38.924552, "type": "electric_bike", "fusion_lon": 0.0, "is_reserved": 0, "bike_id": "a04905f53b31321988f7a1a4511066d3", "fusion_lat": 0.0, "is_disabled": 0, "rental_uris": {"ios": "https://dc.lft.to/lastmile_qr_scan", "android": "https://dc.lft.to/lastmile_qr_scan"}}, {"name": "c13dfd0e9942f65e0dbafa042549c448", "lon": -77.0019665, "lat": 38.902389, "type": "electric_scooter", "fusion_lon": 0.0, "is_reserved": 0, "bike_id": "c13dfd0e9942f65e0dbafa042549c448", "fusion_lat": 0.0, "is_disabled": 0, "rental_uris": {"ios": "https://dc.lft.to/lastmile_qr_scan", "android": "https://dc.lft.to/lastmile_qr_scan"}}, {"name": "07285beb2eb7fa124d8f0bc444e3ff4d", "lon": -77.043018, "lat": 38.9054395, "type": "electric_scooter", "fusion_lon": 0.0, "is_reserved": 0, "bike_id": "07285beb2eb7fa124d8f0bc444e3ff4d", "fusion_lat": 0.0, "is_disabled": 0, "rental_uris": {"ios": "https://dc.lft.to/lastmile_qr_scan", "android": "https://dc.lft.to/lastmile_qr_scan"}}, {"name": "bf8e12db2faf925258f610dbcdd9a638", "lon": -77.22797783333333, "lat": 38.9101505, "type": "electric_bike", "fusion_lon": 0.0, "is_reserved": 0, "bike_id": "bf8e12db2faf925258f610dbcdd9a638", "fusion_lat": 0.0, "is_disabled": 0, "rental_uris": {"ios": "https://dc.lft.to/lastmile_qr_scan", "android": "https://dc.lft.to/lastmile_qr_scan"}}, {"name": "852d60139545b00609c24aa9101aad18", "lon": -77.04560416666666, "lat": 38.924170833333335, "type": "electric_scooter", "fusion_lon": 0.0, "is_reserved": 0, "bike_id": "852d60139545b00609c24aa9101aad18", "fusion_lat": 0.0, "is_disabled": 0, "rental_uris": {"ios": "https://dc.lft.to/lastmile_qr_scan", "android": "https://dc.lft.to/lastmile_qr_scan"}}, {"name": "3309973ce5706ae31567d3ce13f33dea", "lon": -77.038596, "lat": 38.907801666666664, "type": "electric_scooter", "fusion_lon": 0.0, "is_reserved": 0, "bike_id": "3309973ce5706ae31567d3ce13f33dea", "fusion_lat": 0.0, "is_disabled": 0, "rental_uris": {"ios": "https://dc.lft.to/lastmile_qr_scan", "android": "https://dc.lft.to/lastmile_qr_scan"}}, {"name": "dc5ae0ae0149b9071d78d78d67605dea", "lon": -77.0409865, "lat": 38.91063583333333, "type": "electric_scooter", "fusion_lon": 0.0, "is_reserved": 0, "bike_id": "dc5ae0ae0149b9071d78d78d67605dea", "fusion_lat": 0.0, "is_disabled": 0, "rental_uris": {"ios": "https://dc.lft.to/lastmile_qr_scan", "android": "https://dc.lft.to/lastmile_qr_scan"}}, {"name": "b392f5e4c8493eadf2a8427ac36cf32a", "lon": -77.014197, "lat": 38.906523666666665, "type": "electric_scooter", "fusion_lon": 0.0, "is_reserved": 0, "bike_id": "b392f5e4c8493eadf2a8427ac36cf32a", "fusion_lat": 0.0, "is_disabled": 0, "rental_uris": {"ios": "https://dc.lft.to/lastmile_qr_scan", "android": "https://dc.lft.to/lastmile_qr_scan"}}, {"name": "209c5412c8b9297db576053197b3642d", "lon": -77.03399666666667, "lat": 38.928448, "type": "electric_scooter", "fusion_lon": 0.0, "is_reserved": 0, "bike_id": "209c5412c8b9297db576053197b3642d", "fusion_lat": 0.0, "is_disabled": 0, "rental_uris": {"ios": "https://dc.lft.to/lastmile_qr_scan", "android": "https://dc.lft.to/lastmile_qr_scan"}}, {"name": "939a76ad10f56265ce6949af7f148d8c", "lon": -76.99414933333334, "lat": 38.92101133333333, "type": "electric_scooter", "fusion_lon": 0.0, "is_reserved": 0, "bike_id": "939a76ad10f56265ce6949af7f148d8c", "fusion_lat": 0.0, "is_disabled": 0, "rental_uris": {"ios": "https://dc.lft.to/lastmile_qr_scan", "android": "https://dc.lft.to/lastmile_qr_scan"}}, {"name": "f86a516e759e56b0cf161d13cde7652a", "lon": -77.01108966666666, "lat": 38.895044166666665, "type": "electric_scooter", "fusion_lon": 0.0, "is_reserved": 0, "bike_id": "f86a516e759e56b0cf161d13cde7652a", "fusion_lat": 0.0, "is_disabled": 0, "rental_uris": {"ios": "https://dc.lft.to/lastmile_qr_scan", "android": "https://dc.lft.to/lastmile_qr_scan"}}, {"name": "39d4fe8f5e6b022cfb1569e238f00340", "lon": -77.00240166666667, "lat": 38.95722283333333, "type": "electric_scooter", "fusion_lon": 0.0, "is_reserved": 0, "bike_id": "39d4fe8f5e6b022cfb1569e238f00340", "fusion_lat": 0.0, "is_disabled": 0, "rental_uris": {"ios": "https://dc.lft.to/lastmile_qr_scan", "android": "https://dc.lft.to/lastmile_qr_scan"}}, {"name": "273fc6d15ec263001248491565ab43ab", "lon": -77.03996633333334, "lat": 38.91256166666667, "type": "electric_scooter", "fusion_lon": 0.0, "is_reserved": 0, "bike_id": "273fc6d15ec263001248491565ab43ab", "fusion_lat": 0.0, "is_disabled": 0, "rental_uris": {"ios": "https://dc.lft.to/lastmile_qr_scan", "android": "https://dc.lft.to/lastmile_qr_scan"}}, {"name": "c655f4a1b80afc1129d7c0d749ad9f02", "lon": -77.01506883333333, "lat": 38.9104875, "type": "electric_scooter", "fusion_lon": 0.0, "is_reserved": 0, "bike_id": "c655f4a1b80afc1129d7c0d749ad9f02", "fusion_lat": 0.0, "is_disabled": 0, "rental_uris": {"ios": "https://dc.lft.to/lastmile_qr_scan", "android": "https://dc.lft.to/lastmile_qr_scan"}}, {"name": "65575e99deb597ca0d8847e96f3187bd", "lon": -77.03861683333334, "lat": 38.917112, "type": "electric_scooter", "fusion_lon": 0.0, "is_reserved": 0, "bike_id": "65575e99deb597ca0d8847e96f3187bd", "fusion_lat": 0.0, "is_disabled": 0, "rental_uris": {"ios": "https://dc.lft.to/lastmile_qr_scan", "android": "https://dc.lft.to/lastmile_qr_scan"}}, {"name": "5ef599ea64df3fa704304b104562ea3b", "lon": -77.04132633333333, "lat": 38.922755333333335, "type": "electric_scooter", "fusion_lon": 0.0, "is_reserved": 0, "bike_id": "5ef599ea64df3fa704304b104562ea3b", "fusion_lat": 0.0, "is_disabled": 0, "rental_uris": {"ios": "https://dc.lft.to/lastmile_qr_scan", "android": "https://dc.lft.to/lastmile_qr_scan"}}, {"name": "441433090092b5329ed86818f167eb2a", "lon": -77.02606766666666, "lat": 38.90567716666666, "type": "electric_scooter", "fusion_lon": 0.0, "is_reserved": 0, "bike_id": "441433090092b5329ed86818f167eb2a", "fusion_lat": 0.0, "is_disabled": 0, "rental_uris": {"ios": "https://dc.lft.to/lastmile_qr_scan", "android": "https://dc.lft.to/lastmile_qr_scan"}}, {"name": "3263d68a946463cddbff03822ad02ccb", "lon": -77.008927, "lat": 38.903502833333334, "type": "electric_scooter", "fusion_lon": 0.0, "is_reserved": 0, "bike_id": "3263d68a946463cddbff03822ad02ccb", "fusion_lat": 0.0, "is_disabled": 0, "rental_uris": {"ios": "https://dc.lft.to/lastmile_qr_scan", "android": "https://dc.lft.to/lastmile_qr_scan"}}, {"name": "715fd1d4ddca218ef1ea9a686ac0156a", "lon": -77.0390465, "lat": 38.908029166666665, "type": "electric_scooter", "fusion_lon": 0.0, "is_reserved": 0, "bike_id": "715fd1d4ddca218ef1ea9a686ac0156a", "fusion_lat": 0.0, "is_disabled": 0, "rental_uris": {"ios": "https://dc.lft.to/lastmile_qr_scan", "android": "https://dc.lft.to/lastmile_qr_scan"}}, {"name": "7ac9dedf18a10bd658a2faa3b34955c7", "lon": -77.03213983333333, "lat": 38.909745, "type": "electric_scooter", "fusion_lon": 0.0, "is_reserved": 0, "bike_id": "7ac9dedf18a10bd658a2faa3b34955c7", "fusion_lat": 0.0, "is_disabled": 0, "rental_uris": {"ios": "https://dc.lft.to/lastmile_qr_scan", "android": "https://dc.lft.to/lastmile_qr_scan"}}, {"name": "6777d86be06dd3b4ab6846bbca23eb68", "lon": -76.95978483333333, "lat": 38.8699125, "type": "electric_bike", "fusion_lon": 0.0, "is_reserved": 0, "bike_id": "6777d86be06dd3b4ab6846bbca23eb68", "fusion_lat": 0.0, "is_disabled": 0, "rental_uris": {"ios": "https://dc.lft.to/lastmile_qr_scan", "android": "https://dc.lft.to/lastmile_qr_scan"}}, {"name": "bc24e7217d60bcdad72493f222385f12", "lon": -76.99601133333333, "lat": 38.85689416666666, "type": "electric_scooter", "fusion_lon": 0.0, "is_reserved": 0, "bike_id": "bc24e7217d60bcdad72493f222385f12", "fusion_lat": 0.0, "is_disabled": 0, "rental_uris": {"ios": "https://dc.lft.to/lastmile_qr_scan", "android": "https://dc.lft.to/lastmile_qr_scan"}}, {"name": "01f12629362c31d85e7991060ac55f99", "lon": -77.0318185, "lat": 38.91352216666667, "type": "electric_scooter", "fusion_lon": 0.0, "is_reserved": 0, "bike_id": "01f12629362c31d85e7991060ac55f99", "fusion_lat": 0.0, "is_disabled": 0, "rental_uris": {"ios": "https://dc.lft.to/lastmile_qr_scan", "android": "https://dc.lft.to/lastmile_qr_scan"}}, {"name": "e776eb9208c616a8c8623a09136e4c11", "lon": -77.00835, "lat": 38.82912483333333, "type": "electric_bike", "fusion_lon": 0.0, "is_reserved": 0, "bike_id": "e776eb9208c616a8c8623a09136e4c11", "fusion_lat": 0.0, "is_disabled": 0, "rental_uris": {"ios": "https://dc.lft.to/lastmile_qr_scan", "android": "https://dc.lft.to/lastmile_qr_scan"}}, {"name": "28fffc719a0366771ba65639b62badb3", "lon": -77.03793466666667, "lat": 38.915435333333335, "type": "electric_scooter", "fusion_lon": 0.0, "is_reserved": 0, "bike_id": "28fffc719a0366771ba65639b62badb3", "fusion_lat": 0.0, "is_disabled": 0, "rental_uris": {"ios": "https://dc.lft.to/lastmile_qr_scan", "android": "https://dc.lft.to/lastmile_qr_scan"}}, {"name": "316f7441dabba15d06632774da9e5f34", "lon": -77.03442666666666, "lat": 38.90968433333333, "type": "electric_scooter", "fusion_lon": 0.0, "is_reserved": 0, "bike_id": "316f7441dabba15d06632774da9e5f34", "fusion_lat": 0.0, "is_disabled": 0, "rental_uris": {"ios": "https://dc.lft.to/lastmile_qr_scan", "android": "https://dc.lft.to/lastmile_qr_scan"}}, {"name": "b7b042c5f9a84da37f03a0ad3aaddf92", "lon": -76.94940516666666, "lat": 38.89507733333333, "type": "electric_scooter", "fusion_lon": 0.0, "is_reserved": 0, "bike_id": "b7b042c5f9a84da37f03a0ad3aaddf92", "fusion_lat": 0.0, "is_disabled": 0, "rental_uris": {"ios": "https://dc.lft.to/lastmile_qr_scan", "android": "https://dc.lft.to/lastmile_qr_scan"}}, {"name": "8c419ecd8b7ef4660e9631eb88ba1d39", "lon": -77.07186116666666, "lat": 38.959549833333334, "type": "electric_scooter", "fusion_lon": 0.0, "is_reserved": 0, "bike_id": "8c419ecd8b7ef4660e9631eb88ba1d39", "fusion_lat": 0.0, "is_disabled": 0, "rental_uris": {"ios": "https://dc.lft.to/lastmile_qr_scan", "android": "https://dc.lft.to/lastmile_qr_scan"}}, {"name": "d5b5bd9b5d32494896db137c8e7c8709", "lon": -77.00056183333334, "lat": 38.876751666666664, "type": "electric_scooter", "fusion_lon": 0.0, "is_reserved": 0, "bike_id": "d5b5bd9b5d32494896db137c8e7c8709", "fusion_lat": 0.0, "is_disabled": 0, "rental_uris": {"ios": "https://dc.lft.to/lastmile_qr_scan", "android": "https://dc.lft.to/lastmile_qr_scan"}}, {"name": "03ea02ea29f45d7d0981ae88e72ea783", "lon": -76.99158783333333, "lat": 38.89807533333333, "type": "electric_scooter", "fusion_lon": 0.0, "is_reserved": 0, "bike_id": "03ea02ea29f45d7d0981ae88e72ea783", "fusion_lat": 0.0, "is_disabled": 0, "rental_uris": {"ios": "https://dc.lft.to/lastmile_qr_scan", "android": "https://dc.lft.to/lastmile_qr_scan"}}, {"name": "022d36661170d93cd646d709d20f2bcd", "lon": -77.02686566666667, "lat": 38.9068385, "type": "electric_scooter", "fusion_lon": 0.0, "is_reserved": 0, "bike_id": "022d36661170d93cd646d709d20f2bcd", "fusion_lat": 0.0, "is_disabled": 0, "rental_uris": {"ios": "https://dc.lft.to/lastmile_qr_scan", "android": "https://dc.lft.to/lastmile_qr_scan"}}, {"name": "fa37fa0ff8a8c55d6c156540d4205eb5", "lon": -77.034647, "lat": 38.905586666666665, "type": "electric_scooter", "fusion_lon": 0.0, "is_reserved": 0, "bike_id": "fa37fa0ff8a8c55d6c156540d4205eb5", "fusion_lat": 0.0, "is_disabled": 0, "rental_uris": {"ios": "https://dc.lft.to/lastmile_qr_scan", "android": "https://dc.lft.to/lastmile_qr_scan"}}, {"name": "38979daf8ace7469883528a0de3a92bb", "lon": -76.95640716666666, "lat": 38.895585, "type": "electric_scooter", "fusion_lon": 0.0, "is_reserved": 0, "bike_id": "38979daf8ace7469883528a0de3a92bb", "fusion_lat": 0.0, "is_disabled": 0, "rental_uris": {"ios": "https://dc.lft.to/lastmile_qr_scan", "android": "https://dc.lft.to/lastmile_qr_scan"}}, {"name": "750ba48e04d831281ccc9599d9b245c1", "lon": -76.96529616666666, "lat": 38.8748215, "type": "electric_bike", "fusion_lon": 0.0, "is_reserved": 0, "bike_id": "750ba48e04d831281ccc9599d9b245c1", "fusion_lat": 0.0, "is_disabled": 0, "rental_uris": {"ios": "https://dc.lft.to/lastmile_qr_scan", "android": "https://dc.lft.to/lastmile_qr_scan"}}, {"name": "cf9f0db6494891f59d11632829344ac6", "lon": -77.22218466666666, "lat": 38.928559, "type": "electric_bike", "fusion_lon": 0.0, "is_reserved": 0, "bike_id": "cf9f0db6494891f59d11632829344ac6", "fusion_lat": 0.0, "is_disabled": 0, "rental_uris": {"ios": "https://dc.lft.to/lastmile_qr_scan", "android": "https://dc.lft.to/lastmile_qr_scan"}}, {"name": "2423aabe7b78bbf2330ed00e438daee0", "lon": -77.0326395, "lat": 38.93261416666667, "type": "electric_scooter", "fusion_lon": 0.0, "is_reserved": 0, "bike_id": "2423aabe7b78bbf2330ed00e438daee0", "fusion_lat": 0.0, "is_disabled": 0, "rental_uris": {"ios": "https://dc.lft.to/lastmile_qr_scan", "android": "https://dc.lft.to/lastmile_qr_scan"}}, {"name": "0fb2f5697bb2c8ee86b62ed8c1d3a490", "lon": -77.17839266666667, "lat": 39.088575166666665, "type": "electric_bike", "fusion_lon": 0.0, "is_reserved": 0, "bike_id": "0fb2f5697bb2c8ee86b62ed8c1d3a490", "fusion_lat": 0.0, "is_disabled": 0, "rental_uris": {"ios": "https://dc.lft.to/lastmile_qr_scan", "android": "https://dc.lft.to/lastmile_qr_scan"}}, {"name": "a533e29735f4794610ddd78676aacb16", "lon": -77.032058, "lat": 38.91783216666666, "type": "electric_scooter", "fusion_lon": 0.0, "is_reserved": 0, "bike_id": "a533e29735f4794610ddd78676aacb16", "fusion_lat": 0.0, "is_disabled": 0, "rental_uris": {"ios": "https://dc.lft.to/lastmile_qr_scan", "android": "https://dc.lft.to/lastmile_qr_scan"}}, {"name": "987813dfcfa304886e6d1e0d763ac583", "lon": -77.00966283333334, "lat": 38.907840666666665, "type": "electric_scooter", "fusion_lon": 0.0, "is_reserved": 0, "bike_id": "987813dfcfa304886e6d1e0d763ac583", "fusion_lat": 0.0, "is_disabled": 0, "rental_uris": {"ios": "https://dc.lft.to/lastmile_qr_scan", "android": "https://dc.lft.to/lastmile_qr_scan"}}, {"name": "8babebdbaf1dec124d3426c8c9d12481", "lon": -77.02201, "lat": 38.89990916666667, "type": "electric_scooter", "fusion_lon": 0.0, "is_reserved": 0, "bike_id": "8babebdbaf1dec124d3426c8c9d12481", "fusion_lat": 0.0, "is_disabled": 0, "rental_uris": {"ios": "https://dc.lft.to/lastmile_qr_scan", "android": "https://dc.lft.to/lastmile_qr_scan"}}, {"name": "f4e5a52598812ac7fcef7508f7615470", "lon": -77.0862885, "lat": 38.88182116666667, "type": "electric_bike", "fusion_lon": 0.0, "is_reserved": 0, "bike_id": "f4e5a52598812ac7fcef7508f7615470", "fusion_lat": 0.0, "is_disabled": 0, "rental_uris": {"ios": "https://dc.lft.to/lastmile_qr_scan", "android": "https://dc.lft.to/lastmile_qr_scan"}}, {"name": "56686257ac0f81937ca196eddf9405b2", "lon": -76.96547233333334, "lat": 38.918484666666664, "type": "electric_scooter", "fusion_lon": 0.0, "is_reserved": 0, "bike_id": "56686257ac0f81937ca196eddf9405b2", "fusion_lat": 0.0, "is_disabled": 0, "rental_uris": {"ios": "https://dc.lft.to/lastmile_qr_scan", "android": "https://dc.lft.to/lastmile_qr_scan"}}, {"name": "ec249c2be4c78aaeb21765578de6df0b", "lon": -77.04188083333334, "lat": 38.9168285, "type": "electric_scooter", "fusion_lon": 0.0, "is_reserved": 0, "bike_id": "ec249c2be4c78aaeb21765578de6df0b", "fusion_lat": 0.0, "is_disabled": 0, "rental_uris": {"ios": "https://dc.lft.to/lastmile_qr_scan", "android": "https://dc.lft.to/lastmile_qr_scan"}}, {"name": "2f65064267bbebe5852d7bba780e091f", "lon": -77.02136733333333, "lat": 38.937646666666666, "type": "electric_scooter", "fusion_lon": 0.0, "is_reserved": 0, "bike_id": "2f65064267bbebe5852d7bba780e091f", "fusion_lat": 0.0, "is_disabled": 0, "rental_uris": {"ios": "https://dc.lft.to/lastmile_qr_scan", "android": "https://dc.lft.to/lastmile_qr_scan"}}, {"name": "319ab7288fdf770c1b6c1998881bc3f6", "lon": -77.04653266666666, "lat": 38.91595, "type": "electric_scooter", "fusion_lon": 0.0, "is_reserved": 0, "bike_id": "319ab7288fdf770c1b6c1998881bc3f6", "fusion_lat": 0.0, "is_disabled": 0, "rental_uris": {"ios": "https://dc.lft.to/lastmile_qr_scan", "android": "https://dc.lft.to/lastmile_qr_scan"}}, {"name": "38441dfbc91b8b3b6c653836639e52c2", "lon": -77.03093683333333, "lat": 38.93170583333333, "type": "electric_scooter", "fusion_lon": 0.0, "is_reserved": 0, "bike_id": "38441dfbc91b8b3b6c653836639e52c2", "fusion_lat": 0.0, "is_disabled": 0, "rental_uris": {"ios": "https://dc.lft.to/lastmile_qr_scan", "android": "https://dc.lft.to/lastmile_qr_scan"}}, {"name": "05e263d1cd207c5ba3d95c23aad06ed0", "lon": -77.0280915, "lat": 38.881811166666665, "type": "electric_scooter", "fusion_lon": 0.0, "is_reserved": 0, "bike_id": "05e263d1cd207c5ba3d95c23aad06ed0", "fusion_lat": 0.0, "is_disabled": 0, "rental_uris": {"ios": "https://dc.lft.to/lastmile_qr_scan", "android": "https://dc.lft.to/lastmile_qr_scan"}}, {"name": "d6680a13607b36a7398e646df13534a8", "lon": -77.04107066666667, "lat": 38.91777616666667, "type": "electric_scooter", "fusion_lon": 0.0, "is_reserved": 0, "bike_id": "d6680a13607b36a7398e646df13534a8", "fusion_lat": 0.0, "is_disabled": 0, "rental_uris": {"ios": "https://dc.lft.to/lastmile_qr_scan", "android": "https://dc.lft.to/lastmile_qr_scan"}}, {"name": "a7e6cd13b57502498e4481daccd0bc53", "lon": -77.01745983333333, "lat": 38.88736333333333, "type": "electric_scooter", "fusion_lon": 0.0, "is_reserved": 0, "bike_id": "a7e6cd13b57502498e4481daccd0bc53", "fusion_lat": 0.0, "is_disabled": 0, "rental_uris": {"ios": "https://dc.lft.to/lastmile_qr_scan", "android": "https://dc.lft.to/lastmile_qr_scan"}}, {"name": "d6bdfd4d845213e01be574b58f16a4a3", "lon": -77.043622, "lat": 38.907956, "type": "electric_scooter", "fusion_lon": 0.0, "is_reserved": 0, "bike_id": "d6bdfd4d845213e01be574b58f16a4a3", "fusion_lat": 0.0, "is_disabled": 0, "rental_uris": {"ios": "https://dc.lft.to/lastmile_qr_scan", "android": "https://dc.lft.to/lastmile_qr_scan"}}, {"name": "4216f8df811c76e0df2ace993340c1ee", "lon": -77.0396445, "lat": 38.902617, "type": "electric_scooter", "fusion_lon": 0.0, "is_reserved": 0, "bike_id": "4216f8df811c76e0df2ace993340c1ee", "fusion_lat": 0.0, "is_disabled": 0, "rental_uris": {"ios": "https://dc.lft.to/lastmile_qr_scan", "android": "https://dc.lft.to/lastmile_qr_scan"}}, {"name": "ca0927b344fef217783def74565431ba", "lon": -77.02713066666666, "lat": 38.90671733333333, "type": "electric_scooter", "fusion_lon": 0.0, "is_reserved": 0, "bike_id": "ca0927b344fef217783def74565431ba", "fusion_lat": 0.0, "is_disabled": 0, "rental_uris": {"ios": "https://dc.lft.to/lastmile_qr_scan", "android": "https://dc.lft.to/lastmile_qr_scan"}}, {"name": "36501c9dd64011e0758e2127e19e565a", "lon": -76.98711733333333, "lat": 38.8662525, "type": "electric_scooter", "fusion_lon": 0.0, "is_reserved": 0, "bike_id": "36501c9dd64011e0758e2127e19e565a", "fusion_lat": 0.0, "is_disabled": 0, "rental_uris": {"ios": "https://dc.lft.to/lastmile_qr_scan", "android": "https://dc.lft.to/lastmile_qr_scan"}}, {"name": "9b637b3572db13c218175903ebff4488", "lon": -77.02196416666666, "lat": 38.9112975, "type": "electric_scooter", "fusion_lon": 0.0, "is_reserved": 0, "bike_id": "9b637b3572db13c218175903ebff4488", "fusion_lat": 0.0, "is_disabled": 0, "rental_uris": {"ios": "https://dc.lft.to/lastmile_qr_scan", "android": "https://dc.lft.to/lastmile_qr_scan"}}, {"name": "904ab404a5755f38535e01fdc7689b6d", "lon": -77.0326315, "lat": 38.92834416666667, "type": "electric_scooter", "fusion_lon": 0.0, "is_reserved": 0, "bike_id": "904ab404a5755f38535e01fdc7689b6d", "fusion_lat": 0.0, "is_disabled": 0, "rental_uris": {"ios": "https://dc.lft.to/lastmile_qr_scan", "android": "https://dc.lft.to/lastmile_qr_scan"}}, {"name": "6a97bba99edf1b01ee53087f11a52c41", "lon": -77.0692815, "lat": 38.907738, "type": "electric_scooter", "fusion_lon": 0.0, "is_reserved": 0, "bike_id": "6a97bba99edf1b01ee53087f11a52c41", "fusion_lat": 0.0, "is_disabled": 0, "rental_uris": {"ios": "https://dc.lft.to/lastmile_qr_scan", "android": "https://dc.lft.to/lastmile_qr_scan"}}, {"name": "b54894b3a09418e3e237b800af9bc39b", "lon": -77.00916866666667, "lat": 38.827862, "type": "electric_scooter", "fusion_lon": 0.0, "is_reserved": 0, "bike_id": "b54894b3a09418e3e237b800af9bc39b", "fusion_lat": 0.0, "is_disabled": 0, "rental_uris": {"ios": "https://dc.lft.to/lastmile_qr_scan", "android": "https://dc.lft.to/lastmile_qr_scan"}}, {"name": "423e89dfd207fea0c721e0da0a419e4c", "lon": -77.03294083333333, "lat": 38.9262755, "type": "electric_bike", "fusion_lon": 0.0, "is_reserved": 0, "bike_id": "423e89dfd207fea0c721e0da0a419e4c", "fusion_lat": 0.0, "is_disabled": 0, "rental_uris": {"ios": "https://dc.lft.to/lastmile_qr_scan", "android": "https://dc.lft.to/lastmile_qr_scan"}}, {"name": "f14163f173c76fc9c4bff49f72cd1574", "lon": -76.993851, "lat": 38.877647833333334, "type": "electric_scooter", "fusion_lon": 0.0, "is_reserved": 0, "bike_id": "f14163f173c76fc9c4bff49f72cd1574", "fusion_lat": 0.0, "is_disabled": 0, "rental_uris": {"ios": "https://dc.lft.to/lastmile_qr_scan", "android": "https://dc.lft.to/lastmile_qr_scan"}}, {"name": "1dbf2c9e156c982950a43108304fbca7", "lon": -77.03073933333333, "lat": 38.9110825, "type": "electric_scooter", "fusion_lon": 0.0, "is_reserved": 0, "bike_id": "1dbf2c9e156c982950a43108304fbca7", "fusion_lat": 0.0, "is_disabled": 0, "rental_uris": {"ios": "https://dc.lft.to/lastmile_qr_scan", "android": "https://dc.lft.to/lastmile_qr_scan"}}, {"name": "69d5ec7926624dcf58424e6748463856", "lon": -77.05593316666666, "lat": 38.93601183333333, "type": "electric_scooter", "fusion_lon": 0.0, "is_reserved": 0, "bike_id": "69d5ec7926624dcf58424e6748463856", "fusion_lat": 0.0, "is_disabled": 0, "rental_uris": {"ios": "https://dc.lft.to/lastmile_qr_scan", "android": "https://dc.lft.to/lastmile_qr_scan"}}, {"name": "db249e07c58a87cdada4c954d6587179", "lon": -77.0447825, "lat": 38.924043, "type": "electric_scooter", "fusion_lon": 0.0, "is_reserved": 0, "bike_id": "db249e07c58a87cdada4c954d6587179", "fusion_lat": 0.0, "is_disabled": 0, "rental_uris": {"ios": "https://dc.lft.to/lastmile_qr_scan", "android": "https://dc.lft.to/lastmile_qr_scan"}}, {"name": "ba636309d8bbec0f32f047228ac8cdae", "lon": -77.02209216666667, "lat": 38.899927166666664, "type": "electric_scooter", "fusion_lon": 0.0, "is_reserved": 0, "bike_id": "ba636309d8bbec0f32f047228ac8cdae", "fusion_lat": 0.0, "is_disabled": 0, "rental_uris": {"ios": "https://dc.lft.to/lastmile_qr_scan", "android": "https://dc.lft.to/lastmile_qr_scan"}}, {"name": "20b77f11c81fa35a9495587de93184ab", "lon": -77.0522405, "lat": 38.92486266666667, "type": "electric_scooter", "fusion_lon": 0.0, "is_reserved": 0, "bike_id": "20b77f11c81fa35a9495587de93184ab", "fusion_lat": 0.0, "is_disabled": 0, "rental_uris": {"ios": "https://dc.lft.to/lastmile_qr_scan", "android": "https://dc.lft.to/lastmile_qr_scan"}}, {"name": "a2539a08aba0907bf297f273526e17f0", "lon": -77.00580433333333, "lat": 38.906302333333336, "type": "electric_scooter", "fusion_lon": 0.0, "is_reserved": 0, "bike_id": "a2539a08aba0907bf297f273526e17f0", "fusion_lat": 0.0, "is_disabled": 0, "rental_uris": {"ios": "https://dc.lft.to/lastmile_qr_scan", "android": "https://dc.lft.to/lastmile_qr_scan"}}, {"name": "a231b220f01b33478931e85e33fa3317", "lon": -77.02970216666667, "lat": 38.9051825, "type": "electric_scooter", "fusion_lon": 0.0, "is_reserved": 0, "bike_id": "a231b220f01b33478931e85e33fa3317", "fusion_lat": 0.0, "is_disabled": 0, "rental_uris": {"ios": "https://dc.lft.to/lastmile_qr_scan", "android": "https://dc.lft.to/lastmile_qr_scan"}}, {"name": "4ebaed7a50ab993b9dc073035da1c435", "lon": -77.02187866666667, "lat": 38.90222116666666, "type": "electric_scooter", "fusion_lon": 0.0, "is_reserved": 0, "bike_id": "4ebaed7a50ab993b9dc073035da1c435", "fusion_lat": 0.0, "is_disabled": 0, "rental_uris": {"ios": "https://dc.lft.to/lastmile_qr_scan", "android": "https://dc.lft.to/lastmile_qr_scan"}}, {"name": "6c2e1ccff026431e6fa832e1f06e3102", "lon": -77.01587283333333, "lat": 38.91714983333333, "type": "electric_scooter", "fusion_lon": 0.0, "is_reserved": 0, "bike_id": "6c2e1ccff026431e6fa832e1f06e3102", "fusion_lat": 0.0, "is_disabled": 0, "rental_uris": {"ios": "https://dc.lft.to/lastmile_qr_scan", "android": "https://dc.lft.to/lastmile_qr_scan"}}, {"name": "e134d50cffa1c53fbe74a9418629954e", "lon": -77.00452233333333, "lat": 38.920801, "type": "electric_scooter", "fusion_lon": 0.0, "is_reserved": 0, "bike_id": "e134d50cffa1c53fbe74a9418629954e", "fusion_lat": 0.0, "is_disabled": 0, "rental_uris": {"ios": "https://dc.lft.to/lastmile_qr_scan", "android": "https://dc.lft.to/lastmile_qr_scan"}}, {"name": "763b446bcc23de00db3165049d9d5707", "lon": -77.04170116666667, "lat": 38.91730333333334, "type": "electric_scooter", "fusion_lon": 0.0, "is_reserved": 0, "bike_id": "763b446bcc23de00db3165049d9d5707", "fusion_lat": 0.0, "is_disabled": 0, "rental_uris": {"ios": "https://dc.lft.to/lastmile_qr_scan", "android": "https://dc.lft.to/lastmile_qr_scan"}}, {"name": "f3a8d561234b9681002e837d9820e3d1", "lon": -77.02955983333334, "lat": 38.923345833333336, "type": "electric_scooter", "fusion_lon": 0.0, "is_reserved": 0, "bike_id": "f3a8d561234b9681002e837d9820e3d1", "fusion_lat": 0.0, "is_disabled": 0, "rental_uris": {"ios": "https://dc.lft.to/lastmile_qr_scan", "android": "https://dc.lft.to/lastmile_qr_scan"}}, {"name": "72cb82c9063b6fc7a85b721fd1d6968d", "lon": -77.076932, "lat": 38.840936, "type": "electric_bike", "fusion_lon": 0.0, "is_reserved": 0, "bike_id": "72cb82c9063b6fc7a85b721fd1d6968d", "fusion_lat": 0.0, "is_disabled": 0, "rental_uris": {"ios": "https://dc.lft.to/lastmile_qr_scan", "android": "https://dc.lft.to/lastmile_qr_scan"}}, {"name": "0dab47dd3c8618a12a0eac5d142b090d", "lon": -77.04598233333333, "lat": 38.917279666666666, "type": "electric_scooter", "fusion_lon": 0.0, "is_reserved": 0, "bike_id": "0dab47dd3c8618a12a0eac5d142b090d", "fusion_lat": 0.0, "is_disabled": 0, "rental_uris": {"ios": "https://dc.lft.to/lastmile_qr_scan", "android": "https://dc.lft.to/lastmile_qr_scan"}}, {"name": "a95bf8229dc08ecf391d5beec2bcd292", "lon": -77.01182283333333, "lat": 38.900258, "type": "electric_scooter", "fusion_lon": 0.0, "is_reserved": 0, "bike_id": "a95bf8229dc08ecf391d5beec2bcd292", "fusion_lat": 0.0, "is_disabled": 0, "rental_uris": {"ios": "https://dc.lft.to/lastmile_qr_scan", "android": "https://dc.lft.to/lastmile_qr_scan"}}, {"name": "16363d3b1014df244f3eb1cdf548ad24", "lon": -77.04326083333333, "lat": 38.892238666666664, "type": "electric_scooter", "fusion_lon": 0.0, "is_reserved": 0, "bike_id": "16363d3b1014df244f3eb1cdf548ad24", "fusion_lat": 0.0, "is_disabled": 0, "rental_uris": {"ios": "https://dc.lft.to/lastmile_qr_scan", "android": "https://dc.lft.to/lastmile_qr_scan"}}, {"name": "89d9f6f181b32bb64d9873a6232726c3", "lon": -77.01537016666667, "lat": 38.88386966666667, "type": "electric_scooter", "fusion_lon": 0.0, "is_reserved": 0, "bike_id": "89d9f6f181b32bb64d9873a6232726c3", "fusion_lat": 0.0, "is_disabled": 0, "rental_uris": {"ios": "https://dc.lft.to/lastmile_qr_scan", "android": "https://dc.lft.to/lastmile_qr_scan"}}, {"name": "3ff86e63a2a6097ee97dc95524bc933c", "lon": -77.00065166666667, "lat": 38.916044, "type": "electric_scooter", "fusion_lon": 0.0, "is_reserved": 0, "bike_id": "3ff86e63a2a6097ee97dc95524bc933c", "fusion_lat": 0.0, "is_disabled": 0, "rental_uris": {"ios": "https://dc.lft.to/lastmile_qr_scan", "android": "https://dc.lft.to/lastmile_qr_scan"}}, {"name": "e23f26a6aa7d7cd235281f491b71b540", "lon": -77.02038966666667, "lat": 38.892740833333335, "type": "electric_scooter", "fusion_lon": 0.0, "is_reserved": 0, "bike_id": "e23f26a6aa7d7cd235281f491b71b540", "fusion_lat": 0.0, "is_disabled": 0, "rental_uris": {"ios": "https://dc.lft.to/lastmile_qr_scan", "android": "https://dc.lft.to/lastmile_qr_scan"}}, {"name": "8a002d5f8e99530b7f19e3fd4eef3ff4", "lon": -77.00887966666667, "lat": 38.924865833333335, "type": "electric_scooter", "fusion_lon": 0.0, "is_reserved": 0, "bike_id": "8a002d5f8e99530b7f19e3fd4eef3ff4", "fusion_lat": 0.0, "is_disabled": 0, "rental_uris": {"ios": "https://dc.lft.to/lastmile_qr_scan", "android": "https://dc.lft.to/lastmile_qr_scan"}}, {"name": "60886670cffd88c366796e2c42dd8902", "lon": -77.071461, "lat": 38.920400666666666, "type": "electric_scooter", "fusion_lon": 0.0, "is_reserved": 0, "bike_id": "60886670cffd88c366796e2c42dd8902", "fusion_lat": 0.0, "is_disabled": 0, "rental_uris": {"ios": "https://dc.lft.to/lastmile_qr_scan", "android": "https://dc.lft.to/lastmile_qr_scan"}}, {"name": "9a3d28eed54caf638fe55b633534321d", "lon": -77.02768366666666, "lat": 38.90430383333333, "type": "electric_bike", "fusion_lon": 0.0, "is_reserved": 0, "bike_id": "9a3d28eed54caf638fe55b633534321d", "fusion_lat": 0.0, "is_disabled": 0, "rental_uris": {"ios": "https://dc.lft.to/lastmile_qr_scan", "android": "https://dc.lft.to/lastmile_qr_scan"}}, {"name": "c2966a6f2ef34634cca8a826ba729165", "lon": -77.04020916666667, "lat": 38.92364883333333, "type": "electric_scooter", "fusion_lon": 0.0, "is_reserved": 0, "bike_id": "c2966a6f2ef34634cca8a826ba729165", "fusion_lat": 0.0, "is_disabled": 0, "rental_uris": {"ios": "https://dc.lft.to/lastmile_qr_scan", "android": "https://dc.lft.to/lastmile_qr_scan"}}, {"name": "122e15d645f2b5c8a597ff271c23261a", "lon": -77.0385005, "lat": 38.9037095, "type": "electric_scooter", "fusion_lon": 0.0, "is_reserved": 0, "bike_id": "122e15d645f2b5c8a597ff271c23261a", "fusion_lat": 0.0, "is_disabled": 0, "rental_uris": {"ios": "https://dc.lft.to/lastmile_qr_scan", "android": "https://dc.lft.to/lastmile_qr_scan"}}, {"name": "6009bae3ecb6794171bc082b6141f22d", "lon": -77.00258616666666, "lat": 38.922404, "type": "electric_scooter", "fusion_lon": 0.0, "is_reserved": 0, "bike_id": "6009bae3ecb6794171bc082b6141f22d", "fusion_lat": 0.0, "is_disabled": 0, "rental_uris": {"ios": "https://dc.lft.to/lastmile_qr_scan", "android": "https://dc.lft.to/lastmile_qr_scan"}}, {"name": "c37b98156cf9a3d34f503c96a5a4d108", "lon": -77.0243595, "lat": 38.90966933333333, "type": "electric_scooter", "fusion_lon": 0.0, "is_reserved": 0, "bike_id": "c37b98156cf9a3d34f503c96a5a4d108", "fusion_lat": 0.0, "is_disabled": 0, "rental_uris": {"ios": "https://dc.lft.to/lastmile_qr_scan", "android": "https://dc.lft.to/lastmile_qr_scan"}}, {"name": "e08b3c5f5e2aad9295fef6fb5731a609", "lon": -77.03372533333334, "lat": 38.899194, "type": "electric_scooter", "fusion_lon": 0.0, "is_reserved": 0, "bike_id": "e08b3c5f5e2aad9295fef6fb5731a609", "fusion_lat": 0.0, "is_disabled": 0, "rental_uris": {"ios": "https://dc.lft.to/lastmile_qr_scan", "android": "https://dc.lft.to/lastmile_qr_scan"}}, {"name": "cc37408692a560c3f0bce61a7e537eb1", "lon": -77.04650633333334, "lat": 38.919418, "type": "electric_scooter", "fusion_lon": 0.0, "is_reserved": 0, "bike_id": "cc37408692a560c3f0bce61a7e537eb1", "fusion_lat": 0.0, "is_disabled": 0, "rental_uris": {"ios": "https://dc.lft.to/lastmile_qr_scan", "android": "https://dc.lft.to/lastmile_qr_scan"}}, {"name": "13caf4040ca658df96e6d3c2e6307680", "lon": -77.04519883333333, "lat": 38.9027165, "type": "electric_scooter", "fusion_lon": 0.0, "is_reserved": 0, "bike_id": "13caf4040ca658df96e6d3c2e6307680", "fusion_lat": 0.0, "is_disabled": 0, "rental_uris": {"ios": "https://dc.lft.to/lastmile_qr_scan", "android": "https://dc.lft.to/lastmile_qr_scan"}}, {"name": "961c26f838f4318cab0f131d35abba7e", "lon": -77.04480633333333, "lat": 38.92427816666667, "type": "electric_scooter", "fusion_lon": 0.0, "is_reserved": 0, "bike_id": "961c26f838f4318cab0f131d35abba7e", "fusion_lat": 0.0, "is_disabled": 0, "rental_uris": {"ios": "https://dc.lft.to/lastmile_qr_scan", "android": "https://dc.lft.to/lastmile_qr_scan"}}, {"name": "7a662dfbf668288682dc95934393eb74", "lon": -77.0945065, "lat": 38.80753216666667, "type": "electric_bike", "fusion_lon": 0.0, "is_reserved": 0, "bike_id": "7a662dfbf668288682dc95934393eb74", "fusion_lat": 0.0, "is_disabled": 0, "rental_uris": {"ios": "https://dc.lft.to/lastmile_qr_scan", "android": "https://dc.lft.to/lastmile_qr_scan"}}, {"name": "2f7eb23669078972c8fdb899b6d6f63c", "lon": -77.06331883333333, "lat": 38.944230166666664, "type": "electric_scooter", "fusion_lon": 0.0, "is_reserved": 0, "bike_id": "2f7eb23669078972c8fdb899b6d6f63c", "fusion_lat": 0.0, "is_disabled": 0, "rental_uris": {"ios": "https://dc.lft.to/lastmile_qr_scan", "android": "https://dc.lft.to/lastmile_qr_scan"}}, {"name": "9c22d5a5f45cf493a5873ae0db4a1bfb", "lon": -77.0216925, "lat": 38.90558816666667, "type": "electric_scooter", "fusion_lon": 0.0, "is_reserved": 0, "bike_id": "9c22d5a5f45cf493a5873ae0db4a1bfb", "fusion_lat": 0.0, "is_disabled": 0, "rental_uris": {"ios": "https://dc.lft.to/lastmile_qr_scan", "android": "https://dc.lft.to/lastmile_qr_scan"}}, {"name": "ce2f04d11b0ac568993cb653835102f0", "lon": -77.0413865, "lat": 38.89354316666667, "type": "electric_scooter", "fusion_lon": 0.0, "is_reserved": 0, "bike_id": "ce2f04d11b0ac568993cb653835102f0", "fusion_lat": 0.0, "is_disabled": 0, "rental_uris": {"ios": "https://dc.lft.to/lastmile_qr_scan", "android": "https://dc.lft.to/lastmile_qr_scan"}}, {"name": "9f5f512a9ca4659e6db7d5df8becc97b", "lon": -77.0272965, "lat": 38.9408355, "type": "electric_scooter", "fusion_lon": 0.0, "is_reserved": 0, "bike_id": "9f5f512a9ca4659e6db7d5df8becc97b", "fusion_lat": 0.0, "is_disabled": 0, "rental_uris": {"ios": "https://dc.lft.to/lastmile_qr_scan", "android": "https://dc.lft.to/lastmile_qr_scan"}}, {"name": "711f448ecf9745743cacb0998f310d8d", "lon": -76.89530716666667, "lat": 38.945562833333334, "type": "electric_bike", "fusion_lon": 0.0, "is_reserved": 0, "bike_id": "711f448ecf9745743cacb0998f310d8d", "fusion_lat": 0.0, "is_disabled": 0, "rental_uris": {"ios": "https://dc.lft.to/lastmile_qr_scan", "android": "https://dc.lft.to/lastmile_qr_scan"}}, {"name": "f2d39fc16b40c62fc35b26a6e4bc07da", "lon": -77.03263616666666, "lat": 38.939706, "type": "electric_scooter", "fusion_lon": 0.0, "is_reserved": 0, "bike_id": "f2d39fc16b40c62fc35b26a6e4bc07da", "fusion_lat": 0.0, "is_disabled": 0, "rental_uris": {"ios": "https://dc.lft.to/lastmile_qr_scan", "android": "https://dc.lft.to/lastmile_qr_scan"}},