{"data": {"bikes": [{"lat": 38.9084545, "is_disabled": 0, "type": "electric_scooter", "lon": -77.02820916666667, "bike_id": "dc5cd70d0f107e68f9d863030fe69e4a", "fusion_lat": 0.0, "name": "dc5cd70d0f107e68f9d863030fe69e4a", "is_reserved": 0, "rental_uris": {"android": "https://dc.lft.to/lastmile_qr_scan", "ios": "https://dc.lft.to/lastmile_qr_scan"}, "fusion_lon": 0.0}, {"lat": 38.919943333333336, "is_disabled": 0, "type": "electric_scooter", "lon": -77.03178766666667, "bike_id": "394cdc24d22f87ea508220b31a590d01", "fusion_lat": 0.0, "name": "394cdc24d22f87ea508220b31a590d01", "is_reserved": 0, "rental_uris": {"android": "https://dc.lft.to/lastmile_qr_scan", "ios": "https://dc.lft.to/lastmile_qr_scan"}, "fusion_lon": 0.0}, {"lat": 38.928571, "is_disabled": 0, "type": "electric_scooter", "lon": -77.0140795, "bike_id": "cb0f58bfb892fa79096fb818cf2c6b6e", "fusion_lat": 0.0, "name": "cb0f58bfb892fa79096fb818cf2c6b6e", "is_reserved": 0, "rental_uris": {"android": "https://dc.lft.to/lastmile_qr_scan", "ios": "https://dc.lft.to/lastmile_qr_scan"}, "fusion_lon": 0.0}, {"lat": 38.914081333333336, "is_disabled": 0, "type": "electric_scooter", "lon": -77.03059483333334, "bike_id": "b8bd441a47ae9f6af58955b872d18875", "fusion_lat": 0.0, "name": "b8bd441a47ae9f6af58955b872d18875", "is_reserved": 0, "rental_uris": {"android": "https://dc.lft.to/lastmile_qr_scan", "ios": "https://dc.lft.to/lastmile_qr_scan"}, "fusion_lon": 0.0}, {"lat": 38.917125, "is_disabled": 0, "type": "electric_scooter", "lon": -77.0385455, "bike_id": "2ec7454210f31d1342de31ecaa56c957", "fusion_lat": 0.0, "name": "2ec7454210f31d1342de31ecaa56c957", "is_reserved": 0, "rental_uris": {"android": "https://dc.lft.to/lastmile_qr_scan", "ios": "https://dc.lft.to/lastmile_qr_scan"}, "fusion_lon": 0.0}, {"lat": 38.902365, "is_disabled": 0, "type": "electric_scooter", "lon": -77.04676283333333, "bike_id": "ae937deca2e9a70718c2383e43d1597f", "fusion_lat": 0.0, "name": "ae937deca2e9a70718c2383e43d1597f", "is_reserved": 0, "rental_uris": {"android": "https://dc.lft.to/lastmile_qr_scan", "ios": "https://dc.lft.to/lastmile_qr_scan"}, "fusion_lon": 0.0}, {"lat": 38.904685666666666, "is_disabled": 0, "type": "electric_scooter", "lon": -77.007814, "bike_id": "d0057d8e671e22904e845535b871ffb6", "fusion_lat": 0.0, "name": "d0057d8e671e22904e845535b871ffb6", "is_reserved": 0, "rental_uris": {"android": "https://dc.lft.to/lastmile_qr_scan", "ios": "https://dc.lft.to/lastmile_qr_scan"}, "fusion_lon": 0.0}, {"lat": 38.88660016666667, "is_disabled": 0, "type": "electric_bike", "lon": -77.16232383333333, "bike_id": "6462adf0e9803c74773cee1df777b3af", "fusion_lat": 0.0, "name": "6462adf0e9803c74773cee1df777b3af", "is_reserved": 0, "rental_uris": {"android": "https://dc.lft.to/lastmile_qr_scan", "ios": "https://dc.lft.to/lastmile_qr_scan"}, "fusion_lon": 0.0}, {"lat": 38.901364666666666, "is_disabled": 0, "type": "electric_scooter", "lon": -77.04162383333333, "bike_id": "b8b7c368696e974a2deb0bb863a80c2c", "fusion_lat": 0.0, "name": "b8b7c368696e974a2deb0bb863a80c2c", "is_reserved": 0, "rental_uris": {"android": "https://dc.lft.to/lastmile_qr_scan", "ios": "https://dc.lft.to/lastmile_qr_scan"}, "fusion_lon": 0.0}, {"lat": 38.910587, "is_disabled": 0, "type": "electric_scooter", "lon": -77.0458885, "bike_id": "2a6052d96b373a0f4f870e34648c2431", "fusion_lat": 0.0, "name": "2a6052d96b373a0f4f870e34648c2431", "is_reserved": 0, "rental_uris": {"android": "https://dc.lft.to/lastmile_qr_scan", "ios": "https://dc.lft.to/lastmile_qr_scan"}, "fusion_lon": 0.0}, {"lat": 38.942711, "is_disabled": 0, "type": "electric_scooter", "lon": -77.03257633333334, "bike_id": "6c14b5f25e73b1a8f90879bf310c4c1f", "fusion_lat": 0.0, "name": "6c14b5f25e73b1a8f90879bf310c4c1f", "is_reserved": 0, "rental_uris": {"android": "https://dc.lft.to/lastmile_qr_scan", "ios": "https://dc.lft.to/lastmile_qr_scan"}, "fusion_lon": 0.0}, {"lat": 38.9241485, "is_disabled": 0, "type": "electric_scooter", "lon": -77.03548883333333, "bike_id": "bd46ca01d0f4a8a57b408db04c7ec9a0", "fusion_lat": 0.0, "name": "bd46ca01d0f4a8a57b408db04c7ec9a0", "is_reserved": 0, "rental_uris": {"android": "https://dc.lft.to/lastmile_qr_scan", "ios": "https://dc.lft.to/lastmile_qr_scan"}, "fusion_lon": 0.0}, {"lat": 38.926296, "is_disabled": 0, "type": "electric_scooter", "lon": -77.03614883333333, "bike_id": "b4ab9b70afa126596e7c8aa6cf74b706", "fusion_lat": 0.0, "name": "b4ab9b70afa126596e7c8aa6cf74b706", "is_reserved": 0, "rental_uris": {"android": "https://dc.lft.to/lastmile_qr_scan", "ios": "https://dc.lft.to/lastmile_qr_scan"}, "fusion_lon": 0.0}, {"lat": 38.9335325, "is_disabled": 0, "type": "electric_scooter", "lon": -77.05693, "bike_id": "91d624a54815f92d4628644ff002e6db", "fusion_lat": 0.0, "name": "91d624a54815f92d4628644ff002e6db", "is_reserved": 0, "rental_uris": {"android": "https://dc.lft.to/lastmile_qr_scan", "ios": "https://dc.lft.to/lastmile_qr_scan"}, "fusion_lon": 0.0}, {"lat": 38.896147, "is_disabled": 0, "type": "electric_scooter", "lon": -76.95604116666667, "bike_id": "cdff0bf97abb07814dc180af5b66f925", "fusion_lat": 0.0, "name": "cdff0bf97abb07814dc180af5b66f925", "is_reserved": 0, "rental_uris": {"android": "https://dc.lft.to/lastmile_qr_scan", "ios": "https://dc.lft.to/lastmile_qr_scan"}, "fusion_lon": 0.0}, {"lat": 38.918920666666665, "is_disabled": 0, "type": "electric_scooter", "lon": -77.039042, "bike_id": "f2b570b46e18750abac0e8030efb640b", "fusion_lat": 0.0, "name": "f2b570b46e18750abac0e8030efb640b", "is_reserved": 0, "rental_uris": {"android": "https://dc.lft.to/lastmile_qr_scan", "ios": "https://dc.lft.to/lastmile_qr_scan"}, "fusion_lon": 0.0}, {"lat": 38.903747, "is_disabled": 0, "type": "electric_scooter", "lon": -77.017579, "bike_id": "4b143dcaf41aea6f75c6b235ee900d66", "fusion_lat": 0.0, "name": "4b143dcaf41aea6f75c6b235ee900d66", "is_reserved": 0, "rental_uris": {"android": "https://dc.lft.to/lastmile_qr_scan", "ios": "https://dc.lft.to/lastmile_qr_scan"}, "fusion_lon": 0.0}, {"lat": 38.927319, "is_disabled": 0, "type": "electric_bike", "lon": -76.99364166666666, "bike_id": "9afd7fc0650fc9f217418ed42a2d6fd9", "fusion_lat": 0.0, "name": "9afd7fc0650fc9f217418ed42a2d6fd9", "is_reserved": 0, "rental_uris": {"android": "https://dc.lft.to/lastmile_qr_scan", "ios": "https://dc.lft.to/lastmile_qr_scan"}, "fusion_lon": 0.0}, {"lat": 38.9285625, "is_disabled": 0, "type": "electric_bike", "lon": -77.22223483333333, "bike_id": "3b90a12bdfbb11c4153095ba73956898", "fusion_lat": 0.0, "name": "3b90a12bdfbb11c4153095ba73956898", "is_reserved": 0, "rental_uris": {"android": "https://dc.lft.to/lastmile_qr_scan", "ios": "https://dc.lft.to/lastmile_qr_scan"}, "fusion_lon": 0.0}, {"lat": 38.923454666666665, "is_disabled": 0, "type": "electric_scooter", "lon": -77.05112883333334, "bike_id": "d578d8733be42f9b1be56ba5507b7370", "fusion_lat": 0.0, "name": "d578d8733be42f9b1be56ba5507b7370", "is_reserved": 0, "rental_uris": {"android": "https://dc.lft.to/lastmile_qr_scan", "ios": "https://dc.lft.to/lastmile_qr_scan"}, "fusion_lon": 0.0}, {"lat": 38.917729666666666, "is_disabled": 0, "type": "electric_scooter", "lon": -77.028884, "bike_id": "163b27f3382e515f59d668b493e52d99", "fusion_lat": 0.0, "name": "163b27f3382e515f59d668b493e52d99", "is_reserved": 0, "rental_uris": {"android": "https://dc.lft.to/lastmile_qr_scan", "ios": "https://dc.lft.to/lastmile_qr_scan"}, "fusion_lon": 0.0}, {"lat": 38.878951666666666, "is_disabled": 0, "type": "electric_scooter", "lon": -77.02284433333334, "bike_id": "2baa7a70dcfc1035f3e0339f9c94aedb", "fusion_lat": 0.0, "name": "2baa7a70dcfc1035f3e0339f9c94aedb", "is_reserved": 0, "rental_uris": {"android": "https://dc.lft.to/lastmile_qr_scan", "ios": "https://dc.lft.to/lastmile_qr_scan"}, "fusion_lon": 0.0}, {"lat": 39.08856383333333, "is_disabled": 0, "type": "electric_bike", "lon": -77.178425, "bike_id": "12a666f9daed909dc7f1db785d732f35", "fusion_lat": 0.0, "name": "12a666f9daed909dc7f1db785d732f35", "is_reserved": 0, "rental_uris": {"android": "https://dc.lft.to/lastmile_qr_scan", "ios": "https://dc.lft.to/lastmile_qr_scan"}, "fusion_lon": 0.0}, {"lat": 38.9592465, "is_disabled": 0, "type": "electric_bike", "lon": -77.03114966666666, "bike_id": "9d8a3571ad02592a608061477f574605", "fusion_lat": 0.0, "name": "9d8a3571ad02592a608061477f574605", "is_reserved": 0, "rental_uris": {"android": "https://dc.lft.to/lastmile_qr_scan", "ios": "https://dc.lft.to/lastmile_qr_scan"}, "fusion_lon": 0.0}, {"lat": 38.9050005, "is_disabled": 0, "type": "electric_scooter", "lon": -77.0432885, "bike_id": "14dfea1b45de5b85f2db436620946fa0", "fusion_lat": 0.0, "name": "14dfea1b45de5b85f2db436620946fa0", "is_reserved": 0, "rental_uris": {"android": "https://dc.lft.to/lastmile_qr_scan", "ios": "https://dc.lft.to/lastmile_qr_scan"}, "fusion_lon": 0.0}, {"lat": 38.926041833333336, "is_disabled": 0, "type": "electric_scooter", "lon": -77.02446583333334, "bike_id": "55b574adb54375d2dc2e18c6d8334e9c", "fusion_lat": 0.0, "name": "55b574adb54375d2dc2e18c6d8334e9c", "is_reserved": 0, "rental_uris": {"android": "https://dc.lft.to/lastmile_qr_scan", "ios": "https://dc.lft.to/lastmile_qr_scan"}, "fusion_lon": 0.0}, {"lat": 38.96505916666667, "is_disabled": 0, "type": "electric_bike", "lon": -77.02820266666667, "bike_id": "802de655e95eed8d79a70462943143ba", "fusion_lat": 0.0, "name": "802de655e95eed8d79a70462943143ba", "is_reserved": 0, "rental_uris": {"android": "https://dc.lft.to/lastmile_qr_scan", "ios": "https://dc.lft.to/lastmile_qr_scan"}, "fusion_lon": 0.0}, {"lat": 38.902426, "is_disabled": 0, "type": "electric_bike", "lon": -77.00571133333334, "bike_id": "ed472e89c0f268acaa1e808c23942754", "fusion_lat": 0.0, "name": "ed472e89c0f268acaa1e808c23942754", "is_reserved": 0, "rental_uris": {"android": "https://dc.lft.to/lastmile_qr_scan", "ios": "https://dc.lft.to/lastmile_qr_scan"}, "fusion_lon": 0.0}, {"lat": 38.98366766666667, "is_disabled": 0, "type": "electric_scooter", "lon": -77.02645883333334, "bike_id": "6d740e9b5bbd390f277383729f9be226", "fusion_lat": 0.0, "name": "6d740e9b5bbd390f277383729f9be226", "is_reserved": 0, "rental_uris": {"android": "https://dc.lft.to/lastmile_qr_scan", "ios": "https://dc.lft.to/lastmile_qr_scan"}, "fusion_lon": 0.0}, {"lat": 38.87638416666667, "is_disabled": 0, "type": "electric_scooter", "lon": -76.99320066666667, "bike_id": "efba2bd9227ee4db7a012d815082d752", "fusion_lat": 0.0, "name": "efba2bd9227ee4db7a012d815082d752", "is_reserved": 0, "rental_uris": {"android": "https://dc.lft.to/lastmile_qr_scan", "ios": "https://dc.lft.to/lastmile_qr_scan"}, "fusion_lon": 0.0}, {"lat": 38.89590166666667, "is_disabled": 0, "type": "electric_scooter", "lon": -77.029091, "bike_id": "69283d5fd49c228c0e80a2ee1017c536", "fusion_lat": 0.0, "name": "69283d5fd49c228c0e80a2ee1017c536", "is_reserved": 0, "rental_uris": {"android": "https://dc.lft.to/lastmile_qr_scan", "ios": "https://dc.lft.to/lastmile_qr_scan"}, "fusion_lon": 0.0}, {"lat": 38.916977, "is_disabled": 0, "type": "electric_scooter", "lon": -77.03044016666666, "bike_id": "fefa43797ad1d8cf2ee16a7655122020", "fusion_lat": 0.0, "name": "fefa43797ad1d8cf2ee16a7655122020", "is_reserved": 0, "rental_uris": {"android": "https://dc.lft.to/lastmile_qr_scan", "ios": "https://dc.lft.to/lastmile_qr_scan"}, "fusion_lon": 0.0}, {"lat": 38.9325455, "is_disabled": 0, "type": "electric_scooter", "lon": -77.040111, "bike_id": "c464b6fd7eddbb9dc14f1049fcb4697f", "fusion_lat": 0.0, "name": "c464b6fd7eddbb9dc14f1049fcb4697f", "is_reserved": 0, "rental_uris": {"android": "https://dc.lft.to/lastmile_qr_scan", "ios": "https://dc.lft.to/lastmile_qr_scan"}, "fusion_lon": 0.0}, {"lat": 38.90625583333333, "is_disabled": 0, "type": "electric_scooter", "lon": -77.00834, "bike_id": "bc34c151323bbf938c1566d37bd41222", "fusion_lat": 0.0, "name": "bc34c151323bbf938c1566d37bd41222", "is_reserved": 0, "rental_uris": {"android": "https://dc.lft.to/lastmile_qr_scan", "ios": "https://dc.lft.to/lastmile_qr_scan"}, "fusion_lon": 0.0}, {"lat": 38.897431166666664, "is_disabled": 0, "type": "electric_scooter", "lon": -77.00006516666667, "bike_id": "16bdcbb49942041fd492fe4befb9e9c4", "fusion_lat": 0.0, "name": "16bdcbb49942041fd492fe4befb9e9c4", "is_reserved": 0, "rental_uris": {"android": "https://dc.lft.to/lastmile_qr_scan", "ios": "https://dc.lft.to/lastmile_qr_scan"}, "fusion_lon": 0.0}, {"lat": 38.8665925, "is_disabled": 0, "type": "electric_scooter", "lon": -76.98905816666667, "bike_id": "33e0b1e6d489b6f209d43ea71ba6252c", "fusion_lat": 0.0, "name": "33e0b1e6d489b6f209d43ea71ba6252c", "is_reserved": 0, "rental_uris": {"android": "https://dc.lft.to/lastmile_qr_scan", "ios": "https://dc.lft.to/lastmile_qr_scan"}, "fusion_lon": 0.0}, {"lat": 38.90978416666667, "is_disabled": 0, "type": "electric_scooter", "lon": -77.0526315, "bike_id": "df64bfcbecb3379b572b77caf14f8075", "fusion_lat": 0.0, "name": "df64bfcbecb3379b572b77caf14f8075", "is_reserved": 0, "rental_uris": {"android": "https://dc.lft.to/lastmile_qr_scan", "ios": "https://dc.lft.to/lastmile_qr_scan"}, "fusion_lon": 0.0}, {"lat": 38.929771, "is_disabled": 0, "type": "electric_scooter", "lon": -77.031683, "bike_id": "64bc8254cd612fadf34b91c296a4bd07", "fusion_lat": 0.0, "name": "64bc8254cd612fadf34b91c296a4bd07", "is_reserved": 0, "rental_uris": {"android": "https://dc.lft.to/lastmile_qr_scan", "ios": "https://dc.lft.to/lastmile_qr_scan"}, "fusion_lon": 0.0}, {"lat": 38.92143516666667, "is_disabled": 0, "type": "electric_scooter", "lon": -77.03665583333333, "bike_id": "26a25bc62d203e190cf40bdb225687b6", "fusion_lat": 0.0, "name": "26a25bc62d203e190cf40bdb225687b6", "is_reserved": 0, "rental_uris": {"android": "https://dc.lft.to/lastmile_qr_scan", "ios": "https://dc.lft.to/lastmile_qr_scan"}, "fusion_lon": 0.0}, {"lat": 38.89635466666667, "is_disabled": 0, "type": "electric_scooter", "lon": -77.0467705, "bike_id": "d15405f370ce2aff94fbcd22f00b533b", "fusion_lat": 0.0, "name": "d15405f370ce2aff94fbcd22f00b533b", "is_reserved": 0, "rental_uris": {"android": "https://dc.lft.to/lastmile_qr_scan", "ios": "https://dc.lft.to/lastmile_qr_scan"}, "fusion_lon": 0.0}, {"lat": 38.910144, "is_disabled": 0, "type": "electric_scooter", "lon": -77.030218, "bike_id": "c47e5dc3df10ab2593a14e32176f70b8", "fusion_lat": 0.0, "name": "c47e5dc3df10ab2593a14e32176f70b8", "is_reserved": 0, "rental_uris": {"android": "https://dc.lft.to/lastmile_qr_scan", "ios": "https://dc.lft.to/lastmile_qr_scan"}, "fusion_lon": 0.0}, {"lat": 38.92840316666667, "is_disabled": 0, "type": "electric_scooter", "lon": -77.05430966666667, "bike_id": "4bee0c81159f1584ae2564c47822937b", "fusion_lat": 0.0, "name": "4bee0c81159f1584ae2564c47822937b", "is_reserved": 0, "rental_uris": {"android": "https://dc.lft.to/lastmile_qr_scan", "ios": "https://dc.lft.to/lastmile_qr_scan"}, "fusion_lon": 0.0}, {"lat": 38.93853566666667, "is_disabled": 0, "type": "electric_scooter", "lon": -77.03394266666666, "bike_id": "2442ca4a3f52888651a495a0e2af3f49", "fusion_lat": 0.0, "name": "2442ca4a3f52888651a495a0e2af3f49", "is_reserved": 0, "rental_uris": {"android": "https://dc.lft.to/lastmile_qr_scan", "ios": "https://dc.lft.to/lastmile_qr_scan"}, "fusion_lon": 0.0}, {"lat": 38.91334783333333, "is_disabled": 0, "type": "electric_scooter", "lon": -77.03131616666667, "bike_id": "5625ab049bc4ae062dbcc4702f6f0fce", "fusion_lat": 0.0, "name": "5625ab049bc4ae062dbcc4702f6f0fce", "is_reserved": 0, "rental_uris": {"android": "https://dc.lft.to/lastmile_qr_scan", "ios": "https://dc.lft.to/lastmile_qr_scan"}, "fusion_lon": 0.0}, {"lat": 38.844280499999996, "is_disabled": 0, "type": "electric_scooter", "lon": -76.99780516666667, "bike_id": "b37ed3dde6c883918e57f63461342b10", "fusion_lat": 0.0, "name": "b37ed3dde6c883918e57f63461342b10", "is_reserved": 0, "rental_uris": {"android": "https://dc.lft.to/lastmile_qr_scan", "ios": "https://dc.lft.to/lastmile_qr_scan"}, "fusion_lon": 0.0}, {"lat": 38.906542, "is_disabled": 0, "type": "electric_scooter", "lon": -77.02934716666667, "bike_id": "d959358860ecce6a03fbbb2c4d358035", "fusion_lat": 0.0, "name": "d959358860ecce6a03fbbb2c4d358035", "is_reserved": 0, "rental_uris": {"android": "https://dc.lft.to/lastmile_qr_scan", "ios": "https://dc.lft.to/lastmile_qr_scan"}, "fusion_lon": 0.0}, {"lat": 38.923656666666666, "is_disabled": 0, "type": "electric_scooter", "lon": -77.035494, "bike_id": "1cd66d0f790747ddad70f5570b08d5d7", "fusion_lat": 0.0, "name": "1cd66d0f790747ddad70f5570b08d5d7", "is_reserved": 0, "rental_uris": {"android": "https://dc.lft.to/lastmile_qr_scan", "ios": "https://dc.lft.to/lastmile_qr_scan"}, "fusion_lon": 0.0}, {"lat": 38.905909333333334, "is_disabled": 0, "type": "electric_scooter", "lon": -77.06514183333333, "bike_id": "df637b9b9f672540ac4e4eedff8a7a49", "fusion_lat": 0.0, "name": "df637b9b9f672540ac4e4eedff8a7a49", "is_reserved": 0, "rental_uris": {"android": "https://dc.lft.to/lastmile_qr_scan", "ios": "https://dc.lft.to/lastmile_qr_scan"}, "fusion_lon": 0.0}, {"lat": 38.869174, "is_disabled": 0, "type": "electric_scooter", "lon": -76.983037, "bike_id": "f7f9592cbedcf37056d6ce709ba0f8e2", "fusion_lat": 0.0, "name": "f7f9592cbedcf37056d6ce709ba0f8e2", "is_reserved": 0, "rental_uris": {"android": "https://dc.lft.to/lastmile_qr_scan", "ios": "https://dc.lft.to/lastmile_qr_scan"}, "fusion_lon": 0.0}, {"lat": 38.884229500000004, "is_disabled": 0, "type": "electric_scooter", "lon": -77.0002215, "bike_id": "1b7f140350c3932e6edd6ebf5627bc3c", "fusion_lat": 0.0, "name": "1b7f140350c3932e6edd6ebf5627bc3c", "is_reserved": 0, "rental_uris": {"android": "https://dc.lft.to/lastmile_qr_scan", "ios": "https://dc.lft.to/lastmile_qr_scan"}, "fusion_lon": 0.0}, {"lat": 38.98661883333333, "is_disabled": 0, "type": "electric_bike", "lon": -77.0564385, "bike_id": "627962f5f188bb563bfed0bb1e87301d", "fusion_lat": 0.0, "name": "627962f5f188bb563bfed0bb1e87301d", "is_reserved": 0, "rental_uris": {"android": "https://dc.lft.to/lastmile_qr_scan", "ios": "https://dc.lft.to/lastmile_qr_scan"}, "fusion_lon": 0.0}, {"lat": 38.92880983333333, "is_disabled": 0, "type": "electric_scooter", "lon": -77.03333283333333, "bike_id": "b592d98829e3cece0ff738a5b1741fe2", "fusion_lat": 0.0, "name": "b592d98829e3cece0ff738a5b1741fe2", "is_reserved": 0, "rental_uris": {"android": "https://dc.lft.to/lastmile_qr_scan", "ios": "https://dc.lft.to/lastmile_qr_scan"}, "fusion_lon": 0.0}, {"lat": 38.8780535, "is_disabled": 0, "type": "electric_bike", "lon": -76.96073283333334, "bike_id": "ba6f2181141e711d5cde175af43d1da5", "fusion_lat": 0.0, "name": "ba6f2181141e711d5cde175af43d1da5", "is_reserved": 0, "rental_uris": {"android": "https://dc.lft.to/lastmile_qr_scan", "ios": "https://dc.lft.to/lastmile_qr_scan"}, "fusion_lon": 0.0}, {"lat": 38.857357, "is_disabled": 0, "type": "electric_scooter", "lon": -76.99433816666667, "bike_id": "5b1bcb182a955be304e6f137be6cf3be", "fusion_lat": 0.0, "name": "5b1bcb182a955be304e6f137be6cf3be", "is_reserved": 0, "rental_uris": {"android": "https://dc.lft.to/lastmile_qr_scan", "ios": "https://dc.lft.to/lastmile_qr_scan"}, "fusion_lon": 0.0}, {"lat": 38.90946016666667, "is_disabled": 0, "type": "electric_scooter", "lon": -77.047908, "bike_id": "445df507c1236a3b0d155237a7d4b63c", "fusion_lat": 0.0, "name": "445df507c1236a3b0d155237a7d4b63c", "is_reserved": 0, "rental_uris": {"android": "https://dc.lft.to/lastmile_qr_scan", "ios": "https://dc.lft.to/lastmile_qr_scan"}, "fusion_lon": 0.0}, {"lat": 38.90143616666667, "is_disabled": 0, "type": "electric_scooter", "lon": -77.04151516666667, "bike_id": "12267ab59c34b92f32e98bdeffc7e11a", "fusion_lat": 0.0, "name": "12267ab59c34b92f32e98bdeffc7e11a", "is_reserved": 0, "rental_uris": {"android": "https://dc.lft.to/lastmile_qr_scan", "ios": "https://dc.lft.to/lastmile_qr_scan"}, "fusion_lon": 0.0}, {"lat": 38.90940883333333, "is_disabled": 0, "type": "electric_scooter", "lon": -77.03851683333333, "bike_id": "7e1139e2751a2e9fe5ca4efe9ccf296c", "fusion_lat": 0.0, "name": "7e1139e2751a2e9fe5ca4efe9ccf296c", "is_reserved": 0, "rental_uris": {"android": "https://dc.lft.to/lastmile_qr_scan", "ios": "https://dc.lft.to/lastmile_qr_scan"}, "fusion_lon": 0.0}, {"lat": 38.944493666666666, "is_disabled": 0, "type": "electric_scooter", "lon": -77.02337483333334, "bike_id": "8a1602e79b1a3fc61af53b1c12844248", "fusion_lat": 0.0, "name": "8a1602e79b1a3fc61af53b1c12844248", "is_reserved": 0, "rental_uris": {"android": "https://dc.lft.to/lastmile_qr_scan", "ios": "https://dc.lft.to/lastmile_qr_scan"}, "fusion_lon": 0.0}, {"lat": 38.92131783333333, "is_disabled": 0, "type": "electric_scooter", "lon": -77.04005033333334, "bike_id": "c9203daae471b0d857de4ddd11650189", "fusion_lat": 0.0, "name": "c9203daae471b0d857de4ddd11650189", "is_reserved": 0, "rental_uris": {"android": "https://dc.lft.to/lastmile_qr_scan", "ios": "https://dc.lft.to/lastmile_qr_scan"}, "fusion_lon": 0.0}, {"lat": 38.9573945, "is_disabled": 0, "type": "electric_bike", "lon": -77.023251, "bike_id": "bd713e718b8af2072b190a07272f5d0f", "fusion_lat": 0.0, "name": "bd713e718b8af2072b190a07272f5d0f", "is_reserved": 0, "rental_uris": {"android": "https://dc.lft.to/lastmile_qr_scan", "ios": "https://dc.lft.to/lastmile_qr_scan"}, "fusion_lon": 0.0}, {"lat": 38.91256666666666, "is_disabled": 0, "type": "electric_scooter", "lon": -77.03862733333334, "bike_id": "ec589a3d2d196885a007fc46f9febbac", "fusion_lat": 0.0, "name": "ec589a3d2d196885a007fc46f9febbac", "is_reserved": 0, "rental_uris": {"android": "https://dc.lft.to/lastmile_qr_scan", "ios": "https://dc.lft.to/lastmile_qr_scan"}, "fusion_lon": 0.0}, {"lat": 38.89209833333334, "is_disabled": 0, "type": "electric_scooter", "lon": -77.0265435, "bike_id": "8bb4c2d863646cda9da6d1bafb167279", "fusion_lat": 0.0, "name": "8bb4c2d863646cda9da6d1bafb167279", "is_reserved": 0, "rental_uris": {"android": "https://dc.lft.to/lastmile_qr_scan", "ios": "https://dc.lft.to/lastmile_qr_scan"}, "fusion_lon": 0.0}, {"lat": 38.8768025, "is_disabled": 0, "type": "electric_scooter", "lon": -77.01787766666666, "bike_id": "0c55c8364ade5fe8045de9794f2f70df", "fusion_lat": 0.0, "name": "0c55c8364ade5fe8045de9794f2f70df", "is_reserved": 0, "rental_uris": {"android": "https://dc.lft.to/lastmile_qr_scan", "ios": "https://dc.lft.to/lastmile_qr_scan"}, "fusion_lon": 0.0}, {"lat": 38.92635666666666, "is_disabled": 0, "type": "electric_scooter", "lon": -77.037918, "bike_id": "4b3799ae77e815a5ee7e6dfe03c06607", "fusion_lat": 0.0, "name": "4b3799ae77e815a5ee7e6dfe03c06607", "is_reserved": 0, "rental_uris": {"android": "https://dc.lft.to/lastmile_qr_scan", "ios": "https://dc.lft.to/lastmile_qr_scan"}, "fusion_lon": 0.0}, {"lat": 38.906911, "is_disabled": 0, "type": "electric_scooter", "lon": -76.99959983333333, "bike_id": "6ba3cda07d84b3ca266d15ca6d941415", "fusion_lat": 0.0, "name": "6ba3cda07d84b3ca266d15ca6d941415", "is_reserved": 0, "rental_uris": {"android": "https://dc.lft.to/lastmile_qr_scan", "ios": "https://dc.lft.to/lastmile_qr_scan"}, "fusion_lon": 0.0}, {"lat": 38.919099, "is_disabled": 0, "type": "electric_scooter", "lon": -77.03389516666667, "bike_id": "4c378526213a7d3be17f64eecbd9c6f0", "fusion_lat": 0.0, "name": "4c378526213a7d3be17f64eecbd9c6f0", "is_reserved": 0, "rental_uris": {"android": "https://dc.lft.to/lastmile_qr_scan", "ios": "https://dc.lft.to/lastmile_qr_scan"}, "fusion_lon": 0.0}, {"lat": 38.9028755, "is_disabled": 0, "type": "electric_scooter", "lon": -77.05304916666667, "bike_id": "040b3fff721271eeaf88be611b738ab2", "fusion_lat": 0.0, "name": "040b3fff721271eeaf88be611b738ab2", "is_reserved": 0, "rental_uris": {"android": "https://dc.lft.to/lastmile_qr_scan", "ios": "https://dc.lft.to/lastmile_qr_scan"}, "fusion_lon": 0.0}, {"lat": 38.94603933333333, "is_disabled": 0, "type": "electric_scooter", "lon": -77.0297975, "bike_id": "c62c399e9afca62fc97c611c0e0eb319", "fusion_lat": 0.0, "name": "c62c399e9afca62fc97c611c0e0eb319", "is_reserved": 0, "rental_uris": {"android": "https://dc.lft.to/lastmile_qr_scan", "ios": "https://dc.lft.to/lastmile_qr_scan"}, "fusion_lon": 0.0}, {"lat": 38.91056, "is_disabled": 0, "type": "electric_scooter", "lon": -77.015262, "bike_id": "b6fda6e4ea3430fdac97d707c4fb8e74", "fusion_lat": 0.0, "name": "b6fda6e4ea3430fdac97d707c4fb8e74", "is_reserved": 0, "rental_uris": {"android": "https://dc.lft.to/lastmile_qr_scan", "ios": "https://dc.lft.to/lastmile_qr_scan"}, "fusion_lon": 0.0}, {"lat": 38.9241535, "is_disabled": 0, "type": "electric_scooter", "lon": -77.04456383333333, "bike_id": "01bd0a36be8cc421ec27a88033fcc0cb", "fusion_lat": 0.0, "name": "01bd0a36be8cc421ec27a88033fcc0cb", "is_reserved": 0, "rental_uris": {"android": "https://dc.lft.to/lastmile_qr_scan", "ios": "https://dc.lft.to/lastmile_qr_scan"}, "fusion_lon": 0.0}, {"lat": 38.899545833333335, "is_disabled": 0, "type": "electric_scooter", "lon": -77.05173216666667, "bike_id": "d89f97e9a67de485b772e5a1bba184a7", "fusion_lat": 0.0, "name": "d89f97e9a67de485b772e5a1bba184a7", "is_reserved": 0, "rental_uris": {"android": "https://dc.lft.to/lastmile_qr_scan", "ios": "https://dc.lft.to/lastmile_qr_scan"}, "fusion_lon": 0.0}, {"lat": 38.86479383333333, "is_disabled": 0, "type": "electric_scooter", "lon": -76.974402, "bike_id": "0b8b6810680054279850ff270ea421e1", "fusion_lat": 0.0, "name": "0b8b6810680054279850ff270ea421e1", "is_reserved": 0, "rental_uris": {"android": "https://dc.lft.to/lastmile_qr_scan", "ios": "https://dc.lft.to/lastmile_qr_scan"}, "fusion_lon": 0.0}, {"lat": 38.8747675, "is_disabled": 0, "type": "electric_scooter", "lon": -77.01068966666666, "bike_id": "448bef763842aedc172c377157e843b7", "fusion_lat": 0.0, "name": "448bef763842aedc172c377157e843b7", "is_reserved": 0, "rental_uris": {"android": "https://dc.lft.to/lastmile_qr_scan", "ios": "https://dc.lft.to/lastmile_qr_scan"}, "fusion_lon": 0.0}, {"lat": 38.9026655, "is_disabled": 0, "type": "electric_scooter", "lon": -77.02824966666667, "bike_id": "3eabcd0a1c1f3d8eada7302fd37db96d", "fusion_lat": 0.0, "name": "3eabcd0a1c1f3d8eada7302fd37db96d", "is_reserved": 0, "rental_uris": {"android": "https://dc.lft.to/lastmile_qr_scan", "ios": "https://dc.lft.to/lastmile_qr_scan"}, "fusion_lon": 0.0}, {"lat": 38.899846333333336, "is_disabled": 0, "type": "electric_scooter", "lon": -77.05098683333334, "bike_id": "07605099a33f0882365ecadf96e15c72", "fusion_lat": 0.0, "name": "07605099a33f0882365ecadf96e15c72", "is_reserved": 0, "rental_uris": {"android": "https://dc.lft.to/lastmile_qr_scan", "ios": "https://dc.lft.to/lastmile_qr_scan"}, "fusion_lon": 0.0}, {"lat": 38.8974535, "is_disabled": 0, "type": "electric_scooter", "lon": -77.04681133333334, "bike_id": "d8137cceb0336a63f2f404be5572c05e", "fusion_lat": 0.0, "name": "d8137cceb0336a63f2f404be5572c05e", "is_reserved": 0, "rental_uris": {"android": "https://dc.lft.to/lastmile_qr_scan", "ios": "https://dc.lft.to/lastmile_qr_scan"}, "fusion_lon": 0.0}, {"lat": 38.86658933333333, "is_disabled": 0, "type": "electric_scooter", "lon": -76.98881666666666, "bike_id": "d93bcc6532463618f951ead89bcbc080", "fusion_lat": 0.0, "name": "d93bcc6532463618f951ead89bcbc080", "is_reserved": 0, "rental_uris": {"android": "https://dc.lft.to/lastmile_qr_scan", "ios": "https://dc.lft.to/lastmile_qr_scan"}, "fusion_lon": 0.0}, {"lat": 38.921888833333334, "is_disabled": 0, "type": "electric_scooter", "lon": -77.047153, "bike_id": "2910241c8a9055216d86dd9f96435ccd", "fusion_lat": 0.0, "name": "2910241c8a9055216d86dd9f96435ccd", "is_reserved": 0, "rental_uris": {"android": "https://dc.lft.to/lastmile_qr_scan", "ios": "https://dc.lft.to/lastmile_qr_scan"}, "fusion_lon": 0.0}, {"lat": 38.96498883333334, "is_disabled": 0, "type": "electric_scooter", "lon": -77.02786983333333, "bike_id": "398ce27d70abfef227e5dd1d56bc35dc", "fusion_lat": 0.0, "name": "398ce27d70abfef227e5dd1d56bc35dc", "is_reserved": 0, "rental_uris": {"android": "https://dc.lft.to/lastmile_qr_scan", "ios": "https://dc.lft.to/lastmile_qr_scan"}, "fusion_lon": 0.0}, {"lat": 38.932416833333335, "is_disabled": 0, "type": "electric_scooter", "lon": -77.032648, "bike_id": "5b31f99fbdb11c626735b0849e5b27c2", "fusion_lat": 0.0, "name": "5b31f99fbdb11c626735b0849e5b27c2", "is_reserved": 0, "rental_uris": {"android": "https://dc.lft.to/lastmile_qr_scan", "ios": "https://dc.lft.to/lastmile_qr_scan"}, "fusion_lon": 0.0}, {"lat": 38.920319166666665, "is_disabled": 0, "type": "electric_scooter", "lon": -77.03855266666666, "bike_id": "3e70d6ccb51e7a07903e238fdd28fd5c", "fusion_lat": 0.0, "name": "3e70d6ccb51e7a07903e238fdd28fd5c", "is_reserved": 0, "rental_uris": {"android": "https://dc.lft.to/lastmile_qr_scan", "ios": "https://dc.lft.to/lastmile_qr_scan"}, "fusion_lon": 0.0}, {"lat": 38.91911066666667, "is_disabled": 0, "type": "electric_scooter", "lon": -77.03392216666667, "bike_id": "72de6fe34daddeab180a02fcc96665a5", "fusion_lat": 0.0, "name": "72de6fe34daddeab180a02fcc96665a5", "is_reserved": 0, "rental_uris": {"android": "https://dc.lft.to/lastmile_qr_scan", "ios": "https://dc.lft.to/lastmile_qr_scan"}, "fusion_lon": 0.0}, {"lat": 38.90526766666667, "is_disabled": 0, "type": "electric_scooter", "lon": -76.98621333333334, "bike_id": "afeada8f71a9c64d5744760cd83b2a04", "fusion_lat": 0.0, "name": "afeada8f71a9c64d5744760cd83b2a04", "is_reserved": 0, "rental_uris": {"android": "https://dc.lft.to/lastmile_qr_scan", "ios": "https://dc.lft.to/lastmile_qr_scan"}, "fusion_lon": 0.0}, {"lat": 38.86791816666667, "is_disabled": 0, "type": "electric_scooter", "lon": -76.9656795, "bike_id": "2bb5f4ac3209c4e0f4ae9ed94a70dab1", "fusion_lat": 0.0, "name": "2bb5f4ac3209c4e0f4ae9ed94a70dab1", "is_reserved": 0, "rental_uris": {"android": "https://dc.lft.to/lastmile_qr_scan", "ios": "https://dc.lft.to/lastmile_qr_scan"}, "fusion_lon": 0.0}, {"lat": 38.90388516666667, "is_disabled": 0, "type": "electric_scooter", "lon": -77.0027105, "bike_id": "fc024b197eaf68e78177ddf61eff040c", "fusion_lat": 0.0, "name": "fc024b197eaf68e78177ddf61eff040c", "is_reserved": 0, "rental_uris": {"android": "https://dc.lft.to/lastmile_qr_scan", "ios": "https://dc.lft.to/lastmile_qr_scan"}, "fusion_lon": 0.0}, {"lat": 38.918563166666665, "is_disabled": 0, "type": "electric_scooter", "lon": -76.96555666666667, "bike_id": "7948a61e6e57fcc5357783884b84e8b0", "fusion_lat": 0.0, "name": "7948a61e6e57fcc5357783884b84e8b0", "is_reserved": 0, "rental_uris": {"android": "https://dc.lft.to/lastmile_qr_scan", "ios": "https://dc.lft.to/lastmile_qr_scan"}, "fusion_lon": 0.0}, {"lat": 38.900337666666665, "is_disabled": 0, "type": "electric_scooter", "lon": -77.00196283333334, "bike_id": "a87312ebe3637aa03ecaa07f66a2f488", "fusion_lat": 0.0, "name": "a87312ebe3637aa03ecaa07f66a2f488", "is_reserved": 0, "rental_uris": {"android": "https://dc.lft.to/lastmile_qr_scan", "ios": "https://dc.lft.to/lastmile_qr_scan"}, "fusion_lon": 0.0}, {"lat": 38.897498, "is_disabled": 0, "type": "electric_scooter", "lon": -77.01860483333333, "bike_id": "7986b55722cc213f60961c2bbec38280", "fusion_lat": 0.0, "name": "7986b55722cc213f60961c2bbec38280", "is_reserved": 0, "rental_uris": {"android": "https://dc.lft.to/lastmile_qr_scan", "ios": "https://dc.lft.to/lastmile_qr_scan"}, "fusion_lon": 0.0}, {"lat": 38.9327205, "is_disabled": 0, "type": "electric_scooter", "lon": -77.03285416666667, "bike_id": "a2969ca8197b550d13b3e2ebe3c6e781", "fusion_lat": 0.0, "name": "a2969ca8197b550d13b3e2ebe3c6e781", "is_reserved": 0, "rental_uris": {"android": "https://dc.lft.to/lastmile_qr_scan", "ios": "https://dc.lft.to/lastmile_qr_scan"}, "fusion_lon": 0.0}, {"lat": 38.906886, "is_disabled": 0, "type": "electric_scooter", "lon": -77.06259416666667, "bike_id": "e1299053df1fd218679c10401a8d15e6", "fusion_lat": 0.0, "name": "e1299053df1fd218679c10401a8d15e6", "is_reserved": 0, "rental_uris": {"android": "https://dc.lft.to/lastmile_qr_scan", "ios": "https://dc.lft.to/lastmile_qr_scan"}, "fusion_lon": 0.0}, {"lat": 38.923022833333334, "is_disabled": 0, "type": "electric_scooter", "lon": -77.04147633333334, "bike_id": "cb071606486c89c2729f29a1be851860", "fusion_lat": 0.0, "name": "cb071606486c89c2729f29a1be851860", "is_reserved": 0, "rental_uris": {"android": "https://dc.lft.to/lastmile_qr_scan", "ios": "https://dc.lft.to/lastmile_qr_scan"}, "fusion_lon": 0.0}, {"lat": 38.93264633333333, "is_disabled": 0, "type": "electric_scooter", "lon": -77.03268066666666, "bike_id": "859216b64bbdaf3b9cabb8932dedc569", "fusion_lat": 0.0, "name": "859216b64bbdaf3b9cabb8932dedc569", "is_reserved": 0, "rental_uris": {"android": "https://dc.lft.to/lastmile_qr_scan", "ios": "https://dc.lft.to/lastmile_qr_scan"}, "fusion_lon": 0.0}, {"lat": 38.9398415, "is_disabled": 0, "type": "electric_scooter", "lon": -77.02892583333333, "bike_id": "e06f9f49f526b1a8132ec38e4d22b3f8", "fusion_lat": 0.0, "name": "e06f9f49f526b1a8132ec38e4d22b3f8", "is_reserved": 0, "rental_uris": {"android": "https://dc.lft.to/lastmile_qr_scan", "ios": "https://dc.lft.to/lastmile_qr_scan"}, "fusion_lon": 0.0}, {"lat": 38.9156515, "is_disabled": 0, "type": "electric_scooter", "lon": -77.031556, "bike_id": "34977729cc21d29cf0d146cfb0d9f7d8", "fusion_lat": 0.0, "name": "34977729cc21d29cf0d146cfb0d9f7d8", "is_reserved": 0, "rental_uris": {"android": "https://dc.lft.to/lastmile_qr_scan", "ios": "https://dc.lft.to/lastmile_qr_scan"}, "fusion_lon": 0.0}, {"lat": 38.867270833333336, "is_disabled": 0, "type": "electric_scooter", "lon": -77.0102075, "bike_id": "3fa22f4ee493b7b050d3322087dd1f5e", "fusion_lat": 0.0, "name": "3fa22f4ee493b7b050d3322087dd1f5e", "is_reserved": 0, "rental_uris": {"android": "https://dc.lft.to/lastmile_qr_scan", "ios": "https://dc.lft.to/lastmile_qr_scan"}, "fusion_lon": 0.0}, {"lat": 38.923602333333335, "is_disabled": 0, "type": "electric_scooter", "lon": -77.05097883333333, "bike_id": "deddd683fca7ae4c5692a328c92f7294", "fusion_lat": 0.0, "name": "deddd683fca7ae4c5692a328c92f7294", "is_reserved": 0, "rental_uris": {"android": "https://dc.lft.to/lastmile_qr_scan", "ios": "https://dc.lft.to/lastmile_qr_scan"}, "fusion_lon": 0.0}, {"lat": 38.85789533333333, "is_disabled": 0, "type": "electric_bike", "lon": -77.09961566666666, "bike_id": "ccd8313dccac646c05af5eb709ab3d70", "fusion_lat": 0.0, "name": "ccd8313dccac646c05af5eb709ab3d70", "is_reserved": 0, "rental_uris": {"android": "https://dc.lft.to/lastmile_qr_scan", "ios": "https://dc.lft.to/lastmile_qr_scan"}, "fusion_lon": 0.0}, {"lat": 38.91684266666667, "is_disabled": 0, "type": "electric_scooter", "lon": -77.023, "bike_id": "e855510b1040590fa37dd7b833aec4f5", "fusion_lat": 0.0, "name": "e855510b1040590fa37dd7b833aec4f5", "is_reserved": 0, "rental_uris": {"android": "https://dc.lft.to/lastmile_qr_scan", "ios": "https://dc.lft.to/lastmile_qr_scan"}, "fusion_lon": 0.0}, {"lat": 38.939821, "is_disabled": 0, "type": "electric_scooter", "lon": -77.03267533333333, "bike_id": "bf64cf94bf650ddff6a107195ea52e38", "fusion_lat": 0.0, "name": "bf64cf94bf650ddff6a107195ea52e38", "is_reserved": 0, "rental_uris": {"android": "https://dc.lft.to/lastmile_qr_scan", "ios": "https://dc.lft.to/lastmile_qr_scan"}, "fusion_lon": 0.0}, {"lat": 38.8767785, "is_disabled": 0, "type": "electric_scooter", "lon": -77.01791783333333, "bike_id": "cbce233691911bf124d2e55b919ddd14", "fusion_lat": 0.0, "name": "cbce233691911bf124d2e55b919ddd14", "is_reserved": 0, "rental_uris": {"android": "https://dc.lft.to/lastmile_qr_scan", "ios": "https://dc.lft.to/lastmile_qr_scan"}, "fusion_lon": 0.0}, {"lat": 38.916946, "is_disabled": 0, "type": "electric_scooter", "lon": -77.04586966666666, "bike_id": "64c48426af78f8945f2791a3bbbc4192", "fusion_lat": 0.0, "name": "64c48426af78f8945f2791a3bbbc4192", "is_reserved": 0, "rental_uris": {"android": "https://dc.lft.to/lastmile_qr_scan", "ios": "https://dc.lft.to/lastmile_qr_scan"}, "fusion_lon": 0.0}, {"lat": 38.901418166666666, "is_disabled": 0, "type": "electric_scooter", "lon": -76.980489, "bike_id": "3197fe3979b70be533bb0a6cb6402dd5", "fusion_lat": 0.0, "name": "3197fe3979b70be533bb0a6cb6402dd5", "is_reserved": 0, "rental_uris": {"android": "https://dc.lft.to/lastmile_qr_scan", "ios": "https://dc.lft.to/lastmile_qr_scan"}, "fusion_lon": 0.0}, {"lat": 38.879695, "is_disabled": 0, "type": "electric_scooter", "lon": -77.00576416666667, "bike_id": "0a1e5dcdcb424deea436a3a0290f3a19", "fusion_lat": 0.0, "name": "0a1e5dcdcb424deea436a3a0290f3a19", "is_reserved": 0, "rental_uris": {"android": "https://dc.lft.to/lastmile_qr_scan", "ios": "https://dc.lft.to/lastmile_qr_scan"}, "fusion_lon": 0.0}, {"lat": 38.93109283333333, "is_disabled": 0, "type": "electric_scooter", "lon": -77.0302255, "bike_id": "db91c7fe75684c5f719cf7189268fb61", "fusion_lat": 0.0, "name": "db91c7fe75684c5f719cf7189268fb61", "is_reserved": 0, "rental_uris": {"android": "https://dc.lft.to/lastmile_qr_scan", "ios": "https://dc.lft.to/lastmile_qr_scan"}, "fusion_lon": 0.0}, {"lat": 38.919832666666665, "is_disabled": 0, "type": "electric_scooter", "lon": -77.0001715, "bike_id": "e10a0ea5f5d3d81631cdf8cebf9a2b58", "fusion_lat": 0.0, "name": "e10a0ea5f5d3d81631cdf8cebf9a2b58", "is_reserved": 0, "rental_uris": {"android": "https://dc.lft.to/lastmile_qr_scan", "ios": "https://dc.lft.to/lastmile_qr_scan"}, "fusion_lon": 0.0}, {"lat": 38.934155, "is_disabled": 0, "type": "electric_bike", "lon": -77.02508583333334, "bike_id": "d4eda1480210c5d8e2ad2896500badf5", "fusion_lat": 0.0, "name": "d4eda1480210c5d8e2ad2896500badf5", "is_reserved": 0, "rental_uris": {"android": "https://dc.lft.to/lastmile_qr_scan", "ios": "https://dc.lft.to/lastmile_qr_scan"}, "fusion_lon": 0.0}, {"lat": 38.90367633333334, "is_disabled": 0, "type": "electric_scooter", "lon": -77.0629145, "bike_id": "7c6be43787d868330632736369aa8b86", "fusion_lat": 0.0, "name": "7c6be43787d868330632736369aa8b86", "is_reserved": 0, "rental_uris": {"android": "https://dc.lft.to/lastmile_qr_scan", "ios": "https://dc.lft.to/lastmile_qr_scan"}, "fusion_lon": 0.0}, {"lat": 38.90417733333334, "is_disabled": 0, "type": "electric_scooter", "lon": -76.99075833333333, "bike_id": "838b8e23fa595fc73681d3a243bda0ca", "fusion_lat": 0.0, "name": "838b8e23fa595fc73681d3a243bda0ca", "is_reserved": 0, "rental_uris": {"android": "https://dc.lft.to/lastmile_qr_scan", "ios": "https://dc.lft.to/lastmile_qr_scan"}, "fusion_lon": 0.0}, {"lat": 38.84612033333333, "is_disabled": 0, "type": "electric_bike", "lon": -76.96907516666667, "bike_id": "82965a153b210bc23f904e0f0cf01cbf", "fusion_lat": 0.0, "name": "82965a153b210bc23f904e0f0cf01cbf", "is_reserved": 0, "rental_uris": {"android": "https://dc.lft.to/lastmile_qr_scan", "ios": "https://dc.lft.to/lastmile_qr_scan"}, "fusion_lon": 0.0}, {"lat": 38.9423175, "is_disabled": 0, "type": "electric_scooter", "lon": -77.01389483333334, "bike_id": "b922091875176ac70aa044e7aabbc62d", "fusion_lat": 0.0, "name": "b922091875176ac70aa044e7aabbc62d", "is_reserved": 0, "rental_uris": {"android": "https://dc.lft.to/lastmile_qr_scan", "ios": "https://dc.lft.to/lastmile_qr_scan"}, "fusion_lon": 0.0}, {"lat": 38.913611333333336, "is_disabled": 0, "type": "electric_scooter", "lon": -77.01522033333333, "bike_id": "2321b7ae44b4d7bb51f1f1234b1de5b4", "fusion_lat": 0.0, "name": "2321b7ae44b4d7bb51f1f1234b1de5b4", "is_reserved": 0, "rental_uris": {"android": "https://dc.lft.to/lastmile_qr_scan", "ios": "https://dc.lft.to/lastmile_qr_scan"}, "fusion_lon": 0.0}, {"lat": 38.91267283333333, "is_disabled": 0, "type": "electric_scooter", "lon": -77.00487783333334, "bike_id": "b0d6ef6d879e9da2a3612b98eac2c14a", "fusion_lat": 0.0, "name": "b0d6ef6d879e9da2a3612b98eac2c14a", "is_reserved": 0, "rental_uris": {"android": "https://dc.lft.to/lastmile_qr_scan", "ios": "https://dc.lft.to/lastmile_qr_scan"}, "fusion_lon": 0.0}, {"lat": 38.90458683333333, "is_disabled": 0, "type": "electric_scooter", "lon": -77.007147, "bike_id": "5c463d38c2bcac17c0fdd438a3c010da", "fusion_lat": 0.0, "name": "5c463d38c2bcac17c0fdd438a3c010da", "is_reserved": 0, "rental_uris": {"android": "https://dc.lft.to/lastmile_qr_scan", "ios": "https://dc.lft.to/lastmile_qr_scan"}, "fusion_lon": 0.0}, {"lat": 38.908385, "is_disabled": 0, "type": "electric_scooter", "lon": -77.0383685, "bike_id": "3b20a54abec6cfd382acdb0b879280c8", "fusion_lat": 0.0, "name": "3b20a54abec6cfd382acdb0b879280c8", "is_reserved": 0, "rental_uris": {"android": "https://dc.lft.to/lastmile_qr_scan", "ios": "https://dc.lft.to/lastmile_qr_scan"}, "fusion_lon": 0.0}, {"lat": 38.909600833333336, "is_disabled": 0, "type": "electric_scooter", "lon": -77.02686566666667, "bike_id": "eaee392ccaef8475af7d1440f2ed330d", "fusion_lat": 0.0, "name": "eaee392ccaef8475af7d1440f2ed330d", "is_reserved": 0, "rental_uris": {"android": "https://dc.lft.to/lastmile_qr_scan", "ios": "https://dc.lft.to/lastmile_qr_scan"}, "fusion_lon": 0.0}, {"lat": 38.91795316666666, "is_disabled": 0, "type": "electric_scooter", "lon": -77.0230755, "bike_id": "091f7a7dc2eb80781add7771afa15515", "fusion_lat": 0.0, "name": "091f7a7dc2eb80781add7771afa15515", "is_reserved": 0, "rental_uris": {"android": "https://dc.lft.to/lastmile_qr_scan", "ios": "https://dc.lft.to/lastmile_qr_scan"}, "fusion_lon": 0.0}, {"lat": 38.92627266666667, "is_disabled": 0, "type": "electric_scooter", "lon": -77.03609466666667, "bike_id": "c5d3c5394c7b97ccb923ee9fedef9d6a", "fusion_lat": 0.0, "name": "c5d3c5394c7b97ccb923ee9fedef9d6a", "is_reserved": 0, "rental_uris": {"android": "https://dc.lft.to/lastmile_qr_scan", "ios": "https://dc.lft.to/lastmile_qr_scan"}, "fusion_lon": 0.0}, {"lat": 38.919804666666664, "is_disabled": 0, "type": "electric_scooter", "lon": -77.00022033333333, "bike_id": "84cdd6badd5b2b5ec4c0bd0bb6e60891", "fusion_lat": 0.0, "name": "84cdd6badd5b2b5ec4c0bd0bb6e60891", "is_reserved": 0, "rental_uris": {"android": "https://dc.lft.to/lastmile_qr_scan", "ios": "https://dc.lft.to/lastmile_qr_scan"}, "fusion_lon": 0.0}, {"lat": 38.8766395, "is_disabled": 0, "type": "electric_scooter", "lon": -77.00422133333333, "bike_id": "cefdd348b68f48eb2d15d9368310d724", "fusion_lat": 0.0, "name": "cefdd348b68f48eb2d15d9368310d724", "is_reserved": 0, "rental_uris": {"android": "https://dc.lft.to/lastmile_qr_scan", "ios": "https://dc.lft.to/lastmile_qr_scan"}, "fusion_lon": 0.0}, {"lat": 38.931998666666665, "is_disabled": 0, "type": "electric_bike", "lon": -77.03877366666667, "bike_id": "ef49efd3f92607e0a4403b57c60fa5d1", "fusion_lat": 0.0, "name": "ef49efd3f92607e0a4403b57c60fa5d1", "is_reserved": 0, "rental_uris": {"android": "https://dc.lft.to/lastmile_qr_scan", "ios": "https://dc.lft.to/lastmile_qr_scan"}, "fusion_lon": 0.0}, {"lat": 38.866218, "is_disabled": 0, "type": "electric_scooter", "lon": -76.98665383333334, "bike_id": "611605a290c8c16b7b4a0a685cf2e6fc", "fusion_lat": 0.0, "name": "611605a290c8c16b7b4a0a685cf2e6fc", "is_reserved": 0, "rental_uris": {"android": "https://dc.lft.to/lastmile_qr_scan", "ios": "https://dc.lft.to/lastmile_qr_scan"}, "fusion_lon": 0.0}, {"lat": 38.880452166666664, "is_disabled": 0, "type": "electric_scooter", "lon": -77.00544016666667, "bike_id": "d3b649b1e1527241c17c3a8c3a603e00", "fusion_lat": 0.0, "name": "d3b649b1e1527241c17c3a8c3a603e00", "is_reserved": 0, "rental_uris": {"android": "https://dc.lft.to/lastmile_qr_scan", "ios": "https://dc.lft.to/lastmile_qr_scan"}, "fusion_lon": 0.0}, {"lat": 38.90851083333333, "is_disabled": 0, "type": "electric_scooter", "lon": -77.02950633333333, "bike_id": "355584fd8cc5e8c939af3bdf3a2c1599", "fusion_lat": 0.0, "name": "355584fd8cc5e8c939af3bdf3a2c1599", "is_reserved": 0, "rental_uris": {"android": "https://dc.lft.to/lastmile_qr_scan", "ios": "https://dc.lft.to/lastmile_qr_scan"}, "fusion_lon": 0.0}, {"lat": 38.845877333333334, "is_disabled": 0, "type": "electric_bike", "lon": -77.07677716666667, "bike_id": "1279f1aadd0195ebf22a941ba8adf3b6", "fusion_lat": 0.0, "name": "1279f1aadd0195ebf22a941ba8adf3b6", "is_reserved": 0, "rental_uris": {"android": "https://dc.lft.to/lastmile_qr_scan", "ios": "https://dc.lft.to/lastmile_qr_scan"}, "fusion_lon": 0.0}, {"lat": 38.9404125, "is_disabled": 0, "type": "electric_scooter", "lon": -77.02909783333334, "bike_id": "17d12d387e38739ada34a1c79dc33ccd", "fusion_lat": 0.0, "name": "17d12d387e38739ada34a1c79dc33ccd", "is_reserved": 0, "rental_uris": {"android": "https://dc.lft.to/lastmile_qr_scan", "ios": "https://dc.lft.to/lastmile_qr_scan"}, "fusion_lon": 0.0}, {"lat": 38.906393666666666, "is_disabled": 0, "type": "electric_scooter", "lon": -77.01367733333333, "bike_id": "4d408cee9a02afbd16db4df483765a38", "fusion_lat": 0.0, "name": "4d408cee9a02afbd16db4df483765a38", "is_reserved": 0, "rental_uris": {"android": "https://dc.lft.to/lastmile_qr_scan", "ios": "https://dc.lft.to/lastmile_qr_scan"}, "fusion_lon": 0.0}, {"lat": 38.81224116666667, "is_disabled": 0, "type": "electric_bike", "lon": -77.10984783333333, "bike_id": "03c5476532d21594c6589b5114e16aa0", "fusion_lat": 0.0, "name": "03c5476532d21594c6589b5114e16aa0", "is_reserved": 0, "rental_uris": {"android": "https://dc.lft.to/lastmile_qr_scan", "ios": "https://dc.lft.to/lastmile_qr_scan"}, "fusion_lon": 0.0}, {"lat": 38.907214833333335, "is_disabled": 0, "type": "electric_scooter", "lon": -77.00103333333334, "bike_id": "57b3c83f1a1798d6b808bf7b1d1026b8", "fusion_lat": 0.0, "name": "57b3c83f1a1798d6b808bf7b1d1026b8", "is_reserved": 0, "rental_uris": {"android": "https://dc.lft.to/lastmile_qr_scan", "ios": "https://dc.lft.to/lastmile_qr_scan"}, "fusion_lon": 0.0}, {"lat": 38.9319225, "is_disabled": 0, "type": "electric_scooter", "lon": -77.028323, "bike_id": "b9c874105a42070875a0a399cb53adf3", "fusion_lat": 0.0, "name": "b9c874105a42070875a0a399cb53adf3", "is_reserved": 0, "rental_uris": {"android": "https://dc.lft.to/lastmile_qr_scan", "ios": "https://dc.lft.to/lastmile_qr_scan"}, "fusion_lon": 0.0}, {"lat": 38.916887, "is_disabled": 0, "type": "electric_scooter", "lon": -77.029509, "bike_id": "3fc5dc4f8794eb8ca165b76200f73939", "fusion_lat": 0.0, "name": "3fc5dc4f8794eb8ca165b76200f73939", "is_reserved": 0, "rental_uris": {"android": "https://dc.lft.to/lastmile_qr_scan", "ios": "https://dc.lft.to/lastmile_qr_scan"}, "fusion_lon": 0.0}, {"lat": 38.91921933333333, "is_disabled": 0, "type": "electric_scooter", "lon": -77.03399383333333, "bike_id": "d88d59a0f59426f768e0167c45f9de77", "fusion_lat": 0.0, "name": "d88d59a0f59426f768e0167c45f9de77", "is_reserved": 0, "rental_uris": {"android": "https://dc.lft.to/lastmile_qr_scan", "ios": "https://dc.lft.to/lastmile_qr_scan"}, "fusion_lon": 0.0}, {"lat": 38.91938583333334, "is_disabled": 0, "type": "electric_scooter", "lon": -77.08130216666666, "bike_id": "fb5a2e82611d018f69c92e4477588e50", "fusion_lat": 0.0, "name": "fb5a2e82611d018f69c92e4477588e50", "is_reserved": 0, "rental_uris": {"android": "https://dc.lft.to/lastmile_qr_scan", "ios": "https://dc.lft.to/lastmile_qr_scan"}, "fusion_lon": 0.0}, {"lat": 38.90096333333334, "is_disabled": 0, "type": "electric_scooter", "lon": -77.05003583333334, "bike_id": "1bb31fc0ce268af688845b4568bfb6ea", "fusion_lat": 0.0, "name": "1bb31fc0ce268af688845b4568bfb6ea", "is_reserved": 0, "rental_uris": {"android": "https://dc.lft.to/lastmile_qr_scan", "ios": "https://dc.lft.to/lastmile_qr_scan"}, "fusion_lon": 0.0}, {"lat": 38.94296466666667, "is_disabled": 0, "type": "electric_scooter", "lon": -77.0770285, "bike_id": "ccf780457b3995f04b6574f7f284e3e6", "fusion_lat": 0.0, "name": "ccf780457b3995f04b6574f7f284e3e6", "is_reserved": 0, "rental_uris": {"android": "https://dc.lft.to/lastmile_qr_scan", "ios": "https://dc.lft.to/lastmile_qr_scan"}, "fusion_lon": 0.0}, {"lat": 38.936575, "is_disabled": 0, "type": "electric_scooter", "lon": -77.02392216666667, "bike_id": "e8d036e0b13ea0f47508397df8ae9e5e", "fusion_lat": 0.0, "name": "e8d036e0b13ea0f47508397df8ae9e5e", "is_reserved": 0, "rental_uris": {"android": "https://dc.lft.to/lastmile_qr_scan", "ios": "https://dc.lft.to/lastmile_qr_scan"}, "fusion_lon": 0.0}, {"lat": 38.999998, "is_disabled": 0, "type": "electric_bike", "lon": -76.92495133333334, "bike_id": "2e8b6b48e45c3f76b439092abe37d387", "fusion_lat": 0.0, "name": "2e8b6b48e45c3f76b439092abe37d387", "is_reserved": 0, "rental_uris": {"android": "https://dc.lft.to/lastmile_qr_scan", "ios": "https://dc.lft.to/lastmile_qr_scan"}, "fusion_lon": 0.0}, {"lat": 38.89103933333333, "is_disabled": 0, "type": "electric_scooter", "lon": -76.952337, "bike_id": "f1b77b0d1da6d45322cd6953073c6950", "fusion_lat": 0.0, "name": "f1b77b0d1da6d45322cd6953073c6950", "is_reserved": 0, "rental_uris": {"android": "https://dc.lft.to/lastmile_qr_scan", "ios": "https://dc.lft.to/lastmile_qr_scan"}, "fusion_lon": 0.0}, {"lat": 38.9006285, "is_disabled": 0, "type": "electric_scooter", "lon": -76.93389366666666, "bike_id": "9dc3cce4668f31a5737d19bddb673390", "fusion_lat": 0.0, "name": "9dc3cce4668f31a5737d19bddb673390", "is_reserved": 0, "rental_uris": {"android": "https://dc.lft.to/lastmile_qr_scan", "ios": "https://dc.lft.to/lastmile_qr_scan"}, "fusion_lon": 0.0}, {"lat": 38.9055495, "is_disabled": 0, "type": "electric_scooter", "lon": -77.03448466666667, "bike_id": "e2332ad9b0630cd927f4f2b1f2a36827", "fusion_lat": 0.0, "name": "e2332ad9b0630cd927f4f2b1f2a36827", "is_reserved": 0, "rental_uris": {"android": "https://dc.lft.to/lastmile_qr_scan", "ios": "https://dc.lft.to/lastmile_qr_scan"}, "fusion_lon": 0.0}, {"lat": 38.899317333333336, "is_disabled": 0, "type": "electric_scooter", "lon": -77.05430366666667, "bike_id": "83fe428f532d8466e9d6e94dbefbf8fe", "fusion_lat": 0.0, "name": "83fe428f532d8466e9d6e94dbefbf8fe", "is_reserved": 0, "rental_uris": {"android": "https://dc.lft.to/lastmile_qr_scan", "ios": "https://dc.lft.to/lastmile_qr_scan"}, "fusion_lon": 0.0}, {"lat": 38.893856666666665, "is_disabled": 0, "type": "electric_scooter", "lon": -77.021635, "bike_id": "2fdee7eb0f37b3f6111c387c48420480", "fusion_lat": 0.0, "name": "2fdee7eb0f37b3f6111c387c48420480", "is_reserved": 0, "rental_uris": {"android": "https://dc.lft.to/lastmile_qr_scan", "ios": "https://dc.lft.to/lastmile_qr_scan"}, "fusion_lon": 0.0}, {"lat": 38.943267, "is_disabled": 0, "type": "electric_scooter", "lon": -77.07382266666667, "bike_id": "bf064c354c4dc87ccaa4c093345e9786", "fusion_lat": 0.0, "name": "bf064c354c4dc87ccaa4c093345e9786", "is_reserved": 0, "rental_uris": {"android": "https://dc.lft.to/lastmile_qr_scan", "ios": "https://dc.lft.to/lastmile_qr_scan"}, "fusion_lon": 0.0}, {"lat": 38.887046, "is_disabled": 0, "type": "electric_scooter", "lon": -77.03201133333333, "bike_id": "86137f4da142a6b201b0d8212540e6b8", "fusion_lat": 0.0, "name": "86137f4da142a6b201b0d8212540e6b8", "is_reserved": 0, "rental_uris": {"android": "https://dc.lft.to/lastmile_qr_scan", "ios": "https://dc.lft.to/lastmile_qr_scan"}, "fusion_lon": 0.0}, {"lat": 38.945136, "is_disabled": 0, "type": "electric_bike", "lon": -77.00673916666666, "bike_id": "d8dbba788c7e3f8c9905caa04afd7cef", "fusion_lat": 0.0, "name": "d8dbba788c7e3f8c9905caa04afd7cef", "is_reserved": 0, "rental_uris": {"android": "https://dc.lft.to/lastmile_qr_scan", "ios": "https://dc.lft.to/lastmile_qr_scan"}, "fusion_lon": 0.0}, {"lat": 38.92692233333333, "is_disabled": 0, "type": "electric_scooter", "lon": -77.02582966666667, "bike_id": "2558ccd9a5fad70441e1377f9359f399", "fusion_lat": 0.0, "name": "2558ccd9a5fad70441e1377f9359f399", "is_reserved": 0, "rental_uris": {"android": "https://dc.lft.to/lastmile_qr_scan", "ios": "https://dc.lft.to/lastmile_qr_scan"}, "fusion_lon": 0.0}, {"lat": 38.9283815, "is_disabled": 0, "type": "electric_scooter", "lon": -76.998492, "bike_id": "464cbf56e67e7bbd9b0f9981331879ab", "fusion_lat": 0.0, "name": "464cbf56e67e7bbd9b0f9981331879ab", "is_reserved": 0, "rental_uris": {"android": "https://dc.lft.to/lastmile_qr_scan", "ios": "https://dc.lft.to/lastmile_qr_scan"}, "fusion_lon": 0.0}, {"lat": 38.93612983333333, "is_disabled": 0, "type": "electric_scooter", "lon": -77.057516, "bike_id": "f3f72a84318468c380c5798a72416e42", "fusion_lat": 0.0, "name": "f3f72a84318468c380c5798a72416e42", "is_reserved": 0, "rental_uris": {"android": "https://dc.lft.to/lastmile_qr_scan", "ios": "https://dc.lft.to/lastmile_qr_scan"}, "fusion_lon": 0.0}, {"lat": 38.908250833333334, "is_disabled": 0, "type": "electric_scooter", "lon": -76.98308966666667, "bike_id": "c2f9cb55d34510333c93d97688a6deca", "fusion_lat": 0.0, "name": "c2f9cb55d34510333c93d97688a6deca", "is_reserved": 0, "rental_uris": {"android": "https://dc.lft.to/lastmile_qr_scan", "ios": "https://dc.lft.to/lastmile_qr_scan"}, "fusion_lon": 0.0}, {"lat": 38.9053965, "is_disabled": 0, "type": "electric_scooter", "lon": -77.0056075, "bike_id": "509ff33f07d8c7178af3a5d819010226", "fusion_lat": 0.0, "name": "509ff33f07d8c7178af3a5d819010226", "is_reserved": 0, "rental_uris": {"android": "https://dc.lft.to/lastmile_qr_scan", "ios": "https://dc.lft.to/lastmile_qr_scan"}, "fusion_lon": 0.0}, {"lat": 38.896162, "is_disabled": 0, "type": "electric_scooter", "lon": -76.9552175, "bike_id": "dbda6000bb34987eefd13a3d05cb48c8", "fusion_lat": 0.0, "name": "dbda6000bb34987eefd13a3d05cb48c8", "is_reserved": 0, "rental_uris": {"android": "https://dc.lft.to/lastmile_qr_scan", "ios": "https://dc.lft.to/lastmile_qr_scan"}, "fusion_lon": 0.0}, {"lat": 38.93365033333333, "is_disabled": 0, "type": "electric_scooter", "lon": -77.0372135, "bike_id": "43c9dd4f3b9c1939b0868e2045ec12e8", "fusion_lat": 0.0, "name": "43c9dd4f3b9c1939b0868e2045ec12e8", "is_reserved": 0, "rental_uris": {"android": "https://dc.lft.to/lastmile_qr_scan", "ios": "https://dc.lft.to/lastmile_qr_scan"}, "fusion_lon": 0.0}, {"lat": 38.884817166666664, "is_disabled": 0, "type": "electric_scooter", "lon": -76.94524116666666, "bike_id": "4a3033d026e55882e2a3af733106d23a", "fusion_lat": 0.0, "name": "4a3033d026e55882e2a3af733106d23a", "is_reserved": 0, "rental_uris": {"android": "https://dc.lft.to/lastmile_qr_scan", "ios": "https://dc.lft.to/lastmile_qr_scan"}, "fusion_lon": 0.0}, {"lat": 38.899650333333334, "is_disabled": 0, "type": "electric_scooter", "lon": -77.016068, "bike_id": "caad3fcf00426040afabb4a5549757e0", "fusion_lat": 0.0, "name": "caad3fcf00426040afabb4a5549757e0", "is_reserved": 0, "rental_uris": {"android": "https://dc.lft.to/lastmile_qr_scan", "ios": "https://dc.lft.to/lastmile_qr_scan"}, "fusion_lon": 0.0}, {"lat": 38.924719, "is_disabled": 0, "type": "electric_scooter", "lon": -77.033807, "bike_id": "bdcafa23adb0ab2cd7f1ab847b9999af", "fusion_lat": 0.0, "name": "bdcafa23adb0ab2cd7f1ab847b9999af", "is_reserved": 0, "rental_uris": {"android": "https://dc.lft.to/lastmile_qr_scan", "ios": "https://dc.lft.to/lastmile_qr_scan"}, "fusion_lon": 0.0}, {"lat": 38.911689833333334, "is_disabled": 0, "type": "electric_bike", "lon": -77.00288266666666, "bike_id": "e8a94874cfdfe6f0b4e3fe3751393d98", "fusion_lat": 0.0, "name": "e8a94874cfdfe6f0b4e3fe3751393d98", "is_reserved": 0, "rental_uris": {"android": "https://dc.lft.to/lastmile_qr_scan", "ios": "https://dc.lft.to/lastmile_qr_scan"}, "fusion_lon": 0.0}, {"lat": 38.90004416666667, "is_disabled": 0, "type": "electric_scooter", "lon": -76.9878895, "bike_id": "f83c1c82367113ba135bd9230c72c78a", "fusion_lat": 0.0, "name": "f83c1c82367113ba135bd9230c72c78a", "is_reserved": 0, "rental_uris": {"android": "https://dc.lft.to/lastmile_qr_scan", "ios": "https://dc.lft.to/lastmile_qr_scan"}, "fusion_lon": 0.0}, {"lat": 38.871451, "is_disabled": 0, "type": "electric_bike", "lon": -76.93696033333333, "bike_id": "1e6bd1a5261d8cce0db0aac4a96e067e", "fusion_lat": 0.0, "name": "1e6bd1a5261d8cce0db0aac4a96e067e", "is_reserved": 0, "rental_uris": {"android": "https://dc.lft.to/lastmile_qr_scan", "ios": "https://dc.lft.to/lastmile_qr_scan"}, "fusion_lon": 0.0}, {"lat": 38.91617633333333, "is_disabled": 0, "type": "electric_scooter", "lon": -77.03261, "bike_id": "96ac129f1e038b774cc5e43c287b3092", "fusion_lat": 0.0, "name": "96ac129f1e038b774cc5e43c287b3092", "is_reserved": 0, "rental_uris": {"android": "https://dc.lft.to/lastmile_qr_scan", "ios": "https://dc.lft.to/lastmile_qr_scan"}, "fusion_lon": 0.0}, {"lat": 38.93098, "is_disabled": 0, "type": "electric_scooter", "lon": -77.03481616666667, "bike_id": "41477f1d7676bae5ce8d50452b39bdf9", "fusion_lat": 0.0, "name": "41477f1d7676bae5ce8d50452b39bdf9", "is_reserved": 0, "rental_uris": {"android": "https://dc.lft.to/lastmile_qr_scan", "ios": "https://dc.lft.to/lastmile_qr_scan"}, "fusion_lon": 0.0}, {"lat": 38.9015545, "is_disabled": 0, "type": "electric_scooter", "lon": -76.98066566666667, "bike_id": "8d6a0b04555f31af98104b0f9150a5e3", "fusion_lat": 0.0, "name": "8d6a0b04555f31af98104b0f9150a5e3", "is_reserved": 0, "rental_uris": {"android": "https://dc.lft.to/lastmile_qr_scan", "ios": "https://dc.lft.to/lastmile_qr_scan"}, "fusion_lon": 0.0}, {"lat": 38.93096583333333, "is_disabled": 0, "type": "electric_scooter", "lon": -77.02518083333334, "bike_id": "bc58642a3f2d5688ed97fa3e1f9ab253", "fusion_lat": 0.0, "name": "bc58642a3f2d5688ed97fa3e1f9ab253", "is_reserved": 0, "rental_uris": {"android": "https://dc.lft.to/lastmile_qr_scan", "ios": "https://dc.lft.to/lastmile_qr_scan"}, "fusion_lon": 0.0}, {"lat": 38.87153633333333, "is_disabled": 0, "type": "electric_scooter", "lon": -77.01311, "bike_id": "ba7c6fda9d8517326998381224c4f3df", "fusion_lat": 0.0, "name": "ba7c6fda9d8517326998381224c4f3df", "is_reserved": 0, "rental_uris": {"android": "https://dc.lft.to/lastmile_qr_scan", "ios": "https://dc.lft.to/lastmile_qr_scan"}, "fusion_lon": 0.0}, {"lat": 38.84577016666667, "is_disabled": 0, "type": "electric_bike", "lon": -77.09624466666666, "bike_id": "8e73788db5ef925d60f4538af1ad647f", "fusion_lat": 0.0, "name": "8e73788db5ef925d60f4538af1ad647f", "is_reserved": 0, "rental_uris": {"android": "https://dc.lft.to/lastmile_qr_scan", "ios": "https://dc.lft.to/lastmile_qr_scan"}, "fusion_lon": 0.0}, {"lat": 38.920755666666665, "is_disabled": 0, "type": "electric_scooter", "lon": -77.02424433333333, "bike_id": "0d2a4c36a08ca48953e561529c7e34cc", "fusion_lat": 0.0, "name": "0d2a4c36a08ca48953e561529c7e34cc", "is_reserved": 0, "rental_uris": {"android": "https://dc.lft.to/lastmile_qr_scan", "ios": "https://dc.lft.to/lastmile_qr_scan"}, "fusion_lon": 0.0}, {"lat": 38.90241116666667, "is_disabled": 0, "type": "electric_scooter", "lon": -77.0533405, "bike_id": "2779774799fde233b26f3c35034b3a42", "fusion_lat": 0.0, "name": "2779774799fde233b26f3c35034b3a42", "is_reserved": 0, "rental_uris": {"android": "https://dc.lft.to/lastmile_qr_scan", "ios": "https://dc.lft.to/lastmile_qr_scan"}, "fusion_lon": 0.0}, {"lat": 38.83687716666667, "is_disabled": 0, "type": "electric_scooter", "lon": -77.103072, "bike_id": "faf13e4d874e64e66953ccb516ee93aa", "fusion_lat": 0.0, "name": "faf13e4d874e64e66953ccb516ee93aa", "is_reserved": 0, "rental_uris": {"android": "https://dc.lft.to/lastmile_qr_scan", "ios": "https://dc.lft.to/lastmile_qr_scan"}, "fusion_lon": 0.0}, {"lat": 38.867082333333336, "is_disabled": 0, "type": "electric_scooter", "lon": -76.987256, "bike_id": "0ed72190b9fafdd1a5cd7b38b44f773f", "fusion_lat": 0.0, "name": "0ed72190b9fafdd1a5cd7b38b44f773f", "is_reserved": 0, "rental_uris": {"android": "https://dc.lft.to/lastmile_qr_scan", "ios": "https://dc.lft.to/lastmile_qr_scan"}, "fusion_lon": 0.0}, {"lat": 38.90481333333334, "is_disabled": 0, "type": "electric_scooter", "lon": -77.00735366666666, "bike_id": "5fb4989f595d28102b7ee7c285bd3e56", "fusion_lat": 0.0, "name": "5fb4989f595d28102b7ee7c285bd3e56", "is_reserved": 0, "rental_uris": {"android": "https://dc.lft.to/lastmile_qr_scan", "ios": "https://dc.lft.to/lastmile_qr_scan"}, "fusion_lon": 0.0}, {"lat": 38.9581055, "is_disabled": 0, "type": "electric_scooter", "lon": -77.03165533333333, "bike_id": "e46060c125d78f0da0a3f7ad86acfccb", "fusion_lat": 0.0, "name": "e46060c125d78f0da0a3f7ad86acfccb", "is_reserved": 0, "rental_uris": {"android": "https://dc.lft.to/lastmile_qr_scan", "ios": "https://dc.lft.to/lastmile_qr_scan"}, "fusion_lon": 0.0}, {"lat": 38.8645605, "is_disabled": 0, "type": "electric_bike", "lon": -76.94543616666667, "bike_id": "af647e968df828138bb45a4dc93d529a", "fusion_lat": 0.0, "name": "af647e968df828138bb45a4dc93d529a", "is_reserved": 0, "rental_uris": {"android": "https://dc.lft.to/lastmile_qr_scan", "ios": "https://dc.lft.to/lastmile_qr_scan"}, "fusion_lon": 0.0}, {"lat": 38.871534, "is_disabled": 0, "type": "electric_bike", "lon": -76.93703916666666, "bike_id": "e84179286554869fa484021e2ab8693d", "fusion_lat": 0.0, "name": "e84179286554869fa484021e2ab8693d", "is_reserved": 0, "rental_uris": {"android": "https://dc.lft.to/lastmile_qr_scan", "ios": "https://dc.lft.to/lastmile_qr_scan"}, "fusion_lon": 0.0}, {"lat": 38.9026885, "is_disabled": 0, "type": "electric_scooter", "lon": -77.03370283333334, "bike_id": "ba8485fbe48eb6d2e49479082a5ac803", "fusion_lat": 0.0, "name": "ba8485fbe48eb6d2e49479082a5ac803", "is_reserved": 0, "rental_uris": {"android": "https://dc.lft.to/lastmile_qr_scan", "ios": "https://dc.lft.to/lastmile_qr_scan"}, "fusion_lon": 0.0}, {"lat": 38.854485833333335, "is_disabled": 0, "type": "electric_scooter", "lon": -76.98579366666667, "bike_id": "2106e17b94ee9ff3524a64f0e9069899", "fusion_lat": 0.0, "name": "2106e17b94ee9ff3524a64f0e9069899", "is_reserved": 0, "rental_uris": {"android": "https://dc.lft.to/lastmile_qr_scan", "ios": "https://dc.lft.to/lastmile_qr_scan"}, "fusion_lon": 0.0}, {"lat": 38.91798583333333, "is_disabled": 0, "type": "electric_scooter", "lon": -77.03154933333333, "bike_id": "bca9acceb23670992aaa6be8ab09a5be", "fusion_lat": 0.0, "name": "bca9acceb23670992aaa6be8ab09a5be", "is_reserved": 0, "rental_uris": {"android": "https://dc.lft.to/lastmile_qr_scan", "ios": "https://dc.lft.to/lastmile_qr_scan"}, "fusion_lon": 0.0}, {"lat": 38.90784933333333, "is_disabled": 0, "type": "electric_scooter", "lon": -77.02283916666667, "bike_id": "d1a8d3ca77e50db987b0d11b0a4cca88", "fusion_lat": 0.0, "name": "d1a8d3ca77e50db987b0d11b0a4cca88", "is_reserved": 0, "rental_uris": {"android": "https://dc.lft.to/lastmile_qr_scan", "ios": "https://dc.lft.to/lastmile_qr_scan"}, "fusion_lon": 0.0}, {"lat": 38.88972733333333, "is_disabled": 0, "type": "electric_scooter", "lon": -76.979352, "bike_id": "8c74f2af86343ea2e7c99e678fed12ff", "fusion_lat": 0.0, "name": "8c74f2af86343ea2e7c99e678fed12ff", "is_reserved": 0, "rental_uris": {"android": "https://dc.lft.to/lastmile_qr_scan", "ios": "https://dc.lft.to/lastmile_qr_scan"}, "fusion_lon": 0.0}, {"lat": 38.902144666666665, "is_disabled": 0, "type": "electric_scooter", "lon": -77.02375583333334, "bike_id": "00dc00cd91442993214ad04877b4e5ee", "fusion_lat": 0.0, "name": "00dc00cd91442993214ad04877b4e5ee", "is_reserved": 0, "rental_uris": {"android": "https://dc.lft.to/lastmile_qr_scan", "ios": "https://dc.lft.to/lastmile_qr_scan"}, "fusion_lon": 0.0}, {"lat": 38.91406833333333, "is_disabled": 0, "type": "electric_scooter", "lon": -77.02930833333333, "bike_id": "e2b4ffef81f80fbed5cc0bf49750e5d1", "fusion_lat": 0.0, "name": "e2b4ffef81f80fbed5cc0bf49750e5d1", "is_reserved": 0, "rental_uris": {"android": "https://dc.lft.to/lastmile_qr_scan", "ios": "https://dc.lft.to/lastmile_qr_scan"}, "fusion_lon": 0.0}, {"lat": 38.91615083333333, "is_disabled": 0, "type": "electric_scooter", "lon": -77.02953616666667, "bike_id": "814a955fcc384bdf0b9065b6e8042b98", "fusion_lat": 0.0, "name": "814a955fcc384bdf0b9065b6e8042b98", "is_reserved": 0, "rental_uris": {"android": "https://dc.lft.to/lastmile_qr_scan", "ios": "https://dc.lft.to/lastmile_qr_scan"}, "fusion_lon": 0.0}, {"lat": 38.910387166666666, "is_disabled": 0, "type": "electric_scooter", "lon": -76.99810566666666, "bike_id": "6e7bb4ae7d579d7702831a0f9789db41", "fusion_lat": 0.0, "name": "6e7bb4ae7d579d7702831a0f9789db41", "is_reserved": 0, "rental_uris": {"android": "https://dc.lft.to/lastmile_qr_scan", "ios": "https://dc.lft.to/lastmile_qr_scan"}, "fusion_lon": 0.0}, {"lat": 38.861184, "is_disabled": 0, "type": "electric_scooter", "lon": -76.983808, "bike_id": "1302a14f5e0c8bdf5a0438e5a197d801", "fusion_lat": 0.0, "name": "1302a14f5e0c8bdf5a0438e5a197d801", "is_reserved": 0, "rental_uris": {"android": "https://dc.lft.to/lastmile_qr_scan", "ios": "https://dc.lft.to/lastmile_qr_scan"}, "fusion_lon": 0.0}, {"lat": 38.8961815, "is_disabled": 0, "type": "electric_scooter", "lon": -76.99297783333333, "bike_id": "e1d5fa119b0612b5d035e9982544a23e", "fusion_lat": 0.0, "name": "e1d5fa119b0612b5d035e9982544a23e", "is_reserved": 0, "rental_uris": {"android": "https://dc.lft.to/lastmile_qr_scan", "ios": "https://dc.lft.to/lastmile_qr_scan"}, "fusion_lon": 0.0}, {"lat": 38.935427833333335, "is_disabled": 0, "type": "electric_scooter", "lon": -77.03407483333334, "bike_id": "38f4d1c67666881b3e740dc94e74bba8", "fusion_lat": 0.0, "name": "38f4d1c67666881b3e740dc94e74bba8", "is_reserved": 0, "rental_uris": {"android": "https://dc.lft.to/lastmile_qr_scan", "ios": "https://dc.lft.to/lastmile_qr_scan"}, "fusion_lon": 0.0}, {"lat": 38.92533683333333, "is_disabled": 0, "type": "electric_scooter", "lon": -77.0345395, "bike_id": "414f8839fa94edcf49783f8e998d6109", "fusion_lat": 0.0, "name": "414f8839fa94edcf49783f8e998d6109", "is_reserved": 0, "rental_uris": {"android": "https://dc.lft.to/lastmile_qr_scan", "ios": "https://dc.lft.to/lastmile_qr_scan"}, "fusion_lon": 0.0}, {"lat": 38.89998716666667, "is_disabled": 0, "type": "electric_scooter", "lon": -77.04037666666666, "bike_id": "f13c67226ec06731a3a9fc8dbfca9816", "fusion_lat": 0.0, "name": "f13c67226ec06731a3a9fc8dbfca9816", "is_reserved": 0, "rental_uris": {"android": "https://dc.lft.to/lastmile_qr_scan", "ios": "https://dc.lft.to/lastmile_qr_scan"}, "fusion_lon": 0.0}, {"lat": 38.8918895, "is_disabled": 0, "type": "electric_scooter", "lon": -76.99627183333334, "bike_id": "4361cd809b264f11b13b285b1ef71efe", "fusion_lat": 0.0, "name": "4361cd809b264f11b13b285b1ef71efe", "is_reserved": 0, "rental_uris": {"android": "https://dc.lft.to/lastmile_qr_scan", "ios": "https://dc.lft.to/lastmile_qr_scan"}, "fusion_lon": 0.0}, {"lat": 38.930921833333336, "is_disabled": 0, "type": "electric_scooter", "lon": -77.07749366666667, "bike_id": "18144015abe30767b1793cf4ac933c7f", "fusion_lat": 0.0, "name": "18144015abe30767b1793cf4ac933c7f", "is_reserved": 0, "rental_uris": {"android": "https://dc.lft.to/lastmile_qr_scan", "ios": "https://dc.lft.to/lastmile_qr_scan"}, "fusion_lon": 0.0}, {"lat": 38.902733166666664, "is_disabled": 0, "type": "electric_scooter", "lon": -77.02916716666667, "bike_id": "d60da5fac71e63fe2800d4937c0e0b4d", "fusion_lat": 0.0, "name": "d60da5fac71e63fe2800d4937c0e0b4d", "is_reserved": 0, "rental_uris": {"android": "https://dc.lft.to/lastmile_qr_scan", "ios": "https://dc.lft.to/lastmile_qr_scan"}, "fusion_lon": 0.0}, {"lat": 39.0581515, "is_disabled": 0, "type": "electric_bike", "lon": -77.12626666666667, "bike_id": "6b9ff5d090143734b0c36eda5f1e7231", "fusion_lat": 0.0, "name": "6b9ff5d090143734b0c36eda5f1e7231", "is_reserved": 0, "rental_uris": {"android": "https://dc.lft.to/lastmile_qr_scan", "ios": "https://dc.lft.to/lastmile_qr_scan"}, "fusion_lon": 0.0}, {"lat": 38.84028766666667, "is_disabled": 0, "type": "electric_bike", "lon": -76.97586483333333, "bike_id": "4303faa6a0cba97be8070f428faefbf5", "fusion_lat": 0.0, "name": "4303faa6a0cba97be8070f428faefbf5", "is_reserved": 0, "rental_uris": {"android": "https://dc.lft.to/lastmile_qr_scan", "ios": "https://dc.lft.to/lastmile_qr_scan"}, "fusion_lon": 0.0}, {"lat": 38.90731233333333, "is_disabled": 0, "type": "electric_scooter", "lon": -76.98930083333333, "bike_id": "c7f32aa61a7fb925d7403ffb413ba614", "fusion_lat": 0.0, "name": "c7f32aa61a7fb925d7403ffb413ba614", "is_reserved": 0, "rental_uris": {"android": "https://dc.lft.to/lastmile_qr_scan", "ios": "https://dc.lft.to/lastmile_qr_scan"}, "fusion_lon": 0.0}, {"lat": 38.91014216666667, "is_disabled": 0, "type": "electric_scooter", "lon": -77.08894566666666, "bike_id": "8b7086bb6f9041ea21f13e031294b709", "fusion_lat": 0.0, "name": "8b7086bb6f9041ea21f13e031294b709", "is_reserved": 0, "rental_uris": {"android": "https://dc.lft.to/lastmile_qr_scan", "ios": "https://dc.lft.to/lastmile_qr_scan"}, "fusion_lon": 0.0}, {"lat": 38.8962825, "is_disabled": 0, "type": "electric_scooter", "lon": -77.04484866666667, "bike_id": "39077811c330255a475b56c6e4e981c2", "fusion_lat": 0.0, "name": "39077811c330255a475b56c6e4e981c2", "is_reserved": 0, "rental_uris": {"android": "https://dc.lft.to/lastmile_qr_scan", "ios": "https://dc.lft.to/lastmile_qr_scan"}, "fusion_lon": 0.0}, {"lat": 38.92457116666667, "is_disabled": 0, "type": "electric_bike", "lon": -76.97558183333334, "bike_id": "b067b11e6a1b3d4de00b4fdfd0d8d48e", "fusion_lat": 0.0, "name": "b067b11e6a1b3d4de00b4fdfd0d8d48e", "is_reserved": 0, "rental_uris": {"android": "https://dc.lft.to/lastmile_qr_scan", "ios": "https://dc.lft.to/lastmile_qr_scan"}, "fusion_lon": 0.0}, {"lat": 38.87240516666667, "is_disabled": 0, "type": "electric_bike", "lon": -77.01186466666667, "bike_id": "c5fcdcc7ca4a3f4e167c84b1ab76a980", "fusion_lat": 0.0, "name": "c5fcdcc7ca4a3f4e167c84b1ab76a980", "is_reserved": 0, "rental_uris": {"android": "https://dc.lft.to/lastmile_qr_scan", "ios": "https://dc.lft.to/lastmile_qr_scan"}, "fusion_lon": 0.0}, {"lat": 38.89696566666667, "is_disabled": 0, "type": "electric_scooter", "lon": -77.02404916666667, "bike_id": "7f3dad243fe069fc7b9ffc5a32764ddb", "fusion_lat": 0.0, "name": "7f3dad243fe069fc7b9ffc5a32764ddb", "is_reserved": 0, "rental_uris": {"android": "https://dc.lft.to/lastmile_qr_scan", "ios": "https://dc.lft.to/lastmile_qr_scan"}, "fusion_lon": 0.0}, {"lat": 38.86171733333333, "is_disabled": 0, "type": "electric_bike", "lon": -77.131509, "bike_id": "35b6c098bee3049b45bee2b1c3a5d87b", "fusion_lat": 0.0, "name": "35b6c098bee3049b45bee2b1c3a5d87b", "is_reserved": 0, "rental_uris": {"android": "https://dc.lft.to/lastmile_qr_scan", "ios": "https://dc.lft.to/lastmile_qr_scan"}, "fusion_lon": 0.0}, {"lat": 38.92152633333333, "is_disabled": 0, "type": "electric_scooter", "lon": -77.03383366666667, "bike_id": "dc0b3cd6f3cdef67d15b149e8a353909", "fusion_lat": 0.0, "name": "dc0b3cd6f3cdef67d15b149e8a353909", "is_reserved": 0, "rental_uris": {"android": "https://dc.lft.to/lastmile_qr_scan", "ios": "https://dc.lft.to/lastmile_qr_scan"}, "fusion_lon": 0.0}, {"lat": 38.95096183333333, "is_disabled": 0, "type": "electric_scooter", "lon": -77.023361, "bike_id": "10ea3d27266eb25c51e538daa1dec450", "fusion_lat": 0.0, "name": "10ea3d27266eb25c51e538daa1dec450", "is_reserved": 0, "rental_uris": {"android": "https://dc.lft.to/lastmile_qr_scan", "ios": "https://dc.lft.to/lastmile_qr_scan"}, "fusion_lon": 0.0}, {"lat": 38.900937, "is_disabled": 0, "type": "electric_scooter", "lon": -77.00322583333333, "bike_id": "fe84b425c41c40bce1705008a26507bf", "fusion_lat": 0.0, "name": "fe84b425c41c40bce1705008a26507bf", "is_reserved": 0, "rental_uris": {"android": "https://dc.lft.to/lastmile_qr_scan", "ios": "https://dc.lft.to/lastmile_qr_scan"}, "fusion_lon": 0.0}, {"lat": 38.903122833333335, "is_disabled": 0, "type": "electric_scooter", "lon": -76.97800883333333, "bike_id": "42eb573e85a2dbf675c8072a74cd823e", "fusion_lat": 0.0, "name": "42eb573e85a2dbf675c8072a74cd823e", "is_reserved": 0, "rental_uris": {"android": "https://dc.lft.to/lastmile_qr_scan", "ios": "https://dc.lft.to/lastmile_qr_scan"}, "fusion_lon": 0.0}, {"lat": 38.90004, "is_disabled": 0, "type": "electric_scooter", "lon": -77.0294965, "bike_id": "4609f65a3a3ae699b55eb8b2413eb8eb", "fusion_lat": 0.0, "name": "4609f65a3a3ae699b55eb8b2413eb8eb", "is_reserved": 0, "rental_uris": {"android": "https://dc.lft.to/lastmile_qr_scan", "ios": "https://dc.lft.to/lastmile_qr_scan"}, "fusion_lon": 0.0}, {"lat": 38.901371166666664, "is_disabled": 0, "type": "electric_scooter", "lon": -76.99746333333333, "bike_id": "3c365a00af96b38c731c07c20fbba29f", "fusion_lat": 0.0, "name": "3c365a00af96b38c731c07c20fbba29f", "is_reserved": 0, "rental_uris": {"android": "https://dc.lft.to/lastmile_qr_scan", "ios": "https://dc.lft.to/lastmile_qr_scan"}, "fusion_lon": 0.0}, {"lat": 38.915616666666665, "is_disabled": 0, "type": "electric_scooter", "lon": -77.04884866666667, "bike_id": "562f1bffd0a6d3b89de4c185a69db0f1", "fusion_lat": 0.0, "name": "562f1bffd0a6d3b89de4c185a69db0f1", "is_reserved": 0, "rental_uris": {"android": "https://dc.lft.to/lastmile_qr_scan", "ios": "https://dc.lft.to/lastmile_qr_scan"}, "fusion_lon": 0.0}, {"lat": 38.903111, "is_disabled": 0, "type": "electric_scooter", "lon": -76.97800533333333, "bike_id": "342a76de33ecaaba2755d53159c48b7c", "fusion_lat": 0.0, "name": "342a76de33ecaaba2755d53159c48b7c", "is_reserved": 0, "rental_uris": {"android": "https://dc.lft.to/lastmile_qr_scan", "ios": "https://dc.lft.to/lastmile_qr_scan"}, "fusion_lon": 0.0}, {"lat": 38.907301, "is_disabled": 0, "type": "electric_scooter", "lon": -77.04757633333334, "bike_id": "edf68d124085c0cef3a35655f32aa96b", "fusion_lat": 0.0, "name": "edf68d124085c0cef3a35655f32aa96b", "is_reserved": 0, "rental_uris": {"android": "https://dc.lft.to/lastmile_qr_scan", "ios": "https://dc.lft.to/lastmile_qr_scan"}, "fusion_lon": 0.0}, {"lat": 38.9709215, "is_disabled": 0, "type": "electric_bike", "lon": -77.06965233333334, "bike_id": "db49cea86d3db6544645342597ea41f8", "fusion_lat": 0.0, "name": "db49cea86d3db6544645342597ea41f8", "is_reserved": 0, "rental_uris": {"android": "https://dc.lft.to/lastmile_qr_scan", "ios": "https://dc.lft.to/lastmile_qr_scan"}, "fusion_lon": 0.0}, {"lat": 38.90649483333333, "is_disabled": 0, "type": "electric_scooter", "lon": -77.025035, "bike_id": "b5c34c840ab09111ad600af3f609092b", "fusion_lat": 0.0, "name": "b5c34c840ab09111ad600af3f609092b", "is_reserved": 0, "rental_uris": {"android": "https://dc.lft.to/lastmile_qr_scan", "ios": "https://dc.lft.to/lastmile_qr_scan"}, "fusion_lon": 0.0}, {"lat": 38.902032, "is_disabled": 0, "type": "electric_scooter", "lon": -77.02171816666667, "bike_id": "b7a13c1f3464748212c4fa9b11edc15a", "fusion_lat": 0.0, "name": "b7a13c1f3464748212c4fa9b11edc15a", "is_reserved": 0, "rental_uris": {"android": "https://dc.lft.to/lastmile_qr_scan", "ios": "https://dc.lft.to/lastmile_qr_scan"}, "fusion_lon": 0.0}, {"lat": 38.884989, "is_disabled": 0, "type": "electric_scooter", "lon": -77.015589, "bike_id": "941d1ac39d208f35b3055a205065a121", "fusion_lat": 0.0, "name": "941d1ac39d208f35b3055a205065a121", "is_reserved": 0, "rental_uris": {"android": "https://dc.lft.to/lastmile_qr_scan", "ios": "https://dc.lft.to/lastmile_qr_scan"}, "fusion_lon": 0.0}, {"lat": 38.913246666666666, "is_disabled": 0, "type": "electric_scooter", "lon": -77.03125933333334, "bike_id": "63a03d350e9e3ce7903d92840d3b67a3", "fusion_lat": 0.0, "name": "63a03d350e9e3ce7903d92840d3b67a3", "is_reserved": 0, "rental_uris": {"android": "https://dc.lft.to/lastmile_qr_scan", "ios": "https://dc.lft.to/lastmile_qr_scan"}, "fusion_lon": 0.0}, {"lat": 38.8947575, "is_disabled": 0, "type": "electric_scooter", "lon": -77.0215135, "bike_id": "530a0f0a65364e691df891b98c136930", "fusion_lat": 0.0, "name": "530a0f0a65364e691df891b98c136930", "is_reserved": 0, "rental_uris": {"android": "https://dc.lft.to/lastmile_qr_scan", "ios": "https://dc.lft.to/lastmile_qr_scan"}, "fusion_lon": 0.0}, {"lat": 38.92596433333333, "is_disabled": 0, "type": "electric_scooter", "lon": -77.0046645, "bike_id": "986a5f92d83e977419620351deec3ae1", "fusion_lat": 0.0, "name": "986a5f92d83e977419620351deec3ae1", "is_reserved": 0, "rental_uris": {"android": "https://dc.lft.to/lastmile_qr_scan", "ios": "https://dc.lft.to/lastmile_qr_scan"}, "fusion_lon": 0.0}, {"lat": 38.925499333333335, "is_disabled": 0, "type": "electric_scooter", "lon": -77.03308433333333, "bike_id": "94e29c3551a9877fc8f2ecb9c9d09c14", "fusion_lat": 0.0, "name": "94e29c3551a9877fc8f2ecb9c9d09c14", "is_reserved": 0, "rental_uris": {"android": "https://dc.lft.to/lastmile_qr_scan", "ios": "https://dc.lft.to/lastmile_qr_scan"}, "fusion_lon": 0.0}, {"lat": 38.89877933333333, "is_disabled": 0, "type": "electric_scooter", "lon": -76.93184583333333, "bike_id": "5eb3989606d43a686d3d98d690e9d59f", "fusion_lat": 0.0, "name": "5eb3989606d43a686d3d98d690e9d59f", "is_reserved": 0, "rental_uris": {"android": "https://dc.lft.to/lastmile_qr_scan", "ios": "https://dc.lft.to/lastmile_qr_scan"}, "fusion_lon": 0.0}, {"lat": 38.918819166666665, "is_disabled": 0, "type": "electric_scooter", "lon": -77.04736433333333, "bike_id": "f8d0bb503b4001340fee1a7dc5f0a2bd", "fusion_lat": 0.0, "name": "f8d0bb503b4001340fee1a7dc5f0a2bd", "is_reserved": 0, "rental_uris": {"android": "https://dc.lft.to/lastmile_qr_scan", "ios": "https://dc.lft.to/lastmile_qr_scan"}, "fusion_lon": 0.0}, {"lat": 38.95141266666667, "is_disabled": 0, "type": "electric_scooter", "lon": -77.01333716666667, "bike_id": "4b6e8ef6e7fdd96ed52a44d0eaf136e5", "fusion_lat": 0.0, "name": "4b6e8ef6e7fdd96ed52a44d0eaf136e5", "is_reserved": 0, "rental_uris": {"android": "https://dc.lft.to/lastmile_qr_scan", "ios": "https://dc.lft.to/lastmile_qr_scan"}, "fusion_lon": 0.0}, {"lat": 38.91784466666667, "is_disabled": 0, "type": "electric_scooter", "lon": -77.0407225, "bike_id": "75fbc85cda01db5e628112d3a3669ced", "fusion_lat": 0.0, "name": "75fbc85cda01db5e628112d3a3669ced", "is_reserved": 0, "rental_uris": {"android": "https://dc.lft.to/lastmile_qr_scan", "ios": "https://dc.lft.to/lastmile_qr_scan"}, "fusion_lon": 0.0}, {"lat": 38.918231166666665, "is_disabled": 0, "type": "electric_scooter", "lon": -77.03439433333334, "bike_id": "0321e75a8e93a16eba6026d8e825802d", "fusion_lat": 0.0, "name": "0321e75a8e93a16eba6026d8e825802d", "is_reserved": 0, "rental_uris": {"android": "https://dc.lft.to/lastmile_qr_scan", "ios": "https://dc.lft.to/lastmile_qr_scan"}, "fusion_lon": 0.0}, {"lat": 38.91266733333333, "is_disabled": 0, "type": "electric_scooter", "lon": -77.0386655, "bike_id": "83e6afe5bc28edc378b16545e0519068", "fusion_lat": 0.0, "name": "83e6afe5bc28edc378b16545e0519068", "is_reserved": 0, "rental_uris": {"android": "https://dc.lft.to/lastmile_qr_scan", "ios": "https://dc.lft.to/lastmile_qr_scan"}, "fusion_lon": 0.0}, {"lat": 38.895111666666665, "is_disabled": 0, "type": "electric_scooter", "lon": -77.02277866666667, "bike_id": "9688d4f18786a3e72d13ce4193b5c484", "fusion_lat": 0.0, "name": "9688d4f18786a3e72d13ce4193b5c484", "is_reserved": 0, "rental_uris": {"android": "https://dc.lft.to/lastmile_qr_scan", "ios": "https://dc.lft.to/lastmile_qr_scan"}, "fusion_lon": 0.0}, {"lat": 38.925885, "is_disabled": 0, "type": "electric_scooter", "lon": -77.02761383333333, "bike_id": "9a62a48ef111e94db1c1c47854577667", "fusion_lat": 0.0, "name": "9a62a48ef111e94db1c1c47854577667", "is_reserved": 0, "rental_uris": {"android": "https://dc.lft.to/lastmile_qr_scan", "ios": "https://dc.lft.to/lastmile_qr_scan"}, "fusion_lon": 0.0}, {"lat": 38.90716833333333, "is_disabled": 0, "type": "electric_bike", "lon": -77.00111366666667, "bike_id": "2c3fba90e181ca1c3f40e45a426252be", "fusion_lat": 0.0, "name": "2c3fba90e181ca1c3f40e45a426252be", "is_reserved": 0, "rental_uris": {"android": "https://dc.lft.to/lastmile_qr_scan", "ios": "https://dc.lft.to/lastmile_qr_scan"}, "fusion_lon": 0.0}, {"lat": 38.930794666666664, "is_disabled": 0, "type": "electric_scooter", "lon": -77.01666166666666, "bike_id": "7e34aa68cfb6fe020840920232f5f321", "fusion_lat": 0.0, "name": "7e34aa68cfb6fe020840920232f5f321", "is_reserved": 0, "rental_uris": {"android": "https://dc.lft.to/lastmile_qr_scan", "ios": "https://dc.lft.to/lastmile_qr_scan"}, "fusion_lon": 0.0}, {"lat": 38.89685933333333, "is_disabled": 0, "type": "electric_scooter", "lon": -76.936094, "bike_id": "ce595fe10a770d2430046f2bbe4dd699", "fusion_lat": 0.0, "name": "ce595fe10a770d2430046f2bbe4dd699", "is_reserved": 0, "rental_uris": {"android": "https://dc.lft.to/lastmile_qr_scan", "ios": "https://dc.lft.to/lastmile_qr_scan"}, "fusion_lon": 0.0}, {"lat": 38.853227333333336, "is_disabled": 0, "type": "electric_bike", "lon": -76.9801345, "bike_id": "95962b4087bdc4dbf0e57e47c8e15c91", "fusion_lat": 0.0, "name": "95962b4087bdc4dbf0e57e47c8e15c91", "is_reserved": 0, "rental_uris": {"android": "https://dc.lft.to/lastmile_qr_scan", "ios": "https://dc.lft.to/lastmile_qr_scan"}, "fusion_lon": 0.0}, {"lat": 38.91597183333333, "is_disabled": 0, "type": "electric_scooter", "lon": -77.03192083333333, "bike_id": "c9313c16f0f98378f8f207f37cb1196a", "fusion_lat": 0.0, "name": "c9313c16f0f98378f8f207f37cb1196a", "is_reserved": 0, "rental_uris": {"android": "https://dc.lft.to/lastmile_qr_scan", "ios": "https://dc.lft.to/lastmile_qr_scan"}, "fusion_lon": 0.0}, {"lat": 38.887193333333336, "is_disabled": 0, "type": "electric_scooter", "lon": -76.9547945, "bike_id": "1190962c35242f29a6fa1db40eb07741", "fusion_lat": 0.0, "name": "1190962c35242f29a6fa1db40eb07741", "is_reserved": 0, "rental_uris": {"android": "https://dc.lft.to/lastmile_qr_scan", "ios": "https://dc.lft.to/lastmile_qr_scan"}, "fusion_lon": 0.0}, {"lat": 38.9072415, "is_disabled": 0, "type": "electric_scooter", "lon": -77.02541366666667, "bike_id": "02bd7e175b1f132cc0c75cd314c8a423", "fusion_lat": 0.0, "name": "02bd7e175b1f132cc0c75cd314c8a423", "is_reserved": 0, "rental_uris": {"android": "https://dc.lft.to/lastmile_qr_scan", "ios": "https://dc.lft.to/lastmile_qr_scan"}, "fusion_lon": 0.0}, {"lat": 38.9395165, "is_disabled": 0, "type": "electric_scooter", "lon": -77.02184633333333, "bike_id": "bb7051ba900608bbe712e0e6dd317057", "fusion_lat": 0.0, "name": "bb7051ba900608bbe712e0e6dd317057", "is_reserved": 0, "rental_uris": {"android": "https://dc.lft.to/lastmile_qr_scan", "ios": "https://dc.lft.to/lastmile_qr_scan"}, "fusion_lon": 0.0}, {"lat": 38.895408833333335, "is_disabled": 0, "type": "electric_scooter", "lon": -77.0321975, "bike_id": "ca7b806fb098d029f2182bc9c2e0121d", "fusion_lat": 0.0, "name": "ca7b806fb098d029f2182bc9c2e0121d", "is_reserved": 0, "rental_uris": {"android": "https://dc.lft.to/lastmile_qr_scan", "ios": "https://dc.lft.to/lastmile_qr_scan"}, "fusion_lon": 0.0}, {"lat": 38.89845716666667, "is_disabled": 0, "type": "electric_scooter", "lon": -76.94474666666666, "bike_id": "7a4b823276b7947e7fdc2b7c6b251996", "fusion_lat": 0.0, "name": "7a4b823276b7947e7fdc2b7c6b251996", "is_reserved": 0, "rental_uris": {"android": "https://dc.lft.to/lastmile_qr_scan", "ios": "https://dc.lft.to/lastmile_qr_scan"}, "fusion_lon": 0.0}, {"lat": 38.862853, "is_disabled": 0, "type": "electric_scooter", "lon": -76.99236966666666, "bike_id": "c3f2c72833d9384fc4f7ab81757806ca", "fusion_lat": 0.0, "name": "c3f2c72833d9384fc4f7ab81757806ca", "is_reserved": 0, "rental_uris": {"android": "https://dc.lft.to/lastmile_qr_scan", "ios": "https://dc.lft.to/lastmile_qr_scan"}, "fusion_lon": 0.0}, {"lat": 39.094377, "is_disabled": 0, "type": "electric_bike", "lon": -77.1346105, "bike_id": "57ec029bdee44e46220c7317584557d5", "fusion_lat": 0.0, "name": "57ec029bdee44e46220c7317584557d5", "is_reserved": 0, "rental_uris": {"android": "https://dc.lft.to/lastmile_qr_scan", "ios": "https://dc.lft.to/lastmile_qr_scan"}, "fusion_lon": 0.0}, {"lat": 38.923292333333336, "is_disabled": 0, "type": "electric_scooter", "lon": -77.04456416666666, "bike_id": "48a940d2fba86d3874e4470902133425", "fusion_lat": 0.0, "name": "48a940d2fba86d3874e4470902133425", "is_reserved": 0, "rental_uris": {"android": "https://dc.lft.to/lastmile_qr_scan", "ios": "https://dc.lft.to/lastmile_qr_scan"}, "fusion_lon": 0.0}, {"lat": 38.91961916666666, "is_disabled": 0, "type": "electric_scooter", "lon": -77.04097933333334, "bike_id": "4ce430c6e5b962f2ba6353dc83a40879", "fusion_lat": 0.0, "name": "4ce430c6e5b962f2ba6353dc83a40879", "is_reserved": 0, "rental_uris": {"android": "https://dc.lft.to/lastmile_qr_scan", "ios": "https://dc.lft.to/lastmile_qr_scan"}, "fusion_lon": 0.0}, {"lat": 38.924394, "is_disabled": 0, "type": "electric_scooter", "lon": -77.03374366666667, "bike_id": "52de1e3405117a4a4419d62f4b251f2a", "fusion_lat": 0.0, "name": "52de1e3405117a4a4419d62f4b251f2a", "is_reserved": 0, "rental_uris": {"android": "https://dc.lft.to/lastmile_qr_scan", "ios": "https://dc.lft.to/lastmile_qr_scan"}, "fusion_lon": 0.0}, {"lat": 38.895287333333336, "is_disabled": 0, "type": "electric_scooter", "lon": -77.043509, "bike_id": "52729e794bd61e8f00967cbc67da6484", "fusion_lat": 0.0, "name": "52729e794bd61e8f00967cbc67da6484", "is_reserved": 0, "rental_uris": {"android": "https://dc.lft.to/lastmile_qr_scan", "ios": "https://dc.lft.to/lastmile_qr_scan"}, "fusion_lon": 0.0}, {"lat": 38.941296, "is_disabled": 0, "type": "electric_bike", "lon": -76.996263, "bike_id": "29f8c3e6925d4499b0e648de38d10c33", "fusion_lat": 0.0, "name": "29f8c3e6925d4499b0e648de38d10c33", "is_reserved": 0, "rental_uris": {"android": "https://dc.lft.to/lastmile_qr_scan", "ios": "https://dc.lft.to/lastmile_qr_scan"}, "fusion_lon": 0.0}, {"lat": 38.90951966666667, "is_disabled": 0, "type": "electric_scooter", "lon": -77.04660216666667, "bike_id": "8e6be5ad631783c317111cf1b9336ac9", "fusion_lat": 0.0, "name": "8e6be5ad631783c317111cf1b9336ac9", "is_reserved": 0, "rental_uris": {"android": "https://dc.lft.to/lastmile_qr_scan", "ios": "https://dc.lft.to/lastmile_qr_scan"}, "fusion_lon": 0.0}, {"lat": 38.909707, "is_disabled": 0, "type": "electric_scooter", "lon": -77.0342805, "bike_id": "a87b72a3742baaa130a5a05b3e3daa8f", "fusion_lat": 0.0, "name": "a87b72a3742baaa130a5a05b3e3daa8f", "is_reserved": 0, "rental_uris": {"android": "https://dc.lft.to/lastmile_qr_scan", "ios": "https://dc.lft.to/lastmile_qr_scan"}, "fusion_lon": 0.0}, {"lat": 38.94638666666667, "is_disabled": 0, "type": "electric_scooter", "lon": -77.02526533333334, "bike_id": "1f38768e66851769d6e6030d7859e1f8", "fusion_lat": 0.0, "name": "1f38768e66851769d6e6030d7859e1f8", "is_reserved": 0, "rental_uris": {"android": "https://dc.lft.to/lastmile_qr_scan", "ios": "https://dc.lft.to/lastmile_qr_scan"}, "fusion_lon": 0.0}, {"lat": 38.924116833333336, "is_disabled": 0, "type": "electric_scooter", "lon": -77.0504065, "bike_id": "f8907650ba4f1867a856ec3773201e72", "fusion_lat": 0.0, "name": "f8907650ba4f1867a856ec3773201e72", "is_reserved": 0, "rental_uris": {"android": "https://dc.lft.to/lastmile_qr_scan", "ios": "https://dc.lft.to/lastmile_qr_scan"}, "fusion_lon": 0.0}, {"lat": 38.92163566666667, "is_disabled": 0, "type": "electric_scooter", "lon": -77.0423065, "bike_id": "dc1e62b4a927ae807c976633a34dad98", "fusion_lat": 0.0, "name": "dc1e62b4a927ae807c976633a34dad98", "is_reserved": 0, "rental_uris": {"android": "https://dc.lft.to/lastmile_qr_scan", "ios": "https://dc.lft.to/lastmile_qr_scan"}, "fusion_lon": 0.0}, {"lat": 38.93470333333333, "is_disabled": 0, "type": "electric_scooter", "lon": -77.0370045, "bike_id": "7487cda3244c7a9df1c345313c4a492b", "fusion_lat": 0.0, "name": "7487cda3244c7a9df1c345313c4a492b", "is_reserved": 0, "rental_uris": {"android": "https://dc.lft.to/lastmile_qr_scan", "ios": "https://dc.lft.to/lastmile_qr_scan"}, "fusion_lon": 0.0}, {"lat": 38.903955, "is_disabled": 0, "type": "electric_scooter", "lon": -77.043493, "bike_id": "5714bc5589b1b29a36ee75aca534bb2a", "fusion_lat": 0.0, "name": "5714bc5589b1b29a36ee75aca534bb2a", "is_reserved": 0, "rental_uris": {"android": "https://dc.lft.to/lastmile_qr_scan", "ios": "https://dc.lft.to/lastmile_qr_scan"}, "fusion_lon": 0.0}, {"lat": 38.880363833333334, "is_disabled": 0, "type": "electric_bike", "lon": -77.00553833333333, "bike_id": "2651cf9665a671bd1e37116d4011b87b", "fusion_lat": 0.0, "name": "2651cf9665a671bd1e37116d4011b87b", "is_reserved": 0, "rental_uris": {"android": "https://dc.lft.to/lastmile_qr_scan", "ios": "https://dc.lft.to/lastmile_qr_scan"}, "fusion_lon": 0.0}, {"lat": 38.9349035, "is_disabled": 0, "type": "electric_scooter", "lon": -77.0240185, "bike_id": "a80b794857d57716c34d4f67f35ab1db", "fusion_lat": 0.0, "name": "a80b794857d57716c34d4f67f35ab1db", "is_reserved": 0, "rental_uris": {"android": "https://dc.lft.to/lastmile_qr_scan", "ios": "https://dc.lft.to/lastmile_qr_scan"}, "fusion_lon": 0.0}, {"lat": 38.936424833333334, "is_disabled": 0, "type": "electric_scooter", "lon": -77.02085666666666, "bike_id": "d511d46ff4f2a3b0fb53adf2e8014468", "fusion_lat": 0.0, "name": "d511d46ff4f2a3b0fb53adf2e8014468", "is_reserved": 0, "rental_uris": {"android": "https://dc.lft.to/lastmile_qr_scan", "ios": "https://dc.lft.to/lastmile_qr_scan"}, "fusion_lon": 0.0}, {"lat": 38.9199835, "is_disabled": 0, "type": "electric_scooter", "lon": -77.03235783333334, "bike_id": "28c6a855eaf1918bf03b0cb770c36edf", "fusion_lat": 0.0, "name": "28c6a855eaf1918bf03b0cb770c36edf", "is_reserved": 0, "rental_uris": {"android": "https://dc.lft.to/lastmile_qr_scan", "ios": "https://dc.lft.to/lastmile_qr_scan"}, "fusion_lon": 0.0}, {"lat": 38.957358666666664, "is_disabled": 0, "type": "electric_scooter", "lon": -77.02401133333333, "bike_id": "5cf15c8973a1b4d4a23775d34718461e", "fusion_lat": 0.0, "name": "5cf15c8973a1b4d4a23775d34718461e", "is_reserved": 0, "rental_uris": {"android": "https://dc.lft.to/lastmile_qr_scan", "ios": "https://dc.lft.to/lastmile_qr_scan"}, "fusion_lon": 0.0}, {"lat": 38.89253683333333, "is_disabled": 0, "type": "electric_bike", "lon": -76.99496083333334, "bike_id": "8980f623e2859b280e250d9f872c872b", "fusion_lat": 0.0, "name": "8980f623e2859b280e250d9f872c872b", "is_reserved": 0, "rental_uris": {"android": "https://dc.lft.to/lastmile_qr_scan", "ios": "https://dc.lft.to/lastmile_qr_scan"}, "fusion_lon": 0.0}, {"lat": 38.9274015, "is_disabled": 0, "type": "electric_scooter", "lon": -77.02263533333333, "bike_id": "11aab56184db7d2e9bd8963355bf9d80", "fusion_lat": 0.0, "name": "11aab56184db7d2e9bd8963355bf9d80", "is_reserved": 0, "rental_uris": {"android": "https://dc.lft.to/lastmile_qr_scan", "ios": "https://dc.lft.to/lastmile_qr_scan"}, "fusion_lon": 0.0}, {"lat": 38.87094166666667, "is_disabled": 0, "type": "electric_scooter", "lon": -77.0119675, "bike_id": "fd09710aa5257aecee5569387b910002", "fusion_lat": 0.0, "name": "fd09710aa5257aecee5569387b910002", "is_reserved": 0, "rental_uris": {"android": "https://dc.lft.to/lastmile_qr_scan", "ios": "https://dc.lft.to/lastmile_qr_scan"}, "fusion_lon": 0.0}, {"lat": 38.93151733333333, "is_disabled": 0, "type": "electric_scooter", "lon": -77.03828433333334, "bike_id": "d731fb046182c4d9f6a2b0727d94128b", "fusion_lat": 0.0, "name": "d731fb046182c4d9f6a2b0727d94128b", "is_reserved": 0, "rental_uris": {"android": "https://dc.lft.to/lastmile_qr_scan", "ios": "https://dc.lft.to/lastmile_qr_scan"}, "fusion_lon": 0.0}, {"lat": 38.906891333333334, "is_disabled": 0, "type": "electric_scooter", "lon": -77.057894, "bike_id": "ceeb76d267b3095444ca5e12b42aada9", "fusion_lat": 0.0, "name": "ceeb76d267b3095444ca5e12b42aada9", "is_reserved": 0, "rental_uris": {"android": "https://dc.lft.to/lastmile_qr_scan", "ios": "https://dc.lft.to/lastmile_qr_scan"}, "fusion_lon": 0.0}, {"lat": 38.8862505, "is_disabled": 0, "type": "electric_scooter", "lon": -77.021738, "bike_id": "f5448862bd162f3cff1b5bd10cf5d8f4", "fusion_lat": 0.0, "name": "f5448862bd162f3cff1b5bd10cf5d8f4", "is_reserved": 0, "rental_uris": {"android": "https://dc.lft.to/lastmile_qr_scan", "ios": "https://dc.lft.to/lastmile_qr_scan"}, "fusion_lon": 0.0}, {"lat": 38.91404933333333, "is_disabled": 0, "type": "electric_scooter", "lon": -77.01505083333333, "bike_id": "b165c9ef8c55020d2b028d047d67466f", "fusion_lat": 0.0, "name": "b165c9ef8c55020d2b028d047d67466f", "is_reserved": 0, "rental_uris": {"android": "https://dc.lft.to/lastmile_qr_scan", "ios": "https://dc.lft.to/lastmile_qr_scan"}, "fusion_lon": 0.0}, {"lat": 38.9000855, "is_disabled": 0, "type": "electric_scooter", "lon": -77.04023833333333, "bike_id": "6423bf4db0f4e9c453f119b7dedc3301", "fusion_lat": 0.0, "name": "6423bf4db0f4e9c453f119b7dedc3301", "is_reserved": 0, "rental_uris": {"android": "https://dc.lft.to/lastmile_qr_scan", "ios": "https://dc.lft.to/lastmile_qr_scan"}, "fusion_lon": 0.0}, {"lat": 38.942049833333336, "is_disabled": 0, "type": "electric_bike", "lon": -77.01822216666666, "bike_id": "cf9fee59ffebc2c973b1a46951102de4", "fusion_lat": 0.0, "name": "cf9fee59ffebc2c973b1a46951102de4", "is_reserved": 0, "rental_uris": {"android": "https://dc.lft.to/lastmile_qr_scan", "ios": "https://dc.lft.to/lastmile_qr_scan"}, "fusion_lon": 0.0}, {"lat": 38.93477216666667, "is_disabled": 0, "type": "electric_scooter", "lon": -77.05793816666667, "bike_id": "16de19c1fcd58a8afc16796afc0b5b89", "fusion_lat": 0.0, "name": "16de19c1fcd58a8afc16796afc0b5b89", "is_reserved": 0, "rental_uris": {"android": "https://dc.lft.to/lastmile_qr_scan", "ios": "https://dc.lft.to/lastmile_qr_scan"}, "fusion_lon": 0.0}, {"lat": 38.900352833333336, "is_disabled": 0, "type": "electric_scooter", "lon": -77.0019015, "bike_id": "3bb412140f9abb811d2da5f9939c3b36", "fusion_lat": 0.0, "name": "3bb412140f9abb811d2da5f9939c3b36", "is_reserved": 0, "rental_uris": {"android": "https://dc.lft.to/lastmile_qr_scan", "ios": "https://dc.lft.to/lastmile_qr_scan"}, "fusion_lon": 0.0}, {"lat": 38.88753216666667, "is_disabled": 0, "type": "electric_scooter", "lon": -77.031571, "bike_id": "212065d7f3e1712c7a37e6192f70919b", "fusion_lat": 0.0, "name": "212065d7f3e1712c7a37e6192f70919b", "is_reserved": 0, "rental_uris": {"android": "https://dc.lft.to/lastmile_qr_scan", "ios": "https://dc.lft.to/lastmile_qr_scan"}, "fusion_lon": 0.0}, {"lat": 38.9248185, "is_disabled": 0, "type": "electric_scooter", "lon": -77.03183266666667, "bike_id": "066c234b5a8a13563a7376abe523e470", "fusion_lat": 0.0, "name": "066c234b5a8a13563a7376abe523e470", "is_reserved": 0, "rental_uris": {"android": "https://dc.lft.to/lastmile_qr_scan", "ios": "https://dc.lft.to/lastmile_qr_scan"}, "fusion_lon": 0.0}, {"lat": 38.925459000000004, "is_disabled": 0, "type": "electric_scooter", "lon": -77.034497, "bike_id": "1bcc641570da29ec3428ffff6fc3e695", "fusion_lat": 0.0, "name": "1bcc641570da29ec3428ffff6fc3e695", "is_reserved": 0, "rental_uris": {"android": "https://dc.lft.to/lastmile_qr_scan", "ios": "https://dc.lft.to/lastmile_qr_scan"}, "fusion_lon": 0.0}, {"lat": 38.966134833333335, "is_disabled": 0, "type": "electric_scooter", "lon": -77.02055733333333, "bike_id": "a5c1448468b8bc5dbd36c697f93c9ff6", "fusion_lat": 0.0, "name": "a5c1448468b8bc5dbd36c697f93c9ff6", "is_reserved": 0, "rental_uris": {"android": "https://dc.lft.to/lastmile_qr_scan", "ios": "https://dc.lft.to/lastmile_qr_scan"}, "fusion_lon": 0.0}, {"lat": 38.85806183333333, "is_disabled": 0, "type": "electric_scooter", "lon": -76.98650433333333, "bike_id": "8260ad7cc7003a253ac7fb0edb48ce21", "fusion_lat": 0.0, "name": "8260ad7cc7003a253ac7fb0edb48ce21", "is_reserved": 0, "rental_uris": {"android": "https://dc.lft.to/lastmile_qr_scan", "ios": "https://dc.lft.to/lastmile_qr_scan"}, "fusion_lon": 0.0}, {"lat": 38.916162166666666, "is_disabled": 0, "type": "electric_scooter", "lon": -77.0486285, "bike_id": "3d42eec3e90241076bdabc611c6657e4", "fusion_lat": 0.0, "name": "3d42eec3e90241076bdabc611c6657e4", "is_reserved": 0, "rental_uris": {"android": "https://dc.lft.to/lastmile_qr_scan", "ios": "https://dc.lft.to/lastmile_qr_scan"}, "fusion_lon": 0.0}, {"lat": 38.86055116666667, "is_disabled": 0, "type": "electric_scooter", "lon": -77.05753083333333, "bike_id": "0ffde15baacfa1a1a795497214feceba", "fusion_lat": 0.0, "name": "0ffde15baacfa1a1a795497214feceba", "is_reserved": 0, "rental_uris": {"android": "https://dc.lft.to/lastmile_qr_scan", "ios": "https://dc.lft.to/lastmile_qr_scan"}, "fusion_lon": 0.0}, {"lat": 38.91869633333334, "is_disabled": 0, "type": "electric_scooter", "lon": -77.04254766666666, "bike_id": "3f37a11011af9ff689de6b652fe9b4f6", "fusion_lat": 0.0, "name": "3f37a11011af9ff689de6b652fe9b4f6", "is_reserved": 0, "rental_uris": {"android": "https://dc.lft.to/lastmile_qr_scan", "ios": "https://dc.lft.to/lastmile_qr_scan"}, "fusion_lon": 0.0}, {"lat": 38.90032383333333, "is_disabled": 0, "type": "electric_scooter", "lon": -77.033668, "bike_id": "7fb733e0ca9a765e6919a04f94941550", "fusion_lat": 0.0, "name": "7fb733e0ca9a765e6919a04f94941550", "is_reserved": 0, "rental_uris": {"android": "https://dc.lft.to/lastmile_qr_scan", "ios": "https://dc.lft.to/lastmile_qr_scan"}, "fusion_lon": 0.0}, {"lat": 38.91603516666667, "is_disabled": 0, "type": "electric_scooter", "lon": -77.03847516666667, "bike_id": "8c5b546009119362817213c2a795d7ba", "fusion_lat": 0.0, "name": "8c5b546009119362817213c2a795d7ba", "is_reserved": 0, "rental_uris": {"android": "https://dc.lft.to/lastmile_qr_scan", "ios": "https://dc.lft.to/lastmile_qr_scan"}, "fusion_lon": 0.0}, {"lat": 38.92157516666666, "is_disabled": 0, "type": "electric_scooter", "lon": -77.03666466666667, "bike_id": "425b7a9854695becf0c5ae92efe3d777", "fusion_lat": 0.0, "name": "425b7a9854695becf0c5ae92efe3d777", "is_reserved": 0, "rental_uris": {"android": "https://dc.lft.to/lastmile_qr_scan", "ios": "https://dc.lft.to/lastmile_qr_scan"}, "fusion_lon": 0.0}, {"lat": 38.93859, "is_disabled": 0, "type": "electric_scooter", "lon": -77.02561916666667, "bike_id": "66cb8c1ee12ab48a6bca0b4e664110d2", "fusion_lat": 0.0, "name": "66cb8c1ee12ab48a6bca0b4e664110d2", "is_reserved": 0, "rental_uris": {"android": "https://dc.lft.to/lastmile_qr_scan", "ios": "https://dc.lft.to/lastmile_qr_scan"}, "fusion_lon": 0.0}, {"lat": 38.90302916666667, "is_disabled": 0, "type": "electric_scooter", "lon": -77.0374025, "bike_id": "bed6f6a6bb25484876b4acee799675df", "fusion_lat": 0.0, "name": "bed6f6a6bb25484876b4acee799675df", "is_reserved": 0, "rental_uris": {"android": "https://dc.lft.to/lastmile_qr_scan", "ios": "https://dc.lft.to/lastmile_qr_scan"}, "fusion_lon": 0.0}, {"lat": 38.972237166666666, "is_disabled": 0, "type": "electric_bike", "lon": -76.99344733333334, "bike_id": "c5c6a87df8cce8d434c77c6f95371dd8", "fusion_lat": 0.0, "name": "c5c6a87df8cce8d434c77c6f95371dd8", "is_reserved": 0, "rental_uris": {"android": "https://dc.lft.to/lastmile_qr_scan", "ios": "https://dc.lft.to/lastmile_qr_scan"}, "fusion_lon": 0.0}, {"lat": 38.89567066666667, "is_disabled": 0, "type": "electric_scooter", "lon": -77.0111755, "bike_id": "6205b16a68d0fc2d0d5eca53bad4bdcf", "fusion_lat": 0.0, "name": "6205b16a68d0fc2d0d5eca53bad4bdcf", "is_reserved": 0, "rental_uris": {"android": "https://dc.lft.to/lastmile_qr_scan", "ios": "https://dc.lft.to/lastmile_qr_scan"}, "fusion_lon": 0.0}, {"lat": 38.90511383333333, "is_disabled": 0, "type": "electric_scooter", "lon": -77.06056466666666, "bike_id": "06e1b0a3278fc39750a13cd2dd6814bc", "fusion_lat": 0.0, "name": "06e1b0a3278fc39750a13cd2dd6814bc", "is_reserved": 0, "rental_uris": {"android": "https://dc.lft.to/lastmile_qr_scan", "ios": "https://dc.lft.to/lastmile_qr_scan"}, "fusion_lon": 0.0}, {"lat": 38.91910216666667, "is_disabled": 0, "type": "electric_scooter", "lon": -77.0318175, "bike_id": "de4acc61575a6c2c4b5b3bde84d6b79f", "fusion_lat": 0.0, "name": "de4acc61575a6c2c4b5b3bde84d6b79f", "is_reserved": 0, "rental_uris": {"android": "https://dc.lft.to/lastmile_qr_scan", "ios": "https://dc.lft.to/lastmile_qr_scan"}, "fusion_lon": 0.0}, {"lat": 38.918696, "is_disabled": 0, "type": "electric_scooter", "lon": -77.04593633333333, "bike_id": "ae44704d635c32c47da4b4352320c748", "fusion_lat": 0.0, "name": "ae44704d635c32c47da4b4352320c748", "is_reserved": 0, "rental_uris": {"android": "https://dc.lft.to/lastmile_qr_scan", "ios": "https://dc.lft.to/lastmile_qr_scan"}, "fusion_lon": 0.0}, {"lat": 38.91262316666667, "is_disabled": 0, "type": "electric_scooter", "lon": -77.00630183333334, "bike_id": "0a6042a68edab9848b3ec232bd3b2865", "fusion_lat": 0.0, "name": "0a6042a68edab9848b3ec232bd3b2865", "is_reserved": 0, "rental_uris": {"android": "https://dc.lft.to/lastmile_qr_scan", "ios": "https://dc.lft.to/lastmile_qr_scan"}, "fusion_lon": 0.0}, {"lat": 38.905205333333335, "is_disabled": 0, "type": "electric_scooter", "lon": -77.0473855, "bike_id": "4928b6a3cbce0372f6c91712d6c8b61d", "fusion_lat": 0.0, "name": "4928b6a3cbce0372f6c91712d6c8b61d", "is_reserved": 0, "rental_uris": {"android": "https://dc.lft.to/lastmile_qr_scan", "ios": "https://dc.lft.to/lastmile_qr_scan"}, "fusion_lon": 0.0},