{"data": {"bikes": [{"rental_uris": {"ios": "https://dc.lft.to/lastmile_qr_scan", "android": "https://dc.lft.to/lastmile_qr_scan"}, "lat": 38.8979425, "bike_id": "c0fb28245fccc2eb4c41668fdbd69913", "lon": -77.01194566666666, "type": "electric_scooter", "fusion_lon": 0.0, "fusion_lat": 0.0, "is_reserved": 0, "name": "c0fb28245fccc2eb4c41668fdbd69913", "is_disabled": 0}, {"rental_uris": {"ios": "https://dc.lft.to/lastmile_qr_scan", "android": "https://dc.lft.to/lastmile_qr_scan"}, "lat": 38.92365, "bike_id": "27d73cbd430d77f87600baae5e631655", "lon": -77.0502645, "type": "electric_scooter", "fusion_lon": 0.0, "fusion_lat": 0.0, "is_reserved": 0, "name": "27d73cbd430d77f87600baae5e631655", "is_disabled": 0}, {"rental_uris": {"ios": "https://dc.lft.to/lastmile_qr_scan", "android": "https://dc.lft.to/lastmile_qr_scan"}, "lat": 38.94261566666667, "bike_id": "bbfd7bdbbae0d3cdd1f1616a5dc6ca82", "lon": -77.028416, "type": "electric_scooter", "fusion_lon": 0.0, "fusion_lat": 0.0, "is_reserved": 0, "name": "bbfd7bdbbae0d3cdd1f1616a5dc6ca82", "is_disabled": 0}, {"rental_uris": {"ios": "https://dc.lft.to/lastmile_qr_scan", "android": "https://dc.lft.to/lastmile_qr_scan"}, "lat": 38.897212833333334, "bike_id": "5b13b748d61f2e422bddb0dca4e59552", "lon": -77.0314435, "type": "electric_scooter", "fusion_lon": 0.0, "fusion_lat": 0.0, "is_reserved": 0, "name": "5b13b748d61f2e422bddb0dca4e59552", "is_disabled": 0}, {"rental_uris": {"ios": "https://dc.lft.to/lastmile_qr_scan", "android": "https://dc.lft.to/lastmile_qr_scan"}, "lat": 38.86512466666667, "bike_id": "b4171af58b3543b313e4e85ffee59eb9", "lon": -76.99003016666667, "type": "electric_scooter", "fusion_lon": 0.0, "fusion_lat": 0.0, "is_reserved": 0, "name": "b4171af58b3543b313e4e85ffee59eb9", "is_disabled": 0}, {"rental_uris": {"ios": "https://dc.lft.to/lastmile_qr_scan", "android": "https://dc.lft.to/lastmile_qr_scan"}, "lat": 38.90877416666667, "bike_id": "bf491263f8b21002a0420b5766f6a168", "lon": -77.07532733333333, "type": "electric_scooter", "fusion_lon": 0.0, "fusion_lat": 0.0, "is_reserved": 0, "name": "bf491263f8b21002a0420b5766f6a168", "is_disabled": 0}, {"rental_uris": {"ios": "https://dc.lft.to/lastmile_qr_scan", "android": "https://dc.lft.to/lastmile_qr_scan"}, "lat": 38.903723, "bike_id": "0fda9bc8afa16b4b402f3c99a7f927ed", "lon": -77.035816, "type": "electric_scooter", "fusion_lon": 0.0, "fusion_lat": 0.0, "is_reserved": 0, "name": "0fda9bc8afa16b4b402f3c99a7f927ed", "is_disabled": 0}, {"rental_uris": {"ios": "https://dc.lft.to/lastmile_qr_scan", "android": "https://dc.lft.to/lastmile_qr_scan"}, "lat": 38.90545133333333, "bike_id": "b511e19f3213b5289bcc771d650d380e", "lon": -77.00544933333333, "type": "electric_scooter", "fusion_lon": 0.0, "fusion_lat": 0.0, "is_reserved": 0, "name": "b511e19f3213b5289bcc771d650d380e", "is_disabled": 0}, {"rental_uris": {"ios": "https://dc.lft.to/lastmile_qr_scan", "android": "https://dc.lft.to/lastmile_qr_scan"}, "lat": 38.914196833333335, "bike_id": "b89e7263b8237772f530328145e10ef5", "lon": -77.03170066666667, "type": "electric_scooter", "fusion_lon": 0.0, "fusion_lat": 0.0, "is_reserved": 0, "name": "b89e7263b8237772f530328145e10ef5", "is_disabled": 0}, {"rental_uris": {"ios": "https://dc.lft.to/lastmile_qr_scan", "android": "https://dc.lft.to/lastmile_qr_scan"}, "lat": 38.90604316666666, "bike_id": "6a177b1427123021b0de08475569fd4c", "lon": -77.03975633333333, "type": "electric_scooter", "fusion_lon": 0.0, "fusion_lat": 0.0, "is_reserved": 0, "name": "6a177b1427123021b0de08475569fd4c", "is_disabled": 0}, {"rental_uris": {"ios": "https://dc.lft.to/lastmile_qr_scan", "android": "https://dc.lft.to/lastmile_qr_scan"}, "lat": 38.90622666666667, "bike_id": "ba52e6fa12f4eb3c5784ba7e2ce48735", "lon": -77.03865816666666, "type": "electric_scooter", "fusion_lon": 0.0, "fusion_lat": 0.0, "is_reserved": 0, "name": "ba52e6fa12f4eb3c5784ba7e2ce48735", "is_disabled": 0}, {"rental_uris": {"ios": "https://dc.lft.to/lastmile_qr_scan", "android": "https://dc.lft.to/lastmile_qr_scan"}, "lat": 38.89224983333333, "bike_id": "e025a7844ef46a4ba7a062938f3f28e6", "lon": -77.03336133333333, "type": "electric_scooter", "fusion_lon": 0.0, "fusion_lat": 0.0, "is_reserved": 0, "name": "e025a7844ef46a4ba7a062938f3f28e6", "is_disabled": 0}, {"rental_uris": {"ios": "https://dc.lft.to/lastmile_qr_scan", "android": "https://dc.lft.to/lastmile_qr_scan"}, "lat": 38.9223835, "bike_id": "8914ac58f3bb267c5a8f2dcd66abd82d", "lon": -77.04242366666666, "type": "electric_scooter", "fusion_lon": 0.0, "fusion_lat": 0.0, "is_reserved": 0, "name": "8914ac58f3bb267c5a8f2dcd66abd82d", "is_disabled": 0}, {"rental_uris": {"ios": "https://dc.lft.to/lastmile_qr_scan", "android": "https://dc.lft.to/lastmile_qr_scan"}, "lat": 38.9110625, "bike_id": "e5a08d6dcd13b01ca81368bd012d82c3", "lon": -77.04226583333333, "type": "electric_scooter", "fusion_lon": 0.0, "fusion_lat": 0.0, "is_reserved": 0, "name": "e5a08d6dcd13b01ca81368bd012d82c3", "is_disabled": 0}, {"rental_uris": {"ios": "https://dc.lft.to/lastmile_qr_scan", "android": "https://dc.lft.to/lastmile_qr_scan"}, "lat": 38.89625133333333, "bike_id": "06c84ad393d77230360ec17d64aac5b2", "lon": -77.0296085, "type": "electric_scooter", "fusion_lon": 0.0, "fusion_lat": 0.0, "is_reserved": 0, "name": "06c84ad393d77230360ec17d64aac5b2", "is_disabled": 0}, {"rental_uris": {"ios": "https://dc.lft.to/lastmile_qr_scan", "android": "https://dc.lft.to/lastmile_qr_scan"}, "lat": 38.90234683333333, "bike_id": "9c548c019c23427bf68afe122c0908d1", "lon": -77.02822933333333, "type": "electric_scooter", "fusion_lon": 0.0, "fusion_lat": 0.0, "is_reserved": 0, "name": "9c548c019c23427bf68afe122c0908d1", "is_disabled": 0}, {"rental_uris": {"ios": "https://dc.lft.to/lastmile_qr_scan", "android": "https://dc.lft.to/lastmile_qr_scan"}, "lat": 38.975055, "bike_id": "813e1a5a59b9c75ee3c9dd0ecb646971", "lon": -77.016935, "type": "electric_scooter", "fusion_lon": 0.0, "fusion_lat": 0.0, "is_reserved": 0, "name": "813e1a5a59b9c75ee3c9dd0ecb646971", "is_disabled": 0}, {"rental_uris": {"ios": "https://dc.lft.to/lastmile_qr_scan", "android": "https://dc.lft.to/lastmile_qr_scan"}, "lat": 38.89375733333333, "bike_id": "5ea89b493b9f214e95160f58302cdaac", "lon": -77.028551, "type": "electric_scooter", "fusion_lon": 0.0, "fusion_lat": 0.0, "is_reserved": 0, "name": "5ea89b493b9f214e95160f58302cdaac", "is_disabled": 0}, {"rental_uris": {"ios": "https://dc.lft.to/lastmile_qr_scan", "android": "https://dc.lft.to/lastmile_qr_scan"}, "lat": 38.89855883333333, "bike_id": "4a69040e6a95aca261d0fb3ce1f4e89b", "lon": -77.026445, "type": "electric_scooter", "fusion_lon": 0.0, "fusion_lat": 0.0, "is_reserved": 0, "name": "4a69040e6a95aca261d0fb3ce1f4e89b", "is_disabled": 0}, {"rental_uris": {"ios": "https://dc.lft.to/lastmile_qr_scan", "android": "https://dc.lft.to/lastmile_qr_scan"}, "lat": 39.0549855, "bike_id": "a5a9a4104e0a9ed8fe1b25cb70dfa906", "lon": -77.117854, "type": "electric_bike", "fusion_lon": 0.0, "fusion_lat": 0.0, "is_reserved": 0, "name": "a5a9a4104e0a9ed8fe1b25cb70dfa906", "is_disabled": 0}, {"rental_uris": {"ios": "https://dc.lft.to/lastmile_qr_scan", "android": "https://dc.lft.to/lastmile_qr_scan"}, "lat": 38.87180333333333, "bike_id": "6cdbe93414bdbb9fdffbab451d703ed1", "lon": -77.0060915, "type": "electric_scooter", "fusion_lon": 0.0, "fusion_lat": 0.0, "is_reserved": 0, "name": "6cdbe93414bdbb9fdffbab451d703ed1", "is_disabled": 0}, {"rental_uris": {"ios": "https://dc.lft.to/lastmile_qr_scan", "android": "https://dc.lft.to/lastmile_qr_scan"}, "lat": 38.89234066666667, "bike_id": "2b5447998bea863796c1acd703ba09fd", "lon": -77.03207016666667, "type": "electric_scooter", "fusion_lon": 0.0, "fusion_lat": 0.0, "is_reserved": 0, "name": "2b5447998bea863796c1acd703ba09fd", "is_disabled": 0}, {"rental_uris": {"ios": "https://dc.lft.to/lastmile_qr_scan", "android": "https://dc.lft.to/lastmile_qr_scan"}, "lat": 38.89245416666667, "bike_id": "5f8955a1ff1272b33600843c49e0dcc1", "lon": -77.03202716666667, "type": "electric_scooter", "fusion_lon": 0.0, "fusion_lat": 0.0, "is_reserved": 0, "name": "5f8955a1ff1272b33600843c49e0dcc1", "is_disabled": 0}, {"rental_uris": {"ios": "https://dc.lft.to/lastmile_qr_scan", "android": "https://dc.lft.to/lastmile_qr_scan"}, "lat": 38.88303366666667, "bike_id": "bdd8d63bee45ae0c89615b3451de65ff", "lon": -76.94854666666667, "type": "electric_scooter", "fusion_lon": 0.0, "fusion_lat": 0.0, "is_reserved": 0, "name": "bdd8d63bee45ae0c89615b3451de65ff", "is_disabled": 0}, {"rental_uris": {"ios": "https://dc.lft.to/lastmile_qr_scan", "android": "https://dc.lft.to/lastmile_qr_scan"}, "lat": 38.90780733333333, "bike_id": "45d588db45ce7dfa7d80200cdc3c8187", "lon": -77.07166883333333, "type": "electric_scooter", "fusion_lon": 0.0, "fusion_lat": 0.0, "is_reserved": 0, "name": "45d588db45ce7dfa7d80200cdc3c8187", "is_disabled": 0}, {"rental_uris": {"ios": "https://dc.lft.to/lastmile_qr_scan", "android": "https://dc.lft.to/lastmile_qr_scan"}, "lat": 38.9342815, "bike_id": "c2adfb1533719d9e274f9fefa260a60a", "lon": -77.0400115, "type": "electric_scooter", "fusion_lon": 0.0, "fusion_lat": 0.0, "is_reserved": 0, "name": "c2adfb1533719d9e274f9fefa260a60a", "is_disabled": 0}, {"rental_uris": {"ios": "https://dc.lft.to/lastmile_qr_scan", "android": "https://dc.lft.to/lastmile_qr_scan"}, "lat": 38.891836833333336, "bike_id": "6e081baf08c1b0a44e3839866e324f68", "lon": -76.99477366666666, "type": "electric_scooter", "fusion_lon": 0.0, "fusion_lat": 0.0, "is_reserved": 0, "name": "6e081baf08c1b0a44e3839866e324f68", "is_disabled": 0}, {"rental_uris": {"ios": "https://dc.lft.to/lastmile_qr_scan", "android": "https://dc.lft.to/lastmile_qr_scan"}, "lat": 38.927839666666664, "bike_id": "b79a02fe9f9b165c96ef1c696e9a921a", "lon": -77.05252833333333, "type": "electric_scooter", "fusion_lon": 0.0, "fusion_lat": 0.0, "is_reserved": 0, "name": "b79a02fe9f9b165c96ef1c696e9a921a", "is_disabled": 0}, {"rental_uris": {"ios": "https://dc.lft.to/lastmile_qr_scan", "android": "https://dc.lft.to/lastmile_qr_scan"}, "lat": 38.905237, "bike_id": "695ecb4f0be397d08605f16ea687c397", "lon": -77.06448766666666, "type": "electric_scooter", "fusion_lon": 0.0, "fusion_lat": 0.0, "is_reserved": 0, "name": "695ecb4f0be397d08605f16ea687c397", "is_disabled": 0}, {"rental_uris": {"ios": "https://dc.lft.to/lastmile_qr_scan", "android": "https://dc.lft.to/lastmile_qr_scan"}, "lat": 38.91342316666667, "bike_id": "007260f658babeb0014a44d6e278d4ef", "lon": -77.04541766666667, "type": "electric_scooter", "fusion_lon": 0.0, "fusion_lat": 0.0, "is_reserved": 0, "name": "007260f658babeb0014a44d6e278d4ef", "is_disabled": 0}, {"rental_uris": {"ios": "https://dc.lft.to/lastmile_qr_scan", "android": "https://dc.lft.to/lastmile_qr_scan"}, "lat": 38.867546833333336, "bike_id": "515f512d9bd04b0867125912815f70d5", "lon": -76.94535816666667, "type": "electric_bike", "fusion_lon": 0.0, "fusion_lat": 0.0, "is_reserved": 0, "name": "515f512d9bd04b0867125912815f70d5", "is_disabled": 0}, {"rental_uris": {"ios": "https://dc.lft.to/lastmile_qr_scan", "android": "https://dc.lft.to/lastmile_qr_scan"}, "lat": 38.874373166666665, "bike_id": "fe1414857324dc5af5e4ff4182ef22cb", "lon": -77.01874716666667, "type": "electric_scooter", "fusion_lon": 0.0, "fusion_lat": 0.0, "is_reserved": 0, "name": "fe1414857324dc5af5e4ff4182ef22cb", "is_disabled": 0}, {"rental_uris": {"ios": "https://dc.lft.to/lastmile_qr_scan", "android": "https://dc.lft.to/lastmile_qr_scan"}, "lat": 38.899719833333336, "bike_id": "cf913852217d6809c53b0ebcc5063b3d", "lon": -77.05577766666667, "type": "electric_scooter", "fusion_lon": 0.0, "fusion_lat": 0.0, "is_reserved": 0, "name": "cf913852217d6809c53b0ebcc5063b3d", "is_disabled": 0}, {"rental_uris": {"ios": "https://dc.lft.to/lastmile_qr_scan", "android": "https://dc.lft.to/lastmile_qr_scan"}, "lat": 38.94446033333333, "bike_id": "3e196e1ae2b201fb6132bbed5fac14b3", "lon": -77.06397966666667, "type": "electric_scooter", "fusion_lon": 0.0, "fusion_lat": 0.0, "is_reserved": 0, "name": "3e196e1ae2b201fb6132bbed5fac14b3", "is_disabled": 0}, {"rental_uris": {"ios": "https://dc.lft.to/lastmile_qr_scan", "android": "https://dc.lft.to/lastmile_qr_scan"}, "lat": 38.91552466666667, "bike_id": "6165f74d437ce990f61732146fcb54d7", "lon": -77.024013, "type": "electric_scooter", "fusion_lon": 0.0, "fusion_lat": 0.0, "is_reserved": 0, "name": "6165f74d437ce990f61732146fcb54d7", "is_disabled": 0}, {"rental_uris": {"ios": "https://dc.lft.to/lastmile_qr_scan", "android": "https://dc.lft.to/lastmile_qr_scan"}, "lat": 38.9318565, "bike_id": "eedecc8be23382ab25255aa202127196", "lon": -77.0842325, "type": "electric_scooter", "fusion_lon": 0.0, "fusion_lat": 0.0, "is_reserved": 0, "name": "eedecc8be23382ab25255aa202127196", "is_disabled": 0}, {"rental_uris": {"ios": "https://dc.lft.to/lastmile_qr_scan", "android": "https://dc.lft.to/lastmile_qr_scan"}, "lat": 38.89885666666667, "bike_id": "7ab3fef35459efb64c0e7bad35e1014c", "lon": -76.931736, "type": "electric_scooter", "fusion_lon": 0.0, "fusion_lat": 0.0, "is_reserved": 0, "name": "7ab3fef35459efb64c0e7bad35e1014c", "is_disabled": 0}, {"rental_uris": {"ios": "https://dc.lft.to/lastmile_qr_scan", "android": "https://dc.lft.to/lastmile_qr_scan"}, "lat": 38.9033415, "bike_id": "c219330f24bd7822375d031c5afee02f", "lon": -77.0470515, "type": "electric_scooter", "fusion_lon": 0.0, "fusion_lat": 0.0, "is_reserved": 0, "name": "c219330f24bd7822375d031c5afee02f", "is_disabled": 0}, {"rental_uris": {"ios": "https://dc.lft.to/lastmile_qr_scan", "android": "https://dc.lft.to/lastmile_qr_scan"}, "lat": 38.871717, "bike_id": "1f77546440e7c078a95a65d76d45aa00", "lon": -77.006816, "type": "electric_scooter", "fusion_lon": 0.0, "fusion_lat": 0.0, "is_reserved": 0, "name": "1f77546440e7c078a95a65d76d45aa00", "is_disabled": 0}, {"rental_uris": {"ios": "https://dc.lft.to/lastmile_qr_scan", "android": "https://dc.lft.to/lastmile_qr_scan"}, "lat": 38.903837833333334, "bike_id": "38a28079ad4f0a45a82ce0a60561e4b1", "lon": -77.036243, "type": "electric_scooter", "fusion_lon": 0.0, "fusion_lat": 0.0, "is_reserved": 0, "name": "38a28079ad4f0a45a82ce0a60561e4b1", "is_disabled": 0}, {"rental_uris": {"ios": "https://dc.lft.to/lastmile_qr_scan", "android": "https://dc.lft.to/lastmile_qr_scan"}, "lat": 38.921601, "bike_id": "d2ef68cd0475bc85956a8da470d3454c", "lon": -77.03658616666667, "type": "electric_scooter", "fusion_lon": 0.0, "fusion_lat": 0.0, "is_reserved": 0, "name": "d2ef68cd0475bc85956a8da470d3454c", "is_disabled": 0}, {"rental_uris": {"ios": "https://dc.lft.to/lastmile_qr_scan", "android": "https://dc.lft.to/lastmile_qr_scan"}, "lat": 38.926573, "bike_id": "f0be25f03dd89ebfe5663eef7da35b1d", "lon": -77.03721516666667, "type": "electric_scooter", "fusion_lon": 0.0, "fusion_lat": 0.0, "is_reserved": 0, "name": "f0be25f03dd89ebfe5663eef7da35b1d", "is_disabled": 0}, {"rental_uris": {"ios": "https://dc.lft.to/lastmile_qr_scan", "android": "https://dc.lft.to/lastmile_qr_scan"}, "lat": 38.874727, "bike_id": "f88ea0ec9adaea7d24a41d1f0c8c6adf", "lon": -77.00515766666666, "type": "electric_scooter", "fusion_lon": 0.0, "fusion_lat": 0.0, "is_reserved": 0, "name": "f88ea0ec9adaea7d24a41d1f0c8c6adf", "is_disabled": 0}, {"rental_uris": {"ios": "https://dc.lft.to/lastmile_qr_scan", "android": "https://dc.lft.to/lastmile_qr_scan"}, "lat": 38.98769716666666, "bike_id": "2fb24e597788cfb5cfddff946a262e7e", "lon": -77.14057433333333, "type": "electric_bike", "fusion_lon": 0.0, "fusion_lat": 0.0, "is_reserved": 0, "name": "2fb24e597788cfb5cfddff946a262e7e", "is_disabled": 0}, {"rental_uris": {"ios": "https://dc.lft.to/lastmile_qr_scan", "android": "https://dc.lft.to/lastmile_qr_scan"}, "lat": 38.88497233333333, "bike_id": "d0c54b16a409b9cf66ffecc75257ae13", "lon": -77.007253, "type": "electric_scooter", "fusion_lon": 0.0, "fusion_lat": 0.0, "is_reserved": 0, "name": "d0c54b16a409b9cf66ffecc75257ae13", "is_disabled": 0}, {"rental_uris": {"ios": "https://dc.lft.to/lastmile_qr_scan", "android": "https://dc.lft.to/lastmile_qr_scan"}, "lat": 38.867258, "bike_id": "95cc775ffd49a627a5d3ea88f6f62ed2", "lon": -76.986915, "type": "electric_scooter", "fusion_lon": 0.0, "fusion_lat": 0.0, "is_reserved": 0, "name": "95cc775ffd49a627a5d3ea88f6f62ed2", "is_disabled": 0}, {"rental_uris": {"ios": "https://dc.lft.to/lastmile_qr_scan", "android": "https://dc.lft.to/lastmile_qr_scan"}, "lat": 38.912660333333335, "bike_id": "2706ee6e37284780baf0642f243c36de", "lon": -77.03237983333334, "type": "electric_scooter", "fusion_lon": 0.0, "fusion_lat": 0.0, "is_reserved": 0, "name": "2706ee6e37284780baf0642f243c36de", "is_disabled": 0}, {"rental_uris": {"ios": "https://dc.lft.to/lastmile_qr_scan", "android": "https://dc.lft.to/lastmile_qr_scan"}, "lat": 38.92034316666667, "bike_id": "55e296419934bf54f142395f100e593c", "lon": -77.00300733333333, "type": "electric_scooter", "fusion_lon": 0.0, "fusion_lat": 0.0, "is_reserved": 0, "name": "55e296419934bf54f142395f100e593c", "is_disabled": 0}, {"rental_uris": {"ios": "https://dc.lft.to/lastmile_qr_scan", "android": "https://dc.lft.to/lastmile_qr_scan"}, "lat": 38.915930833333334, "bike_id": "54f04d826f174ec0c6736551395cff1a", "lon": -77.022985, "type": "electric_scooter", "fusion_lon": 0.0, "fusion_lat": 0.0, "is_reserved": 0, "name": "54f04d826f174ec0c6736551395cff1a", "is_disabled": 0}, {"rental_uris": {"ios": "https://dc.lft.to/lastmile_qr_scan", "android": "https://dc.lft.to/lastmile_qr_scan"}, "lat": 38.90371433333333, "bike_id": "ef89148e05a65f0b5ccf759d8fc9987f", "lon": -77.04487266666666, "type": "electric_scooter", "fusion_lon": 0.0, "fusion_lat": 0.0, "is_reserved": 0, "name": "ef89148e05a65f0b5ccf759d8fc9987f", "is_disabled": 0}, {"rental_uris": {"ios": "https://dc.lft.to/lastmile_qr_scan", "android": "https://dc.lft.to/lastmile_qr_scan"}, "lat": 38.918501166666665, "bike_id": "c3845a6540b36b741ffce805989a7f95", "lon": -77.03211616666667, "type": "electric_scooter", "fusion_lon": 0.0, "fusion_lat": 0.0, "is_reserved": 0, "name": "c3845a6540b36b741ffce805989a7f95", "is_disabled": 0}, {"rental_uris": {"ios": "https://dc.lft.to/lastmile_qr_scan", "android": "https://dc.lft.to/lastmile_qr_scan"}, "lat": 38.8987025, "bike_id": "6526f07bb669b5a86db4659b55adc900", "lon": -76.94634683333334, "type": "electric_scooter", "fusion_lon": 0.0, "fusion_lat": 0.0, "is_reserved": 0, "name": "6526f07bb669b5a86db4659b55adc900", "is_disabled": 0}, {"rental_uris": {"ios": "https://dc.lft.to/lastmile_qr_scan", "android": "https://dc.lft.to/lastmile_qr_scan"}, "lat": 38.93472666666667, "bike_id": "7a76e43a78a30c114c606c675fd54c37", "lon": -77.02230066666667, "type": "electric_scooter", "fusion_lon": 0.0, "fusion_lat": 0.0, "is_reserved": 0, "name": "7a76e43a78a30c114c606c675fd54c37", "is_disabled": 0}, {"rental_uris": {"ios": "https://dc.lft.to/lastmile_qr_scan", "android": "https://dc.lft.to/lastmile_qr_scan"}, "lat": 38.96441566666667, "bike_id": "48adfc7ba3d4f0b7759118852a5a07f0", "lon": -77.03150783333334, "type": "electric_bike", "fusion_lon": 0.0, "fusion_lat": 0.0, "is_reserved": 0, "name": "48adfc7ba3d4f0b7759118852a5a07f0", "is_disabled": 0}, {"rental_uris": {"ios": "https://dc.lft.to/lastmile_qr_scan", "android": "https://dc.lft.to/lastmile_qr_scan"}, "lat": 38.90075433333333, "bike_id": "cab5c0b24d4d01c1eb0eec0921874fa4", "lon": -77.04784733333334, "type": "electric_scooter", "fusion_lon": 0.0, "fusion_lat": 0.0, "is_reserved": 0, "name": "cab5c0b24d4d01c1eb0eec0921874fa4", "is_disabled": 0}, {"rental_uris": {"ios": "https://dc.lft.to/lastmile_qr_scan", "android": "https://dc.lft.to/lastmile_qr_scan"}, "lat": 38.922720166666664, "bike_id": "5bbd0a9483c8be85b4a894ce48f16f82", "lon": -77.03284983333333, "type": "electric_scooter", "fusion_lon": 0.0, "fusion_lat": 0.0, "is_reserved": 0, "name": "5bbd0a9483c8be85b4a894ce48f16f82", "is_disabled": 0}, {"rental_uris": {"ios": "https://dc.lft.to/lastmile_qr_scan", "android": "https://dc.lft.to/lastmile_qr_scan"}, "lat": 38.893297, "bike_id": "451858d43f13fb79b8053ee5cd576d8b", "lon": -77.04673433333333, "type": "electric_scooter", "fusion_lon": 0.0, "fusion_lat": 0.0, "is_reserved": 0, "name": "451858d43f13fb79b8053ee5cd576d8b", "is_disabled": 0}, {"rental_uris": {"ios": "https://dc.lft.to/lastmile_qr_scan", "android": "https://dc.lft.to/lastmile_qr_scan"}, "lat": 38.91502166666667, "bike_id": "ed9af85ed5cb247b1a03eb25b0f40538", "lon": -77.021861, "type": "electric_scooter", "fusion_lon": 0.0, "fusion_lat": 0.0, "is_reserved": 0, "name": "ed9af85ed5cb247b1a03eb25b0f40538", "is_disabled": 0}, {"rental_uris": {"ios": "https://dc.lft.to/lastmile_qr_scan", "android": "https://dc.lft.to/lastmile_qr_scan"}, "lat": 38.922190666666665, "bike_id": "315905f88d576374f7fb8967236da646", "lon": -77.20140183333334, "type": "electric_bike", "fusion_lon": 0.0, "fusion_lat": 0.0, "is_reserved": 0, "name": "315905f88d576374f7fb8967236da646", "is_disabled": 0}, {"rental_uris": {"ios": "https://dc.lft.to/lastmile_qr_scan", "android": "https://dc.lft.to/lastmile_qr_scan"}, "lat": 38.870642833333335, "bike_id": "cf31270e00ab552083224e76b3af33c3", "lon": -76.970962, "type": "electric_scooter", "fusion_lon": 0.0, "fusion_lat": 0.0, "is_reserved": 0, "name": "cf31270e00ab552083224e76b3af33c3", "is_disabled": 0}, {"rental_uris": {"ios": "https://dc.lft.to/lastmile_qr_scan", "android": "https://dc.lft.to/lastmile_qr_scan"}, "lat": 38.92104616666667, "bike_id": "3f187ad05590cd38df136672d1b1897a", "lon": -77.0419675, "type": "electric_scooter", "fusion_lon": 0.0, "fusion_lat": 0.0, "is_reserved": 0, "name": "3f187ad05590cd38df136672d1b1897a", "is_disabled": 0}, {"rental_uris": {"ios": "https://dc.lft.to/lastmile_qr_scan", "android": "https://dc.lft.to/lastmile_qr_scan"}, "lat": 38.90695183333333, "bike_id": "20ad58169ae427941bb892dc6895d9de", "lon": -76.95250616666667, "type": "electric_bike", "fusion_lon": 0.0, "fusion_lat": 0.0, "is_reserved": 0, "name": "20ad58169ae427941bb892dc6895d9de", "is_disabled": 0}, {"rental_uris": {"ios": "https://dc.lft.to/lastmile_qr_scan", "android": "https://dc.lft.to/lastmile_qr_scan"}, "lat": 38.94211333333333, "bike_id": "90bf13e2e0deb8f717abef8a044a96bd", "lon": -77.02589716666667, "type": "electric_scooter", "fusion_lon": 0.0, "fusion_lat": 0.0, "is_reserved": 0, "name": "90bf13e2e0deb8f717abef8a044a96bd", "is_disabled": 0}, {"rental_uris": {"ios": "https://dc.lft.to/lastmile_qr_scan", "android": "https://dc.lft.to/lastmile_qr_scan"}, "lat": 38.91186583333333, "bike_id": "b789d623bd37d9bfdf3d4009458f7e89", "lon": -77.04494616666666, "type": "electric_scooter", "fusion_lon": 0.0, "fusion_lat": 0.0, "is_reserved": 0, "name": "b789d623bd37d9bfdf3d4009458f7e89", "is_disabled": 0}, {"rental_uris": {"ios": "https://dc.lft.to/lastmile_qr_scan", "android": "https://dc.lft.to/lastmile_qr_scan"}, "lat": 38.8746615, "bike_id": "b20cd420e59412b7b1416b56a55490a5", "lon": -77.00481866666667, "type": "electric_scooter", "fusion_lon": 0.0, "fusion_lat": 0.0, "is_reserved": 0, "name": "b20cd420e59412b7b1416b56a55490a5", "is_disabled": 0}, {"rental_uris": {"ios": "https://dc.lft.to/lastmile_qr_scan", "android": "https://dc.lft.to/lastmile_qr_scan"}, "lat": 38.8874085, "bike_id": "c4e90d29791f07d38315e3cdb886968f", "lon": -77.01532966666667, "type": "electric_scooter", "fusion_lon": 0.0, "fusion_lat": 0.0, "is_reserved": 0, "name": "c4e90d29791f07d38315e3cdb886968f", "is_disabled": 0}, {"rental_uris": {"ios": "https://dc.lft.to/lastmile_qr_scan", "android": "https://dc.lft.to/lastmile_qr_scan"}, "lat": 38.91402566666667, "bike_id": "4c75271251dca6b99897616488c92900", "lon": -77.02405816666666, "type": "electric_scooter", "fusion_lon": 0.0, "fusion_lat": 0.0, "is_reserved": 0, "name": "4c75271251dca6b99897616488c92900", "is_disabled": 0}, {"rental_uris": {"ios": "https://dc.lft.to/lastmile_qr_scan", "android": "https://dc.lft.to/lastmile_qr_scan"}, "lat": 38.92530716666667, "bike_id": "e6fa0e1fde281342292c6da7a980c00e", "lon": -77.07709783333334, "type": "electric_scooter", "fusion_lon": 0.0, "fusion_lat": 0.0, "is_reserved": 0, "name": "e6fa0e1fde281342292c6da7a980c00e", "is_disabled": 0}, {"rental_uris": {"ios": "https://dc.lft.to/lastmile_qr_scan", "android": "https://dc.lft.to/lastmile_qr_scan"}, "lat": 38.86878466666667, "bike_id": "b6d9b9c0b0972633412a55c30fe3f441", "lon": -76.9577565, "type": "electric_bike", "fusion_lon": 0.0, "fusion_lat": 0.0, "is_reserved": 0, "name": "b6d9b9c0b0972633412a55c30fe3f441", "is_disabled": 0}, {"rental_uris": {"ios": "https://dc.lft.to/lastmile_qr_scan", "android": "https://dc.lft.to/lastmile_qr_scan"}, "lat": 38.915021333333335, "bike_id": "6a0f6c3756543331ecdd14aae9a5ffe9", "lon": -77.04484083333334, "type": "electric_scooter", "fusion_lon": 0.0, "fusion_lat": 0.0, "is_reserved": 0, "name": "6a0f6c3756543331ecdd14aae9a5ffe9", "is_disabled": 0}, {"rental_uris": {"ios": "https://dc.lft.to/lastmile_qr_scan", "android": "https://dc.lft.to/lastmile_qr_scan"}, "lat": 38.904552333333335, "bike_id": "a6ad854b8a751ff0dab3f5f1d2950834", "lon": -77.03450916666667, "type": "electric_scooter", "fusion_lon": 0.0, "fusion_lat": 0.0, "is_reserved": 0, "name": "a6ad854b8a751ff0dab3f5f1d2950834", "is_disabled": 0}, {"rental_uris": {"ios": "https://dc.lft.to/lastmile_qr_scan", "android": "https://dc.lft.to/lastmile_qr_scan"}, "lat": 38.93338833333333, "bike_id": "6566b3cb51d64ceec6a76883835d5fe8", "lon": -77.0205835, "type": "electric_scooter", "fusion_lon": 0.0, "fusion_lat": 0.0, "is_reserved": 0, "name": "6566b3cb51d64ceec6a76883835d5fe8", "is_disabled": 0}, {"rental_uris": {"ios": "https://dc.lft.to/lastmile_qr_scan", "android": "https://dc.lft.to/lastmile_qr_scan"}, "lat": 38.9027835, "bike_id": "eb934271a4ed41455dfe766d126a72b9", "lon": -77.03856183333333, "type": "electric_scooter", "fusion_lon": 0.0, "fusion_lat": 0.0, "is_reserved": 0, "name": "eb934271a4ed41455dfe766d126a72b9", "is_disabled": 0}, {"rental_uris": {"ios": "https://dc.lft.to/lastmile_qr_scan", "android": "https://dc.lft.to/lastmile_qr_scan"}, "lat": 39.052556, "bike_id": "2c23003c91c0e0f6626a5472c3a24194", "lon": -77.080646, "type": "electric_bike", "fusion_lon": 0.0, "fusion_lat": 0.0, "is_reserved": 0, "name": "2c23003c91c0e0f6626a5472c3a24194", "is_disabled": 0}, {"rental_uris": {"ios": "https://dc.lft.to/lastmile_qr_scan", "android": "https://dc.lft.to/lastmile_qr_scan"}, "lat": 38.87358733333333, "bike_id": "9eb78110ea447eb56a02a5f30b993844", "lon": -76.97023966666667, "type": "electric_scooter", "fusion_lon": 0.0, "fusion_lat": 0.0, "is_reserved": 0, "name": "9eb78110ea447eb56a02a5f30b993844", "is_disabled": 0}, {"rental_uris": {"ios": "https://dc.lft.to/lastmile_qr_scan", "android": "https://dc.lft.to/lastmile_qr_scan"}, "lat": 38.89748383333333, "bike_id": "fcd7d4890e943577a8f875d2e5a88bb2", "lon": -77.04689266666666, "type": "electric_scooter", "fusion_lon": 0.0, "fusion_lat": 0.0, "is_reserved": 0, "name": "fcd7d4890e943577a8f875d2e5a88bb2", "is_disabled": 0}, {"rental_uris": {"ios": "https://dc.lft.to/lastmile_qr_scan", "android": "https://dc.lft.to/lastmile_qr_scan"}, "lat": 38.92926383333333, "bike_id": "46285297c2f7b39a6f0657e12f0e1a3f", "lon": -77.0324355, "type": "electric_scooter", "fusion_lon": 0.0, "fusion_lat": 0.0, "is_reserved": 0, "name": "46285297c2f7b39a6f0657e12f0e1a3f", "is_disabled": 0}, {"rental_uris": {"ios": "https://dc.lft.to/lastmile_qr_scan", "android": "https://dc.lft.to/lastmile_qr_scan"}, "lat": 38.905296166666666, "bike_id": "661b203162ca27a9679d067a57b52b21", "lon": -77.0435475, "type": "electric_scooter", "fusion_lon": 0.0, "fusion_lat": 0.0, "is_reserved": 0, "name": "661b203162ca27a9679d067a57b52b21", "is_disabled": 0}, {"rental_uris": {"ios": "https://dc.lft.to/lastmile_qr_scan", "android": "https://dc.lft.to/lastmile_qr_scan"}, "lat": 38.91827033333333, "bike_id": "88e4a33e5647f4dca154f4dbad4830b7", "lon": -77.04938133333333, "type": "electric_scooter", "fusion_lon": 0.0, "fusion_lat": 0.0, "is_reserved": 0, "name": "88e4a33e5647f4dca154f4dbad4830b7", "is_disabled": 0}, {"rental_uris": {"ios": "https://dc.lft.to/lastmile_qr_scan", "android": "https://dc.lft.to/lastmile_qr_scan"}, "lat": 38.89501583333333, "bike_id": "250768d7639c5f79636c6efc692a0d84", "lon": -77.023039, "type": "electric_scooter", "fusion_lon": 0.0, "fusion_lat": 0.0, "is_reserved": 0, "name": "250768d7639c5f79636c6efc692a0d84", "is_disabled": 0}, {"rental_uris": {"ios": "https://dc.lft.to/lastmile_qr_scan", "android": "https://dc.lft.to/lastmile_qr_scan"}, "lat": 38.87570783333334, "bike_id": "cc189e2e22fcaf73f61f0044268f7e11", "lon": -77.00591, "type": "electric_scooter", "fusion_lon": 0.0, "fusion_lat": 0.0, "is_reserved": 0, "name": "cc189e2e22fcaf73f61f0044268f7e11", "is_disabled": 0}, {"rental_uris": {"ios": "https://dc.lft.to/lastmile_qr_scan", "android": "https://dc.lft.to/lastmile_qr_scan"}, "lat": 38.943366, "bike_id": "2effbb67a3623cdd9bfbec8f11f4ef9b", "lon": -77.02463166666666, "type": "electric_scooter", "fusion_lon": 0.0, "fusion_lat": 0.0, "is_reserved": 0, "name": "2effbb67a3623cdd9bfbec8f11f4ef9b", "is_disabled": 0}, {"rental_uris": {"ios": "https://dc.lft.to/lastmile_qr_scan", "android": "https://dc.lft.to/lastmile_qr_scan"}, "lat": 38.956434333333334, "bike_id": "66e096e8163c53377e0dcbca9632cb10", "lon": -77.01149783333334, "type": "electric_scooter", "fusion_lon": 0.0, "fusion_lat": 0.0, "is_reserved": 0, "name": "66e096e8163c53377e0dcbca9632cb10", "is_disabled": 0}, {"rental_uris": {"ios": "https://dc.lft.to/lastmile_qr_scan", "android": "https://dc.lft.to/lastmile_qr_scan"}, "lat": 38.902056333333334, "bike_id": "cff7018e6ba79151a60e9964a120fd66", "lon": -77.02115116666667, "type": "electric_scooter", "fusion_lon": 0.0, "fusion_lat": 0.0, "is_reserved": 0, "name": "cff7018e6ba79151a60e9964a120fd66", "is_disabled": 0}, {"rental_uris": {"ios": "https://dc.lft.to/lastmile_qr_scan", "android": "https://dc.lft.to/lastmile_qr_scan"}, "lat": 38.9091905, "bike_id": "9018049333d55bf77cc4da26a8de9fd3", "lon": -77.0230595, "type": "electric_scooter", "fusion_lon": 0.0, "fusion_lat": 0.0, "is_reserved": 0, "name": "9018049333d55bf77cc4da26a8de9fd3", "is_disabled": 0}, {"rental_uris": {"ios": "https://dc.lft.to/lastmile_qr_scan", "android": "https://dc.lft.to/lastmile_qr_scan"}, "lat": 38.89355066666667, "bike_id": "923931680c1e03d787b58f9ff110de38", "lon": -77.00337116666667, "type": "electric_scooter", "fusion_lon": 0.0, "fusion_lat": 0.0, "is_reserved": 0, "name": "923931680c1e03d787b58f9ff110de38", "is_disabled": 0}, {"rental_uris": {"ios": "https://dc.lft.to/lastmile_qr_scan", "android": "https://dc.lft.to/lastmile_qr_scan"}, "lat": 38.896046, "bike_id": "4f6df4fe4e6199ddd5663465f861312a", "lon": -77.05435733333333, "type": "electric_scooter", "fusion_lon": 0.0, "fusion_lat": 0.0, "is_reserved": 0, "name": "4f6df4fe4e6199ddd5663465f861312a", "is_disabled": 0}, {"rental_uris": {"ios": "https://dc.lft.to/lastmile_qr_scan", "android": "https://dc.lft.to/lastmile_qr_scan"}, "lat": 38.89527316666667, "bike_id": "46194870f6e19c937a7de641cebe5f19", "lon": -77.02292183333333, "type": "electric_scooter", "fusion_lon": 0.0, "fusion_lat": 0.0, "is_reserved": 0, "name": "46194870f6e19c937a7de641cebe5f19", "is_disabled": 0}, {"rental_uris": {"ios": "https://dc.lft.to/lastmile_qr_scan", "android": "https://dc.lft.to/lastmile_qr_scan"}, "lat": 38.901679666666666, "bike_id": "ef68b43463942cd1ebffaada1f74f1be", "lon": -76.93018033333334, "type": "electric_scooter", "fusion_lon": 0.0, "fusion_lat": 0.0, "is_reserved": 0, "name": "ef68b43463942cd1ebffaada1f74f1be", "is_disabled": 0}, {"rental_uris": {"ios": "https://dc.lft.to/lastmile_qr_scan", "android": "https://dc.lft.to/lastmile_qr_scan"}, "lat": 38.8865545, "bike_id": "523f7c2dec9481427f2c363b56f10e2f", "lon": -77.00113183333333, "type": "electric_scooter", "fusion_lon": 0.0, "fusion_lat": 0.0, "is_reserved": 0, "name": "523f7c2dec9481427f2c363b56f10e2f", "is_disabled": 0}, {"rental_uris": {"ios": "https://dc.lft.to/lastmile_qr_scan", "android": "https://dc.lft.to/lastmile_qr_scan"}, "lat": 38.9296425, "bike_id": "54ea520adc236f6745b17f438c81050f", "lon": -77.01147783333333, "type": "electric_scooter", "fusion_lon": 0.0, "fusion_lat": 0.0, "is_reserved": 0, "name": "54ea520adc236f6745b17f438c81050f", "is_disabled": 0}, {"rental_uris": {"ios": "https://dc.lft.to/lastmile_qr_scan", "android": "https://dc.lft.to/lastmile_qr_scan"}, "lat": 38.87477533333333, "bike_id": "e4950efc7151b35846c18390e37a0fe4", "lon": -76.96528166666667, "type": "electric_bike", "fusion_lon": 0.0, "fusion_lat": 0.0, "is_reserved": 0, "name": "e4950efc7151b35846c18390e37a0fe4", "is_disabled": 0}, {"rental_uris": {"ios": "https://dc.lft.to/lastmile_qr_scan", "android": "https://dc.lft.to/lastmile_qr_scan"}, "lat": 38.923769166666666, "bike_id": "847d1701e2c9dabadf3369f3335f718e", "lon": -77.051487, "type": "electric_scooter", "fusion_lon": 0.0, "fusion_lat": 0.0, "is_reserved": 0, "name": "847d1701e2c9dabadf3369f3335f718e", "is_disabled": 0}, {"rental_uris": {"ios": "https://dc.lft.to/lastmile_qr_scan", "android": "https://dc.lft.to/lastmile_qr_scan"}, "lat": 38.919281, "bike_id": "f724c27d79668ff0e5558b65bc7b4faf", "lon": -77.00974816666667, "type": "electric_scooter", "fusion_lon": 0.0, "fusion_lat": 0.0, "is_reserved": 0, "name": "f724c27d79668ff0e5558b65bc7b4faf", "is_disabled": 0}, {"rental_uris": {"ios": "https://dc.lft.to/lastmile_qr_scan", "android": "https://dc.lft.to/lastmile_qr_scan"}, "lat": 38.913248, "bike_id": "a09d512f6e839f7c73bbb098f5df686b", "lon": -77.03175283333333, "type": "electric_scooter", "fusion_lon": 0.0, "fusion_lat": 0.0, "is_reserved": 0, "name": "a09d512f6e839f7c73bbb098f5df686b", "is_disabled": 0}, {"rental_uris": {"ios": "https://dc.lft.to/lastmile_qr_scan", "android": "https://dc.lft.to/lastmile_qr_scan"}, "lat": 38.917415166666665, "bike_id": "241500eebf9f330b206656c004d51d75", "lon": -77.02117916666667, "type": "electric_scooter", "fusion_lon": 0.0, "fusion_lat": 0.0, "is_reserved": 0, "name": "241500eebf9f330b206656c004d51d75", "is_disabled": 0}, {"rental_uris": {"ios": "https://dc.lft.to/lastmile_qr_scan", "android": "https://dc.lft.to/lastmile_qr_scan"}, "lat": 38.92641883333334, "bike_id": "5734941be2b33d099687d62e4a01ac33", "lon": -77.0142855, "type": "electric_scooter", "fusion_lon": 0.0, "fusion_lat": 0.0, "is_reserved": 0, "name": "5734941be2b33d099687d62e4a01ac33", "is_disabled": 0}, {"rental_uris": {"ios": "https://dc.lft.to/lastmile_qr_scan", "android": "https://dc.lft.to/lastmile_qr_scan"}, "lat": 38.9022635, "bike_id": "b93cab12cd367024f944e2d139c43caf", "lon": -77.03258216666667, "type": "electric_scooter", "fusion_lon": 0.0, "fusion_lat": 0.0, "is_reserved": 0, "name": "b93cab12cd367024f944e2d139c43caf", "is_disabled": 0}, {"rental_uris": {"ios": "https://dc.lft.to/lastmile_qr_scan", "android": "https://dc.lft.to/lastmile_qr_scan"}, "lat": 38.9013585, "bike_id": "55903c36ce879a0698bb9075fecbb0f2", "lon": -77.03252866666666, "type": "electric_scooter", "fusion_lon": 0.0, "fusion_lat": 0.0, "is_reserved": 0, "name": "55903c36ce879a0698bb9075fecbb0f2", "is_disabled": 0}, {"rental_uris": {"ios": "https://dc.lft.to/lastmile_qr_scan", "android": "https://dc.lft.to/lastmile_qr_scan"}, "lat": 38.893937666666666, "bike_id": "44027e4e5d5c71e44ab4f288e96dcb51", "lon": -77.02346133333333, "type": "electric_scooter", "fusion_lon": 0.0, "fusion_lat": 0.0, "is_reserved": 0, "name": "44027e4e5d5c71e44ab4f288e96dcb51", "is_disabled": 0}, {"rental_uris": {"ios": "https://dc.lft.to/lastmile_qr_scan", "android": "https://dc.lft.to/lastmile_qr_scan"}, "lat": 38.92863766666667, "bike_id": "33246cb9934687b41d58156767bdd0e1", "lon": -77.02174166666667, "type": "electric_scooter", "fusion_lon": 0.0, "fusion_lat": 0.0, "is_reserved": 0, "name": "33246cb9934687b41d58156767bdd0e1", "is_disabled": 0}, {"rental_uris": {"ios": "https://dc.lft.to/lastmile_qr_scan", "android": "https://dc.lft.to/lastmile_qr_scan"}, "lat": 38.91923116666667, "bike_id": "aeaf47e9708e3cdd7ed0b0d5770427d8", "lon": -77.03362683333333, "type": "electric_scooter", "fusion_lon": 0.0, "fusion_lat": 0.0, "is_reserved": 0, "name": "aeaf47e9708e3cdd7ed0b0d5770427d8", "is_disabled": 0}, {"rental_uris": {"ios": "https://dc.lft.to/lastmile_qr_scan", "android": "https://dc.lft.to/lastmile_qr_scan"}, "lat": 38.8991285, "bike_id": "62f8523471284147a97b8aa44f314d6c", "lon": -76.93362666666667, "type": "electric_scooter", "fusion_lon": 0.0, "fusion_lat": 0.0, "is_reserved": 0, "name": "62f8523471284147a97b8aa44f314d6c", "is_disabled": 0}, {"rental_uris": {"ios": "https://dc.lft.to/lastmile_qr_scan", "android": "https://dc.lft.to/lastmile_qr_scan"}, "lat": 38.923736166666664, "bike_id": "8ca1d22c290574034b06f1f49b021d33", "lon": -77.02119816666666, "type": "electric_scooter", "fusion_lon": 0.0, "fusion_lat": 0.0, "is_reserved": 0, "name": "8ca1d22c290574034b06f1f49b021d33", "is_disabled": 0}, {"rental_uris": {"ios": "https://dc.lft.to/lastmile_qr_scan", "android": "https://dc.lft.to/lastmile_qr_scan"}, "lat": 38.9045005, "bike_id": "0a3152e37bad3f76f8bf5e8c8147a4f0", "lon": -77.04842366666666, "type": "electric_scooter", "fusion_lon": 0.0, "fusion_lat": 0.0, "is_reserved": 0, "name": "0a3152e37bad3f76f8bf5e8c8147a4f0", "is_disabled": 0}, {"rental_uris": {"ios": "https://dc.lft.to/lastmile_qr_scan", "android": "https://dc.lft.to/lastmile_qr_scan"}, "lat": 38.90983716666667, "bike_id": "f13a3d8f190fec8725e92e2e41049308", "lon": -76.99494983333334, "type": "electric_scooter", "fusion_lon": 0.0, "fusion_lat": 0.0, "is_reserved": 0, "name": "f13a3d8f190fec8725e92e2e41049308", "is_disabled": 0}, {"rental_uris": {"ios": "https://dc.lft.to/lastmile_qr_scan", "android": "https://dc.lft.to/lastmile_qr_scan"}, "lat": 38.904455166666665, "bike_id": "74b85837c6b4b13ac171b839ddd721de", "lon": -76.97999783333333, "type": "electric_scooter", "fusion_lon": 0.0, "fusion_lat": 0.0, "is_reserved": 0, "name": "74b85837c6b4b13ac171b839ddd721de", "is_disabled": 0}, {"rental_uris": {"ios": "https://dc.lft.to/lastmile_qr_scan", "android": "https://dc.lft.to/lastmile_qr_scan"}, "lat": 38.9224995, "bike_id": "a786ad1ac86fe527f0ebb18f541f65c1", "lon": -76.98082383333333, "type": "electric_scooter", "fusion_lon": 0.0, "fusion_lat": 0.0, "is_reserved": 0, "name": "a786ad1ac86fe527f0ebb18f541f65c1", "is_disabled": 0}, {"rental_uris": {"ios": "https://dc.lft.to/lastmile_qr_scan", "android": "https://dc.lft.to/lastmile_qr_scan"}, "lat": 38.921350333333336, "bike_id": "295dad7fb0dc42d8ef59700372c3662f", "lon": -77.04346933333333, "type": "electric_scooter", "fusion_lon": 0.0, "fusion_lat": 0.0, "is_reserved": 0, "name": "295dad7fb0dc42d8ef59700372c3662f", "is_disabled": 0}, {"rental_uris": {"ios": "https://dc.lft.to/lastmile_qr_scan", "android": "https://dc.lft.to/lastmile_qr_scan"}, "lat": 38.920206666666665, "bike_id": "b43ea587d5ed975e578f82251ae0fcc0", "lon": -77.0317285, "type": "electric_scooter", "fusion_lon": 0.0, "fusion_lat": 0.0, "is_reserved": 0, "name": "b43ea587d5ed975e578f82251ae0fcc0", "is_disabled": 0}, {"rental_uris": {"ios": "https://dc.lft.to/lastmile_qr_scan", "android": "https://dc.lft.to/lastmile_qr_scan"}, "lat": 38.93249083333333, "bike_id": "cdf43bfbc9c89a703d723dd9518d3af7", "lon": -77.03266483333333, "type": "electric_scooter", "fusion_lon": 0.0, "fusion_lat": 0.0, "is_reserved": 0, "name": "cdf43bfbc9c89a703d723dd9518d3af7", "is_disabled": 0}, {"rental_uris": {"ios": "https://dc.lft.to/lastmile_qr_scan", "android": "https://dc.lft.to/lastmile_qr_scan"}, "lat": 38.93535166666667, "bike_id": "a58c2e60a4db70b9fa3764a046fbd522", "lon": -77.0235, "type": "electric_scooter", "fusion_lon": 0.0, "fusion_lat": 0.0, "is_reserved": 0, "name": "a58c2e60a4db70b9fa3764a046fbd522", "is_disabled": 0}, {"rental_uris": {"ios": "https://dc.lft.to/lastmile_qr_scan", "android": "https://dc.lft.to/lastmile_qr_scan"}, "lat": 38.9390705, "bike_id": "ec1bede48f55105110e367e0092baac5", "lon": -77.08486766666667, "type": "electric_scooter", "fusion_lon": 0.0, "fusion_lat": 0.0, "is_reserved": 0, "name": "ec1bede48f55105110e367e0092baac5", "is_disabled": 0}, {"rental_uris": {"ios": "https://dc.lft.to/lastmile_qr_scan", "android": "https://dc.lft.to/lastmile_qr_scan"}, "lat": 38.874692833333334, "bike_id": "eaa246f37bb11ff2298c44b36f191af0", "lon": -77.0048545, "type": "electric_scooter", "fusion_lon": 0.0, "fusion_lat": 0.0, "is_reserved": 0, "name": "eaa246f37bb11ff2298c44b36f191af0", "is_disabled": 0}, {"rental_uris": {"ios": "https://dc.lft.to/lastmile_qr_scan", "android": "https://dc.lft.to/lastmile_qr_scan"}, "lat": 38.88032366666667, "bike_id": "bc8b4f130e16586f668861a21981a810", "lon": -77.0250345, "type": "electric_scooter", "fusion_lon": 0.0, "fusion_lat": 0.0, "is_reserved": 0, "name": "bc8b4f130e16586f668861a21981a810", "is_disabled": 0}, {"rental_uris": {"ios": "https://dc.lft.to/lastmile_qr_scan", "android": "https://dc.lft.to/lastmile_qr_scan"}, "lat": 38.91745233333333, "bike_id": "db58a41131e9cba112a4675f1e4de017", "lon": -77.03179866666666, "type": "electric_scooter", "fusion_lon": 0.0, "fusion_lat": 0.0, "is_reserved": 0, "name": "db58a41131e9cba112a4675f1e4de017", "is_disabled": 0}, {"rental_uris": {"ios": "https://dc.lft.to/lastmile_qr_scan", "android": "https://dc.lft.to/lastmile_qr_scan"}, "lat": 38.85894533333333, "bike_id": "6bc21cd599863c8014e5525d7cffd73b", "lon": -77.1186005, "type": "electric_bike", "fusion_lon": 0.0, "fusion_lat": 0.0, "is_reserved": 0, "name": "6bc21cd599863c8014e5525d7cffd73b", "is_disabled": 0}, {"rental_uris": {"ios": "https://dc.lft.to/lastmile_qr_scan", "android": "https://dc.lft.to/lastmile_qr_scan"}, "lat": 38.90000533333333, "bike_id": "1f9047f2aba60d9923fe7705b3789d2a", "lon": -77.04037583333333, "type": "electric_scooter", "fusion_lon": 0.0, "fusion_lat": 0.0, "is_reserved": 0, "name": "1f9047f2aba60d9923fe7705b3789d2a", "is_disabled": 0}, {"rental_uris": {"ios": "https://dc.lft.to/lastmile_qr_scan", "android": "https://dc.lft.to/lastmile_qr_scan"}, "lat": 38.9037215, "bike_id": "cd9b259dcc21fe7d902e2545be34fd39", "lon": -77.03556516666667, "type": "electric_scooter", "fusion_lon": 0.0, "fusion_lat": 0.0, "is_reserved": 0, "name": "cd9b259dcc21fe7d902e2545be34fd39", "is_disabled": 0}, {"rental_uris": {"ios": "https://dc.lft.to/lastmile_qr_scan", "android": "https://dc.lft.to/lastmile_qr_scan"}, "lat": 38.885121, "bike_id": "2f193665a1b4b9e20101a3f7c56abc14", "lon": -77.00228216666666, "type": "electric_scooter", "fusion_lon": 0.0, "fusion_lat": 0.0, "is_reserved": 0, "name": "2f193665a1b4b9e20101a3f7c56abc14", "is_disabled": 0}, {"rental_uris": {"ios": "https://dc.lft.to/lastmile_qr_scan", "android": "https://dc.lft.to/lastmile_qr_scan"}, "lat": 38.901426, "bike_id": "2e1af8377651c43d9abcfd4b669303e9", "lon": -77.03241983333334, "type": "electric_scooter", "fusion_lon": 0.0, "fusion_lat": 0.0, "is_reserved": 0, "name": "2e1af8377651c43d9abcfd4b669303e9", "is_disabled": 0}, {"rental_uris": {"ios": "https://dc.lft.to/lastmile_qr_scan", "android": "https://dc.lft.to/lastmile_qr_scan"}, "lat": 38.92002683333333, "bike_id": "7c8723afa9ab1a1b207a56a3ac0c143e", "lon": -77.03280133333334, "type": "electric_scooter", "fusion_lon": 0.0, "fusion_lat": 0.0, "is_reserved": 0, "name": "7c8723afa9ab1a1b207a56a3ac0c143e", "is_disabled": 0}, {"rental_uris": {"ios": "https://dc.lft.to/lastmile_qr_scan", "android": "https://dc.lft.to/lastmile_qr_scan"}, "lat": 38.9035595, "bike_id": "c4c08eb8a2c3c042e541b2d5f9b73b8f", "lon": -77.01641283333333, "type": "electric_scooter", "fusion_lon": 0.0, "fusion_lat": 0.0, "is_reserved": 0, "name": "c4c08eb8a2c3c042e541b2d5f9b73b8f", "is_disabled": 0}, {"rental_uris": {"ios": "https://dc.lft.to/lastmile_qr_scan", "android": "https://dc.lft.to/lastmile_qr_scan"}, "lat": 38.895292833333336, "bike_id": "c51cbb01f3f4ddf0cfc8427664644e54", "lon": -77.02409916666667, "type": "electric_scooter", "fusion_lon": 0.0, "fusion_lat": 0.0, "is_reserved": 0, "name": "c51cbb01f3f4ddf0cfc8427664644e54", "is_disabled": 0}, {"rental_uris": {"ios": "https://dc.lft.to/lastmile_qr_scan", "android": "https://dc.lft.to/lastmile_qr_scan"}, "lat": 38.86690883333333, "bike_id": "fa9f3780ec47b8ed00e9ac371502b060", "lon": -76.98542116666667, "type": "electric_scooter", "fusion_lon": 0.0, "fusion_lat": 0.0, "is_reserved": 0, "name": "fa9f3780ec47b8ed00e9ac371502b060", "is_disabled": 0}, {"rental_uris": {"ios": "https://dc.lft.to/lastmile_qr_scan", "android": "https://dc.lft.to/lastmile_qr_scan"}, "lat": 38.900025, "bike_id": "2551da1b44310a2b07c63a81b6b51a3d", "lon": -76.98943283333334, "type": "electric_scooter", "fusion_lon": 0.0, "fusion_lat": 0.0, "is_reserved": 0, "name": "2551da1b44310a2b07c63a81b6b51a3d", "is_disabled": 0}, {"rental_uris": {"ios": "https://dc.lft.to/lastmile_qr_scan", "android": "https://dc.lft.to/lastmile_qr_scan"}, "lat": 38.90950383333333, "bike_id": "b45dc679bbb9ef314e6925105eeaef83", "lon": -77.034338, "type": "electric_scooter", "fusion_lon": 0.0, "fusion_lat": 0.0, "is_reserved": 0, "name": "b45dc679bbb9ef314e6925105eeaef83", "is_disabled": 0}, {"rental_uris": {"ios": "https://dc.lft.to/lastmile_qr_scan", "android": "https://dc.lft.to/lastmile_qr_scan"}, "lat": 38.899890166666665, "bike_id": "ae699b38bb6aeba27b0c37d0f1ef8bdb", "lon": -77.0293345, "type": "electric_scooter", "fusion_lon": 0.0, "fusion_lat": 0.0, "is_reserved": 0, "name": "ae699b38bb6aeba27b0c37d0f1ef8bdb", "is_disabled": 0}, {"rental_uris": {"ios": "https://dc.lft.to/lastmile_qr_scan", "android": "https://dc.lft.to/lastmile_qr_scan"}, "lat": 38.904757000000004, "bike_id": "f52cf0b41734e38117accd39cca09199", "lon": -77.03892783333333, "type": "electric_scooter", "fusion_lon": 0.0, "fusion_lat": 0.0, "is_reserved": 0, "name": "f52cf0b41734e38117accd39cca09199", "is_disabled": 0}, {"rental_uris": {"ios": "https://dc.lft.to/lastmile_qr_scan", "android": "https://dc.lft.to/lastmile_qr_scan"}, "lat": 38.87888983333333, "bike_id": "8c75dd98c913eb8277ecf10f5eb8c6ef", "lon": -77.09608283333333, "type": "electric_bike", "fusion_lon": 0.0, "fusion_lat": 0.0, "is_reserved": 0, "name": "8c75dd98c913eb8277ecf10f5eb8c6ef", "is_disabled": 0}, {"rental_uris": {"ios": "https://dc.lft.to/lastmile_qr_scan", "android": "https://dc.lft.to/lastmile_qr_scan"}, "lat": 38.90574266666667, "bike_id": "75ee51af05848994dba218300fca497d", "lon": -77.02166, "type": "electric_scooter", "fusion_lon": 0.0, "fusion_lat": 0.0, "is_reserved": 0, "name": "75ee51af05848994dba218300fca497d", "is_disabled": 0}, {"rental_uris": {"ios": "https://dc.lft.to/lastmile_qr_scan", "android": "https://dc.lft.to/lastmile_qr_scan"}, "lat": 38.91817733333333, "bike_id": "feaf4865baf7ced6229d14048c0478cf", "lon": -77.00953216666667, "type": "electric_scooter", "fusion_lon": 0.0, "fusion_lat": 0.0, "is_reserved": 0, "name": "feaf4865baf7ced6229d14048c0478cf", "is_disabled": 0}, {"rental_uris": {"ios": "https://dc.lft.to/lastmile_qr_scan", "android": "https://dc.lft.to/lastmile_qr_scan"}, "lat": 38.9409285, "bike_id": "3173087a463b0d443e907904dda83033", "lon": -77.02491766666667, "type": "electric_scooter", "fusion_lon": 0.0, "fusion_lat": 0.0, "is_reserved": 0, "name": "3173087a463b0d443e907904dda83033", "is_disabled": 0}, {"rental_uris": {"ios": "https://dc.lft.to/lastmile_qr_scan", "android": "https://dc.lft.to/lastmile_qr_scan"}, "lat": 38.955992, "bike_id": "52a6eb8dfe764803d6e026a9d670a607", "lon": -77.027334, "type": "electric_scooter", "fusion_lon": 0.0, "fusion_lat": 0.0, "is_reserved": 0, "name": "52a6eb8dfe764803d6e026a9d670a607", "is_disabled": 0}, {"rental_uris": {"ios": "https://dc.lft.to/lastmile_qr_scan", "android": "https://dc.lft.to/lastmile_qr_scan"}, "lat": 38.93156233333333, "bike_id": "cca8fa2c72725bac88f2e2b490d1220a", "lon": -77.04228, "type": "electric_scooter", "fusion_lon": 0.0, "fusion_lat": 0.0, "is_reserved": 0, "name": "cca8fa2c72725bac88f2e2b490d1220a", "is_disabled": 0}, {"rental_uris": {"ios": "https://dc.lft.to/lastmile_qr_scan", "android": "https://dc.lft.to/lastmile_qr_scan"}, "lat": 38.896334333333336, "bike_id": "d08a1ad8719f1e6510bf4b063e193bc6", "lon": -77.04012816666666, "type": "electric_scooter", "fusion_lon": 0.0, "fusion_lat": 0.0, "is_reserved": 0, "name": "d08a1ad8719f1e6510bf4b063e193bc6", "is_disabled": 0}, {"rental_uris": {"ios": "https://dc.lft.to/lastmile_qr_scan", "android": "https://dc.lft.to/lastmile_qr_scan"}, "lat": 38.90744083333333, "bike_id": "0ce7d28ec463d17f879f924386a2d500", "lon": -77.04537833333333, "type": "electric_scooter", "fusion_lon": 0.0, "fusion_lat": 0.0, "is_reserved": 0, "name": "0ce7d28ec463d17f879f924386a2d500", "is_disabled": 0}, {"rental_uris": {"ios": "https://dc.lft.to/lastmile_qr_scan", "android": "https://dc.lft.to/lastmile_qr_scan"}, "lat": 38.919134666666665, "bike_id": "b9825330de4275d5c0853be5f8a01003", "lon": -77.02086666666666, "type": "electric_scooter", "fusion_lon": 0.0, "fusion_lat": 0.0, "is_reserved": 0, "name": "b9825330de4275d5c0853be5f8a01003", "is_disabled": 0}, {"rental_uris": {"ios": "https://dc.lft.to/lastmile_qr_scan", "android": "https://dc.lft.to/lastmile_qr_scan"}, "lat": 38.903692666666664, "bike_id": "4eff0ea19a0d185e88b66bbb6c7febba", "lon": -77.04500766666666, "type": "electric_scooter", "fusion_lon": 0.0, "fusion_lat": 0.0, "is_reserved": 0, "name": "4eff0ea19a0d185e88b66bbb6c7febba", "is_disabled": 0}, {"rental_uris": {"ios": "https://dc.lft.to/lastmile_qr_scan", "android": "https://dc.lft.to/lastmile_qr_scan"}, "lat": 38.919177833333336, "bike_id": "7dba183ec95e706088fdaff3406864ec", "lon": -77.01345866666666, "type": "electric_scooter", "fusion_lon": 0.0, "fusion_lat": 0.0, "is_reserved": 0, "name": "7dba183ec95e706088fdaff3406864ec", "is_disabled": 0}, {"rental_uris": {"ios": "https://dc.lft.to/lastmile_qr_scan", "android": "https://dc.lft.to/lastmile_qr_scan"}, "lat": 38.914692333333335, "bike_id": "e2228a39e85341227b6e3a3d4b45bb64", "lon": -76.981084, "type": "electric_scooter", "fusion_lon": 0.0, "fusion_lat": 0.0, "is_reserved": 0, "name": "e2228a39e85341227b6e3a3d4b45bb64", "is_disabled": 0}, {"rental_uris": {"ios": "https://dc.lft.to/lastmile_qr_scan", "android": "https://dc.lft.to/lastmile_qr_scan"}, "lat": 38.916456333333336, "bike_id": "e65332511c4a806078da89a783fae1b9", "lon": -77.03199683333334, "type": "electric_scooter", "fusion_lon": 0.0, "fusion_lat": 0.0, "is_reserved": 0, "name": "e65332511c4a806078da89a783fae1b9", "is_disabled": 0}, {"rental_uris": {"ios": "https://dc.lft.to/lastmile_qr_scan", "android": "https://dc.lft.to/lastmile_qr_scan"}, "lat": 38.91722266666667, "bike_id": "258bcd79897ad8b3ad4fe45eaf48e2a7", "lon": -77.02594916666666, "type": "electric_scooter", "fusion_lon": 0.0, "fusion_lat": 0.0, "is_reserved": 0, "name": "258bcd79897ad8b3ad4fe45eaf48e2a7", "is_disabled": 0}, {"rental_uris": {"ios": "https://dc.lft.to/lastmile_qr_scan", "android": "https://dc.lft.to/lastmile_qr_scan"}, "lat": 38.90829683333333, "bike_id": "acd90063757ac901840b2cbfda20fd07", "lon": -77.0353925, "type": "electric_scooter", "fusion_lon": 0.0, "fusion_lat": 0.0, "is_reserved": 0, "name": "acd90063757ac901840b2cbfda20fd07", "is_disabled": 0}, {"rental_uris": {"ios": "https://dc.lft.to/lastmile_qr_scan", "android": "https://dc.lft.to/lastmile_qr_scan"}, "lat": 38.91922433333333, "bike_id": "9746c2d2e924c4b19525da5c19a0ecb6", "lon": -77.03429683333333, "type": "electric_scooter", "fusion_lon": 0.0, "fusion_lat": 0.0, "is_reserved": 0, "name": "9746c2d2e924c4b19525da5c19a0ecb6", "is_disabled": 0}, {"rental_uris": {"ios": "https://dc.lft.to/lastmile_qr_scan", "android": "https://dc.lft.to/lastmile_qr_scan"}, "lat": 38.910078666666664, "bike_id": "630e878684cd55f421f7a70ed5efa52c", "lon": -76.99395283333334, "type": "electric_scooter", "fusion_lon": 0.0, "fusion_lat": 0.0, "is_reserved": 0, "name": "630e878684cd55f421f7a70ed5efa52c", "is_disabled": 0}, {"rental_uris": {"ios": "https://dc.lft.to/lastmile_qr_scan", "android": "https://dc.lft.to/lastmile_qr_scan"}, "lat": 38.90273166666667, "bike_id": "f70d7b424df275bff84fd02c6a5b03a9", "lon": -77.01818883333334, "type": "electric_scooter", "fusion_lon": 0.0, "fusion_lat": 0.0, "is_reserved": 0, "name": "f70d7b424df275bff84fd02c6a5b03a9", "is_disabled": 0}, {"rental_uris": {"ios": "https://dc.lft.to/lastmile_qr_scan", "android": "https://dc.lft.to/lastmile_qr_scan"}, "lat": 38.89194583333333, "bike_id": "d0bea442c4dd164301514462d0bac89d", "lon": -77.02240516666667, "type": "electric_scooter", "fusion_lon": 0.0, "fusion_lat": 0.0, "is_reserved": 0, "name": "d0bea442c4dd164301514462d0bac89d", "is_disabled": 0}, {"rental_uris": {"ios": "https://dc.lft.to/lastmile_qr_scan", "android": "https://dc.lft.to/lastmile_qr_scan"}, "lat": 38.898491166666666, "bike_id": "c8efc1d8d799d156d81d619000dfe627", "lon": -77.02199166666666, "type": "electric_scooter", "fusion_lon": 0.0, "fusion_lat": 0.0, "is_reserved": 0, "name": "c8efc1d8d799d156d81d619000dfe627", "is_disabled": 0}, {"rental_uris": {"ios": "https://dc.lft.to/lastmile_qr_scan", "android": "https://dc.lft.to/lastmile_qr_scan"}, "lat": 38.945930833333335, "bike_id": "da0c707b76a8f9fb05a4ff7affa4f93d", "lon": -77.06462433333333, "type": "electric_bike", "fusion_lon": 0.0, "fusion_lat": 0.0, "is_reserved": 0, "name": "da0c707b76a8f9fb05a4ff7affa4f93d", "is_disabled": 0}, {"rental_uris": {"ios": "https://dc.lft.to/lastmile_qr_scan", "android": "https://dc.lft.to/lastmile_qr_scan"}, "lat": 38.896487, "bike_id": "b991fa022633b95690e31a65d2ecd8c4", "lon": -77.02597983333334, "type": "electric_scooter", "fusion_lon": 0.0, "fusion_lat": 0.0, "is_reserved": 0, "name": "b991fa022633b95690e31a65d2ecd8c4", "is_disabled": 0}, {"rental_uris": {"ios": "https://dc.lft.to/lastmile_qr_scan", "android": "https://dc.lft.to/lastmile_qr_scan"}, "lat": 38.9336175, "bike_id": "0f0386e73d8096ac725f94f177aa7f67", "lon": -77.02731816666666, "type": "electric_scooter", "fusion_lon": 0.0, "fusion_lat": 0.0, "is_reserved": 0, "name": "0f0386e73d8096ac725f94f177aa7f67", "is_disabled": 0}, {"rental_uris": {"ios": "https://dc.lft.to/lastmile_qr_scan", "android": "https://dc.lft.to/lastmile_qr_scan"}, "lat": 38.91882116666667, "bike_id": "3657bee6341f244a0334c355c9314acc", "lon": -77.024759, "type": "electric_scooter", "fusion_lon": 0.0, "fusion_lat": 0.0, "is_reserved": 0, "name": "3657bee6341f244a0334c355c9314acc", "is_disabled": 0}, {"rental_uris": {"ios": "https://dc.lft.to/lastmile_qr_scan", "android": "https://dc.lft.to/lastmile_qr_scan"}, "lat": 38.933713, "bike_id": "3f2fc4e0cb4adf5dc74c1dd19af19d18", "lon": -77.07251483333333, "type": "electric_scooter", "fusion_lon": 0.0, "fusion_lat": 0.0, "is_reserved": 0, "name": "3f2fc4e0cb4adf5dc74c1dd19af19d18", "is_disabled": 0}, {"rental_uris": {"ios": "https://dc.lft.to/lastmile_qr_scan", "android": "https://dc.lft.to/lastmile_qr_scan"}, "lat": 38.9336835, "bike_id": "05f96571029d4c3c2e4125fdde4d1305", "lon": -77.05719466666666, "type": "electric_scooter", "fusion_lon": 0.0, "fusion_lat": 0.0, "is_reserved": 0, "name": "05f96571029d4c3c2e4125fdde4d1305", "is_disabled": 0}, {"rental_uris": {"ios": "https://dc.lft.to/lastmile_qr_scan", "android": "https://dc.lft.to/lastmile_qr_scan"}, "lat": 38.9014455, "bike_id": "26380cfe85382fe970be3a9ea4b75963", "lon": -77.02934416666666, "type": "electric_scooter", "fusion_lon": 0.0, "fusion_lat": 0.0, "is_reserved": 0, "name": "26380cfe85382fe970be3a9ea4b75963", "is_disabled": 0}, {"rental_uris": {"ios": "https://dc.lft.to/lastmile_qr_scan", "android": "https://dc.lft.to/lastmile_qr_scan"}, "lat": 38.915894, "bike_id": "e0f3f32cc9d5f3ff196b59dfa9a15b96", "lon": -77.023007, "type": "electric_scooter", "fusion_lon": 0.0, "fusion_lat": 0.0, "is_reserved": 0, "name": "e0f3f32cc9d5f3ff196b59dfa9a15b96", "is_disabled": 0}, {"rental_uris": {"ios": "https://dc.lft.to/lastmile_qr_scan", "android": "https://dc.lft.to/lastmile_qr_scan"}, "lat": 38.965568166666664, "bike_id": "74d8aa31067084cba4eecb1d76f5007c", "lon": -77.00206533333333, "type": "electric_scooter", "fusion_lon": 0.0, "fusion_lat": 0.0, "is_reserved": 0, "name": "74d8aa31067084cba4eecb1d76f5007c", "is_disabled": 0}, {"rental_uris": {"ios": "https://dc.lft.to/lastmile_qr_scan", "android": "https://dc.lft.to/lastmile_qr_scan"}, "lat": 38.919602, "bike_id": "029c4d6c6098c2d3625af00cc1224763", "lon": -77.02705733333333, "type": "electric_scooter", "fusion_lon": 0.0, "fusion_lat": 0.0, "is_reserved": 0, "name": "029c4d6c6098c2d3625af00cc1224763", "is_disabled": 0}, {"rental_uris": {"ios": "https://dc.lft.to/lastmile_qr_scan", "android": "https://dc.lft.to/lastmile_qr_scan"}, "lat": 38.94635666666667, "bike_id": "1a28abde6d855c43c04b38cb17eb3917", "lon": -77.01840333333334, "type": "electric_scooter", "fusion_lon": 0.0, "fusion_lat": 0.0, "is_reserved": 0, "name": "1a28abde6d855c43c04b38cb17eb3917", "is_disabled": 0}, {"rental_uris": {"ios": "https://dc.lft.to/lastmile_qr_scan", "android": "https://dc.lft.to/lastmile_qr_scan"}, "lat": 38.90717333333333, "bike_id": "da1324ed3a4e3b9eeb5e19020c7314eb", "lon": -77.04587133333334, "type": "electric_scooter", "fusion_lon": 0.0, "fusion_lat": 0.0, "is_reserved": 0, "name": "da1324ed3a4e3b9eeb5e19020c7314eb", "is_disabled": 0}, {"rental_uris": {"ios": "https://dc.lft.to/lastmile_qr_scan", "android": "https://dc.lft.to/lastmile_qr_scan"}, "lat": 38.89463633333333, "bike_id": "8f36cb72348c0ea1ef85df822d558fdb", "lon": -77.02689833333334, "type": "electric_scooter", "fusion_lon": 0.0, "fusion_lat": 0.0, "is_reserved": 0, "name": "8f36cb72348c0ea1ef85df822d558fdb", "is_disabled": 0}, {"rental_uris": {"ios": "https://dc.lft.to/lastmile_qr_scan", "android": "https://dc.lft.to/lastmile_qr_scan"}, "lat": 38.90010616666667, "bike_id": "8514d43060f5e482809972e2482a1abd", "lon": -77.04483533333334, "type": "electric_scooter", "fusion_lon": 0.0, "fusion_lat": 0.0, "is_reserved": 0, "name": "8514d43060f5e482809972e2482a1abd", "is_disabled": 0}, {"rental_uris": {"ios": "https://dc.lft.to/lastmile_qr_scan", "android": "https://dc.lft.to/lastmile_qr_scan"}, "lat": 38.95783866666667, "bike_id": "236406c7f77ff1b675464b0cc0621dba", "lon": -77.02480433333334, "type": "electric_scooter", "fusion_lon": 0.0, "fusion_lat": 0.0, "is_reserved": 0, "name": "236406c7f77ff1b675464b0cc0621dba", "is_disabled": 0}, {"rental_uris": {"ios": "https://dc.lft.to/lastmile_qr_scan", "android": "https://dc.lft.to/lastmile_qr_scan"}, "lat": 38.914792166666665, "bike_id": "cb2aea56a19dbbad3cc51ef3a4ccf00d", "lon": -77.04560733333334, "type": "electric_scooter", "fusion_lon": 0.0, "fusion_lat": 0.0, "is_reserved": 0, "name": "cb2aea56a19dbbad3cc51ef3a4ccf00d", "is_disabled": 0}, {"rental_uris": {"ios": "https://dc.lft.to/lastmile_qr_scan", "android": "https://dc.lft.to/lastmile_qr_scan"}, "lat": 38.881196333333335, "bike_id": "a7287306546a344fca74215cd66f16ae", "lon": -77.0165325, "type": "electric_bike", "fusion_lon": 0.0, "fusion_lat": 0.0, "is_reserved": 0, "name": "a7287306546a344fca74215cd66f16ae", "is_disabled": 0}, {"rental_uris": {"ios": "https://dc.lft.to/lastmile_qr_scan", "android": "https://dc.lft.to/lastmile_qr_scan"}, "lat": 38.8987135, "bike_id": "d0136ca6b627533dcff0cf16e63067f8", "lon": -76.94639083333334, "type": "electric_scooter", "fusion_lon": 0.0, "fusion_lat": 0.0, "is_reserved": 0, "name": "d0136ca6b627533dcff0cf16e63067f8", "is_disabled": 0}, {"rental_uris": {"ios": "https://dc.lft.to/lastmile_qr_scan", "android": "https://dc.lft.to/lastmile_qr_scan"}, "lat": 38.90015483333333, "bike_id": "c93eff03ad442f9dcc61baf5e831c853", "lon": -77.04156883333333, "type": "electric_scooter", "fusion_lon": 0.0, "fusion_lat": 0.0, "is_reserved": 0, "name": "c93eff03ad442f9dcc61baf5e831c853", "is_disabled": 0}, {"rental_uris": {"ios": "https://dc.lft.to/lastmile_qr_scan", "android": "https://dc.lft.to/lastmile_qr_scan"}, "lat": 38.92364833333333, "bike_id": "6ee83d9f1e32278aa22a5a4c455b77c2", "lon": -77.02112933333333, "type": "electric_scooter", "fusion_lon": 0.0, "fusion_lat": 0.0, "is_reserved": 0, "name": "6ee83d9f1e32278aa22a5a4c455b77c2", "is_disabled": 0}, {"rental_uris": {"ios": "https://dc.lft.to/lastmile_qr_scan", "android": "https://dc.lft.to/lastmile_qr_scan"}, "lat": 38.88749816666667, "bike_id": "68bb1f9676b076fd91d0dfd6ea55ab1a", "lon": -77.0256925, "type": "electric_scooter", "fusion_lon": 0.0, "fusion_lat": 0.0, "is_reserved": 0, "name": "68bb1f9676b076fd91d0dfd6ea55ab1a", "is_disabled": 0}, {"rental_uris": {"ios": "https://dc.lft.to/lastmile_qr_scan", "android": "https://dc.lft.to/lastmile_qr_scan"}, "lat": 38.9096805, "bike_id": "314bd1eba63b6fdf1606d348a8c7c1c1", "lon": -77.03277783333333, "type": "electric_scooter", "fusion_lon": 0.0, "fusion_lat": 0.0, "is_reserved": 0, "name": "314bd1eba63b6fdf1606d348a8c7c1c1", "is_disabled": 0}, {"rental_uris": {"ios": "https://dc.lft.to/lastmile_qr_scan", "android": "https://dc.lft.to/lastmile_qr_scan"}, "lat": 38.92661416666667, "bike_id": "c03848d403e0f7abb333e70653befc85", "lon": -77.03728533333333, "type": "electric_scooter", "fusion_lon": 0.0, "fusion_lat": 0.0, "is_reserved": 0, "name": "c03848d403e0f7abb333e70653befc85", "is_disabled": 0}, {"rental_uris": {"ios": "https://dc.lft.to/lastmile_qr_scan", "android": "https://dc.lft.to/lastmile_qr_scan"}, "lat": 38.911217666666666, "bike_id": "022ae168301cc1cb5620171f36898aa2", "lon": -77.035667, "type": "electric_scooter", "fusion_lon": 0.0, "fusion_lat": 0.0, "is_reserved": 0, "name": "022ae168301cc1cb5620171f36898aa2", "is_disabled": 0}, {"rental_uris": {"ios": "https://dc.lft.to/lastmile_qr_scan", "android": "https://dc.lft.to/lastmile_qr_scan"}, "lat": 38.89237283333333, "bike_id": "17124514573a17de984453601279d633", "lon": -77.0258355, "type": "electric_scooter", "fusion_lon": 0.0, "fusion_lat": 0.0, "is_reserved": 0, "name": "17124514573a17de984453601279d633", "is_disabled": 0}, {"rental_uris": {"ios": "https://dc.lft.to/lastmile_qr_scan", "android": "https://dc.lft.to/lastmile_qr_scan"}, "lat": 38.90310816666667, "bike_id": "055fc0edc7e499c7dbb0402e1812dd92", "lon": -77.046707, "type": "electric_scooter", "fusion_lon": 0.0, "fusion_lat": 0.0, "is_reserved": 0, "name": "055fc0edc7e499c7dbb0402e1812dd92", "is_disabled": 0}, {"rental_uris": {"ios": "https://dc.lft.to/lastmile_qr_scan", "android": "https://dc.lft.to/lastmile_qr_scan"}, "lat": 38.918199666666666, "bike_id": "47fe49c9e786f1511df72e543379a8a6", "lon": -77.03445233333333, "type": "electric_scooter", "fusion_lon": 0.0, "fusion_lat": 0.0, "is_reserved": 0, "name": "47fe49c9e786f1511df72e543379a8a6", "is_disabled": 0}, {"rental_uris": {"ios": "https://dc.lft.to/lastmile_qr_scan", "android": "https://dc.lft.to/lastmile_qr_scan"}, "lat": 38.8738355, "bike_id": "077b88e894c2d66c96ecb0bd73f67a3c", "lon": -77.00070533333333, "type": "electric_scooter", "fusion_lon": 0.0, "fusion_lat": 0.0, "is_reserved": 0, "name": "077b88e894c2d66c96ecb0bd73f67a3c", "is_disabled": 0}, {"rental_uris": {"ios": "https://dc.lft.to/lastmile_qr_scan", "android": "https://dc.lft.to/lastmile_qr_scan"}, "lat": 38.9057355, "bike_id": "6bd6fb18f48925c3a40486366e4b6451", "lon": -77.01503916666667, "type": "electric_scooter", "fusion_lon": 0.0, "fusion_lat": 0.0, "is_reserved": 0, "name": "6bd6fb18f48925c3a40486366e4b6451", "is_disabled": 0}, {"rental_uris": {"ios": "https://dc.lft.to/lastmile_qr_scan", "android": "https://dc.lft.to/lastmile_qr_scan"}, "lat": 38.918157, "bike_id": "21bf72bb5157aa381fdea94a3e199a4f", "lon": -77.02705916666666, "type": "electric_scooter", "fusion_lon": 0.0, "fusion_lat": 0.0, "is_reserved": 0, "name": "21bf72bb5157aa381fdea94a3e199a4f", "is_disabled": 0}, {"rental_uris": {"ios": "https://dc.lft.to/lastmile_qr_scan", "android": "https://dc.lft.to/lastmile_qr_scan"}, "lat": 38.9162985, "bike_id": "f36609ee446e2fee6f6673e645234de2", "lon": -77.03039883333334, "type": "electric_scooter", "fusion_lon": 0.0, "fusion_lat": 0.0, "is_reserved": 0, "name": "f36609ee446e2fee6f6673e645234de2", "is_disabled": 0}, {"rental_uris": {"ios": "https://dc.lft.to/lastmile_qr_scan", "android": "https://dc.lft.to/lastmile_qr_scan"}, "lat": 38.88126116666667, "bike_id": "6a9e1b760384881aa99f16e12c83f559", "lon": -77.01648933333334, "type": "electric_scooter", "fusion_lon": 0.0, "fusion_lat": 0.0, "is_reserved": 0, "name": "6a9e1b760384881aa99f16e12c83f559", "is_disabled": 0}, {"rental_uris": {"ios": "https://dc.lft.to/lastmile_qr_scan", "android": "https://dc.lft.to/lastmile_qr_scan"}, "lat": 38.89833633333333, "bike_id": "c72aa01fd989fcbed525e55f397dd6e7", "lon": -77.04540883333334, "type": "electric_scooter", "fusion_lon": 0.0, "fusion_lat": 0.0, "is_reserved": 0, "name": "c72aa01fd989fcbed525e55f397dd6e7", "is_disabled": 0}, {"rental_uris": {"ios": "https://dc.lft.to/lastmile_qr_scan", "android": "https://dc.lft.to/lastmile_qr_scan"}, "lat": 38.93016, "bike_id": "abdb2c98766f07e1c8aaaedb955b462c", "lon": -77.05523266666667, "type": "electric_scooter", "fusion_lon": 0.0, "fusion_lat": 0.0, "is_reserved": 0, "name": "abdb2c98766f07e1c8aaaedb955b462c", "is_disabled": 0}, {"rental_uris": {"ios": "https://dc.lft.to/lastmile_qr_scan", "android": "https://dc.lft.to/lastmile_qr_scan"}, "lat": 38.91609483333333, "bike_id": "1419311192a47e00a9c311aa0d997c89", "lon": -77.017265, "type": "electric_scooter", "fusion_lon": 0.0, "fusion_lat": 0.0, "is_reserved": 0, "name": "1419311192a47e00a9c311aa0d997c89", "is_disabled": 0}, {"rental_uris": {"ios": "https://dc.lft.to/lastmile_qr_scan", "android": "https://dc.lft.to/lastmile_qr_scan"}, "lat": 38.92198483333333, "bike_id": "5c85eec74aeb3eaa91f967abe76300f1", "lon": -77.03395366666666, "type": "electric_scooter", "fusion_lon": 0.0, "fusion_lat": 0.0, "is_reserved": 0, "name": "5c85eec74aeb3eaa91f967abe76300f1", "is_disabled": 0}, {"rental_uris": {"ios": "https://dc.lft.to/lastmile_qr_scan", "android": "https://dc.lft.to/lastmile_qr_scan"}, "lat": 38.84855783333333, "bike_id": "f8a203d95fc7391b2fd9e4a7c31f92f3", "lon": -77.0037915, "type": "electric_scooter", "fusion_lon": 0.0, "fusion_lat": 0.0, "is_reserved": 0, "name": "f8a203d95fc7391b2fd9e4a7c31f92f3", "is_disabled": 0}, {"rental_uris": {"ios": "https://dc.lft.to/lastmile_qr_scan", "android": "https://dc.lft.to/lastmile_qr_scan"}, "lat": 38.94057, "bike_id": "6ce812d6931347657337766b8e5735c3", "lon": -76.9041825, "type": "electric_bike", "fusion_lon": 0.0, "fusion_lat": 0.0, "is_reserved": 0, "name": "6ce812d6931347657337766b8e5735c3", "is_disabled": 0}, {"rental_uris": {"ios": "https://dc.lft.to/lastmile_qr_scan", "android": "https://dc.lft.to/lastmile_qr_scan"}, "lat": 38.906553, "bike_id": "d878135f016d8856e704c045495c9359", "lon": -77.02527183333333, "type": "electric_scooter", "fusion_lon": 0.0, "fusion_lat": 0.0, "is_reserved": 0, "name": "d878135f016d8856e704c045495c9359", "is_disabled": 0}, {"rental_uris": {"ios": "https://dc.lft.to/lastmile_qr_scan", "android": "https://dc.lft.to/lastmile_qr_scan"}, "lat": 38.89744833333334, "bike_id": "248ede28c08714d1f1aecf255ce99a2c", "lon": -77.022029, "type": "electric_scooter", "fusion_lon": 0.0, "fusion_lat": 0.0, "is_reserved": 0, "name": "248ede28c08714d1f1aecf255ce99a2c", "is_disabled": 0}, {"rental_uris": {"ios": "https://dc.lft.to/lastmile_qr_scan", "android": "https://dc.lft.to/lastmile_qr_scan"}, "lat": 38.90347533333333, "bike_id": "44325a39588adf0421606de9dda2dc00", "lon": -77.03851516666667, "type": "electric_scooter", "fusion_lon": 0.0, "fusion_lat": 0.0, "is_reserved": 0, "name": "44325a39588adf0421606de9dda2dc00", "is_disabled": 0}, {"rental_uris": {"ios": "https://dc.lft.to/lastmile_qr_scan", "android": "https://dc.lft.to/lastmile_qr_scan"}, "lat": 38.89709583333333, "bike_id": "e5b6f8e4d7693e18d129a142f4be0d7c", "lon": -77.0325715, "type": "electric_scooter", "fusion_lon": 0.0, "fusion_lat": 0.0, "is_reserved": 0, "name": "e5b6f8e4d7693e18d129a142f4be0d7c", "is_disabled": 0}, {"rental_uris": {"ios": "https://dc.lft.to/lastmile_qr_scan", "android": "https://dc.lft.to/lastmile_qr_scan"}, "lat": 38.92324583333333, "bike_id": "b38a8868f6e83bc8250a71ca24706cc0", "lon": -77.03398383333334, "type": "electric_scooter", "fusion_lon": 0.0, "fusion_lat": 0.0, "is_reserved": 0, "name": "b38a8868f6e83bc8250a71ca24706cc0", "is_disabled": 0}, {"rental_uris": {"ios": "https://dc.lft.to/lastmile_qr_scan", "android": "https://dc.lft.to/lastmile_qr_scan"}, "lat": 38.8922835, "bike_id": "803357671480b0f0622cd55a131306bd", "lon": -77.03326716666666, "type": "electric_scooter", "fusion_lon": 0.0, "fusion_lat": 0.0, "is_reserved": 0, "name": "803357671480b0f0622cd55a131306bd", "is_disabled": 0}, {"rental_uris": {"ios": "https://dc.lft.to/lastmile_qr_scan", "android": "https://dc.lft.to/lastmile_qr_scan"}, "lat": 38.91444383333334, "bike_id": "96bef4faaa99b8414258e6c16097366d", "lon": -77.022975, "type": "electric_scooter", "fusion_lon": 0.0, "fusion_lat": 0.0, "is_reserved": 0, "name": "96bef4faaa99b8414258e6c16097366d", "is_disabled": 0}, {"rental_uris": {"ios": "https://dc.lft.to/lastmile_qr_scan", "android": "https://dc.lft.to/lastmile_qr_scan"}, "lat": 38.8316945, "bike_id": "557591aa1cec3b50b7500c94f553d38b", "lon": -77.00818533333333, "type": "electric_scooter", "fusion_lon": 0.0, "fusion_lat": 0.0, "is_reserved": 0, "name": "557591aa1cec3b50b7500c94f553d38b", "is_disabled": 0}, {"rental_uris": {"ios": "https://dc.lft.to/lastmile_qr_scan", "android": "https://dc.lft.to/lastmile_qr_scan"}, "lat": 38.86934133333333, "bike_id": "cb09917225751c9ccedf21f493a97400", "lon": -76.96014216666667, "type": "electric_scooter", "fusion_lon": 0.0, "fusion_lat": 0.0, "is_reserved": 0, "name": "cb09917225751c9ccedf21f493a97400", "is_disabled": 0}, {"rental_uris": {"ios": "https://dc.lft.to/lastmile_qr_scan", "android": "https://dc.lft.to/lastmile_qr_scan"}, "lat": 38.923675333333335, "bike_id": "8c8f166cd6db70e814a07fbd47ba9d25", "lon": -77.051129, "type": "electric_scooter", "fusion_lon": 0.0, "fusion_lat": 0.0, "is_reserved": 0, "name": "8c8f166cd6db70e814a07fbd47ba9d25", "is_disabled": 0}, {"rental_uris": {"ios": "https://dc.lft.to/lastmile_qr_scan", "android": "https://dc.lft.to/lastmile_qr_scan"}, "lat": 38.91704433333334, "bike_id": "0aa596825c6ab9218d11a42fb3cd2c26", "lon": -77.03875816666667, "type": "electric_scooter", "fusion_lon": 0.0, "fusion_lat": 0.0, "is_reserved": 0, "name": "0aa596825c6ab9218d11a42fb3cd2c26", "is_disabled": 0}, {"rental_uris": {"ios": "https://dc.lft.to/lastmile_qr_scan", "android": "https://dc.lft.to/lastmile_qr_scan"}, "lat": 38.912734, "bike_id": "0962591a73b7fdc2b015a6c7d35398e2", "lon": -77.03139633333333, "type": "electric_scooter", "fusion_lon": 0.0, "fusion_lat": 0.0, "is_reserved": 0, "name": "0962591a73b7fdc2b015a6c7d35398e2", "is_disabled": 0}, {"rental_uris": {"ios": "https://dc.lft.to/lastmile_qr_scan", "android": "https://dc.lft.to/lastmile_qr_scan"}, "lat": 38.862649, "bike_id": "0801cf3933d1f5b57bc44cebb3251701", "lon": -76.98347766666667, "type": "electric_bike", "fusion_lon": 0.0, "fusion_lat": 0.0, "is_reserved": 0, "name": "0801cf3933d1f5b57bc44cebb3251701", "is_disabled": 0}, {"rental_uris": {"ios": "https://dc.lft.to/lastmile_qr_scan", "android": "https://dc.lft.to/lastmile_qr_scan"}, "lat": 38.927446333333336, "bike_id": "05f9fd7c8aa80bb9566168cc16c5590c", "lon": -77.034276, "type": "electric_scooter", "fusion_lon": 0.0, "fusion_lat": 0.0, "is_reserved": 0, "name": "05f9fd7c8aa80bb9566168cc16c5590c", "is_disabled": 0}, {"rental_uris": {"ios": "https://dc.lft.to/lastmile_qr_scan", "android": "https://dc.lft.to/lastmile_qr_scan"}, "lat": 38.93701266666667, "bike_id": "9ae880fceb5a638ebadafc4998d1dc37", "lon": -77.05595116666667, "type": "electric_bike", "fusion_lon": 0.0, "fusion_lat": 0.0, "is_reserved": 0, "name": "9ae880fceb5a638ebadafc4998d1dc37", "is_disabled": 0}, {"rental_uris": {"ios": "https://dc.lft.to/lastmile_qr_scan", "android": "https://dc.lft.to/lastmile_qr_scan"}, "lat": 38.92410483333333, "bike_id": "6565c7e314cc1285a749336b04aa298c", "lon": -77.02088233333333, "type": "electric_scooter", "fusion_lon": 0.0, "fusion_lat": 0.0, "is_reserved": 0, "name": "6565c7e314cc1285a749336b04aa298c", "is_disabled": 0}, {"rental_uris": {"ios": "https://dc.lft.to/lastmile_qr_scan", "android": "https://dc.lft.to/lastmile_qr_scan"}, "lat": 38.894729166666664, "bike_id": "f8e9c264c8c5034bbd7161705db797dd", "lon": -77.0452945, "type": "electric_scooter", "fusion_lon": 0.0, "fusion_lat": 0.0, "is_reserved": 0, "name": "f8e9c264c8c5034bbd7161705db797dd", "is_disabled": 0}, {"rental_uris": {"ios": "https://dc.lft.to/lastmile_qr_scan", "android": "https://dc.lft.to/lastmile_qr_scan"}, "lat": 38.9037215, "bike_id": "b64ff352296f74850743e265ad7ac8e6", "lon": -77.04032383333333, "type": "electric_scooter", "fusion_lon": 0.0, "fusion_lat": 0.0, "is_reserved": 0, "name": "b64ff352296f74850743e265ad7ac8e6", "is_disabled": 0}, {"rental_uris": {"ios": "https://dc.lft.to/lastmile_qr_scan", "android": "https://dc.lft.to/lastmile_qr_scan"}, "lat": 38.89669983333334, "bike_id": "c0b59472fa4cd485788b02f32ab864e5", "lon": -76.9320735, "type": "electric_scooter", "fusion_lon": 0.0, "fusion_lat": 0.0, "is_reserved": 0, "name": "c0b59472fa4cd485788b02f32ab864e5", "is_disabled": 0}, {"rental_uris": {"ios": "https://dc.lft.to/lastmile_qr_scan", "android": "https://dc.lft.to/lastmile_qr_scan"}, "lat": 38.905707666666665, "bike_id": "8557fa0939f5bbcc2bb815bfa62c9e3c", "lon": -77.04335033333334, "type": "electric_scooter", "fusion_lon": 0.0, "fusion_lat": 0.0, "is_reserved": 0, "name": "8557fa0939f5bbcc2bb815bfa62c9e3c", "is_disabled": 0}, {"rental_uris": {"ios": "https://dc.lft.to/lastmile_qr_scan", "android": "https://dc.lft.to/lastmile_qr_scan"}, "lat": 38.9000995, "bike_id": "6175d5ad8c8df3491f8e6d6b6b68c251", "lon": -77.02697333333333, "type": "electric_scooter", "fusion_lon": 0.0, "fusion_lat": 0.0, "is_reserved": 0, "name": "6175d5ad8c8df3491f8e6d6b6b68c251", "is_disabled": 0}, {"rental_uris": {"ios": "https://dc.lft.to/lastmile_qr_scan", "android": "https://dc.lft.to/lastmile_qr_scan"}, "lat": 38.90654133333334, "bike_id": "d51ecbe244293912b78ee70f3e93d468", "lon": -77.04150383333334, "type": "electric_scooter", "fusion_lon": 0.0, "fusion_lat": 0.0, "is_reserved": 0, "name": "d51ecbe244293912b78ee70f3e93d468", "is_disabled": 0}, {"rental_uris": {"ios": "https://dc.lft.to/lastmile_qr_scan", "android": "https://dc.lft.to/lastmile_qr_scan"}, "lat": 38.9014065, "bike_id": "9cd1349881b17fdea34a7b235ca91f48", "lon": -76.99737683333333, "type": "electric_scooter", "fusion_lon": 0.0, "fusion_lat": 0.0, "is_reserved": 0, "name": "9cd1349881b17fdea34a7b235ca91f48", "is_disabled": 0}, {"rental_uris": {"ios": "https://dc.lft.to/lastmile_qr_scan", "android": "https://dc.lft.to/lastmile_qr_scan"}, "lat": 38.901605, "bike_id": "35235edddfac13dbae9bae21da8209b1", "lon": -77.047454, "type": "electric_scooter", "fusion_lon": 0.0, "fusion_lat": 0.0, "is_reserved": 0, "name": "35235edddfac13dbae9bae21da8209b1", "is_disabled": 0}, {"rental_uris": {"ios": "https://dc.lft.to/lastmile_qr_scan", "android": "https://dc.lft.to/lastmile_qr_scan"}, "lat": 38.90068183333333, "bike_id": "b992f4a45940a9042f7507f00bb4bb87", "lon": -76.99618633333333, "type": "electric_scooter", "fusion_lon": 0.0, "fusion_lat": 0.0, "is_reserved": 0, "name": "b992f4a45940a9042f7507f00bb4bb87", "is_disabled": 0}, {"rental_uris": {"ios": "https://dc.lft.to/lastmile_qr_scan", "android": "https://dc.lft.to/lastmile_qr_scan"}, "lat": 38.918516833333335, "bike_id": "f6e152da9f89e0ca0264dd3c6d589c27", "lon": -77.032155, "type": "electric_scooter", "fusion_lon": 0.0, "fusion_lat": 0.0, "is_reserved": 0, "name": "f6e152da9f89e0ca0264dd3c6d589c27", "is_disabled": 0}, {"rental_uris": {"ios": "https://dc.lft.to/lastmile_qr_scan", "android": "https://dc.lft.to/lastmile_qr_scan"}, "lat": 38.91577, "bike_id": "d42e1ff09ae3bd3f9009d83d54c4d2b2", "lon": -77.01581616666667, "type": "electric_scooter", "fusion_lon": 0.0, "fusion_lat": 0.0, "is_reserved": 0, "name": "d42e1ff09ae3bd3f9009d83d54c4d2b2", "is_disabled": 0}, {"rental_uris": {"ios": "https://dc.lft.to/lastmile_qr_scan", "android": "https://dc.lft.to/lastmile_qr_scan"}, "lat": 38.901437333333334, "bike_id": "5ce9cacc7d208402208a9f0f16408faf", "lon": -77.02794816666666, "type": "electric_scooter", "fusion_lon": 0.0, "fusion_lat": 0.0, "is_reserved": 0, "name": "5ce9cacc7d208402208a9f0f16408faf", "is_disabled": 0}, {"rental_uris": {"ios": "https://dc.lft.to/lastmile_qr_scan", "android": "https://dc.lft.to/lastmile_qr_scan"}, "lat": 38.91382733333333, "bike_id": "cadeb772c943e1fdc72a4ebba1287809", "lon": -77.017007, "type": "electric_scooter", "fusion_lon": 0.0, "fusion_lat": 0.0, "is_reserved": 0, "name": "cadeb772c943e1fdc72a4ebba1287809", "is_disabled": 0}, {"rental_uris": {"ios": "https://dc.lft.to/lastmile_qr_scan", "android": "https://dc.lft.to/lastmile_qr_scan"}, "lat": 38.905466833333335, "bike_id": "bc82c9c85d83e56ca898722f811db39a", "lon": -77.0360205, "type": "electric_scooter", "fusion_lon": 0.0, "fusion_lat": 0.0, "is_reserved": 0, "name": "bc82c9c85d83e56ca898722f811db39a", "is_disabled": 0}, {"rental_uris": {"ios": "https://dc.lft.to/lastmile_qr_scan", "android": "https://dc.lft.to/lastmile_qr_scan"}, "lat": 38.8974375, "bike_id": "260c74ab37cbc0872bb7db9d857fb62a", "lon": -77.02745466666667, "type": "electric_scooter", "fusion_lon": 0.0, "fusion_lat": 0.0, "is_reserved": 0, "name": "260c74ab37cbc0872bb7db9d857fb62a", "is_disabled": 0}, {"rental_uris": {"ios": "https://dc.lft.to/lastmile_qr_scan", "android": "https://dc.lft.to/lastmile_qr_scan"}, "lat": 38.9198145, "bike_id": "a34f87cc1e73a5f0ec7260b208f53f90", "lon": -77.03283483333334, "type": "electric_scooter", "fusion_lon": 0.0, "fusion_lat": 0.0, "is_reserved": 0, "name": "a34f87cc1e73a5f0ec7260b208f53f90", "is_disabled": 0}, {"rental_uris": {"ios": "https://dc.lft.to/lastmile_qr_scan", "android": "https://dc.lft.to/lastmile_qr_scan"}, "lat": 38.91175466666667, "bike_id": "a97d211cc812389a884f4406376a2b4e", "lon": -77.011379, "type": "electric_scooter", "fusion_lon": 0.0, "fusion_lat": 0.0, "is_reserved": 0, "name": "a97d211cc812389a884f4406376a2b4e", "is_disabled": 0}, {"rental_uris": {"ios": "https://dc.lft.to/lastmile_qr_scan", "android": "https://dc.lft.to/lastmile_qr_scan"}, "lat": 38.887685166666664, "bike_id": "eea2d573dca01b6f6eed238475e6f5e1", "lon": -76.95588733333334, "type": "electric_scooter", "fusion_lon": 0.0, "fusion_lat": 0.0, "is_reserved": 0, "name": "eea2d573dca01b6f6eed238475e6f5e1", "is_disabled": 0}, {"rental_uris": {"ios": "https://dc.lft.to/lastmile_qr_scan", "android": "https://dc.lft.to/lastmile_qr_scan"}, "lat": 38.91723316666667, "bike_id": "55fa87d7c575aea1aca65ec2a24949c5", "lon": -77.02596116666666, "type": "electric_scooter", "fusion_lon": 0.0, "fusion_lat": 0.0, "is_reserved": 0, "name": "55fa87d7c575aea1aca65ec2a24949c5", "is_disabled": 0}, {"rental_uris": {"ios": "https://dc.lft.to/lastmile_qr_scan", "android": "https://dc.lft.to/lastmile_qr_scan"}, "lat": 38.905761166666665, "bike_id": "71489e7f0181fb57b43ac55599d63bae", "lon": -77.0040675, "type": "electric_scooter", "fusion_lon": 0.0, "fusion_lat": 0.0, "is_reserved": 0, "name": "71489e7f0181fb57b43ac55599d63bae", "is_disabled": 0}, {"rental_uris": {"ios": "https://dc.lft.to/lastmile_qr_scan", "android": "https://dc.lft.to/lastmile_qr_scan"}, "lat": 38.917514, "bike_id": "b36649908dc0c20620a27f95f84f4dd5", "lon": -77.03636633333333, "type": "electric_scooter", "fusion_lon": 0.0, "fusion_lat": 0.0, "is_reserved": 0, "name": "b36649908dc0c20620a27f95f84f4dd5", "is_disabled": 0}, {"rental_uris": {"ios": "https://dc.lft.to/lastmile_qr_scan", "android": "https://dc.lft.to/lastmile_qr_scan"}, "lat": 38.86630066666667, "bike_id": "bccaf6b07208b229d1b83da490d6a42f", "lon": -76.98713766666667, "type": "electric_scooter", "fusion_lon": 0.0, "fusion_lat": 0.0, "is_reserved": 0, "name": "bccaf6b07208b229d1b83da490d6a42f", "is_disabled": 0}, {"rental_uris": {"ios": "https://dc.lft.to/lastmile_qr_scan", "android": "https://dc.lft.to/lastmile_qr_scan"}, "lat": 38.912841, "bike_id": "44f560a89964136f9b2edade1534576c", "lon": -77.03840966666667, "type": "electric_scooter", "fusion_lon": 0.0, "fusion_lat": 0.0, "is_reserved": 0, "name": "44f560a89964136f9b2edade1534576c", "is_disabled": 0}, {"rental_uris": {"ios": "https://dc.lft.to/lastmile_qr_scan", "android": "https://dc.lft.to/lastmile_qr_scan"}, "lat": 38.92481933333333, "bike_id": "8ee912ad47a06fae47917cd3545f4738", "lon": -77.051996, "type": "electric_scooter", "fusion_lon": 0.0, "fusion_lat": 0.0, "is_reserved": 0, "name": "8ee912ad47a06fae47917cd3545f4738", "is_disabled": 0}, {"rental_uris": {"ios": "https://dc.lft.to/lastmile_qr_scan", "android": "https://dc.lft.to/lastmile_qr_scan"}, "lat": 38.89643566666667, "bike_id": "3305a44e80a786ecd56074669da8c68c", "lon": -77.07076483333333, "type": "electric_scooter", "fusion_lon": 0.0, "fusion_lat": 0.0, "is_reserved": 0, "name": "3305a44e80a786ecd56074669da8c68c", "is_disabled": 0}, {"rental_uris": {"ios": "https://dc.lft.to/lastmile_qr_scan", "android": "https://dc.lft.to/lastmile_qr_scan"}, "lat": 38.87572333333333, "bike_id": "f87bb3ac612838f49c6a90eb82dcd851", "lon": -77.00576366666667, "type": "electric_scooter", "fusion_lon": 0.0, "fusion_lat": 0.0, "is_reserved": 0, "name": "f87bb3ac612838f49c6a90eb82dcd851", "is_disabled": 0}, {"rental_uris": {"ios": "https://dc.lft.to/lastmile_qr_scan", "android": "https://dc.lft.to/lastmile_qr_scan"}, "lat": 38.99705183333333, "bike_id": "a2ecc941120796f9bc4c6c242e0c266a", "lon": -77.02558166666667, "type": "electric_bike", "fusion_lon": 0.0, "fusion_lat": 0.0, "is_reserved": 0, "name": "a2ecc941120796f9bc4c6c242e0c266a", "is_disabled": 0}, {"rental_uris": {"ios": "https://dc.lft.to/lastmile_qr_scan", "android": "https://dc.lft.to/lastmile_qr_scan"}, "lat": 38.9035735, "bike_id": "a67ba28085b1e915896c5b7f1277d00f", "lon": -77.02558416666666, "type": "electric_scooter", "fusion_lon": 0.0, "fusion_lat": 0.0, "is_reserved": 0, "name": "a67ba28085b1e915896c5b7f1277d00f", "is_disabled": 0}, {"rental_uris": {"ios": "https://dc.lft.to/lastmile_qr_scan", "android": "https://dc.lft.to/lastmile_qr_scan"}, "lat": 38.862486, "bike_id": "3c2b56c26ba96dcb95f69e87c3852145", "lon": -77.08653083333333, "type": "electric_bike", "fusion_lon": 0.0, "fusion_lat": 0.0, "is_reserved": 0, "name": "3c2b56c26ba96dcb95f69e87c3852145", "is_disabled": 0}, {"rental_uris": {"ios": "https://dc.lft.to/lastmile_qr_scan", "android": "https://dc.lft.to/lastmile_qr_scan"}, "lat": 38.89511233333333, "bike_id": "6137150b6ad63d6d1dc205994b8b16c5", "lon": -77.00338483333333, "type": "electric_scooter", "fusion_lon": 0.0, "fusion_lat": 0.0, "is_reserved": 0, "name": "6137150b6ad63d6d1dc205994b8b16c5", "is_disabled": 0}, {"rental_uris": {"ios": "https://dc.lft.to/lastmile_qr_scan", "android": "https://dc.lft.to/lastmile_qr_scan"}, "lat": 38.89616866666667, "bike_id": "e07e6cebbdef824dc613dfb1ea81ec1d", "lon": -77.02653716666667, "type": "electric_scooter", "fusion_lon": 0.0, "fusion_lat": 0.0, "is_reserved": 0, "name": "e07e6cebbdef824dc613dfb1ea81ec1d", "is_disabled": 0}, {"rental_uris": {"ios": "https://dc.lft.to/lastmile_qr_scan", "android": "https://dc.lft.to/lastmile_qr_scan"}, "lat": 38.95092266666666, "bike_id": "0728e2504963c4ac81c80caf94d9432d", "lon": -76.997912, "type": "electric_bike", "fusion_lon": 0.0, "fusion_lat": 0.0, "is_reserved": 0, "name": "0728e2504963c4ac81c80caf94d9432d", "is_disabled": 0}, {"rental_uris": {"ios": "https://dc.lft.to/lastmile_qr_scan", "android": "https://dc.lft.to/lastmile_qr_scan"}, "lat": 38.927019333333334, "bike_id": "19a7766ba4eed1aefb82ec26a5f31015", "lon": -77.02268033333333, "type": "electric_scooter", "fusion_lon": 0.0, "fusion_lat": 0.0, "is_reserved": 0, "name": "19a7766ba4eed1aefb82ec26a5f31015", "is_disabled": 0}, {"rental_uris": {"ios": "https://dc.lft.to/lastmile_qr_scan", "android": "https://dc.lft.to/lastmile_qr_scan"}, "lat": 38.88434383333333, "bike_id": "04a7f62623561285ae414060506c01a9", "lon": -76.95751866666667, "type": "electric_scooter", "fusion_lon": 0.0, "fusion_lat": 0.0, "is_reserved": 0, "name": "04a7f62623561285ae414060506c01a9", "is_disabled": 0}, {"rental_uris": {"ios": "https://dc.lft.to/lastmile_qr_scan", "android": "https://dc.lft.to/lastmile_qr_scan"}, "lat": 38.89837633333333, "bike_id": "539b84160c0218ac17b4437b37b8af31", "lon": -77.02595, "type": "electric_scooter", "fusion_lon": 0.0, "fusion_lat": 0.0, "is_reserved": 0, "name": "539b84160c0218ac17b4437b37b8af31", "is_disabled": 0}, {"rental_uris": {"ios": "https://dc.lft.to/lastmile_qr_scan", "android": "https://dc.lft.to/lastmile_qr_scan"}, "lat": 38.9212695, "bike_id": "57caf9b99df2703ea7d690979e9518ae", "lon": -77.04417833333333, "type": "electric_scooter", "fusion_lon": 0.0, "fusion_lat": 0.0, "is_reserved": 0, "name": "57caf9b99df2703ea7d690979e9518ae", "is_disabled": 0}, {"rental_uris": {"ios": "https://dc.lft.to/lastmile_qr_scan", "android": "https://dc.lft.to/lastmile_qr_scan"}, "lat": 38.925129, "bike_id": "ab7c198d1627170bff294de7ffd99e6d", "lon": -77.00883716666667, "type": "electric_scooter", "fusion_lon": 0.0, "fusion_lat": 0.0, "is_reserved": 0, "name": "ab7c198d1627170bff294de7ffd99e6d", "is_disabled": 0}, {"rental_uris": {"ios": "https://dc.lft.to/lastmile_qr_scan", "android": "https://dc.lft.to/lastmile_qr_scan"}, "lat": 38.92254766666667, "bike_id": "47b514f05c7399d78c906947374ee109", "lon": -77.02423133333333, "type": "electric_scooter", "fusion_lon": 0.0, "fusion_lat": 0.0, "is_reserved": 0, "name": "47b514f05c7399d78c906947374ee109", "is_disabled": 0}, {"rental_uris": {"ios": "https://dc.lft.to/lastmile_qr_scan", "android": "https://dc.lft.to/lastmile_qr_scan"}, "lat": 38.936545, "bike_id": "36f43df8b8c7df854249777489b30aa5", "lon": -77.02635733333334, "type": "electric_scooter", "fusion_lon": 0.0, "fusion_lat": 0.0, "is_reserved": 0, "name": "36f43df8b8c7df854249777489b30aa5", "is_disabled": 0}, {"rental_uris": {"ios": "https://dc.lft.to/lastmile_qr_scan", "android": "https://dc.lft.to/lastmile_qr_scan"}, "lat": 38.800197833333335, "bike_id": "b95bd109ce467fc23a30a2d58ac95c9b", "lon": -77.05479066666666, "type": "electric_bike", "fusion_lon": 0.0, "fusion_lat": 0.0, "is_reserved": 0, "name": "b95bd109ce467fc23a30a2d58ac95c9b", "is_disabled": 0}, {"rental_uris": {"ios": "https://dc.lft.to/lastmile_qr_scan", "android": "https://dc.lft.to/lastmile_qr_scan"}, "lat": 38.89974516666667, "bike_id": "9a507f7979bcd4cb136905f0a50a0f59", "lon": -77.05558116666667, "type": "electric_scooter", "fusion_lon": 0.0, "fusion_lat": 0.0, "is_reserved": 0, "name": "9a507f7979bcd4cb136905f0a50a0f59", "is_disabled": 0}, {"rental_uris": {"ios": "https://dc.lft.to/lastmile_qr_scan", "android": "https://dc.lft.to/lastmile_qr_scan"}, "lat": 38.909507166666664, "bike_id": "cfb52fab28cda5f920f54805c40b0d0f", "lon": -77.0343005, "type": "electric_scooter", "fusion_lon": 0.0, "fusion_lat": 0.0, "is_reserved": 0, "name": "cfb52fab28cda5f920f54805c40b0d0f", "is_disabled": 0}, {"rental_uris": {"ios": "https://dc.lft.to/lastmile_qr_scan", "android": "https://dc.lft.to/lastmile_qr_scan"}, "lat": 38.939728, "bike_id": "6f6ee8cb615e062cacc48ff8801d6be1", "lon": -77.02448766666667, "type": "electric_scooter", "fusion_lon": 0.0, "fusion_lat": 0.0, "is_reserved": 0, "name": "6f6ee8cb615e062cacc48ff8801d6be1", "is_disabled": 0}, {"rental_uris": {"ios": "https://dc.lft.to/lastmile_qr_scan", "android": "https://dc.lft.to/lastmile_qr_scan"}, "lat": 38.919191, "bike_id": "62b7dbf141e1b2e1aa05c701b8e957b7", "lon": -77.03376066666667, "type": "electric_scooter", "fusion_lon": 0.0, "fusion_lat": 0.0, "is_reserved": 0, "name": "62b7dbf141e1b2e1aa05c701b8e957b7", "is_disabled": 0}, {"rental_uris": {"ios": "https://dc.lft.to/lastmile_qr_scan", "android": "https://dc.lft.to/lastmile_qr_scan"}, "lat": 38.909891333333334, "bike_id": "84b63fcbcc886932c018b45e49ffae99", "lon": -77.03457333333333, "type": "electric_scooter", "fusion_lon": 0.0, "fusion_lat": 0.0, "is_reserved": 0, "name": "84b63fcbcc886932c018b45e49ffae99", "is_disabled": 0}, {"rental_uris": {"ios": "https://dc.lft.to/lastmile_qr_scan", "android": "https://dc.lft.to/lastmile_qr_scan"}, "lat": 38.85757516666666, "bike_id": "cf5f7c01d15ad948402c382ee5a4fbcc", "lon": -76.99292266666667, "type": "electric_scooter", "fusion_lon": 0.0, "fusion_lat": 0.0, "is_reserved": 0, "name": "cf5f7c01d15ad948402c382ee5a4fbcc", "is_disabled": 0}, {"rental_uris": {"ios": "https://dc.lft.to/lastmile_qr_scan", "android": "https://dc.lft.to/lastmile_qr_scan"}, "lat": 38.90801316666666, "bike_id": "0501e254a271fc24bebf6ca002f9024c", "lon": -77.04353483333334, "type": "electric_scooter", "fusion_lon": 0.0, "fusion_lat": 0.0, "is_reserved": 0, "name": "0501e254a271fc24bebf6ca002f9024c", "is_disabled": 0}, {"rental_uris": {"ios": "https://dc.lft.to/lastmile_qr_scan", "android": "https://dc.lft.to/lastmile_qr_scan"}, "lat": 38.90574083333333, "bike_id": "6a4475011ed794d458aa5755674826f1", "lon": -77.04313183333333, "type": "electric_scooter", "fusion_lon": 0.0, "fusion_lat": 0.0, "is_reserved": 0, "name": "6a4475011ed794d458aa5755674826f1", "is_disabled": 0}, {"rental_uris": {"ios": "https://dc.lft.to/lastmile_qr_scan", "android": "https://dc.lft.to/lastmile_qr_scan"}, "lat": 38.924950333333335, "bike_id": "379dd30613c717f5d6364e03a39dc33a", "lon": -77.04127133333333, "type": "electric_scooter", "fusion_lon": 0.0, "fusion_lat": 0.0, "is_reserved": 0, "name": "379dd30613c717f5d6364e03a39dc33a", "is_disabled": 0}, {"rental_uris": {"ios": "https://dc.lft.to/lastmile_qr_scan", "android": "https://dc.lft.to/lastmile_qr_scan"}, "lat": 38.914089, "bike_id": "c03095aa3e4e073795560d56feefca65", "lon": -77.04497966666666, "type": "electric_scooter", "fusion_lon": 0.0, "fusion_lat": 0.0, "is_reserved": 0, "name": "c03095aa3e4e073795560d56feefca65", "is_disabled": 0}, {"rental_uris": {"ios": "https://dc.lft.to/lastmile_qr_scan", "android": "https://dc.lft.to/lastmile_qr_scan"}, "lat": 38.89510716666667, "bike_id": "5e6293a4989c2364412318d9309d7cfd", "lon": -77.022971, "type": "electric_scooter", "fusion_lon": 0.0, "fusion_lat": 0.0, "is_reserved": 0, "name": "5e6293a4989c2364412318d9309d7cfd", "is_disabled": 0}, {"rental_uris": {"ios": "https://dc.lft.to/lastmile_qr_scan", "android": "https://dc.lft.to/lastmile_qr_scan"}, "lat": 38.92040216666667, "bike_id": "474a931abe110fb282f2f4a38b83be6a", "lon": -77.04201466666666, "type": "electric_scooter", "fusion_lon": 0.0, "fusion_lat": 0.0, "is_reserved": 0, "name": "474a931abe110fb282f2f4a38b83be6a", "is_disabled": 0}, {"rental_uris": {"ios": "https://dc.lft.to/lastmile_qr_scan", "android": "https://dc.lft.to/lastmile_qr_scan"}, "lat": 38.900118666666664, "bike_id": "c0cb550512890dd3ceaf0e547c668206", "lon": -77.044027, "type": "electric_scooter", "fusion_lon": 0.0, "fusion_lat": 0.0, "is_reserved": 0, "name": "c0cb550512890dd3ceaf0e547c668206", "is_disabled": 0}, {"rental_uris": {"ios": "https://dc.lft.to/lastmile_qr_scan", "android": "https://dc.lft.to/lastmile_qr_scan"}, "lat": 38.98468666666667, "bike_id": "5cca2ac85c4b29f24b57bb7700c1573a", "lon": -77.02633033333333, "type": "electric_scooter", "fusion_lon": 0.0, "fusion_lat": 0.0, "is_reserved": 0, "name": "5cca2ac85c4b29f24b57bb7700c1573a", "is_disabled": 0}, {"rental_uris": {"ios": "https://dc.lft.to/lastmile_qr_scan", "android": "https://dc.lft.to/lastmile_qr_scan"}, "lat": 38.90604016666666, "bike_id": "95be75504fac3d088413d61c64a81f4e", "lon": -77.04332883333333, "type": "electric_scooter", "fusion_lon": 0.0, "fusion_lat": 0.0, "is_reserved": 0, "name": "95be75504fac3d088413d61c64a81f4e", "is_disabled": 0}, {"rental_uris": {"ios": "https://dc.lft.to/lastmile_qr_scan", "android": "https://dc.lft.to/lastmile_qr_scan"}, "lat": 38.9167005, "bike_id": "6ec69f0d59fdaedb2e159d28a7012880", "lon": -77.02390016666666, "type": "electric_scooter", "fusion_lon": 0.0, "fusion_lat": 0.0, "is_reserved": 0, "name": "6ec69f0d59fdaedb2e159d28a7012880", "is_disabled": 0}, {"rental_uris": {"ios": "https://dc.lft.to/lastmile_qr_scan", "android": "https://dc.lft.to/lastmile_qr_scan"}, "lat": 38.90505666666667, "bike_id": "2a6209d3e12b3a987d86857c8c2b78f4", "lon": -77.0695595, "type": "electric_bike", "fusion_lon": 0.0, "fusion_lat": 0.0, "is_reserved": 0, "name": "2a6209d3e12b3a987d86857c8c2b78f4", "is_disabled": 0}, {"rental_uris": {"ios": "https://dc.lft.to/lastmile_qr_scan", "android": "https://dc.lft.to/lastmile_qr_scan"}, "lat": 38.91413083333333, "bike_id": "a49746c4ac4b38fa1c67c2dbc540bdac", "lon": -77.0212185, "type": "electric_scooter", "fusion_lon": 0.0, "fusion_lat": 0.0, "is_reserved": 0, "name": "a49746c4ac4b38fa1c67c2dbc540bdac", "is_disabled": 0}, {"rental_uris": {"ios": "https://dc.lft.to/lastmile_qr_scan", "android": "https://dc.lft.to/lastmile_qr_scan"}, "lat": 38.897043833333335, "bike_id": "2c72e2b873e8b08432d4fe91cb0165b4", "lon": -77.022858, "type": "electric_scooter", "fusion_lon": 0.0, "fusion_lat": 0.0, "is_reserved": 0, "name": "2c72e2b873e8b08432d4fe91cb0165b4", "is_disabled": 0}, {"rental_uris": {"ios": "https://dc.lft.to/lastmile_qr_scan", "android": "https://dc.lft.to/lastmile_qr_scan"}, "lat": 38.892342666666664, "bike_id": "8c71b36b635d392b9b8937b9ca63b2fb", "lon": -77.02578933333334, "type": "electric_scooter", "fusion_lon": 0.0, "fusion_lat": 0.0, "is_reserved": 0, "name": "8c71b36b635d392b9b8937b9ca63b2fb", "is_disabled": 0}, {"rental_uris": {"ios": "https://dc.lft.to/lastmile_qr_scan", "android": "https://dc.lft.to/lastmile_qr_scan"}, "lat": 38.904899, "bike_id": "254082e413ece9e777bda1609d0f586c", "lon": -77.04058616666667, "type": "electric_scooter", "fusion_lon": 0.0, "fusion_lat": 0.0, "is_reserved": 0, "name": "254082e413ece9e777bda1609d0f586c", "is_disabled": 0}, {"rental_uris": {"ios": "https://dc.lft.to/lastmile_qr_scan", "android": "https://dc.lft.to/lastmile_qr_scan"}, "lat": 38.88639583333333, "bike_id": "269906de6fba2b9330da350e39efda3e", "lon": -77.01369316666667, "type": "electric_scooter", "fusion_lon": 0.0, "fusion_lat": 0.0, "is_reserved": 0, "name": "269906de6fba2b9330da350e39efda3e", "is_disabled": 0}, {"rental_uris": {"ios": "https://dc.lft.to/lastmile_qr_scan", "android": "https://dc.lft.to/lastmile_qr_scan"}, "lat": 38.90031233333333, "bike_id": "25596b2c49bf472e71d7bb3cfafebd98", "lon": -77.0321985, "type": "electric_scooter", "fusion_lon": 0.0, "fusion_lat": 0.0, "is_reserved": 0, "name": "25596b2c49bf472e71d7bb3cfafebd98", "is_disabled": 0}, {"rental_uris": {"ios": "https://dc.lft.to/lastmile_qr_scan", "android": "https://dc.lft.to/lastmile_qr_scan"}, "lat": 38.91563816666667, "bike_id": "c63f14dad39b50fb9c47098339f5edff", "lon": -76.9736445, "type": "electric_scooter", "fusion_lon": 0.0, "fusion_lat": 0.0, "is_reserved": 0, "name": "c63f14dad39b50fb9c47098339f5edff", "is_disabled": 0}, {"rental_uris": {"ios": "https://dc.lft.to/lastmile_qr_scan", "android": "https://dc.lft.to/lastmile_qr_scan"}, "lat": 38.89740183333333, "bike_id": "44524ec4400a24ebf570fe54923dcd1f", "lon": -76.94248766666666, "type": "electric_bike", "fusion_lon": 0.0, "fusion_lat": 0.0, "is_reserved": 0, "name": "44524ec4400a24ebf570fe54923dcd1f", "is_disabled": 0}, {"rental_uris": {"ios": "https://dc.lft.to/lastmile_qr_scan", "android": "https://dc.lft.to/lastmile_qr_scan"}, "lat": 38.866867166666665, "bike_id": "e676709e1128873a188b638448e00fc7", "lon": -76.9857065, "type": "electric_scooter", "fusion_lon": 0.0, "fusion_lat": 0.0, "is_reserved": 0, "name": "e676709e1128873a188b638448e00fc7", "is_disabled": 0}, {"rental_uris": {"ios": "https://dc.lft.to/lastmile_qr_scan", "android": "https://dc.lft.to/lastmile_qr_scan"}, "lat": 38.89672766666666, "bike_id": "07efaa3f6182e2abb1ef790fc489557a", "lon": -77.104328, "type": "electric_bike", "fusion_lon": 0.0, "fusion_lat": 0.0, "is_reserved": 0, "name": "07efaa3f6182e2abb1ef790fc489557a", "is_disabled": 0}, {"rental_uris": {"ios": "https://dc.lft.to/lastmile_qr_scan", "android": "https://dc.lft.to/lastmile_qr_scan"}, "lat": 38.908451666666664, "bike_id": "e36da66f25f4bf500ae75d9d489711d6", "lon": -77.00221166666667, "type": "electric_scooter", "fusion_lon": 0.0, "fusion_lat": 0.0, "is_reserved": 0, "name": "e36da66f25f4bf500ae75d9d489711d6", "is_disabled": 0}, {"rental_uris": {"ios": "https://dc.lft.to/lastmile_qr_scan", "android": "https://dc.lft.to/lastmile_qr_scan"}, "lat": 38.86628283333334, "bike_id": "f0ef100fc93adf8b14a0319c8fbdd43f", "lon": -76.98712283333333, "type": "electric_scooter", "fusion_lon": 0.0, "fusion_lat": 0.0, "is_reserved": 0, "name": "f0ef100fc93adf8b14a0319c8fbdd43f", "is_disabled": 0}, {"rental_uris": {"ios": "https://dc.lft.to/lastmile_qr_scan", "android": "https://dc.lft.to/lastmile_qr_scan"}, "lat": 38.906571666666665, "bike_id": "eab5c94a0db3886a78cb61514488e00a", "lon": -77.041373, "type": "electric_scooter", "fusion_lon": 0.0, "fusion_lat": 0.0, "is_reserved": 0, "name": "eab5c94a0db3886a78cb61514488e00a", "is_disabled": 0}, {"rental_uris": {"ios": "https://dc.lft.to/lastmile_qr_scan", "android": "https://dc.lft.to/lastmile_qr_scan"}, "lat": 38.910433, "bike_id": "b06f443acc5692eee4c09890af142b32", "lon": -77.04350616666666, "type": "electric_scooter", "fusion_lon": 0.0, "fusion_lat": 0.0, "is_reserved": 0, "name": "b06f443acc5692eee4c09890af142b32", "is_disabled": 0}, {"rental_uris": {"ios": "https://dc.lft.to/lastmile_qr_scan", "android": "https://dc.lft.to/lastmile_qr_scan"}, "lat": 38.92691633333333, "bike_id": "d59a775c05bd762c8a66fecb8aa77fd9", "lon": -77.02198083333333, "type": "electric_scooter", "fusion_lon": 0.0, "fusion_lat": 0.0, "is_reserved": 0, "name": "d59a775c05bd762c8a66fecb8aa77fd9", "is_disabled": 0}, {"rental_uris": {"ios": "https://dc.lft.to/lastmile_qr_scan", "android": "https://dc.lft.to/lastmile_qr_scan"}, "lat": 38.924641333333334, "bike_id": "5b742b5e5dee40a1587c52ecc0b9bc05", "lon": -77.22554316666667, "type": "electric_bike", "fusion_lon": 0.0, "fusion_lat": 0.0, "is_reserved": 0, "name": "5b742b5e5dee40a1587c52ecc0b9bc05", "is_disabled": 0}, {"rental_uris": {"ios": "https://dc.lft.to/lastmile_qr_scan", "android": "https://dc.lft.to/lastmile_qr_scan"}, "lat": 38.92043983333333, "bike_id": "6574431ca58fbccba1fe39d4b10a8e3b", "lon": -77.01673933333333, "type": "electric_scooter", "fusion_lon": 0.0, "fusion_lat": 0.0, "is_reserved": 0, "name": "6574431ca58fbccba1fe39d4b10a8e3b", "is_disabled": 0}, {"rental_uris": {"ios": "https://dc.lft.to/lastmile_qr_scan", "android": "https://dc.lft.to/lastmile_qr_scan"}, "lat": 38.87998233333333, "bike_id": "8e8ad38f1703464e827e163f41fe1ac2", "lon": -77.02400183333333, "type": "electric_scooter", "fusion_lon": 0.0, "fusion_lat": 0.0, "is_reserved": 0, "name": "8e8ad38f1703464e827e163f41fe1ac2", "is_disabled": 0}, {"rental_uris": {"ios": "https://dc.lft.to/lastmile_qr_scan", "android": "https://dc.lft.to/lastmile_qr_scan"}, "lat": 38.92643833333333, "bike_id": "5e329b3b6861fa5898472f3c762d0d92", "lon": -76.9842175, "type": "electric_bike", "fusion_lon": 0.0, "fusion_lat": 0.0, "is_reserved": 0, "name": "5e329b3b6861fa5898472f3c762d0d92", "is_disabled": 0}, {"rental_uris": {"ios": "https://dc.lft.to/lastmile_qr_scan", "android": "https://dc.lft.to/lastmile_qr_scan"}, "lat": 38.9020665, "bike_id": "b0c4d8807560ca5298733040132efd31", "lon": -76.97409933333333, "type": "electric_bike", "fusion_lon": 0.0, "fusion_lat": 0.0, "is_reserved": 0, "name": "b0c4d8807560ca5298733040132efd31", "is_disabled": 0}, {"rental_uris": {"ios": "https://dc.lft.to/lastmile_qr_scan", "android": "https://dc.lft.to/lastmile_qr_scan"}, "lat": 38.90842133333334, "bike_id": "900d22dee6f7e3d5cef5cd3ac665ff07", "lon": -77.042831, "type": "electric_scooter", "fusion_lon": 0.0, "fusion_lat": 0.0, "is_reserved": 0, "name": "900d22dee6f7e3d5cef5cd3ac665ff07", "is_disabled": 0}, {"rental_uris": {"ios": "https://dc.lft.to/lastmile_qr_scan", "android": "https://dc.lft.to/lastmile_qr_scan"}, "lat": 38.933897333333334, "bike_id": "d9482b7ecaac6a449cf1ce96d63613a4", "lon": -76.99508566666667, "type": "electric_scooter", "fusion_lon": 0.0, "fusion_lat": 0.0, "is_reserved": 0, "name": "d9482b7ecaac6a449cf1ce96d63613a4", "is_disabled": 0},