{"data": {"bikes": [{"lat": 38.86566, "type": "electric_scooter", "is_disabled": 0, "name": "fa45c54196d504361ca6160c72f88d5b", "bike_id": "fa45c54196d504361ca6160c72f88d5b", "fusion_lon": 0.0, "rental_uris": {"ios": "https://dc.lft.to/lastmile_qr_scan", "android": "https://dc.lft.to/lastmile_qr_scan"}, "is_reserved": 0, "fusion_lat": 0.0, "lon": -76.97834783333333}, {"lat": 38.8802415, "type": "electric_scooter", "is_disabled": 0, "name": "fce7b0451df3f7d07467c4f6b07a6f0d", "bike_id": "fce7b0451df3f7d07467c4f6b07a6f0d", "fusion_lon": 0.0, "rental_uris": {"ios": "https://dc.lft.to/lastmile_qr_scan", "android": "https://dc.lft.to/lastmile_qr_scan"}, "is_reserved": 0, "fusion_lat": 0.0, "lon": -76.94323816666666}, {"lat": 38.91272033333333, "type": "electric_scooter", "is_disabled": 0, "name": "822cbcc9ab1a1d1442284002818f4e7c", "bike_id": "822cbcc9ab1a1d1442284002818f4e7c", "fusion_lon": 0.0, "rental_uris": {"ios": "https://dc.lft.to/lastmile_qr_scan", "android": "https://dc.lft.to/lastmile_qr_scan"}, "is_reserved": 0, "fusion_lat": 0.0, "lon": -77.02215116666666}, {"lat": 38.903697, "type": "electric_scooter", "is_disabled": 0, "name": "1f5886200683f6393e367721376e4a57", "bike_id": "1f5886200683f6393e367721376e4a57", "fusion_lon": 0.0, "rental_uris": {"ios": "https://dc.lft.to/lastmile_qr_scan", "android": "https://dc.lft.to/lastmile_qr_scan"}, "is_reserved": 0, "fusion_lat": 0.0, "lon": -77.03668833333333}, {"lat": 38.921408666666665, "type": "electric_scooter", "is_disabled": 0, "name": "4ff83c8ad52afa7cc3513f1481d282ae", "bike_id": "4ff83c8ad52afa7cc3513f1481d282ae", "fusion_lon": 0.0, "rental_uris": {"ios": "https://dc.lft.to/lastmile_qr_scan", "android": "https://dc.lft.to/lastmile_qr_scan"}, "is_reserved": 0, "fusion_lat": 0.0, "lon": -77.040138}, {"lat": 38.94182133333333, "type": "electric_scooter", "is_disabled": 0, "name": "bfca3575a04393630ecbde2eaafb9b74", "bike_id": "bfca3575a04393630ecbde2eaafb9b74", "fusion_lon": 0.0, "rental_uris": {"ios": "https://dc.lft.to/lastmile_qr_scan", "android": "https://dc.lft.to/lastmile_qr_scan"}, "is_reserved": 0, "fusion_lat": 0.0, "lon": -77.03084983333333}, {"lat": 38.89834483333333, "type": "electric_scooter", "is_disabled": 0, "name": "3ae02190ed6d72d312e6dd55579e59f9", "bike_id": "3ae02190ed6d72d312e6dd55579e59f9", "fusion_lon": 0.0, "rental_uris": {"ios": "https://dc.lft.to/lastmile_qr_scan", "android": "https://dc.lft.to/lastmile_qr_scan"}, "is_reserved": 0, "fusion_lat": 0.0, "lon": -76.94640933333334}, {"lat": 38.9112385, "type": "electric_scooter", "is_disabled": 0, "name": "0c13446c1c0494b01fd158eb2c3e7978", "bike_id": "0c13446c1c0494b01fd158eb2c3e7978", "fusion_lon": 0.0, "rental_uris": {"ios": "https://dc.lft.to/lastmile_qr_scan", "android": "https://dc.lft.to/lastmile_qr_scan"}, "is_reserved": 0, "fusion_lat": 0.0, "lon": -77.044263}, {"lat": 38.92386716666667, "type": "electric_scooter", "is_disabled": 0, "name": "405a35c68418c4029827b278f247ff21", "bike_id": "405a35c68418c4029827b278f247ff21", "fusion_lon": 0.0, "rental_uris": {"ios": "https://dc.lft.to/lastmile_qr_scan", "android": "https://dc.lft.to/lastmile_qr_scan"}, "is_reserved": 0, "fusion_lat": 0.0, "lon": -76.99590583333334}, {"lat": 38.9155745, "type": "electric_scooter", "is_disabled": 0, "name": "53c1bb07211085c67790a15bed50512f", "bike_id": "53c1bb07211085c67790a15bed50512f", "fusion_lon": 0.0, "rental_uris": {"ios": "https://dc.lft.to/lastmile_qr_scan", "android": "https://dc.lft.to/lastmile_qr_scan"}, "is_reserved": 0, "fusion_lat": 0.0, "lon": -77.007223}, {"lat": 38.803863666666665, "type": "electric_bike", "is_disabled": 0, "name": "dd366288c7fce8fbfe7d030ef76bd56b", "bike_id": "dd366288c7fce8fbfe7d030ef76bd56b", "fusion_lon": 0.0, "rental_uris": {"ios": "https://dc.lft.to/lastmile_qr_scan", "android": "https://dc.lft.to/lastmile_qr_scan"}, "is_reserved": 0, "fusion_lat": 0.0, "lon": -76.98815616666667}, {"lat": 38.88709016666667, "type": "electric_scooter", "is_disabled": 0, "name": "dcdfd460f21afeb27344e7a740c7b390", "bike_id": "dcdfd460f21afeb27344e7a740c7b390", "fusion_lon": 0.0, "rental_uris": {"ios": "https://dc.lft.to/lastmile_qr_scan", "android": "https://dc.lft.to/lastmile_qr_scan"}, "is_reserved": 0, "fusion_lat": 0.0, "lon": -76.98345}, {"lat": 38.89607933333333, "type": "electric_scooter", "is_disabled": 0, "name": "8e333f33ecc7dee3da55cdcf872b80b0", "bike_id": "8e333f33ecc7dee3da55cdcf872b80b0", "fusion_lon": 0.0, "rental_uris": {"ios": "https://dc.lft.to/lastmile_qr_scan", "android": "https://dc.lft.to/lastmile_qr_scan"}, "is_reserved": 0, "fusion_lat": 0.0, "lon": -77.04648216666666}, {"lat": 38.905534333333335, "type": "electric_scooter", "is_disabled": 0, "name": "75b09b8d28bd2f6e9009a9fad5d60a3a", "bike_id": "75b09b8d28bd2f6e9009a9fad5d60a3a", "fusion_lon": 0.0, "rental_uris": {"ios": "https://dc.lft.to/lastmile_qr_scan", "android": "https://dc.lft.to/lastmile_qr_scan"}, "is_reserved": 0, "fusion_lat": 0.0, "lon": -76.98375766666666}, {"lat": 38.914148833333336, "type": "electric_scooter", "is_disabled": 0, "name": "de90671ca825aafe223cfbdd748bfcf6", "bike_id": "de90671ca825aafe223cfbdd748bfcf6", "fusion_lon": 0.0, "rental_uris": {"ios": "https://dc.lft.to/lastmile_qr_scan", "android": "https://dc.lft.to/lastmile_qr_scan"}, "is_reserved": 0, "fusion_lat": 0.0, "lon": -77.02117516666667}, {"lat": 38.9725565, "type": "electric_bike", "is_disabled": 0, "name": "2c330823924d3d312afaa69f1d9c4fd0", "bike_id": "2c330823924d3d312afaa69f1d9c4fd0", "fusion_lon": 0.0, "rental_uris": {"ios": "https://dc.lft.to/lastmile_qr_scan", "android": "https://dc.lft.to/lastmile_qr_scan"}, "is_reserved": 0, "fusion_lat": 0.0, "lon": -76.99278}, {"lat": 38.904213, "type": "electric_scooter", "is_disabled": 0, "name": "19818b9551d4c4539da2aaacd29257eb", "bike_id": "19818b9551d4c4539da2aaacd29257eb", "fusion_lon": 0.0, "rental_uris": {"ios": "https://dc.lft.to/lastmile_qr_scan", "android": "https://dc.lft.to/lastmile_qr_scan"}, "is_reserved": 0, "fusion_lat": 0.0, "lon": -77.0329725}, {"lat": 38.92359666666667, "type": "electric_scooter", "is_disabled": 0, "name": "630c4e587f1a8602ef3eeea4e79ed560", "bike_id": "630c4e587f1a8602ef3eeea4e79ed560", "fusion_lon": 0.0, "rental_uris": {"ios": "https://dc.lft.to/lastmile_qr_scan", "android": "https://dc.lft.to/lastmile_qr_scan"}, "is_reserved": 0, "fusion_lat": 0.0, "lon": -77.02095833333334}, {"lat": 38.89219116666666, "type": "electric_scooter", "is_disabled": 0, "name": "d96a71c5894c61c3d913de24b53cbf43", "bike_id": "d96a71c5894c61c3d913de24b53cbf43", "fusion_lon": 0.0, "rental_uris": {"ios": "https://dc.lft.to/lastmile_qr_scan", "android": "https://dc.lft.to/lastmile_qr_scan"}, "is_reserved": 0, "fusion_lat": 0.0, "lon": -77.04145383333334}, {"lat": 38.9754475, "type": "electric_scooter", "is_disabled": 0, "name": "47d5348c52ac43688405f2c55c3a9178", "bike_id": "47d5348c52ac43688405f2c55c3a9178", "fusion_lon": 0.0, "rental_uris": {"ios": "https://dc.lft.to/lastmile_qr_scan", "android": "https://dc.lft.to/lastmile_qr_scan"}, "is_reserved": 0, "fusion_lat": 0.0, "lon": -77.02660466666667}, {"lat": 38.92046, "type": "electric_scooter", "is_disabled": 0, "name": "00f1552dce401ee2584c8b8bffeb6019", "bike_id": "00f1552dce401ee2584c8b8bffeb6019", "fusion_lon": 0.0, "rental_uris": {"ios": "https://dc.lft.to/lastmile_qr_scan", "android": "https://dc.lft.to/lastmile_qr_scan"}, "is_reserved": 0, "fusion_lat": 0.0, "lon": -77.0167095}, {"lat": 38.902511, "type": "electric_scooter", "is_disabled": 0, "name": "b143ac76b99bf65c99ff85d00db4bb00", "bike_id": "b143ac76b99bf65c99ff85d00db4bb00", "fusion_lon": 0.0, "rental_uris": {"ios": "https://dc.lft.to/lastmile_qr_scan", "android": "https://dc.lft.to/lastmile_qr_scan"}, "is_reserved": 0, "fusion_lat": 0.0, "lon": -77.034346}, {"lat": 38.92135916666667, "type": "electric_scooter", "is_disabled": 0, "name": "55ad9bc268224638eccf5b0bc961f091", "bike_id": "55ad9bc268224638eccf5b0bc961f091", "fusion_lon": 0.0, "rental_uris": {"ios": "https://dc.lft.to/lastmile_qr_scan", "android": "https://dc.lft.to/lastmile_qr_scan"}, "is_reserved": 0, "fusion_lat": 0.0, "lon": -77.01808116666666}, {"lat": 38.855771833333336, "type": "electric_bike", "is_disabled": 0, "name": "079f07b9e4619dc798fe2b010f18453b", "bike_id": "079f07b9e4619dc798fe2b010f18453b", "fusion_lon": 0.0, "rental_uris": {"ios": "https://dc.lft.to/lastmile_qr_scan", "android": "https://dc.lft.to/lastmile_qr_scan"}, "is_reserved": 0, "fusion_lat": 0.0, "lon": -77.05338466666667}, {"lat": 38.877030166666664, "type": "electric_scooter", "is_disabled": 0, "name": "13984d67d0073f57045239e447bf1d9a", "bike_id": "13984d67d0073f57045239e447bf1d9a", "fusion_lon": 0.0, "rental_uris": {"ios": "https://dc.lft.to/lastmile_qr_scan", "android": "https://dc.lft.to/lastmile_qr_scan"}, "is_reserved": 0, "fusion_lat": 0.0, "lon": -76.9932055}, {"lat": 38.908575, "type": "electric_bike", "is_disabled": 0, "name": "d0a7785b1e87d287512cf0f4d620018a", "bike_id": "d0a7785b1e87d287512cf0f4d620018a", "fusion_lon": 0.0, "rental_uris": {"ios": "https://dc.lft.to/lastmile_qr_scan", "android": "https://dc.lft.to/lastmile_qr_scan"}, "is_reserved": 0, "fusion_lat": 0.0, "lon": -77.0807975}, {"lat": 38.90801066666667, "type": "electric_scooter", "is_disabled": 0, "name": "60ea609f974e4dcc502cce8278cd38a1", "bike_id": "60ea609f974e4dcc502cce8278cd38a1", "fusion_lon": 0.0, "rental_uris": {"ios": "https://dc.lft.to/lastmile_qr_scan", "android": "https://dc.lft.to/lastmile_qr_scan"}, "is_reserved": 0, "fusion_lat": 0.0, "lon": -77.083981}, {"lat": 38.9205595, "type": "electric_scooter", "is_disabled": 0, "name": "99eb15fcef50ca46b557fba0aa11a916", "bike_id": "99eb15fcef50ca46b557fba0aa11a916", "fusion_lon": 0.0, "rental_uris": {"ios": "https://dc.lft.to/lastmile_qr_scan", "android": "https://dc.lft.to/lastmile_qr_scan"}, "is_reserved": 0, "fusion_lat": 0.0, "lon": -77.02510283333334}, {"lat": 38.89611433333334, "type": "electric_scooter", "is_disabled": 0, "name": "83807086a349e2c8544335b0c641c19c", "bike_id": "83807086a349e2c8544335b0c641c19c", "fusion_lon": 0.0, "rental_uris": {"ios": "https://dc.lft.to/lastmile_qr_scan", "android": "https://dc.lft.to/lastmile_qr_scan"}, "is_reserved": 0, "fusion_lat": 0.0, "lon": -77.027832}, {"lat": 38.88746116666667, "type": "electric_scooter", "is_disabled": 0, "name": "d1e9cd1fa349a2fd6ed0f7198ad3d2b3", "bike_id": "d1e9cd1fa349a2fd6ed0f7198ad3d2b3", "fusion_lon": 0.0, "rental_uris": {"ios": "https://dc.lft.to/lastmile_qr_scan", "android": "https://dc.lft.to/lastmile_qr_scan"}, "is_reserved": 0, "fusion_lat": 0.0, "lon": -77.01742833333333}, {"lat": 38.886104, "type": "electric_scooter", "is_disabled": 0, "name": "7a71a76ee492ffb1d01b5a14611c2b07", "bike_id": "7a71a76ee492ffb1d01b5a14611c2b07", "fusion_lon": 0.0, "rental_uris": {"ios": "https://dc.lft.to/lastmile_qr_scan", "android": "https://dc.lft.to/lastmile_qr_scan"}, "is_reserved": 0, "fusion_lat": 0.0, "lon": -77.00334733333334}, {"lat": 38.919996833333336, "type": "electric_scooter", "is_disabled": 0, "name": "3872f5d1981bbeb8318c9a8c7de1d31a", "bike_id": "3872f5d1981bbeb8318c9a8c7de1d31a", "fusion_lon": 0.0, "rental_uris": {"ios": "https://dc.lft.to/lastmile_qr_scan", "android": "https://dc.lft.to/lastmile_qr_scan"}, "is_reserved": 0, "fusion_lat": 0.0, "lon": -77.0233035}, {"lat": 38.907805333333336, "type": "electric_scooter", "is_disabled": 0, "name": "42f95f7e7cb0531ccd27a11babefc21f", "bike_id": "42f95f7e7cb0531ccd27a11babefc21f", "fusion_lon": 0.0, "rental_uris": {"ios": "https://dc.lft.to/lastmile_qr_scan", "android": "https://dc.lft.to/lastmile_qr_scan"}, "is_reserved": 0, "fusion_lat": 0.0, "lon": -77.07166083333334}, {"lat": 38.9232545, "type": "electric_scooter", "is_disabled": 0, "name": "97dfe4678fdf604648c2fa89bff9ecb2", "bike_id": "97dfe4678fdf604648c2fa89bff9ecb2", "fusion_lon": 0.0, "rental_uris": {"ios": "https://dc.lft.to/lastmile_qr_scan", "android": "https://dc.lft.to/lastmile_qr_scan"}, "is_reserved": 0, "fusion_lat": 0.0, "lon": -77.0195635}, {"lat": 38.91193166666667, "type": "electric_scooter", "is_disabled": 0, "name": "93cc9534f0cbd4c55a8bda4fe4d9d981", "bike_id": "93cc9534f0cbd4c55a8bda4fe4d9d981", "fusion_lon": 0.0, "rental_uris": {"ios": "https://dc.lft.to/lastmile_qr_scan", "android": "https://dc.lft.to/lastmile_qr_scan"}, "is_reserved": 0, "fusion_lat": 0.0, "lon": -77.018932}, {"lat": 38.87637466666666, "type": "electric_scooter", "is_disabled": 0, "name": "9c105e16526f720f0a9425b1cfaecd53", "bike_id": "9c105e16526f720f0a9425b1cfaecd53", "fusion_lon": 0.0, "rental_uris": {"ios": "https://dc.lft.to/lastmile_qr_scan", "android": "https://dc.lft.to/lastmile_qr_scan"}, "is_reserved": 0, "fusion_lat": 0.0, "lon": -77.00056033333334}, {"lat": 38.89931, "type": "electric_scooter", "is_disabled": 0, "name": "f91b5dee002e43b11e3e33dae274514a", "bike_id": "f91b5dee002e43b11e3e33dae274514a", "fusion_lon": 0.0, "rental_uris": {"ios": "https://dc.lft.to/lastmile_qr_scan", "android": "https://dc.lft.to/lastmile_qr_scan"}, "is_reserved": 0, "fusion_lat": 0.0, "lon": -77.03345233333333}, {"lat": 38.89222866666667, "type": "electric_scooter", "is_disabled": 0, "name": "e8c0174578c2498470be895f7311f3ad", "bike_id": "e8c0174578c2498470be895f7311f3ad", "fusion_lon": 0.0, "rental_uris": {"ios": "https://dc.lft.to/lastmile_qr_scan", "android": "https://dc.lft.to/lastmile_qr_scan"}, "is_reserved": 0, "fusion_lat": 0.0, "lon": -77.04797433333333}, {"lat": 38.900046833333334, "type": "electric_scooter", "is_disabled": 0, "name": "71b92b22edd82e8807e3eab83a889af0", "bike_id": "71b92b22edd82e8807e3eab83a889af0", "fusion_lon": 0.0, "rental_uris": {"ios": "https://dc.lft.to/lastmile_qr_scan", "android": "https://dc.lft.to/lastmile_qr_scan"}, "is_reserved": 0, "fusion_lat": 0.0, "lon": -77.046746}, {"lat": 38.8976815, "type": "electric_scooter", "is_disabled": 0, "name": "56faa6e671f3ee2914dad18fabf75d9e", "bike_id": "56faa6e671f3ee2914dad18fabf75d9e", "fusion_lon": 0.0, "rental_uris": {"ios": "https://dc.lft.to/lastmile_qr_scan", "android": "https://dc.lft.to/lastmile_qr_scan"}, "is_reserved": 0, "fusion_lat": 0.0, "lon": -77.01212966666667}, {"lat": 38.9140155, "type": "electric_scooter", "is_disabled": 0, "name": "b426d2dc669d497316b4d4d7a1152f50", "bike_id": "b426d2dc669d497316b4d4d7a1152f50", "fusion_lon": 0.0, "rental_uris": {"ios": "https://dc.lft.to/lastmile_qr_scan", "android": "https://dc.lft.to/lastmile_qr_scan"}, "is_reserved": 0, "fusion_lat": 0.0, "lon": -77.03262866666667}, {"lat": 38.92334133333333, "type": "electric_bike", "is_disabled": 0, "name": "a1a5c081fdde2ec160f9f8fdfdbca925", "bike_id": "a1a5c081fdde2ec160f9f8fdfdbca925", "fusion_lon": 0.0, "rental_uris": {"ios": "https://dc.lft.to/lastmile_qr_scan", "android": "https://dc.lft.to/lastmile_qr_scan"}, "is_reserved": 0, "fusion_lat": 0.0, "lon": -77.03618766666666}, {"lat": 38.924482166666664, "type": "electric_scooter", "is_disabled": 0, "name": "315a863e578786dd6a55ade7a72f7463", "bike_id": "315a863e578786dd6a55ade7a72f7463", "fusion_lon": 0.0, "rental_uris": {"ios": "https://dc.lft.to/lastmile_qr_scan", "android": "https://dc.lft.to/lastmile_qr_scan"}, "is_reserved": 0, "fusion_lat": 0.0, "lon": -77.04019883333333}, {"lat": 38.89749, "type": "electric_scooter", "is_disabled": 0, "name": "8e6f0ac01b50bd75f56af629bda6788a", "bike_id": "8e6f0ac01b50bd75f56af629bda6788a", "fusion_lon": 0.0, "rental_uris": {"ios": "https://dc.lft.to/lastmile_qr_scan", "android": "https://dc.lft.to/lastmile_qr_scan"}, "is_reserved": 0, "fusion_lat": 0.0, "lon": -77.00952266666667}, {"lat": 38.92227533333333, "type": "electric_scooter", "is_disabled": 0, "name": "6f707804cc864401a87837a7188ed905", "bike_id": "6f707804cc864401a87837a7188ed905", "fusion_lon": 0.0, "rental_uris": {"ios": "https://dc.lft.to/lastmile_qr_scan", "android": "https://dc.lft.to/lastmile_qr_scan"}, "is_reserved": 0, "fusion_lat": 0.0, "lon": -77.04305983333333}, {"lat": 38.928626333333334, "type": "electric_scooter", "is_disabled": 0, "name": "a2554821aa744082aae7d20c935fff01", "bike_id": "a2554821aa744082aae7d20c935fff01", "fusion_lon": 0.0, "rental_uris": {"ios": "https://dc.lft.to/lastmile_qr_scan", "android": "https://dc.lft.to/lastmile_qr_scan"}, "is_reserved": 0, "fusion_lat": 0.0, "lon": -77.03710583333333}, {"lat": 38.92960433333333, "type": "electric_scooter", "is_disabled": 0, "name": "475e52084e88d99996294426d45e9349", "bike_id": "475e52084e88d99996294426d45e9349", "fusion_lon": 0.0, "rental_uris": {"ios": "https://dc.lft.to/lastmile_qr_scan", "android": "https://dc.lft.to/lastmile_qr_scan"}, "is_reserved": 0, "fusion_lat": 0.0, "lon": -77.04129566666667}, {"lat": 38.90779533333333, "type": "electric_scooter", "is_disabled": 0, "name": "13c06c2221fddb5d1e6cd456a0d7771f", "bike_id": "13c06c2221fddb5d1e6cd456a0d7771f", "fusion_lon": 0.0, "rental_uris": {"ios": "https://dc.lft.to/lastmile_qr_scan", "android": "https://dc.lft.to/lastmile_qr_scan"}, "is_reserved": 0, "fusion_lat": 0.0, "lon": -77.01828966666666}, {"lat": 38.9068535, "type": "electric_scooter", "is_disabled": 0, "name": "d3d201b0688aab792ad8944372341abb", "bike_id": "d3d201b0688aab792ad8944372341abb", "fusion_lon": 0.0, "rental_uris": {"ios": "https://dc.lft.to/lastmile_qr_scan", "android": "https://dc.lft.to/lastmile_qr_scan"}, "is_reserved": 0, "fusion_lat": 0.0, "lon": -77.06306383333333}, {"lat": 38.885050666666665, "type": "electric_scooter", "is_disabled": 0, "name": "fa846350617a1d9a366e59a180a039cb", "bike_id": "fa846350617a1d9a366e59a180a039cb", "fusion_lon": 0.0, "rental_uris": {"ios": "https://dc.lft.to/lastmile_qr_scan", "android": "https://dc.lft.to/lastmile_qr_scan"}, "is_reserved": 0, "fusion_lat": 0.0, "lon": -77.01470766666667}, {"lat": 38.93084983333333, "type": "electric_scooter", "is_disabled": 0, "name": "99709aa23ebf0edd12ce98592dca47e4", "bike_id": "99709aa23ebf0edd12ce98592dca47e4", "fusion_lon": 0.0, "rental_uris": {"ios": "https://dc.lft.to/lastmile_qr_scan", "android": "https://dc.lft.to/lastmile_qr_scan"}, "is_reserved": 0, "fusion_lat": 0.0, "lon": -77.02799166666667}, {"lat": 38.918078666666666, "type": "electric_scooter", "is_disabled": 0, "name": "37334a88d1fc8b1ce05d601866ae89ce", "bike_id": "37334a88d1fc8b1ce05d601866ae89ce", "fusion_lon": 0.0, "rental_uris": {"ios": "https://dc.lft.to/lastmile_qr_scan", "android": "https://dc.lft.to/lastmile_qr_scan"}, "is_reserved": 0, "fusion_lat": 0.0, "lon": -77.02716716666667}, {"lat": 38.914005833333334, "type": "electric_scooter", "is_disabled": 0, "name": "ed7558b4ce9ec78f61e556373eb8a190", "bike_id": "ed7558b4ce9ec78f61e556373eb8a190", "fusion_lon": 0.0, "rental_uris": {"ios": "https://dc.lft.to/lastmile_qr_scan", "android": "https://dc.lft.to/lastmile_qr_scan"}, "is_reserved": 0, "fusion_lat": 0.0, "lon": -77.004574}, {"lat": 38.91830516666667, "type": "electric_scooter", "is_disabled": 0, "name": "195acbe3167fd352c528c74568f2215e", "bike_id": "195acbe3167fd352c528c74568f2215e", "fusion_lon": 0.0, "rental_uris": {"ios": "https://dc.lft.to/lastmile_qr_scan", "android": "https://dc.lft.to/lastmile_qr_scan"}, "is_reserved": 0, "fusion_lat": 0.0, "lon": -77.05317016666666}, {"lat": 38.90957066666667, "type": "electric_scooter", "is_disabled": 0, "name": "c0e5cfa0ec36082314b1e745e912261a", "bike_id": "c0e5cfa0ec36082314b1e745e912261a", "fusion_lon": 0.0, "rental_uris": {"ios": "https://dc.lft.to/lastmile_qr_scan", "android": "https://dc.lft.to/lastmile_qr_scan"}, "is_reserved": 0, "fusion_lat": 0.0, "lon": -77.01041416666666}, {"lat": 38.838363333333334, "type": "electric_bike", "is_disabled": 0, "name": "582ecfa024c7d8bbc2b72e57c95bb4ea", "bike_id": "582ecfa024c7d8bbc2b72e57c95bb4ea", "fusion_lon": 0.0, "rental_uris": {"ios": "https://dc.lft.to/lastmile_qr_scan", "android": "https://dc.lft.to/lastmile_qr_scan"}, "is_reserved": 0, "fusion_lat": 0.0, "lon": -76.996653}, {"lat": 38.90862516666667, "type": "electric_bike", "is_disabled": 0, "name": "a5e1c2fa1c9026fbb26ee496af7732cb", "bike_id": "a5e1c2fa1c9026fbb26ee496af7732cb", "fusion_lon": 0.0, "rental_uris": {"ios": "https://dc.lft.to/lastmile_qr_scan", "android": "https://dc.lft.to/lastmile_qr_scan"}, "is_reserved": 0, "fusion_lat": 0.0, "lon": -77.08075216666667}, {"lat": 38.9191525, "type": "electric_scooter", "is_disabled": 0, "name": "1b4d89eba529f459b97c11fba0029b4f", "bike_id": "1b4d89eba529f459b97c11fba0029b4f", "fusion_lon": 0.0, "rental_uris": {"ios": "https://dc.lft.to/lastmile_qr_scan", "android": "https://dc.lft.to/lastmile_qr_scan"}, "is_reserved": 0, "fusion_lat": 0.0, "lon": -77.034282}, {"lat": 38.924655666666666, "type": "electric_scooter", "is_disabled": 0, "name": "5b662364d8a7df0f4e9cacc5715f3c8a", "bike_id": "5b662364d8a7df0f4e9cacc5715f3c8a", "fusion_lon": 0.0, "rental_uris": {"ios": "https://dc.lft.to/lastmile_qr_scan", "android": "https://dc.lft.to/lastmile_qr_scan"}, "is_reserved": 0, "fusion_lat": 0.0, "lon": -77.02715633333334}, {"lat": 38.89245833333333, "type": "electric_scooter", "is_disabled": 0, "name": "82f34d451ebadc1bf708e966840b45cc", "bike_id": "82f34d451ebadc1bf708e966840b45cc", "fusion_lon": 0.0, "rental_uris": {"ios": "https://dc.lft.to/lastmile_qr_scan", "android": "https://dc.lft.to/lastmile_qr_scan"}, "is_reserved": 0, "fusion_lat": 0.0, "lon": -77.0395425}, {"lat": 38.9203505, "type": "electric_scooter", "is_disabled": 0, "name": "e14319707a50c221a2753453ecadaccb", "bike_id": "e14319707a50c221a2753453ecadaccb", "fusion_lon": 0.0, "rental_uris": {"ios": "https://dc.lft.to/lastmile_qr_scan", "android": "https://dc.lft.to/lastmile_qr_scan"}, "is_reserved": 0, "fusion_lat": 0.0, "lon": -77.016754}, {"lat": 38.902811666666665, "type": "electric_scooter", "is_disabled": 0, "name": "aa4d577a433407d01d24f03ef3ad6a9c", "bike_id": "aa4d577a433407d01d24f03ef3ad6a9c", "fusion_lon": 0.0, "rental_uris": {"ios": "https://dc.lft.to/lastmile_qr_scan", "android": "https://dc.lft.to/lastmile_qr_scan"}, "is_reserved": 0, "fusion_lat": 0.0, "lon": -77.04453816666667}, {"lat": 38.942345833333334, "type": "electric_scooter", "is_disabled": 0, "name": "fa0d5ec04e4b55a54ebf7b449681d80b", "bike_id": "fa0d5ec04e4b55a54ebf7b449681d80b", "fusion_lon": 0.0, "rental_uris": {"ios": "https://dc.lft.to/lastmile_qr_scan", "android": "https://dc.lft.to/lastmile_qr_scan"}, "is_reserved": 0, "fusion_lat": 0.0, "lon": -77.025769}, {"lat": 38.84501566666667, "type": "electric_bike", "is_disabled": 0, "name": "b6b9830c31efd30f5c9d32eb22af9301", "bike_id": "b6b9830c31efd30f5c9d32eb22af9301", "fusion_lon": 0.0, "rental_uris": {"ios": "https://dc.lft.to/lastmile_qr_scan", "android": "https://dc.lft.to/lastmile_qr_scan"}, "is_reserved": 0, "fusion_lat": 0.0, "lon": -76.99363266666667}, {"lat": 38.89935166666667, "type": "electric_scooter", "is_disabled": 0, "name": "16b472d8f6ac11fbc7886571df049e07", "bike_id": "16b472d8f6ac11fbc7886571df049e07", "fusion_lon": 0.0, "rental_uris": {"ios": "https://dc.lft.to/lastmile_qr_scan", "android": "https://dc.lft.to/lastmile_qr_scan"}, "is_reserved": 0, "fusion_lat": 0.0, "lon": -77.02951033333333}, {"lat": 38.924831833333336, "type": "electric_scooter", "is_disabled": 0, "name": "2ca4d2e261307f5975bd5dc4d79db4b0", "bike_id": "2ca4d2e261307f5975bd5dc4d79db4b0", "fusion_lon": 0.0, "rental_uris": {"ios": "https://dc.lft.to/lastmile_qr_scan", "android": "https://dc.lft.to/lastmile_qr_scan"}, "is_reserved": 0, "fusion_lat": 0.0, "lon": -77.02271283333333}, {"lat": 38.92034366666667, "type": "electric_scooter", "is_disabled": 0, "name": "badcfd6578e48ca36a092e83050799cc", "bike_id": "badcfd6578e48ca36a092e83050799cc", "fusion_lon": 0.0, "rental_uris": {"ios": "https://dc.lft.to/lastmile_qr_scan", "android": "https://dc.lft.to/lastmile_qr_scan"}, "is_reserved": 0, "fusion_lat": 0.0, "lon": -77.01219783333333}, {"lat": 38.901373666666665, "type": "electric_scooter", "is_disabled": 0, "name": "0c643206832ca417bd51f71a0c656925", "bike_id": "0c643206832ca417bd51f71a0c656925", "fusion_lon": 0.0, "rental_uris": {"ios": "https://dc.lft.to/lastmile_qr_scan", "android": "https://dc.lft.to/lastmile_qr_scan"}, "is_reserved": 0, "fusion_lat": 0.0, "lon": -77.03380316666667}, {"lat": 38.937174166666665, "type": "electric_scooter", "is_disabled": 0, "name": "46986a057161f6ca1b7ec8068eb0fea8", "bike_id": "46986a057161f6ca1b7ec8068eb0fea8", "fusion_lon": 0.0, "rental_uris": {"ios": "https://dc.lft.to/lastmile_qr_scan", "android": "https://dc.lft.to/lastmile_qr_scan"}, "is_reserved": 0, "fusion_lat": 0.0, "lon": -77.03290183333333}, {"lat": 38.99410666666667, "type": "electric_bike", "is_disabled": 0, "name": "04746c3d4ef835f13d6dd40e1c82b9d5", "bike_id": "04746c3d4ef835f13d6dd40e1c82b9d5", "fusion_lon": 0.0, "rental_uris": {"ios": "https://dc.lft.to/lastmile_qr_scan", "android": "https://dc.lft.to/lastmile_qr_scan"}, "is_reserved": 0, "fusion_lat": 0.0, "lon": -77.01802066666667}, {"lat": 38.9279375, "type": "electric_scooter", "is_disabled": 0, "name": "96a8027f4fe82f515bb5dfa4a70f0fa0", "bike_id": "96a8027f4fe82f515bb5dfa4a70f0fa0", "fusion_lon": 0.0, "rental_uris": {"ios": "https://dc.lft.to/lastmile_qr_scan", "android": "https://dc.lft.to/lastmile_qr_scan"}, "is_reserved": 0, "fusion_lat": 0.0, "lon": -77.03719433333333}, {"lat": 38.9203945, "type": "electric_scooter", "is_disabled": 0, "name": "8a5fb34a6039cb4fdbd31cbb51e4b0d2", "bike_id": "8a5fb34a6039cb4fdbd31cbb51e4b0d2", "fusion_lon": 0.0, "rental_uris": {"ios": "https://dc.lft.to/lastmile_qr_scan", "android": "https://dc.lft.to/lastmile_qr_scan"}, "is_reserved": 0, "fusion_lat": 0.0, "lon": -77.01677733333334}, {"lat": 38.893560666666666, "type": "electric_scooter", "is_disabled": 0, "name": "8b444e35421a58e674fcfac562989078", "bike_id": "8b444e35421a58e674fcfac562989078", "fusion_lon": 0.0, "rental_uris": {"ios": "https://dc.lft.to/lastmile_qr_scan", "android": "https://dc.lft.to/lastmile_qr_scan"}, "is_reserved": 0, "fusion_lat": 0.0, "lon": -77.0033665}, {"lat": 38.887089833333334, "type": "electric_scooter", "is_disabled": 0, "name": "ad69fc09208cea7762a7c9bbf11d462c", "bike_id": "ad69fc09208cea7762a7c9bbf11d462c", "fusion_lon": 0.0, "rental_uris": {"ios": "https://dc.lft.to/lastmile_qr_scan", "android": "https://dc.lft.to/lastmile_qr_scan"}, "is_reserved": 0, "fusion_lat": 0.0, "lon": -76.98343166666666}, {"lat": 38.941737833333335, "type": "electric_scooter", "is_disabled": 0, "name": "c779260fc841b2d1b3bd0ce0c69aa1af", "bike_id": "c779260fc841b2d1b3bd0ce0c69aa1af", "fusion_lon": 0.0, "rental_uris": {"ios": "https://dc.lft.to/lastmile_qr_scan", "android": "https://dc.lft.to/lastmile_qr_scan"}, "is_reserved": 0, "fusion_lat": 0.0, "lon": -77.03154233333333}, {"lat": 38.944676666666666, "type": "electric_bike", "is_disabled": 0, "name": "a0f9d3bc0b82c0d6ec2ada52fbb52089", "bike_id": "a0f9d3bc0b82c0d6ec2ada52fbb52089", "fusion_lon": 0.0, "rental_uris": {"ios": "https://dc.lft.to/lastmile_qr_scan", "android": "https://dc.lft.to/lastmile_qr_scan"}, "is_reserved": 0, "fusion_lat": 0.0, "lon": -76.98686583333334}, {"lat": 38.9025385, "type": "electric_scooter", "is_disabled": 0, "name": "28057f2aa2345353384285b4ec5dc658", "bike_id": "28057f2aa2345353384285b4ec5dc658", "fusion_lon": 0.0, "rental_uris": {"ios": "https://dc.lft.to/lastmile_qr_scan", "android": "https://dc.lft.to/lastmile_qr_scan"}, "is_reserved": 0, "fusion_lat": 0.0, "lon": -77.03777883333333}, {"lat": 38.893370833333336, "type": "electric_scooter", "is_disabled": 0, "name": "79d919973ed3f37c440e439b76640504", "bike_id": "79d919973ed3f37c440e439b76640504", "fusion_lon": 0.0, "rental_uris": {"ios": "https://dc.lft.to/lastmile_qr_scan", "android": "https://dc.lft.to/lastmile_qr_scan"}, "is_reserved": 0, "fusion_lat": 0.0, "lon": -77.01501133333333}, {"lat": 38.93593766666667, "type": "electric_scooter", "is_disabled": 0, "name": "0362a00b0d425a7bbb93c3fbe3c60a07", "bike_id": "0362a00b0d425a7bbb93c3fbe3c60a07", "fusion_lon": 0.0, "rental_uris": {"ios": "https://dc.lft.to/lastmile_qr_scan", "android": "https://dc.lft.to/lastmile_qr_scan"}, "is_reserved": 0, "fusion_lat": 0.0, "lon": -77.058437}, {"lat": 38.9230495, "type": "electric_scooter", "is_disabled": 0, "name": "f0afb365c0652d0bad7f754708a0e00d", "bike_id": "f0afb365c0652d0bad7f754708a0e00d", "fusion_lon": 0.0, "rental_uris": {"ios": "https://dc.lft.to/lastmile_qr_scan", "android": "https://dc.lft.to/lastmile_qr_scan"}, "is_reserved": 0, "fusion_lat": 0.0, "lon": -77.03111816666667}, {"lat": 38.88874766666667, "type": "electric_scooter", "is_disabled": 0, "name": "69ac7e143572dc2d871ef21314af3fb6", "bike_id": "69ac7e143572dc2d871ef21314af3fb6", "fusion_lon": 0.0, "rental_uris": {"ios": "https://dc.lft.to/lastmile_qr_scan", "android": "https://dc.lft.to/lastmile_qr_scan"}, "is_reserved": 0, "fusion_lat": 0.0, "lon": -76.9867555}, {"lat": 38.903579, "type": "electric_scooter", "is_disabled": 0, "name": "05cad17b512d41c202c55ffc3fb29d78", "bike_id": "05cad17b512d41c202c55ffc3fb29d78", "fusion_lon": 0.0, "rental_uris": {"ios": "https://dc.lft.to/lastmile_qr_scan", "android": "https://dc.lft.to/lastmile_qr_scan"}, "is_reserved": 0, "fusion_lat": 0.0, "lon": -77.03846483333334}, {"lat": 38.90054633333333, "type": "electric_scooter", "is_disabled": 0, "name": "0ef5e66747abf4ba8eadfb5b228ef080", "bike_id": "0ef5e66747abf4ba8eadfb5b228ef080", "fusion_lon": 0.0, "rental_uris": {"ios": "https://dc.lft.to/lastmile_qr_scan", "android": "https://dc.lft.to/lastmile_qr_scan"}, "is_reserved": 0, "fusion_lat": 0.0, "lon": -76.98485316666667}, {"lat": 38.887858, "type": "electric_scooter", "is_disabled": 0, "name": "94bc4cd9c76b7ea0fa76777e23ecddac", "bike_id": "94bc4cd9c76b7ea0fa76777e23ecddac", "fusion_lon": 0.0, "rental_uris": {"ios": "https://dc.lft.to/lastmile_qr_scan", "android": "https://dc.lft.to/lastmile_qr_scan"}, "is_reserved": 0, "fusion_lat": 0.0, "lon": -77.01597866666667}, {"lat": 38.898525166666666, "type": "electric_bike", "is_disabled": 0, "name": "51711f4eb7ab6f6f00b233c28be475da", "bike_id": "51711f4eb7ab6f6f00b233c28be475da", "fusion_lon": 0.0, "rental_uris": {"ios": "https://dc.lft.to/lastmile_qr_scan", "android": "https://dc.lft.to/lastmile_qr_scan"}, "is_reserved": 0, "fusion_lat": 0.0, "lon": -76.93186533333333}, {"lat": 38.91048266666667, "type": "electric_scooter", "is_disabled": 0, "name": "89c76b4083cbce3ffb07d167e7c0a79a", "bike_id": "89c76b4083cbce3ffb07d167e7c0a79a", "fusion_lon": 0.0, "rental_uris": {"ios": "https://dc.lft.to/lastmile_qr_scan", "android": "https://dc.lft.to/lastmile_qr_scan"}, "is_reserved": 0, "fusion_lat": 0.0, "lon": -77.0449515}, {"lat": 38.902648166666665, "type": "electric_scooter", "is_disabled": 0, "name": "3bc3562d5e70cdd07eda50deb6e9fdf9", "bike_id": "3bc3562d5e70cdd07eda50deb6e9fdf9", "fusion_lon": 0.0, "rental_uris": {"ios": "https://dc.lft.to/lastmile_qr_scan", "android": "https://dc.lft.to/lastmile_qr_scan"}, "is_reserved": 0, "fusion_lat": 0.0, "lon": -77.06014933333333}, {"lat": 38.9084045, "type": "electric_scooter", "is_disabled": 0, "name": "62891a6681c998720f2ea23083da50b9", "bike_id": "62891a6681c998720f2ea23083da50b9", "fusion_lon": 0.0, "rental_uris": {"ios": "https://dc.lft.to/lastmile_qr_scan", "android": "https://dc.lft.to/lastmile_qr_scan"}, "is_reserved": 0, "fusion_lat": 0.0, "lon": -77.04009316666667}, {"lat": 38.9288185, "type": "electric_scooter", "is_disabled": 0, "name": "3643e1e1cd9260df818a4d48115913a4", "bike_id": "3643e1e1cd9260df818a4d48115913a4", "fusion_lon": 0.0, "rental_uris": {"ios": "https://dc.lft.to/lastmile_qr_scan", "android": "https://dc.lft.to/lastmile_qr_scan"}, "is_reserved": 0, "fusion_lat": 0.0, "lon": -77.03263683333333}, {"lat": 38.901715833333334, "type": "electric_scooter", "is_disabled": 0, "name": "b05b4742e94ffaf7707ccf3842f49079", "bike_id": "b05b4742e94ffaf7707ccf3842f49079", "fusion_lon": 0.0, "rental_uris": {"ios": "https://dc.lft.to/lastmile_qr_scan", "android": "https://dc.lft.to/lastmile_qr_scan"}, "is_reserved": 0, "fusion_lat": 0.0, "lon": -77.031528}, {"lat": 38.924184833333335, "type": "electric_scooter", "is_disabled": 0, "name": "b6acc41563e2f69e206fae889a19625c", "bike_id": "b6acc41563e2f69e206fae889a19625c", "fusion_lon": 0.0, "rental_uris": {"ios": "https://dc.lft.to/lastmile_qr_scan", "android": "https://dc.lft.to/lastmile_qr_scan"}, "is_reserved": 0, "fusion_lat": 0.0, "lon": -77.0201535}, {"lat": 38.924603, "type": "electric_scooter", "is_disabled": 0, "name": "625e98af97a9b2a0cac26855a71ba7b4", "bike_id": "625e98af97a9b2a0cac26855a71ba7b4", "fusion_lon": 0.0, "rental_uris": {"ios": "https://dc.lft.to/lastmile_qr_scan", "android": "https://dc.lft.to/lastmile_qr_scan"}, "is_reserved": 0, "fusion_lat": 0.0, "lon": -77.05235483333334}, {"lat": 38.906391166666666, "type": "electric_scooter", "is_disabled": 0, "name": "d05dfbc494772cd47b51189598ca6dd3", "bike_id": "d05dfbc494772cd47b51189598ca6dd3", "fusion_lon": 0.0, "rental_uris": {"ios": "https://dc.lft.to/lastmile_qr_scan", "android": "https://dc.lft.to/lastmile_qr_scan"}, "is_reserved": 0, "fusion_lat": 0.0, "lon": -77.017696}, {"lat": 38.901467833333335, "type": "electric_scooter", "is_disabled": 0, "name": "73724cdc13285687f3aaa0fe36c751fe", "bike_id": "73724cdc13285687f3aaa0fe36c751fe", "fusion_lon": 0.0, "rental_uris": {"ios": "https://dc.lft.to/lastmile_qr_scan", "android": "https://dc.lft.to/lastmile_qr_scan"}, "is_reserved": 0, "fusion_lat": 0.0, "lon": -77.04505333333333}, {"lat": 38.85441933333333, "type": "electric_bike", "is_disabled": 0, "name": "05d3215942e56ec76c61450a4679c4ca", "bike_id": "05d3215942e56ec76c61450a4679c4ca", "fusion_lon": 0.0, "rental_uris": {"ios": "https://dc.lft.to/lastmile_qr_scan", "android": "https://dc.lft.to/lastmile_qr_scan"}, "is_reserved": 0, "fusion_lat": 0.0, "lon": -77.08318716666666}, {"lat": 38.8686745, "type": "electric_scooter", "is_disabled": 0, "name": "3f7f0e49942388f550046387db271ae8", "bike_id": "3f7f0e49942388f550046387db271ae8", "fusion_lon": 0.0, "rental_uris": {"ios": "https://dc.lft.to/lastmile_qr_scan", "android": "https://dc.lft.to/lastmile_qr_scan"}, "is_reserved": 0, "fusion_lat": 0.0, "lon": -76.9865825}, {"lat": 38.895510333333334, "type": "electric_scooter", "is_disabled": 0, "name": "cf9e8040d70dca64d9e7e0ca918b4b81", "bike_id": "cf9e8040d70dca64d9e7e0ca918b4b81", "fusion_lon": 0.0, "rental_uris": {"ios": "https://dc.lft.to/lastmile_qr_scan", "android": "https://dc.lft.to/lastmile_qr_scan"}, "is_reserved": 0, "fusion_lat": 0.0, "lon": -77.0092615}, {"lat": 38.896116166666665, "type": "electric_scooter", "is_disabled": 0, "name": "3b2d3153a3bf0d9bfe96ae558900b9de", "bike_id": "3b2d3153a3bf0d9bfe96ae558900b9de", "fusion_lon": 0.0, "rental_uris": {"ios": "https://dc.lft.to/lastmile_qr_scan", "android": "https://dc.lft.to/lastmile_qr_scan"}, "is_reserved": 0, "fusion_lat": 0.0, "lon": -77.050822}, {"lat": 38.92373033333333, "type": "electric_scooter", "is_disabled": 0, "name": "ce75df449bac820ca2241a9d0a102ebb", "bike_id": "ce75df449bac820ca2241a9d0a102ebb", "fusion_lon": 0.0, "rental_uris": {"ios": "https://dc.lft.to/lastmile_qr_scan", "android": "https://dc.lft.to/lastmile_qr_scan"}, "is_reserved": 0, "fusion_lat": 0.0, "lon": -77.02124216666667}, {"lat": 38.92851533333334, "type": "electric_scooter", "is_disabled": 0, "name": "0bd182da42af92f0271e2f7bcf41121e", "bike_id": "0bd182da42af92f0271e2f7bcf41121e", "fusion_lon": 0.0, "rental_uris": {"ios": "https://dc.lft.to/lastmile_qr_scan", "android": "https://dc.lft.to/lastmile_qr_scan"}, "is_reserved": 0, "fusion_lat": 0.0, "lon": -77.01421566666667}, {"lat": 38.9190985, "type": "electric_scooter", "is_disabled": 0, "name": "71fee5a882b0af31ea359bc3f533738c", "bike_id": "71fee5a882b0af31ea359bc3f533738c", "fusion_lon": 0.0, "rental_uris": {"ios": "https://dc.lft.to/lastmile_qr_scan", "android": "https://dc.lft.to/lastmile_qr_scan"}, "is_reserved": 0, "fusion_lat": 0.0, "lon": -77.033873}, {"lat": 38.89553016666667, "type": "electric_scooter", "is_disabled": 0, "name": "eaccb3180cd8f6258f40a7a862cad946", "bike_id": "eaccb3180cd8f6258f40a7a862cad946", "fusion_lon": 0.0, "rental_uris": {"ios": "https://dc.lft.to/lastmile_qr_scan", "android": "https://dc.lft.to/lastmile_qr_scan"}, "is_reserved": 0, "fusion_lat": 0.0, "lon": -77.04672}, {"lat": 38.900296833333336, "type": "electric_bike", "is_disabled": 0, "name": "7bce40487aec9c9702bbfde6383f5488", "bike_id": "7bce40487aec9c9702bbfde6383f5488", "fusion_lon": 0.0, "rental_uris": {"ios": "https://dc.lft.to/lastmile_qr_scan", "android": "https://dc.lft.to/lastmile_qr_scan"}, "is_reserved": 0, "fusion_lat": 0.0, "lon": -77.0468045}, {"lat": 38.92239516666667, "type": "electric_scooter", "is_disabled": 0, "name": "e0e17b2a9338be1fec9d87a1d6fafdd6", "bike_id": "e0e17b2a9338be1fec9d87a1d6fafdd6", "fusion_lon": 0.0, "rental_uris": {"ios": "https://dc.lft.to/lastmile_qr_scan", "android": "https://dc.lft.to/lastmile_qr_scan"}, "is_reserved": 0, "fusion_lat": 0.0, "lon": -77.02118466666667}, {"lat": 38.89258516666666, "type": "electric_scooter", "is_disabled": 0, "name": "77ccd96c3d7d36e59d9cfaedbe3be5cb", "bike_id": "77ccd96c3d7d36e59d9cfaedbe3be5cb", "fusion_lon": 0.0, "rental_uris": {"ios": "https://dc.lft.to/lastmile_qr_scan", "android": "https://dc.lft.to/lastmile_qr_scan"}, "is_reserved": 0, "fusion_lat": 0.0, "lon": -77.0021745}, {"lat": 38.93450583333333, "type": "electric_scooter", "is_disabled": 0, "name": "22acf96e1b3cc09a9a02a15f1c84c77c", "bike_id": "22acf96e1b3cc09a9a02a15f1c84c77c", "fusion_lon": 0.0, "rental_uris": {"ios": "https://dc.lft.to/lastmile_qr_scan", "android": "https://dc.lft.to/lastmile_qr_scan"}, "is_reserved": 0, "fusion_lat": 0.0, "lon": -77.02358316666667}, {"lat": 38.895915333333335, "type": "electric_scooter", "is_disabled": 0, "name": "bfe4d5a674edea219e792e2336149d9d", "bike_id": "bfe4d5a674edea219e792e2336149d9d", "fusion_lon": 0.0, "rental_uris": {"ios": "https://dc.lft.to/lastmile_qr_scan", "android": "https://dc.lft.to/lastmile_qr_scan"}, "is_reserved": 0, "fusion_lat": 0.0, "lon": -77.01624533333333}, {"lat": 38.90602833333333, "type": "electric_bike", "is_disabled": 0, "name": "9fb2b55c925979e2d538307b7d454bc6", "bike_id": "9fb2b55c925979e2d538307b7d454bc6", "fusion_lon": 0.0, "rental_uris": {"ios": "https://dc.lft.to/lastmile_qr_scan", "android": "https://dc.lft.to/lastmile_qr_scan"}, "is_reserved": 0, "fusion_lat": 0.0, "lon": -77.128908}, {"lat": 38.904822833333334, "type": "electric_scooter", "is_disabled": 0, "name": "cb1db6b10c3d897efdf301f6c3027d4a", "bike_id": "cb1db6b10c3d897efdf301f6c3027d4a", "fusion_lon": 0.0, "rental_uris": {"ios": "https://dc.lft.to/lastmile_qr_scan", "android": "https://dc.lft.to/lastmile_qr_scan"}, "is_reserved": 0, "fusion_lat": 0.0, "lon": -77.0270925}, {"lat": 38.90029466666667, "type": "electric_scooter", "is_disabled": 0, "name": "e46a6e3a98097d950151be400faf4fec", "bike_id": "e46a6e3a98097d950151be400faf4fec", "fusion_lon": 0.0, "rental_uris": {"ios": "https://dc.lft.to/lastmile_qr_scan", "android": "https://dc.lft.to/lastmile_qr_scan"}, "is_reserved": 0, "fusion_lat": 0.0, "lon": -76.98764083333333}, {"lat": 38.922458, "type": "electric_scooter", "is_disabled": 0, "name": "d9a0d71ddcda550f28db697ada1d0245", "bike_id": "d9a0d71ddcda550f28db697ada1d0245", "fusion_lon": 0.0, "rental_uris": {"ios": "https://dc.lft.to/lastmile_qr_scan", "android": "https://dc.lft.to/lastmile_qr_scan"}, "is_reserved": 0, "fusion_lat": 0.0, "lon": -77.03069983333333}, {"lat": 38.902155666666665, "type": "electric_scooter", "is_disabled": 0, "name": "e22b5c94bbd01b9389d933078b529754", "bike_id": "e22b5c94bbd01b9389d933078b529754", "fusion_lon": 0.0, "rental_uris": {"ios": "https://dc.lft.to/lastmile_qr_scan", "android": "https://dc.lft.to/lastmile_qr_scan"}, "is_reserved": 0, "fusion_lat": 0.0, "lon": -77.008927}, {"lat": 38.8961075, "type": "electric_scooter", "is_disabled": 0, "name": "3c3bf584e766fd50e753134205870ed2", "bike_id": "3c3bf584e766fd50e753134205870ed2", "fusion_lon": 0.0, "rental_uris": {"ios": "https://dc.lft.to/lastmile_qr_scan", "android": "https://dc.lft.to/lastmile_qr_scan"}, "is_reserved": 0, "fusion_lat": 0.0, "lon": -77.04519066666667}, {"lat": 38.90115316666667, "type": "electric_scooter", "is_disabled": 0, "name": "5a39c90336e4b83376e0e6b58547cadb", "bike_id": "5a39c90336e4b83376e0e6b58547cadb", "fusion_lon": 0.0, "rental_uris": {"ios": "https://dc.lft.to/lastmile_qr_scan", "android": "https://dc.lft.to/lastmile_qr_scan"}, "is_reserved": 0, "fusion_lat": 0.0, "lon": -77.0229135}, {"lat": 38.90808616666666, "type": "electric_scooter", "is_disabled": 0, "name": "2001a9bf2814733ee537d3fce98e36b3", "bike_id": "2001a9bf2814733ee537d3fce98e36b3", "fusion_lon": 0.0, "rental_uris": {"ios": "https://dc.lft.to/lastmile_qr_scan", "android": "https://dc.lft.to/lastmile_qr_scan"}, "is_reserved": 0, "fusion_lat": 0.0, "lon": -77.0394805}, {"lat": 38.880646166666665, "type": "electric_scooter", "is_disabled": 0, "name": "5c38728cc39701973da1f7fd2dc0a31c", "bike_id": "5c38728cc39701973da1f7fd2dc0a31c", "fusion_lon": 0.0, "rental_uris": {"ios": "https://dc.lft.to/lastmile_qr_scan", "android": "https://dc.lft.to/lastmile_qr_scan"}, "is_reserved": 0, "fusion_lat": 0.0, "lon": -77.01179933333333}, {"lat": 38.89575266666667, "type": "electric_scooter", "is_disabled": 0, "name": "afda7f4d1d725583143a438920a327b6", "bike_id": "afda7f4d1d725583143a438920a327b6", "fusion_lon": 0.0, "rental_uris": {"ios": "https://dc.lft.to/lastmile_qr_scan", "android": "https://dc.lft.to/lastmile_qr_scan"}, "is_reserved": 0, "fusion_lat": 0.0, "lon": -77.03183583333333}, {"lat": 38.885085333333336, "type": "electric_scooter", "is_disabled": 0, "name": "c9d96801012e69c018a9cf7349435012", "bike_id": "c9d96801012e69c018a9cf7349435012", "fusion_lon": 0.0, "rental_uris": {"ios": "https://dc.lft.to/lastmile_qr_scan", "android": "https://dc.lft.to/lastmile_qr_scan"}, "is_reserved": 0, "fusion_lat": 0.0, "lon": -77.020998}, {"lat": 38.92276116666667, "type": "electric_scooter", "is_disabled": 0, "name": "299e65d30dd4ea1109c18db12d735bfd", "bike_id": "299e65d30dd4ea1109c18db12d735bfd", "fusion_lon": 0.0, "rental_uris": {"ios": "https://dc.lft.to/lastmile_qr_scan", "android": "https://dc.lft.to/lastmile_qr_scan"}, "is_reserved": 0, "fusion_lat": 0.0, "lon": -77.01952916666667}, {"lat": 38.932042833333334, "type": "electric_scooter", "is_disabled": 0, "name": "270583cc95711302febc375d5b651479", "bike_id": "270583cc95711302febc375d5b651479", "fusion_lon": 0.0, "rental_uris": {"ios": "https://dc.lft.to/lastmile_qr_scan", "android": "https://dc.lft.to/lastmile_qr_scan"}, "is_reserved": 0, "fusion_lat": 0.0, "lon": -77.03860633333333}, {"lat": 38.937012, "type": "electric_scooter", "is_disabled": 0, "name": "7a8e195148550bd29cf66dc875e8b232", "bike_id": "7a8e195148550bd29cf66dc875e8b232", "fusion_lon": 0.0, "rental_uris": {"ios": "https://dc.lft.to/lastmile_qr_scan", "android": "https://dc.lft.to/lastmile_qr_scan"}, "is_reserved": 0, "fusion_lat": 0.0, "lon": -77.05600966666667}, {"lat": 38.922353333333334, "type": "electric_scooter", "is_disabled": 0, "name": "07cbf431b346c3dddd95e1db74c02dc1", "bike_id": "07cbf431b346c3dddd95e1db74c02dc1", "fusion_lon": 0.0, "rental_uris": {"ios": "https://dc.lft.to/lastmile_qr_scan", "android": "https://dc.lft.to/lastmile_qr_scan"}, "is_reserved": 0, "fusion_lat": 0.0, "lon": -77.031468}, {"lat": 38.9247155, "type": "electric_scooter", "is_disabled": 0, "name": "514c89a951808dd2495f133243cc120b", "bike_id": "514c89a951808dd2495f133243cc120b", "fusion_lon": 0.0, "rental_uris": {"ios": "https://dc.lft.to/lastmile_qr_scan", "android": "https://dc.lft.to/lastmile_qr_scan"}, "is_reserved": 0, "fusion_lat": 0.0, "lon": -77.0221455}, {"lat": 38.92758083333333, "type": "electric_scooter", "is_disabled": 0, "name": "d9a3de9068e7ac6b613ea9a3df5b7609", "bike_id": "d9a3de9068e7ac6b613ea9a3df5b7609", "fusion_lon": 0.0, "rental_uris": {"ios": "https://dc.lft.to/lastmile_qr_scan", "android": "https://dc.lft.to/lastmile_qr_scan"}, "is_reserved": 0, "fusion_lat": 0.0, "lon": -77.03212833333333}, {"lat": 38.92096816666667, "type": "electric_scooter", "is_disabled": 0, "name": "e69cff7dcab034157f4fc30e2972a5f1", "bike_id": "e69cff7dcab034157f4fc30e2972a5f1", "fusion_lon": 0.0, "rental_uris": {"ios": "https://dc.lft.to/lastmile_qr_scan", "android": "https://dc.lft.to/lastmile_qr_scan"}, "is_reserved": 0, "fusion_lat": 0.0, "lon": -77.03654316666666}, {"lat": 38.900277833333334, "type": "electric_scooter", "is_disabled": 0, "name": "2db61f79634e46a1f2ea79793eb1db5c", "bike_id": "2db61f79634e46a1f2ea79793eb1db5c", "fusion_lon": 0.0, "rental_uris": {"ios": "https://dc.lft.to/lastmile_qr_scan", "android": "https://dc.lft.to/lastmile_qr_scan"}, "is_reserved": 0, "fusion_lat": 0.0, "lon": -77.01182766666666}, {"lat": 38.88772633333333, "type": "electric_scooter", "is_disabled": 0, "name": "95e6abea8ca9ecbaaf7a1769df60ca7f", "bike_id": "95e6abea8ca9ecbaaf7a1769df60ca7f", "fusion_lon": 0.0, "rental_uris": {"ios": "https://dc.lft.to/lastmile_qr_scan", "android": "https://dc.lft.to/lastmile_qr_scan"}, "is_reserved": 0, "fusion_lat": 0.0, "lon": -76.93262083333333}, {"lat": 38.88388966666667, "type": "electric_bike", "is_disabled": 0, "name": "d49a4553fc867df7208327a5d1664ff5", "bike_id": "d49a4553fc867df7208327a5d1664ff5", "fusion_lon": 0.0, "rental_uris": {"ios": "https://dc.lft.to/lastmile_qr_scan", "android": "https://dc.lft.to/lastmile_qr_scan"}, "is_reserved": 0, "fusion_lat": 0.0, "lon": -77.02614383333334}, {"lat": 38.88974966666667, "type": "electric_bike", "is_disabled": 0, "name": "e472093514ee0b806f0f46190894527b", "bike_id": "e472093514ee0b806f0f46190894527b", "fusion_lon": 0.0, "rental_uris": {"ios": "https://dc.lft.to/lastmile_qr_scan", "android": "https://dc.lft.to/lastmile_qr_scan"}, "is_reserved": 0, "fusion_lat": 0.0, "lon": -77.08181916666666}, {"lat": 38.885147833333335, "type": "electric_scooter", "is_disabled": 0, "name": "f45034c14326f95d5279edd5ae994135", "bike_id": "f45034c14326f95d5279edd5ae994135", "fusion_lon": 0.0, "rental_uris": {"ios": "https://dc.lft.to/lastmile_qr_scan", "android": "https://dc.lft.to/lastmile_qr_scan"}, "is_reserved": 0, "fusion_lat": 0.0, "lon": -77.01574616666667}, {"lat": 38.93626283333333, "type": "electric_scooter", "is_disabled": 0, "name": "f6b462c19c94ae3c8b51054ef82bb4e9", "bike_id": "f6b462c19c94ae3c8b51054ef82bb4e9", "fusion_lon": 0.0, "rental_uris": {"ios": "https://dc.lft.to/lastmile_qr_scan", "android": "https://dc.lft.to/lastmile_qr_scan"}, "is_reserved": 0, "fusion_lat": 0.0, "lon": -77.06428383333333}, {"lat": 38.989394833333336, "type": "electric_bike", "is_disabled": 0, "name": "dc1baefdf34bf73fca9bf9209a23778e", "bike_id": "dc1baefdf34bf73fca9bf9209a23778e", "fusion_lon": 0.0, "rental_uris": {"ios": "https://dc.lft.to/lastmile_qr_scan", "android": "https://dc.lft.to/lastmile_qr_scan"}, "is_reserved": 0, "fusion_lat": 0.0, "lon": -77.1010825}, {"lat": 38.89605133333333, "type": "electric_scooter", "is_disabled": 0, "name": "64f9460617a0130f14c32a74e50badf6", "bike_id": "64f9460617a0130f14c32a74e50badf6", "fusion_lon": 0.0, "rental_uris": {"ios": "https://dc.lft.to/lastmile_qr_scan", "android": "https://dc.lft.to/lastmile_qr_scan"}, "is_reserved": 0, "fusion_lat": 0.0, "lon": -77.04410983333334}, {"lat": 38.91942866666667, "type": "electric_scooter", "is_disabled": 0, "name": "e9d572317fc913ecc9da6dd04db99aee", "bike_id": "e9d572317fc913ecc9da6dd04db99aee", "fusion_lon": 0.0, "rental_uris": {"ios": "https://dc.lft.to/lastmile_qr_scan", "android": "https://dc.lft.to/lastmile_qr_scan"}, "is_reserved": 0, "fusion_lat": 0.0, "lon": -77.01927266666667}, {"lat": 38.92360466666667, "type": "electric_scooter", "is_disabled": 0, "name": "454a8a4e648aba8f2c0e54f5908f17cb", "bike_id": "454a8a4e648aba8f2c0e54f5908f17cb", "fusion_lon": 0.0, "rental_uris": {"ios": "https://dc.lft.to/lastmile_qr_scan", "android": "https://dc.lft.to/lastmile_qr_scan"}, "is_reserved": 0, "fusion_lat": 0.0, "lon": -77.01910133333334}, {"lat": 38.9140165, "type": "electric_scooter", "is_disabled": 0, "name": "46fb4d403126190f888c4d680aa20b1b", "bike_id": "46fb4d403126190f888c4d680aa20b1b", "fusion_lon": 0.0, "rental_uris": {"ios": "https://dc.lft.to/lastmile_qr_scan", "android": "https://dc.lft.to/lastmile_qr_scan"}, "is_reserved": 0, "fusion_lat": 0.0, "lon": -77.01824583333334}, {"lat": 38.899565, "type": "electric_scooter", "is_disabled": 0, "name": "2cb06f380ba81fbf83b168b4b4cac758", "bike_id": "2cb06f380ba81fbf83b168b4b4cac758", "fusion_lon": 0.0, "rental_uris": {"ios": "https://dc.lft.to/lastmile_qr_scan", "android": "https://dc.lft.to/lastmile_qr_scan"}, "is_reserved": 0, "fusion_lat": 0.0, "lon": -77.04504866666667}, {"lat": 38.89944, "type": "electric_scooter", "is_disabled": 0, "name": "5f1c10d3f8f883f1e4581ecb3937df4c", "bike_id": "5f1c10d3f8f883f1e4581ecb3937df4c", "fusion_lon": 0.0, "rental_uris": {"ios": "https://dc.lft.to/lastmile_qr_scan", "android": "https://dc.lft.to/lastmile_qr_scan"}, "is_reserved": 0, "fusion_lat": 0.0, "lon": -77.01998666666667}, {"lat": 38.90779116666667, "type": "electric_scooter", "is_disabled": 0, "name": "e272a26ccdb74396b248a412dcdd9293", "bike_id": "e272a26ccdb74396b248a412dcdd9293", "fusion_lon": 0.0, "rental_uris": {"ios": "https://dc.lft.to/lastmile_qr_scan", "android": "https://dc.lft.to/lastmile_qr_scan"}, "is_reserved": 0, "fusion_lat": 0.0, "lon": -76.99710283333333}, {"lat": 38.897264666666665, "type": "electric_scooter", "is_disabled": 0, "name": "7cb3162aa89025dfa850e6b94ff18401", "bike_id": "7cb3162aa89025dfa850e6b94ff18401", "fusion_lon": 0.0, "rental_uris": {"ios": "https://dc.lft.to/lastmile_qr_scan", "android": "https://dc.lft.to/lastmile_qr_scan"}, "is_reserved": 0, "fusion_lat": 0.0, "lon": -77.02194566666667}, {"lat": 38.92590933333334, "type": "electric_scooter", "is_disabled": 0, "name": "eec17204e38a079fdaff7feed394c8c6", "bike_id": "eec17204e38a079fdaff7feed394c8c6", "fusion_lon": 0.0, "rental_uris": {"ios": "https://dc.lft.to/lastmile_qr_scan", "android": "https://dc.lft.to/lastmile_qr_scan"}, "is_reserved": 0, "fusion_lat": 0.0, "lon": -77.00915983333333}, {"lat": 38.916552, "type": "electric_scooter", "is_disabled": 0, "name": "7571aee2f52788f8639dc29ff204afc8", "bike_id": "7571aee2f52788f8639dc29ff204afc8", "fusion_lon": 0.0, "rental_uris": {"ios": "https://dc.lft.to/lastmile_qr_scan", "android": "https://dc.lft.to/lastmile_qr_scan"}, "is_reserved": 0, "fusion_lat": 0.0, "lon": -77.0449255}, {"lat": 38.901754833333335, "type": "electric_scooter", "is_disabled": 0, "name": "d8a26a19b7d753b216ec9ad12bd09c21", "bike_id": "d8a26a19b7d753b216ec9ad12bd09c21", "fusion_lon": 0.0, "rental_uris": {"ios": "https://dc.lft.to/lastmile_qr_scan", "android": "https://dc.lft.to/lastmile_qr_scan"}, "is_reserved": 0, "fusion_lat": 0.0, "lon": -77.00120716666666}, {"lat": 38.9448055, "type": "electric_scooter", "is_disabled": 0, "name": "19188b0a0ecb6dbc2325604b02dee580", "bike_id": "19188b0a0ecb6dbc2325604b02dee580", "fusion_lon": 0.0, "rental_uris": {"ios": "https://dc.lft.to/lastmile_qr_scan", "android": "https://dc.lft.to/lastmile_qr_scan"}, "is_reserved": 0, "fusion_lat": 0.0, "lon": -77.06406816666667}, {"lat": 38.917224166666664, "type": "electric_scooter", "is_disabled": 0, "name": "56668359d44caa742ba7a5d7e3d9ecbe", "bike_id": "56668359d44caa742ba7a5d7e3d9ecbe", "fusion_lon": 0.0, "rental_uris": {"ios": "https://dc.lft.to/lastmile_qr_scan", "android": "https://dc.lft.to/lastmile_qr_scan"}, "is_reserved": 0, "fusion_lat": 0.0, "lon": -77.02698766666667}, {"lat": 38.92280566666667, "type": "electric_scooter", "is_disabled": 0, "name": "b86e9907a1b6b9754284713b75e85eef", "bike_id": "b86e9907a1b6b9754284713b75e85eef", "fusion_lon": 0.0, "rental_uris": {"ios": "https://dc.lft.to/lastmile_qr_scan", "android": "https://dc.lft.to/lastmile_qr_scan"}, "is_reserved": 0, "fusion_lat": 0.0, "lon": -77.02974166666667}, {"lat": 38.88603883333333, "type": "electric_scooter", "is_disabled": 0, "name": "e08e0affa2667e65710341d468e67296", "bike_id": "e08e0affa2667e65710341d468e67296", "fusion_lon": 0.0, "rental_uris": {"ios": "https://dc.lft.to/lastmile_qr_scan", "android": "https://dc.lft.to/lastmile_qr_scan"}, "is_reserved": 0, "fusion_lat": 0.0, "lon": -77.03204}, {"lat": 38.914115333333335, "type": "electric_scooter", "is_disabled": 0, "name": "58605fac1b0eb81412258ce5ec30c93d", "bike_id": "58605fac1b0eb81412258ce5ec30c93d", "fusion_lon": 0.0, "rental_uris": {"ios": "https://dc.lft.to/lastmile_qr_scan", "android": "https://dc.lft.to/lastmile_qr_scan"}, "is_reserved": 0, "fusion_lat": 0.0, "lon": -77.0316565}, {"lat": 38.852456, "type": "electric_bike", "is_disabled": 0, "name": "edf3a7b4e0eef90e3042e95a4de88ad1", "bike_id": "edf3a7b4e0eef90e3042e95a4de88ad1", "fusion_lon": 0.0, "rental_uris": {"ios": "https://dc.lft.to/lastmile_qr_scan", "android": "https://dc.lft.to/lastmile_qr_scan"}, "is_reserved": 0, "fusion_lat": 0.0, "lon": -77.11426533333334}, {"lat": 38.89748916666667, "type": "electric_scooter", "is_disabled": 0, "name": "d51173bed5872c88a1e259483aac0515", "bike_id": "d51173bed5872c88a1e259483aac0515", "fusion_lon": 0.0, "rental_uris": {"ios": "https://dc.lft.to/lastmile_qr_scan", "android": "https://dc.lft.to/lastmile_qr_scan"}, "is_reserved": 0, "fusion_lat": 0.0, "lon": -77.02697566666667}, {"lat": 38.903049, "type": "electric_scooter", "is_disabled": 0, "name": "a08f1b64b16cb25da942273a4a157e4c", "bike_id": "a08f1b64b16cb25da942273a4a157e4c", "fusion_lon": 0.0, "rental_uris": {"ios": "https://dc.lft.to/lastmile_qr_scan", "android": "https://dc.lft.to/lastmile_qr_scan"}, "is_reserved": 0, "fusion_lat": 0.0, "lon": -77.03441583333333}, {"lat": 38.89750033333333, "type": "electric_scooter", "is_disabled": 0, "name": "ff7c2955e92ea15a23f1089b317e8113", "bike_id": "ff7c2955e92ea15a23f1089b317e8113", "fusion_lon": 0.0, "rental_uris": {"ios": "https://dc.lft.to/lastmile_qr_scan", "android": "https://dc.lft.to/lastmile_qr_scan"}, "is_reserved": 0, "fusion_lat": 0.0, "lon": -77.01903383333334}, {"lat": 38.900607666666666, "type": "electric_scooter", "is_disabled": 0, "name": "3f7a98f832ea1c64eed0d8cd208164f9", "bike_id": "3f7a98f832ea1c64eed0d8cd208164f9", "fusion_lon": 0.0, "rental_uris": {"ios": "https://dc.lft.to/lastmile_qr_scan", "android": "https://dc.lft.to/lastmile_qr_scan"}, "is_reserved": 0, "fusion_lat": 0.0, "lon": -76.98482916666667}, {"lat": 38.78306366666666, "type": "electric_bike", "is_disabled": 0, "name": "8b1655491851533bcf76c16036249254", "bike_id": "8b1655491851533bcf76c16036249254", "fusion_lon": 0.0, "rental_uris": {"ios": "https://dc.lft.to/lastmile_qr_scan", "android": "https://dc.lft.to/lastmile_qr_scan"}, "is_reserved": 0, "fusion_lat": 0.0, "lon": -77.11410983333333}, {"lat": 38.9883705, "type": "electric_bike", "is_disabled": 0, "name": "826f1a41dc1388d0d92066cc7b5edcc1", "bike_id": "826f1a41dc1388d0d92066cc7b5edcc1", "fusion_lon": 0.0, "rental_uris": {"ios": "https://dc.lft.to/lastmile_qr_scan", "android": "https://dc.lft.to/lastmile_qr_scan"}, "is_reserved": 0, "fusion_lat": 0.0, "lon": -77.02656216666666}, {"lat": 38.923153, "type": "electric_scooter", "is_disabled": 0, "name": "11a15b88d488b7ec59b13676ffc67c9a", "bike_id": "11a15b88d488b7ec59b13676ffc67c9a", "fusion_lon": 0.0, "rental_uris": {"ios": "https://dc.lft.to/lastmile_qr_scan", "android": "https://dc.lft.to/lastmile_qr_scan"}, "is_reserved": 0, "fusion_lat": 0.0, "lon": -77.01952366666667}, {"lat": 38.92326583333333, "type": "electric_scooter", "is_disabled": 0, "name": "6b4ecf04f9cdb4f772d2325a4762a3ec", "bike_id": "6b4ecf04f9cdb4f772d2325a4762a3ec", "fusion_lon": 0.0, "rental_uris": {"ios": "https://dc.lft.to/lastmile_qr_scan", "android": "https://dc.lft.to/lastmile_qr_scan"}, "is_reserved": 0, "fusion_lat": 0.0, "lon": -77.05681433333334}, {"lat": 38.89631816666667, "type": "electric_scooter", "is_disabled": 0, "name": "1be76d4309cbc798f0396b7237311746", "bike_id": "1be76d4309cbc798f0396b7237311746", "fusion_lon": 0.0, "rental_uris": {"ios": "https://dc.lft.to/lastmile_qr_scan", "android": "https://dc.lft.to/lastmile_qr_scan"}, "is_reserved": 0, "fusion_lat": 0.0, "lon": -77.04022583333334}, {"lat": 38.9092775, "type": "electric_scooter", "is_disabled": 0, "name": "9ec9929f3953c273a9a87e079837e93f", "bike_id": "9ec9929f3953c273a9a87e079837e93f", "fusion_lon": 0.0, "rental_uris": {"ios": "https://dc.lft.to/lastmile_qr_scan", "android": "https://dc.lft.to/lastmile_qr_scan"}, "is_reserved": 0, "fusion_lat": 0.0, "lon": -76.98469283333333}, {"lat": 38.906694333333334, "type": "electric_scooter", "is_disabled": 0, "name": "65b8d872f819777167abbd82f9d5bf53", "bike_id": "65b8d872f819777167abbd82f9d5bf53", "fusion_lon": 0.0, "rental_uris": {"ios": "https://dc.lft.to/lastmile_qr_scan", "android": "https://dc.lft.to/lastmile_qr_scan"}, "is_reserved": 0, "fusion_lat": 0.0, "lon": -77.02720033333334}, {"lat": 38.87575433333333, "type": "electric_scooter", "is_disabled": 0, "name": "7290bfd103d259022817a3335f5d9bb4", "bike_id": "7290bfd103d259022817a3335f5d9bb4", "fusion_lon": 0.0, "rental_uris": {"ios": "https://dc.lft.to/lastmile_qr_scan", "android": "https://dc.lft.to/lastmile_qr_scan"}, "is_reserved": 0, "fusion_lat": 0.0, "lon": -77.005819}, {"lat": 38.91556833333333, "type": "electric_scooter", "is_disabled": 0, "name": "f96293c55a46d022b6c514350fda4e81", "bike_id": "f96293c55a46d022b6c514350fda4e81", "fusion_lon": 0.0, "rental_uris": {"ios": "https://dc.lft.to/lastmile_qr_scan", "android": "https://dc.lft.to/lastmile_qr_scan"}, "is_reserved": 0, "fusion_lat": 0.0, "lon": -77.02047933333333}, {"lat": 38.9121445, "type": "electric_scooter", "is_disabled": 0, "name": "92fb7f247badb8138957230453799368", "bike_id": "92fb7f247badb8138957230453799368", "fusion_lon": 0.0, "rental_uris": {"ios": "https://dc.lft.to/lastmile_qr_scan", "android": "https://dc.lft.to/lastmile_qr_scan"}, "is_reserved": 0, "fusion_lat": 0.0, "lon": -77.07594566666667}, {"lat": 38.85934483333333, "type": "electric_scooter", "is_disabled": 0, "name": "7d506705365e81e1f914ba6a52aecf38", "bike_id": "7d506705365e81e1f914ba6a52aecf38", "fusion_lon": 0.0, "rental_uris": {"ios": "https://dc.lft.to/lastmile_qr_scan", "android": "https://dc.lft.to/lastmile_qr_scan"}, "is_reserved": 0, "fusion_lat": 0.0, "lon": -76.98443833333333}, {"lat": 38.875719833333335, "type": "electric_scooter", "is_disabled": 0, "name": "9f78c77c12ae4919d052456735bc75e8", "bike_id": "9f78c77c12ae4919d052456735bc75e8", "fusion_lon": 0.0, "rental_uris": {"ios": "https://dc.lft.to/lastmile_qr_scan", "android": "https://dc.lft.to/lastmile_qr_scan"}, "is_reserved": 0, "fusion_lat": 0.0, "lon": -77.00578566666667}, {"lat": 38.8747825, "type": "electric_bike", "is_disabled": 0, "name": "72e83a62703924558db170eee0dd14c1", "bike_id": "72e83a62703924558db170eee0dd14c1", "fusion_lon": 0.0, "rental_uris": {"ios": "https://dc.lft.to/lastmile_qr_scan", "android": "https://dc.lft.to/lastmile_qr_scan"}, "is_reserved": 0, "fusion_lat": 0.0, "lon": -76.9653705}, {"lat": 38.899224833333335, "type": "electric_scooter", "is_disabled": 0, "name": "ecc2954313d59f4dbb4326ce5ee48896", "bike_id": "ecc2954313d59f4dbb4326ce5ee48896", "fusion_lon": 0.0, "rental_uris": {"ios": "https://dc.lft.to/lastmile_qr_scan", "android": "https://dc.lft.to/lastmile_qr_scan"}, "is_reserved": 0, "fusion_lat": 0.0, "lon": -77.02459516666667}, {"lat": 38.94847216666667, "type": "electric_scooter", "is_disabled": 0, "name": "cb11f3b7f88589b528834d42e5c7ef2a", "bike_id": "cb11f3b7f88589b528834d42e5c7ef2a", "fusion_lon": 0.0, "rental_uris": {"ios": "https://dc.lft.to/lastmile_qr_scan", "android": "https://dc.lft.to/lastmile_qr_scan"}, "is_reserved": 0, "fusion_lat": 0.0, "lon": -77.06545916666667}, {"lat": 38.901088, "type": "electric_scooter", "is_disabled": 0, "name": "8d9765f8448d1eca63a29f8c237e2626", "bike_id": "8d9765f8448d1eca63a29f8c237e2626", "fusion_lon": 0.0, "rental_uris": {"ios": "https://dc.lft.to/lastmile_qr_scan", "android": "https://dc.lft.to/lastmile_qr_scan"}, "is_reserved": 0, "fusion_lat": 0.0, "lon": -77.04873916666666}, {"lat": 38.8965935, "type": "electric_scooter", "is_disabled": 0, "name": "471b72bc501eb1e7a68fcd183fe758e7", "bike_id": "471b72bc501eb1e7a68fcd183fe758e7", "fusion_lon": 0.0, "rental_uris": {"ios": "https://dc.lft.to/lastmile_qr_scan", "android": "https://dc.lft.to/lastmile_qr_scan"}, "is_reserved": 0, "fusion_lat": 0.0, "lon": -77.02726483333333}, {"lat": 38.832991666666665, "type": "electric_bike", "is_disabled": 0, "name": "b5ba28b3c5391d50ec7f4b788caa89d6", "bike_id": "b5ba28b3c5391d50ec7f4b788caa89d6", "fusion_lon": 0.0, "rental_uris": {"ios": "https://dc.lft.to/lastmile_qr_scan", "android": "https://dc.lft.to/lastmile_qr_scan"}, "is_reserved": 0, "fusion_lat": 0.0, "lon": -77.08409366666666}, {"lat": 38.89556866666667, "type": "electric_scooter", "is_disabled": 0, "name": "0d335c296429461f429032b095308a79", "bike_id": "0d335c296429461f429032b095308a79", "fusion_lon": 0.0, "rental_uris": {"ios": "https://dc.lft.to/lastmile_qr_scan", "android": "https://dc.lft.to/lastmile_qr_scan"}, "is_reserved": 0, "fusion_lat": 0.0, "lon": -76.94901833333333}, {"lat": 38.876772833333334, "type": "electric_scooter", "is_disabled": 0, "name": "8861a63025379999f47d9f0340ffa279", "bike_id": "8861a63025379999f47d9f0340ffa279", "fusion_lon": 0.0, "rental_uris": {"ios": "https://dc.lft.to/lastmile_qr_scan", "android": "https://dc.lft.to/lastmile_qr_scan"}, "is_reserved": 0, "fusion_lat": 0.0, "lon": -77.00061483333333}, {"lat": 38.899362333333336, "type": "electric_scooter", "is_disabled": 0, "name": "059197b306747e4717b0723154be2193", "bike_id": "059197b306747e4717b0723154be2193", "fusion_lon": 0.0, "rental_uris": {"ios": "https://dc.lft.to/lastmile_qr_scan", "android": "https://dc.lft.to/lastmile_qr_scan"}, "is_reserved": 0, "fusion_lat": 0.0, "lon": -77.027989}, {"lat": 38.88478033333333, "type": "electric_scooter", "is_disabled": 0, "name": "96568c20050842a04fe78567ffadaddd", "bike_id": "96568c20050842a04fe78567ffadaddd", "fusion_lon": 0.0, "rental_uris": {"ios": "https://dc.lft.to/lastmile_qr_scan", "android": "https://dc.lft.to/lastmile_qr_scan"}, "is_reserved": 0, "fusion_lat": 0.0, "lon": -77.0199505}, {"lat": 38.894777833333336, "type": "electric_scooter", "is_disabled": 0, "name": "6e66a1ef647d5c70df11bc4ad48da63d", "bike_id": "6e66a1ef647d5c70df11bc4ad48da63d", "fusion_lon": 0.0, "rental_uris": {"ios": "https://dc.lft.to/lastmile_qr_scan", "android": "https://dc.lft.to/lastmile_qr_scan"}, "is_reserved": 0, "fusion_lat": 0.0, "lon": -76.99516166666666}, {"lat": 38.884404333333336, "type": "electric_scooter", "is_disabled": 0, "name": "cd7d2583f41851774592c3a60f621291", "bike_id": "cd7d2583f41851774592c3a60f621291", "fusion_lon": 0.0, "rental_uris": {"ios": "https://dc.lft.to/lastmile_qr_scan", "android": "https://dc.lft.to/lastmile_qr_scan"}, "is_reserved": 0, "fusion_lat": 0.0, "lon": -76.957671}, {"lat": 38.89709533333333, "type": "electric_scooter", "is_disabled": 0, "name": "bf83a609b67b9fd83199bfa9a1d6d83c", "bike_id": "bf83a609b67b9fd83199bfa9a1d6d83c", "fusion_lon": 0.0, "rental_uris": {"ios": "https://dc.lft.to/lastmile_qr_scan", "android": "https://dc.lft.to/lastmile_qr_scan"}, "is_reserved": 0, "fusion_lat": 0.0, "lon": -77.01311983333333}, {"lat": 38.901268333333334, "type": "electric_scooter", "is_disabled": 0, "name": "961ad9e0d6b8c01d38b3e9220c2a9543", "bike_id": "961ad9e0d6b8c01d38b3e9220c2a9543", "fusion_lon": 0.0, "rental_uris": {"ios": "https://dc.lft.to/lastmile_qr_scan", "android": "https://dc.lft.to/lastmile_qr_scan"}, "is_reserved": 0, "fusion_lat": 0.0, "lon": -77.0315605}, {"lat": 38.8839315, "type": "electric_scooter", "is_disabled": 0, "name": "73cfc4b2a7af764812034ab9d8a25e6e", "bike_id": "73cfc4b2a7af764812034ab9d8a25e6e", "fusion_lon": 0.0, "rental_uris": {"ios": "https://dc.lft.to/lastmile_qr_scan", "android": "https://dc.lft.to/lastmile_qr_scan"}, "is_reserved": 0, "fusion_lat": 0.0, "lon": -76.930403}, {"lat": 38.882395333333335, "type": "electric_scooter", "is_disabled": 0, "name": "ceac855d5aecb8662fe7a10248d4615d", "bike_id": "ceac855d5aecb8662fe7a10248d4615d", "fusion_lon": 0.0, "rental_uris": {"ios": "https://dc.lft.to/lastmile_qr_scan", "android": "https://dc.lft.to/lastmile_qr_scan"}, "is_reserved": 0, "fusion_lat": 0.0, "lon": -76.99496133333334}, {"lat": 38.91844416666667, "type": "electric_scooter", "is_disabled": 0, "name": "d51b8617610f7db910b1227dbfc17aca", "bike_id": "d51b8617610f7db910b1227dbfc17aca", "fusion_lon": 0.0, "rental_uris": {"ios": "https://dc.lft.to/lastmile_qr_scan", "android": "https://dc.lft.to/lastmile_qr_scan"}, "is_reserved": 0, "fusion_lat": 0.0, "lon": -77.02537733333334}, {"lat": 38.94537866666667, "type": "electric_bike", "is_disabled": 0, "name": "447145d37abaf9022110d103c6eef33a", "bike_id": "447145d37abaf9022110d103c6eef33a", "fusion_lon": 0.0, "rental_uris": {"ios": "https://dc.lft.to/lastmile_qr_scan", "android": "https://dc.lft.to/lastmile_qr_scan"}, "is_reserved": 0, "fusion_lat": 0.0, "lon": -77.3445805}, {"lat": 39.08432533333333, "type": "electric_bike", "is_disabled": 0, "name": "7d40ff41c9baf141c0dc8bd74756f37f", "bike_id": "7d40ff41c9baf141c0dc8bd74756f37f", "fusion_lon": 0.0, "rental_uris": {"ios": "https://dc.lft.to/lastmile_qr_scan", "android": "https://dc.lft.to/lastmile_qr_scan"}, "is_reserved": 0, "fusion_lat": 0.0, "lon": -76.95139383333333}, {"lat": 38.886538333333334, "type": "electric_scooter", "is_disabled": 0, "name": "4297405eda90f4f3fabb2ce1bb1be376", "bike_id": "4297405eda90f4f3fabb2ce1bb1be376", "fusion_lon": 0.0, "rental_uris": {"ios": "https://dc.lft.to/lastmile_qr_scan", "android": "https://dc.lft.to/lastmile_qr_scan"}, "is_reserved": 0, "fusion_lat": 0.0, "lon": -76.93674033333333}, {"lat": 38.921547333333336, "type": "electric_scooter", "is_disabled": 0, "name": "25d827d2e0831446cc99f9631e9f4c2e", "bike_id": "25d827d2e0831446cc99f9631e9f4c2e", "fusion_lon": 0.0, "rental_uris": {"ios": "https://dc.lft.to/lastmile_qr_scan", "android": "https://dc.lft.to/lastmile_qr_scan"}, "is_reserved": 0, "fusion_lat": 0.0, "lon": -77.0209095}, {"lat": 38.9170615, "type": "electric_scooter", "is_disabled": 0, "name": "d734fa1fd59191c4d5d340fa5d6735f3", "bike_id": "d734fa1fd59191c4d5d340fa5d6735f3", "fusion_lon": 0.0, "rental_uris": {"ios": "https://dc.lft.to/lastmile_qr_scan", "android": "https://dc.lft.to/lastmile_qr_scan"}, "is_reserved": 0, "fusion_lat": 0.0, "lon": -77.0289905}, {"lat": 38.898151666666664, "type": "electric_scooter", "is_disabled": 0, "name": "aa03b182f6d3ea76c844bf6351284100", "bike_id": "aa03b182f6d3ea76c844bf6351284100", "fusion_lon": 0.0, "rental_uris": {"ios": "https://dc.lft.to/lastmile_qr_scan", "android": "https://dc.lft.to/lastmile_qr_scan"}, "is_reserved": 0, "fusion_lat": 0.0, "lon": -77.04336783333333}, {"lat": 38.92476516666667, "type": "electric_scooter", "is_disabled": 0, "name": "02cce78f68f3d0b7571cdbeb1fb5be37", "bike_id": "02cce78f68f3d0b7571cdbeb1fb5be37", "fusion_lon": 0.0, "rental_uris": {"ios": "https://dc.lft.to/lastmile_qr_scan", "android": "https://dc.lft.to/lastmile_qr_scan"}, "is_reserved": 0, "fusion_lat": 0.0, "lon": -77.02216416666667}, {"lat": 38.926069, "type": "electric_scooter", "is_disabled": 0, "name": "f712cea5f48bd743a0550e83ded94eee", "bike_id": "f712cea5f48bd743a0550e83ded94eee", "fusion_lon": 0.0, "rental_uris": {"ios": "https://dc.lft.to/lastmile_qr_scan", "android": "https://dc.lft.to/lastmile_qr_scan"}, "is_reserved": 0, "fusion_lat": 0.0, "lon": -77.0215655}, {"lat": 38.920373, "type": "electric_scooter", "is_disabled": 0, "name": "16a6c070ec84ac325701b47a829bda89", "bike_id": "16a6c070ec84ac325701b47a829bda89", "fusion_lon": 0.0, "rental_uris": {"ios": "https://dc.lft.to/lastmile_qr_scan", "android": "https://dc.lft.to/lastmile_qr_scan"}, "is_reserved": 0, "fusion_lat": 0.0, "lon": -77.0172965}, {"lat": 38.91914116666667, "type": "electric_scooter", "is_disabled": 0, "name": "5c32e10f34465a303d8630b542e58c2d", "bike_id": "5c32e10f34465a303d8630b542e58c2d", "fusion_lon": 0.0, "rental_uris": {"ios": "https://dc.lft.to/lastmile_qr_scan", "android": "https://dc.lft.to/lastmile_qr_scan"}, "is_reserved": 0, "fusion_lat": 0.0, "lon": -77.00995516666667}, {"lat": 38.92062033333333, "type": "electric_scooter", "is_disabled": 0, "name": "0dfaa604c2b85628906e678409ec3e31", "bike_id": "0dfaa604c2b85628906e678409ec3e31", "fusion_lon": 0.0, "rental_uris": {"ios": "https://dc.lft.to/lastmile_qr_scan", "android": "https://dc.lft.to/lastmile_qr_scan"}, "is_reserved": 0, "fusion_lat": 0.0, "lon": -77.04550216666667}, {"lat": 38.91067316666667, "type": "electric_scooter", "is_disabled": 0, "name": "83aea40b42a55baddc1b09705646cf27", "bike_id": "83aea40b42a55baddc1b09705646cf27", "fusion_lon": 0.0, "rental_uris": {"ios": "https://dc.lft.to/lastmile_qr_scan", "android": "https://dc.lft.to/lastmile_qr_scan"}, "is_reserved": 0, "fusion_lat": 0.0, "lon": -77.05389283333334}, {"lat": 38.921328333333335, "type": "electric_scooter", "is_disabled": 0, "name": "ae86d6b7c1563bd2229a5e72c8274d20", "bike_id": "ae86d6b7c1563bd2229a5e72c8274d20", "fusion_lon": 0.0, "rental_uris": {"ios": "https://dc.lft.to/lastmile_qr_scan", "android": "https://dc.lft.to/lastmile_qr_scan"}, "is_reserved": 0, "fusion_lat": 0.0, "lon": -77.01163966666667}, {"lat": 38.91941533333333, "type": "electric_scooter", "is_disabled": 0, "name": "abb4ee6d57ebca13692a5841eff5e8e7", "bike_id": "abb4ee6d57ebca13692a5841eff5e8e7", "fusion_lon": 0.0, "rental_uris": {"ios": "https://dc.lft.to/lastmile_qr_scan", "android": "https://dc.lft.to/lastmile_qr_scan"}, "is_reserved": 0, "fusion_lat": 0.0, "lon": -77.02191283333333}, {"lat": 38.921376333333335, "type": "electric_scooter", "is_disabled": 0, "name": "b3b3284647ed74ea7ca693788a0362fc", "bike_id": "b3b3284647ed74ea7ca693788a0362fc", "fusion_lon": 0.0, "rental_uris": {"ios": "https://dc.lft.to/lastmile_qr_scan", "android": "https://dc.lft.to/lastmile_qr_scan"}, "is_reserved": 0, "fusion_lat": 0.0, "lon": -77.01219816666666}, {"lat": 38.901876333333334, "type": "electric_scooter", "is_disabled": 0, "name": "777c6a45cb300f26e090b56d7162a973", "bike_id": "777c6a45cb300f26e090b56d7162a973", "fusion_lon": 0.0, "rental_uris": {"ios": "https://dc.lft.to/lastmile_qr_scan", "android": "https://dc.lft.to/lastmile_qr_scan"}, "is_reserved": 0, "fusion_lat": 0.0, "lon": -77.01274466666666}, {"lat": 38.935916166666665, "type": "electric_scooter", "is_disabled": 0, "name": "2930922f3bfc24e494528808003971b5", "bike_id": "2930922f3bfc24e494528808003971b5", "fusion_lon": 0.0, "rental_uris": {"ios": "https://dc.lft.to/lastmile_qr_scan", "android": "https://dc.lft.to/lastmile_qr_scan"}, "is_reserved": 0, "fusion_lat": 0.0, "lon": -77.05843066666667}, {"lat": 38.9222695, "type": "electric_scooter", "is_disabled": 0, "name": "80c24593449e24504e085db37bdd484d", "bike_id": "80c24593449e24504e085db37bdd484d", "fusion_lon": 0.0, "rental_uris": {"ios": "https://dc.lft.to/lastmile_qr_scan", "android": "https://dc.lft.to/lastmile_qr_scan"}, "is_reserved": 0, "fusion_lat": 0.0, "lon": -77.02831116666667}, {"lat": 38.92118216666667, "type": "electric_scooter", "is_disabled": 0, "name": "3e1a69254f10356ea926c20029547ed2", "bike_id": "3e1a69254f10356ea926c20029547ed2", "fusion_lon": 0.0, "rental_uris": {"ios": "https://dc.lft.to/lastmile_qr_scan", "android": "https://dc.lft.to/lastmile_qr_scan"}, "is_reserved": 0, "fusion_lat": 0.0, "lon": -77.043793}, {"lat": 38.9016425, "type": "electric_scooter", "is_disabled": 0, "name": "5ad5341e22a0a112067614dbfd6b36db", "bike_id": "5ad5341e22a0a112067614dbfd6b36db", "fusion_lon": 0.0, "rental_uris": {"ios": "https://dc.lft.to/lastmile_qr_scan", "android": "https://dc.lft.to/lastmile_qr_scan"}, "is_reserved": 0, "fusion_lat": 0.0, "lon": -76.94983633333334}, {"lat": 38.892393, "type": "electric_scooter", "is_disabled": 0, "name": "777f236b3493593480542f99e3305f96", "bike_id": "777f236b3493593480542f99e3305f96", "fusion_lon": 0.0, "rental_uris": {"ios": "https://dc.lft.to/lastmile_qr_scan", "android": "https://dc.lft.to/lastmile_qr_scan"}, "is_reserved": 0, "fusion_lat": 0.0, "lon": -77.03188116666666}, {"lat": 38.9112945, "type": "electric_scooter", "is_disabled": 0, "name": "eff49dae5a3885f80c952727ef565c5d", "bike_id": "eff49dae5a3885f80c952727ef565c5d", "fusion_lon": 0.0, "rental_uris": {"ios": "https://dc.lft.to/lastmile_qr_scan", "android": "https://dc.lft.to/lastmile_qr_scan"}, "is_reserved": 0, "fusion_lat": 0.0, "lon": -77.02199016666667}, {"lat": 38.921798, "type": "electric_scooter", "is_disabled": 0, "name": "8c328173ea713786e1cb991a09f0d834", "bike_id": "8c328173ea713786e1cb991a09f0d834", "fusion_lon": 0.0, "rental_uris": {"ios": "https://dc.lft.to/lastmile_qr_scan", "android": "https://dc.lft.to/lastmile_qr_scan"}, "is_reserved": 0, "fusion_lat": 0.0, "lon": -77.03665383333333}, {"lat": 38.88459666666667, "type": "electric_scooter", "is_disabled": 0, "name": "69a4850f5750622839144a66a6f69a40", "bike_id": "69a4850f5750622839144a66a6f69a40", "fusion_lon": 0.0, "rental_uris": {"ios": "https://dc.lft.to/lastmile_qr_scan", "android": "https://dc.lft.to/lastmile_qr_scan"}, "is_reserved": 0, "fusion_lat": 0.0, "lon": -76.92620766666667}, {"lat": 38.926516166666666, "type": "electric_bike", "is_disabled": 0, "name": "852961f4f74be444eaccc615deb41695", "bike_id": "852961f4f74be444eaccc615deb41695", "fusion_lon": 0.0, "rental_uris": {"ios": "https://dc.lft.to/lastmile_qr_scan", "android": "https://dc.lft.to/lastmile_qr_scan"}, "is_reserved": 0, "fusion_lat": 0.0, "lon": -77.090209}, {"lat": 38.9169305, "type": "electric_scooter", "is_disabled": 0, "name": "f61f1e800c519e44b4f5a36083bcde99", "bike_id": "f61f1e800c519e44b4f5a36083bcde99", "fusion_lon": 0.0, "rental_uris": {"ios": "https://dc.lft.to/lastmile_qr_scan", "android": "https://dc.lft.to/lastmile_qr_scan"}, "is_reserved": 0, "fusion_lat": 0.0, "lon": -77.029004}, {"lat": 38.91977166666667, "type": "electric_scooter", "is_disabled": 0, "name": "1d00823c032bfc3bdc75c4a342781247", "bike_id": "1d00823c032bfc3bdc75c4a342781247", "fusion_lon": 0.0, "rental_uris": {"ios": "https://dc.lft.to/lastmile_qr_scan", "android": "https://dc.lft.to/lastmile_qr_scan"}, "is_reserved": 0, "fusion_lat": 0.0, "lon": -77.02195383333333}, {"lat": 38.929212666666665, "type": "electric_scooter", "is_disabled": 0, "name": "70800c646d17edf930ecd979ad9ad9fc", "bike_id": "70800c646d17edf930ecd979ad9ad9fc", "fusion_lon": 0.0, "rental_uris": {"ios": "https://dc.lft.to/lastmile_qr_scan", "android": "https://dc.lft.to/lastmile_qr_scan"}, "is_reserved": 0, "fusion_lat": 0.0, "lon": -77.03266283333333}, {"lat": 38.87930816666667, "type": "electric_scooter", "is_disabled": 0, "name": "fcf22183dd41f744aae7cd8ed75a7f85", "bike_id": "fcf22183dd41f744aae7cd8ed75a7f85", "fusion_lon": 0.0, "rental_uris": {"ios": "https://dc.lft.to/lastmile_qr_scan", "android": "https://dc.lft.to/lastmile_qr_scan"}, "is_reserved": 0, "fusion_lat": 0.0, "lon": -77.00753716666667}, {"lat": 38.8981945, "type": "electric_scooter", "is_disabled": 0, "name": "9c36b8c7dc5bbd103327191be8d4b488", "bike_id": "9c36b8c7dc5bbd103327191be8d4b488", "fusion_lon": 0.0, "rental_uris": {"ios": "https://dc.lft.to/lastmile_qr_scan", "android": "https://dc.lft.to/lastmile_qr_scan"}, "is_reserved": 0, "fusion_lat": 0.0, "lon": -77.0277335}, {"lat": 38.92843933333333, "type": "electric_scooter", "is_disabled": 0, "name": "5a52511e5a5e54ecb6f19f0e19735570", "bike_id": "5a52511e5a5e54ecb6f19f0e19735570", "fusion_lon": 0.0, "rental_uris": {"ios": "https://dc.lft.to/lastmile_qr_scan", "android": "https://dc.lft.to/lastmile_qr_scan"}, "is_reserved": 0, "fusion_lat": 0.0, "lon": -77.014092}, {"lat": 38.90275666666667, "type": "electric_scooter", "is_disabled": 0, "name": "840c7cb4b63ad8aeb78ac6bc328c5814", "bike_id": "840c7cb4b63ad8aeb78ac6bc328c5814", "fusion_lon": 0.0, "rental_uris": {"ios": "https://dc.lft.to/lastmile_qr_scan", "android": "https://dc.lft.to/lastmile_qr_scan"}, "is_reserved": 0, "fusion_lat": 0.0, "lon": -77.0268155}, {"lat": 38.894909, "type": "electric_scooter", "is_disabled": 0, "name": "cd85bcb66f2f69d6b829edf034a94169", "bike_id": "cd85bcb66f2f69d6b829edf034a94169", "fusion_lon": 0.0, "rental_uris": {"ios": "https://dc.lft.to/lastmile_qr_scan", "android": "https://dc.lft.to/lastmile_qr_scan"}, "is_reserved": 0, "fusion_lat": 0.0, "lon": -76.995034}, {"lat": 38.891992333333334, "type": "electric_scooter", "is_disabled": 0, "name": "a92b37eaee8c404643d0d99aea79a9d4", "bike_id": "a92b37eaee8c404643d0d99aea79a9d4", "fusion_lon": 0.0, "rental_uris": {"ios": "https://dc.lft.to/lastmile_qr_scan", "android": "https://dc.lft.to/lastmile_qr_scan"}, "is_reserved": 0, "fusion_lat": 0.0, "lon": -77.00293133333334}, {"lat": 38.92228683333333, "type": "electric_scooter", "is_disabled": 0, "name": "9d99e9c10afcc15ab45054acff0ba062", "bike_id": "9d99e9c10afcc15ab45054acff0ba062", "fusion_lon": 0.0, "rental_uris": {"ios": "https://dc.lft.to/lastmile_qr_scan", "android": "https://dc.lft.to/lastmile_qr_scan"}, "is_reserved": 0, "fusion_lat": 0.0, "lon": -76.9752805}, {"lat": 38.90274216666667, "type": "electric_scooter", "is_disabled": 0, "name": "096f51a0ef821203b77a5b11515c1ce2", "bike_id": "096f51a0ef821203b77a5b11515c1ce2", "fusion_lon": 0.0, "rental_uris": {"ios": "https://dc.lft.to/lastmile_qr_scan", "android": "https://dc.lft.to/lastmile_qr_scan"}, "is_reserved": 0, "fusion_lat": 0.0, "lon": -77.04898883333334}, {"lat": 38.915392, "type": "electric_scooter", "is_disabled": 0, "name": "f8963bbeb2ecb961f3c2a8d583dae231", "bike_id": "f8963bbeb2ecb961f3c2a8d583dae231", "fusion_lon": 0.0, "rental_uris": {"ios": "https://dc.lft.to/lastmile_qr_scan", "android": "https://dc.lft.to/lastmile_qr_scan"}, "is_reserved": 0, "fusion_lat": 0.0, "lon": -77.01269933333333}, {"lat": 38.92235733333333, "type": "electric_scooter", "is_disabled": 0, "name": "be6e909da4cb061c6e7f78985c408fa8", "bike_id": "be6e909da4cb061c6e7f78985c408fa8", "fusion_lon": 0.0, "rental_uris": {"ios": "https://dc.lft.to/lastmile_qr_scan", "android": "https://dc.lft.to/lastmile_qr_scan"}, "is_reserved": 0, "fusion_lat": 0.0, "lon": -77.021338}, {"lat": 38.89712316666667, "type": "electric_scooter", "is_disabled": 0, "name": "d1389a6decb16386f0f30eeb03eb649c", "bike_id": "d1389a6decb16386f0f30eeb03eb649c", "fusion_lon": 0.0, "rental_uris": {"ios": "https://dc.lft.to/lastmile_qr_scan", "android": "https://dc.lft.to/lastmile_qr_scan"}, "is_reserved": 0, "fusion_lat": 0.0, "lon": -76.9911825}, {"lat": 38.949756666666666, "type": "electric_scooter", "is_disabled": 0, "name": "919b0db301f32edcb095ac345bc63ae5", "bike_id": "919b0db301f32edcb095ac345bc63ae5", "fusion_lon": 0.0, "rental_uris": {"ios": "https://dc.lft.to/lastmile_qr_scan", "android": "https://dc.lft.to/lastmile_qr_scan"}, "is_reserved": 0, "fusion_lat": 0.0, "lon": -77.024541}, {"lat": 38.90411783333333, "type": "electric_scooter", "is_disabled": 0, "name": "3fb4d6913c6f1b43d1ae3cd6a7ed4f65", "bike_id": "3fb4d6913c6f1b43d1ae3cd6a7ed4f65", "fusion_lon": 0.0, "rental_uris": {"ios": "https://dc.lft.to/lastmile_qr_scan", "android": "https://dc.lft.to/lastmile_qr_scan"}, "is_reserved": 0, "fusion_lat": 0.0, "lon": -77.025863}, {"lat": 38.923097, "type": "electric_scooter", "is_disabled": 0, "name": "6836d6bbcf362ed0f006001684660057", "bike_id": "6836d6bbcf362ed0f006001684660057", "fusion_lon": 0.0, "rental_uris": {"ios": "https://dc.lft.to/lastmile_qr_scan", "android": "https://dc.lft.to/lastmile_qr_scan"}, "is_reserved": 0, "fusion_lat": 0.0, "lon": -77.01951216666667}, {"lat": 38.942879166666664, "type": "electric_scooter", "is_disabled": 0, "name": "9e3661aeee86a3b453cb6468870637f9", "bike_id": "9e3661aeee86a3b453cb6468870637f9", "fusion_lon": 0.0, "rental_uris": {"ios": "https://dc.lft.to/lastmile_qr_scan", "android": "https://dc.lft.to/lastmile_qr_scan"}, "is_reserved": 0, "fusion_lat": 0.0, "lon": -77.0217065}, {"lat": 38.9264585, "type": "electric_scooter", "is_disabled": 0, "name": "f8e6817c420278c189b423b552a76025", "bike_id": "f8e6817c420278c189b423b552a76025", "fusion_lon": 0.0, "rental_uris": {"ios": "https://dc.lft.to/lastmile_qr_scan", "android": "https://dc.lft.to/lastmile_qr_scan"}, "is_reserved": 0, "fusion_lat": 0.0, "lon": -77.02508833333333}, {"lat": 38.9269925, "type": "electric_scooter", "is_disabled": 0, "name": "a014aa7a1e1c91906b35364ca261e9ff", "bike_id": "a014aa7a1e1c91906b35364ca261e9ff", "fusion_lon": 0.0, "rental_uris": {"ios": "https://dc.lft.to/lastmile_qr_scan", "android": "https://dc.lft.to/lastmile_qr_scan"}, "is_reserved": 0, "fusion_lat": 0.0, "lon": -77.02071416666666}, {"lat": 38.892247, "type": "electric_scooter", "is_disabled": 0, "name": "e66c1e365db58d5c5708c08cb8d9c40b", "bike_id": "e66c1e365db58d5c5708c08cb8d9c40b", "fusion_lon": 0.0, "rental_uris": {"ios": "https://dc.lft.to/lastmile_qr_scan", "android": "https://dc.lft.to/lastmile_qr_scan"}, "is_reserved": 0, "fusion_lat": 0.0, "lon": -77.03131666666667}, {"lat": 38.911757, "type": "electric_scooter", "is_disabled": 0, "name": "9c2440abab644f6b148b8b0be8784f7b", "bike_id": "9c2440abab644f6b148b8b0be8784f7b", "fusion_lon": 0.0, "rental_uris": {"ios": "https://dc.lft.to/lastmile_qr_scan", "android": "https://dc.lft.to/lastmile_qr_scan"}, "is_reserved": 0, "fusion_lat": 0.0, "lon": -77.02955733333333}, {"lat": 38.898814333333334, "type": "electric_scooter", "is_disabled": 0, "name": "0f8588c3229d3c936bf564813b4d1dad", "bike_id": "0f8588c3229d3c936bf564813b4d1dad", "fusion_lon": 0.0, "rental_uris": {"ios": "https://dc.lft.to/lastmile_qr_scan", "android": "https://dc.lft.to/lastmile_qr_scan"}, "is_reserved": 0, "fusion_lat": 0.0, "lon": -76.98840616666666}, {"lat": 38.93246933333333, "type": "electric_scooter", "is_disabled": 0, "name": "e8506c245d62dcc2a363021dc7539ceb", "bike_id": "e8506c245d62dcc2a363021dc7539ceb", "fusion_lon": 0.0, "rental_uris": {"ios": "https://dc.lft.to/lastmile_qr_scan", "android": "https://dc.lft.to/lastmile_qr_scan"}, "is_reserved": 0, "fusion_lat": 0.0, "lon": -77.032845}, {"lat": 38.92221966666666, "type": "electric_scooter", "is_disabled": 0, "name": "6f813251ab54ab907e2e8a0b9ac7ee6d", "bike_id": "6f813251ab54ab907e2e8a0b9ac7ee6d", "fusion_lon": 0.0, "rental_uris": {"ios": "https://dc.lft.to/lastmile_qr_scan", "android": "https://dc.lft.to/lastmile_qr_scan"}, "is_reserved": 0, "fusion_lat": 0.0, "lon": -77.021209}, {"lat": 38.85876716666667, "type": "electric_scooter", "is_disabled": 0, "name": "1cfe4ba0284857a6189809b85a64ded4", "bike_id": "1cfe4ba0284857a6189809b85a64ded4", "fusion_lon": 0.0, "rental_uris": {"ios": "https://dc.lft.to/lastmile_qr_scan", "android": "https://dc.lft.to/lastmile_qr_scan"}, "is_reserved": 0, "fusion_lat": 0.0, "lon": -76.9894255}, {"lat": 38.877262333333334, "type": "electric_scooter", "is_disabled": 0, "name": "099ada417ab339f8f80ae3136361c1e1", "bike_id": "099ada417ab339f8f80ae3136361c1e1", "fusion_lon": 0.0, "rental_uris": {"ios": "https://dc.lft.to/lastmile_qr_scan", "android": "https://dc.lft.to/lastmile_qr_scan"}, "is_reserved": 0, "fusion_lat": 0.0, "lon": -77.01763683333333}, {"lat": 38.935306, "type": "electric_scooter", "is_disabled": 0, "name": "0d17e9d294ab36b90f4cbfc9abc68e53", "bike_id": "0d17e9d294ab36b90f4cbfc9abc68e53", "fusion_lon": 0.0, "rental_uris": {"ios": "https://dc.lft.to/lastmile_qr_scan", "android": "https://dc.lft.to/lastmile_qr_scan"}, "is_reserved": 0, "fusion_lat": 0.0, "lon": -77.02351566666667}, {"lat": 38.92053716666667, "type": "electric_scooter", "is_disabled": 0, "name": "e4de5c9b2383e4ac4716217696e93ea0", "bike_id": "e4de5c9b2383e4ac4716217696e93ea0", "fusion_lon": 0.0, "rental_uris": {"ios": "https://dc.lft.to/lastmile_qr_scan", "android": "https://dc.lft.to/lastmile_qr_scan"}, "is_reserved": 0, "fusion_lat": 0.0, "lon": -76.98432516666666}, {"lat": 38.91326433333333, "type": "electric_scooter", "is_disabled": 0, "name": "d4dd4b47c1baa6449b1d0a8b762dabea", "bike_id": "d4dd4b47c1baa6449b1d0a8b762dabea", "fusion_lon": 0.0, "rental_uris": {"ios": "https://dc.lft.to/lastmile_qr_scan", "android": "https://dc.lft.to/lastmile_qr_scan"}, "is_reserved": 0, "fusion_lat": 0.0, "lon": -77.04539983333333}, {"lat": 38.9134215, "type": "electric_scooter", "is_disabled": 0, "name": "d9332c079783f251033e585df3962460", "bike_id": "d9332c079783f251033e585df3962460", "fusion_lon": 0.0, "rental_uris": {"ios": "https://dc.lft.to/lastmile_qr_scan", "android": "https://dc.lft.to/lastmile_qr_scan"}, "is_reserved": 0, "fusion_lat": 0.0, "lon": -77.02042783333333}, {"lat": 38.9005835, "type": "electric_scooter", "is_disabled": 0, "name": "71a99d4d3ae97ec4e03f5d7eda559e3e", "bike_id": "71a99d4d3ae97ec4e03f5d7eda559e3e", "fusion_lon": 0.0, "rental_uris": {"ios": "https://dc.lft.to/lastmile_qr_scan", "android": "https://dc.lft.to/lastmile_qr_scan"}, "is_reserved": 0, "fusion_lat": 0.0, "lon": -76.98487383333334}, {"lat": 38.924197166666666, "type": "electric_scooter", "is_disabled": 0, "name": "a0ebffed6e30771942edf34d760ccc06", "bike_id": "a0ebffed6e30771942edf34d760ccc06", "fusion_lon": 0.0, "rental_uris": {"ios": "https://dc.lft.to/lastmile_qr_scan", "android": "https://dc.lft.to/lastmile_qr_scan"}, "is_reserved": 0, "fusion_lat": 0.0, "lon": -77.02029216666666}, {"lat": 39.04233383333333, "type": "electric_bike", "is_disabled": 0, "name": "b1026399e4c17797b18df559b2c07d46", "bike_id": "b1026399e4c17797b18df559b2c07d46", "fusion_lon": 0.0, "rental_uris": {"ios": "https://dc.lft.to/lastmile_qr_scan", "android": "https://dc.lft.to/lastmile_qr_scan"}, "is_reserved": 0, "fusion_lat": 0.0, "lon": -76.9973835}, {"lat": 38.9296175, "type": "electric_scooter", "is_disabled": 0, "name": "556b04835cbc76f9dc378e4869bf37a1", "bike_id": "556b04835cbc76f9dc378e4869bf37a1", "fusion_lon": 0.0, "rental_uris": {"ios": "https://dc.lft.to/lastmile_qr_scan", "android": "https://dc.lft.to/lastmile_qr_scan"}, "is_reserved": 0, "fusion_lat": 0.0, "lon": -77.04115233333333}, {"lat": 38.9050425, "type": "electric_scooter", "is_disabled": 0, "name": "9a974b8f8b6b1dd2a3fe4d5915f0aa37", "bike_id": "9a974b8f8b6b1dd2a3fe4d5915f0aa37", "fusion_lon": 0.0, "rental_uris": {"ios": "https://dc.lft.to/lastmile_qr_scan", "android": "https://dc.lft.to/lastmile_qr_scan"}, "is_reserved": 0, "fusion_lat": 0.0, "lon": -77.05448583333333}, {"lat": 38.919380333333336, "type": "electric_scooter", "is_disabled": 0, "name": "b7a12a43990e28080eecc3a818f03f98", "bike_id": "b7a12a43990e28080eecc3a818f03f98", "fusion_lon": 0.0, "rental_uris": {"ios": "https://dc.lft.to/lastmile_qr_scan", "android": "https://dc.lft.to/lastmile_qr_scan"}, "is_reserved": 0, "fusion_lat": 0.0, "lon": -77.0180165}, {"lat": 38.92117866666667, "type": "electric_scooter", "is_disabled": 0, "name": "5b2c7d49f80b8f9b8d1ce8f0172a67ae", "bike_id": "5b2c7d49f80b8f9b8d1ce8f0172a67ae", "fusion_lon": 0.0, "rental_uris": {"ios": "https://dc.lft.to/lastmile_qr_scan", "android": "https://dc.lft.to/lastmile_qr_scan"}, "is_reserved": 0, "fusion_lat": 0.0, "lon": -77.02070116666667}, {"lat": 38.973371, "type": "electric_bike", "is_disabled": 0, "name": "738f991b8d69b013eec560f8804900ea", "bike_id": "738f991b8d69b013eec560f8804900ea", "fusion_lon": 0.0, "rental_uris": {"ios": "https://dc.lft.to/lastmile_qr_scan", "android": "https://dc.lft.to/lastmile_qr_scan"}, "is_reserved": 0, "fusion_lat": 0.0, "lon": -76.9958875}, {"lat": 38.8544685, "type": "electric_bike", "is_disabled": 0, "name": "7573dc12cae0b68c1fc6084380f2f033", "bike_id": "7573dc12cae0b68c1fc6084380f2f033", "fusion_lon": 0.0, "rental_uris": {"ios": "https://dc.lft.to/lastmile_qr_scan", "android": "https://dc.lft.to/lastmile_qr_scan"}, "is_reserved": 0, "fusion_lat": 0.0, "lon": -76.98606583333333}, {"lat": 38.90407316666667, "type": "electric_scooter", "is_disabled": 0, "name": "ce0efeba8d2741c85cc5cba4ddd0bfaf", "bike_id": "ce0efeba8d2741c85cc5cba4ddd0bfaf", "fusion_lon": 0.0, "rental_uris": {"ios": "https://dc.lft.to/lastmile_qr_scan", "android": "https://dc.lft.to/lastmile_qr_scan"}, "is_reserved": 0, "fusion_lat": 0.0, "lon": -76.97329766666667}, {"lat": 38.8946235, "type": "electric_scooter", "is_disabled": 0, "name": "be05b579929189b70a30490ee5219952", "bike_id": "be05b579929189b70a30490ee5219952", "fusion_lon": 0.0, "rental_uris": {"ios": "https://dc.lft.to/lastmile_qr_scan", "android": "https://dc.lft.to/lastmile_qr_scan"}, "is_reserved": 0, "fusion_lat": 0.0, "lon": -77.02666883333333}, {"lat": 38.91715933333333, "type": "electric_scooter", "is_disabled": 0, "name": "b0c4a2051a3cb806f5229fb02e999cd6", "bike_id": "b0c4a2051a3cb806f5229fb02e999cd6", "fusion_lon": 0.0, "rental_uris": {"ios": "https://dc.lft.to/lastmile_qr_scan", "android": "https://dc.lft.to/lastmile_qr_scan"}, "is_reserved": 0, "fusion_lat": 0.0, "lon": -77.03859833333334}, {"lat": 38.92478083333334, "type": "electric_scooter", "is_disabled": 0, "name": "3360ae93f3a813668b46111ea4ce1dc5", "bike_id": "3360ae93f3a813668b46111ea4ce1dc5", "fusion_lon": 0.0, "rental_uris": {"ios": "https://dc.lft.to/lastmile_qr_scan", "android": "https://dc.lft.to/lastmile_qr_scan"}, "is_reserved": 0, "fusion_lat": 0.0, "lon": -77.0347885}, {"lat": 38.88026283333333, "type": "electric_scooter", "is_disabled": 0, "name": "bcf3f64102f52823fd1f467d2bbc524b", "bike_id": "bcf3f64102f52823fd1f467d2bbc524b", "fusion_lon": 0.0, "rental_uris": {"ios": "https://dc.lft.to/lastmile_qr_scan", "android": "https://dc.lft.to/lastmile_qr_scan"}, "is_reserved": 0, "fusion_lat": 0.0, "lon": -77.0231755}, {"lat": 38.9240205, "type": "electric_scooter", "is_disabled": 0, "name": "fa2e58193e1bd7b8fb179cad28d5db96", "bike_id": "fa2e58193e1bd7b8fb179cad28d5db96", "fusion_lon": 0.0, "rental_uris": {"ios": "https://dc.lft.to/lastmile_qr_scan", "android": "https://dc.lft.to/lastmile_qr_scan"}, "is_reserved": 0, "fusion_lat": 0.0, "lon": -77.0269715}, {"lat": 38.917261333333336, "type": "electric_scooter", "is_disabled": 0, "name": "c39d16c7590359a19b47c9c542d3bf36", "bike_id": "c39d16c7590359a19b47c9c542d3bf36", "fusion_lon": 0.0, "rental_uris": {"ios": "https://dc.lft.to/lastmile_qr_scan", "android": "https://dc.lft.to/lastmile_qr_scan"}, "is_reserved": 0, "fusion_lat": 0.0, "lon": -77.029725}, {"lat": 38.84589016666666, "type": "electric_bike", "is_disabled": 0, "name": "407efdc47f3b5a1196de266713f6ccb7", "bike_id": "407efdc47f3b5a1196de266713f6ccb7", "fusion_lon": 0.0, "rental_uris": {"ios": "https://dc.lft.to/lastmile_qr_scan", "android": "https://dc.lft.to/lastmile_qr_scan"}, "is_reserved": 0, "fusion_lat": 0.0, "lon": -76.9697605}, {"lat": 38.93458, "type": "electric_scooter", "is_disabled": 0, "name": "891d5dc5e3aada1fb48c0721a7a6adc9", "bike_id": "891d5dc5e3aada1fb48c0721a7a6adc9", "fusion_lon": 0.0, "rental_uris": {"ios": "https://dc.lft.to/lastmile_qr_scan", "android": "https://dc.lft.to/lastmile_qr_scan"}, "is_reserved": 0, "fusion_lat": 0.0, "lon": -76.96446366666666}, {"lat": 38.90251716666667, "type": "electric_scooter", "is_disabled": 0, "name": "0da105daba7f5a05a1ca740105e3436b", "bike_id": "0da105daba7f5a05a1ca740105e3436b", "fusion_lon": 0.0, "rental_uris": {"ios": "https://dc.lft.to/lastmile_qr_scan", "android": "https://dc.lft.to/lastmile_qr_scan"}, "is_reserved": 0, "fusion_lat": 0.0, "lon": -76.9847145}, {"lat": 38.906147833333335, "type": "electric_scooter", "is_disabled": 0, "name": "4a9f0cb6af0dee51536f659cc82ecf4f", "bike_id": "4a9f0cb6af0dee51536f659cc82ecf4f", "fusion_lon": 0.0, "rental_uris": {"ios": "https://dc.lft.to/lastmile_qr_scan", "android": "https://dc.lft.to/lastmile_qr_scan"}, "is_reserved": 0, "fusion_lat": 0.0, "lon": -77.04331383333333}, {"lat": 38.9039385, "type": "electric_scooter", "is_disabled": 0, "name": "7108bb6091b35f706c08de8d1051d7d2", "bike_id": "7108bb6091b35f706c08de8d1051d7d2", "fusion_lon": 0.0, "rental_uris": {"ios": "https://dc.lft.to/lastmile_qr_scan", "android": "https://dc.lft.to/lastmile_qr_scan"}, "is_reserved": 0, "fusion_lat": 0.0, "lon": -76.97366266666667}, {"lat": 38.878658, "type": "electric_scooter", "is_disabled": 0, "name": "43f8c3b3dcfa5e06423816d3e839fa88", "bike_id": "43f8c3b3dcfa5e06423816d3e839fa88", "fusion_lon": 0.0, "rental_uris": {"ios": "https://dc.lft.to/lastmile_qr_scan", "android": "https://dc.lft.to/lastmile_qr_scan"}, "is_reserved": 0, "fusion_lat": 0.0, "lon": -76.99660083333333}, {"lat": 38.872865833333336, "type": "electric_scooter", "is_disabled": 0, "name": "c05a3ea6a23f43875dfdeea13b856c28", "bike_id": "c05a3ea6a23f43875dfdeea13b856c28", "fusion_lon": 0.0, "rental_uris": {"ios": "https://dc.lft.to/lastmile_qr_scan", "android": "https://dc.lft.to/lastmile_qr_scan"}, "is_reserved": 0, "fusion_lat": 0.0, "lon": -77.00985416666667}, {"lat": 38.9282, "type": "electric_scooter", "is_disabled": 0, "name": "82b52c204adae2333a628512c7ce67c3", "bike_id": "82b52c204adae2333a628512c7ce67c3", "fusion_lon": 0.0, "rental_uris": {"ios": "https://dc.lft.to/lastmile_qr_scan", "android": "https://dc.lft.to/lastmile_qr_scan"}, "is_reserved": 0, "fusion_lat": 0.0, "lon": -77.02296983333333}, {"lat": 38.8752385, "type": "electric_scooter", "is_disabled": 0, "name": "dee62c84862cf1fb2a344377f474c9ca", "bike_id": "dee62c84862cf1fb2a344377f474c9ca", "fusion_lon": 0.0, "rental_uris": {"ios": "https://dc.lft.to/lastmile_qr_scan", "android": "https://dc.lft.to/lastmile_qr_scan"}, "is_reserved": 0, "fusion_lat": 0.0, "lon": -77.012313}, {"lat": 38.94493883333333, "type": "electric_scooter", "is_disabled": 0, "name": "9aea57071d427cb85165e8def34d366d", "bike_id": "9aea57071d427cb85165e8def34d366d", "fusion_lon": 0.0, "rental_uris": {"ios": "https://dc.lft.to/lastmile_qr_scan", "android": "https://dc.lft.to/lastmile_qr_scan"}, "is_reserved": 0, "fusion_lat": 0.0, "lon": -77.02619416666667}, {"lat": 38.925430666666664, "type": "electric_scooter", "is_disabled": 0, "name": "84f93113d5ea4f5ac5aa890ffacef635", "bike_id": "84f93113d5ea4f5ac5aa890ffacef635", "fusion_lon": 0.0, "rental_uris": {"ios": "https://dc.lft.to/lastmile_qr_scan", "android": "https://dc.lft.to/lastmile_qr_scan"}, "is_reserved": 0, "fusion_lat": 0.0, "lon": -77.00067366666667}, {"lat": 38.9186485, "type": "electric_scooter", "is_disabled": 0, "name": "5a8f1b29a7d8bdf23e498504939e372c", "bike_id": "5a8f1b29a7d8bdf23e498504939e372c", "fusion_lon": 0.0, "rental_uris": {"ios": "https://dc.lft.to/lastmile_qr_scan", "android": "https://dc.lft.to/lastmile_qr_scan"}, "is_reserved": 0, "fusion_lat": 0.0, "lon": -76.96562266666666}, {"lat": 38.929916, "type": "electric_scooter", "is_disabled": 0, "name": "187fd1bbd4d2238b416bbbac29fd9c0c", "bike_id": "187fd1bbd4d2238b416bbbac29fd9c0c", "fusion_lon": 0.0, "rental_uris": {"ios": "https://dc.lft.to/lastmile_qr_scan", "android": "https://dc.lft.to/lastmile_qr_scan"}, "is_reserved": 0, "fusion_lat": 0.0, "lon": -77.01205533333334}, {"lat": 38.919145666666665, "type": "electric_scooter", "is_disabled": 0, "name": "85b373f85b4bb893a2c65563243cf142", "bike_id": "85b373f85b4bb893a2c65563243cf142", "fusion_lon": 0.0, "rental_uris": {"ios": "https://dc.lft.to/lastmile_qr_scan", "android": "https://dc.lft.to/lastmile_qr_scan"}, "is_reserved": 0, "fusion_lat": 0.0, "lon": -77.0294755}, {"lat": 38.916117, "type": "electric_scooter", "is_disabled": 0, "name": "77ef6e81dadd20f176881bf4efe167f7", "bike_id": "77ef6e81dadd20f176881bf4efe167f7", "fusion_lon": 0.0, "rental_uris": {"ios": "https://dc.lft.to/lastmile_qr_scan", "android": "https://dc.lft.to/lastmile_qr_scan"}, "is_reserved": 0, "fusion_lat": 0.0, "lon": -77.03940466666667}, {"lat": 38.995053166666665, "type": "electric_bike", "is_disabled": 0, "name": "0299b100296c03157b3f56dda4cf4438", "bike_id": "0299b100296c03157b3f56dda4cf4438", "fusion_lon": 0.0, "rental_uris": {"ios": "https://dc.lft.to/lastmile_qr_scan", "android": "https://dc.lft.to/lastmile_qr_scan"}, "is_reserved": 0, "fusion_lat": 0.0, "lon": -77.02895416666667}, {"lat": 38.903674, "type": "electric_scooter", "is_disabled": 0, "name": "51ba61addfc58e7ddb7ea75083c22573", "bike_id": "51ba61addfc58e7ddb7ea75083c22573", "fusion_lon": 0.0, "rental_uris": {"ios": "https://dc.lft.to/lastmile_qr_scan", "android": "https://dc.lft.to/lastmile_qr_scan"}, "is_reserved": 0, "fusion_lat": 0.0, "lon": -77.038552}, {"lat": 38.900455666666666, "type": "electric_scooter", "is_disabled": 0, "name": "818d6cf26834c1e40650e0b852121a2d", "bike_id": "818d6cf26834c1e40650e0b852121a2d", "fusion_lon": 0.0, "rental_uris": {"ios": "https://dc.lft.to/lastmile_qr_scan", "android": "https://dc.lft.to/lastmile_qr_scan"}, "is_reserved": 0, "fusion_lat": 0.0, "lon": -77.00750633333334}, {"lat": 38.89727766666667, "type": "electric_scooter", "is_disabled": 0, "name": "6fa33250f510fefc8eb7fd881331d128", "bike_id": "6fa33250f510fefc8eb7fd881331d128", "fusion_lon": 0.0, "rental_uris": {"ios": "https://dc.lft.to/lastmile_qr_scan", "android": "https://dc.lft.to/lastmile_qr_scan"}, "is_reserved": 0, "fusion_lat": 0.0, "lon": -77.03213266666667}, {"lat": 38.9242115, "type": "electric_scooter", "is_disabled": 0, "name": "76970ac498d7626686d9220191b3965a", "bike_id": "76970ac498d7626686d9220191b3965a", "fusion_lon": 0.0, "rental_uris": {"ios": "https://dc.lft.to/lastmile_qr_scan", "android": "https://dc.lft.to/lastmile_qr_scan"}, "is_reserved": 0, "fusion_lat": 0.0, "lon": -77.02006383333334}, {"lat": 38.90018116666667, "type": "electric_scooter", "is_disabled": 0, "name": "59efeae9dc46d3de5e04d3023344c768", "bike_id": "59efeae9dc46d3de5e04d3023344c768", "fusion_lon": 0.0, "rental_uris": {"ios": "https://dc.lft.to/lastmile_qr_scan", "android": "https://dc.lft.to/lastmile_qr_scan"}, "is_reserved": 0, "fusion_lat": 0.0, "lon": -77.04663983333333}, {"lat": 38.919669166666665, "type": "electric_scooter", "is_disabled": 0, "name": "5753f960ad0a073d1d6e79dd0332509c", "bike_id": "5753f960ad0a073d1d6e79dd0332509c", "fusion_lon": 0.0, "rental_uris": {"ios": "https://dc.lft.to/lastmile_qr_scan", "android": "https://dc.lft.to/lastmile_qr_scan"}, "is_reserved": 0, "fusion_lat": 0.0, "lon": -77.0712175}, {"lat": 38.921586833333336, "type": "electric_scooter", "is_disabled": 0, "name": "28633ebdbd01b91941693ffcca1a7195", "bike_id": "28633ebdbd01b91941693ffcca1a7195", "fusion_lon": 0.0, "rental_uris": {"ios": "https://dc.lft.to/lastmile_qr_scan", "android": "https://dc.lft.to/lastmile_qr_scan"}, "is_reserved": 0, "fusion_lat": 0.0, "lon": -77.03392783333334}, {"lat": 38.919285, "type": "electric_scooter", "is_disabled": 0, "name": "6a741197b11fabe0c2e678825a0da320", "bike_id": "6a741197b11fabe0c2e678825a0da320", "fusion_lon": 0.0, "rental_uris": {"ios": "https://dc.lft.to/lastmile_qr_scan", "android": "https://dc.lft.to/lastmile_qr_scan"}, "is_reserved": 0, "fusion_lat": 0.0, "lon": -77.03489866666666}, {"lat": 38.89553766666667, "type": "electric_scooter", "is_disabled": 0, "name": "5f71fcb0541d646023d60b9871f69ec8", "bike_id": "5f71fcb0541d646023d60b9871f69ec8", "fusion_lon": 0.0, "rental_uris": {"ios": "https://dc.lft.to/lastmile_qr_scan", "android": "https://dc.lft.to/lastmile_qr_scan"}, "is_reserved": 0, "fusion_lat": 0.0, "lon": -77.04148416666666}, {"lat": 38.92338733333333, "type": "electric_scooter", "is_disabled": 0, "name": "ac8d6c184b4209dc868c20f84376a0a6", "bike_id": "ac8d6c184b4209dc868c20f84376a0a6", "fusion_lon": 0.0, "rental_uris": {"ios": "https://dc.lft.to/lastmile_qr_scan", "android": "https://dc.lft.to/lastmile_qr_scan"}, "is_reserved": 0, "fusion_lat": 0.0, "lon": -77.01901466666666}, {"lat": 38.906544, "type": "electric_scooter", "is_disabled": 0, "name": "7e1fdd6130a397bc58316988eb6ae62c", "bike_id": "7e1fdd6130a397bc58316988eb6ae62c", "fusion_lon": 0.0, "rental_uris": {"ios": "https://dc.lft.to/lastmile_qr_scan", "android": "https://dc.lft.to/lastmile_qr_scan"}, "is_reserved": 0, "fusion_lat": 0.0, "lon": -77.04498816666667}, {"lat": 38.884763, "type": "electric_scooter", "is_disabled": 0, "name": "a74419777c704bb49e4e4f6a0367a861", "bike_id": "a74419777c704bb49e4e4f6a0367a861", "fusion_lon": 0.0, "rental_uris": {"ios": "https://dc.lft.to/lastmile_qr_scan", "android": "https://dc.lft.to/lastmile_qr_scan"}, "is_reserved": 0, "fusion_lat": 0.0, "lon": -77.02643433333333},