{"data": {"bikes": [{"fusion_lat": 0.0, "fusion_lon": 0.0, "rental_uris": {"android": "https://dc.lft.to/lastmile_qr_scan", "ios": "https://dc.lft.to/lastmile_qr_scan"}, "lon": -77.0318925, "name": "d29f9eae404914776c93864ba737d71a", "is_disabled": 0, "is_reserved": 0, "bike_id": "d29f9eae404914776c93864ba737d71a", "lat": 38.913266166666666, "type": "electric_scooter"}, {"fusion_lat": 0.0, "fusion_lon": 0.0, "rental_uris": {"android": "https://dc.lft.to/lastmile_qr_scan", "ios": "https://dc.lft.to/lastmile_qr_scan"}, "lon": -77.03291583333333, "name": "104a35999d3d33e0bc2d58e37ec8b840", "is_disabled": 0, "is_reserved": 0, "bike_id": "104a35999d3d33e0bc2d58e37ec8b840", "lat": 38.93439466666667, "type": "electric_scooter"}, {"fusion_lat": 0.0, "fusion_lon": 0.0, "rental_uris": {"android": "https://dc.lft.to/lastmile_qr_scan", "ios": "https://dc.lft.to/lastmile_qr_scan"}, "lon": -77.02167733333333, "name": "0f6e3dc55410115471787ada6c67bcd7", "is_disabled": 0, "is_reserved": 0, "bike_id": "0f6e3dc55410115471787ada6c67bcd7", "lat": 38.89721733333333, "type": "electric_scooter"}, {"fusion_lat": 0.0, "fusion_lon": 0.0, "rental_uris": {"android": "https://dc.lft.to/lastmile_qr_scan", "ios": "https://dc.lft.to/lastmile_qr_scan"}, "lon": -77.02406283333333, "name": "5ccec3dac80c66df0e960585178bf502", "is_disabled": 0, "is_reserved": 0, "bike_id": "5ccec3dac80c66df0e960585178bf502", "lat": 38.941842333333334, "type": "electric_scooter"}, {"fusion_lat": 0.0, "fusion_lon": 0.0, "rental_uris": {"android": "https://dc.lft.to/lastmile_qr_scan", "ios": "https://dc.lft.to/lastmile_qr_scan"}, "lon": -77.01641433333333, "name": "bea4cc6a64254ca00f437ad0a8114f9e", "is_disabled": 0, "is_reserved": 0, "bike_id": "bea4cc6a64254ca00f437ad0a8114f9e", "lat": 38.88121066666667, "type": "electric_scooter"}, {"fusion_lat": 0.0, "fusion_lon": 0.0, "rental_uris": {"android": "https://dc.lft.to/lastmile_qr_scan", "ios": "https://dc.lft.to/lastmile_qr_scan"}, "lon": -77.04158616666666, "name": "68ce1c36fa4279b99a16c4d163cfe971", "is_disabled": 0, "is_reserved": 0, "bike_id": "68ce1c36fa4279b99a16c4d163cfe971", "lat": 38.895526833333335, "type": "electric_scooter"}, {"fusion_lat": 0.0, "fusion_lon": 0.0, "rental_uris": {"android": "https://dc.lft.to/lastmile_qr_scan", "ios": "https://dc.lft.to/lastmile_qr_scan"}, "lon": -77.0517845, "name": "b65a994b408add3965cd4f1d8e0e07c5", "is_disabled": 0, "is_reserved": 0, "bike_id": "b65a994b408add3965cd4f1d8e0e07c5", "lat": 38.92428783333333, "type": "electric_scooter"}, {"fusion_lat": 0.0, "fusion_lon": 0.0, "rental_uris": {"android": "https://dc.lft.to/lastmile_qr_scan", "ios": "https://dc.lft.to/lastmile_qr_scan"}, "lon": -77.0395745, "name": "21fe3bd2ba6af7a1fa3ab65cd52d0ffc", "is_disabled": 0, "is_reserved": 0, "bike_id": "21fe3bd2ba6af7a1fa3ab65cd52d0ffc", "lat": 38.89858266666667, "type": "electric_scooter"}, {"fusion_lat": 0.0, "fusion_lon": 0.0, "rental_uris": {"android": "https://dc.lft.to/lastmile_qr_scan", "ios": "https://dc.lft.to/lastmile_qr_scan"}, "lon": -77.02690883333334, "name": "e4b3cc571a1733038da597386adcb7bf", "is_disabled": 0, "is_reserved": 0, "bike_id": "e4b3cc571a1733038da597386adcb7bf", "lat": 38.906846333333334, "type": "electric_scooter"}, {"fusion_lat": 0.0, "fusion_lon": 0.0, "rental_uris": {"android": "https://dc.lft.to/lastmile_qr_scan", "ios": "https://dc.lft.to/lastmile_qr_scan"}, "lon": -77.02726516666667, "name": "8968d3e3a6a22d7ffb6bee7d7e9cbbbf", "is_disabled": 0, "is_reserved": 0, "bike_id": "8968d3e3a6a22d7ffb6bee7d7e9cbbbf", "lat": 38.89812933333333, "type": "electric_scooter"}, {"fusion_lat": 0.0, "fusion_lon": 0.0, "rental_uris": {"android": "https://dc.lft.to/lastmile_qr_scan", "ios": "https://dc.lft.to/lastmile_qr_scan"}, "lon": -77.02650716666666, "name": "3be04017285fdb0022f0c7d259f775d3", "is_disabled": 0, "is_reserved": 0, "bike_id": "3be04017285fdb0022f0c7d259f775d3", "lat": 38.99424616666667, "type": "electric_bike"}, {"fusion_lat": 0.0, "fusion_lon": 0.0, "rental_uris": {"android": "https://dc.lft.to/lastmile_qr_scan", "ios": "https://dc.lft.to/lastmile_qr_scan"}, "lon": -77.0295865, "name": "471f40f2cbd386712f63983d03961869", "is_disabled": 0, "is_reserved": 0, "bike_id": "471f40f2cbd386712f63983d03961869", "lat": 38.90665116666667, "type": "electric_scooter"}, {"fusion_lat": 0.0, "fusion_lon": 0.0, "rental_uris": {"android": "https://dc.lft.to/lastmile_qr_scan", "ios": "https://dc.lft.to/lastmile_qr_scan"}, "lon": -76.94254883333333, "name": "fb0a815dce1b48463ead0b5328faa520", "is_disabled": 0, "is_reserved": 0, "bike_id": "fb0a815dce1b48463ead0b5328faa520", "lat": 38.89845716666667, "type": "electric_scooter"}, {"fusion_lat": 0.0, "fusion_lon": 0.0, "rental_uris": {"android": "https://dc.lft.to/lastmile_qr_scan", "ios": "https://dc.lft.to/lastmile_qr_scan"}, "lon": -77.04630433333334, "name": "de6d43971b41f4dd209f44fbaf462a3b", "is_disabled": 0, "is_reserved": 0, "bike_id": "de6d43971b41f4dd209f44fbaf462a3b", "lat": 38.918019666666666, "type": "electric_scooter"}, {"fusion_lat": 0.0, "fusion_lon": 0.0, "rental_uris": {"android": "https://dc.lft.to/lastmile_qr_scan", "ios": "https://dc.lft.to/lastmile_qr_scan"}, "lon": -77.00071933333334, "name": "d94b1511ed11533a0774ddb25075972a", "is_disabled": 0, "is_reserved": 0, "bike_id": "d94b1511ed11533a0774ddb25075972a", "lat": 38.886762166666664, "type": "electric_scooter"}, {"fusion_lat": 0.0, "fusion_lon": 0.0, "rental_uris": {"android": "https://dc.lft.to/lastmile_qr_scan", "ios": "https://dc.lft.to/lastmile_qr_scan"}, "lon": -76.92681133333333, "name": "fc4be524378fb3b14ccad450eb0898cd", "is_disabled": 0, "is_reserved": 0, "bike_id": "fc4be524378fb3b14ccad450eb0898cd", "lat": 38.8884885, "type": "electric_scooter"}, {"fusion_lat": 0.0, "fusion_lon": 0.0, "rental_uris": {"android": "https://dc.lft.to/lastmile_qr_scan", "ios": "https://dc.lft.to/lastmile_qr_scan"}, "lon": -76.99146833333333, "name": "e949a56651d7c800ca4abc62bee8c7ab", "is_disabled": 0, "is_reserved": 0, "bike_id": "e949a56651d7c800ca4abc62bee8c7ab", "lat": 38.88528383333333, "type": "electric_scooter"}, {"fusion_lat": 0.0, "fusion_lon": 0.0, "rental_uris": {"android": "https://dc.lft.to/lastmile_qr_scan", "ios": "https://dc.lft.to/lastmile_qr_scan"}, "lon": -77.008943, "name": "b60ed9686371f2ab16a6f52900cb5011", "is_disabled": 0, "is_reserved": 0, "bike_id": "b60ed9686371f2ab16a6f52900cb5011", "lat": 38.87672283333333, "type": "electric_scooter"}, {"fusion_lat": 0.0, "fusion_lon": 0.0, "rental_uris": {"android": "https://dc.lft.to/lastmile_qr_scan", "ios": "https://dc.lft.to/lastmile_qr_scan"}, "lon": -77.02787016666667, "name": "55d8ef3cf4cf957fdabfca4bbc7ba7ed", "is_disabled": 0, "is_reserved": 0, "bike_id": "55d8ef3cf4cf957fdabfca4bbc7ba7ed", "lat": 38.92762366666667, "type": "electric_scooter"}, {"fusion_lat": 0.0, "fusion_lon": 0.0, "rental_uris": {"android": "https://dc.lft.to/lastmile_qr_scan", "ios": "https://dc.lft.to/lastmile_qr_scan"}, "lon": -77.02975616666667, "name": "4abdc55ef5f7c469c06f9174c1dc2df3", "is_disabled": 0, "is_reserved": 0, "bike_id": "4abdc55ef5f7c469c06f9174c1dc2df3", "lat": 38.91682316666667, "type": "electric_scooter"}, {"fusion_lat": 0.0, "fusion_lon": 0.0, "rental_uris": {"android": "https://dc.lft.to/lastmile_qr_scan", "ios": "https://dc.lft.to/lastmile_qr_scan"}, "lon": -77.00311, "name": "d837bbd84f968d7375071b259570937e", "is_disabled": 0, "is_reserved": 0, "bike_id": "d837bbd84f968d7375071b259570937e", "lat": 38.919252, "type": "electric_scooter"}, {"fusion_lat": 0.0, "fusion_lon": 0.0, "rental_uris": {"android": "https://dc.lft.to/lastmile_qr_scan", "ios": "https://dc.lft.to/lastmile_qr_scan"}, "lon": -77.031856, "name": "55e144c300f0f85882807a23723c4928", "is_disabled": 0, "is_reserved": 0, "bike_id": "55e144c300f0f85882807a23723c4928", "lat": 38.90040316666666, "type": "electric_scooter"}, {"fusion_lat": 0.0, "fusion_lon": 0.0, "rental_uris": {"android": "https://dc.lft.to/lastmile_qr_scan", "ios": "https://dc.lft.to/lastmile_qr_scan"}, "lon": -76.96985983333333, "name": "8b85f95fbbde856351bc1fbb7370f0ea", "is_disabled": 0, "is_reserved": 0, "bike_id": "8b85f95fbbde856351bc1fbb7370f0ea", "lat": 38.8786415, "type": "electric_scooter"}, {"fusion_lat": 0.0, "fusion_lon": 0.0, "rental_uris": {"android": "https://dc.lft.to/lastmile_qr_scan", "ios": "https://dc.lft.to/lastmile_qr_scan"}, "lon": -77.017661, "name": "61bb4ed7416b8f467edd5c018f2f9021", "is_disabled": 0, "is_reserved": 0, "bike_id": "61bb4ed7416b8f467edd5c018f2f9021", "lat": 38.876985, "type": "electric_scooter"}, {"fusion_lat": 0.0, "fusion_lon": 0.0, "rental_uris": {"android": "https://dc.lft.to/lastmile_qr_scan", "ios": "https://dc.lft.to/lastmile_qr_scan"}, "lon": -77.03174033333333, "name": "98e2a312e6446a5961adb7f3de12103f", "is_disabled": 0, "is_reserved": 0, "bike_id": "98e2a312e6446a5961adb7f3de12103f", "lat": 38.919311, "type": "electric_scooter"}, {"fusion_lat": 0.0, "fusion_lon": 0.0, "rental_uris": {"android": "https://dc.lft.to/lastmile_qr_scan", "ios": "https://dc.lft.to/lastmile_qr_scan"}, "lon": -77.0435385, "name": "139c7110b844108655aedb996785ff1a", "is_disabled": 0, "is_reserved": 0, "bike_id": "139c7110b844108655aedb996785ff1a", "lat": 38.921389166666664, "type": "electric_scooter"}, {"fusion_lat": 0.0, "fusion_lon": 0.0, "rental_uris": {"android": "https://dc.lft.to/lastmile_qr_scan", "ios": "https://dc.lft.to/lastmile_qr_scan"}, "lon": -77.05044666666667, "name": "300eeb1d445629abe580ff577c9a139d", "is_disabled": 0, "is_reserved": 0, "bike_id": "300eeb1d445629abe580ff577c9a139d", "lat": 38.92342216666667, "type": "electric_scooter"}, {"fusion_lat": 0.0, "fusion_lon": 0.0, "rental_uris": {"android": "https://dc.lft.to/lastmile_qr_scan", "ios": "https://dc.lft.to/lastmile_qr_scan"}, "lon": -77.04498233333334, "name": "98585ed2a2ab34c372c816a082857642", "is_disabled": 0, "is_reserved": 0, "bike_id": "98585ed2a2ab34c372c816a082857642", "lat": 38.899617166666665, "type": "electric_scooter"}, {"fusion_lat": 0.0, "fusion_lon": 0.0, "rental_uris": {"android": "https://dc.lft.to/lastmile_qr_scan", "ios": "https://dc.lft.to/lastmile_qr_scan"}, "lon": -77.10790616666667, "name": "14e311e5462da93d5739b07465ba93f4", "is_disabled": 0, "is_reserved": 0, "bike_id": "14e311e5462da93d5739b07465ba93f4", "lat": 38.85248333333333, "type": "electric_bike"}, {"fusion_lat": 0.0, "fusion_lon": 0.0, "rental_uris": {"android": "https://dc.lft.to/lastmile_qr_scan", "ios": "https://dc.lft.to/lastmile_qr_scan"}, "lon": -77.03732633333334, "name": "e1e2cf3861cce06d2ce0a4cc24562a92", "is_disabled": 0, "is_reserved": 0, "bike_id": "e1e2cf3861cce06d2ce0a4cc24562a92", "lat": 38.928754166666664, "type": "electric_scooter"}, {"fusion_lat": 0.0, "fusion_lon": 0.0, "rental_uris": {"android": "https://dc.lft.to/lastmile_qr_scan", "ios": "https://dc.lft.to/lastmile_qr_scan"}, "lon": -76.991322, "name": "86e6b97f2f7ba4e5be06344d2ed5c99e", "is_disabled": 0, "is_reserved": 0, "bike_id": "86e6b97f2f7ba4e5be06344d2ed5c99e", "lat": 38.84642016666667, "type": "electric_scooter"}, {"fusion_lat": 0.0, "fusion_lon": 0.0, "rental_uris": {"android": "https://dc.lft.to/lastmile_qr_scan", "ios": "https://dc.lft.to/lastmile_qr_scan"}, "lon": -77.02355283333333, "name": "d54202a37e8de58d3295e70da9b5bf8e", "is_disabled": 0, "is_reserved": 0, "bike_id": "d54202a37e8de58d3295e70da9b5bf8e", "lat": 38.935349333333335, "type": "electric_scooter"}, {"fusion_lat": 0.0, "fusion_lon": 0.0, "rental_uris": {"android": "https://dc.lft.to/lastmile_qr_scan", "ios": "https://dc.lft.to/lastmile_qr_scan"}, "lon": -76.98545216666666, "name": "a4a66d9f14e90f026f650bae31cf8960", "is_disabled": 0, "is_reserved": 0, "bike_id": "a4a66d9f14e90f026f650bae31cf8960", "lat": 38.8668895, "type": "electric_scooter"}, {"fusion_lat": 0.0, "fusion_lon": 0.0, "rental_uris": {"android": "https://dc.lft.to/lastmile_qr_scan", "ios": "https://dc.lft.to/lastmile_qr_scan"}, "lon": -77.02161333333333, "name": "f5915f58e8e5dacd153791febcc5cd6e", "is_disabled": 0, "is_reserved": 0, "bike_id": "f5915f58e8e5dacd153791febcc5cd6e", "lat": 38.92614316666667, "type": "electric_scooter"}, {"fusion_lat": 0.0, "fusion_lon": 0.0, "rental_uris": {"android": "https://dc.lft.to/lastmile_qr_scan", "ios": "https://dc.lft.to/lastmile_qr_scan"}, "lon": -76.99516633333333, "name": "f857fcbe5ba9c01c5f4501509a090e1c", "is_disabled": 0, "is_reserved": 0, "bike_id": "f857fcbe5ba9c01c5f4501509a090e1c", "lat": 38.8217755, "type": "electric_bike"}, {"fusion_lat": 0.0, "fusion_lon": 0.0, "rental_uris": {"android": "https://dc.lft.to/lastmile_qr_scan", "ios": "https://dc.lft.to/lastmile_qr_scan"}, "lon": -77.047533, "name": "a9c90cf823b7ba97320f0f423cc7b109", "is_disabled": 0, "is_reserved": 0, "bike_id": "a9c90cf823b7ba97320f0f423cc7b109", "lat": 38.90955683333333, "type": "electric_scooter"}, {"fusion_lat": 0.0, "fusion_lon": 0.0, "rental_uris": {"android": "https://dc.lft.to/lastmile_qr_scan", "ios": "https://dc.lft.to/lastmile_qr_scan"}, "lon": -76.99772116666666, "name": "f3ad88d2216723c5bebe1ef4dabbfae6", "is_disabled": 0, "is_reserved": 0, "bike_id": "f3ad88d2216723c5bebe1ef4dabbfae6", "lat": 38.908988666666666, "type": "electric_scooter"}, {"fusion_lat": 0.0, "fusion_lon": 0.0, "rental_uris": {"android": "https://dc.lft.to/lastmile_qr_scan", "ios": "https://dc.lft.to/lastmile_qr_scan"}, "lon": -76.94635916666667, "name": "e9dda70c4033d6a3960ec570f7cdb341", "is_disabled": 0, "is_reserved": 0, "bike_id": "e9dda70c4033d6a3960ec570f7cdb341", "lat": 38.89833983333333, "type": "electric_scooter"}, {"fusion_lat": 0.0, "fusion_lon": 0.0, "rental_uris": {"android": "https://dc.lft.to/lastmile_qr_scan", "ios": "https://dc.lft.to/lastmile_qr_scan"}, "lon": -77.016632, "name": "0c0dddb30a3700c800e566fce13a5acb", "is_disabled": 0, "is_reserved": 0, "bike_id": "0c0dddb30a3700c800e566fce13a5acb", "lat": 38.881305833333336, "type": "electric_scooter"}, {"fusion_lat": 0.0, "fusion_lon": 0.0, "rental_uris": {"android": "https://dc.lft.to/lastmile_qr_scan", "ios": "https://dc.lft.to/lastmile_qr_scan"}, "lon": -77.04015616666666, "name": "e72329e8a6de7d79932366993c8f477f", "is_disabled": 0, "is_reserved": 0, "bike_id": "e72329e8a6de7d79932366993c8f477f", "lat": 38.9179565, "type": "electric_scooter"}, {"fusion_lat": 0.0, "fusion_lon": 0.0, "rental_uris": {"android": "https://dc.lft.to/lastmile_qr_scan", "ios": "https://dc.lft.to/lastmile_qr_scan"}, "lon": -77.05026666666667, "name": "12a146ada84be30120c646cd5d5868c6", "is_disabled": 0, "is_reserved": 0, "bike_id": "12a146ada84be30120c646cd5d5868c6", "lat": 38.8966925, "type": "electric_scooter"}, {"fusion_lat": 0.0, "fusion_lon": 0.0, "rental_uris": {"android": "https://dc.lft.to/lastmile_qr_scan", "ios": "https://dc.lft.to/lastmile_qr_scan"}, "lon": -76.99731733333333, "name": "6f80eeb8cb777ed2aac28bfb707e3f2e", "is_disabled": 0, "is_reserved": 0, "bike_id": "6f80eeb8cb777ed2aac28bfb707e3f2e", "lat": 38.899367166666664, "type": "electric_scooter"}, {"fusion_lat": 0.0, "fusion_lon": 0.0, "rental_uris": {"android": "https://dc.lft.to/lastmile_qr_scan", "ios": "https://dc.lft.to/lastmile_qr_scan"}, "lon": -77.03186466666666, "name": "1f0c025ba37b7c97af3df06fc602aefa", "is_disabled": 0, "is_reserved": 0, "bike_id": "1f0c025ba37b7c97af3df06fc602aefa", "lat": 38.91781916666667, "type": "electric_scooter"}, {"fusion_lat": 0.0, "fusion_lon": 0.0, "rental_uris": {"android": "https://dc.lft.to/lastmile_qr_scan", "ios": "https://dc.lft.to/lastmile_qr_scan"}, "lon": -76.99697616666667, "name": "7614f34d4d0536515ed89e717b7d2703", "is_disabled": 0, "is_reserved": 0, "bike_id": "7614f34d4d0536515ed89e717b7d2703", "lat": 38.88424833333333, "type": "electric_scooter"}, {"fusion_lat": 0.0, "fusion_lon": 0.0, "rental_uris": {"android": "https://dc.lft.to/lastmile_qr_scan", "ios": "https://dc.lft.to/lastmile_qr_scan"}, "lon": -77.0221305, "name": "5168f9f8d1685a34dadbe8acafa6f705", "is_disabled": 0, "is_reserved": 0, "bike_id": "5168f9f8d1685a34dadbe8acafa6f705", "lat": 38.93402566666666, "type": "electric_bike"}, {"fusion_lat": 0.0, "fusion_lon": 0.0, "rental_uris": {"android": "https://dc.lft.to/lastmile_qr_scan", "ios": "https://dc.lft.to/lastmile_qr_scan"}, "lon": -77.03323816666666, "name": "cce769d261ecaf1b0eae842df3fddef4", "is_disabled": 0, "is_reserved": 0, "bike_id": "cce769d261ecaf1b0eae842df3fddef4", "lat": 38.890111, "type": "electric_scooter"}, {"fusion_lat": 0.0, "fusion_lon": 0.0, "rental_uris": {"android": "https://dc.lft.to/lastmile_qr_scan", "ios": "https://dc.lft.to/lastmile_qr_scan"}, "lon": -77.02170683333334, "name": "09dd15fc3f5d9899c4346a66754260cb", "is_disabled": 0, "is_reserved": 0, "bike_id": "09dd15fc3f5d9899c4346a66754260cb", "lat": 38.942944833333335, "type": "electric_scooter"}, {"fusion_lat": 0.0, "fusion_lon": 0.0, "rental_uris": {"android": "https://dc.lft.to/lastmile_qr_scan", "ios": "https://dc.lft.to/lastmile_qr_scan"}, "lon": -77.02153666666666, "name": "3c6670543f08ff687228f8f411f619b1", "is_disabled": 0, "is_reserved": 0, "bike_id": "3c6670543f08ff687228f8f411f619b1", "lat": 38.92455066666667, "type": "electric_scooter"}, {"fusion_lat": 0.0, "fusion_lon": 0.0, "rental_uris": {"android": "https://dc.lft.to/lastmile_qr_scan", "ios": "https://dc.lft.to/lastmile_qr_scan"}, "lon": -76.94643016666667, "name": "07a53b9d03fbf79b8218ff8195e60fe5", "is_disabled": 0, "is_reserved": 0, "bike_id": "07a53b9d03fbf79b8218ff8195e60fe5", "lat": 38.898666166666665, "type": "electric_scooter"}, {"fusion_lat": 0.0, "fusion_lon": 0.0, "rental_uris": {"android": "https://dc.lft.to/lastmile_qr_scan", "ios": "https://dc.lft.to/lastmile_qr_scan"}, "lon": -77.03807483333334, "name": "485b7769cc582da3d96ba2089e6a68d1", "is_disabled": 0, "is_reserved": 0, "bike_id": "485b7769cc582da3d96ba2089e6a68d1", "lat": 38.92074216666666, "type": "electric_scooter"}, {"fusion_lat": 0.0, "fusion_lon": 0.0, "rental_uris": {"android": "https://dc.lft.to/lastmile_qr_scan", "ios": "https://dc.lft.to/lastmile_qr_scan"}, "lon": -77.04351783333334, "name": "d7a8823df973846005efcae2f083d25b", "is_disabled": 0, "is_reserved": 0, "bike_id": "d7a8823df973846005efcae2f083d25b", "lat": 38.904951833333335, "type": "electric_scooter"}, {"fusion_lat": 0.0, "fusion_lon": 0.0, "rental_uris": {"android": "https://dc.lft.to/lastmile_qr_scan", "ios": "https://dc.lft.to/lastmile_qr_scan"}, "lon": -76.93731233333334, "name": "104499e13893a78d6b5d2e8d08942b01", "is_disabled": 0, "is_reserved": 0, "bike_id": "104499e13893a78d6b5d2e8d08942b01", "lat": 38.89027033333333, "type": "electric_scooter"}, {"fusion_lat": 0.0, "fusion_lon": 0.0, "rental_uris": {"android": "https://dc.lft.to/lastmile_qr_scan", "ios": "https://dc.lft.to/lastmile_qr_scan"}, "lon": -77.03812033333334, "name": "6e13b19137a1588ef0514b24d3f8125b", "is_disabled": 0, "is_reserved": 0, "bike_id": "6e13b19137a1588ef0514b24d3f8125b", "lat": 38.906801333333334, "type": "electric_scooter"}, {"fusion_lat": 0.0, "fusion_lon": 0.0, "rental_uris": {"android": "https://dc.lft.to/lastmile_qr_scan", "ios": "https://dc.lft.to/lastmile_qr_scan"}, "lon": -77.038508, "name": "0cbcb1245d495f1f70fa5d0e36a87235", "is_disabled": 0, "is_reserved": 0, "bike_id": "0cbcb1245d495f1f70fa5d0e36a87235", "lat": 38.90269216666667, "type": "electric_scooter"}, {"fusion_lat": 0.0, "fusion_lon": 0.0, "rental_uris": {"android": "https://dc.lft.to/lastmile_qr_scan", "ios": "https://dc.lft.to/lastmile_qr_scan"}, "lon": -77.02574216666666, "name": "59856089f3f1cd581f3907059bc132d8", "is_disabled": 0, "is_reserved": 0, "bike_id": "59856089f3f1cd581f3907059bc132d8", "lat": 38.88749266666667, "type": "electric_scooter"}, {"fusion_lat": 0.0, "fusion_lon": 0.0, "rental_uris": {"android": "https://dc.lft.to/lastmile_qr_scan", "ios": "https://dc.lft.to/lastmile_qr_scan"}, "lon": -77.0586205, "name": "cab24a34cc2d0ab48fedf8bafb8affb3", "is_disabled": 0, "is_reserved": 0, "bike_id": "cab24a34cc2d0ab48fedf8bafb8affb3", "lat": 38.9360935, "type": "electric_scooter"}, {"fusion_lat": 0.0, "fusion_lon": 0.0, "rental_uris": {"android": "https://dc.lft.to/lastmile_qr_scan", "ios": "https://dc.lft.to/lastmile_qr_scan"}, "lon": -77.02978066666667, "name": "4f01ca094bdb92d89c3f59d93d6fca19", "is_disabled": 0, "is_reserved": 0, "bike_id": "4f01ca094bdb92d89c3f59d93d6fca19", "lat": 38.89614916666667, "type": "electric_scooter"}, {"fusion_lat": 0.0, "fusion_lon": 0.0, "rental_uris": {"android": "https://dc.lft.to/lastmile_qr_scan", "ios": "https://dc.lft.to/lastmile_qr_scan"}, "lon": -77.02555766666667, "name": "290eee6e0dfac0403fc22d2861ed4f01", "is_disabled": 0, "is_reserved": 0, "bike_id": "290eee6e0dfac0403fc22d2861ed4f01", "lat": 38.91630966666666, "type": "electric_scooter"}, {"fusion_lat": 0.0, "fusion_lon": 0.0, "rental_uris": {"android": "https://dc.lft.to/lastmile_qr_scan", "ios": "https://dc.lft.to/lastmile_qr_scan"}, "lon": -77.0295995, "name": "7de91e2ec424f487e81ea625b65e8fdf", "is_disabled": 0, "is_reserved": 0, "bike_id": "7de91e2ec424f487e81ea625b65e8fdf", "lat": 38.922668333333334, "type": "electric_scooter"}, {"fusion_lat": 0.0, "fusion_lon": 0.0, "rental_uris": {"android": "https://dc.lft.to/lastmile_qr_scan", "ios": "https://dc.lft.to/lastmile_qr_scan"}, "lon": -77.03790133333334, "name": "6d3f0a73c8050c9da97cca0e8cf607a1", "is_disabled": 0, "is_reserved": 0, "bike_id": "6d3f0a73c8050c9da97cca0e8cf607a1", "lat": 38.92066533333333, "type": "electric_scooter"}, {"fusion_lat": 0.0, "fusion_lon": 0.0, "rental_uris": {"android": "https://dc.lft.to/lastmile_qr_scan", "ios": "https://dc.lft.to/lastmile_qr_scan"}, "lon": -77.04281433333334, "name": "93da3e998375082158d389789f6ffff7", "is_disabled": 0, "is_reserved": 0, "bike_id": "93da3e998375082158d389789f6ffff7", "lat": 38.905755166666665, "type": "electric_scooter"}, {"fusion_lat": 0.0, "fusion_lon": 0.0, "rental_uris": {"android": "https://dc.lft.to/lastmile_qr_scan", "ios": "https://dc.lft.to/lastmile_qr_scan"}, "lon": -77.045295, "name": "07d68434701c4d5dec01705c08060c54", "is_disabled": 0, "is_reserved": 0, "bike_id": "07d68434701c4d5dec01705c08060c54", "lat": 38.903788666666664, "type": "electric_scooter"}, {"fusion_lat": 0.0, "fusion_lon": 0.0, "rental_uris": {"android": "https://dc.lft.to/lastmile_qr_scan", "ios": "https://dc.lft.to/lastmile_qr_scan"}, "lon": -77.03612666666666, "name": "f8218ac49f632b8812a465fed186756b", "is_disabled": 0, "is_reserved": 0, "bike_id": "f8218ac49f632b8812a465fed186756b", "lat": 38.9173275, "type": "electric_scooter"}, {"fusion_lat": 0.0, "fusion_lon": 0.0, "rental_uris": {"android": "https://dc.lft.to/lastmile_qr_scan", "ios": "https://dc.lft.to/lastmile_qr_scan"}, "lon": -76.9778645, "name": "7780087e527d84580f2249c6c86fcece", "is_disabled": 0, "is_reserved": 0, "bike_id": "7780087e527d84580f2249c6c86fcece", "lat": 38.905711833333335, "type": "electric_scooter"}, {"fusion_lat": 0.0, "fusion_lon": 0.0, "rental_uris": {"android": "https://dc.lft.to/lastmile_qr_scan", "ios": "https://dc.lft.to/lastmile_qr_scan"}, "lon": -77.03639633333333, "name": "a285054ff18f3b3d9961a95dfe7c3596", "is_disabled": 0, "is_reserved": 0, "bike_id": "a285054ff18f3b3d9961a95dfe7c3596", "lat": 38.924444666666666, "type": "electric_scooter"}, {"fusion_lat": 0.0, "fusion_lon": 0.0, "rental_uris": {"android": "https://dc.lft.to/lastmile_qr_scan", "ios": "https://dc.lft.to/lastmile_qr_scan"}, "lon": -77.0450465, "name": "6b45b3127c0aab225148a3b9b8135a50", "is_disabled": 0, "is_reserved": 0, "bike_id": "6b45b3127c0aab225148a3b9b8135a50", "lat": 38.903775, "type": "electric_scooter"}, {"fusion_lat": 0.0, "fusion_lon": 0.0, "rental_uris": {"android": "https://dc.lft.to/lastmile_qr_scan", "ios": "https://dc.lft.to/lastmile_qr_scan"}, "lon": -77.00062616666666, "name": "fc2cf0cb45081c77cd22673b9ab6c93e", "is_disabled": 0, "is_reserved": 0, "bike_id": "fc2cf0cb45081c77cd22673b9ab6c93e", "lat": 38.87688816666667, "type": "electric_scooter"}, {"fusion_lat": 0.0, "fusion_lon": 0.0, "rental_uris": {"android": "https://dc.lft.to/lastmile_qr_scan", "ios": "https://dc.lft.to/lastmile_qr_scan"}, "lon": -77.03009833333333, "name": "4e68dd3d07424aa4ee3ba19aac3d187f", "is_disabled": 0, "is_reserved": 0, "bike_id": "4e68dd3d07424aa4ee3ba19aac3d187f", "lat": 38.89729116666667, "type": "electric_scooter"}, {"fusion_lat": 0.0, "fusion_lon": 0.0, "rental_uris": {"android": "https://dc.lft.to/lastmile_qr_scan", "ios": "https://dc.lft.to/lastmile_qr_scan"}, "lon": -77.04339766666666, "name": "50169f7fdb88807c376a93e500ddc573", "is_disabled": 0, "is_reserved": 0, "bike_id": "50169f7fdb88807c376a93e500ddc573", "lat": 38.905144666666665, "type": "electric_scooter"}, {"fusion_lat": 0.0, "fusion_lon": 0.0, "rental_uris": {"android": "https://dc.lft.to/lastmile_qr_scan", "ios": "https://dc.lft.to/lastmile_qr_scan"}, "lon": -77.033825, "name": "1a5dfb04c0b849dfd38242daced5b459", "is_disabled": 0, "is_reserved": 0, "bike_id": "1a5dfb04c0b849dfd38242daced5b459", "lat": 38.92159083333333, "type": "electric_scooter"}, {"fusion_lat": 0.0, "fusion_lon": 0.0, "rental_uris": {"android": "https://dc.lft.to/lastmile_qr_scan", "ios": "https://dc.lft.to/lastmile_qr_scan"}, "lon": -77.04307483333334, "name": "c503b0b75d0694feb58eba1ff9c45d97", "is_disabled": 0, "is_reserved": 0, "bike_id": "c503b0b75d0694feb58eba1ff9c45d97", "lat": 39.03424916666667, "type": "electric_bike"}, {"fusion_lat": 0.0, "fusion_lon": 0.0, "rental_uris": {"android": "https://dc.lft.to/lastmile_qr_scan", "ios": "https://dc.lft.to/lastmile_qr_scan"}, "lon": -76.95664466666666, "name": "3c68e5ca87a02112460394046df507b5", "is_disabled": 0, "is_reserved": 0, "bike_id": "3c68e5ca87a02112460394046df507b5", "lat": 38.884715666666665, "type": "electric_bike"}, {"fusion_lat": 0.0, "fusion_lon": 0.0, "rental_uris": {"android": "https://dc.lft.to/lastmile_qr_scan", "ios": "https://dc.lft.to/lastmile_qr_scan"}, "lon": -77.03836083333333, "name": "0cfd91007dfd25edbcf8158d37fb9130", "is_disabled": 0, "is_reserved": 0, "bike_id": "0cfd91007dfd25edbcf8158d37fb9130", "lat": 38.93143033333333, "type": "electric_scooter"}, {"fusion_lat": 0.0, "fusion_lon": 0.0, "rental_uris": {"android": "https://dc.lft.to/lastmile_qr_scan", "ios": "https://dc.lft.to/lastmile_qr_scan"}, "lon": -76.93340133333334, "name": "de7f73c49dd28a83d2934a5f9e330623", "is_disabled": 0, "is_reserved": 0, "bike_id": "de7f73c49dd28a83d2934a5f9e330623", "lat": 38.90868616666667, "type": "electric_scooter"}, {"fusion_lat": 0.0, "fusion_lon": 0.0, "rental_uris": {"android": "https://dc.lft.to/lastmile_qr_scan", "ios": "https://dc.lft.to/lastmile_qr_scan"}, "lon": -77.02560166666666, "name": "d472cfda28e9682009687adaf5ff561a", "is_disabled": 0, "is_reserved": 0, "bike_id": "d472cfda28e9682009687adaf5ff561a", "lat": 38.9096215, "type": "electric_scooter"}, {"fusion_lat": 0.0, "fusion_lon": 0.0, "rental_uris": {"android": "https://dc.lft.to/lastmile_qr_scan", "ios": "https://dc.lft.to/lastmile_qr_scan"}, "lon": -77.01860383333333, "name": "fe64ef2d8b422de07068fd2f26bd1ba5", "is_disabled": 0, "is_reserved": 0, "bike_id": "fe64ef2d8b422de07068fd2f26bd1ba5", "lat": 38.94921733333334, "type": "electric_scooter"}, {"fusion_lat": 0.0, "fusion_lon": 0.0, "rental_uris": {"android": "https://dc.lft.to/lastmile_qr_scan", "ios": "https://dc.lft.to/lastmile_qr_scan"}, "lon": -77.06792083333333, "name": "8fed88b610d579e97e7cfb2fbbffb82b", "is_disabled": 0, "is_reserved": 0, "bike_id": "8fed88b610d579e97e7cfb2fbbffb82b", "lat": 38.91278533333333, "type": "electric_scooter"}, {"fusion_lat": 0.0, "fusion_lon": 0.0, "rental_uris": {"android": "https://dc.lft.to/lastmile_qr_scan", "ios": "https://dc.lft.to/lastmile_qr_scan"}, "lon": -77.04501833333333, "name": "a1fcf76a6fc44a70c55f8ccee18756aa", "is_disabled": 0, "is_reserved": 0, "bike_id": "a1fcf76a6fc44a70c55f8ccee18756aa", "lat": 38.903779666666665, "type": "electric_scooter"}, {"fusion_lat": 0.0, "fusion_lon": 0.0, "rental_uris": {"android": "https://dc.lft.to/lastmile_qr_scan", "ios": "https://dc.lft.to/lastmile_qr_scan"}, "lon": -77.0345155, "name": "57b937aaebad28d746217f7a2f6a0306", "is_disabled": 0, "is_reserved": 0, "bike_id": "57b937aaebad28d746217f7a2f6a0306", "lat": 38.909502833333335, "type": "electric_scooter"}, {"fusion_lat": 0.0, "fusion_lon": 0.0, "rental_uris": {"android": "https://dc.lft.to/lastmile_qr_scan", "ios": "https://dc.lft.to/lastmile_qr_scan"}, "lon": -77.018302, "name": "2fddcc2d9318e26b1b8563edc1c18aff", "is_disabled": 0, "is_reserved": 0, "bike_id": "2fddcc2d9318e26b1b8563edc1c18aff", "lat": 38.89981, "type": "electric_scooter"}, {"fusion_lat": 0.0, "fusion_lon": 0.0, "rental_uris": {"android": "https://dc.lft.to/lastmile_qr_scan", "ios": "https://dc.lft.to/lastmile_qr_scan"}, "lon": -77.03348816666667, "name": "9551073bcd16c35e089e1a58cbb2e2ed", "is_disabled": 0, "is_reserved": 0, "bike_id": "9551073bcd16c35e089e1a58cbb2e2ed", "lat": 38.90271333333333, "type": "electric_scooter"}, {"fusion_lat": 0.0, "fusion_lon": 0.0, "rental_uris": {"android": "https://dc.lft.to/lastmile_qr_scan", "ios": "https://dc.lft.to/lastmile_qr_scan"}, "lon": -77.05346333333334, "name": "78103f54230d3399e7392ff9f2cc9e61", "is_disabled": 0, "is_reserved": 0, "bike_id": "78103f54230d3399e7392ff9f2cc9e61", "lat": 38.927107166666666, "type": "electric_scooter"}, {"fusion_lat": 0.0, "fusion_lon": 0.0, "rental_uris": {"android": "https://dc.lft.to/lastmile_qr_scan", "ios": "https://dc.lft.to/lastmile_qr_scan"}, "lon": -77.04165516666667, "name": "98ae98ab5a36fde91b766471b4881526", "is_disabled": 0, "is_reserved": 0, "bike_id": "98ae98ab5a36fde91b766471b4881526", "lat": 38.90525983333333, "type": "electric_scooter"}, {"fusion_lat": 0.0, "fusion_lon": 0.0, "rental_uris": {"android": "https://dc.lft.to/lastmile_qr_scan", "ios": "https://dc.lft.to/lastmile_qr_scan"}, "lon": -77.06045383333333, "name": "5257a22e78a9df7064afd2dd08bd47be", "is_disabled": 0, "is_reserved": 0, "bike_id": "5257a22e78a9df7064afd2dd08bd47be", "lat": 38.9391785, "type": "electric_scooter"}, {"fusion_lat": 0.0, "fusion_lon": 0.0, "rental_uris": {"android": "https://dc.lft.to/lastmile_qr_scan", "ios": "https://dc.lft.to/lastmile_qr_scan"}, "lon": -77.00350183333333, "name": "8edec209af6224d54387e4ba35d5251a", "is_disabled": 0, "is_reserved": 0, "bike_id": "8edec209af6224d54387e4ba35d5251a", "lat": 38.88437966666667, "type": "electric_scooter"}, {"fusion_lat": 0.0, "fusion_lon": 0.0, "rental_uris": {"android": "https://dc.lft.to/lastmile_qr_scan", "ios": "https://dc.lft.to/lastmile_qr_scan"}, "lon": -77.03323816666666, "name": "db5718a1a495d49c74d3a267f73f4c18", "is_disabled": 0, "is_reserved": 0, "bike_id": "db5718a1a495d49c74d3a267f73f4c18", "lat": 38.91317183333334, "type": "electric_scooter"}, {"fusion_lat": 0.0, "fusion_lon": 0.0, "rental_uris": {"android": "https://dc.lft.to/lastmile_qr_scan", "ios": "https://dc.lft.to/lastmile_qr_scan"}, "lon": -77.04516516666666, "name": "aaeab3afc0cedba0dfa4b2c853708332", "is_disabled": 0, "is_reserved": 0, "bike_id": "aaeab3afc0cedba0dfa4b2c853708332", "lat": 38.9036355, "type": "electric_scooter"}, {"fusion_lat": 0.0, "fusion_lon": 0.0, "rental_uris": {"android": "https://dc.lft.to/lastmile_qr_scan", "ios": "https://dc.lft.to/lastmile_qr_scan"}, "lon": -77.02722466666667, "name": "ff40853cbbcc1916d440726c13305bef", "is_disabled": 0, "is_reserved": 0, "bike_id": "ff40853cbbcc1916d440726c13305bef", "lat": 38.9067165, "type": "electric_scooter"}, {"fusion_lat": 0.0, "fusion_lon": 0.0, "rental_uris": {"android": "https://dc.lft.to/lastmile_qr_scan", "ios": "https://dc.lft.to/lastmile_qr_scan"}, "lon": -77.04290633333333, "name": "c4b2e24b37510e1d836ccac0f2d88ecd", "is_disabled": 0, "is_reserved": 0, "bike_id": "c4b2e24b37510e1d836ccac0f2d88ecd", "lat": 38.90723766666667, "type": "electric_scooter"}, {"fusion_lat": 0.0, "fusion_lon": 0.0, "rental_uris": {"android": "https://dc.lft.to/lastmile_qr_scan", "ios": "https://dc.lft.to/lastmile_qr_scan"}, "lon": -76.99012466666667, "name": "1eff55f0d9b55a094a8b2fc0eda902d7", "is_disabled": 0, "is_reserved": 0, "bike_id": "1eff55f0d9b55a094a8b2fc0eda902d7", "lat": 38.865112333333336, "type": "electric_scooter"}, {"fusion_lat": 0.0, "fusion_lon": 0.0, "rental_uris": {"android": "https://dc.lft.to/lastmile_qr_scan", "ios": "https://dc.lft.to/lastmile_qr_scan"}, "lon": -77.02000616666666, "name": "b37ea36ea9c698adeff5b1dff9f2f79e", "is_disabled": 0, "is_reserved": 0, "bike_id": "b37ea36ea9c698adeff5b1dff9f2f79e", "lat": 38.913657, "type": "electric_scooter"}, {"fusion_lat": 0.0, "fusion_lon": 0.0, "rental_uris": {"android": "https://dc.lft.to/lastmile_qr_scan", "ios": "https://dc.lft.to/lastmile_qr_scan"}, "lon": -77.05261516666667, "name": "4dd6ca69f7e9648e620d8203a0f192eb", "is_disabled": 0, "is_reserved": 0, "bike_id": "4dd6ca69f7e9648e620d8203a0f192eb", "lat": 38.9278105, "type": "electric_scooter"}, {"fusion_lat": 0.0, "fusion_lon": 0.0, "rental_uris": {"android": "https://dc.lft.to/lastmile_qr_scan", "ios": "https://dc.lft.to/lastmile_qr_scan"}, "lon": -77.01953133333333, "name": "4c7c0721f3497e356cda964e008357d3", "is_disabled": 0, "is_reserved": 0, "bike_id": "4c7c0721f3497e356cda964e008357d3", "lat": 38.922521333333336, "type": "electric_scooter"}, {"fusion_lat": 0.0, "fusion_lon": 0.0, "rental_uris": {"android": "https://dc.lft.to/lastmile_qr_scan", "ios": "https://dc.lft.to/lastmile_qr_scan"}, "lon": -77.03224666666667, "name": "840fcf239ff773c8a32d20ffc6c86db5", "is_disabled": 0, "is_reserved": 0, "bike_id": "840fcf239ff773c8a32d20ffc6c86db5", "lat": 38.9259125, "type": "electric_scooter"}, {"fusion_lat": 0.0, "fusion_lon": 0.0, "rental_uris": {"android": "https://dc.lft.to/lastmile_qr_scan", "ios": "https://dc.lft.to/lastmile_qr_scan"}, "lon": -77.00273416666667, "name": "cc9d906bfed8f87340d42ff5a59eb9bb", "is_disabled": 0, "is_reserved": 0, "bike_id": "cc9d906bfed8f87340d42ff5a59eb9bb", "lat": 38.8772595, "type": "electric_scooter"}, {"fusion_lat": 0.0, "fusion_lon": 0.0, "rental_uris": {"android": "https://dc.lft.to/lastmile_qr_scan", "ios": "https://dc.lft.to/lastmile_qr_scan"}, "lon": -77.0345065, "name": "1b5a905a5d356ce77f3a3af73cc49821", "is_disabled": 0, "is_reserved": 0, "bike_id": "1b5a905a5d356ce77f3a3af73cc49821", "lat": 38.90314766666667, "type": "electric_scooter"}, {"fusion_lat": 0.0, "fusion_lon": 0.0, "rental_uris": {"android": "https://dc.lft.to/lastmile_qr_scan", "ios": "https://dc.lft.to/lastmile_qr_scan"}, "lon": -76.99816383333334, "name": "c6b4e9c08c271c20cb76597ece4b2834", "is_disabled": 0, "is_reserved": 0, "bike_id": "c6b4e9c08c271c20cb76597ece4b2834", "lat": 38.90021516666667, "type": "electric_scooter"}, {"fusion_lat": 0.0, "fusion_lon": 0.0, "rental_uris": {"android": "https://dc.lft.to/lastmile_qr_scan", "ios": "https://dc.lft.to/lastmile_qr_scan"}, "lon": -77.02765683333334, "name": "2615b5f21d1f7cf7b88461cb370282c8", "is_disabled": 0, "is_reserved": 0, "bike_id": "2615b5f21d1f7cf7b88461cb370282c8", "lat": 38.8971935, "type": "electric_scooter"}, {"fusion_lat": 0.0, "fusion_lon": 0.0, "rental_uris": {"android": "https://dc.lft.to/lastmile_qr_scan", "ios": "https://dc.lft.to/lastmile_qr_scan"}, "lon": -77.00308116666666, "name": "2b65a1c7169431aa527ca5a6f0c4ce90", "is_disabled": 0, "is_reserved": 0, "bike_id": "2b65a1c7169431aa527ca5a6f0c4ce90", "lat": 38.833684, "type": "electric_bike"}, {"fusion_lat": 0.0, "fusion_lon": 0.0, "rental_uris": {"android": "https://dc.lft.to/lastmile_qr_scan", "ios": "https://dc.lft.to/lastmile_qr_scan"}, "lon": -77.00301916666666, "name": "1bd644b7b20f901a50a6601c3e6a1279", "is_disabled": 0, "is_reserved": 0, "bike_id": "1bd644b7b20f901a50a6601c3e6a1279", "lat": 38.89498783333333, "type": "electric_scooter"}, {"fusion_lat": 0.0, "fusion_lon": 0.0, "rental_uris": {"android": "https://dc.lft.to/lastmile_qr_scan", "ios": "https://dc.lft.to/lastmile_qr_scan"}, "lon": -77.039577, "name": "bdcf2d2d1f07b8e5e64895e6f86bdbdd", "is_disabled": 0, "is_reserved": 0, "bike_id": "bdcf2d2d1f07b8e5e64895e6f86bdbdd", "lat": 38.8962455, "type": "electric_scooter"}, {"fusion_lat": 0.0, "fusion_lon": 0.0, "rental_uris": {"android": "https://dc.lft.to/lastmile_qr_scan", "ios": "https://dc.lft.to/lastmile_qr_scan"}, "lon": -77.02125116666667, "name": "2348ed5df4fe482794666da4ba9027f0", "is_disabled": 0, "is_reserved": 0, "bike_id": "2348ed5df4fe482794666da4ba9027f0", "lat": 38.9227435, "type": "electric_scooter"}, {"fusion_lat": 0.0, "fusion_lon": 0.0, "rental_uris": {"android": "https://dc.lft.to/lastmile_qr_scan", "ios": "https://dc.lft.to/lastmile_qr_scan"}, "lon": -77.009201, "name": "6171feb044b228a9a3d1ccc02d980471", "is_disabled": 0, "is_reserved": 0, "bike_id": "6171feb044b228a9a3d1ccc02d980471", "lat": 38.898907333333334, "type": "electric_scooter"}, {"fusion_lat": 0.0, "fusion_lon": 0.0, "rental_uris": {"android": "https://dc.lft.to/lastmile_qr_scan", "ios": "https://dc.lft.to/lastmile_qr_scan"}, "lon": -77.0118745, "name": "b954231dac7f9bee1c1c4c919c599cfb", "is_disabled": 0, "is_reserved": 0, "bike_id": "b954231dac7f9bee1c1c4c919c599cfb", "lat": 38.90019916666667, "type": "electric_scooter"}, {"fusion_lat": 0.0, "fusion_lon": 0.0, "rental_uris": {"android": "https://dc.lft.to/lastmile_qr_scan", "ios": "https://dc.lft.to/lastmile_qr_scan"}, "lon": -76.9528725, "name": "d1e56221195a35478294f067dc4430cb", "is_disabled": 0, "is_reserved": 0, "bike_id": "d1e56221195a35478294f067dc4430cb", "lat": 38.862410833333335, "type": "electric_bike"}, {"fusion_lat": 0.0, "fusion_lon": 0.0, "rental_uris": {"android": "https://dc.lft.to/lastmile_qr_scan", "ios": "https://dc.lft.to/lastmile_qr_scan"}, "lon": -77.024034, "name": "16798c643b8b365ddb25d136941b9aeb", "is_disabled": 0, "is_reserved": 0, "bike_id": "16798c643b8b365ddb25d136941b9aeb", "lat": 38.8969575, "type": "electric_scooter"}, {"fusion_lat": 0.0, "fusion_lon": 0.0, "rental_uris": {"android": "https://dc.lft.to/lastmile_qr_scan", "ios": "https://dc.lft.to/lastmile_qr_scan"}, "lon": -77.18742683333333, "name": "8de6a3c0385eb97a7e5e5f0b4ff0fe12", "is_disabled": 0, "is_reserved": 0, "bike_id": "8de6a3c0385eb97a7e5e5f0b4ff0fe12", "lat": 38.893534333333335, "type": "electric_bike"}, {"fusion_lat": 0.0, "fusion_lon": 0.0, "rental_uris": {"android": "https://dc.lft.to/lastmile_qr_scan", "ios": "https://dc.lft.to/lastmile_qr_scan"}, "lon": -77.038494, "name": "26038fd8db41a366b4e0cc20605088d4", "is_disabled": 0, "is_reserved": 0, "bike_id": "26038fd8db41a366b4e0cc20605088d4", "lat": 38.91138516666667, "type": "electric_scooter"}, {"fusion_lat": 0.0, "fusion_lon": 0.0, "rental_uris": {"android": "https://dc.lft.to/lastmile_qr_scan", "ios": "https://dc.lft.to/lastmile_qr_scan"}, "lon": -76.999883, "name": "5e8526c92773554bd20bed0e83cc4371", "is_disabled": 0, "is_reserved": 0, "bike_id": "5e8526c92773554bd20bed0e83cc4371", "lat": 38.96403516666667, "type": "electric_bike"}, {"fusion_lat": 0.0, "fusion_lon": 0.0, "rental_uris": {"android": "https://dc.lft.to/lastmile_qr_scan", "ios": "https://dc.lft.to/lastmile_qr_scan"}, "lon": -77.020357, "name": "787c9c6a289f98b82d5a3639b7b06efd", "is_disabled": 0, "is_reserved": 0, "bike_id": "787c9c6a289f98b82d5a3639b7b06efd", "lat": 38.9036785, "type": "electric_scooter"}, {"fusion_lat": 0.0, "fusion_lon": 0.0, "rental_uris": {"android": "https://dc.lft.to/lastmile_qr_scan", "ios": "https://dc.lft.to/lastmile_qr_scan"}, "lon": -76.96900933333333, "name": "5e05d2502d180dab6f013328cccbb410", "is_disabled": 0, "is_reserved": 0, "bike_id": "5e05d2502d180dab6f013328cccbb410", "lat": 38.959976833333336, "type": "electric_bike"}, {"fusion_lat": 0.0, "fusion_lon": 0.0, "rental_uris": {"android": "https://dc.lft.to/lastmile_qr_scan", "ios": "https://dc.lft.to/lastmile_qr_scan"}, "lon": -77.04654733333334, "name": "e77a370be2f16ed29200e22983f60d5c", "is_disabled": 0, "is_reserved": 0, "bike_id": "e77a370be2f16ed29200e22983f60d5c", "lat": 38.89504933333333, "type": "electric_scooter"}, {"fusion_lat": 0.0, "fusion_lon": 0.0, "rental_uris": {"android": "https://dc.lft.to/lastmile_qr_scan", "ios": "https://dc.lft.to/lastmile_qr_scan"}, "lon": -77.02097383333333, "name": "66697934f9d961d4e00e0cefc0457768", "is_disabled": 0, "is_reserved": 0, "bike_id": "66697934f9d961d4e00e0cefc0457768", "lat": 38.9271645, "type": "electric_scooter"}, {"fusion_lat": 0.0, "fusion_lon": 0.0, "rental_uris": {"android": "https://dc.lft.to/lastmile_qr_scan", "ios": "https://dc.lft.to/lastmile_qr_scan"}, "lon": -77.04487666666667, "name": "089d8a9376f77aad5b8ce2e24e954893", "is_disabled": 0, "is_reserved": 0, "bike_id": "089d8a9376f77aad5b8ce2e24e954893", "lat": 38.90941816666667, "type": "electric_scooter"}, {"fusion_lat": 0.0, "fusion_lon": 0.0, "rental_uris": {"android": "https://dc.lft.to/lastmile_qr_scan", "ios": "https://dc.lft.to/lastmile_qr_scan"}, "lon": -77.040954, "name": "4a1902200db9889715aecaab5299ea59", "is_disabled": 0, "is_reserved": 0, "bike_id": "4a1902200db9889715aecaab5299ea59", "lat": 38.90398033333334, "type": "electric_scooter"}, {"fusion_lat": 0.0, "fusion_lon": 0.0, "rental_uris": {"android": "https://dc.lft.to/lastmile_qr_scan", "ios": "https://dc.lft.to/lastmile_qr_scan"}, "lon": -77.04331483333333, "name": "14a6e05fea16f26179b18f5b61cb6905", "is_disabled": 0, "is_reserved": 0, "bike_id": "14a6e05fea16f26179b18f5b61cb6905", "lat": 38.90047716666667, "type": "electric_scooter"}, {"fusion_lat": 0.0, "fusion_lon": 0.0, "rental_uris": {"android": "https://dc.lft.to/lastmile_qr_scan", "ios": "https://dc.lft.to/lastmile_qr_scan"}, "lon": -77.03983183333334, "name": "a70d6c853391b1bc4a2488ae90e70fc3", "is_disabled": 0, "is_reserved": 0, "bike_id": "a70d6c853391b1bc4a2488ae90e70fc3", "lat": 38.92318066666667, "type": "electric_scooter"}, {"fusion_lat": 0.0, "fusion_lon": 0.0, "rental_uris": {"android": "https://dc.lft.to/lastmile_qr_scan", "ios": "https://dc.lft.to/lastmile_qr_scan"}, "lon": -77.04683216666666, "name": "5390edd3c5e6bd3f6485ccf3b20799ed", "is_disabled": 0, "is_reserved": 0, "bike_id": "5390edd3c5e6bd3f6485ccf3b20799ed", "lat": 38.8955815, "type": "electric_scooter"}, {"fusion_lat": 0.0, "fusion_lon": 0.0, "rental_uris": {"android": "https://dc.lft.to/lastmile_qr_scan", "ios": "https://dc.lft.to/lastmile_qr_scan"}, "lon": -77.01512666666666, "name": "c2d2433a47d7bb3b114de9797210e186", "is_disabled": 0, "is_reserved": 0, "bike_id": "c2d2433a47d7bb3b114de9797210e186", "lat": 38.912983, "type": "electric_scooter"}, {"fusion_lat": 0.0, "fusion_lon": 0.0, "rental_uris": {"android": "https://dc.lft.to/lastmile_qr_scan", "ios": "https://dc.lft.to/lastmile_qr_scan"}, "lon": -77.0173315, "name": "a9e32cdcedc4ea8fb3d54301c08c8cd2", "is_disabled": 0, "is_reserved": 0, "bike_id": "a9e32cdcedc4ea8fb3d54301c08c8cd2", "lat": 38.9024895, "type": "electric_scooter"}, {"fusion_lat": 0.0, "fusion_lon": 0.0, "rental_uris": {"android": "https://dc.lft.to/lastmile_qr_scan", "ios": "https://dc.lft.to/lastmile_qr_scan"}, "lon": -77.03383483333333, "name": "0202623713f53951c4469088f398cdeb", "is_disabled": 0, "is_reserved": 0, "bike_id": "0202623713f53951c4469088f398cdeb", "lat": 38.92159733333333, "type": "electric_scooter"}, {"fusion_lat": 0.0, "fusion_lon": 0.0, "rental_uris": {"android": "https://dc.lft.to/lastmile_qr_scan", "ios": "https://dc.lft.to/lastmile_qr_scan"}, "lon": -76.99500383333333, "name": "34b20ad8298942c05dd35c5e40c113b2", "is_disabled": 0, "is_reserved": 0, "bike_id": "34b20ad8298942c05dd35c5e40c113b2", "lat": 38.909794166666664, "type": "electric_scooter"}, {"fusion_lat": 0.0, "fusion_lon": 0.0, "rental_uris": {"android": "https://dc.lft.to/lastmile_qr_scan", "ios": "https://dc.lft.to/lastmile_qr_scan"}, "lon": -76.98085133333333, "name": "9caf560bbfe2631538267eac3292fe95", "is_disabled": 0, "is_reserved": 0, "bike_id": "9caf560bbfe2631538267eac3292fe95", "lat": 38.92251733333333, "type": "electric_scooter"}, {"fusion_lat": 0.0, "fusion_lon": 0.0, "rental_uris": {"android": "https://dc.lft.to/lastmile_qr_scan", "ios": "https://dc.lft.to/lastmile_qr_scan"}, "lon": -76.99599883333333, "name": "47fa8ba14e772a0d7da16d0804365a4d", "is_disabled": 0, "is_reserved": 0, "bike_id": "47fa8ba14e772a0d7da16d0804365a4d", "lat": 38.85691283333333, "type": "electric_scooter"}, {"fusion_lat": 0.0, "fusion_lon": 0.0, "rental_uris": {"android": "https://dc.lft.to/lastmile_qr_scan", "ios": "https://dc.lft.to/lastmile_qr_scan"}, "lon": -77.0234755, "name": "e35febac96a4963dd53600b9b14f9f72", "is_disabled": 0, "is_reserved": 0, "bike_id": "e35febac96a4963dd53600b9b14f9f72", "lat": 38.8939345, "type": "electric_scooter"}, {"fusion_lat": 0.0, "fusion_lon": 0.0, "rental_uris": {"android": "https://dc.lft.to/lastmile_qr_scan", "ios": "https://dc.lft.to/lastmile_qr_scan"}, "lon": -77.02730033333333, "name": "bb4af9e17e62528753b457296dfc4d5c", "is_disabled": 0, "is_reserved": 0, "bike_id": "bb4af9e17e62528753b457296dfc4d5c", "lat": 38.89845716666667, "type": "electric_scooter"}, {"fusion_lat": 0.0, "fusion_lon": 0.0, "rental_uris": {"android": "https://dc.lft.to/lastmile_qr_scan", "ios": "https://dc.lft.to/lastmile_qr_scan"}, "lon": -77.0359755, "name": "15325a4e78a699709f827ce8cc08db12", "is_disabled": 0, "is_reserved": 0, "bike_id": "15325a4e78a699709f827ce8cc08db12", "lat": 38.92856416666667, "type": "electric_scooter"}, {"fusion_lat": 0.0, "fusion_lon": 0.0, "rental_uris": {"android": "https://dc.lft.to/lastmile_qr_scan", "ios": "https://dc.lft.to/lastmile_qr_scan"}, "lon": -77.00779783333333, "name": "25f52857eae60b4e643a784e94d79579", "is_disabled": 0, "is_reserved": 0, "bike_id": "25f52857eae60b4e643a784e94d79579", "lat": 38.9072465, "type": "electric_scooter"}, {"fusion_lat": 0.0, "fusion_lon": 0.0, "rental_uris": {"android": "https://dc.lft.to/lastmile_qr_scan", "ios": "https://dc.lft.to/lastmile_qr_scan"}, "lon": -77.0325515, "name": "ffa5d74ee1b7e1530d4d8150ea106c98", "is_disabled": 0, "is_reserved": 0, "bike_id": "ffa5d74ee1b7e1530d4d8150ea106c98", "lat": 38.901443666666665, "type": "electric_scooter"}, {"fusion_lat": 0.0, "fusion_lon": 0.0, "rental_uris": {"android": "https://dc.lft.to/lastmile_qr_scan", "ios": "https://dc.lft.to/lastmile_qr_scan"}, "lon": -77.01476616666666, "name": "a698482c8bb78d4dc3008667e9a49cab", "is_disabled": 0, "is_reserved": 0, "bike_id": "a698482c8bb78d4dc3008667e9a49cab", "lat": 38.92675366666667, "type": "electric_scooter"}, {"fusion_lat": 0.0, "fusion_lon": 0.0, "rental_uris": {"android": "https://dc.lft.to/lastmile_qr_scan", "ios": "https://dc.lft.to/lastmile_qr_scan"}, "lon": -77.03183183333333, "name": "c799e9da28399c83c74c5b2a7e3df1ed", "is_disabled": 0, "is_reserved": 0, "bike_id": "c799e9da28399c83c74c5b2a7e3df1ed", "lat": 38.91851716666667, "type": "electric_scooter"}, {"fusion_lat": 0.0, "fusion_lon": 0.0, "rental_uris": {"android": "https://dc.lft.to/lastmile_qr_scan", "ios": "https://dc.lft.to/lastmile_qr_scan"}, "lon": -76.98085866666666, "name": "6781540f24e6492847cde3d3e7415f19", "is_disabled": 0, "is_reserved": 0, "bike_id": "6781540f24e6492847cde3d3e7415f19", "lat": 38.89975316666667, "type": "electric_scooter"}, {"fusion_lat": 0.0, "fusion_lon": 0.0, "rental_uris": {"android": "https://dc.lft.to/lastmile_qr_scan", "ios": "https://dc.lft.to/lastmile_qr_scan"}, "lon": -77.05398433333333, "name": "25cd6461a20d5e9c70c410aaa8a81836", "is_disabled": 0, "is_reserved": 0, "bike_id": "25cd6461a20d5e9c70c410aaa8a81836", "lat": 38.804503, "type": "electric_bike"}, {"fusion_lat": 0.0, "fusion_lon": 0.0, "rental_uris": {"android": "https://dc.lft.to/lastmile_qr_scan", "ios": "https://dc.lft.to/lastmile_qr_scan"}, "lon": -76.99907533333334, "name": "d4838a1c349eb8cd90f77380e0fdeaf2", "is_disabled": 0, "is_reserved": 0, "bike_id": "d4838a1c349eb8cd90f77380e0fdeaf2", "lat": 38.90021183333333, "type": "electric_scooter"}, {"fusion_lat": 0.0, "fusion_lon": 0.0, "rental_uris": {"android": "https://dc.lft.to/lastmile_qr_scan", "ios": "https://dc.lft.to/lastmile_qr_scan"}, "lon": -77.040838, "name": "2cfa4521f1e63d75624caa93ef033b30", "is_disabled": 0, "is_reserved": 0, "bike_id": "2cfa4521f1e63d75624caa93ef033b30", "lat": 38.911162, "type": "electric_scooter"}, {"fusion_lat": 0.0, "fusion_lon": 0.0, "rental_uris": {"android": "https://dc.lft.to/lastmile_qr_scan", "ios": "https://dc.lft.to/lastmile_qr_scan"}, "lon": -77.01772633333333, "name": "00af3b697e8bb689d82b092405370805", "is_disabled": 0, "is_reserved": 0, "bike_id": "00af3b697e8bb689d82b092405370805", "lat": 38.8780855, "type": "electric_scooter"}, {"fusion_lat": 0.0, "fusion_lon": 0.0, "rental_uris": {"android": "https://dc.lft.to/lastmile_qr_scan", "ios": "https://dc.lft.to/lastmile_qr_scan"}, "lon": -77.02408483333333, "name": "9eb76edebdaf1ca575ff61f479a2040f", "is_disabled": 0, "is_reserved": 0, "bike_id": "9eb76edebdaf1ca575ff61f479a2040f", "lat": 38.91420766666667, "type": "electric_scooter"}, {"fusion_lat": 0.0, "fusion_lon": 0.0, "rental_uris": {"android": "https://dc.lft.to/lastmile_qr_scan", "ios": "https://dc.lft.to/lastmile_qr_scan"}, "lon": -77.04778466666667, "name": "b1bfb76e85a4e7c68f9bd145e0199d36", "is_disabled": 0, "is_reserved": 0, "bike_id": "b1bfb76e85a4e7c68f9bd145e0199d36", "lat": 38.897287, "type": "electric_scooter"}, {"fusion_lat": 0.0, "fusion_lon": 0.0, "rental_uris": {"android": "https://dc.lft.to/lastmile_qr_scan", "ios": "https://dc.lft.to/lastmile_qr_scan"}, "lon": -77.04496266666666, "name": "253998db9eafe9c372241e0693b1e83e", "is_disabled": 0, "is_reserved": 0, "bike_id": "253998db9eafe9c372241e0693b1e83e", "lat": 38.904628, "type": "electric_scooter"}, {"fusion_lat": 0.0, "fusion_lon": 0.0, "rental_uris": {"android": "https://dc.lft.to/lastmile_qr_scan", "ios": "https://dc.lft.to/lastmile_qr_scan"}, "lon": -77.04350316666667, "name": "357d6696e9a53a4d1a2e43ae0e71c09d", "is_disabled": 0, "is_reserved": 0, "bike_id": "357d6696e9a53a4d1a2e43ae0e71c09d", "lat": 38.90819333333334, "type": "electric_scooter"}, {"fusion_lat": 0.0, "fusion_lon": 0.0, "rental_uris": {"android": "https://dc.lft.to/lastmile_qr_scan", "ios": "https://dc.lft.to/lastmile_qr_scan"}, "lon": -77.03188816666666, "name": "9fa6eeaf19520aa93f50673f77041569", "is_disabled": 0, "is_reserved": 0, "bike_id": "9fa6eeaf19520aa93f50673f77041569", "lat": 38.913274666666666, "type": "electric_scooter"}, {"fusion_lat": 0.0, "fusion_lon": 0.0, "rental_uris": {"android": "https://dc.lft.to/lastmile_qr_scan", "ios": "https://dc.lft.to/lastmile_qr_scan"}, "lon": -77.03563216666667, "name": "98d857d852b2fdf62239896b96bfa5a0", "is_disabled": 0, "is_reserved": 0, "bike_id": "98d857d852b2fdf62239896b96bfa5a0", "lat": 38.92690316666667, "type": "electric_scooter"}, {"fusion_lat": 0.0, "fusion_lon": 0.0, "rental_uris": {"android": "https://dc.lft.to/lastmile_qr_scan", "ios": "https://dc.lft.to/lastmile_qr_scan"}, "lon": -77.04890766666666, "name": "5d4f32dab39ab31f0af9753bbe7516ae", "is_disabled": 0, "is_reserved": 0, "bike_id": "5d4f32dab39ab31f0af9753bbe7516ae", "lat": 38.899906333333334, "type": "electric_bike"}, {"fusion_lat": 0.0, "fusion_lon": 0.0, "rental_uris": {"android": "https://dc.lft.to/lastmile_qr_scan", "ios": "https://dc.lft.to/lastmile_qr_scan"}, "lon": -76.96261783333334, "name": "b8f3b030a0e9b64cb3c89ce0739c16d1", "is_disabled": 0, "is_reserved": 0, "bike_id": "b8f3b030a0e9b64cb3c89ce0739c16d1", "lat": 38.88248133333333, "type": "electric_bike"}, {"fusion_lat": 0.0, "fusion_lon": 0.0, "rental_uris": {"android": "https://dc.lft.to/lastmile_qr_scan", "ios": "https://dc.lft.to/lastmile_qr_scan"}, "lon": -76.98655766666667, "name": "66cdf310497100fee8fc82f3e240a316", "is_disabled": 0, "is_reserved": 0, "bike_id": "66cdf310497100fee8fc82f3e240a316", "lat": 38.858069666666665, "type": "electric_scooter"}, {"fusion_lat": 0.0, "fusion_lon": 0.0, "rental_uris": {"android": "https://dc.lft.to/lastmile_qr_scan", "ios": "https://dc.lft.to/lastmile_qr_scan"}, "lon": -77.031945, "name": "871acde43236547b103e8dfc3214bd89", "is_disabled": 0, "is_reserved": 0, "bike_id": "871acde43236547b103e8dfc3214bd89", "lat": 38.917541666666665, "type": "electric_scooter"}, {"fusion_lat": 0.0, "fusion_lon": 0.0, "rental_uris": {"android": "https://dc.lft.to/lastmile_qr_scan", "ios": "https://dc.lft.to/lastmile_qr_scan"}, "lon": -76.98374033333333, "name": "661a29122b322b2a3b74edafd33f47fd", "is_disabled": 0, "is_reserved": 0, "bike_id": "661a29122b322b2a3b74edafd33f47fd", "lat": 38.90652266666667, "type": "electric_scooter"}, {"fusion_lat": 0.0, "fusion_lon": 0.0, "rental_uris": {"android": "https://dc.lft.to/lastmile_qr_scan", "ios": "https://dc.lft.to/lastmile_qr_scan"}, "lon": -76.97641266666666, "name": "0ec93415229d1a29ac15ceeea55faf2d", "is_disabled": 0, "is_reserved": 0, "bike_id": "0ec93415229d1a29ac15ceeea55faf2d", "lat": 38.88687783333334, "type": "electric_scooter"}, {"fusion_lat": 0.0, "fusion_lon": 0.0, "rental_uris": {"android": "https://dc.lft.to/lastmile_qr_scan", "ios": "https://dc.lft.to/lastmile_qr_scan"}, "lon": -77.0501185, "name": "5f97f7c4b6753caeb24d03e4512cb652", "is_disabled": 0, "is_reserved": 0, "bike_id": "5f97f7c4b6753caeb24d03e4512cb652", "lat": 38.8975305, "type": "electric_scooter"}, {"fusion_lat": 0.0, "fusion_lon": 0.0, "rental_uris": {"android": "https://dc.lft.to/lastmile_qr_scan", "ios": "https://dc.lft.to/lastmile_qr_scan"}, "lon": -77.07885283333333, "name": "0b42d041063258ced277acc74acfad85", "is_disabled": 0, "is_reserved": 0, "bike_id": "0b42d041063258ced277acc74acfad85", "lat": 38.84254266666667, "type": "electric_bike"}, {"fusion_lat": 0.0, "fusion_lon": 0.0, "rental_uris": {"android": "https://dc.lft.to/lastmile_qr_scan", "ios": "https://dc.lft.to/lastmile_qr_scan"}, "lon": -77.04278116666667, "name": "54c8cf3c3ce5936c219099d78e51b6ec", "is_disabled": 0, "is_reserved": 0, "bike_id": "54c8cf3c3ce5936c219099d78e51b6ec", "lat": 38.907306, "type": "electric_scooter"}, {"fusion_lat": 0.0, "fusion_lon": 0.0, "rental_uris": {"android": "https://dc.lft.to/lastmile_qr_scan", "ios": "https://dc.lft.to/lastmile_qr_scan"}, "lon": -77.02253833333333, "name": "bc753ff220c13bf7742f917ee373439c", "is_disabled": 0, "is_reserved": 0, "bike_id": "bc753ff220c13bf7742f917ee373439c", "lat": 38.896275333333335, "type": "electric_scooter"}, {"fusion_lat": 0.0, "fusion_lon": 0.0, "rental_uris": {"android": "https://dc.lft.to/lastmile_qr_scan", "ios": "https://dc.lft.to/lastmile_qr_scan"}, "lon": -77.00496883333334, "name": "d1199e7427acf40958472462a548f15d", "is_disabled": 0, "is_reserved": 0, "bike_id": "d1199e7427acf40958472462a548f15d", "lat": 38.87469, "type": "electric_scooter"}, {"fusion_lat": 0.0, "fusion_lon": 0.0, "rental_uris": {"android": "https://dc.lft.to/lastmile_qr_scan", "ios": "https://dc.lft.to/lastmile_qr_scan"}, "lon": -77.04590233333333, "name": "c5d35d569e637f7a5e964e837df1643c", "is_disabled": 0, "is_reserved": 0, "bike_id": "c5d35d569e637f7a5e964e837df1643c", "lat": 38.92116816666667, "type": "electric_scooter"}, {"fusion_lat": 0.0, "fusion_lon": 0.0, "rental_uris": {"android": "https://dc.lft.to/lastmile_qr_scan", "ios": "https://dc.lft.to/lastmile_qr_scan"}, "lon": -77.02680833333334, "name": "71a066e5c77e14f8cf494a30d284a3eb", "is_disabled": 0, "is_reserved": 0, "bike_id": "71a066e5c77e14f8cf494a30d284a3eb", "lat": 38.898397833333334, "type": "electric_scooter"}, {"fusion_lat": 0.0, "fusion_lon": 0.0, "rental_uris": {"android": "https://dc.lft.to/lastmile_qr_scan", "ios": "https://dc.lft.to/lastmile_qr_scan"}, "lon": -77.03360183333334, "name": "59143831b7985bd5541b9935a50c1b89", "is_disabled": 0, "is_reserved": 0, "bike_id": "59143831b7985bd5541b9935a50c1b89", "lat": 38.90224716666667, "type": "electric_scooter"}, {"fusion_lat": 0.0, "fusion_lon": 0.0, "rental_uris": {"android": "https://dc.lft.to/lastmile_qr_scan", "ios": "https://dc.lft.to/lastmile_qr_scan"}, "lon": -77.07186716666666, "name": "493a88c6bb57f9d0e2cfeda44c68ee81", "is_disabled": 0, "is_reserved": 0, "bike_id": "493a88c6bb57f9d0e2cfeda44c68ee81", "lat": 38.909106666666666, "type": "electric_scooter"}, {"fusion_lat": 0.0, "fusion_lon": 0.0, "rental_uris": {"android": "https://dc.lft.to/lastmile_qr_scan", "ios": "https://dc.lft.to/lastmile_qr_scan"}, "lon": -77.00699433333334, "name": "89dcbca443bf8183a71bbb48d0de8ec0", "is_disabled": 0, "is_reserved": 0, "bike_id": "89dcbca443bf8183a71bbb48d0de8ec0", "lat": 38.900206833333336, "type": "electric_scooter"}, {"fusion_lat": 0.0, "fusion_lon": 0.0, "rental_uris": {"android": "https://dc.lft.to/lastmile_qr_scan", "ios": "https://dc.lft.to/lastmile_qr_scan"}, "lon": -77.01771833333333, "name": "a99955c6c5a603d4306ccd7d0a5b1703", "is_disabled": 0, "is_reserved": 0, "bike_id": "a99955c6c5a603d4306ccd7d0a5b1703", "lat": 38.87222166666667, "type": "electric_scooter"}, {"fusion_lat": 0.0, "fusion_lon": 0.0, "rental_uris": {"android": "https://dc.lft.to/lastmile_qr_scan", "ios": "https://dc.lft.to/lastmile_qr_scan"}, "lon": -77.04043216666666, "name": "7486442629a66d535aee3c5533a479fe", "is_disabled": 0, "is_reserved": 0, "bike_id": "7486442629a66d535aee3c5533a479fe", "lat": 38.91765383333333, "type": "electric_scooter"}, {"fusion_lat": 0.0, "fusion_lon": 0.0, "rental_uris": {"android": "https://dc.lft.to/lastmile_qr_scan", "ios": "https://dc.lft.to/lastmile_qr_scan"}, "lon": -77.00580633333334, "name": "8bc9bd13fc031563b64c03e4187728ee", "is_disabled": 0, "is_reserved": 0, "bike_id": "8bc9bd13fc031563b64c03e4187728ee", "lat": 38.90574566666667, "type": "electric_scooter"}, {"fusion_lat": 0.0, "fusion_lon": 0.0, "rental_uris": {"android": "https://dc.lft.to/lastmile_qr_scan", "ios": "https://dc.lft.to/lastmile_qr_scan"}, "lon": -77.03447766666666, "name": "b2facb1e661060e8335b773f2c697f72", "is_disabled": 0, "is_reserved": 0, "bike_id": "b2facb1e661060e8335b773f2c697f72", "lat": 38.90298683333333, "type": "electric_scooter"}, {"fusion_lat": 0.0, "fusion_lon": 0.0, "rental_uris": {"android": "https://dc.lft.to/lastmile_qr_scan", "ios": "https://dc.lft.to/lastmile_qr_scan"}, "lon": -76.957528, "name": "4484d00f432d1f3afe422d1491ff6780", "is_disabled": 0, "is_reserved": 0, "bike_id": "4484d00f432d1f3afe422d1491ff6780", "lat": 38.88423866666667, "type": "electric_scooter"}, {"fusion_lat": 0.0, "fusion_lon": 0.0, "rental_uris": {"android": "https://dc.lft.to/lastmile_qr_scan", "ios": "https://dc.lft.to/lastmile_qr_scan"}, "lon": -77.00308416666667, "name": "f1a51a6a813912221568eed6b61aacf6", "is_disabled": 0, "is_reserved": 0, "bike_id": "f1a51a6a813912221568eed6b61aacf6", "lat": 38.920338, "type": "electric_scooter"}, {"fusion_lat": 0.0, "fusion_lon": 0.0, "rental_uris": {"android": "https://dc.lft.to/lastmile_qr_scan", "ios": "https://dc.lft.to/lastmile_qr_scan"}, "lon": -77.14059116666667, "name": "2b9609e5106a9986787b5c027ebf9174", "is_disabled": 0, "is_reserved": 0, "bike_id": "2b9609e5106a9986787b5c027ebf9174", "lat": 38.987695, "type": "electric_bike"}, {"fusion_lat": 0.0, "fusion_lon": 0.0, "rental_uris": {"android": "https://dc.lft.to/lastmile_qr_scan", "ios": "https://dc.lft.to/lastmile_qr_scan"}, "lon": -77.03184533333334, "name": "c479f5b647dd6dce91ba7c78ef76b99c", "is_disabled": 0, "is_reserved": 0, "bike_id": "c479f5b647dd6dce91ba7c78ef76b99c", "lat": 38.924877, "type": "electric_scooter"}, {"fusion_lat": 0.0, "fusion_lon": 0.0, "rental_uris": {"android": "https://dc.lft.to/lastmile_qr_scan", "ios": "https://dc.lft.to/lastmile_qr_scan"}, "lon": -77.00711183333334, "name": "7c88a9f9b7d0064fff1ec02a0715ecd1", "is_disabled": 0, "is_reserved": 0, "bike_id": "7c88a9f9b7d0064fff1ec02a0715ecd1", "lat": 38.8848785, "type": "electric_scooter"}, {"fusion_lat": 0.0, "fusion_lon": 0.0, "rental_uris": {"android": "https://dc.lft.to/lastmile_qr_scan", "ios": "https://dc.lft.to/lastmile_qr_scan"}, "lon": -76.98698, "name": "a90a579404653b998fb8f197e5d63c23", "is_disabled": 0, "is_reserved": 0, "bike_id": "a90a579404653b998fb8f197e5d63c23", "lat": 38.86720566666666, "type": "electric_scooter"}, {"fusion_lat": 0.0, "fusion_lon": 0.0, "rental_uris": {"android": "https://dc.lft.to/lastmile_qr_scan", "ios": "https://dc.lft.to/lastmile_qr_scan"}, "lon": -76.97331116666666, "name": "9b3d4ac35bdd6d4e6b43cf8a2aafff75", "is_disabled": 0, "is_reserved": 0, "bike_id": "9b3d4ac35bdd6d4e6b43cf8a2aafff75", "lat": 38.9040955, "type": "electric_scooter"}, {"fusion_lat": 0.0, "fusion_lon": 0.0, "rental_uris": {"android": "https://dc.lft.to/lastmile_qr_scan", "ios": "https://dc.lft.to/lastmile_qr_scan"}, "lon": -77.01302866666667, "name": "0a3ebeabe26c3a791e1699f7a56c010c", "is_disabled": 0, "is_reserved": 0, "bike_id": "0a3ebeabe26c3a791e1699f7a56c010c", "lat": 38.930012833333336, "type": "electric_scooter"}, {"fusion_lat": 0.0, "fusion_lon": 0.0, "rental_uris": {"android": "https://dc.lft.to/lastmile_qr_scan", "ios": "https://dc.lft.to/lastmile_qr_scan"}, "lon": -77.0229055, "name": "06c494d7effb646662a130d728586897", "is_disabled": 0, "is_reserved": 0, "bike_id": "06c494d7effb646662a130d728586897", "lat": 38.91568566666667, "type": "electric_scooter"}, {"fusion_lat": 0.0, "fusion_lon": 0.0, "rental_uris": {"android": "https://dc.lft.to/lastmile_qr_scan", "ios": "https://dc.lft.to/lastmile_qr_scan"}, "lon": -77.0346065, "name": "53ce66a353907a3d26f5ec383ed8b0af", "is_disabled": 0, "is_reserved": 0, "bike_id": "53ce66a353907a3d26f5ec383ed8b0af", "lat": 38.9031245, "type": "electric_scooter"}, {"fusion_lat": 0.0, "fusion_lon": 0.0, "rental_uris": {"android": "https://dc.lft.to/lastmile_qr_scan", "ios": "https://dc.lft.to/lastmile_qr_scan"}, "lon": -77.0218945, "name": "176821ddc1bf124f6f1c000d90d5bf56", "is_disabled": 0, "is_reserved": 0, "bike_id": "176821ddc1bf124f6f1c000d90d5bf56", "lat": 38.91877216666666, "type": "electric_scooter"}, {"fusion_lat": 0.0, "fusion_lon": 0.0, "rental_uris": {"android": "https://dc.lft.to/lastmile_qr_scan", "ios": "https://dc.lft.to/lastmile_qr_scan"}, "lon": -76.920447, "name": "68ecddf49b77c1aebfca34a3345f3660", "is_disabled": 0, "is_reserved": 0, "bike_id": "68ecddf49b77c1aebfca34a3345f3660", "lat": 38.897365, "type": "electric_bike"}, {"fusion_lat": 0.0, "fusion_lon": 0.0, "rental_uris": {"android": "https://dc.lft.to/lastmile_qr_scan", "ios": "https://dc.lft.to/lastmile_qr_scan"}, "lon": -77.02617466666666, "name": "88d38d00de35c1c2c28c56d5747181fd", "is_disabled": 0, "is_reserved": 0, "bike_id": "88d38d00de35c1c2c28c56d5747181fd", "lat": 38.951818833333334, "type": "electric_scooter"}, {"fusion_lat": 0.0, "fusion_lon": 0.0, "rental_uris": {"android": "https://dc.lft.to/lastmile_qr_scan", "ios": "https://dc.lft.to/lastmile_qr_scan"}, "lon": -77.00565183333333, "name": "0afbc7b6dc179bc3811ec2360ddd487c", "is_disabled": 0, "is_reserved": 0, "bike_id": "0afbc7b6dc179bc3811ec2360ddd487c", "lat": 38.874718, "type": "electric_scooter"}, {"fusion_lat": 0.0, "fusion_lon": 0.0, "rental_uris": {"android": "https://dc.lft.to/lastmile_qr_scan", "ios": "https://dc.lft.to/lastmile_qr_scan"}, "lon": -77.04192966666666, "name": "78722bc2aeb33e31806a48648b61abb6", "is_disabled": 0, "is_reserved": 0, "bike_id": "78722bc2aeb33e31806a48648b61abb6", "lat": 38.92101266666667, "type": "electric_scooter"}, {"fusion_lat": 0.0, "fusion_lon": 0.0, "rental_uris": {"android": "https://dc.lft.to/lastmile_qr_scan", "ios": "https://dc.lft.to/lastmile_qr_scan"}, "lon": -77.03289033333333, "name": "9290de0650ea80068a25dcdc2f044bfb", "is_disabled": 0, "is_reserved": 0, "bike_id": "9290de0650ea80068a25dcdc2f044bfb", "lat": 38.919844166666664, "type": "electric_scooter"}, {"fusion_lat": 0.0, "fusion_lon": 0.0, "rental_uris": {"android": "https://dc.lft.to/lastmile_qr_scan", "ios": "https://dc.lft.to/lastmile_qr_scan"}, "lon": -77.03238183333333, "name": "fef13e9b815df37b62bce2b9e27b038a", "is_disabled": 0, "is_reserved": 0, "bike_id": "fef13e9b815df37b62bce2b9e27b038a", "lat": 38.92742533333333, "type": "electric_scooter"}, {"fusion_lat": 0.0, "fusion_lon": 0.0, "rental_uris": {"android": "https://dc.lft.to/lastmile_qr_scan", "ios": "https://dc.lft.to/lastmile_qr_scan"}, "lon": -77.0317565, "name": "30a7878aa5e1c2564162ec105acb6986", "is_disabled": 0, "is_reserved": 0, "bike_id": "30a7878aa5e1c2564162ec105acb6986", "lat": 38.90081883333333, "type": "electric_scooter"}, {"fusion_lat": 0.0, "fusion_lon": 0.0, "rental_uris": {"android": "https://dc.lft.to/lastmile_qr_scan", "ios": "https://dc.lft.to/lastmile_qr_scan"}, "lon": -76.9318785, "name": "d4be3e20fde624c46b0719e83f83cbc7", "is_disabled": 0, "is_reserved": 0, "bike_id": "d4be3e20fde624c46b0719e83f83cbc7", "lat": 38.8988165, "type": "electric_scooter"}, {"fusion_lat": 0.0, "fusion_lon": 0.0, "rental_uris": {"android": "https://dc.lft.to/lastmile_qr_scan", "ios": "https://dc.lft.to/lastmile_qr_scan"}, "lon": -77.02773533333334, "name": "81bef4c14788b54fcf859e85f4f1588b", "is_disabled": 0, "is_reserved": 0, "bike_id": "81bef4c14788b54fcf859e85f4f1588b", "lat": 38.896283, "type": "electric_scooter"}, {"fusion_lat": 0.0, "fusion_lon": 0.0, "rental_uris": {"android": "https://dc.lft.to/lastmile_qr_scan", "ios": "https://dc.lft.to/lastmile_qr_scan"}, "lon": -77.03258166666667, "name": "28bb0cbbda31c242b8aab14d52857d8d", "is_disabled": 0, "is_reserved": 0, "bike_id": "28bb0cbbda31c242b8aab14d52857d8d", "lat": 38.926282666666665, "type": "electric_scooter"}, {"fusion_lat": 0.0, "fusion_lon": 0.0, "rental_uris": {"android": "https://dc.lft.to/lastmile_qr_scan", "ios": "https://dc.lft.to/lastmile_qr_scan"}, "lon": -77.035078, "name": "8d8b90c2909b8fae248fc25fb9705f24", "is_disabled": 0, "is_reserved": 0, "bike_id": "8d8b90c2909b8fae248fc25fb9705f24", "lat": 38.92205416666667, "type": "electric_scooter"}, {"fusion_lat": 0.0, "fusion_lon": 0.0, "rental_uris": {"android": "https://dc.lft.to/lastmile_qr_scan", "ios": "https://dc.lft.to/lastmile_qr_scan"}, "lon": -77.00895766666666, "name": "92a72f61ddf31a3d57b8731c5121830c", "is_disabled": 0, "is_reserved": 0, "bike_id": "92a72f61ddf31a3d57b8731c5121830c", "lat": 38.89985266666667, "type": "electric_scooter"}, {"fusion_lat": 0.0, "fusion_lon": 0.0, "rental_uris": {"android": "https://dc.lft.to/lastmile_qr_scan", "ios": "https://dc.lft.to/lastmile_qr_scan"}, "lon": -77.02300683333333, "name": "67d208eb7c5296a35b95e866d28b0736", "is_disabled": 0, "is_reserved": 0, "bike_id": "67d208eb7c5296a35b95e866d28b0736", "lat": 38.90848783333333, "type": "electric_scooter"}, {"fusion_lat": 0.0, "fusion_lon": 0.0, "rental_uris": {"android": "https://dc.lft.to/lastmile_qr_scan", "ios": "https://dc.lft.to/lastmile_qr_scan"}, "lon": -77.02063783333334, "name": "fc33c3ed10c712e88a9e9b516d12a4a2", "is_disabled": 0, "is_reserved": 0, "bike_id": "fc33c3ed10c712e88a9e9b516d12a4a2", "lat": 38.92368116666667, "type": "electric_scooter"}, {"fusion_lat": 0.0, "fusion_lon": 0.0, "rental_uris": {"android": "https://dc.lft.to/lastmile_qr_scan", "ios": "https://dc.lft.to/lastmile_qr_scan"}, "lon": -77.032852, "name": "8f15ca7391c65d30e9285ac2940cb77f", "is_disabled": 0, "is_reserved": 0, "bike_id": "8f15ca7391c65d30e9285ac2940cb77f", "lat": 38.922723166666664, "type": "electric_scooter"}, {"fusion_lat": 0.0, "fusion_lon": 0.0, "rental_uris": {"android": "https://dc.lft.to/lastmile_qr_scan", "ios": "https://dc.lft.to/lastmile_qr_scan"}, "lon": -76.97167966666666, "name": "adb617f525a7e461219dbbfe9366ec42", "is_disabled": 0, "is_reserved": 0, "bike_id": "adb617f525a7e461219dbbfe9366ec42", "lat": 38.9244475, "type": "electric_bike"}, {"fusion_lat": 0.0, "fusion_lon": 0.0, "rental_uris": {"android": "https://dc.lft.to/lastmile_qr_scan", "ios": "https://dc.lft.to/lastmile_qr_scan"}, "lon": -77.01227233333333, "name": "ce693f5ae7c60bf9114a15fd44e09ac9", "is_disabled": 0, "is_reserved": 0, "bike_id": "ce693f5ae7c60bf9114a15fd44e09ac9", "lat": 38.8974555, "type": "electric_scooter"}, {"fusion_lat": 0.0, "fusion_lon": 0.0, "rental_uris": {"android": "https://dc.lft.to/lastmile_qr_scan", "ios": "https://dc.lft.to/lastmile_qr_scan"}, "lon": -77.20142066666666, "name": "908cbdcd74caaae8c90047955c301de1", "is_disabled": 0, "is_reserved": 0, "bike_id": "908cbdcd74caaae8c90047955c301de1", "lat": 38.922183, "type": "electric_bike"}, {"fusion_lat": 0.0, "fusion_lon": 0.0, "rental_uris": {"android": "https://dc.lft.to/lastmile_qr_scan", "ios": "https://dc.lft.to/lastmile_qr_scan"}, "lon": -76.94542416666667, "name": "e2f213691cb878d2189704ca604544b5", "is_disabled": 0, "is_reserved": 0, "bike_id": "e2f213691cb878d2189704ca604544b5", "lat": 38.899650666666666, "type": "electric_scooter"}, {"fusion_lat": 0.0, "fusion_lon": 0.0, "rental_uris": {"android": "https://dc.lft.to/lastmile_qr_scan", "ios": "https://dc.lft.to/lastmile_qr_scan"}, "lon": -77.04086366666667, "name": "b4cb55d5e148835cf163283a774fa272", "is_disabled": 0, "is_reserved": 0, "bike_id": "b4cb55d5e148835cf163283a774fa272", "lat": 38.903942666666666, "type": "electric_scooter"}, {"fusion_lat": 0.0, "fusion_lon": 0.0, "rental_uris": {"android": "https://dc.lft.to/lastmile_qr_scan", "ios": "https://dc.lft.to/lastmile_qr_scan"}, "lon": -76.97099033333333, "name": "985160ddfc569f473b73384fd4a2f57b", "is_disabled": 0, "is_reserved": 0, "bike_id": "985160ddfc569f473b73384fd4a2f57b", "lat": 38.870628333333336, "type": "electric_scooter"}, {"fusion_lat": 0.0, "fusion_lon": 0.0, "rental_uris": {"android": "https://dc.lft.to/lastmile_qr_scan", "ios": "https://dc.lft.to/lastmile_qr_scan"}, "lon": -77.04984533333334, "name": "844e8461e9735f904166e69f43f119d7", "is_disabled": 0, "is_reserved": 0, "bike_id": "844e8461e9735f904166e69f43f119d7", "lat": 38.901201, "type": "electric_scooter"}, {"fusion_lat": 0.0, "fusion_lon": 0.0, "rental_uris": {"android": "https://dc.lft.to/lastmile_qr_scan", "ios": "https://dc.lft.to/lastmile_qr_scan"}, "lon": -76.931887, "name": "cf1f0597f87a4dd20ed35b0e3625fc01", "is_disabled": 0, "is_reserved": 0, "bike_id": "cf1f0597f87a4dd20ed35b0e3625fc01", "lat": 38.898786666666666, "type": "electric_scooter"}, {"fusion_lat": 0.0, "fusion_lon": 0.0, "rental_uris": {"android": "https://dc.lft.to/lastmile_qr_scan", "ios": "https://dc.lft.to/lastmile_qr_scan"}, "lon": -77.036347, "name": "7429c400015aaa6179a19c258707610e", "is_disabled": 0, "is_reserved": 0, "bike_id": "7429c400015aaa6179a19c258707610e", "lat": 38.92699316666667, "type": "electric_scooter"}, {"fusion_lat": 0.0, "fusion_lon": 0.0, "rental_uris": {"android": "https://dc.lft.to/lastmile_qr_scan", "ios": "https://dc.lft.to/lastmile_qr_scan"}, "lon": -77.0448535, "name": "6d316810f7817329ec2ce4abda31f587", "is_disabled": 0, "is_reserved": 0, "bike_id": "6d316810f7817329ec2ce4abda31f587", "lat": 38.8952655, "type": "electric_scooter"}, {"fusion_lat": 0.0, "fusion_lon": 0.0, "rental_uris": {"android": "https://dc.lft.to/lastmile_qr_scan", "ios": "https://dc.lft.to/lastmile_qr_scan"}, "lon": -77.02203516666667, "name": "09eb35b5b2d96a4a3e73b490839ca2fe", "is_disabled": 0, "is_reserved": 0, "bike_id": "09eb35b5b2d96a4a3e73b490839ca2fe", "lat": 38.9479625, "type": "electric_scooter"}, {"fusion_lat": 0.0, "fusion_lon": 0.0, "rental_uris": {"android": "https://dc.lft.to/lastmile_qr_scan", "ios": "https://dc.lft.to/lastmile_qr_scan"}, "lon": -76.9575835, "name": "fe5f5903f0efa7a2093300efc801b89d", "is_disabled": 0, "is_reserved": 0, "bike_id": "fe5f5903f0efa7a2093300efc801b89d", "lat": 38.884308, "type": "electric_scooter"}, {"fusion_lat": 0.0, "fusion_lon": 0.0, "rental_uris": {"android": "https://dc.lft.to/lastmile_qr_scan", "ios": "https://dc.lft.to/lastmile_qr_scan"}, "lon": -76.99040216666667, "name": "0c47b4ae0d1a0a33084e765eebfbfaa0", "is_disabled": 0, "is_reserved": 0, "bike_id": "0c47b4ae0d1a0a33084e765eebfbfaa0", "lat": 38.8584245, "type": "electric_scooter"}, {"fusion_lat": 0.0, "fusion_lon": 0.0, "rental_uris": {"android": "https://dc.lft.to/lastmile_qr_scan", "ios": "https://dc.lft.to/lastmile_qr_scan"}, "lon": -76.98674116666666, "name": "fe8ac7c99a448aa54afd21f4613c34c7", "is_disabled": 0, "is_reserved": 0, "bike_id": "fe8ac7c99a448aa54afd21f4613c34c7", "lat": 38.906748, "type": "electric_scooter"}, {"fusion_lat": 0.0, "fusion_lon": 0.0, "rental_uris": {"android": "https://dc.lft.to/lastmile_qr_scan", "ios": "https://dc.lft.to/lastmile_qr_scan"}, "lon": -76.99803566666667, "name": "ddc7edeaf4f4bbedbb31e60df4952034", "is_disabled": 0, "is_reserved": 0, "bike_id": "ddc7edeaf4f4bbedbb31e60df4952034", "lat": 38.90139083333333, "type": "electric_scooter"}, {"fusion_lat": 0.0, "fusion_lon": 0.0, "rental_uris": {"android": "https://dc.lft.to/lastmile_qr_scan", "ios": "https://dc.lft.to/lastmile_qr_scan"}, "lon": -77.03900233333333, "name": "9a698e3fe8fadc95094fba46d3e029c4", "is_disabled": 0, "is_reserved": 0, "bike_id": "9a698e3fe8fadc95094fba46d3e029c4", "lat": 38.922689, "type": "electric_scooter"}, {"fusion_lat": 0.0, "fusion_lon": 0.0, "rental_uris": {"android": "https://dc.lft.to/lastmile_qr_scan", "ios": "https://dc.lft.to/lastmile_qr_scan"}, "lon": -76.99534366666667, "name": "551b64234a29d61b8391bfd7f2b35db2", "is_disabled": 0, "is_reserved": 0, "bike_id": "551b64234a29d61b8391bfd7f2b35db2", "lat": 38.926662666666665, "type": "electric_scooter"}, {"fusion_lat": 0.0, "fusion_lon": 0.0, "rental_uris": {"android": "https://dc.lft.to/lastmile_qr_scan", "ios": "https://dc.lft.to/lastmile_qr_scan"}, "lon": -77.04345883333333, "name": "9529cb47d4126ccaf3ef054ffcf1dfb0", "is_disabled": 0, "is_reserved": 0, "bike_id": "9529cb47d4126ccaf3ef054ffcf1dfb0", "lat": 38.90424433333333, "type": "electric_scooter"}, {"fusion_lat": 0.0, "fusion_lon": 0.0, "rental_uris": {"android": "https://dc.lft.to/lastmile_qr_scan", "ios": "https://dc.lft.to/lastmile_qr_scan"}, "lon": -77.0199145, "name": "c8c54a8cd0e073367bb69c063787f7ff", "is_disabled": 0, "is_reserved": 0, "bike_id": "c8c54a8cd0e073367bb69c063787f7ff", "lat": 38.895288, "type": "electric_scooter"}, {"fusion_lat": 0.0, "fusion_lon": 0.0, "rental_uris": {"android": "https://dc.lft.to/lastmile_qr_scan", "ios": "https://dc.lft.to/lastmile_qr_scan"}, "lon": -76.95583433333333, "name": "8c3c286b959803cf67e34a679a7cf550", "is_disabled": 0, "is_reserved": 0, "bike_id": "8c3c286b959803cf67e34a679a7cf550", "lat": 38.88618433333333, "type": "electric_scooter"}, {"fusion_lat": 0.0, "fusion_lon": 0.0, "rental_uris": {"android": "https://dc.lft.to/lastmile_qr_scan", "ios": "https://dc.lft.to/lastmile_qr_scan"}, "lon": -77.025085, "name": "a6de594cc1f62b9a48b4d3fd30723caf", "is_disabled": 0, "is_reserved": 0, "bike_id": "a6de594cc1f62b9a48b4d3fd30723caf", "lat": 38.91811533333333, "type": "electric_scooter"}, {"fusion_lat": 0.0, "fusion_lon": 0.0, "rental_uris": {"android": "https://dc.lft.to/lastmile_qr_scan", "ios": "https://dc.lft.to/lastmile_qr_scan"}, "lon": -77.05923666666666, "name": "d759042693054a6afea6bba722d182a1", "is_disabled": 0, "is_reserved": 0, "bike_id": "d759042693054a6afea6bba722d182a1", "lat": 38.902751333333335, "type": "electric_scooter"}, {"fusion_lat": 0.0, "fusion_lon": 0.0, "rental_uris": {"android": "https://dc.lft.to/lastmile_qr_scan", "ios": "https://dc.lft.to/lastmile_qr_scan"}, "lon": -77.0173455, "name": "24c377dd37844ec3a0d7689933a88b91", "is_disabled": 0, "is_reserved": 0, "bike_id": "24c377dd37844ec3a0d7689933a88b91", "lat": 38.902366666666666, "type": "electric_scooter"}, {"fusion_lat": 0.0, "fusion_lon": 0.0, "rental_uris": {"android": "https://dc.lft.to/lastmile_qr_scan", "ios": "https://dc.lft.to/lastmile_qr_scan"}, "lon": -76.98466266666667, "name": "8d9f95b2fbd828a35638b2f6474e4b3c", "is_disabled": 0, "is_reserved": 0, "bike_id": "8d9f95b2fbd828a35638b2f6474e4b3c", "lat": 38.903985666666664, "type": "electric_scooter"}, {"fusion_lat": 0.0, "fusion_lon": 0.0, "rental_uris": {"android": "https://dc.lft.to/lastmile_qr_scan", "ios": "https://dc.lft.to/lastmile_qr_scan"}, "lon": -77.04397783333333, "name": "de38bc041c4e395f7596ab875dff9383", "is_disabled": 0, "is_reserved": 0, "bike_id": "de38bc041c4e395f7596ab875dff9383", "lat": 38.919089666666665, "type": "electric_scooter"}, {"fusion_lat": 0.0, "fusion_lon": 0.0, "rental_uris": {"android": "https://dc.lft.to/lastmile_qr_scan", "ios": "https://dc.lft.to/lastmile_qr_scan"}, "lon": -76.99740816666667, "name": "aade385a6537eb847e504e245f68eebb", "is_disabled": 0, "is_reserved": 0, "bike_id": "aade385a6537eb847e504e245f68eebb", "lat": 39.0423345, "type": "electric_bike"}, {"fusion_lat": 0.0, "fusion_lon": 0.0, "rental_uris": {"android": "https://dc.lft.to/lastmile_qr_scan", "ios": "https://dc.lft.to/lastmile_qr_scan"}, "lon": -77.01371816666666, "name": "f84f3ce764c5753f8f51696740b1d414", "is_disabled": 0, "is_reserved": 0, "bike_id": "f84f3ce764c5753f8f51696740b1d414", "lat": 38.91913483333333, "type": "electric_scooter"}, {"fusion_lat": 0.0, "fusion_lon": 0.0, "rental_uris": {"android": "https://dc.lft.to/lastmile_qr_scan", "ios": "https://dc.lft.to/lastmile_qr_scan"}, "lon": -77.02232133333334, "name": "1470989c41dcab19a468636646223084", "is_disabled": 0, "is_reserved": 0, "bike_id": "1470989c41dcab19a468636646223084", "lat": 38.887725, "type": "electric_scooter"}, {"fusion_lat": 0.0, "fusion_lon": 0.0, "rental_uris": {"android": "https://dc.lft.to/lastmile_qr_scan", "ios": "https://dc.lft.to/lastmile_qr_scan"}, "lon": -77.0135535, "name": "9cfb88dd3c05151948ce3f4ada98cec8", "is_disabled": 0, "is_reserved": 0, "bike_id": "9cfb88dd3c05151948ce3f4ada98cec8", "lat": 38.871628666666666, "type": "electric_scooter"}, {"fusion_lat": 0.0, "fusion_lon": 0.0, "rental_uris": {"android": "https://dc.lft.to/lastmile_qr_scan", "ios": "https://dc.lft.to/lastmile_qr_scan"}, "lon": -77.0352685, "name": "ca8fb7631e634fe11520866c267d5693", "is_disabled": 0, "is_reserved": 0, "bike_id": "ca8fb7631e634fe11520866c267d5693", "lat": 38.93117516666667, "type": "electric_scooter"}, {"fusion_lat": 0.0, "fusion_lon": 0.0, "rental_uris": {"android": "https://dc.lft.to/lastmile_qr_scan", "ios": "https://dc.lft.to/lastmile_qr_scan"}, "lon": -76.99627233333334, "name": "cd417a71ec08886c2cc5d19c0a79e553", "is_disabled": 0, "is_reserved": 0, "bike_id": "cd417a71ec08886c2cc5d19c0a79e553", "lat": 38.900678666666664, "type": "electric_scooter"}, {"fusion_lat": 0.0, "fusion_lon": 0.0, "rental_uris": {"android": "https://dc.lft.to/lastmile_qr_scan", "ios": "https://dc.lft.to/lastmile_qr_scan"}, "lon": -76.9734515, "name": "e8330ccb4f0123afb10cf44d4fc11be9", "is_disabled": 0, "is_reserved": 0, "bike_id": "e8330ccb4f0123afb10cf44d4fc11be9", "lat": 38.86516183333333, "type": "electric_scooter"}, {"fusion_lat": 0.0, "fusion_lon": 0.0, "rental_uris": {"android": "https://dc.lft.to/lastmile_qr_scan", "ios": "https://dc.lft.to/lastmile_qr_scan"}, "lon": -77.03441983333333, "name": "59e2e019308e169b807cfd572cce0ad0", "is_disabled": 0, "is_reserved": 0, "bike_id": "59e2e019308e169b807cfd572cce0ad0", "lat": 38.90347416666667, "type": "electric_scooter"}, {"fusion_lat": 0.0, "fusion_lon": 0.0, "rental_uris": {"android": "https://dc.lft.to/lastmile_qr_scan", "ios": "https://dc.lft.to/lastmile_qr_scan"}, "lon": -77.04003183333333, "name": "f9b6d1e9908bcb9a12627aed1ab3585e", "is_disabled": 0, "is_reserved": 0, "bike_id": "f9b6d1e9908bcb9a12627aed1ab3585e", "lat": 38.924646, "type": "electric_scooter"}, {"fusion_lat": 0.0, "fusion_lon": 0.0, "rental_uris": {"android": "https://dc.lft.to/lastmile_qr_scan", "ios": "https://dc.lft.to/lastmile_qr_scan"}, "lon": -77.04370316666666, "name": "b6a6b67ce6bf26b644065b13dee541bf", "is_disabled": 0, "is_reserved": 0, "bike_id": "b6a6b67ce6bf26b644065b13dee541bf", "lat": 38.901342, "type": "electric_scooter"}, {"fusion_lat": 0.0, "fusion_lon": 0.0, "rental_uris": {"android": "https://dc.lft.to/lastmile_qr_scan", "ios": "https://dc.lft.to/lastmile_qr_scan"}, "lon": -77.09712483333334, "name": "4018b5281e5f4c7f0d00253ac74b1555", "is_disabled": 0, "is_reserved": 0, "bike_id": "4018b5281e5f4c7f0d00253ac74b1555", "lat": 38.9509635, "type": "electric_scooter"}, {"fusion_lat": 0.0, "fusion_lon": 0.0, "rental_uris": {"android": "https://dc.lft.to/lastmile_qr_scan", "ios": "https://dc.lft.to/lastmile_qr_scan"}, "lon": -77.03593233333334, "name": "565d561cbff8331bf7368d7223d43670", "is_disabled": 0, "is_reserved": 0, "bike_id": "565d561cbff8331bf7368d7223d43670", "lat": 38.931478, "type": "electric_scooter"}, {"fusion_lat": 0.0, "fusion_lon": 0.0, "rental_uris": {"android": "https://dc.lft.to/lastmile_qr_scan", "ios": "https://dc.lft.to/lastmile_qr_scan"}, "lon": -77.00759466666666, "name": "995e2c054aac1ef9b7195dd40c1342e1", "is_disabled": 0, "is_reserved": 0, "bike_id": "995e2c054aac1ef9b7195dd40c1342e1", "lat": 38.871190166666665, "type": "electric_scooter"}, {"fusion_lat": 0.0, "fusion_lon": 0.0, "rental_uris": {"android": "https://dc.lft.to/lastmile_qr_scan", "ios": "https://dc.lft.to/lastmile_qr_scan"}, "lon": -77.03587516666667, "name": "13c1ec245d8a5c80d77a037e6b72d397", "is_disabled": 0, "is_reserved": 0, "bike_id": "13c1ec245d8a5c80d77a037e6b72d397", "lat": 38.93148133333333, "type": "electric_scooter"}, {"fusion_lat": 0.0, "fusion_lon": 0.0, "rental_uris": {"android": "https://dc.lft.to/lastmile_qr_scan", "ios": "https://dc.lft.to/lastmile_qr_scan"}, "lon": -77.02693233333333, "name": "18dbff116f26a67344cb4e277ec1d606", "is_disabled": 0, "is_reserved": 0, "bike_id": "18dbff116f26a67344cb4e277ec1d606", "lat": 38.908419333333335, "type": "electric_scooter"}, {"fusion_lat": 0.0, "fusion_lon": 0.0, "rental_uris": {"android": "https://dc.lft.to/lastmile_qr_scan", "ios": "https://dc.lft.to/lastmile_qr_scan"}, "lon": -77.07173416666667, "name": "f4f5ce71838ee6bcff1f90f18fa16af1", "is_disabled": 0, "is_reserved": 0, "bike_id": "f4f5ce71838ee6bcff1f90f18fa16af1", "lat": 38.90775433333334, "type": "electric_scooter"}, {"fusion_lat": 0.0, "fusion_lon": 0.0, "rental_uris": {"android": "https://dc.lft.to/lastmile_qr_scan", "ios": "https://dc.lft.to/lastmile_qr_scan"}, "lon": -77.0238885, "name": "176ad723ec5768cb5fc7cb0bc1eeb503", "is_disabled": 0, "is_reserved": 0, "bike_id": "176ad723ec5768cb5fc7cb0bc1eeb503", "lat": 38.9069205, "type": "electric_scooter"}, {"fusion_lat": 0.0, "fusion_lon": 0.0, "rental_uris": {"android": "https://dc.lft.to/lastmile_qr_scan", "ios": "https://dc.lft.to/lastmile_qr_scan"}, "lon": -76.96710583333333, "name": "9c9c1c03b1f5a418f6ac267d72ba50d0", "is_disabled": 0, "is_reserved": 0, "bike_id": "9c9c1c03b1f5a418f6ac267d72ba50d0", "lat": 38.86038166666667, "type": "electric_scooter"}, {"fusion_lat": 0.0, "fusion_lon": 0.0, "rental_uris": {"android": "https://dc.lft.to/lastmile_qr_scan", "ios": "https://dc.lft.to/lastmile_qr_scan"}, "lon": -77.016641, "name": "d4aef3374fe8e5e4a1e2f7692408789c", "is_disabled": 0, "is_reserved": 0, "bike_id": "d4aef3374fe8e5e4a1e2f7692408789c", "lat": 38.92048233333333, "type": "electric_scooter"}, {"fusion_lat": 0.0, "fusion_lon": 0.0, "rental_uris": {"android": "https://dc.lft.to/lastmile_qr_scan", "ios": "https://dc.lft.to/lastmile_qr_scan"}, "lon": -77.00715483333333, "name": "b8906ae0117afeee6cd642a6908dfc29", "is_disabled": 0, "is_reserved": 0, "bike_id": "b8906ae0117afeee6cd642a6908dfc29", "lat": 38.8848565, "type": "electric_scooter"}, {"fusion_lat": 0.0, "fusion_lon": 0.0, "rental_uris": {"android": "https://dc.lft.to/lastmile_qr_scan", "ios": "https://dc.lft.to/lastmile_qr_scan"}, "lon": -77.03449733333333, "name": "c715cbfe18817a4a64cba576d06c134c", "is_disabled": 0, "is_reserved": 0, "bike_id": "c715cbfe18817a4a64cba576d06c134c", "lat": 38.9083745, "type": "electric_scooter"}, {"fusion_lat": 0.0, "fusion_lon": 0.0, "rental_uris": {"android": "https://dc.lft.to/lastmile_qr_scan", "ios": "https://dc.lft.to/lastmile_qr_scan"}, "lon": -76.98205916666667, "name": "355f9c9ba4ea97d6c6aa246928fa2a2d", "is_disabled": 0, "is_reserved": 0, "bike_id": "355f9c9ba4ea97d6c6aa246928fa2a2d", "lat": 38.985045166666666, "type": "electric_bike"}, {"fusion_lat": 0.0, "fusion_lon": 0.0, "rental_uris": {"android": "https://dc.lft.to/lastmile_qr_scan", "ios": "https://dc.lft.to/lastmile_qr_scan"}, "lon": -77.03641283333333, "name": "c7bebcbc203a397b55a78042c6cd9465", "is_disabled": 0, "is_reserved": 0, "bike_id": "c7bebcbc203a397b55a78042c6cd9465", "lat": 38.9182675, "type": "electric_scooter"}, {"fusion_lat": 0.0, "fusion_lon": 0.0, "rental_uris": {"android": "https://dc.lft.to/lastmile_qr_scan", "ios": "https://dc.lft.to/lastmile_qr_scan"}, "lon": -76.98544833333334, "name": "2555a02cb412cb80aca1d0cb31061088", "is_disabled": 0, "is_reserved": 0, "bike_id": "2555a02cb412cb80aca1d0cb31061088", "lat": 38.866900666666666, "type": "electric_scooter"}, {"fusion_lat": 0.0, "fusion_lon": 0.0, "rental_uris": {"android": "https://dc.lft.to/lastmile_qr_scan", "ios": "https://dc.lft.to/lastmile_qr_scan"}, "lon": -77.02155583333334, "name": "fae825aee9985c929cf4b4d0674cf596", "is_disabled": 0, "is_reserved": 0, "bike_id": "fae825aee9985c929cf4b4d0674cf596", "lat": 38.92606266666667, "type": "electric_scooter"}, {"fusion_lat": 0.0, "fusion_lon": 0.0, "rental_uris": {"android": "https://dc.lft.to/lastmile_qr_scan", "ios": "https://dc.lft.to/lastmile_qr_scan"}, "lon": -77.04194433333333, "name": "e7f2daffe0ab2ed3cfb64ee8045ba5ed", "is_disabled": 0, "is_reserved": 0, "bike_id": "e7f2daffe0ab2ed3cfb64ee8045ba5ed", "lat": 38.92055283333333, "type": "electric_scooter"}, {"fusion_lat": 0.0, "fusion_lon": 0.0, "rental_uris": {"android": "https://dc.lft.to/lastmile_qr_scan", "ios": "https://dc.lft.to/lastmile_qr_scan"}, "lon": -77.043395, "name": "6d11966a742cc93d5ce4ed4789a0d9da", "is_disabled": 0, "is_reserved": 0, "bike_id": "6d11966a742cc93d5ce4ed4789a0d9da", "lat": 38.90404983333333, "type": "electric_scooter"}, {"fusion_lat": 0.0, "fusion_lon": 0.0, "rental_uris": {"android": "https://dc.lft.to/lastmile_qr_scan", "ios": "https://dc.lft.to/lastmile_qr_scan"}, "lon": -77.002315, "name": "b4bc66db4b45b75b08db5d5206c26a34", "is_disabled": 0, "is_reserved": 0, "bike_id": "b4bc66db4b45b75b08db5d5206c26a34", "lat": 38.885146166666665, "type": "electric_scooter"}, {"fusion_lat": 0.0, "fusion_lon": 0.0, "rental_uris": {"android": "https://dc.lft.to/lastmile_qr_scan", "ios": "https://dc.lft.to/lastmile_qr_scan"}, "lon": -77.02481, "name": "54109a381a20e4d4d576e66664cf3646", "is_disabled": 0, "is_reserved": 0, "bike_id": "54109a381a20e4d4d576e66664cf3646", "lat": 38.93964283333333, "type": "electric_scooter"}, {"fusion_lat": 0.0, "fusion_lon": 0.0, "rental_uris": {"android": "https://dc.lft.to/lastmile_qr_scan", "ios": "https://dc.lft.to/lastmile_qr_scan"}, "lon": -77.03151466666667, "name": "7a630202a25b7ab5449c2031cd07176e", "is_disabled": 0, "is_reserved": 0, "bike_id": "7a630202a25b7ab5449c2031cd07176e", "lat": 38.90461166666667, "type": "electric_scooter"}, {"fusion_lat": 0.0, "fusion_lon": 0.0, "rental_uris": {"android": "https://dc.lft.to/lastmile_qr_scan", "ios": "https://dc.lft.to/lastmile_qr_scan"}, "lon": -77.00951166666667, "name": "8a591bfa9779adaf08d19539664b81d4", "is_disabled": 0, "is_reserved": 0, "bike_id": "8a591bfa9779adaf08d19539664b81d4", "lat": 38.897390333333334, "type": "electric_scooter"}, {"fusion_lat": 0.0, "fusion_lon": 0.0, "rental_uris": {"android": "https://dc.lft.to/lastmile_qr_scan", "ios": "https://dc.lft.to/lastmile_qr_scan"}, "lon": -77.0049225, "name": "c07160d7ac2c69dc979429e72c21d76b", "is_disabled": 0, "is_reserved": 0, "bike_id": "c07160d7ac2c69dc979429e72c21d76b", "lat": 38.8746705, "type": "electric_scooter"}, {"fusion_lat": 0.0, "fusion_lon": 0.0, "rental_uris": {"android": "https://dc.lft.to/lastmile_qr_scan", "ios": "https://dc.lft.to/lastmile_qr_scan"}, "lon": -77.02046066666666, "name": "d45425a3ff996fedb2d6d4f2e570263d", "is_disabled": 0, "is_reserved": 0, "bike_id": "d45425a3ff996fedb2d6d4f2e570263d", "lat": 38.920918666666665, "type": "electric_scooter"}, {"fusion_lat": 0.0, "fusion_lon": 0.0, "rental_uris": {"android": "https://dc.lft.to/lastmile_qr_scan", "ios": "https://dc.lft.to/lastmile_qr_scan"}, "lon": -77.08487883333333, "name": "0e6a271fc67df49b8eb70e116e102f45", "is_disabled": 0, "is_reserved": 0, "bike_id": "0e6a271fc67df49b8eb70e116e102f45", "lat": 38.939041, "type": "electric_scooter"}, {"fusion_lat": 0.0, "fusion_lon": 0.0, "rental_uris": {"android": "https://dc.lft.to/lastmile_qr_scan", "ios": "https://dc.lft.to/lastmile_qr_scan"}, "lon": -77.01806816666667, "name": "833771b90674d3257e45a3314c1c2729", "is_disabled": 0, "is_reserved": 0, "bike_id": "833771b90674d3257e45a3314c1c2729", "lat": 38.92134983333333, "type": "electric_scooter"}, {"fusion_lat": 0.0, "fusion_lon": 0.0, "rental_uris": {"android": "https://dc.lft.to/lastmile_qr_scan", "ios": "https://dc.lft.to/lastmile_qr_scan"}, "lon": -77.0268955, "name": "06e4b576d0c4692507d5007206b450e6", "is_disabled": 0, "is_reserved": 0, "bike_id": "06e4b576d0c4692507d5007206b450e6", "lat": 38.92671633333333, "type": "electric_scooter"}, {"fusion_lat": 0.0, "fusion_lon": 0.0, "rental_uris": {"android": "https://dc.lft.to/lastmile_qr_scan", "ios": "https://dc.lft.to/lastmile_qr_scan"}, "lon": -77.06191816666667, "name": "f8addb9a7e148023c070921ce4e311c4", "is_disabled": 0, "is_reserved": 0, "bike_id": "f8addb9a7e148023c070921ce4e311c4", "lat": 38.918523, "type": "electric_scooter"}, {"fusion_lat": 0.0, "fusion_lon": 0.0, "rental_uris": {"android": "https://dc.lft.to/lastmile_qr_scan", "ios": "https://dc.lft.to/lastmile_qr_scan"}, "lon": -77.0400975, "name": "edbcb5fcb2067d45bb73afb94374046f", "is_disabled": 0, "is_reserved": 0, "bike_id": "edbcb5fcb2067d45bb73afb94374046f", "lat": 38.92153966666667, "type": "electric_bike"}, {"fusion_lat": 0.0, "fusion_lon": 0.0, "rental_uris": {"android": "https://dc.lft.to/lastmile_qr_scan", "ios": "https://dc.lft.to/lastmile_qr_scan"}, "lon": -77.03643766666667, "name": "ef21d4c9906129bf915f131e5ab3420a", "is_disabled": 0, "is_reserved": 0, "bike_id": "ef21d4c9906129bf915f131e5ab3420a", "lat": 38.901266166666666, "type": "electric_scooter"}, {"fusion_lat": 0.0, "fusion_lon": 0.0, "rental_uris": {"android": "https://dc.lft.to/lastmile_qr_scan", "ios": "https://dc.lft.to/lastmile_qr_scan"}, "lon": -77.03665083333334, "name": "2521a1f19a7b1ea2e08c06d571e2aa20", "is_disabled": 0, "is_reserved": 0, "bike_id": "2521a1f19a7b1ea2e08c06d571e2aa20", "lat": 38.908339166666664, "type": "electric_scooter"}, {"fusion_lat": 0.0, "fusion_lon": 0.0, "rental_uris": {"android": "https://dc.lft.to/lastmile_qr_scan", "ios": "https://dc.lft.to/lastmile_qr_scan"}, "lon": -77.00212083333334, "name": "4c40752f3c6d2f5f13c26b15d4836fb6", "is_disabled": 0, "is_reserved": 0, "bike_id": "4c40752f3c6d2f5f13c26b15d4836fb6", "lat": 38.89518366666667, "type": "electric_scooter"}, {"fusion_lat": 0.0, "fusion_lon": 0.0, "rental_uris": {"android": "https://dc.lft.to/lastmile_qr_scan", "ios": "https://dc.lft.to/lastmile_qr_scan"}, "lon": -77.004589, "name": "2d9bd82aaa41fb1eecd86d6eeffc1672", "is_disabled": 0, "is_reserved": 0, "bike_id": "2d9bd82aaa41fb1eecd86d6eeffc1672", "lat": 38.876586, "type": "electric_scooter"}, {"fusion_lat": 0.0, "fusion_lon": 0.0, "rental_uris": {"android": "https://dc.lft.to/lastmile_qr_scan", "ios": "https://dc.lft.to/lastmile_qr_scan"}, "lon": -77.0249075, "name": "e22a2a37eb163b2f4b9e881c4cf1df52", "is_disabled": 0, "is_reserved": 0, "bike_id": "e22a2a37eb163b2f4b9e881c4cf1df52", "lat": 38.941838, "type": "electric_scooter"}, {"fusion_lat": 0.0, "fusion_lon": 0.0, "rental_uris": {"android": "https://dc.lft.to/lastmile_qr_scan", "ios": "https://dc.lft.to/lastmile_qr_scan"}, "lon": -77.0727935, "name": "7cdca3833344c6207102c7331b088dd1", "is_disabled": 0, "is_reserved": 0, "bike_id": "7cdca3833344c6207102c7331b088dd1", "lat": 38.93473983333333, "type": "electric_scooter"}, {"fusion_lat": 0.0, "fusion_lon": 0.0, "rental_uris": {"android": "https://dc.lft.to/lastmile_qr_scan", "ios": "https://dc.lft.to/lastmile_qr_scan"}, "lon": -76.99493216666667, "name": "723543c86d482c21a8b1e0c57263523e", "is_disabled": 0, "is_reserved": 0, "bike_id": "723543c86d482c21a8b1e0c57263523e", "lat": 38.86239966666667, "type": "electric_scooter"}, {"fusion_lat": 0.0, "fusion_lon": 0.0, "rental_uris": {"android": "https://dc.lft.to/lastmile_qr_scan", "ios": "https://dc.lft.to/lastmile_qr_scan"}, "lon": -77.005031, "name": "8319138f0cb3a1d605619bd6fa388c53", "is_disabled": 0, "is_reserved": 0, "bike_id": "8319138f0cb3a1d605619bd6fa388c53", "lat": 38.89682833333333, "type": "electric_scooter"}, {"fusion_lat": 0.0, "fusion_lon": 0.0, "rental_uris": {"android": "https://dc.lft.to/lastmile_qr_scan", "ios": "https://dc.lft.to/lastmile_qr_scan"}, "lon": -77.0169475, "name": "1efaf3e14596761c9f0bddb15b6ae861", "is_disabled": 0, "is_reserved": 0, "bike_id": "1efaf3e14596761c9f0bddb15b6ae861", "lat": 38.90260716666667, "type": "electric_scooter"}, {"fusion_lat": 0.0, "fusion_lon": 0.0, "rental_uris": {"android": "https://dc.lft.to/lastmile_qr_scan", "ios": "https://dc.lft.to/lastmile_qr_scan"}, "lon": -77.02606133333333, "name": "317d17aea3dd6d6aa79dc1bb3ab565ff", "is_disabled": 0, "is_reserved": 0, "bike_id": "317d17aea3dd6d6aa79dc1bb3ab565ff", "lat": 38.9284705, "type": "electric_scooter"}, {"fusion_lat": 0.0, "fusion_lon": 0.0, "rental_uris": {"android": "https://dc.lft.to/lastmile_qr_scan", "ios": "https://dc.lft.to/lastmile_qr_scan"}, "lon": -77.00748466666667, "name": "1d9734cf967989b1e4b22069ae977b96", "is_disabled": 0, "is_reserved": 0, "bike_id": "1d9734cf967989b1e4b22069ae977b96", "lat": 38.8985095, "type": "electric_scooter"}, {"fusion_lat": 0.0, "fusion_lon": 0.0, "rental_uris": {"android": "https://dc.lft.to/lastmile_qr_scan", "ios": "https://dc.lft.to/lastmile_qr_scan"}, "lon": -77.0229735, "name": "f356b95910e97c1c9dd30a929ef00803", "is_disabled": 0, "is_reserved": 0, "bike_id": "f356b95910e97c1c9dd30a929ef00803", "lat": 38.9085615, "type": "electric_scooter"}, {"fusion_lat": 0.0, "fusion_lon": 0.0, "rental_uris": {"android": "https://dc.lft.to/lastmile_qr_scan", "ios": "https://dc.lft.to/lastmile_qr_scan"}, "lon": -77.00045233333333, "name": "d0d470e50cf891693958e5833735c77e", "is_disabled": 0, "is_reserved": 0, "bike_id": "d0d470e50cf891693958e5833735c77e", "lat": 38.875461, "type": "electric_scooter"}, {"fusion_lat": 0.0, "fusion_lon": 0.0, "rental_uris": {"android": "https://dc.lft.to/lastmile_qr_scan", "ios": "https://dc.lft.to/lastmile_qr_scan"}, "lon": -76.99657066666667, "name": "ed2239cd6ed9f73e91dfabdbd6d06206", "is_disabled": 0, "is_reserved": 0, "bike_id": "ed2239cd6ed9f73e91dfabdbd6d06206", "lat": 38.86007933333333, "type": "electric_scooter"}, {"fusion_lat": 0.0, "fusion_lon": 0.0, "rental_uris": {"android": "https://dc.lft.to/lastmile_qr_scan", "ios": "https://dc.lft.to/lastmile_qr_scan"}, "lon": -76.98587933333333, "name": "e44cb3a6b91dbb7b89f925a244ad39ff", "is_disabled": 0, "is_reserved": 0, "bike_id": "e44cb3a6b91dbb7b89f925a244ad39ff", "lat": 38.883972166666666, "type": "electric_scooter"}, {"fusion_lat": 0.0, "fusion_lon": 0.0, "rental_uris": {"android": "https://dc.lft.to/lastmile_qr_scan", "ios": "https://dc.lft.to/lastmile_qr_scan"}, "lon": -76.93556683333334, "name": "9bdf27d38e6e726410fcfbe56b59e676", "is_disabled": 0, "is_reserved": 0, "bike_id": "9bdf27d38e6e726410fcfbe56b59e676", "lat": 38.8825815, "type": "electric_scooter"}, {"fusion_lat": 0.0, "fusion_lon": 0.0, "rental_uris": {"android": "https://dc.lft.to/lastmile_qr_scan", "ios": "https://dc.lft.to/lastmile_qr_scan"}, "lon": -77.04201816666667, "name": "8b64a0bd357d1c5455e89da74311b579", "is_disabled": 0, "is_reserved": 0, "bike_id": "8b64a0bd357d1c5455e89da74311b579", "lat": 38.90581016666667, "type": "electric_scooter"}, {"fusion_lat": 0.0, "fusion_lon": 0.0, "rental_uris": {"android": "https://dc.lft.to/lastmile_qr_scan", "ios": "https://dc.lft.to/lastmile_qr_scan"}, "lon": -76.98764266666667, "name": "385b92e5460fdefb58f21d81089f2a13", "is_disabled": 0, "is_reserved": 0, "bike_id": "385b92e5460fdefb58f21d81089f2a13", "lat": 38.90028566666667, "type": "electric_scooter"}, {"fusion_lat": 0.0, "fusion_lon": 0.0, "rental_uris": {"android": "https://dc.lft.to/lastmile_qr_scan", "ios": "https://dc.lft.to/lastmile_qr_scan"}, "lon": -77.0209205, "name": "8732468d3a84aede2719149dd9f49f43", "is_disabled": 0, "is_reserved": 0, "bike_id": "8732468d3a84aede2719149dd9f49f43", "lat": 38.881895, "type": "electric_scooter"}, {"fusion_lat": 0.0, "fusion_lon": 0.0, "rental_uris": {"android": "https://dc.lft.to/lastmile_qr_scan", "ios": "https://dc.lft.to/lastmile_qr_scan"}, "lon": -76.98604066666667, "name": "c53379e0507572d8358227e9cd1e2e74", "is_disabled": 0, "is_reserved": 0, "bike_id": "c53379e0507572d8358227e9cd1e2e74", "lat": 38.90018666666667, "type": "electric_scooter"}, {"fusion_lat": 0.0, "fusion_lon": 0.0, "rental_uris": {"android": "https://dc.lft.to/lastmile_qr_scan", "ios": "https://dc.lft.to/lastmile_qr_scan"}, "lon": -77.03204366666667, "name": "9ecf31ccaa710e4f13ef1370e786fe1b", "is_disabled": 0, "is_reserved": 0, "bike_id": "9ecf31ccaa710e4f13ef1370e786fe1b", "lat": 38.918366166666665, "type": "electric_scooter"}, {"fusion_lat": 0.0, "fusion_lon": 0.0, "rental_uris": {"android": "https://dc.lft.to/lastmile_qr_scan", "ios": "https://dc.lft.to/lastmile_qr_scan"}, "lon": -77.03835583333333, "name": "c1e84f454ad1e27478ca345ee80d5d75", "is_disabled": 0, "is_reserved": 0, "bike_id": "c1e84f454ad1e27478ca345ee80d5d75", "lat": 38.903007833333334, "type": "electric_scooter"}, {"fusion_lat": 0.0, "fusion_lon": 0.0, "rental_uris": {"android": "https://dc.lft.to/lastmile_qr_scan", "ios": "https://dc.lft.to/lastmile_qr_scan"}, "lon": -77.01357616666667, "name": "8f3b624a80cf26a0f052002048faf3d2", "is_disabled": 0, "is_reserved": 0, "bike_id": "8f3b624a80cf26a0f052002048faf3d2", "lat": 38.89218416666667, "type": "electric_scooter"}, {"fusion_lat": 0.0, "fusion_lon": 0.0, "rental_uris": {"android": "https://dc.lft.to/lastmile_qr_scan", "ios": "https://dc.lft.to/lastmile_qr_scan"}, "lon": -76.98565483333333, "name": "e47286a907815768887b3e9904f03542", "is_disabled": 0, "is_reserved": 0, "bike_id": "e47286a907815768887b3e9904f03542", "lat": 38.8668405, "type": "electric_scooter"}, {"fusion_lat": 0.0, "fusion_lon": 0.0, "rental_uris": {"android": "https://dc.lft.to/lastmile_qr_scan", "ios": "https://dc.lft.to/lastmile_qr_scan"}, "lon": -76.94636983333334, "name": "7024c8c6fb50e0449cdcb34c3108c06a", "is_disabled": 0, "is_reserved": 0, "bike_id": "7024c8c6fb50e0449cdcb34c3108c06a", "lat": 38.89857133333334, "type": "electric_scooter"}, {"fusion_lat": 0.0, "fusion_lon": 0.0, "rental_uris": {"android": "https://dc.lft.to/lastmile_qr_scan", "ios": "https://dc.lft.to/lastmile_qr_scan"}, "lon": -76.96528516666666, "name": "2633f12b418d5f0509510daa3e913e51", "is_disabled": 0, "is_reserved": 0, "bike_id": "2633f12b418d5f0509510daa3e913e51", "lat": 38.8763085, "type": "electric_scooter"}, {"fusion_lat": 0.0, "fusion_lon": 0.0, "rental_uris": {"android": "https://dc.lft.to/lastmile_qr_scan", "ios": "https://dc.lft.to/lastmile_qr_scan"}, "lon": -77.04012633333333, "name": "f50598ecddb7425d259340b2083ffadd", "is_disabled": 0, "is_reserved": 0, "bike_id": "f50598ecddb7425d259340b2083ffadd", "lat": 38.92165466666667, "type": "electric_scooter"}, {"fusion_lat": 0.0, "fusion_lon": 0.0, "rental_uris": {"android": "https://dc.lft.to/lastmile_qr_scan", "ios": "https://dc.lft.to/lastmile_qr_scan"}, "lon": -76.9755005, "name": "d185c8e08dd9fd9768edf0056156adca", "is_disabled": 0, "is_reserved": 0, "bike_id": "d185c8e08dd9fd9768edf0056156adca", "lat": 38.903237, "type": "electric_scooter"}, {"fusion_lat": 0.0, "fusion_lon": 0.0, "rental_uris": {"android": "https://dc.lft.to/lastmile_qr_scan", "ios": "https://dc.lft.to/lastmile_qr_scan"}, "lon": -77.076476, "name": "b45c7c95bd017ea7e7fe75d511389d49", "is_disabled": 0, "is_reserved": 0, "bike_id": "b45c7c95bd017ea7e7fe75d511389d49", "lat": 38.908697333333336, "type": "electric_bike"}, {"fusion_lat": 0.0, "fusion_lon": 0.0, "rental_uris": {"android": "https://dc.lft.to/lastmile_qr_scan", "ios": "https://dc.lft.to/lastmile_qr_scan"}, "lon": -76.98609, "name": "b344b5805757c8060ae9911cf69c9e58", "is_disabled": 0, "is_reserved": 0, "bike_id": "b344b5805757c8060ae9911cf69c9e58", "lat": 38.882791, "type": "electric_scooter"}, {"fusion_lat": 0.0, "fusion_lon": 0.0, "rental_uris": {"android": "https://dc.lft.to/lastmile_qr_scan", "ios": "https://dc.lft.to/lastmile_qr_scan"},