{"data": {"bikes": [{"is_disabled": 0, "fusion_lon": 0.0, "fusion_lat": 0.0, "lat": 38.882087, "type": "electric_scooter", "lon": -76.92702166666666, "bike_id": "48380e2ddf2018252b65a9e732c9579c", "rental_uris": {"android": "https://dc.lft.to/lastmile_qr_scan", "ios": "https://dc.lft.to/lastmile_qr_scan"}, "name": "48380e2ddf2018252b65a9e732c9579c", "is_reserved": 0}, {"is_disabled": 0, "fusion_lon": 0.0, "fusion_lat": 0.0, "lat": 38.9241985, "type": "electric_scooter", "lon": -77.03551416666667, "bike_id": "9da5fc08715c45583ccb773658703bc3", "rental_uris": {"android": "https://dc.lft.to/lastmile_qr_scan", "ios": "https://dc.lft.to/lastmile_qr_scan"}, "name": "9da5fc08715c45583ccb773658703bc3", "is_reserved": 0}, {"is_disabled": 0, "fusion_lon": 0.0, "fusion_lat": 0.0, "lat": 38.903406333333336, "type": "electric_scooter", "lon": -76.97573233333334, "bike_id": "15add46d450b328c17c919c3a5f0580d", "rental_uris": {"android": "https://dc.lft.to/lastmile_qr_scan", "ios": "https://dc.lft.to/lastmile_qr_scan"}, "name": "15add46d450b328c17c919c3a5f0580d", "is_reserved": 0}, {"is_disabled": 0, "fusion_lon": 0.0, "fusion_lat": 0.0, "lat": 39.088437666666664, "type": "electric_bike", "lon": -77.1780025, "bike_id": "1627a429fb4261de251dd548b7bc0d95", "rental_uris": {"android": "https://dc.lft.to/lastmile_qr_scan", "ios": "https://dc.lft.to/lastmile_qr_scan"}, "name": "1627a429fb4261de251dd548b7bc0d95", "is_reserved": 0}, {"is_disabled": 0, "fusion_lon": 0.0, "fusion_lat": 0.0, "lat": 38.95557483333333, "type": "electric_scooter", "lon": -77.069884, "bike_id": "9c873c7a500d7725a57877d8e080f982", "rental_uris": {"android": "https://dc.lft.to/lastmile_qr_scan", "ios": "https://dc.lft.to/lastmile_qr_scan"}, "name": "9c873c7a500d7725a57877d8e080f982", "is_reserved": 0}, {"is_disabled": 0, "fusion_lon": 0.0, "fusion_lat": 0.0, "lat": 38.901005, "type": "electric_scooter", "lon": -77.01985666666667, "bike_id": "cff895bb5da7b65c43daa5ecc438bde5", "rental_uris": {"android": "https://dc.lft.to/lastmile_qr_scan", "ios": "https://dc.lft.to/lastmile_qr_scan"}, "name": "cff895bb5da7b65c43daa5ecc438bde5", "is_reserved": 0}, {"is_disabled": 0, "fusion_lon": 0.0, "fusion_lat": 0.0, "lat": 38.876573666666665, "type": "electric_scooter", "lon": -77.0090295, "bike_id": "ab5d0876e7d2ecc1d5b1444ea44bbcf8", "rental_uris": {"android": "https://dc.lft.to/lastmile_qr_scan", "ios": "https://dc.lft.to/lastmile_qr_scan"}, "name": "ab5d0876e7d2ecc1d5b1444ea44bbcf8", "is_reserved": 0}, {"is_disabled": 0, "fusion_lon": 0.0, "fusion_lat": 0.0, "lat": 38.88419483333333, "type": "electric_scooter", "lon": -76.95411483333334, "bike_id": "8ba26581b82f5a9b306ffda38446e811", "rental_uris": {"android": "https://dc.lft.to/lastmile_qr_scan", "ios": "https://dc.lft.to/lastmile_qr_scan"}, "name": "8ba26581b82f5a9b306ffda38446e811", "is_reserved": 0}, {"is_disabled": 0, "fusion_lon": 0.0, "fusion_lat": 0.0, "lat": 38.883665666666666, "type": "electric_scooter", "lon": -76.99484583333333, "bike_id": "83a9dda5e8c2e9213e7bbd7b99085cc9", "rental_uris": {"android": "https://dc.lft.to/lastmile_qr_scan", "ios": "https://dc.lft.to/lastmile_qr_scan"}, "name": "83a9dda5e8c2e9213e7bbd7b99085cc9", "is_reserved": 0}, {"is_disabled": 0, "fusion_lon": 0.0, "fusion_lat": 0.0, "lat": 38.91494733333333, "type": "electric_scooter", "lon": -77.03463116666667, "bike_id": "b5e3858f8e34a0046075c0e2827c1684", "rental_uris": {"android": "https://dc.lft.to/lastmile_qr_scan", "ios": "https://dc.lft.to/lastmile_qr_scan"}, "name": "b5e3858f8e34a0046075c0e2827c1684", "is_reserved": 0}, {"is_disabled": 0, "fusion_lon": 0.0, "fusion_lat": 0.0, "lat": 38.8974345, "type": "electric_scooter", "lon": -77.0043675, "bike_id": "30af3eeb6f81796b0b089526287527b4", "rental_uris": {"android": "https://dc.lft.to/lastmile_qr_scan", "ios": "https://dc.lft.to/lastmile_qr_scan"}, "name": "30af3eeb6f81796b0b089526287527b4", "is_reserved": 0}, {"is_disabled": 0, "fusion_lon": 0.0, "fusion_lat": 0.0, "lat": 38.906508, "type": "electric_scooter", "lon": -77.04892416666667, "bike_id": "7b1dde71c873c49f04e13b354e0b8118", "rental_uris": {"android": "https://dc.lft.to/lastmile_qr_scan", "ios": "https://dc.lft.to/lastmile_qr_scan"}, "name": "7b1dde71c873c49f04e13b354e0b8118", "is_reserved": 0}, {"is_disabled": 0, "fusion_lon": 0.0, "fusion_lat": 0.0, "lat": 38.92220616666667, "type": "electric_scooter", "lon": -77.04243133333334, "bike_id": "83acf5a5baab59d4d0c956064c8d5bb6", "rental_uris": {"android": "https://dc.lft.to/lastmile_qr_scan", "ios": "https://dc.lft.to/lastmile_qr_scan"}, "name": "83acf5a5baab59d4d0c956064c8d5bb6", "is_reserved": 0}, {"is_disabled": 0, "fusion_lon": 0.0, "fusion_lat": 0.0, "lat": 38.8782515, "type": "electric_scooter", "lon": -76.96315883333334, "bike_id": "e7b928220e5ab51cc9ff2e889d70a73a", "rental_uris": {"android": "https://dc.lft.to/lastmile_qr_scan", "ios": "https://dc.lft.to/lastmile_qr_scan"}, "name": "e7b928220e5ab51cc9ff2e889d70a73a", "is_reserved": 0}, {"is_disabled": 0, "fusion_lon": 0.0, "fusion_lat": 0.0, "lat": 38.905244833333334, "type": "electric_scooter", "lon": -77.05122033333333, "bike_id": "2fa57836169be7cb317d1025df8d4f0e", "rental_uris": {"android": "https://dc.lft.to/lastmile_qr_scan", "ios": "https://dc.lft.to/lastmile_qr_scan"}, "name": "2fa57836169be7cb317d1025df8d4f0e", "is_reserved": 0}, {"is_disabled": 0, "fusion_lon": 0.0, "fusion_lat": 0.0, "lat": 38.865892, "type": "electric_scooter", "lon": -76.98715683333333, "bike_id": "b604af4896c726f2be22b8eef7ea99fc", "rental_uris": {"android": "https://dc.lft.to/lastmile_qr_scan", "ios": "https://dc.lft.to/lastmile_qr_scan"}, "name": "b604af4896c726f2be22b8eef7ea99fc", "is_reserved": 0}, {"is_disabled": 0, "fusion_lon": 0.0, "fusion_lat": 0.0, "lat": 38.917065666666666, "type": "electric_scooter", "lon": -77.028217, "bike_id": "100de4ae874f5ae99002931ac2dbcb99", "rental_uris": {"android": "https://dc.lft.to/lastmile_qr_scan", "ios": "https://dc.lft.to/lastmile_qr_scan"}, "name": "100de4ae874f5ae99002931ac2dbcb99", "is_reserved": 0}, {"is_disabled": 0, "fusion_lon": 0.0, "fusion_lat": 0.0, "lat": 38.949763, "type": "electric_scooter", "lon": -77.0943655, "bike_id": "027c017b8fa3a7be372a405af912085c", "rental_uris": {"android": "https://dc.lft.to/lastmile_qr_scan", "ios": "https://dc.lft.to/lastmile_qr_scan"}, "name": "027c017b8fa3a7be372a405af912085c", "is_reserved": 0}, {"is_disabled": 0, "fusion_lon": 0.0, "fusion_lat": 0.0, "lat": 38.87670933333333, "type": "electric_scooter", "lon": -76.93192733333333, "bike_id": "4a741a4b875d474e940b08bb89a6b778", "rental_uris": {"android": "https://dc.lft.to/lastmile_qr_scan", "ios": "https://dc.lft.to/lastmile_qr_scan"}, "name": "4a741a4b875d474e940b08bb89a6b778", "is_reserved": 0}, {"is_disabled": 0, "fusion_lon": 0.0, "fusion_lat": 0.0, "lat": 38.933948666666666, "type": "electric_scooter", "lon": -77.045406, "bike_id": "eee1dc5334e4d2fb135ee8be278223fe", "rental_uris": {"android": "https://dc.lft.to/lastmile_qr_scan", "ios": "https://dc.lft.to/lastmile_qr_scan"}, "name": "eee1dc5334e4d2fb135ee8be278223fe", "is_reserved": 0}, {"is_disabled": 0, "fusion_lon": 0.0, "fusion_lat": 0.0, "lat": 38.945389, "type": "electric_bike", "lon": -77.34456633333333, "bike_id": "13d98302099dc6fd4a87a2c1e62a5d8e", "rental_uris": {"android": "https://dc.lft.to/lastmile_qr_scan", "ios": "https://dc.lft.to/lastmile_qr_scan"}, "name": "13d98302099dc6fd4a87a2c1e62a5d8e", "is_reserved": 0}, {"is_disabled": 0, "fusion_lon": 0.0, "fusion_lat": 0.0, "lat": 38.89867816666667, "type": "electric_scooter", "lon": -77.02006516666667, "bike_id": "d8e1fd77a8112789efa63c1dcb70ae58", "rental_uris": {"android": "https://dc.lft.to/lastmile_qr_scan", "ios": "https://dc.lft.to/lastmile_qr_scan"}, "name": "d8e1fd77a8112789efa63c1dcb70ae58", "is_reserved": 0}, {"is_disabled": 0, "fusion_lon": 0.0, "fusion_lat": 0.0, "lat": 38.900202, "type": "electric_scooter", "lon": -77.02380483333333, "bike_id": "b177b335ce4fd3155d0c2c037a252722", "rental_uris": {"android": "https://dc.lft.to/lastmile_qr_scan", "ios": "https://dc.lft.to/lastmile_qr_scan"}, "name": "b177b335ce4fd3155d0c2c037a252722", "is_reserved": 0}, {"is_disabled": 0, "fusion_lon": 0.0, "fusion_lat": 0.0, "lat": 38.933938, "type": "electric_scooter", "lon": -77.024616, "bike_id": "05c49a47eb16a84661fd4a96a4b59770", "rental_uris": {"android": "https://dc.lft.to/lastmile_qr_scan", "ios": "https://dc.lft.to/lastmile_qr_scan"}, "name": "05c49a47eb16a84661fd4a96a4b59770", "is_reserved": 0}, {"is_disabled": 0, "fusion_lon": 0.0, "fusion_lat": 0.0, "lat": 38.9415465, "type": "electric_bike", "lon": -77.00195883333333, "bike_id": "cc3a5b0e36f1515a87e653dd6bdcb8f7", "rental_uris": {"android": "https://dc.lft.to/lastmile_qr_scan", "ios": "https://dc.lft.to/lastmile_qr_scan"}, "name": "cc3a5b0e36f1515a87e653dd6bdcb8f7", "is_reserved": 0}, {"is_disabled": 0, "fusion_lon": 0.0, "fusion_lat": 0.0, "lat": 38.905784833333335, "type": "electric_bike", "lon": -77.04728516666667, "bike_id": "7a235878660de6c7b4ccdbdad82f7bfc", "rental_uris": {"android": "https://dc.lft.to/lastmile_qr_scan", "ios": "https://dc.lft.to/lastmile_qr_scan"}, "name": "7a235878660de6c7b4ccdbdad82f7bfc", "is_reserved": 0}, {"is_disabled": 0, "fusion_lon": 0.0, "fusion_lat": 0.0, "lat": 38.935357333333336, "type": "electric_scooter", "lon": -77.02357383333333, "bike_id": "da4cb0435efbb08f9b030503525178a7", "rental_uris": {"android": "https://dc.lft.to/lastmile_qr_scan", "ios": "https://dc.lft.to/lastmile_qr_scan"}, "name": "da4cb0435efbb08f9b030503525178a7", "is_reserved": 0}, {"is_disabled": 0, "fusion_lon": 0.0, "fusion_lat": 0.0, "lat": 38.91484616666666, "type": "electric_scooter", "lon": -76.98363783333333, "bike_id": "dad3056ecaa214db700d37e76aa99720", "rental_uris": {"android": "https://dc.lft.to/lastmile_qr_scan", "ios": "https://dc.lft.to/lastmile_qr_scan"}, "name": "dad3056ecaa214db700d37e76aa99720", "is_reserved": 0}, {"is_disabled": 0, "fusion_lon": 0.0, "fusion_lat": 0.0, "lat": 38.92975116666667, "type": "electric_scooter", "lon": -77.03183016666667, "bike_id": "cbd6512a5efa68b4679ed84894b8bed5", "rental_uris": {"android": "https://dc.lft.to/lastmile_qr_scan", "ios": "https://dc.lft.to/lastmile_qr_scan"}, "name": "cbd6512a5efa68b4679ed84894b8bed5", "is_reserved": 0}, {"is_disabled": 0, "fusion_lon": 0.0, "fusion_lat": 0.0, "lat": 38.92106283333333, "type": "electric_scooter", "lon": -77.0718915, "bike_id": "7f4ee95cb1c684a7d38f90a24b6c2206", "rental_uris": {"android": "https://dc.lft.to/lastmile_qr_scan", "ios": "https://dc.lft.to/lastmile_qr_scan"}, "name": "7f4ee95cb1c684a7d38f90a24b6c2206", "is_reserved": 0}, {"is_disabled": 0, "fusion_lon": 0.0, "fusion_lat": 0.0, "lat": 38.91591233333333, "type": "electric_bike", "lon": -76.971487, "bike_id": "0d05174fbe5c0f1f1d6fb04641059158", "rental_uris": {"android": "https://dc.lft.to/lastmile_qr_scan", "ios": "https://dc.lft.to/lastmile_qr_scan"}, "name": "0d05174fbe5c0f1f1d6fb04641059158", "is_reserved": 0}, {"is_disabled": 0, "fusion_lon": 0.0, "fusion_lat": 0.0, "lat": 38.9060475, "type": "electric_scooter", "lon": -77.04129016666667, "bike_id": "d156ada06a91e33642d964e8ee88940b", "rental_uris": {"android": "https://dc.lft.to/lastmile_qr_scan", "ios": "https://dc.lft.to/lastmile_qr_scan"}, "name": "d156ada06a91e33642d964e8ee88940b", "is_reserved": 0}, {"is_disabled": 0, "fusion_lon": 0.0, "fusion_lat": 0.0, "lat": 38.8975795, "type": "electric_scooter", "lon": -77.03032533333334, "bike_id": "fbc1c2d37cc7503753d7d1e9128dd3bf", "rental_uris": {"android": "https://dc.lft.to/lastmile_qr_scan", "ios": "https://dc.lft.to/lastmile_qr_scan"}, "name": "fbc1c2d37cc7503753d7d1e9128dd3bf", "is_reserved": 0}, {"is_disabled": 0, "fusion_lon": 0.0, "fusion_lat": 0.0, "lat": 38.91117916666666, "type": "electric_scooter", "lon": -77.02278116666666, "bike_id": "e667856e57ded2ade749a528e04d6140", "rental_uris": {"android": "https://dc.lft.to/lastmile_qr_scan", "ios": "https://dc.lft.to/lastmile_qr_scan"}, "name": "e667856e57ded2ade749a528e04d6140", "is_reserved": 0}, {"is_disabled": 0, "fusion_lon": 0.0, "fusion_lat": 0.0, "lat": 38.919889, "type": "electric_bike", "lon": -76.97311683333334, "bike_id": "b6d2f58bc09bc3b4930a502f130557eb", "rental_uris": {"android": "https://dc.lft.to/lastmile_qr_scan", "ios": "https://dc.lft.to/lastmile_qr_scan"}, "name": "b6d2f58bc09bc3b4930a502f130557eb", "is_reserved": 0}, {"is_disabled": 0, "fusion_lon": 0.0, "fusion_lat": 0.0, "lat": 38.906607666666666, "type": "electric_scooter", "lon": -76.982273, "bike_id": "75edee066f62ccaa39fa45fe12fb27c7", "rental_uris": {"android": "https://dc.lft.to/lastmile_qr_scan", "ios": "https://dc.lft.to/lastmile_qr_scan"}, "name": "75edee066f62ccaa39fa45fe12fb27c7", "is_reserved": 0}, {"is_disabled": 0, "fusion_lon": 0.0, "fusion_lat": 0.0, "lat": 38.89716416666667, "type": "electric_scooter", "lon": -77.011817, "bike_id": "f1455907c432e9609b81a8bd395f4832", "rental_uris": {"android": "https://dc.lft.to/lastmile_qr_scan", "ios": "https://dc.lft.to/lastmile_qr_scan"}, "name": "f1455907c432e9609b81a8bd395f4832", "is_reserved": 0}, {"is_disabled": 0, "fusion_lon": 0.0, "fusion_lat": 0.0, "lat": 38.9047255, "type": "electric_scooter", "lon": -77.035553, "bike_id": "79f239de74686de7e6791cd4fc48e803", "rental_uris": {"android": "https://dc.lft.to/lastmile_qr_scan", "ios": "https://dc.lft.to/lastmile_qr_scan"}, "name": "79f239de74686de7e6791cd4fc48e803", "is_reserved": 0}, {"is_disabled": 0, "fusion_lon": 0.0, "fusion_lat": 0.0, "lat": 38.93376833333333, "type": "electric_scooter", "lon": -77.07253516666667, "bike_id": "b3c47025269f7be646eea8ffbed3285f", "rental_uris": {"android": "https://dc.lft.to/lastmile_qr_scan", "ios": "https://dc.lft.to/lastmile_qr_scan"}, "name": "b3c47025269f7be646eea8ffbed3285f", "is_reserved": 0}, {"is_disabled": 0, "fusion_lon": 0.0, "fusion_lat": 0.0, "lat": 38.896287, "type": "electric_scooter", "lon": -77.00900316666667, "bike_id": "9631cdcc011a96ffc571dd9f43d783f2", "rental_uris": {"android": "https://dc.lft.to/lastmile_qr_scan", "ios": "https://dc.lft.to/lastmile_qr_scan"}, "name": "9631cdcc011a96ffc571dd9f43d783f2", "is_reserved": 0}, {"is_disabled": 0, "fusion_lon": 0.0, "fusion_lat": 0.0, "lat": 38.9079045, "type": "electric_scooter", "lon": -77.04338216666666, "bike_id": "f4fab6eeaa190ccb9a8e505ed1490636", "rental_uris": {"android": "https://dc.lft.to/lastmile_qr_scan", "ios": "https://dc.lft.to/lastmile_qr_scan"}, "name": "f4fab6eeaa190ccb9a8e505ed1490636", "is_reserved": 0}, {"is_disabled": 0, "fusion_lon": 0.0, "fusion_lat": 0.0, "lat": 38.97540466666667, "type": "electric_bike", "lon": -76.99529166666667, "bike_id": "5eaa1ead7224ac772e19455f0e5f132a", "rental_uris": {"android": "https://dc.lft.to/lastmile_qr_scan", "ios": "https://dc.lft.to/lastmile_qr_scan"}, "name": "5eaa1ead7224ac772e19455f0e5f132a", "is_reserved": 0}, {"is_disabled": 0, "fusion_lon": 0.0, "fusion_lat": 0.0, "lat": 38.86632183333333, "type": "electric_scooter", "lon": -76.98301933333333, "bike_id": "fad6f3fbeeb1a9b2c446a336a828ed52", "rental_uris": {"android": "https://dc.lft.to/lastmile_qr_scan", "ios": "https://dc.lft.to/lastmile_qr_scan"}, "name": "fad6f3fbeeb1a9b2c446a336a828ed52", "is_reserved": 0}, {"is_disabled": 0, "fusion_lon": 0.0, "fusion_lat": 0.0, "lat": 38.93578633333333, "type": "electric_bike", "lon": -77.0824935, "bike_id": "420b6e8bc6da76a52d32379c5b5605ac", "rental_uris": {"android": "https://dc.lft.to/lastmile_qr_scan", "ios": "https://dc.lft.to/lastmile_qr_scan"}, "name": "420b6e8bc6da76a52d32379c5b5605ac", "is_reserved": 0}, {"is_disabled": 0, "fusion_lon": 0.0, "fusion_lat": 0.0, "lat": 38.86040116666667, "type": "electric_scooter", "lon": -76.98377133333334, "bike_id": "6728878bfb89419741dd8522a3ec189e", "rental_uris": {"android": "https://dc.lft.to/lastmile_qr_scan", "ios": "https://dc.lft.to/lastmile_qr_scan"}, "name": "6728878bfb89419741dd8522a3ec189e", "is_reserved": 0}, {"is_disabled": 0, "fusion_lon": 0.0, "fusion_lat": 0.0, "lat": 38.94986016666667, "type": "electric_scooter", "lon": -77.0270035, "bike_id": "82f88c65c44c90f7a6309e4f48a7fb22", "rental_uris": {"android": "https://dc.lft.to/lastmile_qr_scan", "ios": "https://dc.lft.to/lastmile_qr_scan"}, "name": "82f88c65c44c90f7a6309e4f48a7fb22", "is_reserved": 0}, {"is_disabled": 0, "fusion_lon": 0.0, "fusion_lat": 0.0, "lat": 38.865123, "type": "electric_scooter", "lon": -76.97322066666666, "bike_id": "e1c73a97b1d85b28955df3841e0dcd6e", "rental_uris": {"android": "https://dc.lft.to/lastmile_qr_scan", "ios": "https://dc.lft.to/lastmile_qr_scan"}, "name": "e1c73a97b1d85b28955df3841e0dcd6e", "is_reserved": 0}, {"is_disabled": 0, "fusion_lon": 0.0, "fusion_lat": 0.0, "lat": 38.96219816666667, "type": "electric_scooter", "lon": -77.02805283333333, "bike_id": "9605e50391226076230c540d1341c06f", "rental_uris": {"android": "https://dc.lft.to/lastmile_qr_scan", "ios": "https://dc.lft.to/lastmile_qr_scan"}, "name": "9605e50391226076230c540d1341c06f", "is_reserved": 0}, {"is_disabled": 0, "fusion_lon": 0.0, "fusion_lat": 0.0, "lat": 38.920524, "type": "electric_scooter", "lon": -77.024413, "bike_id": "570324f8c8bc07ef5c051549b3e177e2", "rental_uris": {"android": "https://dc.lft.to/lastmile_qr_scan", "ios": "https://dc.lft.to/lastmile_qr_scan"}, "name": "570324f8c8bc07ef5c051549b3e177e2", "is_reserved": 0}, {"is_disabled": 0, "fusion_lon": 0.0, "fusion_lat": 0.0, "lat": 38.909053666666665, "type": "electric_scooter", "lon": -77.0259095, "bike_id": "484c065460677c7ee93fd1eca6e538c6", "rental_uris": {"android": "https://dc.lft.to/lastmile_qr_scan", "ios": "https://dc.lft.to/lastmile_qr_scan"}, "name": "484c065460677c7ee93fd1eca6e538c6", "is_reserved": 0}, {"is_disabled": 0, "fusion_lon": 0.0, "fusion_lat": 0.0, "lat": 38.89490516666667, "type": "electric_scooter", "lon": -77.02275583333333, "bike_id": "5160afc1b0745fd38393ba4b31cb1422", "rental_uris": {"android": "https://dc.lft.to/lastmile_qr_scan", "ios": "https://dc.lft.to/lastmile_qr_scan"}, "name": "5160afc1b0745fd38393ba4b31cb1422", "is_reserved": 0}, {"is_disabled": 0, "fusion_lon": 0.0, "fusion_lat": 0.0, "lat": 38.96148983333333, "type": "electric_scooter", "lon": -77.0279155, "bike_id": "f0d36082dccb99166038c372115b3193", "rental_uris": {"android": "https://dc.lft.to/lastmile_qr_scan", "ios": "https://dc.lft.to/lastmile_qr_scan"}, "name": "f0d36082dccb99166038c372115b3193", "is_reserved": 0}, {"is_disabled": 0, "fusion_lon": 0.0, "fusion_lat": 0.0, "lat": 38.9341365, "type": "electric_scooter", "lon": -77.03266, "bike_id": "083a2b7d07a02e277f030c3496f45519", "rental_uris": {"android": "https://dc.lft.to/lastmile_qr_scan", "ios": "https://dc.lft.to/lastmile_qr_scan"}, "name": "083a2b7d07a02e277f030c3496f45519", "is_reserved": 0}, {"is_disabled": 0, "fusion_lon": 0.0, "fusion_lat": 0.0, "lat": 38.8583795, "type": "electric_scooter", "lon": -76.99070666666667, "bike_id": "e4e8526046de00fd5a2dc0f90fc2b0e9", "rental_uris": {"android": "https://dc.lft.to/lastmile_qr_scan", "ios": "https://dc.lft.to/lastmile_qr_scan"}, "name": "e4e8526046de00fd5a2dc0f90fc2b0e9", "is_reserved": 0}, {"is_disabled": 0, "fusion_lon": 0.0, "fusion_lat": 0.0, "lat": 38.929039333333336, "type": "electric_scooter", "lon": -77.02341983333334, "bike_id": "bf086612f6a6a169cd23aec99e271f6b", "rental_uris": {"android": "https://dc.lft.to/lastmile_qr_scan", "ios": "https://dc.lft.to/lastmile_qr_scan"}, "name": "bf086612f6a6a169cd23aec99e271f6b", "is_reserved": 0}, {"is_disabled": 0, "fusion_lon": 0.0, "fusion_lat": 0.0, "lat": 38.916936666666665, "type": "electric_scooter", "lon": -77.036312, "bike_id": "fb40ec1ec087a48ee6bc96bdf0b4d59c", "rental_uris": {"android": "https://dc.lft.to/lastmile_qr_scan", "ios": "https://dc.lft.to/lastmile_qr_scan"}, "name": "fb40ec1ec087a48ee6bc96bdf0b4d59c", "is_reserved": 0}, {"is_disabled": 0, "fusion_lon": 0.0, "fusion_lat": 0.0, "lat": 38.915501, "type": "electric_scooter", "lon": -77.038563, "bike_id": "1fbc506964d1b16544a3bfe1ad4b8e95", "rental_uris": {"android": "https://dc.lft.to/lastmile_qr_scan", "ios": "https://dc.lft.to/lastmile_qr_scan"}, "name": "1fbc506964d1b16544a3bfe1ad4b8e95", "is_reserved": 0}, {"is_disabled": 0, "fusion_lon": 0.0, "fusion_lat": 0.0, "lat": 38.91326566666667, "type": "electric_scooter", "lon": -77.03239666666667, "bike_id": "50c54a188ea9d7349d5fe458cfef24a9", "rental_uris": {"android": "https://dc.lft.to/lastmile_qr_scan", "ios": "https://dc.lft.to/lastmile_qr_scan"}, "name": "50c54a188ea9d7349d5fe458cfef24a9", "is_reserved": 0}, {"is_disabled": 0, "fusion_lon": 0.0, "fusion_lat": 0.0, "lat": 38.89192416666667, "type": "electric_scooter", "lon": -76.9882835, "bike_id": "b9aea7ea1d123ab61e7329cae7ae6a81", "rental_uris": {"android": "https://dc.lft.to/lastmile_qr_scan", "ios": "https://dc.lft.to/lastmile_qr_scan"}, "name": "b9aea7ea1d123ab61e7329cae7ae6a81", "is_reserved": 0}, {"is_disabled": 0, "fusion_lon": 0.0, "fusion_lat": 0.0, "lat": 38.91362433333333, "type": "electric_scooter", "lon": -77.02586766666667, "bike_id": "ec3ee17dc72cfa285389936311c8edff", "rental_uris": {"android": "https://dc.lft.to/lastmile_qr_scan", "ios": "https://dc.lft.to/lastmile_qr_scan"}, "name": "ec3ee17dc72cfa285389936311c8edff", "is_reserved": 0}, {"is_disabled": 0, "fusion_lon": 0.0, "fusion_lat": 0.0, "lat": 38.89400333333333, "type": "electric_scooter", "lon": -76.949945, "bike_id": "4069ced7d6f7003f0d22e63a2294cbab", "rental_uris": {"android": "https://dc.lft.to/lastmile_qr_scan", "ios": "https://dc.lft.to/lastmile_qr_scan"}, "name": "4069ced7d6f7003f0d22e63a2294cbab", "is_reserved": 0}, {"is_disabled": 0, "fusion_lon": 0.0, "fusion_lat": 0.0, "lat": 38.92219466666667, "type": "electric_scooter", "lon": -77.04238883333333, "bike_id": "577e62db4c722d3477b7a76f560bec74", "rental_uris": {"android": "https://dc.lft.to/lastmile_qr_scan", "ios": "https://dc.lft.to/lastmile_qr_scan"}, "name": "577e62db4c722d3477b7a76f560bec74", "is_reserved": 0}, {"is_disabled": 0, "fusion_lon": 0.0, "fusion_lat": 0.0, "lat": 38.905078333333336, "type": "electric_scooter", "lon": -76.99623733333334, "bike_id": "e2ff21e60d9f0248f178e4708db3a1ab", "rental_uris": {"android": "https://dc.lft.to/lastmile_qr_scan", "ios": "https://dc.lft.to/lastmile_qr_scan"}, "name": "e2ff21e60d9f0248f178e4708db3a1ab", "is_reserved": 0}, {"is_disabled": 0, "fusion_lon": 0.0, "fusion_lat": 0.0, "lat": 38.917939833333335, "type": "electric_scooter", "lon": -77.02711216666667, "bike_id": "5b04ab7c2fa25a1c5f9beb8088228702", "rental_uris": {"android": "https://dc.lft.to/lastmile_qr_scan", "ios": "https://dc.lft.to/lastmile_qr_scan"}, "name": "5b04ab7c2fa25a1c5f9beb8088228702", "is_reserved": 0}, {"is_disabled": 0, "fusion_lon": 0.0, "fusion_lat": 0.0, "lat": 38.91199833333334, "type": "electric_scooter", "lon": -77.03713783333333, "bike_id": "4bb9d28f0c3ab6830c43e0d2408b3b38", "rental_uris": {"android": "https://dc.lft.to/lastmile_qr_scan", "ios": "https://dc.lft.to/lastmile_qr_scan"}, "name": "4bb9d28f0c3ab6830c43e0d2408b3b38", "is_reserved": 0}, {"is_disabled": 0, "fusion_lon": 0.0, "fusion_lat": 0.0, "lat": 38.9099225, "type": "electric_scooter", "lon": -77.04259733333333, "bike_id": "1d1072456df5ed87bee7b3f4c4d487d5", "rental_uris": {"android": "https://dc.lft.to/lastmile_qr_scan", "ios": "https://dc.lft.to/lastmile_qr_scan"}, "name": "1d1072456df5ed87bee7b3f4c4d487d5", "is_reserved": 0}, {"is_disabled": 0, "fusion_lon": 0.0, "fusion_lat": 0.0, "lat": 38.8797195, "type": "electric_scooter", "lon": -77.02431433333334, "bike_id": "ed79bf073f1746ba587a0f3f3e53236f", "rental_uris": {"android": "https://dc.lft.to/lastmile_qr_scan", "ios": "https://dc.lft.to/lastmile_qr_scan"}, "name": "ed79bf073f1746ba587a0f3f3e53236f", "is_reserved": 0}, {"is_disabled": 0, "fusion_lon": 0.0, "fusion_lat": 0.0, "lat": 38.903940166666665, "type": "electric_scooter", "lon": -77.0160135, "bike_id": "1b54a40a55549bc057febe6518c95654", "rental_uris": {"android": "https://dc.lft.to/lastmile_qr_scan", "ios": "https://dc.lft.to/lastmile_qr_scan"}, "name": "1b54a40a55549bc057febe6518c95654", "is_reserved": 0}, {"is_disabled": 0, "fusion_lon": 0.0, "fusion_lat": 0.0, "lat": 38.93187566666667, "type": "electric_scooter", "lon": -77.04145083333333, "bike_id": "98c55747dbb79047715963181905fff2", "rental_uris": {"android": "https://dc.lft.to/lastmile_qr_scan", "ios": "https://dc.lft.to/lastmile_qr_scan"}, "name": "98c55747dbb79047715963181905fff2", "is_reserved": 0}, {"is_disabled": 0, "fusion_lon": 0.0, "fusion_lat": 0.0, "lat": 38.89845033333334, "type": "electric_scooter", "lon": -76.94497916666667, "bike_id": "3ed3ecac74823f1bacd127f63ce023ff", "rental_uris": {"android": "https://dc.lft.to/lastmile_qr_scan", "ios": "https://dc.lft.to/lastmile_qr_scan"}, "name": "3ed3ecac74823f1bacd127f63ce023ff", "is_reserved": 0}, {"is_disabled": 0, "fusion_lon": 0.0, "fusion_lat": 0.0, "lat": 38.894951, "type": "electric_scooter", "lon": -77.02278666666666, "bike_id": "b2d5d29c7d9b99585b164cb3fd8450bc", "rental_uris": {"android": "https://dc.lft.to/lastmile_qr_scan", "ios": "https://dc.lft.to/lastmile_qr_scan"}, "name": "b2d5d29c7d9b99585b164cb3fd8450bc", "is_reserved": 0}, {"is_disabled": 0, "fusion_lon": 0.0, "fusion_lat": 0.0, "lat": 38.935522666666664, "type": "electric_scooter", "lon": -77.05903383333333, "bike_id": "d0a75577673124559e2c03154cbfe043", "rental_uris": {"android": "https://dc.lft.to/lastmile_qr_scan", "ios": "https://dc.lft.to/lastmile_qr_scan"}, "name": "d0a75577673124559e2c03154cbfe043", "is_reserved": 0}, {"is_disabled": 0, "fusion_lon": 0.0, "fusion_lat": 0.0, "lat": 39.022995, "type": "electric_bike", "lon": -77.02100783333333, "bike_id": "9037e92640f8bc723328da79d3c7565f", "rental_uris": {"android": "https://dc.lft.to/lastmile_qr_scan", "ios": "https://dc.lft.to/lastmile_qr_scan"}, "name": "9037e92640f8bc723328da79d3c7565f", "is_reserved": 0}, {"is_disabled": 0, "fusion_lon": 0.0, "fusion_lat": 0.0, "lat": 38.86526116666667, "type": "electric_scooter", "lon": -76.98970033333333, "bike_id": "bcc062eb109e2affbbc501c0c064c3df", "rental_uris": {"android": "https://dc.lft.to/lastmile_qr_scan", "ios": "https://dc.lft.to/lastmile_qr_scan"}, "name": "bcc062eb109e2affbbc501c0c064c3df", "is_reserved": 0}, {"is_disabled": 0, "fusion_lon": 0.0, "fusion_lat": 0.0, "lat": 38.9002835, "type": "electric_scooter", "lon": -77.04508833333334, "bike_id": "40d9069ff93293f19897582a1797c085", "rental_uris": {"android": "https://dc.lft.to/lastmile_qr_scan", "ios": "https://dc.lft.to/lastmile_qr_scan"}, "name": "40d9069ff93293f19897582a1797c085", "is_reserved": 0}, {"is_disabled": 0, "fusion_lon": 0.0, "fusion_lat": 0.0, "lat": 38.902317833333335, "type": "electric_scooter", "lon": -77.04724366666666, "bike_id": "08bb2696af9864eb664cf63ef294789c", "rental_uris": {"android": "https://dc.lft.to/lastmile_qr_scan", "ios": "https://dc.lft.to/lastmile_qr_scan"}, "name": "08bb2696af9864eb664cf63ef294789c", "is_reserved": 0}, {"is_disabled": 0, "fusion_lon": 0.0, "fusion_lat": 0.0, "lat": 38.8955255, "type": "electric_scooter", "lon": -76.948717, "bike_id": "4ba56572d4aa58e5c5e93adcd7fff2ef", "rental_uris": {"android": "https://dc.lft.to/lastmile_qr_scan", "ios": "https://dc.lft.to/lastmile_qr_scan"}, "name": "4ba56572d4aa58e5c5e93adcd7fff2ef", "is_reserved": 0}, {"is_disabled": 0, "fusion_lon": 0.0, "fusion_lat": 0.0, "lat": 38.904402166666664, "type": "electric_scooter", "lon": -77.05138716666667, "bike_id": "d40e0c2831e1af24741ab00729e846c4", "rental_uris": {"android": "https://dc.lft.to/lastmile_qr_scan", "ios": "https://dc.lft.to/lastmile_qr_scan"}, "name": "d40e0c2831e1af24741ab00729e846c4", "is_reserved": 0}, {"is_disabled": 0, "fusion_lon": 0.0, "fusion_lat": 0.0, "lat": 38.90771933333333, "type": "electric_scooter", "lon": -77.06281883333334, "bike_id": "56ae361c03d4384770a9951125a6956e", "rental_uris": {"android": "https://dc.lft.to/lastmile_qr_scan", "ios": "https://dc.lft.to/lastmile_qr_scan"}, "name": "56ae361c03d4384770a9951125a6956e", "is_reserved": 0}, {"is_disabled": 0, "fusion_lon": 0.0, "fusion_lat": 0.0, "lat": 38.852123166666665, "type": "electric_bike", "lon": -77.10125866666667, "bike_id": "6b3cb722af0d832325bc39d4ba50ec01", "rental_uris": {"android": "https://dc.lft.to/lastmile_qr_scan", "ios": "https://dc.lft.to/lastmile_qr_scan"}, "name": "6b3cb722af0d832325bc39d4ba50ec01", "is_reserved": 0}, {"is_disabled": 0, "fusion_lon": 0.0, "fusion_lat": 0.0, "lat": 38.926001, "type": "electric_scooter", "lon": -77.02349866666667, "bike_id": "e389e5db9045807e6f84f3f881012bd1", "rental_uris": {"android": "https://dc.lft.to/lastmile_qr_scan", "ios": "https://dc.lft.to/lastmile_qr_scan"}, "name": "e389e5db9045807e6f84f3f881012bd1", "is_reserved": 0}, {"is_disabled": 0, "fusion_lon": 0.0, "fusion_lat": 0.0, "lat": 38.89596066666667, "type": "electric_scooter", "lon": -77.00911266666667, "bike_id": "dabe4ab3c31fbc4a7cd86b411d9db015", "rental_uris": {"android": "https://dc.lft.to/lastmile_qr_scan", "ios": "https://dc.lft.to/lastmile_qr_scan"}, "name": "dabe4ab3c31fbc4a7cd86b411d9db015", "is_reserved": 0}, {"is_disabled": 0, "fusion_lon": 0.0, "fusion_lat": 0.0, "lat": 38.94634833333333, "type": "electric_scooter", "lon": -77.01927366666666, "bike_id": "81c9eb3326b6a36bef0eabc8697c4b7d", "rental_uris": {"android": "https://dc.lft.to/lastmile_qr_scan", "ios": "https://dc.lft.to/lastmile_qr_scan"}, "name": "81c9eb3326b6a36bef0eabc8697c4b7d", "is_reserved": 0}, {"is_disabled": 0, "fusion_lon": 0.0, "fusion_lat": 0.0, "lat": 38.92753833333333, "type": "electric_scooter", "lon": -77.00593433333333, "bike_id": "b8f79ac3aeb58cce3568ece4daae978d", "rental_uris": {"android": "https://dc.lft.to/lastmile_qr_scan", "ios": "https://dc.lft.to/lastmile_qr_scan"}, "name": "b8f79ac3aeb58cce3568ece4daae978d", "is_reserved": 0}, {"is_disabled": 0, "fusion_lon": 0.0, "fusion_lat": 0.0, "lat": 38.92017333333333, "type": "electric_scooter", "lon": -77.031553, "bike_id": "934b671ba4380c4abdf32934043faaeb", "rental_uris": {"android": "https://dc.lft.to/lastmile_qr_scan", "ios": "https://dc.lft.to/lastmile_qr_scan"}, "name": "934b671ba4380c4abdf32934043faaeb", "is_reserved": 0}, {"is_disabled": 0, "fusion_lon": 0.0, "fusion_lat": 0.0, "lat": 38.91697516666667, "type": "electric_scooter", "lon": -77.03778716666666, "bike_id": "320fb4ff860e85b4163811d1b797ebea", "rental_uris": {"android": "https://dc.lft.to/lastmile_qr_scan", "ios": "https://dc.lft.to/lastmile_qr_scan"}, "name": "320fb4ff860e85b4163811d1b797ebea", "is_reserved": 0}, {"is_disabled": 0, "fusion_lon": 0.0, "fusion_lat": 0.0, "lat": 38.89281416666667, "type": "electric_scooter", "lon": -77.050362, "bike_id": "07f6070225a099dd856cc92ba5e5af3f", "rental_uris": {"android": "https://dc.lft.to/lastmile_qr_scan", "ios": "https://dc.lft.to/lastmile_qr_scan"}, "name": "07f6070225a099dd856cc92ba5e5af3f", "is_reserved": 0}, {"is_disabled": 0, "fusion_lon": 0.0, "fusion_lat": 0.0, "lat": 38.852043, "type": "electric_bike", "lon": -77.12759933333334, "bike_id": "b46ff37c92f965fdc598c4599c1b84e9", "rental_uris": {"android": "https://dc.lft.to/lastmile_qr_scan", "ios": "https://dc.lft.to/lastmile_qr_scan"}, "name": "b46ff37c92f965fdc598c4599c1b84e9", "is_reserved": 0}, {"is_disabled": 0, "fusion_lon": 0.0, "fusion_lat": 0.0, "lat": 38.93898216666667, "type": "electric_scooter", "lon": -77.0332415, "bike_id": "370969aabeb46dd90b5510e034dbc01a", "rental_uris": {"android": "https://dc.lft.to/lastmile_qr_scan", "ios": "https://dc.lft.to/lastmile_qr_scan"}, "name": "370969aabeb46dd90b5510e034dbc01a", "is_reserved": 0}, {"is_disabled": 0, "fusion_lon": 0.0, "fusion_lat": 0.0, "lat": 38.897493, "type": "electric_scooter", "lon": -77.05151466666666, "bike_id": "541fb51ba39442d4c5b93f53e1b73494", "rental_uris": {"android": "https://dc.lft.to/lastmile_qr_scan", "ios": "https://dc.lft.to/lastmile_qr_scan"}, "name": "541fb51ba39442d4c5b93f53e1b73494", "is_reserved": 0}, {"is_disabled": 0, "fusion_lon": 0.0, "fusion_lat": 0.0, "lat": 38.9217715, "type": "electric_scooter", "lon": -77.04217716666666, "bike_id": "2b99f7d25876b0bc75775fd1f26c58a6", "rental_uris": {"android": "https://dc.lft.to/lastmile_qr_scan", "ios": "https://dc.lft.to/lastmile_qr_scan"}, "name": "2b99f7d25876b0bc75775fd1f26c58a6", "is_reserved": 0}, {"is_disabled": 0, "fusion_lon": 0.0, "fusion_lat": 0.0, "lat": 38.883111, "type": "electric_scooter", "lon": -77.04523733333333, "bike_id": "482890061939d379ca9332d0ac2231f4", "rental_uris": {"android": "https://dc.lft.to/lastmile_qr_scan", "ios": "https://dc.lft.to/lastmile_qr_scan"}, "name": "482890061939d379ca9332d0ac2231f4", "is_reserved": 0}, {"is_disabled": 0, "fusion_lon": 0.0, "fusion_lat": 0.0, "lat": 38.887474833333336, "type": "electric_scooter", "lon": -77.0153195, "bike_id": "5d6291e6c7871af575ff7da640b220c1", "rental_uris": {"android": "https://dc.lft.to/lastmile_qr_scan", "ios": "https://dc.lft.to/lastmile_qr_scan"}, "name": "5d6291e6c7871af575ff7da640b220c1", "is_reserved": 0}, {"is_disabled": 0, "fusion_lon": 0.0, "fusion_lat": 0.0, "lat": 38.8849065, "type": "electric_scooter", "lon": -77.00726, "bike_id": "e3f9359d9ec69dc6468861a9cd5c2d60", "rental_uris": {"android": "https://dc.lft.to/lastmile_qr_scan", "ios": "https://dc.lft.to/lastmile_qr_scan"}, "name": "e3f9359d9ec69dc6468861a9cd5c2d60", "is_reserved": 0}, {"is_disabled": 0, "fusion_lon": 0.0, "fusion_lat": 0.0, "lat": 38.95590933333333, "type": "electric_scooter", "lon": -77.03647566666666, "bike_id": "c24f1e637d3e69eec1f0844d9e35b385", "rental_uris": {"android": "https://dc.lft.to/lastmile_qr_scan", "ios": "https://dc.lft.to/lastmile_qr_scan"}, "name": "c24f1e637d3e69eec1f0844d9e35b385", "is_reserved": 0}, {"is_disabled": 0, "fusion_lon": 0.0, "fusion_lat": 0.0, "lat": 38.90014, "type": "electric_scooter", "lon": -77.01199983333333, "bike_id": "a4c41678fd654692975cf9352d355534", "rental_uris": {"android": "https://dc.lft.to/lastmile_qr_scan", "ios": "https://dc.lft.to/lastmile_qr_scan"}, "name": "a4c41678fd654692975cf9352d355534", "is_reserved": 0}, {"is_disabled": 0, "fusion_lon": 0.0, "fusion_lat": 0.0, "lat": 38.9006335, "type": "electric_scooter", "lon": -76.98684416666667, "bike_id": "0a9b7049aa32a86a2caaaa96ae5313d4", "rental_uris": {"android": "https://dc.lft.to/lastmile_qr_scan", "ios": "https://dc.lft.to/lastmile_qr_scan"}, "name": "0a9b7049aa32a86a2caaaa96ae5313d4", "is_reserved": 0}, {"is_disabled": 0, "fusion_lon": 0.0, "fusion_lat": 0.0, "lat": 38.905627, "type": "electric_scooter", "lon": -77.0383465, "bike_id": "d53114968987cdddefaa835c42dc9c69", "rental_uris": {"android": "https://dc.lft.to/lastmile_qr_scan", "ios": "https://dc.lft.to/lastmile_qr_scan"}, "name": "d53114968987cdddefaa835c42dc9c69", "is_reserved": 0}, {"is_disabled": 0, "fusion_lon": 0.0, "fusion_lat": 0.0, "lat": 38.92272483333333, "type": "electric_scooter", "lon": -77.022413, "bike_id": "4fb6ac7902652d565f574709a1e70820", "rental_uris": {"android": "https://dc.lft.to/lastmile_qr_scan", "ios": "https://dc.lft.to/lastmile_qr_scan"}, "name": "4fb6ac7902652d565f574709a1e70820", "is_reserved": 0}, {"is_disabled": 0, "fusion_lon": 0.0, "fusion_lat": 0.0, "lat": 38.91413816666667, "type": "electric_scooter", "lon": -77.042522, "bike_id": "300ded1954454871b7a0715242e89afa", "rental_uris": {"android": "https://dc.lft.to/lastmile_qr_scan", "ios": "https://dc.lft.to/lastmile_qr_scan"}, "name": "300ded1954454871b7a0715242e89afa", "is_reserved": 0}, {"is_disabled": 0, "fusion_lon": 0.0, "fusion_lat": 0.0, "lat": 38.913813166666664, "type": "electric_scooter", "lon": -77.02969583333334, "bike_id": "979bff8f27a2428f3cd321162e4bbdf5", "rental_uris": {"android": "https://dc.lft.to/lastmile_qr_scan", "ios": "https://dc.lft.to/lastmile_qr_scan"}, "name": "979bff8f27a2428f3cd321162e4bbdf5", "is_reserved": 0}, {"is_disabled": 0, "fusion_lon": 0.0, "fusion_lat": 0.0, "lat": 38.9573195, "type": "electric_scooter", "lon": -77.0240265, "bike_id": "bf0c3a25e3629965d9e20f5dd7bb2971", "rental_uris": {"android": "https://dc.lft.to/lastmile_qr_scan", "ios": "https://dc.lft.to/lastmile_qr_scan"}, "name": "bf0c3a25e3629965d9e20f5dd7bb2971", "is_reserved": 0}, {"is_disabled": 0, "fusion_lon": 0.0, "fusion_lat": 0.0, "lat": 38.92126183333333, "type": "electric_scooter", "lon": -76.9957555, "bike_id": "48c2871a244e24fdeeef911187897d11", "rental_uris": {"android": "https://dc.lft.to/lastmile_qr_scan", "ios": "https://dc.lft.to/lastmile_qr_scan"}, "name": "48c2871a244e24fdeeef911187897d11", "is_reserved": 0}, {"is_disabled": 0, "fusion_lon": 0.0, "fusion_lat": 0.0, "lat": 38.842919333333334, "type": "electric_scooter", "lon": -76.9994485, "bike_id": "225c3b5d0f5172d104c71b61a754c957", "rental_uris": {"android": "https://dc.lft.to/lastmile_qr_scan", "ios": "https://dc.lft.to/lastmile_qr_scan"}, "name": "225c3b5d0f5172d104c71b61a754c957", "is_reserved": 0}, {"is_disabled": 0, "fusion_lon": 0.0, "fusion_lat": 0.0, "lat": 38.919642833333334, "type": "electric_scooter", "lon": -77.02351566666667, "bike_id": "bc4760fed07af4b0e6c5fdab0d4efb67", "rental_uris": {"android": "https://dc.lft.to/lastmile_qr_scan", "ios": "https://dc.lft.to/lastmile_qr_scan"}, "name": "bc4760fed07af4b0e6c5fdab0d4efb67", "is_reserved": 0}, {"is_disabled": 0, "fusion_lon": 0.0, "fusion_lat": 0.0, "lat": 38.9051305, "type": "electric_scooter", "lon": -76.98250333333333, "bike_id": "a52002b0568cea6cb067d65ae82310bd", "rental_uris": {"android": "https://dc.lft.to/lastmile_qr_scan", "ios": "https://dc.lft.to/lastmile_qr_scan"}, "name": "a52002b0568cea6cb067d65ae82310bd", "is_reserved": 0}, {"is_disabled": 0, "fusion_lon": 0.0, "fusion_lat": 0.0, "lat": 39.00788583333333, "type": "electric_bike", "lon": -76.99562966666667, "bike_id": "4beffb5fae2ff0e6ff4e8d4577789518", "rental_uris": {"android": "https://dc.lft.to/lastmile_qr_scan", "ios": "https://dc.lft.to/lastmile_qr_scan"}, "name": "4beffb5fae2ff0e6ff4e8d4577789518", "is_reserved": 0}, {"is_disabled": 0, "fusion_lon": 0.0, "fusion_lat": 0.0, "lat": 38.882295166666665, "type": "electric_scooter", "lon": -76.99500633333334, "bike_id": "2393f707fd7fcfe0307db8fb998087ea", "rental_uris": {"android": "https://dc.lft.to/lastmile_qr_scan", "ios": "https://dc.lft.to/lastmile_qr_scan"}, "name": "2393f707fd7fcfe0307db8fb998087ea", "is_reserved": 0}, {"is_disabled": 0, "fusion_lon": 0.0, "fusion_lat": 0.0, "lat": 38.9064185, "type": "electric_scooter", "lon": -77.04522683333333, "bike_id": "d63768b5d9780010c7d43bee53d1480d", "rental_uris": {"android": "https://dc.lft.to/lastmile_qr_scan", "ios": "https://dc.lft.to/lastmile_qr_scan"}, "name": "d63768b5d9780010c7d43bee53d1480d", "is_reserved": 0}, {"is_disabled": 0, "fusion_lon": 0.0, "fusion_lat": 0.0, "lat": 38.9089905, "type": "electric_scooter", "lon": -77.04477733333333, "bike_id": "f9a3a884aaa88dc36cf0025703df57c5", "rental_uris": {"android": "https://dc.lft.to/lastmile_qr_scan", "ios": "https://dc.lft.to/lastmile_qr_scan"}, "name": "f9a3a884aaa88dc36cf0025703df57c5", "is_reserved": 0}, {"is_disabled": 0, "fusion_lon": 0.0, "fusion_lat": 0.0, "lat": 38.91693183333334, "type": "electric_bike", "lon": -77.09170066666667, "bike_id": "d0d7d10d6f7ced3809560db7dbb37aaf", "rental_uris": {"android": "https://dc.lft.to/lastmile_qr_scan", "ios": "https://dc.lft.to/lastmile_qr_scan"}, "name": "d0d7d10d6f7ced3809560db7dbb37aaf", "is_reserved": 0}, {"is_disabled": 0, "fusion_lon": 0.0, "fusion_lat": 0.0, "lat": 38.873699333333334, "type": "electric_scooter", "lon": -77.0009205, "bike_id": "0c3058e3057702696243df7c376da836", "rental_uris": {"android": "https://dc.lft.to/lastmile_qr_scan", "ios": "https://dc.lft.to/lastmile_qr_scan"}, "name": "0c3058e3057702696243df7c376da836", "is_reserved": 0}, {"is_disabled": 0, "fusion_lon": 0.0, "fusion_lat": 0.0, "lat": 38.80564183333333, "type": "electric_bike", "lon": -77.051616, "bike_id": "d40cf8e28a21e9e5261268a3fd20afcc", "rental_uris": {"android": "https://dc.lft.to/lastmile_qr_scan", "ios": "https://dc.lft.to/lastmile_qr_scan"}, "name": "d40cf8e28a21e9e5261268a3fd20afcc", "is_reserved": 0}, {"is_disabled": 0, "fusion_lon": 0.0, "fusion_lat": 0.0, "lat": 38.898165166666665, "type": "electric_bike", "lon": -77.02559183333334, "bike_id": "b1d2046f5e3e9b0af79fc93e39d6a411", "rental_uris": {"android": "https://dc.lft.to/lastmile_qr_scan", "ios": "https://dc.lft.to/lastmile_qr_scan"}, "name": "b1d2046f5e3e9b0af79fc93e39d6a411", "is_reserved": 0}, {"is_disabled": 0, "fusion_lon": 0.0, "fusion_lat": 0.0, "lat": 38.886333, "type": "electric_bike", "lon": -77.092405, "bike_id": "f1fbfa92f23e6450b7911f16882f8d4f", "rental_uris": {"android": "https://dc.lft.to/lastmile_qr_scan", "ios": "https://dc.lft.to/lastmile_qr_scan"}, "name": "f1fbfa92f23e6450b7911f16882f8d4f", "is_reserved": 0}, {"is_disabled": 0, "fusion_lon": 0.0, "fusion_lat": 0.0, "lat": 38.89729833333333, "type": "electric_bike", "lon": -76.9054085, "bike_id": "7ee8103272a74836f0150f9a2b2e64c9", "rental_uris": {"android": "https://dc.lft.to/lastmile_qr_scan", "ios": "https://dc.lft.to/lastmile_qr_scan"}, "name": "7ee8103272a74836f0150f9a2b2e64c9", "is_reserved": 0}, {"is_disabled": 0, "fusion_lon": 0.0, "fusion_lat": 0.0, "lat": 38.92064466666667, "type": "electric_scooter", "lon": -77.04356583333333, "bike_id": "978bc350f2b17028c033dda61be229ff", "rental_uris": {"android": "https://dc.lft.to/lastmile_qr_scan", "ios": "https://dc.lft.to/lastmile_qr_scan"}, "name": "978bc350f2b17028c033dda61be229ff", "is_reserved": 0}, {"is_disabled": 0, "fusion_lon": 0.0, "fusion_lat": 0.0, "lat": 38.92397233333333, "type": "electric_scooter", "lon": -77.02560266666667, "bike_id": "a8ce751e03e643691371bd6bdc06cc60", "rental_uris": {"android": "https://dc.lft.to/lastmile_qr_scan", "ios": "https://dc.lft.to/lastmile_qr_scan"}, "name": "a8ce751e03e643691371bd6bdc06cc60", "is_reserved": 0}, {"is_disabled": 0, "fusion_lon": 0.0, "fusion_lat": 0.0, "lat": 38.96817866666667, "type": "electric_scooter", "lon": -77.008903, "bike_id": "199217ad2f9760a77c8d44a9756f0658", "rental_uris": {"android": "https://dc.lft.to/lastmile_qr_scan", "ios": "https://dc.lft.to/lastmile_qr_scan"}, "name": "199217ad2f9760a77c8d44a9756f0658", "is_reserved": 0}, {"is_disabled": 0, "fusion_lon": 0.0, "fusion_lat": 0.0, "lat": 38.91459066666667, "type": "electric_scooter", "lon": -77.02001433333334, "bike_id": "e6152493324cfd4d22acf273abbbef5d", "rental_uris": {"android": "https://dc.lft.to/lastmile_qr_scan", "ios": "https://dc.lft.to/lastmile_qr_scan"}, "name": "e6152493324cfd4d22acf273abbbef5d", "is_reserved": 0}, {"is_disabled": 0, "fusion_lon": 0.0, "fusion_lat": 0.0, "lat": 38.90969283333333, "type": "electric_scooter", "lon": -77.039404, "bike_id": "a8bb678e2ed1260906fad5deb3cc2ee3", "rental_uris": {"android": "https://dc.lft.to/lastmile_qr_scan", "ios": "https://dc.lft.to/lastmile_qr_scan"}, "name": "a8bb678e2ed1260906fad5deb3cc2ee3", "is_reserved": 0}, {"is_disabled": 0, "fusion_lon": 0.0, "fusion_lat": 0.0, "lat": 38.9039525, "type": "electric_scooter", "lon": -77.00477516666666, "bike_id": "1484d33d221a9bfcc8b6f227fb85596c", "rental_uris": {"android": "https://dc.lft.to/lastmile_qr_scan", "ios": "https://dc.lft.to/lastmile_qr_scan"}, "name": "1484d33d221a9bfcc8b6f227fb85596c", "is_reserved": 0}, {"is_disabled": 0, "fusion_lon": 0.0, "fusion_lat": 0.0, "lat": 39.052049, "type": "electric_bike", "lon": -77.04408833333333, "bike_id": "4614d60832859490f7f83ac5235fff88", "rental_uris": {"android": "https://dc.lft.to/lastmile_qr_scan", "ios": "https://dc.lft.to/lastmile_qr_scan"}, "name": "4614d60832859490f7f83ac5235fff88", "is_reserved": 0}, {"is_disabled": 0, "fusion_lon": 0.0, "fusion_lat": 0.0, "lat": 38.941108666666665, "type": "electric_scooter", "lon": -77.0772105, "bike_id": "e29aed65928253f1cb58ae0748938684", "rental_uris": {"android": "https://dc.lft.to/lastmile_qr_scan", "ios": "https://dc.lft.to/lastmile_qr_scan"}, "name": "e29aed65928253f1cb58ae0748938684", "is_reserved": 0}, {"is_disabled": 0, "fusion_lon": 0.0, "fusion_lat": 0.0, "lat": 38.88996083333333, "type": "electric_scooter", "lon": -77.00049316666667, "bike_id": "bc5583d04f6bc2b4a6caaf7296f2c8ea", "rental_uris": {"android": "https://dc.lft.to/lastmile_qr_scan", "ios": "https://dc.lft.to/lastmile_qr_scan"}, "name": "bc5583d04f6bc2b4a6caaf7296f2c8ea", "is_reserved": 0}, {"is_disabled": 0, "fusion_lon": 0.0, "fusion_lat": 0.0, "lat": 38.920812833333336, "type": "electric_scooter", "lon": -77.03169966666667, "bike_id": "c951e37ef23147b355fb4d6d4b2bbab8", "rental_uris": {"android": "https://dc.lft.to/lastmile_qr_scan", "ios": "https://dc.lft.to/lastmile_qr_scan"}, "name": "c951e37ef23147b355fb4d6d4b2bbab8", "is_reserved": 0}, {"is_disabled": 0, "fusion_lon": 0.0, "fusion_lat": 0.0, "lat": 38.9205405, "type": "electric_scooter", "lon": -77.0426435, "bike_id": "184f7e81080489acdb385a49bb0f8d1f", "rental_uris": {"android": "https://dc.lft.to/lastmile_qr_scan", "ios": "https://dc.lft.to/lastmile_qr_scan"}, "name": "184f7e81080489acdb385a49bb0f8d1f", "is_reserved": 0}, {"is_disabled": 0, "fusion_lon": 0.0, "fusion_lat": 0.0, "lat": 38.914164666666665, "type": "electric_scooter", "lon": -77.03100233333333, "bike_id": "5f6ea10ed64746c4824d4b0a6cc4e429", "rental_uris": {"android": "https://dc.lft.to/lastmile_qr_scan", "ios": "https://dc.lft.to/lastmile_qr_scan"}, "name": "5f6ea10ed64746c4824d4b0a6cc4e429", "is_reserved": 0}, {"is_disabled": 0, "fusion_lon": 0.0, "fusion_lat": 0.0, "lat": 38.87286733333333, "type": "electric_scooter", "lon": -76.9772735, "bike_id": "db96112e6f2fc1a8070f1a65a6ca9fc9", "rental_uris": {"android": "https://dc.lft.to/lastmile_qr_scan", "ios": "https://dc.lft.to/lastmile_qr_scan"}, "name": "db96112e6f2fc1a8070f1a65a6ca9fc9", "is_reserved": 0}, {"is_disabled": 0, "fusion_lon": 0.0, "fusion_lat": 0.0, "lat": 38.824673, "type": "electric_bike", "lon": -77.07082416666667, "bike_id": "eea53f4d3d26deeb9c73a1eba9f39b9d", "rental_uris": {"android": "https://dc.lft.to/lastmile_qr_scan", "ios": "https://dc.lft.to/lastmile_qr_scan"}, "name": "eea53f4d3d26deeb9c73a1eba9f39b9d", "is_reserved": 0}, {"is_disabled": 0, "fusion_lon": 0.0, "fusion_lat": 0.0, "lat": 38.92594916666667, "type": "electric_bike", "lon": -76.88902916666666, "bike_id": "16d65a3895264b9e9683d2e7620d8403", "rental_uris": {"android": "https://dc.lft.to/lastmile_qr_scan", "ios": "https://dc.lft.to/lastmile_qr_scan"}, "name": "16d65a3895264b9e9683d2e7620d8403", "is_reserved": 0}, {"is_disabled": 0, "fusion_lon": 0.0, "fusion_lat": 0.0, "lat": 38.93865816666667, "type": "electric_scooter", "lon": -77.02649866666667, "bike_id": "30267497634ba62f7caa29f5bdaf4a06", "rental_uris": {"android": "https://dc.lft.to/lastmile_qr_scan", "ios": "https://dc.lft.to/lastmile_qr_scan"}, "name": "30267497634ba62f7caa29f5bdaf4a06", "is_reserved": 0}, {"is_disabled": 0, "fusion_lon": 0.0, "fusion_lat": 0.0, "lat": 38.89482116666667, "type": "electric_scooter", "lon": -77.021201, "bike_id": "026d4783b6c654a39d970d19e34986e7", "rental_uris": {"android": "https://dc.lft.to/lastmile_qr_scan", "ios": "https://dc.lft.to/lastmile_qr_scan"}, "name": "026d4783b6c654a39d970d19e34986e7", "is_reserved": 0}, {"is_disabled": 0, "fusion_lon": 0.0, "fusion_lat": 0.0, "lat": 38.90852366666667, "type": "electric_scooter", "lon": -77.07155216666666, "bike_id": "adc092b1b053e707f0954f9a443e7c2d", "rental_uris": {"android": "https://dc.lft.to/lastmile_qr_scan", "ios": "https://dc.lft.to/lastmile_qr_scan"}, "name": "adc092b1b053e707f0954f9a443e7c2d", "is_reserved": 0}, {"is_disabled": 0, "fusion_lon": 0.0, "fusion_lat": 0.0, "lat": 38.892366833333334, "type": "electric_bike", "lon": -76.952237, "bike_id": "7a4aa6a6246f5e9f09387558e9da12f8", "rental_uris": {"android": "https://dc.lft.to/lastmile_qr_scan", "ios": "https://dc.lft.to/lastmile_qr_scan"}, "name": "7a4aa6a6246f5e9f09387558e9da12f8", "is_reserved": 0}, {"is_disabled": 0, "fusion_lon": 0.0, "fusion_lat": 0.0, "lat": 38.887447333333334, "type": "electric_scooter", "lon": -77.01531083333333, "bike_id": "c92289f197458479ad603547a946928d", "rental_uris": {"android": "https://dc.lft.to/lastmile_qr_scan", "ios": "https://dc.lft.to/lastmile_qr_scan"}, "name": "c92289f197458479ad603547a946928d", "is_reserved": 0}, {"is_disabled": 0, "fusion_lon": 0.0, "fusion_lat": 0.0, "lat": 38.89793433333333, "type": "electric_scooter", "lon": -77.011933, "bike_id": "6c69d0244a7972d7bd96645df023b074", "rental_uris": {"android": "https://dc.lft.to/lastmile_qr_scan", "ios": "https://dc.lft.to/lastmile_qr_scan"}, "name": "6c69d0244a7972d7bd96645df023b074", "is_reserved": 0}, {"is_disabled": 0, "fusion_lon": 0.0, "fusion_lat": 0.0, "lat": 38.88051433333333, "type": "electric_scooter", "lon": -77.00364183333333, "bike_id": "b21c3ca0d44b0075e2269f93c006a6ce", "rental_uris": {"android": "https://dc.lft.to/lastmile_qr_scan", "ios": "https://dc.lft.to/lastmile_qr_scan"}, "name": "b21c3ca0d44b0075e2269f93c006a6ce", "is_reserved": 0}, {"is_disabled": 0, "fusion_lon": 0.0, "fusion_lat": 0.0, "lat": 38.91101966666667, "type": "electric_scooter", "lon": -77.0271735, "bike_id": "6b2b236301fe8cdd23a3573c9d681dd6", "rental_uris": {"android": "https://dc.lft.to/lastmile_qr_scan", "ios": "https://dc.lft.to/lastmile_qr_scan"}, "name": "6b2b236301fe8cdd23a3573c9d681dd6", "is_reserved": 0}, {"is_disabled": 0, "fusion_lon": 0.0, "fusion_lat": 0.0, "lat": 38.939665833333336, "type": "electric_scooter", "lon": -77.0327535, "bike_id": "b25c8f863fc006b903cec2c1c1bf870f", "rental_uris": {"android": "https://dc.lft.to/lastmile_qr_scan", "ios": "https://dc.lft.to/lastmile_qr_scan"}, "name": "b25c8f863fc006b903cec2c1c1bf870f", "is_reserved": 0}, {"is_disabled": 0, "fusion_lon": 0.0, "fusion_lat": 0.0, "lat": 38.90652983333333, "type": "electric_scooter", "lon": -77.041367, "bike_id": "1dd3ae9a828a972da6ceb905024076dd", "rental_uris": {"android": "https://dc.lft.to/lastmile_qr_scan", "ios": "https://dc.lft.to/lastmile_qr_scan"}, "name": "1dd3ae9a828a972da6ceb905024076dd", "is_reserved": 0}, {"is_disabled": 0, "fusion_lon": 0.0, "fusion_lat": 0.0, "lat": 38.8922825, "type": "electric_scooter", "lon": -77.03208616666667, "bike_id": "cd665d3179b4114094a47f347c7bd39d", "rental_uris": {"android": "https://dc.lft.to/lastmile_qr_scan", "ios": "https://dc.lft.to/lastmile_qr_scan"}, "name": "cd665d3179b4114094a47f347c7bd39d", "is_reserved": 0}, {"is_disabled": 0, "fusion_lon": 0.0, "fusion_lat": 0.0, "lat": 38.901036, "type": "electric_scooter", "lon": -77.01989066666667, "bike_id": "492d068cee5872f8150ba78e39c878be", "rental_uris": {"android": "https://dc.lft.to/lastmile_qr_scan", "ios": "https://dc.lft.to/lastmile_qr_scan"}, "name": "492d068cee5872f8150ba78e39c878be", "is_reserved": 0}, {"is_disabled": 0, "fusion_lon": 0.0, "fusion_lat": 0.0, "lat": 38.93660116666667, "type": "electric_scooter", "lon": -77.03261316666666, "bike_id": "cf01001532c1370665cea83bc106629a", "rental_uris": {"android": "https://dc.lft.to/lastmile_qr_scan", "ios": "https://dc.lft.to/lastmile_qr_scan"}, "name": "cf01001532c1370665cea83bc106629a", "is_reserved": 0}, {"is_disabled": 0, "fusion_lon": 0.0, "fusion_lat": 0.0, "lat": 38.9053495, "type": "electric_scooter", "lon": -77.022125, "bike_id": "b0cf7b8effba39899487aa9467b0aa7f", "rental_uris": {"android": "https://dc.lft.to/lastmile_qr_scan", "ios": "https://dc.lft.to/lastmile_qr_scan"}, "name": "b0cf7b8effba39899487aa9467b0aa7f", "is_reserved": 0}, {"is_disabled": 0, "fusion_lon": 0.0, "fusion_lat": 0.0, "lat": 38.892186333333335, "type": "electric_scooter", "lon": -76.95742583333333, "bike_id": "0fcbb250faa7daa9691c471dd8bd60c2", "rental_uris": {"android": "https://dc.lft.to/lastmile_qr_scan", "ios": "https://dc.lft.to/lastmile_qr_scan"}, "name": "0fcbb250faa7daa9691c471dd8bd60c2", "is_reserved": 0}, {"is_disabled": 0, "fusion_lon": 0.0, "fusion_lat": 0.0, "lat": 38.92831666666667, "type": "electric_scooter", "lon": -77.0140375, "bike_id": "d00156fc36b374aee91c3c4967091cea", "rental_uris": {"android": "https://dc.lft.to/lastmile_qr_scan", "ios": "https://dc.lft.to/lastmile_qr_scan"}, "name": "d00156fc36b374aee91c3c4967091cea", "is_reserved": 0}, {"is_disabled": 0, "fusion_lon": 0.0, "fusion_lat": 0.0, "lat": 38.90044916666667, "type": "electric_scooter", "lon": -76.92269116666667, "bike_id": "c791776da4726c221e82221dabbf8c56", "rental_uris": {"android": "https://dc.lft.to/lastmile_qr_scan", "ios": "https://dc.lft.to/lastmile_qr_scan"}, "name": "c791776da4726c221e82221dabbf8c56", "is_reserved": 0}, {"is_disabled": 0, "fusion_lon": 0.0, "fusion_lat": 0.0, "lat": 38.895602333333336, "type": "electric_scooter", "lon": -77.04666383333333, "bike_id": "7b15cc368bfdca42d74da4ce97348d5a", "rental_uris": {"android": "https://dc.lft.to/lastmile_qr_scan", "ios": "https://dc.lft.to/lastmile_qr_scan"}, "name": "7b15cc368bfdca42d74da4ce97348d5a", "is_reserved": 0}, {"is_disabled": 0, "fusion_lon": 0.0, "fusion_lat": 0.0, "lat": 38.90943466666667, "type": "electric_scooter", "lon": -77.0384805, "bike_id": "c831b21bda74746bf22299b7b69f7a8e", "rental_uris": {"android": "https://dc.lft.to/lastmile_qr_scan", "ios": "https://dc.lft.to/lastmile_qr_scan"}, "name": "c831b21bda74746bf22299b7b69f7a8e", "is_reserved": 0}, {"is_disabled": 0, "fusion_lon": 0.0, "fusion_lat": 0.0, "lat": 38.93050816666667, "type": "electric_scooter", "lon": -77.0232805, "bike_id": "be33e1c813e3f831900994497a28d685", "rental_uris": {"android": "https://dc.lft.to/lastmile_qr_scan", "ios": "https://dc.lft.to/lastmile_qr_scan"}, "name": "be33e1c813e3f831900994497a28d685", "is_reserved": 0}, {"is_disabled": 0, "fusion_lon": 0.0, "fusion_lat": 0.0, "lat": 38.910182666666664, "type": "electric_scooter", "lon": -77.03849316666667, "bike_id": "55e8722e83e1b16ad9e242eeaf098ef9", "rental_uris": {"android": "https://dc.lft.to/lastmile_qr_scan", "ios": "https://dc.lft.to/lastmile_qr_scan"}, "name": "55e8722e83e1b16ad9e242eeaf098ef9", "is_reserved": 0}, {"is_disabled": 0, "fusion_lon": 0.0, "fusion_lat": 0.0, "lat": 38.935335333333335, "type": "electric_scooter", "lon": -77.02378383333334, "bike_id": "5a40cf1c789c797bf8c9d350f17fbe18", "rental_uris": {"android": "https://dc.lft.to/lastmile_qr_scan", "ios": "https://dc.lft.to/lastmile_qr_scan"}, "name": "5a40cf1c789c797bf8c9d350f17fbe18", "is_reserved": 0}, {"is_disabled": 0, "fusion_lon": 0.0, "fusion_lat": 0.0, "lat": 38.86246166666667, "type": "electric_scooter", "lon": -76.99500116666667, "bike_id": "c864fa043ad86dbfda721388516dcc65", "rental_uris": {"android": "https://dc.lft.to/lastmile_qr_scan", "ios": "https://dc.lft.to/lastmile_qr_scan"}, "name": "c864fa043ad86dbfda721388516dcc65", "is_reserved": 0}, {"is_disabled": 0, "fusion_lon": 0.0, "fusion_lat": 0.0, "lat": 38.893756, "type": "electric_scooter", "lon": -76.9499515, "bike_id": "1c729022aed03def37a412bd5bba69ec", "rental_uris": {"android": "https://dc.lft.to/lastmile_qr_scan", "ios": "https://dc.lft.to/lastmile_qr_scan"}, "name": "1c729022aed03def37a412bd5bba69ec", "is_reserved": 0}, {"is_disabled": 0, "fusion_lon": 0.0, "fusion_lat": 0.0, "lat": 38.89247066666667, "type": "electric_scooter", "lon": -77.02806, "bike_id": "baffa3ebe49ffda4938a67f3b6f5eba2", "rental_uris": {"android": "https://dc.lft.to/lastmile_qr_scan", "ios": "https://dc.lft.to/lastmile_qr_scan"}, "name": "baffa3ebe49ffda4938a67f3b6f5eba2", "is_reserved": 0}, {"is_disabled": 0, "fusion_lon": 0.0, "fusion_lat": 0.0, "lat": 38.88732016666667, "type": "electric_scooter", "lon": -77.003205, "bike_id": "c532eeea2548a8482d9b37d278c6fd14", "rental_uris": {"android": "https://dc.lft.to/lastmile_qr_scan", "ios": "https://dc.lft.to/lastmile_qr_scan"}, "name": "c532eeea2548a8482d9b37d278c6fd14", "is_reserved": 0}, {"is_disabled": 0, "fusion_lon": 0.0, "fusion_lat": 0.0, "lat": 38.90983833333333, "type": "electric_scooter", "lon": -77.021844, "bike_id": "fb84fd0fd97e1894b6946daefe5fe238", "rental_uris": {"android": "https://dc.lft.to/lastmile_qr_scan", "ios": "https://dc.lft.to/lastmile_qr_scan"}, "name": "fb84fd0fd97e1894b6946daefe5fe238", "is_reserved": 0}, {"is_disabled": 0, "fusion_lon": 0.0, "fusion_lat": 0.0, "lat": 38.902376, "type": "electric_scooter", "lon": -77.0457205, "bike_id": "d3ff4cb01046b837562df2f391fe9c2a", "rental_uris": {"android": "https://dc.lft.to/lastmile_qr_scan", "ios": "https://dc.lft.to/lastmile_qr_scan"}, "name": "d3ff4cb01046b837562df2f391fe9c2a", "is_reserved": 0}, {"is_disabled": 0, "fusion_lon": 0.0, "fusion_lat": 0.0, "lat": 38.93454533333333, "type": "electric_scooter", "lon": -77.07234566666666, "bike_id": "979a77dbf80e80c289a0f1da22b82487", "rental_uris": {"android": "https://dc.lft.to/lastmile_qr_scan", "ios": "https://dc.lft.to/lastmile_qr_scan"}, "name": "979a77dbf80e80c289a0f1da22b82487", "is_reserved": 0}, {"is_disabled": 0, "fusion_lon": 0.0, "fusion_lat": 0.0, "lat": 38.910365666666664, "type": "electric_scooter", "lon": -77.0425825, "bike_id": "deac0bbcbe7ae88456e0ff2413da1b73", "rental_uris": {"android": "https://dc.lft.to/lastmile_qr_scan", "ios": "https://dc.lft.to/lastmile_qr_scan"}, "name": "deac0bbcbe7ae88456e0ff2413da1b73", "is_reserved": 0}, {"is_disabled": 0, "fusion_lon": 0.0, "fusion_lat": 0.0, "lat": 38.905371833333334, "type": "electric_scooter", "lon": -77.0570405, "bike_id": "efe7dcd69dcb9b58afa988f9c2d6e916", "rental_uris": {"android": "https://dc.lft.to/lastmile_qr_scan", "ios": "https://dc.lft.to/lastmile_qr_scan"}, "name": "efe7dcd69dcb9b58afa988f9c2d6e916", "is_reserved": 0}, {"is_disabled": 0, "fusion_lon": 0.0, "fusion_lat": 0.0, "lat": 39.038829666666665, "type": "electric_bike", "lon": -77.1090905, "bike_id": "e23e382bcc980ef39036b81d311058d5", "rental_uris": {"android": "https://dc.lft.to/lastmile_qr_scan", "ios": "https://dc.lft.to/lastmile_qr_scan"}, "name": "e23e382bcc980ef39036b81d311058d5", "is_reserved": 0}, {"is_disabled": 0, "fusion_lon": 0.0, "fusion_lat": 0.0, "lat": 38.9926615, "type": "electric_scooter", "lon": -77.036062, "bike_id": "9fa5c3822ad8f231c81e7262e55107d0", "rental_uris": {"android": "https://dc.lft.to/lastmile_qr_scan", "ios": "https://dc.lft.to/lastmile_qr_scan"}, "name": "9fa5c3822ad8f231c81e7262e55107d0", "is_reserved": 0}, {"is_disabled": 0, "fusion_lon": 0.0, "fusion_lat": 0.0, "lat": 38.90945116666666, "type": "electric_scooter", "lon": -77.04741166666666, "bike_id": "c412f944fde845e634725501785e9a4a", "rental_uris": {"android": "https://dc.lft.to/lastmile_qr_scan", "ios": "https://dc.lft.to/lastmile_qr_scan"}, "name": "c412f944fde845e634725501785e9a4a", "is_reserved": 0}, {"is_disabled": 0, "fusion_lon": 0.0, "fusion_lat": 0.0, "lat": 38.93671766666667, "type": "electric_bike", "lon": -76.95204033333333, "bike_id": "d4d95c0ae42a8421b2f672992c495cb0", "rental_uris": {"android": "https://dc.lft.to/lastmile_qr_scan", "ios": "https://dc.lft.to/lastmile_qr_scan"}, "name": "d4d95c0ae42a8421b2f672992c495cb0", "is_reserved": 0}, {"is_disabled": 0, "fusion_lon": 0.0, "fusion_lat": 0.0, "lat": 38.93482233333334, "type": "electric_scooter", "lon": -77.07276666666667, "bike_id": "ec02ba814b2c31cb6717f8849b6cda35", "rental_uris": {"android": "https://dc.lft.to/lastmile_qr_scan", "ios": "https://dc.lft.to/lastmile_qr_scan"}, "name": "ec02ba814b2c31cb6717f8849b6cda35", "is_reserved": 0}, {"is_disabled": 0, "fusion_lon": 0.0, "fusion_lat": 0.0, "lat": 38.923692833333334, "type": "electric_scooter", "lon": -77.04104233333334, "bike_id": "bb1cc9b0d9f7b7b98669e0660795b9ce", "rental_uris": {"android": "https://dc.lft.to/lastmile_qr_scan", "ios": "https://dc.lft.to/lastmile_qr_scan"}, "name": "bb1cc9b0d9f7b7b98669e0660795b9ce", "is_reserved": 0}, {"is_disabled": 0, "fusion_lon": 0.0, "fusion_lat": 0.0, "lat": 38.91706083333333, "type": "electric_scooter", "lon": -77.05124966666666, "bike_id": "96a8833cfa6424afd0ca14c5124e265b", "rental_uris": {"android": "https://dc.lft.to/lastmile_qr_scan", "ios": "https://dc.lft.to/lastmile_qr_scan"}, "name": "96a8833cfa6424afd0ca14c5124e265b", "is_reserved": 0}, {"is_disabled": 0, "fusion_lon": 0.0, "fusion_lat": 0.0, "lat": 38.88577633333333, "type": "electric_scooter", "lon": -76.91908883333333, "bike_id": "36de9b561a953a65730d98f10fa6315c", "rental_uris": {"android": "https://dc.lft.to/lastmile_qr_scan", "ios": "https://dc.lft.to/lastmile_qr_scan"}, "name": "36de9b561a953a65730d98f10fa6315c", "is_reserved": 0}, {"is_disabled": 0, "fusion_lon": 0.0, "fusion_lat": 0.0, "lat": 38.90969033333333, "type": "electric_scooter", "lon": -77.0455105, "bike_id": "b30f48cbb366f32dd0c4f969ffcd43d1", "rental_uris": {"android": "https://dc.lft.to/lastmile_qr_scan", "ios": "https://dc.lft.to/lastmile_qr_scan"}, "name": "b30f48cbb366f32dd0c4f969ffcd43d1", "is_reserved": 0}, {"is_disabled": 0, "fusion_lon": 0.0, "fusion_lat": 0.0, "lat": 38.915472333333334, "type": "electric_scooter", "lon": -77.03854166666666, "bike_id": "0cbaa1acaef2b62ef83406242a2ba298", "rental_uris": {"android": "https://dc.lft.to/lastmile_qr_scan", "ios": "https://dc.lft.to/lastmile_qr_scan"}, "name": "0cbaa1acaef2b62ef83406242a2ba298", "is_reserved": 0}, {"is_disabled": 0, "fusion_lon": 0.0, "fusion_lat": 0.0, "lat": 38.904409333333334, "type": "electric_scooter", "lon": -77.06120133333333, "bike_id": "8cbbdeef4e283e7e3a9c733226c87f9a", "rental_uris": {"android": "https://dc.lft.to/lastmile_qr_scan", "ios": "https://dc.lft.to/lastmile_qr_scan"}, "name": "8cbbdeef4e283e7e3a9c733226c87f9a", "is_reserved": 0}, {"is_disabled": 0, "fusion_lon": 0.0, "fusion_lat": 0.0, "lat": 38.965601666666664, "type": "electric_bike", "lon": -77.02301433333334, "bike_id": "8ad2b7262d6cf17ae9c7060acc8aeeca", "rental_uris": {"android": "https://dc.lft.to/lastmile_qr_scan", "ios": "https://dc.lft.to/lastmile_qr_scan"}, "name": "8ad2b7262d6cf17ae9c7060acc8aeeca", "is_reserved": 0}, {"is_disabled": 0, "fusion_lon": 0.0, "fusion_lat": 0.0, "lat": 38.92363683333333, "type": "electric_scooter", "lon": -77.05033566666667, "bike_id": "4da9481617af558791682795b4acacc1", "rental_uris": {"android": "https://dc.lft.to/lastmile_qr_scan", "ios": "https://dc.lft.to/lastmile_qr_scan"}, "name": "4da9481617af558791682795b4acacc1", "is_reserved": 0}, {"is_disabled": 0, "fusion_lon": 0.0, "fusion_lat": 0.0, "lat": 38.90325966666666, "type": "electric_scooter", "lon": -77.02879883333334, "bike_id": "7b9aaa07956126360839ef7e989c7f55", "rental_uris": {"android": "https://dc.lft.to/lastmile_qr_scan", "ios": "https://dc.lft.to/lastmile_qr_scan"}, "name": "7b9aaa07956126360839ef7e989c7f55", "is_reserved": 0}, {"is_disabled": 0, "fusion_lon": 0.0, "fusion_lat": 0.0, "lat": 38.8940345, "type": "electric_scooter", "lon": -77.02151166666667, "bike_id": "d8f1eded591a81336acbfeb92703f144", "rental_uris": {"android": "https://dc.lft.to/lastmile_qr_scan", "ios": "https://dc.lft.to/lastmile_qr_scan"}, "name": "d8f1eded591a81336acbfeb92703f144", "is_reserved": 0}, {"is_disabled": 0, "fusion_lon": 0.0, "fusion_lat": 0.0, "lat": 38.9074585, "type": "electric_scooter", "lon": -77.00295216666666, "bike_id": "9af42a45f976485430dc6b2db9392a27", "rental_uris": {"android": "https://dc.lft.to/lastmile_qr_scan", "ios": "https://dc.lft.to/lastmile_qr_scan"}, "name": "9af42a45f976485430dc6b2db9392a27", "is_reserved": 0}, {"is_disabled": 0, "fusion_lon": 0.0, "fusion_lat": 0.0, "lat": 38.901612166666666, "type": "electric_scooter", "lon": -77.05906866666666, "bike_id": "cc766fe4000afeac2ef19f77884bb128", "rental_uris": {"android": "https://dc.lft.to/lastmile_qr_scan", "ios": "https://dc.lft.to/lastmile_qr_scan"}, "name": "cc766fe4000afeac2ef19f77884bb128", "is_reserved": 0}, {"is_disabled": 0, "fusion_lon": 0.0, "fusion_lat": 0.0, "lat": 38.918963833333336, "type": "electric_scooter", "lon": -77.04469016666667, "bike_id": "0a7734f3c1677da0f64f3ebfc444b4d9", "rental_uris": {"android": "https://dc.lft.to/lastmile_qr_scan", "ios": "https://dc.lft.to/lastmile_qr_scan"}, "name": "0a7734f3c1677da0f64f3ebfc444b4d9", "is_reserved": 0}, {"is_disabled": 0, "fusion_lon": 0.0, "fusion_lat": 0.0, "lat": 38.923055166666664, "type": "electric_scooter", "lon": -77.03104166666667, "bike_id": "ed8d1a4fe1f2028313f7274966eeff8c", "rental_uris": {"android": "https://dc.lft.to/lastmile_qr_scan", "ios": "https://dc.lft.to/lastmile_qr_scan"}, "name": "ed8d1a4fe1f2028313f7274966eeff8c", "is_reserved": 0}, {"is_disabled": 0, "fusion_lon": 0.0, "fusion_lat": 0.0, "lat": 38.923727666666665, "type": "electric_scooter", "lon": -77.030534, "bike_id": "7f40cf23786a2909fa33472de120cc84", "rental_uris": {"android": "https://dc.lft.to/lastmile_qr_scan", "ios": "https://dc.lft.to/lastmile_qr_scan"}, "name": "7f40cf23786a2909fa33472de120cc84", "is_reserved": 0}, {"is_disabled": 0, "fusion_lon": 0.0, "fusion_lat": 0.0, "lat": 38.903588166666665, "type": "electric_scooter", "lon": -77.025282, "bike_id": "9a12271af69b23551788d347d39c783b", "rental_uris": {"android": "https://dc.lft.to/lastmile_qr_scan", "ios": "https://dc.lft.to/lastmile_qr_scan"}, "name": "9a12271af69b23551788d347d39c783b", "is_reserved": 0}, {"is_disabled": 0, "fusion_lon": 0.0, "fusion_lat": 0.0, "lat": 38.918011666666665, "type": "electric_scooter", "lon": -77.03441016666666, "bike_id": "10b789af0682794cb76c794ec6d2ff16", "rental_uris": {"android": "https://dc.lft.to/lastmile_qr_scan", "ios": "https://dc.lft.to/lastmile_qr_scan"}, "name": "10b789af0682794cb76c794ec6d2ff16", "is_reserved": 0}, {"is_disabled": 0, "fusion_lon": 0.0, "fusion_lat": 0.0, "lat": 38.922364, "type": "electric_scooter", "lon": -77.0334945, "bike_id": "f4ed1a566029b6261647f97f4e8349e9", "rental_uris": {"android": "https://dc.lft.to/lastmile_qr_scan", "ios": "https://dc.lft.to/lastmile_qr_scan"}, "name": "f4ed1a566029b6261647f97f4e8349e9", "is_reserved": 0}, {"is_disabled": 0, "fusion_lon": 0.0, "fusion_lat": 0.0, "lat": 38.989892166666664, "type": "electric_scooter", "lon": -77.03362116666666, "bike_id": "6011d853456bf9f34359a2081ad0d8ce", "rental_uris": {"android": "https://dc.lft.to/lastmile_qr_scan", "ios": "https://dc.lft.to/lastmile_qr_scan"}, "name": "6011d853456bf9f34359a2081ad0d8ce", "is_reserved": 0}, {"is_disabled": 0, "fusion_lon": 0.0, "fusion_lat": 0.0, "lat": 38.8847595, "type": "electric_scooter", "lon": -77.02367883333334, "bike_id": "808b3171d667265a5a99e26522d90744", "rental_uris": {"android": "https://dc.lft.to/lastmile_qr_scan", "ios": "https://dc.lft.to/lastmile_qr_scan"}, "name": "808b3171d667265a5a99e26522d90744", "is_reserved": 0}, {"is_disabled": 0, "fusion_lon": 0.0, "fusion_lat": 0.0, "lat": 38.9132625, "type": "electric_scooter", "lon": -77.03187183333333, "bike_id": "ed1af8eb1e698c95c3ccc3f875253dca", "rental_uris": {"android": "https://dc.lft.to/lastmile_qr_scan", "ios": "https://dc.lft.to/lastmile_qr_scan"}, "name": "ed1af8eb1e698c95c3ccc3f875253dca", "is_reserved": 0}, {"is_disabled": 0, "fusion_lon": 0.0, "fusion_lat": 0.0, "lat": 38.912682, "type": "electric_scooter", "lon": -77.033652, "bike_id": "1a103ab877689fe231b85c4476cea0eb", "rental_uris": {"android": "https://dc.lft.to/lastmile_qr_scan", "ios": "https://dc.lft.to/lastmile_qr_scan"}, "name": "1a103ab877689fe231b85c4476cea0eb", "is_reserved": 0}, {"is_disabled": 0, "fusion_lon": 0.0, "fusion_lat": 0.0, "lat": 38.92563066666666, "type": "electric_scooter", "lon": -77.03765433333334, "bike_id": "4fb6c23ac07b5b00990d878fbfb08ef6", "rental_uris": {"android": "https://dc.lft.to/lastmile_qr_scan", "ios": "https://dc.lft.to/lastmile_qr_scan"}, "name": "4fb6c23ac07b5b00990d878fbfb08ef6", "is_reserved": 0}, {"is_disabled": 0, "fusion_lon": 0.0, "fusion_lat": 0.0, "lat": 38.913051833333334, "type": "electric_scooter", "lon": -77.00845316666667, "bike_id": "b9f8cbad5d542579b16ec60fbcb361d3", "rental_uris": {"android": "https://dc.lft.to/lastmile_qr_scan", "ios": "https://dc.lft.to/lastmile_qr_scan"}, "name": "b9f8cbad5d542579b16ec60fbcb361d3", "is_reserved": 0}, {"is_disabled": 0, "fusion_lon": 0.0, "fusion_lat": 0.0, "lat": 38.946029333333335, "type": "electric_scooter", "lon": -77.02978116666667, "bike_id": "7d2b83b47a1407e5f047c3c7d7021587", "rental_uris": {"android": "https://dc.lft.to/lastmile_qr_scan", "ios": "https://dc.lft.to/lastmile_qr_scan"}, "name": "7d2b83b47a1407e5f047c3c7d7021587", "is_reserved": 0}, {"is_disabled": 0, "fusion_lon": 0.0, "fusion_lat": 0.0, "lat": 38.92909616666667, "type": "electric_scooter", "lon": -77.03179566666667, "bike_id": "ea6cd709256f2f4948b3f3197b98f282", "rental_uris": {"android": "https://dc.lft.to/lastmile_qr_scan", "ios": "https://dc.lft.to/lastmile_qr_scan"}, "name": "ea6cd709256f2f4948b3f3197b98f282", "is_reserved": 0}, {"is_disabled": 0, "fusion_lon": 0.0, "fusion_lat": 0.0, "lat": 38.94542916666666, "type": "electric_scooter", "lon": -77.0253225, "bike_id": "04e401d98b6ea4bc21762b6968af6d99", "rental_uris": {"android": "https://dc.lft.to/lastmile_qr_scan", "ios": "https://dc.lft.to/lastmile_qr_scan"}, "name": "04e401d98b6ea4bc21762b6968af6d99", "is_reserved": 0}, {"is_disabled": 0, "fusion_lon": 0.0, "fusion_lat": 0.0, "lat": 38.9159985, "type": "electric_scooter", "lon": -77.02279716666666, "bike_id": "adc5bfcad7ab9ab00f72b2e8157790b6", "rental_uris": {"android": "https://dc.lft.to/lastmile_qr_scan", "ios": "https://dc.lft.to/lastmile_qr_scan"}, "name": "adc5bfcad7ab9ab00f72b2e8157790b6", "is_reserved": 0}, {"is_disabled": 0, "fusion_lon": 0.0, "fusion_lat": 0.0, "lat": 38.934594, "type": "electric_scooter", "lon": -77.03062966666667, "bike_id": "27c7baefa812bc0b9c213a7054d5c19e", "rental_uris": {"android": "https://dc.lft.to/lastmile_qr_scan", "ios": "https://dc.lft.to/lastmile_qr_scan"}, "name": "27c7baefa812bc0b9c213a7054d5c19e", "is_reserved": 0}, {"is_disabled": 0, "fusion_lon": 0.0, "fusion_lat": 0.0, "lat": 38.91260916666667, "type": "electric_scooter", "lon": -77.03892833333333, "bike_id": "ec6be38f16a1bae726e4f894824ad613", "rental_uris": {"android": "https://dc.lft.to/lastmile_qr_scan", "ios": "https://dc.lft.to/lastmile_qr_scan"}, "name": "ec6be38f16a1bae726e4f894824ad613", "is_reserved": 0}, {"is_disabled": 0, "fusion_lon": 0.0, "fusion_lat": 0.0, "lat": 38.86699016666667, "type": "electric_scooter", "lon": -76.98709716666667, "bike_id": "b0a67fc1bb6484a2e6fee6956a1abddb", "rental_uris": {"android": "https://dc.lft.to/lastmile_qr_scan", "ios": "https://dc.lft.to/lastmile_qr_scan"}, "name": "b0a67fc1bb6484a2e6fee6956a1abddb", "is_reserved": 0}, {"is_disabled": 0, "fusion_lon": 0.0, "fusion_lat": 0.0, "lat": 38.95269016666666, "type": "electric_scooter", "lon": -77.06891916666666, "bike_id": "a320b315c3703a14039f0d803e3c3253", "rental_uris": {"android": "https://dc.lft.to/lastmile_qr_scan", "ios": "https://dc.lft.to/lastmile_qr_scan"}, "name": "a320b315c3703a14039f0d803e3c3253", "is_reserved": 0}, {"is_disabled": 0, "fusion_lon": 0.0, "fusion_lat": 0.0, "lat": 38.894722, "type": "electric_scooter", "lon": -77.0219535, "bike_id": "0dd217f7a4e04ba11d5fa5641169c840", "rental_uris": {"android": "https://dc.lft.to/lastmile_qr_scan", "ios": "https://dc.lft.to/lastmile_qr_scan"}, "name": "0dd217f7a4e04ba11d5fa5641169c840", "is_reserved": 0}, {"is_disabled": 0, "fusion_lon": 0.0, "fusion_lat": 0.0, "lat": 38.89783716666667, "type": "electric_scooter", "lon": -77.02486183333333, "bike_id": "8de5dd5176e4eb20f868b1400df85e75", "rental_uris": {"android": "https://dc.lft.to/lastmile_qr_scan", "ios": "https://dc.lft.to/lastmile_qr_scan"}, "name": "8de5dd5176e4eb20f868b1400df85e75", "is_reserved": 0}, {"is_disabled": 0, "fusion_lon": 0.0, "fusion_lat": 0.0, "lat": 38.90534316666667, "type": "electric_scooter", "lon": -77.04355166666667, "bike_id": "d96238884d1295608c09944fdb1ee7c7", "rental_uris": {"android": "https://dc.lft.to/lastmile_qr_scan", "ios": "https://dc.lft.to/lastmile_qr_scan"}, "name": "d96238884d1295608c09944fdb1ee7c7", "is_reserved": 0}, {"is_disabled": 0, "fusion_lon": 0.0, "fusion_lat": 0.0, "lat": 38.8923215, "type": "electric_scooter", "lon": -77.0499885, "bike_id": "e694d1da6e566b7ca652e3a26b7e1592", "rental_uris": {"android": "https://dc.lft.to/lastmile_qr_scan", "ios": "https://dc.lft.to/lastmile_qr_scan"}, "name": "e694d1da6e566b7ca652e3a26b7e1592", "is_reserved": 0}, {"is_disabled": 0, "fusion_lon": 0.0, "fusion_lat": 0.0, "lat": 38.925348166666666, "type": "electric_scooter", "lon": -77.07323683333334, "bike_id": "b55c5df8c5c44d5241b1ef37e499b854", "rental_uris": {"android": "https://dc.lft.to/lastmile_qr_scan", "ios": "https://dc.lft.to/lastmile_qr_scan"}, "name": "b55c5df8c5c44d5241b1ef37e499b854", "is_reserved": 0}, {"is_disabled": 0, "fusion_lon": 0.0, "fusion_lat": 0.0, "lat": 38.868494166666665, "type": "electric_bike", "lon": -77.097229, "bike_id": "a002ee5723608db630ba233f031fffd2", "rental_uris": {"android": "https://dc.lft.to/lastmile_qr_scan", "ios": "https://dc.lft.to/lastmile_qr_scan"}, "name": "a002ee5723608db630ba233f031fffd2", "is_reserved": 0}, {"is_disabled": 0, "fusion_lon": 0.0, "fusion_lat": 0.0, "lat": 38.911757333333334, "type": "electric_scooter", "lon": -77.00457916666667, "bike_id": "102092fef36efa1a078a3c237d7fb772", "rental_uris": {"android": "https://dc.lft.to/lastmile_qr_scan", "ios": "https://dc.lft.to/lastmile_qr_scan"}, "name": "102092fef36efa1a078a3c237d7fb772", "is_reserved": 0}, {"is_disabled": 0, "fusion_lon": 0.0, "fusion_lat": 0.0, "lat": 38.9176585, "type": "electric_scooter", "lon": -77.01470683333334, "bike_id": "882d580c5b16f018a1cd7c325b433451", "rental_uris": {"android": "https://dc.lft.to/lastmile_qr_scan", "ios": "https://dc.lft.to/lastmile_qr_scan"}, "name": "882d580c5b16f018a1cd7c325b433451", "is_reserved": 0}, {"is_disabled": 0, "fusion_lon": 0.0, "fusion_lat": 0.0, "lat": 38.912684166666665, "type": "electric_scooter", "lon": -77.03713183333333, "bike_id": "3af0e366a445edab3b376d575c6a0eaa", "rental_uris": {"android": "https://dc.lft.to/lastmile_qr_scan", "ios": "https://dc.lft.to/lastmile_qr_scan"}, "name": "3af0e366a445edab3b376d575c6a0eaa", "is_reserved": 0}, {"is_disabled": 0, "fusion_lon": 0.0, "fusion_lat": 0.0, "lat": 38.91553066666667, "type": "electric_scooter", "lon": -77.02044333333333, "bike_id": "6bfd31b703f6188473cc06ee72c31f41", "rental_uris": {"android": "https://dc.lft.to/lastmile_qr_scan", "ios": "https://dc.lft.to/lastmile_qr_scan"}, "name": "6bfd31b703f6188473cc06ee72c31f41", "is_reserved": 0}, {"is_disabled": 0, "fusion_lon": 0.0, "fusion_lat": 0.0, "lat": 38.89860783333334, "type": "electric_scooter", "lon": -77.022986, "bike_id": "96013617aa258dbaf88a0538660a378d", "rental_uris": {"android": "https://dc.lft.to/lastmile_qr_scan", "ios": "https://dc.lft.to/lastmile_qr_scan"}, "name": "96013617aa258dbaf88a0538660a378d", "is_reserved": 0}, {"is_disabled": 0, "fusion_lon": 0.0, "fusion_lat": 0.0, "lat": 38.903699333333336, "type": "electric_scooter", "lon": -77.03781816666667, "bike_id": "4294e83c3ebd42b5def658a18f03ee64", "rental_uris": {"android": "https://dc.lft.to/lastmile_qr_scan", "ios": "https://dc.lft.to/lastmile_qr_scan"}, "name": "4294e83c3ebd42b5def658a18f03ee64", "is_reserved": 0}, {"is_disabled": 0, "fusion_lon": 0.0, "fusion_lat": 0.0, "lat": 38.887356833333335, "type": "electric_scooter", "lon": -77.003346, "bike_id": "09465d3e1b77869c916f0fceaa906750", "rental_uris": {"android": "https://dc.lft.to/lastmile_qr_scan", "ios": "https://dc.lft.to/lastmile_qr_scan"}, "name": "09465d3e1b77869c916f0fceaa906750", "is_reserved": 0}, {"is_disabled": 0, "fusion_lon": 0.0, "fusion_lat": 0.0, "lat": 38.918660333333335, "type": "electric_bike", "lon": -76.96086766666667, "bike_id": "4d751894f14fe9de07fe4d326d1f825b", "rental_uris": {"android": "https://dc.lft.to/lastmile_qr_scan", "ios": "https://dc.lft.to/lastmile_qr_scan"}, "name": "4d751894f14fe9de07fe4d326d1f825b", "is_reserved": 0}, {"is_disabled": 0, "fusion_lon": 0.0, "fusion_lat": 0.0, "lat": 38.91412233333333, "type": "electric_scooter", "lon": -77.02563066666667, "bike_id": "4cc0f7d6a2b61a9c4ab8c5e04d3d0f65", "rental_uris": {"android": "https://dc.lft.to/lastmile_qr_scan", "ios": "https://dc.lft.to/lastmile_qr_scan"}, "name": "4cc0f7d6a2b61a9c4ab8c5e04d3d0f65", "is_reserved": 0}, {"is_disabled": 0, "fusion_lon": 0.0, "fusion_lat": 0.0, "lat": 38.9166195, "type": "electric_scooter", "lon": -77.03860616666667, "bike_id": "5e5f487f73254398c63aaf70e1874422", "rental_uris": {"android": "https://dc.lft.to/lastmile_qr_scan", "ios": "https://dc.lft.to/lastmile_qr_scan"}, "name": "5e5f487f73254398c63aaf70e1874422", "is_reserved": 0}, {"is_disabled": 0, "fusion_lon": 0.0, "fusion_lat": 0.0, "lat": 38.916002, "type": "electric_scooter", "lon": -77.02340883333333, "bike_id": "0b9f493d1ee07c5859c7c0e55b6cdfca", "rental_uris": {"android": "https://dc.lft.to/lastmile_qr_scan", "ios": "https://dc.lft.to/lastmile_qr_scan"}, "name": "0b9f493d1ee07c5859c7c0e55b6cdfca", "is_reserved": 0}, {"is_disabled": 0, "fusion_lon": 0.0, "fusion_lat": 0.0, "lat": 38.8586915, "type": "electric_scooter", "lon": -76.99023783333334, "bike_id": "6fb95dfcc601bed8ac6a97495e51cab8", "rental_uris": {"android": "https://dc.lft.to/lastmile_qr_scan", "ios": "https://dc.lft.to/lastmile_qr_scan"}, "name": "6fb95dfcc601bed8ac6a97495e51cab8", "is_reserved": 0}, {"is_disabled": 0, "fusion_lon": 0.0, "fusion_lat": 0.0, "lat": 38.9366605, "type": "electric_scooter", "lon": -77.03256866666666, "bike_id": "6fb4a60f6f6c639ed57c7881307b89ec", "rental_uris": {"android": "https://dc.lft.to/lastmile_qr_scan", "ios": "https://dc.lft.to/lastmile_qr_scan"}, "name": "6fb4a60f6f6c639ed57c7881307b89ec", "is_reserved": 0}, {"is_disabled": 0, "fusion_lon": 0.0, "fusion_lat": 0.0, "lat": 38.92972983333333, "type": "electric_scooter", "lon": -77.04147116666667, "bike_id": "61b2b7ab9659bfc78e2ba2350b0660e6", "rental_uris": {"android": "https://dc.lft.to/lastmile_qr_scan", "ios": "https://dc.lft.to/lastmile_qr_scan"}, "name": "61b2b7ab9659bfc78e2ba2350b0660e6", "is_reserved": 0}, {"is_disabled": 0, "fusion_lon": 0.0, "fusion_lat": 0.0, "lat": 38.94982733333333, "type": "electric_scooter", "lon": -77.02702633333334, "bike_id": "29976c7ae689d0871eb47cd4fd790790", "rental_uris": {"android": "https://dc.lft.to/lastmile_qr_scan", "ios": "https://dc.lft.to/lastmile_qr_scan"}, "name": "29976c7ae689d0871eb47cd4fd790790", "is_reserved": 0}, {"is_disabled": 0, "fusion_lon": 0.0, "fusion_lat": 0.0, "lat": 38.9163975, "type": "electric_scooter", "lon": -77.0228165, "bike_id": "413a763abf5233b2fff7a3246824c9bc", "rental_uris": {"android": "https://dc.lft.to/lastmile_qr_scan", "ios": "https://dc.lft.to/lastmile_qr_scan"}, "name": "413a763abf5233b2fff7a3246824c9bc", "is_reserved": 0}, {"is_disabled": 0, "fusion_lon": 0.0, "fusion_lat": 0.0, "lat": 38.90022583333333, "type": "electric_scooter", "lon": -77.02679716666667, "bike_id": "c0176aafb7b31f5f42821826a9b12021", "rental_uris": {"android": "https://dc.lft.to/lastmile_qr_scan", "ios": "https://dc.lft.to/lastmile_qr_scan"}, "name": "c0176aafb7b31f5f42821826a9b12021", "is_reserved": 0}, {"is_disabled": 0, "fusion_lon": 0.0, "fusion_lat": 0.0, "lat": 38.9238235, "type": "electric_scooter", "lon": -77.028853, "bike_id": "5ec0052c69db478197dd6241cc41823d", "rental_uris": {"android": "https://dc.lft.to/lastmile_qr_scan", "ios": "https://dc.lft.to/lastmile_qr_scan"}, "name": "5ec0052c69db478197dd6241cc41823d", "is_reserved": 0}, {"is_disabled": 0, "fusion_lon": 0.0, "fusion_lat": 0.0, "lat": 38.902115, "type": "electric_scooter", "lon": -76.9821295, "bike_id": "ccf781f7d6ac24e4b140352df83519c4", "rental_uris": {"android": "https://dc.lft.to/lastmile_qr_scan", "ios": "https://dc.lft.to/lastmile_qr_scan"}, "name": "ccf781f7d6ac24e4b140352df83519c4", "is_reserved": 0}, {"is_disabled": 0, "fusion_lon": 0.0, "fusion_lat": 0.0, "lat": 38.911195166666666, "type": "electric_scooter", "lon": -77.0361375, "bike_id": "65e24c83da11b9b6fa541fdba6ce7c01", "rental_uris": {"android": "https://dc.lft.to/lastmile_qr_scan", "ios": "https://dc.lft.to/lastmile_qr_scan"}, "name": "65e24c83da11b9b6fa541fdba6ce7c01", "is_reserved": 0}, {"is_disabled": 0, "fusion_lon": 0.0, "fusion_lat": 0.0, "lat": 38.880452166666664, "type": "electric_bike", "lon": -76.99014283333334, "bike_id": "11019904f004ea830bd3257ab4191931", "rental_uris": {"android": "https://dc.lft.to/lastmile_qr_scan", "ios": "https://dc.lft.to/lastmile_qr_scan"}, "name": "11019904f004ea830bd3257ab4191931", "is_reserved": 0}, {"is_disabled": 0, "fusion_lon": 0.0, "fusion_lat": 0.0, "lat": 38.90034133333333, "type": "electric_scooter", "lon": -76.9993835, "bike_id": "5b090eec248a36469220f9bef2885837", "rental_uris": {"android": "https://dc.lft.to/lastmile_qr_scan", "ios": "https://dc.lft.to/lastmile_qr_scan"}, "name": "5b090eec248a36469220f9bef2885837", "is_reserved": 0}, {"is_disabled": 0, "fusion_lon": 0.0, "fusion_lat": 0.0, "lat": 38.84299266666667, "type": "electric_bike", "lon": -77.07641216666667, "bike_id": "c84648385224b16f7fd2fa4df73a837f", "rental_uris": {"android": "https://dc.lft.to/lastmile_qr_scan", "ios": "https://dc.lft.to/lastmile_qr_scan"}, "name": "c84648385224b16f7fd2fa4df73a837f", "is_reserved": 0}, {"is_disabled": 0, "fusion_lon": 0.0, "fusion_lat": 0.0, "lat": 38.8983135, "type": "electric_scooter", "lon": -77.0334665, "bike_id": "a424a64141ccc7b4aeaba0812d088831", "rental_uris": {"android": "https://dc.lft.to/lastmile_qr_scan", "ios": "https://dc.lft.to/lastmile_qr_scan"}, "name": "a424a64141ccc7b4aeaba0812d088831", "is_reserved": 0}, {"is_disabled": 0, "fusion_lon": 0.0, "fusion_lat": 0.0, "lat": 38.924203166666665, "type": "electric_scooter", "lon": -77.05061983333333, "bike_id": "f4baabd850a0928f84de379b6c376557", "rental_uris": {"android": "https://dc.lft.to/lastmile_qr_scan", "ios": "https://dc.lft.to/lastmile_qr_scan"}, "name": "f4baabd850a0928f84de379b6c376557", "is_reserved": 0}, {"is_disabled": 0, "fusion_lon": 0.0, "fusion_lat": 0.0, "lat": 38.86624783333333, "type": "electric_scooter", "lon": -76.9871235, "bike_id": "0f6d6b146333a6b00b3caea10ec5e392", "rental_uris": {"android": "https://dc.lft.to/lastmile_qr_scan", "ios": "https://dc.lft.to/lastmile_qr_scan"}, "name": "0f6d6b146333a6b00b3caea10ec5e392", "is_reserved": 0}, {"is_disabled": 0, "fusion_lon": 0.0, "fusion_lat": 0.0, "lat": 38.8974465, "type": "electric_scooter", "lon": -77.0467825, "bike_id": "deedcdec181d3e67bf84d2b5ae9a6c5f", "rental_uris": {"android": "https://dc.lft.to/lastmile_qr_scan", "ios": "https://dc.lft.to/lastmile_qr_scan"}, "name": "deedcdec181d3e67bf84d2b5ae9a6c5f", "is_reserved": 0}, {"is_disabled": 0, "fusion_lon": 0.0, "fusion_lat": 0.0, "lat": 38.876911, "type": "electric_scooter", "lon": -77.01603016666667, "bike_id": "7d0fdce626d08bfed5c7e372db2bc4e2", "rental_uris": {"android": "https://dc.lft.to/lastmile_qr_scan", "ios": "https://dc.lft.to/lastmile_qr_scan"}, "name": "7d0fdce626d08bfed5c7e372db2bc4e2", "is_reserved": 0}, {"is_disabled": 0, "fusion_lon": 0.0, "fusion_lat": 0.0, "lat": 38.802989333333336, "type": "electric_bike", "lon": -77.03983083333334, "bike_id": "55db315a090f7ce3855cafc8e2e64f35", "rental_uris": {"android": "https://dc.lft.to/lastmile_qr_scan", "ios": "https://dc.lft.to/lastmile_qr_scan"}, "name": "55db315a090f7ce3855cafc8e2e64f35", "is_reserved": 0}, {"is_disabled": 0, "fusion_lon": 0.0, "fusion_lat": 0.0, "lat": 38.927126666666666, "type": "electric_scooter", "lon": -77.04045166666667, "bike_id": "ec22bebfca23078cd5962386034714d1", "rental_uris": {"android": "https://dc.lft.to/lastmile_qr_scan", "ios": "https://dc.lft.to/lastmile_qr_scan"}, "name": "ec22bebfca23078cd5962386034714d1", "is_reserved": 0}, {"is_disabled": 0, "fusion_lon": 0.0, "fusion_lat": 0.0, "lat": 38.90018116666667, "type": "electric_scooter", "lon": -77.0079135, "bike_id": "05f4719743babe9c61c1f9d4a556aba8", "rental_uris": {"android": "https://dc.lft.to/lastmile_qr_scan", "ios": "https://dc.lft.to/lastmile_qr_scan"}, "name": "05f4719743babe9c61c1f9d4a556aba8", "is_reserved": 0}, {"is_disabled": 0, "fusion_lon": 0.0, "fusion_lat": 0.0, "lat": 38.887417666666664, "type": "electric_scooter", "lon": -77.0153415, "bike_id": "4767d70388725a55467c6941d5fd3ea9", "rental_uris": {"android": "https://dc.lft.to/lastmile_qr_scan", "ios": "https://dc.lft.to/lastmile_qr_scan"}, "name": "4767d70388725a55467c6941d5fd3ea9", "is_reserved": 0}, {"is_disabled": 0, "fusion_lon": 0.0, "fusion_lat": 0.0, "lat": 38.91952283333333, "type": "electric_scooter", "lon": -77.013922, "bike_id": "c94d71c8f39974a6743ed97ec807f12c", "rental_uris": {"android": "https://dc.lft.to/lastmile_qr_scan", "ios": "https://dc.lft.to/lastmile_qr_scan"}, "name": "c94d71c8f39974a6743ed97ec807f12c", "is_reserved": 0}, {"is_disabled": 0, "fusion_lon": 0.0, "fusion_lat": 0.0, "lat": 38.92093766666667, "type": "electric_scooter", "lon": -77.02518866666666, "bike_id": "d4b7bc4787861ae8c56a0a6a9c642d97", "rental_uris": {"android": "https://dc.lft.to/lastmile_qr_scan", "ios": "https://dc.lft.to/lastmile_qr_scan"}, "name": "d4b7bc4787861ae8c56a0a6a9c642d97", "is_reserved": 0}, {"is_disabled": 0, "fusion_lon": 0.0, "fusion_lat": 0.0, "lat": 38.90519583333333, "type": "electric_scooter", "lon": -77.05117233333333, "bike_id": "a1387f2d97dcda689d757afdcae6d9ee", "rental_uris": {"android": "https://dc.lft.to/lastmile_qr_scan", "ios": "https://dc.lft.to/lastmile_qr_scan"}, "name": "a1387f2d97dcda689d757afdcae6d9ee", "is_reserved": 0}, {"is_disabled": 0, "fusion_lon": 0.0, "fusion_lat": 0.0, "lat": 38.90670033333333, "type": "electric_scooter", "lon": -77.023813, "bike_id": "143b3e056556f82fff87dcd4e70b6852", "rental_uris": {"android": "https://dc.lft.to/lastmile_qr_scan", "ios": "https://dc.lft.to/lastmile_qr_scan"}, "name": "143b3e056556f82fff87dcd4e70b6852", "is_reserved": 0}, {"is_disabled": 0, "fusion_lon": 0.0, "fusion_lat": 0.0, "lat": 38.905704666666665, "type": "electric_scooter", "lon": -77.03827966666667, "bike_id": "cdbdec55528a6ea1754a326f35f93f5f", "rental_uris": {"android": "https://dc.lft.to/lastmile_qr_scan", "ios": "https://dc.lft.to/lastmile_qr_scan"}, "name": "cdbdec55528a6ea1754a326f35f93f5f", "is_reserved": 0}, {"is_disabled": 0, "fusion_lon": 0.0, "fusion_lat": 0.0, "lat": 38.92227666666667, "type": "electric_scooter", "lon": -77.033133, "bike_id": "755061fa4eb6dba46135d5362d852a2d", "rental_uris": {"android": "https://dc.lft.to/lastmile_qr_scan", "ios": "https://dc.lft.to/lastmile_qr_scan"}, "name": "755061fa4eb6dba46135d5362d852a2d", "is_reserved": 0}, {"is_disabled": 0, "fusion_lon": 0.0, "fusion_lat": 0.0, "lat": 38.87873866666666, "type": "electric_scooter", "lon": -77.0232205, "bike_id": "3a10af14c46b531235aaa3acafe00f45", "rental_uris": {"android": "https://dc.lft.to/lastmile_qr_scan", "ios": "https://dc.lft.to/lastmile_qr_scan"}, "name": "3a10af14c46b531235aaa3acafe00f45", "is_reserved": 0}, {"is_disabled": 0, "fusion_lon": 0.0, "fusion_lat": 0.0, "lat": 38.906923, "type": "electric_scooter", "lon": -77.0371275, "bike_id": "dbb506fdf62913041264b09bae00bd8a", "rental_uris": {"android": "https://dc.lft.to/lastmile_qr_scan", "ios": "https://dc.lft.to/lastmile_qr_scan"}, "name": "dbb506fdf62913041264b09bae00bd8a", "is_reserved": 0}, {"is_disabled": 0, "fusion_lon": 0.0, "fusion_lat": 0.0, "lat": 38.916347, "type": "electric_scooter", "lon": -77.03842283333333, "bike_id": "2a4f70d6f3b1a064f7f4d3d792f79f75", "rental_uris": {"android": "https://dc.lft.to/lastmile_qr_scan", "ios": "https://dc.lft.to/lastmile_qr_scan"}, "name": "2a4f70d6f3b1a064f7f4d3d792f79f75", "is_reserved": 0}, {"is_disabled": 0, "fusion_lon": 0.0, "fusion_lat": 0.0, "lat": 38.8837435, "type": "electric_scooter", "lon": -76.92372466666667, "bike_id": "86b4fad50cfdefd4f0df78f068e73dba", "rental_uris": {"android": "https://dc.lft.to/lastmile_qr_scan", "ios": "https://dc.lft.to/lastmile_qr_scan"}, "name": "86b4fad50cfdefd4f0df78f068e73dba", "is_reserved": 0}, {"is_disabled": 0, "fusion_lon": 0.0, "fusion_lat": 0.0, "lat": 38.93095483333333, "type": "electric_scooter", "lon": -77.03426983333334, "bike_id": "b7400d5787852fe06136145386861a50", "rental_uris": {"android": "https://dc.lft.to/lastmile_qr_scan", "ios": "https://dc.lft.to/lastmile_qr_scan"}, "name": "b7400d5787852fe06136145386861a50", "is_reserved": 0}, {"is_disabled": 0, "fusion_lon": 0.0, "fusion_lat": 0.0, "lat": 38.91039166666667, "type": "electric_scooter", "lon": -77.046564, "bike_id": "a53cff8cb3cb2813f3f0aa1dc7faa008", "rental_uris": {"android": "https://dc.lft.to/lastmile_qr_scan", "ios": "https://dc.lft.to/lastmile_qr_scan"}, "name": "a53cff8cb3cb2813f3f0aa1dc7faa008", "is_reserved": 0}, {"is_disabled": 0, "fusion_lon": 0.0, "fusion_lat": 0.0, "lat": 38.908666833333335, "type": "electric_scooter", "lon": -77.06397433333333, "bike_id": "3552db4605d7d05349f966afec536a79", "rental_uris": {"android": "https://dc.lft.to/lastmile_qr_scan", "ios": "https://dc.lft.to/lastmile_qr_scan"}, "name": "3552db4605d7d05349f966afec536a79", "is_reserved": 0}, {"is_disabled": 0, "fusion_lon": 0.0, "fusion_lat": 0.0, "lat": 38.9397805, "type": "electric_scooter", "lon": -77.030199, "bike_id": "07f4509f6d6f5fbc3c0b5efe1027ddda", "rental_uris": {"android": "https://dc.lft.to/lastmile_qr_scan", "ios": "https://dc.lft.to/lastmile_qr_scan"}, "name": "07f4509f6d6f5fbc3c0b5efe1027ddda", "is_reserved": 0}, {"is_disabled": 0, "fusion_lon": 0.0, "fusion_lat": 0.0, "lat": 38.911139166666665, "type": "electric_scooter", "lon": -77.03830383333333, "bike_id": "07ac1d2e2a459c2013cb07511bfbb4e3", "rental_uris": {"android": "https://dc.lft.to/lastmile_qr_scan", "ios": "https://dc.lft.to/lastmile_qr_scan"}, "name": "07ac1d2e2a459c2013cb07511bfbb4e3", "is_reserved": 0}, {"is_disabled": 0, "fusion_lon": 0.0, "fusion_lat": 0.0, "lat": 38.9198365, "type": "electric_scooter", "lon": -77.038778, "bike_id": "dc142e11e60cd22635d568f97351dc4c", "rental_uris": {"android": "https://dc.lft.to/lastmile_qr_scan", "ios": "https://dc.lft.to/lastmile_qr_scan"}, "name": "dc142e11e60cd22635d568f97351dc4c", "is_reserved": 0}, {"is_disabled": 0, "fusion_lon": 0.0, "fusion_lat": 0.0, "lat": 38.920629, "type": "electric_scooter", "lon": -77.0433525, "bike_id": "bad719b5244e69fa9d7003d033ecaa86", "rental_uris": {"android": "https://dc.lft.to/lastmile_qr_scan", "ios": "https://dc.lft.to/lastmile_qr_scan"}, "name": "bad719b5244e69fa9d7003d033ecaa86", "is_reserved": 0}, {"is_disabled": 0, "fusion_lon": 0.0, "fusion_lat": 0.0, "lat": 38.9290185, "type": "electric_scooter", "lon": -77.03257433333333, "bike_id": "a07a255c6c20530af393bc7b9bf1f590", "rental_uris": {"android": "https://dc.lft.to/lastmile_qr_scan", "ios": "https://dc.lft.to/lastmile_qr_scan"}, "name": "a07a255c6c20530af393bc7b9bf1f590", "is_reserved": 0}, {"is_disabled": 0, "fusion_lon": 0.0, "fusion_lat": 0.0, "lat": 38.900933, "type": "electric_scooter", "lon": -77.0315545, "bike_id": "13d4ff14864334a11b5c49061ba19861", "rental_uris": {"android": "https://dc.lft.to/lastmile_qr_scan", "ios": "https://dc.lft.to/lastmile_qr_scan"}, "name": "13d4ff14864334a11b5c49061ba19861", "is_reserved": 0}, {"is_disabled": 0, "fusion_lon": 0.0, "fusion_lat": 0.0, "lat": 38.916979833333336, "type": "electric_scooter", "lon": -77.00525116666667, "bike_id": "bbbfd613b23c959f4c58d18f0c2f9728", "rental_uris": {"android": "https://dc.lft.to/lastmile_qr_scan", "ios": "https://dc.lft.to/lastmile_qr_scan"}, "name": "bbbfd613b23c959f4c58d18f0c2f9728", "is_reserved": 0}, {"is_disabled": 0, "fusion_lon": 0.0, "fusion_lat": 0.0, "lat": 38.94560766666667, "type": "electric_bike", "lon": -77.05123866666666, "bike_id": "00a81fc1ec96a8c423f4e10e5d734d47", "rental_uris": {"android": "https://dc.lft.to/lastmile_qr_scan", "ios": "https://dc.lft.to/lastmile_qr_scan"}, "name": "00a81fc1ec96a8c423f4e10e5d734d47", "is_reserved": 0}, {"is_disabled": 0, "fusion_lon": 0.0, "fusion_lat": 0.0, "lat": 38.9160535, "type": "electric_scooter", "lon": -77.04024366666667, "bike_id": "07fac7a700e7ab3b423f2abf64d1f5df", "rental_uris": {"android": "https://dc.lft.to/lastmile_qr_scan", "ios": "https://dc.lft.to/lastmile_qr_scan"}, "name": "07fac7a700e7ab3b423f2abf64d1f5df", "is_reserved": 0}, {"is_disabled": 0, "fusion_lon": 0.0, "fusion_lat": 0.0, "lat": 38.87879483333333, "type": "electric_scooter", "lon": -77.023199, "bike_id": "cf413c9cab9fa0d099f0d689a0853a13", "rental_uris": {"android": "https://dc.lft.to/lastmile_qr_scan", "ios": "https://dc.lft.to/lastmile_qr_scan"}, "name": "cf413c9cab9fa0d099f0d689a0853a13", "is_reserved": 0}, {"is_disabled": 0, "fusion_lon": 0.0, "fusion_lat": 0.0, "lat": 38.8984885, "type": "electric_bike", "lon": -77.02980083333334, "bike_id": "0e5c4062428ed9546fc84084b1cce217", "rental_uris": {"android": "https://dc.lft.to/lastmile_qr_scan", "ios": "https://dc.lft.to/lastmile_qr_scan"}, "name": "0e5c4062428ed9546fc84084b1cce217", "is_reserved": 0}, {"is_disabled": 0, "fusion_lon": 0.0, "fusion_lat": 0.0, "lat": 38.852828333333335, "type": "electric_bike", "lon": -76.98154016666666, "bike_id": "f217ed74940d77f0560e15a6bfb21415", "rental_uris": {"android": "https://dc.lft.to/lastmile_qr_scan", "ios": "https://dc.lft.to/lastmile_qr_scan"}, "name": "f217ed74940d77f0560e15a6bfb21415", "is_reserved": 0}, {"is_disabled": 0, "fusion_lon": 0.0, "fusion_lat": 0.0, "lat": 38.90278166666667, "type": "electric_scooter", "lon": -77.034462, "bike_id": "f13349f0a1e911213732e7442525f5b4", "rental_uris": {"android": "https://dc.lft.to/lastmile_qr_scan", "ios": "https://dc.lft.to/lastmile_qr_scan"}, "name": "f13349f0a1e911213732e7442525f5b4", "is_reserved": 0}, {"is_disabled": 0, "fusion_lon": 0.0, "fusion_lat": 0.0, "lat": 38.93415016666667, "type": "electric_scooter", "lon": -77.03889416666667, "bike_id": "13107af2871957990dfe7bf6475c187e", "rental_uris": {"android": "https://dc.lft.to/lastmile_qr_scan", "ios": "https://dc.lft.to/lastmile_qr_scan"}, "name": "13107af2871957990dfe7bf6475c187e", "is_reserved": 0}, {"is_disabled": 0, "fusion_lon": 0.0, "fusion_lat": 0.0, "lat": 38.9047445, "type": "electric_bike", "lon": -76.9294795, "bike_id": "ea9c4a3a44cfbd545e282f6305914e20", "rental_uris": {"android": "https://dc.lft.to/lastmile_qr_scan", "ios": "https://dc.lft.to/lastmile_qr_scan"}, "name": "ea9c4a3a44cfbd545e282f6305914e20", "is_reserved": 0}, {"is_disabled": 0, "fusion_lon": 0.0, "fusion_lat": 0.0, "lat": 38.907772666666666, "type": "electric_scooter", "lon": -77.04669516666667, "bike_id": "7a37039eab4d3e24f6e6874facc429da", "rental_uris": {"android": "https://dc.lft.to/lastmile_qr_scan", "ios": "https://dc.lft.to/lastmile_qr_scan"}, "name": "7a37039eab4d3e24f6e6874facc429da", "is_reserved": 0}, {"is_disabled": 0, "fusion_lon": 0.0, "fusion_lat": 0.0, "lat": 38.9247445, "type": "electric_scooter", "lon": -77.044679, "bike_id": "53d91c9292a7d6bedd94f381c0382931", "rental_uris": {"android": "https://dc.lft.to/lastmile_qr_scan", "ios": "https://dc.lft.to/lastmile_qr_scan"}, "name": "53d91c9292a7d6bedd94f381c0382931", "is_reserved": 0}, {"is_disabled": 0, "fusion_lon": 0.0, "fusion_lat": 0.0, "lat": 38.928639, "type": "electric_scooter", "lon": -76.99769433333333, "bike_id": "eb1376e3e53ac6677429606685ab9734", "rental_uris": {"android": "https://dc.lft.to/lastmile_qr_scan", "ios": "https://dc.lft.to/lastmile_qr_scan"}, "name": "eb1376e3e53ac6677429606685ab9734", "is_reserved": 0}, {"is_disabled": 0, "fusion_lon": 0.0, "fusion_lat": 0.0, "lat": 38.91342933333333, "type": "electric_scooter", "lon": -77.041575, "bike_id": "5c5c2e1007429fe668f73891d3851415", "rental_uris": {"android": "https://dc.lft.to/lastmile_qr_scan", "ios": "https://dc.lft.to/lastmile_qr_scan"}, "name": "5c5c2e1007429fe668f73891d3851415", "is_reserved": 0}, {"is_disabled": 0, "fusion_lon": 0.0, "fusion_lat": 0.0, "lat": 38.9034, "type": "electric_scooter", "lon": -77.03420383333334, "bike_id": "51331d207304653b1aec7fb8247dc5de", "rental_uris": {"android": "https://dc.lft.to/lastmile_qr_scan", "ios": "https://dc.lft.to/lastmile_qr_scan"}, "name": "51331d207304653b1aec7fb8247dc5de", "is_reserved": 0}, {"is_disabled": 0, "fusion_lon": 0.0, "fusion_lat": 0.0, "lat": 38.8773625, "type": "electric_scooter", "lon": -76.99627033333333, "bike_id": "b74e8fa501d8d5976f1cfba49aea05c5", "rental_uris": {"android": "https://dc.lft.to/lastmile_qr_scan", "ios": "https://dc.lft.to/lastmile_qr_scan"}, "name": "b74e8fa501d8d5976f1cfba49aea05c5", "is_reserved": 0}, {"is_disabled": 0, "fusion_lon": 0.0, "fusion_lat": 0.0, "lat": 38.926254666666665, "type": "electric_scooter", "lon": -77.04193316666667, "bike_id": "c916d21b33b35470db182de389fd23c2", "rental_uris": {"android": "https://dc.lft.to/lastmile_qr_scan", "ios": "https://dc.lft.to/lastmile_qr_scan"}, "name": "c916d21b33b35470db182de389fd23c2", "is_reserved": 0}, {"is_disabled": 0, "fusion_lon": 0.0, "fusion_lat": 0.0, "lat": 38.89823533333333, "type": "electric_scooter", "lon": -77.043472, "bike_id": "e897b4c219518a737a2878b9f39ecb44", "rental_uris": {"android": "https://dc.lft.to/lastmile_qr_scan", "ios": "https://dc.lft.to/lastmile_qr_scan"}, "name": "e897b4c219518a737a2878b9f39ecb44", "is_reserved": 0}, {"is_disabled": 0, "fusion_lon": 0.0, "fusion_lat": 0.0, "lat": 38.99670666666667, "type": "electric_bike", "lon": -76.99144183333334, "bike_id": "bdf023e040bee3564167ff508fdd8f39", "rental_uris": {"android": "https://dc.lft.to/lastmile_qr_scan", "ios": "https://dc.lft.to/lastmile_qr_scan"}, "name": "bdf023e040bee3564167ff508fdd8f39", "is_reserved": 0}, {"is_disabled": 0, "fusion_lon": 0.0, "fusion_lat": 0.0, "lat": 38.909488, "type": "electric_scooter", "lon": -77.06440716666667, "bike_id": "84dd0383b24a2382aa0ccf8cd4141b79", "rental_uris": {"android": "https://dc.lft.to/lastmile_qr_scan", "ios": "https://dc.lft.to/lastmile_qr_scan"}, "name": "84dd0383b24a2382aa0ccf8cd4141b79", "is_reserved": 0}, {"is_disabled": 0, "fusion_lon": 0.0, "fusion_lat": 0.0, "lat": 38.944562, "type": "electric_scooter", "lon": -77.060236, "bike_id": "70867ad2ee849218c8a9f5429b308afb", "rental_uris": {"android": "https://dc.lft.to/lastmile_qr_scan", "ios": "https://dc.lft.to/lastmile_qr_scan"}, "name": "70867ad2ee849218c8a9f5429b308afb", "is_reserved": 0}, {"is_disabled": 0, "fusion_lon": 0.0, "fusion_lat": 0.0, "lat": 38.908502666666664, "type": "electric_scooter", "lon": -77.03257466666666, "bike_id": "5dba5cb6d29e7026fc7a1f01c930bbbf", "rental_uris": {"android": "https://dc.lft.to/lastmile_qr_scan", "ios": "https://dc.lft.to/lastmile_qr_scan"}, "name": "5dba5cb6d29e7026fc7a1f01c930bbbf", "is_reserved": 0}, {"is_disabled": 0, "fusion_lon": 0.0, "fusion_lat": 0.0, "lat": 38.921699833333335, "type": "electric_scooter", "lon": -77.038376, "bike_id": "65833f3c6289336ae30812dd0ffd31a8", "rental_uris": {"android": "https://dc.lft.to/lastmile_qr_scan", "ios": "https://dc.lft.to/lastmile_qr_scan"}, "name": "65833f3c6289336ae30812dd0ffd31a8", "is_reserved": 0}, {"is_disabled": 0, "fusion_lon": 0.0, "fusion_lat": 0.0, "lat": 38.87975483333334, "type": "electric_scooter", "lon": -76.99367383333333, "bike_id": "1f4506c87c7f2feb6fe2f677c023f122", "rental_uris": {"android": "https://dc.lft.to/lastmile_qr_scan", "ios": "https://dc.lft.to/lastmile_qr_scan"}, "name": "1f4506c87c7f2feb6fe2f677c023f122", "is_reserved": 0}, {"is_disabled": 0, "fusion_lon": 0.0, "fusion_lat": 0.0, "lat": 38.914578, "type": "electric_scooter", "lon": -77.031934, "bike_id": "f48518bfe9521e690b53a9f6b8cf69c4", "rental_uris": {"android": "https://dc.lft.to/lastmile_qr_scan", "ios": "https://dc.lft.to/lastmile_qr_scan"}, "name": "f48518bfe9521e690b53a9f6b8cf69c4", "is_reserved": 0}, {"is_disabled": 0, "fusion_lon": 0.0, "fusion_lat": 0.0, "lat": 38.985048666666664, "type": "electric_bike", "lon": -76.98200916666667, "bike_id": "9e9bf0ce8f039ca3124587c5d6e74223", "rental_uris": {"android": "https://dc.lft.to/lastmile_qr_scan", "ios": "https://dc.lft.to/lastmile_qr_scan"}, "name": "9e9bf0ce8f039ca3124587c5d6e74223", "is_reserved": 0}, {"is_disabled": 0, "fusion_lon": 0.0, "fusion_lat": 0.0, "lat": 38.9255835, "type": "electric_scooter", "lon": -77.03803616666667, "bike_id": "50f0089b05b6b8964852693a0fdb33f6", "rental_uris": {"android": "https://dc.lft.to/lastmile_qr_scan", "ios": "https://dc.lft.to/lastmile_qr_scan"}, "name": "50f0089b05b6b8964852693a0fdb33f6", "is_reserved": 0},