{"data": {"bikes": [{"bike_id": "7f45cb542839b02d5c969495e2565c6d", "fusion_lon": 0.0, "type": "electric_scooter", "name": "7f45cb542839b02d5c969495e2565c6d", "rental_uris": {"android": "https://dc.lft.to/lastmile_qr_scan", "ios": "https://dc.lft.to/lastmile_qr_scan"}, "fusion_lat": 0.0, "lat": 38.861718333333336, "is_disabled": 0, "lon": -76.98321683333333, "is_reserved": 0}, {"bike_id": "d3692676bbeab726d5083c1208b87422", "fusion_lon": 0.0, "type": "electric_scooter", "name": "d3692676bbeab726d5083c1208b87422", "rental_uris": {"android": "https://dc.lft.to/lastmile_qr_scan", "ios": "https://dc.lft.to/lastmile_qr_scan"}, "fusion_lat": 0.0, "lat": 38.915658666666666, "is_disabled": 0, "lon": -77.03031333333334, "is_reserved": 0}, {"bike_id": "67b42bd7505826f68198b66ad26d0345", "fusion_lon": 0.0, "type": "electric_scooter", "name": "67b42bd7505826f68198b66ad26d0345", "rental_uris": {"android": "https://dc.lft.to/lastmile_qr_scan", "ios": "https://dc.lft.to/lastmile_qr_scan"}, "fusion_lat": 0.0, "lat": 38.88431116666667, "is_disabled": 0, "lon": -76.95757433333333, "is_reserved": 0}, {"bike_id": "785ba90487a923ab0221d81a7b824934", "fusion_lon": 0.0, "type": "electric_scooter", "name": "785ba90487a923ab0221d81a7b824934", "rental_uris": {"android": "https://dc.lft.to/lastmile_qr_scan", "ios": "https://dc.lft.to/lastmile_qr_scan"}, "fusion_lat": 0.0, "lat": 38.918214166666665, "is_disabled": 0, "lon": -77.03453483333334, "is_reserved": 0}, {"bike_id": "74bddb6c5d63e9622fdef913cc22400b", "fusion_lon": 0.0, "type": "electric_scooter", "name": "74bddb6c5d63e9622fdef913cc22400b", "rental_uris": {"android": "https://dc.lft.to/lastmile_qr_scan", "ios": "https://dc.lft.to/lastmile_qr_scan"}, "fusion_lat": 0.0, "lat": 38.914198, "is_disabled": 0, "lon": -77.0314415, "is_reserved": 0}, {"bike_id": "4ef8fc74b1a6bf67b68f45c87a4e5bfc", "fusion_lon": 0.0, "type": "electric_scooter", "name": "4ef8fc74b1a6bf67b68f45c87a4e5bfc", "rental_uris": {"android": "https://dc.lft.to/lastmile_qr_scan", "ios": "https://dc.lft.to/lastmile_qr_scan"}, "fusion_lat": 0.0, "lat": 38.92550983333334, "is_disabled": 0, "lon": -77.05301266666666, "is_reserved": 0}, {"bike_id": "0d1bdb48e77b076622ef407231b42fb1", "fusion_lon": 0.0, "type": "electric_scooter", "name": "0d1bdb48e77b076622ef407231b42fb1", "rental_uris": {"android": "https://dc.lft.to/lastmile_qr_scan", "ios": "https://dc.lft.to/lastmile_qr_scan"}, "fusion_lat": 0.0, "lat": 38.90762133333333, "is_disabled": 0, "lon": -77.03210883333334, "is_reserved": 0}, {"bike_id": "2a790a44573de05ff6e04cd2d1405eca", "fusion_lon": 0.0, "type": "electric_scooter", "name": "2a790a44573de05ff6e04cd2d1405eca", "rental_uris": {"android": "https://dc.lft.to/lastmile_qr_scan", "ios": "https://dc.lft.to/lastmile_qr_scan"}, "fusion_lat": 0.0, "lat": 38.92512683333333, "is_disabled": 0, "lon": -77.023592, "is_reserved": 0}, {"bike_id": "83663cbe5668e33c150ef9f088996bc2", "fusion_lon": 0.0, "type": "electric_bike", "name": "83663cbe5668e33c150ef9f088996bc2", "rental_uris": {"android": "https://dc.lft.to/lastmile_qr_scan", "ios": "https://dc.lft.to/lastmile_qr_scan"}, "fusion_lat": 0.0, "lat": 38.963514, "is_disabled": 0, "lon": -77.0106415, "is_reserved": 0}, {"bike_id": "296844b5a03bcca556c801db37758b0d", "fusion_lon": 0.0, "type": "electric_scooter", "name": "296844b5a03bcca556c801db37758b0d", "rental_uris": {"android": "https://dc.lft.to/lastmile_qr_scan", "ios": "https://dc.lft.to/lastmile_qr_scan"}, "fusion_lat": 0.0, "lat": 38.918974166666665, "is_disabled": 0, "lon": -77.04153066666667, "is_reserved": 0}, {"bike_id": "fc752843dcd6fae0664c5ff007a94a9d", "fusion_lon": 0.0, "type": "electric_scooter", "name": "fc752843dcd6fae0664c5ff007a94a9d", "rental_uris": {"android": "https://dc.lft.to/lastmile_qr_scan", "ios": "https://dc.lft.to/lastmile_qr_scan"}, "fusion_lat": 0.0, "lat": 38.927184833333335, "is_disabled": 0, "lon": -77.04048833333333, "is_reserved": 0}, {"bike_id": "7af3210b7b48620519e121bebe5f6846", "fusion_lon": 0.0, "type": "electric_scooter", "name": "7af3210b7b48620519e121bebe5f6846", "rental_uris": {"android": "https://dc.lft.to/lastmile_qr_scan", "ios": "https://dc.lft.to/lastmile_qr_scan"}, "fusion_lat": 0.0, "lat": 38.87646866666667, "is_disabled": 0, "lon": -76.9650475, "is_reserved": 0}, {"bike_id": "2037d1cdd2fdbbc2a8f89a986ef6be6f", "fusion_lon": 0.0, "type": "electric_bike", "name": "2037d1cdd2fdbbc2a8f89a986ef6be6f", "rental_uris": {"android": "https://dc.lft.to/lastmile_qr_scan", "ios": "https://dc.lft.to/lastmile_qr_scan"}, "fusion_lat": 0.0, "lat": 39.105663, "is_disabled": 0, "lon": -77.15267683333333, "is_reserved": 0}, {"bike_id": "3d24d38a7e94585ac8dc7b3885d20611", "fusion_lon": 0.0, "type": "electric_scooter", "name": "3d24d38a7e94585ac8dc7b3885d20611", "rental_uris": {"android": "https://dc.lft.to/lastmile_qr_scan", "ios": "https://dc.lft.to/lastmile_qr_scan"}, "fusion_lat": 0.0, "lat": 38.910588833333335, "is_disabled": 0, "lon": -77.03851516666667, "is_reserved": 0}, {"bike_id": "7a726e0081f583b3e44397d5a859dda8", "fusion_lon": 0.0, "type": "electric_scooter", "name": "7a726e0081f583b3e44397d5a859dda8", "rental_uris": {"android": "https://dc.lft.to/lastmile_qr_scan", "ios": "https://dc.lft.to/lastmile_qr_scan"}, "fusion_lat": 0.0, "lat": 38.924819166666666, "is_disabled": 0, "lon": -77.02901116666666, "is_reserved": 0}, {"bike_id": "1a3c6dc49510bb4b57e58cd71bfc227e", "fusion_lon": 0.0, "type": "electric_bike", "name": "1a3c6dc49510bb4b57e58cd71bfc227e", "rental_uris": {"android": "https://dc.lft.to/lastmile_qr_scan", "ios": "https://dc.lft.to/lastmile_qr_scan"}, "fusion_lat": 0.0, "lat": 38.86416116666667, "is_disabled": 0, "lon": -76.97440333333333, "is_reserved": 0}, {"bike_id": "3da86f8e113161fad5557a32d779ed04", "fusion_lon": 0.0, "type": "electric_scooter", "name": "3da86f8e113161fad5557a32d779ed04", "rental_uris": {"android": "https://dc.lft.to/lastmile_qr_scan", "ios": "https://dc.lft.to/lastmile_qr_scan"}, "fusion_lat": 0.0, "lat": 38.903440333333336, "is_disabled": 0, "lon": -76.98851116666667, "is_reserved": 0}, {"bike_id": "815824460058becf1b61ea9be48ceb46", "fusion_lon": 0.0, "type": "electric_scooter", "name": "815824460058becf1b61ea9be48ceb46", "rental_uris": {"android": "https://dc.lft.to/lastmile_qr_scan", "ios": "https://dc.lft.to/lastmile_qr_scan"}, "fusion_lat": 0.0, "lat": 38.907152833333335, "is_disabled": 0, "lon": -77.02374283333333, "is_reserved": 0}, {"bike_id": "1a4ce7603fb27814db44d3cfffc7da7e", "fusion_lon": 0.0, "type": "electric_scooter", "name": "1a4ce7603fb27814db44d3cfffc7da7e", "rental_uris": {"android": "https://dc.lft.to/lastmile_qr_scan", "ios": "https://dc.lft.to/lastmile_qr_scan"}, "fusion_lat": 0.0, "lat": 38.914039833333334, "is_disabled": 0, "lon": -77.04182083333333, "is_reserved": 0}, {"bike_id": "02313f400394afad222c4a5492daab5f", "fusion_lon": 0.0, "type": "electric_scooter", "name": "02313f400394afad222c4a5492daab5f", "rental_uris": {"android": "https://dc.lft.to/lastmile_qr_scan", "ios": "https://dc.lft.to/lastmile_qr_scan"}, "fusion_lat": 0.0, "lat": 38.90346366666667, "is_disabled": 0, "lon": -77.0267455, "is_reserved": 0}, {"bike_id": "9187dd2100ff20e57c02f70555c45495", "fusion_lon": 0.0, "type": "electric_scooter", "name": "9187dd2100ff20e57c02f70555c45495", "rental_uris": {"android": "https://dc.lft.to/lastmile_qr_scan", "ios": "https://dc.lft.to/lastmile_qr_scan"}, "fusion_lat": 0.0, "lat": 38.892226666666666, "is_disabled": 0, "lon": -77.0277125, "is_reserved": 0}, {"bike_id": "94f2abfc179f6207647bb6c5d46120ff", "fusion_lon": 0.0, "type": "electric_scooter", "name": "94f2abfc179f6207647bb6c5d46120ff", "rental_uris": {"android": "https://dc.lft.to/lastmile_qr_scan", "ios": "https://dc.lft.to/lastmile_qr_scan"}, "fusion_lat": 0.0, "lat": 38.93879966666667, "is_disabled": 0, "lon": -77.024789, "is_reserved": 0}, {"bike_id": "cfb5bd8d07892837dec1fa92d5dd22e5", "fusion_lon": 0.0, "type": "electric_scooter", "name": "cfb5bd8d07892837dec1fa92d5dd22e5", "rental_uris": {"android": "https://dc.lft.to/lastmile_qr_scan", "ios": "https://dc.lft.to/lastmile_qr_scan"}, "fusion_lat": 0.0, "lat": 38.86109666666667, "is_disabled": 0, "lon": -76.99014533333333, "is_reserved": 0}, {"bike_id": "f699fd9f64be1383a7080af98b67674b", "fusion_lon": 0.0, "type": "electric_scooter", "name": "f699fd9f64be1383a7080af98b67674b", "rental_uris": {"android": "https://dc.lft.to/lastmile_qr_scan", "ios": "https://dc.lft.to/lastmile_qr_scan"}, "fusion_lat": 0.0, "lat": 38.894038, "is_disabled": 0, "lon": -77.0214725, "is_reserved": 0}, {"bike_id": "c179ea9a095199154439f3ae34fc64eb", "fusion_lon": 0.0, "type": "electric_scooter", "name": "c179ea9a095199154439f3ae34fc64eb", "rental_uris": {"android": "https://dc.lft.to/lastmile_qr_scan", "ios": "https://dc.lft.to/lastmile_qr_scan"}, "fusion_lat": 0.0, "lat": 38.9192085, "is_disabled": 0, "lon": -77.031744, "is_reserved": 0}, {"bike_id": "896356119c070bdeb923c3c2c280f1d9", "fusion_lon": 0.0, "type": "electric_scooter", "name": "896356119c070bdeb923c3c2c280f1d9", "rental_uris": {"android": "https://dc.lft.to/lastmile_qr_scan", "ios": "https://dc.lft.to/lastmile_qr_scan"}, "fusion_lat": 0.0, "lat": 38.94308933333333, "is_disabled": 0, "lon": -77.01541083333333, "is_reserved": 0}, {"bike_id": "13d6de74bca2da39ed1ce8fd5eeb8298", "fusion_lon": 0.0, "type": "electric_scooter", "name": "13d6de74bca2da39ed1ce8fd5eeb8298", "rental_uris": {"android": "https://dc.lft.to/lastmile_qr_scan", "ios": "https://dc.lft.to/lastmile_qr_scan"}, "fusion_lat": 0.0, "lat": 38.9096135, "is_disabled": 0, "lon": -77.01607083333333, "is_reserved": 0}, {"bike_id": "cbd5b5800011e914993252ccdb3269d3", "fusion_lon": 0.0, "type": "electric_scooter", "name": "cbd5b5800011e914993252ccdb3269d3", "rental_uris": {"android": "https://dc.lft.to/lastmile_qr_scan", "ios": "https://dc.lft.to/lastmile_qr_scan"}, "fusion_lat": 0.0, "lat": 38.90023883333333, "is_disabled": 0, "lon": -76.99877116666667, "is_reserved": 0}, {"bike_id": "c8f776095fe6f4990180e73dc0936ea9", "fusion_lon": 0.0, "type": "electric_scooter", "name": "c8f776095fe6f4990180e73dc0936ea9", "rental_uris": {"android": "https://dc.lft.to/lastmile_qr_scan", "ios": "https://dc.lft.to/lastmile_qr_scan"}, "fusion_lat": 0.0, "lat": 38.895223666666666, "is_disabled": 0, "lon": -76.94892116666666, "is_reserved": 0}, {"bike_id": "ad4c1fdb5318c8cf0d92ba9b4204fefa", "fusion_lon": 0.0, "type": "electric_scooter", "name": "ad4c1fdb5318c8cf0d92ba9b4204fefa", "rental_uris": {"android": "https://dc.lft.to/lastmile_qr_scan", "ios": "https://dc.lft.to/lastmile_qr_scan"}, "fusion_lat": 0.0, "lat": 38.924066, "is_disabled": 0, "lon": -77.03644183333333, "is_reserved": 0}, {"bike_id": "e7de109e64801e7cf68a130fc91fc982", "fusion_lon": 0.0, "type": "electric_scooter", "name": "e7de109e64801e7cf68a130fc91fc982", "rental_uris": {"android": "https://dc.lft.to/lastmile_qr_scan", "ios": "https://dc.lft.to/lastmile_qr_scan"}, "fusion_lat": 0.0, "lat": 38.903637, "is_disabled": 0, "lon": -77.00054233333333, "is_reserved": 0}, {"bike_id": "f415597a99625b05bddee852db1e4518", "fusion_lon": 0.0, "type": "electric_scooter", "name": "f415597a99625b05bddee852db1e4518", "rental_uris": {"android": "https://dc.lft.to/lastmile_qr_scan", "ios": "https://dc.lft.to/lastmile_qr_scan"}, "fusion_lat": 0.0, "lat": 38.91911116666667, "is_disabled": 0, "lon": -77.0417405, "is_reserved": 0}, {"bike_id": "ef62300332fd63b709ae6a997aad49bc", "fusion_lon": 0.0, "type": "electric_scooter", "name": "ef62300332fd63b709ae6a997aad49bc", "rental_uris": {"android": "https://dc.lft.to/lastmile_qr_scan", "ios": "https://dc.lft.to/lastmile_qr_scan"}, "fusion_lat": 0.0, "lat": 38.9386055, "is_disabled": 0, "lon": -77.025617, "is_reserved": 0}, {"bike_id": "7c7f0297dc5e55b033196dd26dff1464", "fusion_lon": 0.0, "type": "electric_scooter", "name": "7c7f0297dc5e55b033196dd26dff1464", "rental_uris": {"android": "https://dc.lft.to/lastmile_qr_scan", "ios": "https://dc.lft.to/lastmile_qr_scan"}, "fusion_lat": 0.0, "lat": 38.84618066666667, "is_disabled": 0, "lon": -76.99629666666667, "is_reserved": 0}, {"bike_id": "f3c1c3fddff2d3efb942abdf678b4197", "fusion_lon": 0.0, "type": "electric_scooter", "name": "f3c1c3fddff2d3efb942abdf678b4197", "rental_uris": {"android": "https://dc.lft.to/lastmile_qr_scan", "ios": "https://dc.lft.to/lastmile_qr_scan"}, "fusion_lat": 0.0, "lat": 38.92840483333333, "is_disabled": 0, "lon": -77.01593366666667, "is_reserved": 0}, {"bike_id": "ec8000bf38d89ad1b5c43cb7e55ebf2a", "fusion_lon": 0.0, "type": "electric_scooter", "name": "ec8000bf38d89ad1b5c43cb7e55ebf2a", "rental_uris": {"android": "https://dc.lft.to/lastmile_qr_scan", "ios": "https://dc.lft.to/lastmile_qr_scan"}, "fusion_lat": 0.0, "lat": 38.91683866666666, "is_disabled": 0, "lon": -77.02978116666667, "is_reserved": 0}, {"bike_id": "0a2a96278ad4fd70ec22f7f018e17533", "fusion_lon": 0.0, "type": "electric_scooter", "name": "0a2a96278ad4fd70ec22f7f018e17533", "rental_uris": {"android": "https://dc.lft.to/lastmile_qr_scan", "ios": "https://dc.lft.to/lastmile_qr_scan"}, "fusion_lat": 0.0, "lat": 38.916985333333336, "is_disabled": 0, "lon": -77.00522133333334, "is_reserved": 0}, {"bike_id": "b0831f2ccc6555b3dc0b5fcc0501ab4b", "fusion_lon": 0.0, "type": "electric_scooter", "name": "b0831f2ccc6555b3dc0b5fcc0501ab4b", "rental_uris": {"android": "https://dc.lft.to/lastmile_qr_scan", "ios": "https://dc.lft.to/lastmile_qr_scan"}, "fusion_lat": 0.0, "lat": 38.93879316666667, "is_disabled": 0, "lon": -77.0248505, "is_reserved": 0}, {"bike_id": "2c33ed0722d166aab072125f1b41b58c", "fusion_lon": 0.0, "type": "electric_scooter", "name": "2c33ed0722d166aab072125f1b41b58c", "rental_uris": {"android": "https://dc.lft.to/lastmile_qr_scan", "ios": "https://dc.lft.to/lastmile_qr_scan"}, "fusion_lat": 0.0, "lat": 38.91809116666667, "is_disabled": 0, "lon": -77.03436133333334, "is_reserved": 0}, {"bike_id": "4612700cd71ec25d2b76b1b4ce2e5ee7", "fusion_lon": 0.0, "type": "electric_scooter", "name": "4612700cd71ec25d2b76b1b4ce2e5ee7", "rental_uris": {"android": "https://dc.lft.to/lastmile_qr_scan", "ios": "https://dc.lft.to/lastmile_qr_scan"}, "fusion_lat": 0.0, "lat": 38.917201, "is_disabled": 0, "lon": -77.038567, "is_reserved": 0}, {"bike_id": "da3243af754493874b0b233254c57247", "fusion_lon": 0.0, "type": "electric_bike", "name": "da3243af754493874b0b233254c57247", "rental_uris": {"android": "https://dc.lft.to/lastmile_qr_scan", "ios": "https://dc.lft.to/lastmile_qr_scan"}, "fusion_lat": 0.0, "lat": 38.8957665, "is_disabled": 0, "lon": -76.97620583333334, "is_reserved": 0}, {"bike_id": "d92994e729728d360d9969fa59debfad", "fusion_lon": 0.0, "type": "electric_scooter", "name": "d92994e729728d360d9969fa59debfad", "rental_uris": {"android": "https://dc.lft.to/lastmile_qr_scan", "ios": "https://dc.lft.to/lastmile_qr_scan"}, "fusion_lat": 0.0, "lat": 38.919227, "is_disabled": 0, "lon": -77.07898283333333, "is_reserved": 0}, {"bike_id": "61df6d6b83eb5bc3c387d6e5b5015268", "fusion_lon": 0.0, "type": "electric_scooter", "name": "61df6d6b83eb5bc3c387d6e5b5015268", "rental_uris": {"android": "https://dc.lft.to/lastmile_qr_scan", "ios": "https://dc.lft.to/lastmile_qr_scan"}, "fusion_lat": 0.0, "lat": 38.926464833333334, "is_disabled": 0, "lon": -77.03704766666667, "is_reserved": 0}, {"bike_id": "e8a8742d3555f10669433a89f51080d7", "fusion_lon": 0.0, "type": "electric_scooter", "name": "e8a8742d3555f10669433a89f51080d7", "rental_uris": {"android": "https://dc.lft.to/lastmile_qr_scan", "ios": "https://dc.lft.to/lastmile_qr_scan"}, "fusion_lat": 0.0, "lat": 38.917070833333334, "is_disabled": 0, "lon": -77.007963, "is_reserved": 0}, {"bike_id": "d94501411a39fc7e13483c9c4884446a", "fusion_lon": 0.0, "type": "electric_scooter", "name": "d94501411a39fc7e13483c9c4884446a", "rental_uris": {"android": "https://dc.lft.to/lastmile_qr_scan", "ios": "https://dc.lft.to/lastmile_qr_scan"}, "fusion_lat": 0.0, "lat": 38.87245266666667, "is_disabled": 0, "lon": -77.0105755, "is_reserved": 0}, {"bike_id": "7823cfd795a0b7eba3ee60fe42b8fd17", "fusion_lon": 0.0, "type": "electric_scooter", "name": "7823cfd795a0b7eba3ee60fe42b8fd17", "rental_uris": {"android": "https://dc.lft.to/lastmile_qr_scan", "ios": "https://dc.lft.to/lastmile_qr_scan"}, "fusion_lat": 0.0, "lat": 38.900188166666666, "is_disabled": 0, "lon": -76.99455316666666, "is_reserved": 0}, {"bike_id": "bc9633f6a4544185e8fb90209222bc31", "fusion_lon": 0.0, "type": "electric_scooter", "name": "bc9633f6a4544185e8fb90209222bc31", "rental_uris": {"android": "https://dc.lft.to/lastmile_qr_scan", "ios": "https://dc.lft.to/lastmile_qr_scan"}, "fusion_lat": 0.0, "lat": 38.911504, "is_disabled": 0, "lon": -76.984671, "is_reserved": 0}, {"bike_id": "cf4335129189ff8f9a008a47ead64d2c", "fusion_lon": 0.0, "type": "electric_scooter", "name": "cf4335129189ff8f9a008a47ead64d2c", "rental_uris": {"android": "https://dc.lft.to/lastmile_qr_scan", "ios": "https://dc.lft.to/lastmile_qr_scan"}, "fusion_lat": 0.0, "lat": 38.91772066666667, "is_disabled": 0, "lon": -77.04062533333334, "is_reserved": 0}, {"bike_id": "88fc0e981d6861b2bd98644e98ff5375", "fusion_lon": 0.0, "type": "electric_scooter", "name": "88fc0e981d6861b2bd98644e98ff5375", "rental_uris": {"android": "https://dc.lft.to/lastmile_qr_scan", "ios": "https://dc.lft.to/lastmile_qr_scan"}, "fusion_lat": 0.0, "lat": 38.90523916666667, "is_disabled": 0, "lon": -77.049965, "is_reserved": 0}, {"bike_id": "ec3babb3248574e8403acdd0c824c4a7", "fusion_lon": 0.0, "type": "electric_scooter", "name": "ec3babb3248574e8403acdd0c824c4a7", "rental_uris": {"android": "https://dc.lft.to/lastmile_qr_scan", "ios": "https://dc.lft.to/lastmile_qr_scan"}, "fusion_lat": 0.0, "lat": 38.915501, "is_disabled": 0, "lon": -77.0384055, "is_reserved": 0}, {"bike_id": "416856a5f9149976cd95662f4fc90b3f", "fusion_lon": 0.0, "type": "electric_scooter", "name": "416856a5f9149976cd95662f4fc90b3f", "rental_uris": {"android": "https://dc.lft.to/lastmile_qr_scan", "ios": "https://dc.lft.to/lastmile_qr_scan"}, "fusion_lat": 0.0, "lat": 38.867189333333336, "is_disabled": 0, "lon": -76.98723033333333, "is_reserved": 0}, {"bike_id": "dc95f904a3d1640f7e3c1d6700e3bc38", "fusion_lon": 0.0, "type": "electric_scooter", "name": "dc95f904a3d1640f7e3c1d6700e3bc38", "rental_uris": {"android": "https://dc.lft.to/lastmile_qr_scan", "ios": "https://dc.lft.to/lastmile_qr_scan"}, "fusion_lat": 0.0, "lat": 38.924814833333336, "is_disabled": 0, "lon": -77.03483516666667, "is_reserved": 0}, {"bike_id": "9652322858a1a3d13075dd35ceb5624f", "fusion_lon": 0.0, "type": "electric_bike", "name": "9652322858a1a3d13075dd35ceb5624f", "rental_uris": {"android": "https://dc.lft.to/lastmile_qr_scan", "ios": "https://dc.lft.to/lastmile_qr_scan"}, "fusion_lat": 0.0, "lat": 38.854929166666665, "is_disabled": 0, "lon": -77.1161485, "is_reserved": 0}, {"bike_id": "0ce6e9a2da98ef851ec24e4267c6009f", "fusion_lon": 0.0, "type": "electric_scooter", "name": "0ce6e9a2da98ef851ec24e4267c6009f", "rental_uris": {"android": "https://dc.lft.to/lastmile_qr_scan", "ios": "https://dc.lft.to/lastmile_qr_scan"}, "fusion_lat": 0.0, "lat": 38.85722483333333, "is_disabled": 0, "lon": -76.98096516666666, "is_reserved": 0}, {"bike_id": "f7e5e9882f14891c8eb9bca7c52c6f88", "fusion_lon": 0.0, "type": "electric_scooter", "name": "f7e5e9882f14891c8eb9bca7c52c6f88", "rental_uris": {"android": "https://dc.lft.to/lastmile_qr_scan", "ios": "https://dc.lft.to/lastmile_qr_scan"}, "fusion_lat": 0.0, "lat": 38.9336835, "is_disabled": 0, "lon": -77.057229, "is_reserved": 0}, {"bike_id": "b55b3e5c8a2b762787ac855d7707800d", "fusion_lon": 0.0, "type": "electric_scooter", "name": "b55b3e5c8a2b762787ac855d7707800d", "rental_uris": {"android": "https://dc.lft.to/lastmile_qr_scan", "ios": "https://dc.lft.to/lastmile_qr_scan"}, "fusion_lat": 0.0, "lat": 38.9097175, "is_disabled": 0, "lon": -77.02297983333334, "is_reserved": 0}, {"bike_id": "300d321b8f9e3959a90fa7a19cdc210f", "fusion_lon": 0.0, "type": "electric_bike", "name": "300d321b8f9e3959a90fa7a19cdc210f", "rental_uris": {"android": "https://dc.lft.to/lastmile_qr_scan", "ios": "https://dc.lft.to/lastmile_qr_scan"}, "fusion_lat": 0.0, "lat": 38.854321166666665, "is_disabled": 0, "lon": -76.90960766666667, "is_reserved": 0}, {"bike_id": "e06bcb8c4b99dc6eeb49e6362756cf7a", "fusion_lon": 0.0, "type": "electric_scooter", "name": "e06bcb8c4b99dc6eeb49e6362756cf7a", "rental_uris": {"android": "https://dc.lft.to/lastmile_qr_scan", "ios": "https://dc.lft.to/lastmile_qr_scan"}, "fusion_lat": 0.0, "lat": 38.887446833333335, "is_disabled": 0, "lon": -77.01871116666666, "is_reserved": 0}, {"bike_id": "746be9b4987a3f40d5c4d6dc6b731754", "fusion_lon": 0.0, "type": "electric_scooter", "name": "746be9b4987a3f40d5c4d6dc6b731754", "rental_uris": {"android": "https://dc.lft.to/lastmile_qr_scan", "ios": "https://dc.lft.to/lastmile_qr_scan"}, "fusion_lat": 0.0, "lat": 38.8953105, "is_disabled": 0, "lon": -77.033516, "is_reserved": 0}, {"bike_id": "d5cea778bc33eefb55c72ceab943d99d", "fusion_lon": 0.0, "type": "electric_scooter", "name": "d5cea778bc33eefb55c72ceab943d99d", "rental_uris": {"android": "https://dc.lft.to/lastmile_qr_scan", "ios": "https://dc.lft.to/lastmile_qr_scan"}, "fusion_lat": 0.0, "lat": 38.90945933333333, "is_disabled": 0, "lon": -77.02698433333333, "is_reserved": 0}, {"bike_id": "1ee6df74457aeeb4c2fa0941936d950d", "fusion_lon": 0.0, "type": "electric_scooter", "name": "1ee6df74457aeeb4c2fa0941936d950d", "rental_uris": {"android": "https://dc.lft.to/lastmile_qr_scan", "ios": "https://dc.lft.to/lastmile_qr_scan"}, "fusion_lat": 0.0, "lat": 38.909596666666665, "is_disabled": 0, "lon": -77.02385083333333, "is_reserved": 0}, {"bike_id": "4698979d40903bbc5e38dd4bcd5c114f", "fusion_lon": 0.0, "type": "electric_scooter", "name": "4698979d40903bbc5e38dd4bcd5c114f", "rental_uris": {"android": "https://dc.lft.to/lastmile_qr_scan", "ios": "https://dc.lft.to/lastmile_qr_scan"}, "fusion_lat": 0.0, "lat": 38.93062333333334, "is_disabled": 0, "lon": -77.041765, "is_reserved": 0}, {"bike_id": "8979a472d5ba2b7378eee5757a0a6357", "fusion_lon": 0.0, "type": "electric_scooter", "name": "8979a472d5ba2b7378eee5757a0a6357", "rental_uris": {"android": "https://dc.lft.to/lastmile_qr_scan", "ios": "https://dc.lft.to/lastmile_qr_scan"}, "fusion_lat": 0.0, "lat": 38.902727166666665, "is_disabled": 0, "lon": -77.00915666666667, "is_reserved": 0}, {"bike_id": "989a93ee0efddae5f3d00915d84cbc5a", "fusion_lon": 0.0, "type": "electric_scooter", "name": "989a93ee0efddae5f3d00915d84cbc5a", "rental_uris": {"android": "https://dc.lft.to/lastmile_qr_scan", "ios": "https://dc.lft.to/lastmile_qr_scan"}, "fusion_lat": 0.0, "lat": 38.938638166666664, "is_disabled": 0, "lon": -77.02660383333334, "is_reserved": 0}, {"bike_id": "7cab548640e4f3b19de39f284c7d44f5", "fusion_lon": 0.0, "type": "electric_scooter", "name": "7cab548640e4f3b19de39f284c7d44f5", "rental_uris": {"android": "https://dc.lft.to/lastmile_qr_scan", "ios": "https://dc.lft.to/lastmile_qr_scan"}, "fusion_lat": 0.0, "lat": 38.911922, "is_disabled": 0, "lon": -77.005522, "is_reserved": 0}, {"bike_id": "13dd8c7cf85700f4fbea8237371d0e1a", "fusion_lon": 0.0, "type": "electric_scooter", "name": "13dd8c7cf85700f4fbea8237371d0e1a", "rental_uris": {"android": "https://dc.lft.to/lastmile_qr_scan", "ios": "https://dc.lft.to/lastmile_qr_scan"}, "fusion_lat": 0.0, "lat": 38.90842383333333, "is_disabled": 0, "lon": -77.02694166666667, "is_reserved": 0}, {"bike_id": "e05f94839c0a202cf08ff61e9f780635", "fusion_lon": 0.0, "type": "electric_scooter", "name": "e05f94839c0a202cf08ff61e9f780635", "rental_uris": {"android": "https://dc.lft.to/lastmile_qr_scan", "ios": "https://dc.lft.to/lastmile_qr_scan"}, "fusion_lat": 0.0, "lat": 38.94925516666667, "is_disabled": 0, "lon": -77.0193215, "is_reserved": 0}, {"bike_id": "fbd8f187a8b766353c70cbe0c2535f39", "fusion_lon": 0.0, "type": "electric_scooter", "name": "fbd8f187a8b766353c70cbe0c2535f39", "rental_uris": {"android": "https://dc.lft.to/lastmile_qr_scan", "ios": "https://dc.lft.to/lastmile_qr_scan"}, "fusion_lat": 0.0, "lat": 38.92569733333333, "is_disabled": 0, "lon": -77.04374333333334, "is_reserved": 0}, {"bike_id": "54157c171eb063a1312b311e88368f87", "fusion_lon": 0.0, "type": "electric_scooter", "name": "54157c171eb063a1312b311e88368f87", "rental_uris": {"android": "https://dc.lft.to/lastmile_qr_scan", "ios": "https://dc.lft.to/lastmile_qr_scan"}, "fusion_lat": 0.0, "lat": 38.93079183333333, "is_disabled": 0, "lon": -77.03282916666667, "is_reserved": 0}, {"bike_id": "799f265a56903bf9f522141e438bc513", "fusion_lon": 0.0, "type": "electric_bike", "name": "799f265a56903bf9f522141e438bc513", "rental_uris": {"android": "https://dc.lft.to/lastmile_qr_scan", "ios": "https://dc.lft.to/lastmile_qr_scan"}, "fusion_lat": 0.0, "lat": 38.91132016666667, "is_disabled": 0, "lon": -77.06568883333334, "is_reserved": 0}, {"bike_id": "443cec968edf7b136fd919c9b1c8b2da", "fusion_lon": 0.0, "type": "electric_scooter", "name": "443cec968edf7b136fd919c9b1c8b2da", "rental_uris": {"android": "https://dc.lft.to/lastmile_qr_scan", "ios": "https://dc.lft.to/lastmile_qr_scan"}, "fusion_lat": 0.0, "lat": 38.935623166666666, "is_disabled": 0, "lon": -77.02134233333334, "is_reserved": 0}, {"bike_id": "8b8c0da2ee33312475efe5ea3e730c11", "fusion_lon": 0.0, "type": "electric_scooter", "name": "8b8c0da2ee33312475efe5ea3e730c11", "rental_uris": {"android": "https://dc.lft.to/lastmile_qr_scan", "ios": "https://dc.lft.to/lastmile_qr_scan"}, "fusion_lat": 0.0, "lat": 38.909664666666664, "is_disabled": 0, "lon": -77.0337725, "is_reserved": 0}, {"bike_id": "9f3a84b4817f1c4deeb3dcb5d9559510", "fusion_lon": 0.0, "type": "electric_scooter", "name": "9f3a84b4817f1c4deeb3dcb5d9559510", "rental_uris": {"android": "https://dc.lft.to/lastmile_qr_scan", "ios": "https://dc.lft.to/lastmile_qr_scan"}, "fusion_lat": 0.0, "lat": 38.842906, "is_disabled": 0, "lon": -76.99945883333334, "is_reserved": 0}, {"bike_id": "d3c97ff9db323323bdfa278f2cff1d2c", "fusion_lon": 0.0, "type": "electric_scooter", "name": "d3c97ff9db323323bdfa278f2cff1d2c", "rental_uris": {"android": "https://dc.lft.to/lastmile_qr_scan", "ios": "https://dc.lft.to/lastmile_qr_scan"}, "fusion_lat": 0.0, "lat": 38.92070483333333, "is_disabled": 0, "lon": -77.03815816666666, "is_reserved": 0}, {"bike_id": "7a97beb18796ef3be9a7564cb6a88330", "fusion_lon": 0.0, "type": "electric_scooter", "name": "7a97beb18796ef3be9a7564cb6a88330", "rental_uris": {"android": "https://dc.lft.to/lastmile_qr_scan", "ios": "https://dc.lft.to/lastmile_qr_scan"}, "fusion_lat": 0.0, "lat": 38.898503166666664, "is_disabled": 0, "lon": -77.03322866666667, "is_reserved": 0}, {"bike_id": "ffa82cb11b9bb9df16b07a0e35f0f5f1", "fusion_lon": 0.0, "type": "electric_scooter", "name": "ffa82cb11b9bb9df16b07a0e35f0f5f1", "rental_uris": {"android": "https://dc.lft.to/lastmile_qr_scan", "ios": "https://dc.lft.to/lastmile_qr_scan"}, "fusion_lat": 0.0, "lat": 38.871967166666664, "is_disabled": 0, "lon": -77.01254266666666, "is_reserved": 0}, {"bike_id": "569fe460f3e02c6dc384e00dd5949d23", "fusion_lon": 0.0, "type": "electric_scooter", "name": "569fe460f3e02c6dc384e00dd5949d23", "rental_uris": {"android": "https://dc.lft.to/lastmile_qr_scan", "ios": "https://dc.lft.to/lastmile_qr_scan"}, "fusion_lat": 0.0, "lat": 38.907836833333334, "is_disabled": 0, "lon": -77.0451075, "is_reserved": 0}, {"bike_id": "72f83876c02d79301c4e9766f4b930ba", "fusion_lon": 0.0, "type": "electric_scooter", "name": "72f83876c02d79301c4e9766f4b930ba", "rental_uris": {"android": "https://dc.lft.to/lastmile_qr_scan", "ios": "https://dc.lft.to/lastmile_qr_scan"}, "fusion_lat": 0.0, "lat": 38.920532, "is_disabled": 0, "lon": -77.0242615, "is_reserved": 0}, {"bike_id": "0374ea2a653113e167c95b7e501e959c", "fusion_lon": 0.0, "type": "electric_scooter", "name": "0374ea2a653113e167c95b7e501e959c", "rental_uris": {"android": "https://dc.lft.to/lastmile_qr_scan", "ios": "https://dc.lft.to/lastmile_qr_scan"}, "fusion_lat": 0.0, "lat": 38.91101233333333, "is_disabled": 0, "lon": -77.07348566666667, "is_reserved": 0}, {"bike_id": "85db5c34d85687c56aca1221b5a92a90", "fusion_lon": 0.0, "type": "electric_scooter", "name": "85db5c34d85687c56aca1221b5a92a90", "rental_uris": {"android": "https://dc.lft.to/lastmile_qr_scan", "ios": "https://dc.lft.to/lastmile_qr_scan"}, "fusion_lat": 0.0, "lat": 38.90480316666667, "is_disabled": 0, "lon": -77.0072845, "is_reserved": 0}, {"bike_id": "f89012ccff8b42cc78f3bbf4e15ad83e", "fusion_lon": 0.0, "type": "electric_scooter", "name": "f89012ccff8b42cc78f3bbf4e15ad83e", "rental_uris": {"android": "https://dc.lft.to/lastmile_qr_scan", "ios": "https://dc.lft.to/lastmile_qr_scan"}, "fusion_lat": 0.0, "lat": 38.904348666666664, "is_disabled": 0, "lon": -77.05142366666666, "is_reserved": 0}, {"bike_id": "b387bf8004d6ccdd20fe9159f43056f9", "fusion_lon": 0.0, "type": "electric_scooter", "name": "b387bf8004d6ccdd20fe9159f43056f9", "rental_uris": {"android": "https://dc.lft.to/lastmile_qr_scan", "ios": "https://dc.lft.to/lastmile_qr_scan"}, "fusion_lat": 0.0, "lat": 38.879938, "is_disabled": 0, "lon": -76.9853725, "is_reserved": 0}, {"bike_id": "09900924ab09a40caafa80d611decbbc", "fusion_lon": 0.0, "type": "electric_scooter", "name": "09900924ab09a40caafa80d611decbbc", "rental_uris": {"android": "https://dc.lft.to/lastmile_qr_scan", "ios": "https://dc.lft.to/lastmile_qr_scan"}, "fusion_lat": 0.0, "lat": 38.919239833333336, "is_disabled": 0, "lon": -77.03167816666667, "is_reserved": 0}, {"bike_id": "42185a4feaf15e881c2f94565f75c4f9", "fusion_lon": 0.0, "type": "electric_scooter", "name": "42185a4feaf15e881c2f94565f75c4f9", "rental_uris": {"android": "https://dc.lft.to/lastmile_qr_scan", "ios": "https://dc.lft.to/lastmile_qr_scan"}, "fusion_lat": 0.0, "lat": 38.892292166666664, "is_disabled": 0, "lon": -77.02831383333333, "is_reserved": 0}, {"bike_id": "0e48a8ea859f432f8433c1e39124c2a9", "fusion_lon": 0.0, "type": "electric_scooter", "name": "0e48a8ea859f432f8433c1e39124c2a9", "rental_uris": {"android": "https://dc.lft.to/lastmile_qr_scan", "ios": "https://dc.lft.to/lastmile_qr_scan"}, "fusion_lat": 0.0, "lat": 38.9079145, "is_disabled": 0, "lon": -76.94115216666667, "is_reserved": 0}, {"bike_id": "201293b4e2f1221c9df8a90ad79b518d", "fusion_lon": 0.0, "type": "electric_scooter", "name": "201293b4e2f1221c9df8a90ad79b518d", "rental_uris": {"android": "https://dc.lft.to/lastmile_qr_scan", "ios": "https://dc.lft.to/lastmile_qr_scan"}, "fusion_lat": 0.0, "lat": 38.91550983333333, "is_disabled": 0, "lon": -77.02206033333333, "is_reserved": 0}, {"bike_id": "cce1e5a176bafc318c551735c81e8599", "fusion_lon": 0.0, "type": "electric_scooter", "name": "cce1e5a176bafc318c551735c81e8599", "rental_uris": {"android": "https://dc.lft.to/lastmile_qr_scan", "ios": "https://dc.lft.to/lastmile_qr_scan"}, "fusion_lat": 0.0, "lat": 38.9392175, "is_disabled": 0, "lon": -77.06035283333334, "is_reserved": 0}, {"bike_id": "db2685870a1ce4e309c157af0d9c843a", "fusion_lon": 0.0, "type": "electric_scooter", "name": "db2685870a1ce4e309c157af0d9c843a", "rental_uris": {"android": "https://dc.lft.to/lastmile_qr_scan", "ios": "https://dc.lft.to/lastmile_qr_scan"}, "fusion_lat": 0.0, "lat": 38.8991585, "is_disabled": 0, "lon": -76.9333675, "is_reserved": 0}, {"bike_id": "89e35a93dafa1bbbcd8cca19e22acffd", "fusion_lon": 0.0, "type": "electric_scooter", "name": "89e35a93dafa1bbbcd8cca19e22acffd", "rental_uris": {"android": "https://dc.lft.to/lastmile_qr_scan", "ios": "https://dc.lft.to/lastmile_qr_scan"}, "fusion_lat": 0.0, "lat": 38.88431933333333, "is_disabled": 0, "lon": -76.95749883333333, "is_reserved": 0}, {"bike_id": "f75d115b473ec05d84b809e50e94bf1f", "fusion_lon": 0.0, "type": "electric_scooter", "name": "f75d115b473ec05d84b809e50e94bf1f", "rental_uris": {"android": "https://dc.lft.to/lastmile_qr_scan", "ios": "https://dc.lft.to/lastmile_qr_scan"}, "fusion_lat": 0.0, "lat": 38.90136, "is_disabled": 0, "lon": -77.0330955, "is_reserved": 0}, {"bike_id": "99bc48f10ff49324bfea9df48e3ef330", "fusion_lon": 0.0, "type": "electric_scooter", "name": "99bc48f10ff49324bfea9df48e3ef330", "rental_uris": {"android": "https://dc.lft.to/lastmile_qr_scan", "ios": "https://dc.lft.to/lastmile_qr_scan"}, "fusion_lat": 0.0, "lat": 38.926193833333336, "is_disabled": 0, "lon": -77.04327616666667, "is_reserved": 0}, {"bike_id": "9d21d72fc8386901b4e0f0f879d7f2bb", "fusion_lon": 0.0, "type": "electric_scooter", "name": "9d21d72fc8386901b4e0f0f879d7f2bb", "rental_uris": {"android": "https://dc.lft.to/lastmile_qr_scan", "ios": "https://dc.lft.to/lastmile_qr_scan"}, "fusion_lat": 0.0, "lat": 38.91820333333333, "is_disabled": 0, "lon": -77.03841233333333, "is_reserved": 0}, {"bike_id": "0f775b3e7e2cf160d97f41f44c2e03b2", "fusion_lon": 0.0, "type": "electric_scooter", "name": "0f775b3e7e2cf160d97f41f44c2e03b2", "rental_uris": {"android": "https://dc.lft.to/lastmile_qr_scan", "ios": "https://dc.lft.to/lastmile_qr_scan"}, "fusion_lat": 0.0, "lat": 38.902369, "is_disabled": 0, "lon": -77.03964816666667, "is_reserved": 0}, {"bike_id": "e28309102b4b2ff5a186e7112c76741d", "fusion_lon": 0.0, "type": "electric_scooter", "name": "e28309102b4b2ff5a186e7112c76741d", "rental_uris": {"android": "https://dc.lft.to/lastmile_qr_scan", "ios": "https://dc.lft.to/lastmile_qr_scan"}, "fusion_lat": 0.0, "lat": 38.90084683333333, "is_disabled": 0, "lon": -76.93020283333334, "is_reserved": 0}, {"bike_id": "273b14f55bf787ad391ae04078c94e29", "fusion_lon": 0.0, "type": "electric_scooter", "name": "273b14f55bf787ad391ae04078c94e29", "rental_uris": {"android": "https://dc.lft.to/lastmile_qr_scan", "ios": "https://dc.lft.to/lastmile_qr_scan"}, "fusion_lat": 0.0, "lat": 38.88739066666667, "is_disabled": 0, "lon": -77.01533283333333, "is_reserved": 0}, {"bike_id": "50d826cce79720b142ee6c57663707d4", "fusion_lon": 0.0, "type": "electric_bike", "name": "50d826cce79720b142ee6c57663707d4", "rental_uris": {"android": "https://dc.lft.to/lastmile_qr_scan", "ios": "https://dc.lft.to/lastmile_qr_scan"}, "fusion_lat": 0.0, "lat": 38.813332333333335, "is_disabled": 0, "lon": -77.05102383333333, "is_reserved": 0}, {"bike_id": "6654de3bc494401ab7374fc984dd6154", "fusion_lon": 0.0, "type": "electric_scooter", "name": "6654de3bc494401ab7374fc984dd6154", "rental_uris": {"android": "https://dc.lft.to/lastmile_qr_scan", "ios": "https://dc.lft.to/lastmile_qr_scan"}, "fusion_lat": 0.0, "lat": 38.91618533333333, "is_disabled": 0, "lon": -77.02819333333333, "is_reserved": 0}, {"bike_id": "b3dd89050860bc961b4a6ca22e6dbf5d", "fusion_lon": 0.0, "type": "electric_scooter", "name": "b3dd89050860bc961b4a6ca22e6dbf5d", "rental_uris": {"android": "https://dc.lft.to/lastmile_qr_scan", "ios": "https://dc.lft.to/lastmile_qr_scan"}, "fusion_lat": 0.0, "lat": 38.88456766666667, "is_disabled": 0, "lon": -77.02904033333333, "is_reserved": 0}, {"bike_id": "b9618bc0d17bcce9bf4c8b00cde4f87b", "fusion_lon": 0.0, "type": "electric_bike", "name": "b9618bc0d17bcce9bf4c8b00cde4f87b", "rental_uris": {"android": "https://dc.lft.to/lastmile_qr_scan", "ios": "https://dc.lft.to/lastmile_qr_scan"}, "fusion_lat": 0.0, "lat": 38.843021666666665, "is_disabled": 0, "lon": -77.1142005, "is_reserved": 0}, {"bike_id": "75a05ccfd6a42abdfcb87a316fc150ae", "fusion_lon": 0.0, "type": "electric_scooter", "name": "75a05ccfd6a42abdfcb87a316fc150ae", "rental_uris": {"android": "https://dc.lft.to/lastmile_qr_scan", "ios": "https://dc.lft.to/lastmile_qr_scan"}, "fusion_lat": 0.0, "lat": 38.86947416666667, "is_disabled": 0, "lon": -77.00860116666666, "is_reserved": 0}, {"bike_id": "b3a371e6250a54cabfe24ff6c0d1f326", "fusion_lon": 0.0, "type": "electric_scooter", "name": "b3a371e6250a54cabfe24ff6c0d1f326", "rental_uris": {"android": "https://dc.lft.to/lastmile_qr_scan", "ios": "https://dc.lft.to/lastmile_qr_scan"}, "fusion_lat": 0.0, "lat": 38.9148105, "is_disabled": 0, "lon": -77.0132655, "is_reserved": 0}, {"bike_id": "e3853cb97a605416155cf28d8d87e4b5", "fusion_lon": 0.0, "type": "electric_scooter", "name": "e3853cb97a605416155cf28d8d87e4b5", "rental_uris": {"android": "https://dc.lft.to/lastmile_qr_scan", "ios": "https://dc.lft.to/lastmile_qr_scan"}, "fusion_lat": 0.0, "lat": 38.90502466666667, "is_disabled": 0, "lon": -77.02950666666666, "is_reserved": 0}, {"bike_id": "aa045e512104940b21462dcab1d7d55b", "fusion_lon": 0.0, "type": "electric_bike", "name": "aa045e512104940b21462dcab1d7d55b", "rental_uris": {"android": "https://dc.lft.to/lastmile_qr_scan", "ios": "https://dc.lft.to/lastmile_qr_scan"}, "fusion_lat": 0.0, "lat": 38.8392575, "is_disabled": 0, "lon": -77.0791115, "is_reserved": 0}, {"bike_id": "50c40d98544d6f6ffa492f420a522521", "fusion_lon": 0.0, "type": "electric_scooter", "name": "50c40d98544d6f6ffa492f420a522521", "rental_uris": {"android": "https://dc.lft.to/lastmile_qr_scan", "ios": "https://dc.lft.to/lastmile_qr_scan"}, "fusion_lat": 0.0, "lat": 38.91414533333333, "is_disabled": 0, "lon": -77.03164416666667, "is_reserved": 0}, {"bike_id": "4c785c6f1267f7726c1aef6ded3b5327", "fusion_lon": 0.0, "type": "electric_scooter", "name": "4c785c6f1267f7726c1aef6ded3b5327", "rental_uris": {"android": "https://dc.lft.to/lastmile_qr_scan", "ios": "https://dc.lft.to/lastmile_qr_scan"}, "fusion_lat": 0.0, "lat": 38.914660833333336, "is_disabled": 0, "lon": -77.0384515, "is_reserved": 0}, {"bike_id": "3fc5d7a30327efb946804165843bfd00", "fusion_lon": 0.0, "type": "electric_scooter", "name": "3fc5d7a30327efb946804165843bfd00", "rental_uris": {"android": "https://dc.lft.to/lastmile_qr_scan", "ios": "https://dc.lft.to/lastmile_qr_scan"}, "fusion_lat": 0.0, "lat": 38.91768, "is_disabled": 0, "lon": -77.04058733333333, "is_reserved": 0}, {"bike_id": "b69689c86bea917f40994881d7c3fa8a", "fusion_lon": 0.0, "type": "electric_bike", "name": "b69689c86bea917f40994881d7c3fa8a", "rental_uris": {"android": "https://dc.lft.to/lastmile_qr_scan", "ios": "https://dc.lft.to/lastmile_qr_scan"}, "fusion_lat": 0.0, "lat": 38.84516466666667, "is_disabled": 0, "lon": -77.0779545, "is_reserved": 0}, {"bike_id": "6b1274fa98a56c5ed41be0d6e527c85c", "fusion_lon": 0.0, "type": "electric_scooter", "name": "6b1274fa98a56c5ed41be0d6e527c85c", "rental_uris": {"android": "https://dc.lft.to/lastmile_qr_scan", "ios": "https://dc.lft.to/lastmile_qr_scan"}, "fusion_lat": 0.0, "lat": 38.97234733333333, "is_disabled": 0, "lon": -77.02715066666667, "is_reserved": 0}, {"bike_id": "7036ffe73888d15b0d8b1954f4ffc467", "fusion_lon": 0.0, "type": "electric_scooter", "name": "7036ffe73888d15b0d8b1954f4ffc467", "rental_uris": {"android": "https://dc.lft.to/lastmile_qr_scan", "ios": "https://dc.lft.to/lastmile_qr_scan"}, "fusion_lat": 0.0, "lat": 38.88388716666667, "is_disabled": 0, "lon": -77.01981633333334, "is_reserved": 0}, {"bike_id": "57bded1e72f2a35d7fd95b981563e442", "fusion_lon": 0.0, "type": "electric_scooter", "name": "57bded1e72f2a35d7fd95b981563e442", "rental_uris": {"android": "https://dc.lft.to/lastmile_qr_scan", "ios": "https://dc.lft.to/lastmile_qr_scan"}, "fusion_lat": 0.0, "lat": 38.88738683333333, "is_disabled": 0, "lon": -77.01534083333334, "is_reserved": 0}, {"bike_id": "4a8426b69b50b11cf33ef6d034735c46", "fusion_lon": 0.0, "type": "electric_scooter", "name": "4a8426b69b50b11cf33ef6d034735c46", "rental_uris": {"android": "https://dc.lft.to/lastmile_qr_scan", "ios": "https://dc.lft.to/lastmile_qr_scan"}, "fusion_lat": 0.0, "lat": 38.91783733333333, "is_disabled": 0, "lon": -77.02307183333333, "is_reserved": 0}, {"bike_id": "f95d08b1a873b5dde3804ff4099d84c7", "fusion_lon": 0.0, "type": "electric_scooter", "name": "f95d08b1a873b5dde3804ff4099d84c7", "rental_uris": {"android": "https://dc.lft.to/lastmile_qr_scan", "ios": "https://dc.lft.to/lastmile_qr_scan"}, "fusion_lat": 0.0, "lat": 38.920139166666665, "is_disabled": 0, "lon": -77.040834, "is_reserved": 0}, {"bike_id": "187a087a9ae7653cf7ce068686f8912f", "fusion_lon": 0.0, "type": "electric_scooter", "name": "187a087a9ae7653cf7ce068686f8912f", "rental_uris": {"android": "https://dc.lft.to/lastmile_qr_scan", "ios": "https://dc.lft.to/lastmile_qr_scan"}, "fusion_lat": 0.0, "lat": 38.862011333333335, "is_disabled": 0, "lon": -76.99506183333334, "is_reserved": 0}, {"bike_id": "ba0050e1e3880b0876d8c63608fe083e", "fusion_lon": 0.0, "type": "electric_scooter", "name": "ba0050e1e3880b0876d8c63608fe083e", "rental_uris": {"android": "https://dc.lft.to/lastmile_qr_scan", "ios": "https://dc.lft.to/lastmile_qr_scan"}, "fusion_lat": 0.0, "lat": 38.822614, "is_disabled": 0, "lon": -77.00207266666666, "is_reserved": 0}, {"bike_id": "aa3375b925aa64b74b04e2c3b1ad210b", "fusion_lon": 0.0, "type": "electric_scooter", "name": "aa3375b925aa64b74b04e2c3b1ad210b", "rental_uris": {"android": "https://dc.lft.to/lastmile_qr_scan", "ios": "https://dc.lft.to/lastmile_qr_scan"}, "fusion_lat": 0.0, "lat": 38.912700666666666, "is_disabled": 0, "lon": -77.022308, "is_reserved": 0}, {"bike_id": "6bdab5f838aa4cb7270737cc2cb46a15", "fusion_lon": 0.0, "type": "electric_scooter", "name": "6bdab5f838aa4cb7270737cc2cb46a15", "rental_uris": {"android": "https://dc.lft.to/lastmile_qr_scan", "ios": "https://dc.lft.to/lastmile_qr_scan"}, "fusion_lat": 0.0, "lat": 38.926748333333336, "is_disabled": 0, "lon": -77.07836066666667, "is_reserved": 0}, {"bike_id": "9d2762f0e018be008120a2ec536661c1", "fusion_lon": 0.0, "type": "electric_scooter", "name": "9d2762f0e018be008120a2ec536661c1", "rental_uris": {"android": "https://dc.lft.to/lastmile_qr_scan", "ios": "https://dc.lft.to/lastmile_qr_scan"}, "fusion_lat": 0.0, "lat": 38.887362333333336, "is_disabled": 0, "lon": -77.02270016666667, "is_reserved": 0}, {"bike_id": "16235044e207991c4292b0939c649e8a", "fusion_lon": 0.0, "type": "electric_scooter", "name": "16235044e207991c4292b0939c649e8a", "rental_uris": {"android": "https://dc.lft.to/lastmile_qr_scan", "ios": "https://dc.lft.to/lastmile_qr_scan"}, "fusion_lat": 0.0, "lat": 38.88587033333334, "is_disabled": 0, "lon": -77.02211416666667, "is_reserved": 0}, {"bike_id": "7b5dd27bea02d896726a9f7357aa590b", "fusion_lon": 0.0, "type": "electric_scooter", "name": "7b5dd27bea02d896726a9f7357aa590b", "rental_uris": {"android": "https://dc.lft.to/lastmile_qr_scan", "ios": "https://dc.lft.to/lastmile_qr_scan"}, "fusion_lat": 0.0, "lat": 38.9001655, "is_disabled": 0, "lon": -76.98699383333333, "is_reserved": 0}, {"bike_id": "cf7496a5ea4631cf209d4095a7d5d478", "fusion_lon": 0.0, "type": "electric_bike", "name": "cf7496a5ea4631cf209d4095a7d5d478", "rental_uris": {"android": "https://dc.lft.to/lastmile_qr_scan", "ios": "https://dc.lft.to/lastmile_qr_scan"}, "fusion_lat": 0.0, "lat": 38.9420335, "is_disabled": 0, "lon": -76.96631066666667, "is_reserved": 0}, {"bike_id": "86b57fc9b9a9be8fafd7bc783f248d9b", "fusion_lon": 0.0, "type": "electric_scooter", "name": "86b57fc9b9a9be8fafd7bc783f248d9b", "rental_uris": {"android": "https://dc.lft.to/lastmile_qr_scan", "ios": "https://dc.lft.to/lastmile_qr_scan"}, "fusion_lat": 0.0, "lat": 38.93858683333333, "is_disabled": 0, "lon": -77.02650416666667, "is_reserved": 0}, {"bike_id": "e25e37c8bd6b03e2dd7b15953b7d71a2", "fusion_lon": 0.0, "type": "electric_scooter", "name": "e25e37c8bd6b03e2dd7b15953b7d71a2", "rental_uris": {"android": "https://dc.lft.to/lastmile_qr_scan", "ios": "https://dc.lft.to/lastmile_qr_scan"}, "fusion_lat": 0.0, "lat": 38.9224525, "is_disabled": 0, "lon": -77.099595, "is_reserved": 0}, {"bike_id": "52c7af42d5c4a16c6f7a8da422078349", "fusion_lon": 0.0, "type": "electric_scooter", "name": "52c7af42d5c4a16c6f7a8da422078349", "rental_uris": {"android": "https://dc.lft.to/lastmile_qr_scan", "ios": "https://dc.lft.to/lastmile_qr_scan"}, "fusion_lat": 0.0, "lat": 38.9212345, "is_disabled": 0, "lon": -77.0367575, "is_reserved": 0}, {"bike_id": "22db63580147c5a6e927e27ce4a0ed2c", "fusion_lon": 0.0, "type": "electric_scooter", "name": "22db63580147c5a6e927e27ce4a0ed2c", "rental_uris": {"android": "https://dc.lft.to/lastmile_qr_scan", "ios": "https://dc.lft.to/lastmile_qr_scan"}, "fusion_lat": 0.0, "lat": 38.92235183333333, "is_disabled": 0, "lon": -77.04646483333333, "is_reserved": 0}, {"bike_id": "d397fadb60a7afdb0ea09a6a45b7bb38", "fusion_lon": 0.0, "type": "electric_scooter", "name": "d397fadb60a7afdb0ea09a6a45b7bb38", "rental_uris": {"android": "https://dc.lft.to/lastmile_qr_scan", "ios": "https://dc.lft.to/lastmile_qr_scan"}, "fusion_lat": 0.0, "lat": 38.88743783333334, "is_disabled": 0, "lon": -77.016064, "is_reserved": 0}, {"bike_id": "f9ce3d54f142013e46df55fc11458003", "fusion_lon": 0.0, "type": "electric_scooter", "name": "f9ce3d54f142013e46df55fc11458003", "rental_uris": {"android": "https://dc.lft.to/lastmile_qr_scan", "ios": "https://dc.lft.to/lastmile_qr_scan"}, "fusion_lat": 0.0, "lat": 38.89088, "is_disabled": 0, "lon": -76.997867, "is_reserved": 0}, {"bike_id": "0adfa7fc99e3b0ecfec60818b5a306a6", "fusion_lon": 0.0, "type": "electric_scooter", "name": "0adfa7fc99e3b0ecfec60818b5a306a6", "rental_uris": {"android": "https://dc.lft.to/lastmile_qr_scan", "ios": "https://dc.lft.to/lastmile_qr_scan"}, "fusion_lat": 0.0, "lat": 38.8940585, "is_disabled": 0, "lon": -76.98559566666667, "is_reserved": 0}, {"bike_id": "3fad70e8d669c7ccda013456ca4dd38e", "fusion_lon": 0.0, "type": "electric_scooter", "name": "3fad70e8d669c7ccda013456ca4dd38e", "rental_uris": {"android": "https://dc.lft.to/lastmile_qr_scan", "ios": "https://dc.lft.to/lastmile_qr_scan"}, "fusion_lat": 0.0, "lat": 38.925086, "is_disabled": 0, "lon": -77.02581666666667, "is_reserved": 0}, {"bike_id": "177ee59f1c5c9ffbb87b527d0ca37c7c", "fusion_lon": 0.0, "type": "electric_scooter", "name": "177ee59f1c5c9ffbb87b527d0ca37c7c", "rental_uris": {"android": "https://dc.lft.to/lastmile_qr_scan", "ios": "https://dc.lft.to/lastmile_qr_scan"}, "fusion_lat": 0.0, "lat": 38.936666833333334, "is_disabled": 0, "lon": -77.0593575, "is_reserved": 0}, {"bike_id": "82bb14657f96ab81342489b33ab3154d", "fusion_lon": 0.0, "type": "electric_scooter", "name": "82bb14657f96ab81342489b33ab3154d", "rental_uris": {"android": "https://dc.lft.to/lastmile_qr_scan", "ios": "https://dc.lft.to/lastmile_qr_scan"}, "fusion_lat": 0.0, "lat": 38.927833, "is_disabled": 0, "lon": -77.02780983333334, "is_reserved": 0}, {"bike_id": "66eadd8a3709f61687a60a37d32bf7df", "fusion_lon": 0.0, "type": "electric_scooter", "name": "66eadd8a3709f61687a60a37d32bf7df", "rental_uris": {"android": "https://dc.lft.to/lastmile_qr_scan", "ios": "https://dc.lft.to/lastmile_qr_scan"}, "fusion_lat": 0.0, "lat": 38.90431383333333, "is_disabled": 0, "lon": -77.02870166666666, "is_reserved": 0}, {"bike_id": "a5357ae2e15853a8199d791b7e5451f0", "fusion_lon": 0.0, "type": "electric_bike", "name": "a5357ae2e15853a8199d791b7e5451f0", "rental_uris": {"android": "https://dc.lft.to/lastmile_qr_scan", "ios": "https://dc.lft.to/lastmile_qr_scan"}, "fusion_lat": 0.0, "lat": 38.949212, "is_disabled": 0, "lon": -77.00800516666666, "is_reserved": 0}, {"bike_id": "219a28c7505934fd957e9a4b9fa26684", "fusion_lon": 0.0, "type": "electric_scooter", "name": "219a28c7505934fd957e9a4b9fa26684", "rental_uris": {"android": "https://dc.lft.to/lastmile_qr_scan", "ios": "https://dc.lft.to/lastmile_qr_scan"}, "fusion_lat": 0.0, "lat": 38.951276666666665, "is_disabled": 0, "lon": -77.02724033333334, "is_reserved": 0}, {"bike_id": "37e019c2ceae9f5e4c2b4f6797a807cd", "fusion_lon": 0.0, "type": "electric_scooter", "name": "37e019c2ceae9f5e4c2b4f6797a807cd", "rental_uris": {"android": "https://dc.lft.to/lastmile_qr_scan", "ios": "https://dc.lft.to/lastmile_qr_scan"}, "fusion_lat": 0.0, "lat": 38.9300795, "is_disabled": 0, "lon": -77.0210665, "is_reserved": 0}, {"bike_id": "ca886c7d67c3b478a4a84f9c2526bd4f", "fusion_lon": 0.0, "type": "electric_scooter", "name": "ca886c7d67c3b478a4a84f9c2526bd4f", "rental_uris": {"android": "https://dc.lft.to/lastmile_qr_scan", "ios": "https://dc.lft.to/lastmile_qr_scan"}, "fusion_lat": 0.0, "lat": 38.93587133333333, "is_disabled": 0, "lon": -77.03366366666667, "is_reserved": 0}, {"bike_id": "36242145793a2729c823770e8fba5be0", "fusion_lon": 0.0, "type": "electric_scooter", "name": "36242145793a2729c823770e8fba5be0", "rental_uris": {"android": "https://dc.lft.to/lastmile_qr_scan", "ios": "https://dc.lft.to/lastmile_qr_scan"}, "fusion_lat": 0.0, "lat": 38.915582666666666, "is_disabled": 0, "lon": -77.02427366666667, "is_reserved": 0}, {"bike_id": "241b6418d64084c523212966a0e6fa83", "fusion_lon": 0.0, "type": "electric_scooter", "name": "241b6418d64084c523212966a0e6fa83", "rental_uris": {"android": "https://dc.lft.to/lastmile_qr_scan", "ios": "https://dc.lft.to/lastmile_qr_scan"}, "fusion_lat": 0.0, "lat": 38.918182333333334, "is_disabled": 0, "lon": -77.0248255, "is_reserved": 0}, {"bike_id": "4c1bb4858d615dee542c73c8f17f3c32", "fusion_lon": 0.0, "type": "electric_scooter", "name": "4c1bb4858d615dee542c73c8f17f3c32", "rental_uris": {"android": "https://dc.lft.to/lastmile_qr_scan", "ios": "https://dc.lft.to/lastmile_qr_scan"}, "fusion_lat": 0.0, "lat": 38.9135085, "is_disabled": 0, "lon": -77.02263216666667, "is_reserved": 0}, {"bike_id": "19fd61ad66b3d0db3cc4b859bb79b0ac", "fusion_lon": 0.0, "type": "electric_scooter", "name": "19fd61ad66b3d0db3cc4b859bb79b0ac", "rental_uris": {"android": "https://dc.lft.to/lastmile_qr_scan", "ios": "https://dc.lft.to/lastmile_qr_scan"}, "fusion_lat": 0.0, "lat": 38.912731, "is_disabled": 0, "lon": -77.02690216666667, "is_reserved": 0}, {"bike_id": "420e5735b19bd8d6955f7204448fb4e1", "fusion_lon": 0.0, "type": "electric_scooter", "name": "420e5735b19bd8d6955f7204448fb4e1", "rental_uris": {"android": "https://dc.lft.to/lastmile_qr_scan", "ios": "https://dc.lft.to/lastmile_qr_scan"}, "fusion_lat": 0.0, "lat": 38.90411533333334, "is_disabled": 0, "lon": -77.03962166666666, "is_reserved": 0}, {"bike_id": "7c0c0ab1d4e8fff6d5a72f30be3ac5b6", "fusion_lon": 0.0, "type": "electric_scooter", "name": "7c0c0ab1d4e8fff6d5a72f30be3ac5b6", "rental_uris": {"android": "https://dc.lft.to/lastmile_qr_scan", "ios": "https://dc.lft.to/lastmile_qr_scan"}, "fusion_lat": 0.0, "lat": 38.90005583333333, "is_disabled": 0, "lon": -77.02153183333333, "is_reserved": 0}, {"bike_id": "cba9e4ccf973cf11e257c6bbb5e38669", "fusion_lon": 0.0, "type": "electric_scooter", "name": "cba9e4ccf973cf11e257c6bbb5e38669", "rental_uris": {"android": "https://dc.lft.to/lastmile_qr_scan", "ios": "https://dc.lft.to/lastmile_qr_scan"}, "fusion_lat": 0.0, "lat": 38.912722333333335, "is_disabled": 0, "lon": -77.02693183333334, "is_reserved": 0}, {"bike_id": "cd2d89922ae1727773fa900a7e376e5c", "fusion_lon": 0.0, "type": "electric_scooter", "name": "cd2d89922ae1727773fa900a7e376e5c", "rental_uris": {"android": "https://dc.lft.to/lastmile_qr_scan", "ios": "https://dc.lft.to/lastmile_qr_scan"}, "fusion_lat": 0.0, "lat": 38.924087166666666, "is_disabled": 0, "lon": -77.05634116666667, "is_reserved": 0}, {"bike_id": "e0fffcc6137572bd5ba991197a64e089", "fusion_lon": 0.0, "type": "electric_scooter", "name": "e0fffcc6137572bd5ba991197a64e089", "rental_uris": {"android": "https://dc.lft.to/lastmile_qr_scan", "ios": "https://dc.lft.to/lastmile_qr_scan"}, "fusion_lat": 0.0, "lat": 38.956387166666666, "is_disabled": 0, "lon": -77.03293033333334, "is_reserved": 0}, {"bike_id": "2f9338c0a55664b85cd4105e42b383b8", "fusion_lon": 0.0, "type": "electric_scooter", "name": "2f9338c0a55664b85cd4105e42b383b8", "rental_uris": {"android": "https://dc.lft.to/lastmile_qr_scan", "ios": "https://dc.lft.to/lastmile_qr_scan"}, "fusion_lat": 0.0, "lat": 38.903114, "is_disabled": 0, "lon": -77.0344635, "is_reserved": 0}, {"bike_id": "6fc8efafd04985075bcf287e4ae82a3a", "fusion_lon": 0.0, "type": "electric_scooter", "name": "6fc8efafd04985075bcf287e4ae82a3a", "rental_uris": {"android": "https://dc.lft.to/lastmile_qr_scan", "ios": "https://dc.lft.to/lastmile_qr_scan"}, "fusion_lat": 0.0, "lat": 38.9021225, "is_disabled": 0, "lon": -77.0482005, "is_reserved": 0}, {"bike_id": "adf1857645646d277dd5545899ce7c27", "fusion_lon": 0.0, "type": "electric_scooter", "name": "adf1857645646d277dd5545899ce7c27", "rental_uris": {"android": "https://dc.lft.to/lastmile_qr_scan", "ios": "https://dc.lft.to/lastmile_qr_scan"}, "fusion_lat": 0.0, "lat": 38.91706166666667, "is_disabled": 0, "lon": -77.04260966666666, "is_reserved": 0}, {"bike_id": "aab230bd2d7d7c3d9fc002f0e44832fa", "fusion_lon": 0.0, "type": "electric_scooter", "name": "aab230bd2d7d7c3d9fc002f0e44832fa", "rental_uris": {"android": "https://dc.lft.to/lastmile_qr_scan", "ios": "https://dc.lft.to/lastmile_qr_scan"}, "fusion_lat": 0.0, "lat": 38.917053, "is_disabled": 0, "lon": -77.09195766666667, "is_reserved": 0}, {"bike_id": "bce30f73552007de7f8f74f0cb8149a2", "fusion_lon": 0.0, "type": "electric_scooter", "name": "bce30f73552007de7f8f74f0cb8149a2", "rental_uris": {"android": "https://dc.lft.to/lastmile_qr_scan", "ios": "https://dc.lft.to/lastmile_qr_scan"}, "fusion_lat": 0.0, "lat": 38.93702566666666, "is_disabled": 0, "lon": -77.03223633333333, "is_reserved": 0}, {"bike_id": "69a6ea1e3c94f432c9aede05b142a364", "fusion_lon": 0.0, "type": "electric_scooter", "name": "69a6ea1e3c94f432c9aede05b142a364", "rental_uris": {"android": "https://dc.lft.to/lastmile_qr_scan", "ios": "https://dc.lft.to/lastmile_qr_scan"}, "fusion_lat": 0.0, "lat": 38.931109, "is_disabled": 0, "lon": -77.02387866666666, "is_reserved": 0}, {"bike_id": "3146008f9a58310e9419be62da50ef01", "fusion_lon": 0.0, "type": "electric_scooter", "name": "3146008f9a58310e9419be62da50ef01", "rental_uris": {"android": "https://dc.lft.to/lastmile_qr_scan", "ios": "https://dc.lft.to/lastmile_qr_scan"}, "fusion_lat": 0.0, "lat": 38.95935683333333, "is_disabled": 0, "lon": -77.03252216666667, "is_reserved": 0}, {"bike_id": "1ec32030737a5ed939ae1437c416434c", "fusion_lon": 0.0, "type": "electric_scooter", "name": "1ec32030737a5ed939ae1437c416434c", "rental_uris": {"android": "https://dc.lft.to/lastmile_qr_scan", "ios": "https://dc.lft.to/lastmile_qr_scan"}, "fusion_lat": 0.0, "lat": 38.9325505, "is_disabled": 0, "lon": -77.036227, "is_reserved": 0}, {"bike_id": "24a015e41c5a8f14c1bd894a95eb26da", "fusion_lon": 0.0, "type": "electric_scooter", "name": "24a015e41c5a8f14c1bd894a95eb26da", "rental_uris": {"android": "https://dc.lft.to/lastmile_qr_scan", "ios": "https://dc.lft.to/lastmile_qr_scan"}, "fusion_lat": 0.0, "lat": 38.88788733333333, "is_disabled": 0, "lon": -76.95106216666667, "is_reserved": 0}, {"bike_id": "091da56f14573ea534e34f460ff3c3ce", "fusion_lon": 0.0, "type": "electric_scooter", "name": "091da56f14573ea534e34f460ff3c3ce", "rental_uris": {"android": "https://dc.lft.to/lastmile_qr_scan", "ios": "https://dc.lft.to/lastmile_qr_scan"}, "fusion_lat": 0.0, "lat": 38.909559, "is_disabled": 0, "lon": -76.98538733333334, "is_reserved": 0}, {"bike_id": "e00f29125e4e0a9335e48a6f2bb0cbb5", "fusion_lon": 0.0, "type": "electric_scooter", "name": "e00f29125e4e0a9335e48a6f2bb0cbb5", "rental_uris": {"android": "https://dc.lft.to/lastmile_qr_scan", "ios": "https://dc.lft.to/lastmile_qr_scan"}, "fusion_lat": 0.0, "lat": 38.900475666666665, "is_disabled": 0, "lon": -77.01229416666666, "is_reserved": 0}, {"bike_id": "2adf5450403cb8bad97f827e1b3138b9", "fusion_lon": 0.0, "type": "electric_scooter", "name": "2adf5450403cb8bad97f827e1b3138b9", "rental_uris": {"android": "https://dc.lft.to/lastmile_qr_scan", "ios": "https://dc.lft.to/lastmile_qr_scan"}, "fusion_lat": 0.0, "lat": 38.9160225, "is_disabled": 0, "lon": -77.0165665, "is_reserved": 0}, {"bike_id": "2f3f967ad36683214c3864a66788d91f", "fusion_lon": 0.0, "type": "electric_scooter", "name": "2f3f967ad36683214c3864a66788d91f", "rental_uris": {"android": "https://dc.lft.to/lastmile_qr_scan", "ios": "https://dc.lft.to/lastmile_qr_scan"}, "fusion_lat": 0.0, "lat": 38.90742316666667, "is_disabled": 0, "lon": -77.0427125, "is_reserved": 0}, {"bike_id": "e08b0452f5823c928091c8a0205dcfbd", "fusion_lon": 0.0, "type": "electric_scooter", "name": "e08b0452f5823c928091c8a0205dcfbd", "rental_uris": {"android": "https://dc.lft.to/lastmile_qr_scan", "ios": "https://dc.lft.to/lastmile_qr_scan"}, "fusion_lat": 0.0, "lat": 38.903706, "is_disabled": 0, "lon": -77.02185016666667, "is_reserved": 0}, {"bike_id": "b70af647fae6e0e371aa738c2fc59af1", "fusion_lon": 0.0, "type": "electric_scooter", "name": "b70af647fae6e0e371aa738c2fc59af1", "rental_uris": {"android": "https://dc.lft.to/lastmile_qr_scan", "ios": "https://dc.lft.to/lastmile_qr_scan"}, "fusion_lat": 0.0, "lat": 38.905124666666666, "is_disabled": 0, "lon": -77.02975833333333, "is_reserved": 0}, {"bike_id": "904b8f0c942aca8f264363d5b8255e7c", "fusion_lon": 0.0, "type": "electric_scooter", "name": "904b8f0c942aca8f264363d5b8255e7c", "rental_uris": {"android": "https://dc.lft.to/lastmile_qr_scan", "ios": "https://dc.lft.to/lastmile_qr_scan"}, "fusion_lat": 0.0, "lat": 38.898842, "is_disabled": 0, "lon": -76.93173266666666, "is_reserved": 0}, {"bike_id": "2a6081597f935cddb788cf00f4038645", "fusion_lon": 0.0, "type": "electric_scooter", "name": "2a6081597f935cddb788cf00f4038645", "rental_uris": {"android": "https://dc.lft.to/lastmile_qr_scan", "ios": "https://dc.lft.to/lastmile_qr_scan"}, "fusion_lat": 0.0, "lat": 38.9184855, "is_disabled": 0, "lon": -77.04829333333333, "is_reserved": 0}, {"bike_id": "02aafc53825bd8faf86c2c36b0b93f0a", "fusion_lon": 0.0, "type": "electric_scooter", "name": "02aafc53825bd8faf86c2c36b0b93f0a", "rental_uris": {"android": "https://dc.lft.to/lastmile_qr_scan", "ios": "https://dc.lft.to/lastmile_qr_scan"}, "fusion_lat": 0.0, "lat": 38.91823933333333, "is_disabled": 0, "lon": -77.03269866666666, "is_reserved": 0}, {"bike_id": "d57e1221970ff70777543b81e5eeb4a7", "fusion_lon": 0.0, "type": "electric_bike", "name": "d57e1221970ff70777543b81e5eeb4a7", "rental_uris": {"android": "https://dc.lft.to/lastmile_qr_scan", "ios": "https://dc.lft.to/lastmile_qr_scan"}, "fusion_lat": 0.0, "lat": 38.84839983333333, "is_disabled": 0, "lon": -77.080514, "is_reserved": 0}, {"bike_id": "7943a0a16858bf51223f94f90fa19aa3", "fusion_lon": 0.0, "type": "electric_scooter", "name": "7943a0a16858bf51223f94f90fa19aa3", "rental_uris": {"android": "https://dc.lft.to/lastmile_qr_scan", "ios": "https://dc.lft.to/lastmile_qr_scan"}, "fusion_lat": 0.0, "lat": 38.851617, "is_disabled": 0, "lon": -76.99457216666667, "is_reserved": 0}, {"bike_id": "b322108a250f455ebf78ab0a58f48c23", "fusion_lon": 0.0, "type": "electric_scooter", "name": "b322108a250f455ebf78ab0a58f48c23", "rental_uris": {"android": "https://dc.lft.to/lastmile_qr_scan", "ios": "https://dc.lft.to/lastmile_qr_scan"}, "fusion_lat": 0.0, "lat": 38.914343, "is_disabled": 0, "lon": -77.0218855, "is_reserved": 0}, {"bike_id": "781bcdc56f8ca696f554e41f97090df8", "fusion_lon": 0.0, "type": "electric_bike", "name": "781bcdc56f8ca696f554e41f97090df8", "rental_uris": {"android": "https://dc.lft.to/lastmile_qr_scan", "ios": "https://dc.lft.to/lastmile_qr_scan"}, "fusion_lat": 0.0, "lat": 38.947277, "is_disabled": 0, "lon": -76.95677166666667, "is_reserved": 0}, {"bike_id": "62e273efec554933ae2a5f271f9f3628", "fusion_lon": 0.0, "type": "electric_scooter", "name": "62e273efec554933ae2a5f271f9f3628", "rental_uris": {"android": "https://dc.lft.to/lastmile_qr_scan", "ios": "https://dc.lft.to/lastmile_qr_scan"}, "fusion_lat": 0.0, "lat": 38.903465, "is_disabled": 0, "lon": -77.01897483333333, "is_reserved": 0}, {"bike_id": "5cc7d2ffcf070d5c9abc46fb274b6e85", "fusion_lon": 0.0, "type": "electric_bike", "name": "5cc7d2ffcf070d5c9abc46fb274b6e85", "rental_uris": {"android": "https://dc.lft.to/lastmile_qr_scan", "ios": "https://dc.lft.to/lastmile_qr_scan"}, "fusion_lat": 0.0, "lat": 38.95966933333333, "is_disabled": 0, "lon": -76.98160316666667, "is_reserved": 0}, {"bike_id": "5b35977691e515bf0d667bacacb90bad", "fusion_lon": 0.0, "type": "electric_scooter", "name": "5b35977691e515bf0d667bacacb90bad", "rental_uris": {"android": "https://dc.lft.to/lastmile_qr_scan", "ios": "https://dc.lft.to/lastmile_qr_scan"}, "fusion_lat": 0.0, "lat": 38.8708135, "is_disabled": 0, "lon": -77.0110885, "is_reserved": 0}, {"bike_id": "2a95b2ada29d70c0cf127ce8b34e5af4", "fusion_lon": 0.0, "type": "electric_scooter", "name": "2a95b2ada29d70c0cf127ce8b34e5af4", "rental_uris": {"android": "https://dc.lft.to/lastmile_qr_scan", "ios": "https://dc.lft.to/lastmile_qr_scan"}, "fusion_lat": 0.0, "lat": 38.903146, "is_disabled": 0, "lon": -76.97027933333334, "is_reserved": 0}, {"bike_id": "3d8c4119e38c12cc888f824b43db8990", "fusion_lon": 0.0, "type": "electric_scooter", "name": "3d8c4119e38c12cc888f824b43db8990", "rental_uris": {"android": "https://dc.lft.to/lastmile_qr_scan", "ios": "https://dc.lft.to/lastmile_qr_scan"}, "fusion_lat": 0.0, "lat": 38.966247833333334, "is_disabled": 0, "lon": -77.027496, "is_reserved": 0}, {"bike_id": "0b198b178ddfa32a5400493759bae70e", "fusion_lon": 0.0, "type": "electric_scooter", "name": "0b198b178ddfa32a5400493759bae70e", "rental_uris": {"android": "https://dc.lft.to/lastmile_qr_scan", "ios": "https://dc.lft.to/lastmile_qr_scan"}, "fusion_lat": 0.0, "lat": 38.88748533333333, "is_disabled": 0, "lon": -77.02572616666667, "is_reserved": 0}, {"bike_id": "d659b19f1167ffcf34e33dba552a8ff4", "fusion_lon": 0.0, "type": "electric_scooter", "name": "d659b19f1167ffcf34e33dba552a8ff4", "rental_uris": {"android": "https://dc.lft.to/lastmile_qr_scan", "ios": "https://dc.lft.to/lastmile_qr_scan"}, "fusion_lat": 0.0, "lat": 38.926768833333334, "is_disabled": 0, "lon": -77.02307816666666, "is_reserved": 0}, {"bike_id": "f8245670074a529cdb5140e03b7ec49f", "fusion_lon": 0.0, "type": "electric_scooter", "name": "f8245670074a529cdb5140e03b7ec49f", "rental_uris": {"android": "https://dc.lft.to/lastmile_qr_scan", "ios": "https://dc.lft.to/lastmile_qr_scan"}, "fusion_lat": 0.0, "lat": 38.90671583333334, "is_disabled": 0, "lon": -77.02707783333334, "is_reserved": 0}, {"bike_id": "f5f6ec2d0bfe5b7f6f31a219c81d7436", "fusion_lon": 0.0, "type": "electric_scooter", "name": "f5f6ec2d0bfe5b7f6f31a219c81d7436", "rental_uris": {"android": "https://dc.lft.to/lastmile_qr_scan", "ios": "https://dc.lft.to/lastmile_qr_scan"}, "fusion_lat": 0.0, "lat": 38.9283415, "is_disabled": 0, "lon": -77.02161433333333, "is_reserved": 0}, {"bike_id": "d70ea8a8b84099bf9a18c152a91868f2", "fusion_lon": 0.0, "type": "electric_scooter", "name": "d70ea8a8b84099bf9a18c152a91868f2", "rental_uris": {"android": "https://dc.lft.to/lastmile_qr_scan", "ios": "https://dc.lft.to/lastmile_qr_scan"}, "fusion_lat": 0.0, "lat": 38.909334666666666, "is_disabled": 0, "lon": -77.02816766666666, "is_reserved": 0}, {"bike_id": "7684de9c8d06ec5cd7fa4ae9c4a6ac14", "fusion_lon": 0.0, "type": "electric_scooter", "name": "7684de9c8d06ec5cd7fa4ae9c4a6ac14", "rental_uris": {"android": "https://dc.lft.to/lastmile_qr_scan", "ios": "https://dc.lft.to/lastmile_qr_scan"}, "fusion_lat": 0.0, "lat": 38.844724166666666, "is_disabled": 0, "lon": -76.99512016666667, "is_reserved": 0}, {"bike_id": "37a4bf21f588bca95e2ccd91b221c68f", "fusion_lon": 0.0, "type": "electric_bike", "name": "37a4bf21f588bca95e2ccd91b221c68f", "rental_uris": {"android": "https://dc.lft.to/lastmile_qr_scan", "ios": "https://dc.lft.to/lastmile_qr_scan"}, "fusion_lat": 0.0, "lat": 38.802968, "is_disabled": 0, "lon": -77.03991666666667, "is_reserved": 0}, {"bike_id": "6e50b05f06b8415ab33a070f0f93b2d2", "fusion_lon": 0.0, "type": "electric_scooter", "name": "6e50b05f06b8415ab33a070f0f93b2d2", "rental_uris": {"android": "https://dc.lft.to/lastmile_qr_scan", "ios": "https://dc.lft.to/lastmile_qr_scan"}, "fusion_lat": 0.0, "lat": 38.92919783333333, "is_disabled": 0, "lon": -77.03281216666667, "is_reserved": 0}, {"bike_id": "5b0e0f1522fe270436ecaf3469ef50a5", "fusion_lon": 0.0, "type": "electric_scooter", "name": "5b0e0f1522fe270436ecaf3469ef50a5", "rental_uris": {"android": "https://dc.lft.to/lastmile_qr_scan", "ios": "https://dc.lft.to/lastmile_qr_scan"}, "fusion_lat": 0.0, "lat": 38.9039495, "is_disabled": 0, "lon": -77.04037083333333, "is_reserved": 0}, {"bike_id": "00abbb43af6cb39ea1d2657ff8d8490f", "fusion_lon": 0.0, "type": "electric_bike", "name": "00abbb43af6cb39ea1d2657ff8d8490f", "rental_uris": {"android": "https://dc.lft.to/lastmile_qr_scan", "ios": "https://dc.lft.to/lastmile_qr_scan"}, "fusion_lat": 0.0, "lat": 38.866842, "is_disabled": 0, "lon": -76.98237216666666, "is_reserved": 0}, {"bike_id": "65e1590fe8c9c6c761ac2bf5c1f46293", "fusion_lon": 0.0, "type": "electric_scooter", "name": "65e1590fe8c9c6c761ac2bf5c1f46293", "rental_uris": {"android": "https://dc.lft.to/lastmile_qr_scan", "ios": "https://dc.lft.to/lastmile_qr_scan"}, "fusion_lat": 0.0, "lat": 38.90948, "is_disabled": 0, "lon": -76.9992825, "is_reserved": 0}, {"bike_id": "9a34b8defb8219efe06e2ce22e2ac6cc", "fusion_lon": 0.0, "type": "electric_scooter", "name": "9a34b8defb8219efe06e2ce22e2ac6cc", "rental_uris": {"android": "https://dc.lft.to/lastmile_qr_scan", "ios": "https://dc.lft.to/lastmile_qr_scan"}, "fusion_lat": 0.0, "lat": 38.91758733333333, "is_disabled": 0, "lon": -77.01604433333334, "is_reserved": 0}, {"bike_id": "8f8aece2236242b52fec7fa83728b567", "fusion_lon": 0.0, "type": "electric_scooter", "name": "8f8aece2236242b52fec7fa83728b567", "rental_uris": {"android": "https://dc.lft.to/lastmile_qr_scan", "ios": "https://dc.lft.to/lastmile_qr_scan"}, "fusion_lat": 0.0, "lat": 38.9205145, "is_disabled": 0, "lon": -77.041747, "is_reserved": 0}, {"bike_id": "1c585de6f66a89837f497e0ac9b3e5e3", "fusion_lon": 0.0, "type": "electric_scooter", "name": "1c585de6f66a89837f497e0ac9b3e5e3", "rental_uris": {"android": "https://dc.lft.to/lastmile_qr_scan", "ios": "https://dc.lft.to/lastmile_qr_scan"}, "fusion_lat": 0.0, "lat": 38.9066985, "is_disabled": 0, "lon": -77.07303666666667, "is_reserved": 0}, {"bike_id": "31e958f9e452832d9778f9b2314324ae", "fusion_lon": 0.0, "type": "electric_scooter", "name": "31e958f9e452832d9778f9b2314324ae", "rental_uris": {"android": "https://dc.lft.to/lastmile_qr_scan", "ios": "https://dc.lft.to/lastmile_qr_scan"}, "fusion_lat": 0.0, "lat": 38.91256683333334, "is_disabled": 0, "lon": -77.04091783333334, "is_reserved": 0}, {"bike_id": "0d17b758706d33f4f3fae2fe92a8fef2", "fusion_lon": 0.0, "type": "electric_scooter", "name": "0d17b758706d33f4f3fae2fe92a8fef2", "rental_uris": {"android": "https://dc.lft.to/lastmile_qr_scan", "ios": "https://dc.lft.to/lastmile_qr_scan"}, "fusion_lat": 0.0, "lat": 38.89823333333333, "is_disabled": 0, "lon": -76.946514, "is_reserved": 0}, {"bike_id": "3ff24cab61a2ca96ff68d42840c2a5e2", "fusion_lon": 0.0, "type": "electric_scooter", "name": "3ff24cab61a2ca96ff68d42840c2a5e2", "rental_uris": {"android": "https://dc.lft.to/lastmile_qr_scan", "ios": "https://dc.lft.to/lastmile_qr_scan"}, "fusion_lat": 0.0, "lat": 38.9184405, "is_disabled": 0, "lon": -77.02321966666666, "is_reserved": 0}, {"bike_id": "d366e014b3c816b7462f0eb077404df3", "fusion_lon": 0.0, "type": "electric_scooter", "name": "d366e014b3c816b7462f0eb077404df3", "rental_uris": {"android": "https://dc.lft.to/lastmile_qr_scan", "ios": "https://dc.lft.to/lastmile_qr_scan"}, "fusion_lat": 0.0, "lat": 38.9248765, "is_disabled": 0, "lon": -77.0214065, "is_reserved": 0}, {"bike_id": "169d509b2a4e02fbcc21a617086797d6", "fusion_lon": 0.0, "type": "electric_scooter", "name": "169d509b2a4e02fbcc21a617086797d6", "rental_uris": {"android": "https://dc.lft.to/lastmile_qr_scan", "ios": "https://dc.lft.to/lastmile_qr_scan"}, "fusion_lat": 0.0, "lat": 38.9068065, "is_disabled": 0, "lon": -77.0062165, "is_reserved": 0}, {"bike_id": "8931cfa9a01b07696908717fa6f1da78", "fusion_lon": 0.0, "type": "electric_scooter", "name": "8931cfa9a01b07696908717fa6f1da78", "rental_uris": {"android": "https://dc.lft.to/lastmile_qr_scan", "ios": "https://dc.lft.to/lastmile_qr_scan"}, "fusion_lat": 0.0, "lat": 38.90012483333334, "is_disabled": 0, "lon": -76.991275, "is_reserved": 0}, {"bike_id": "19fde81bf7522b39f6e3523a2d5b6030", "fusion_lon": 0.0, "type": "electric_scooter", "name": "19fde81bf7522b39f6e3523a2d5b6030", "rental_uris": {"android": "https://dc.lft.to/lastmile_qr_scan", "ios": "https://dc.lft.to/lastmile_qr_scan"}, "fusion_lat": 0.0, "lat": 38.93878933333333, "is_disabled": 0, "lon": -77.02478816666667, "is_reserved": 0}, {"bike_id": "9a85f1a7aeac81ac6d9c37dd8f469e59", "fusion_lon": 0.0, "type": "electric_scooter", "name": "9a85f1a7aeac81ac6d9c37dd8f469e59", "rental_uris": {"android": "https://dc.lft.to/lastmile_qr_scan", "ios": "https://dc.lft.to/lastmile_qr_scan"}, "fusion_lat": 0.0, "lat": 38.92774816666667, "is_disabled": 0, "lon": -77.03709783333333, "is_reserved": 0}, {"bike_id": "20ae0f0317d59f19a104b7512761ead0", "fusion_lon": 0.0, "type": "electric_scooter", "name": "20ae0f0317d59f19a104b7512761ead0", "rental_uris": {"android": "https://dc.lft.to/lastmile_qr_scan", "ios": "https://dc.lft.to/lastmile_qr_scan"}, "fusion_lat": 0.0, "lat": 38.92373933333333, "is_disabled": 0, "lon": -77.02802566666666, "is_reserved": 0}, {"bike_id": "56034c7aa6fe2ad5d1e2760f24f590f6", "fusion_lon": 0.0, "type": "electric_scooter", "name": "56034c7aa6fe2ad5d1e2760f24f590f6", "rental_uris": {"android": "https://dc.lft.to/lastmile_qr_scan", "ios": "https://dc.lft.to/lastmile_qr_scan"}, "fusion_lat": 0.0, "lat": 38.937569333333336, "is_disabled": 0, "lon": -77.0328255, "is_reserved": 0}, {"bike_id": "5faa8d423704d75f4aba812bb3b5e110", "fusion_lon": 0.0, "type": "electric_scooter", "name": "5faa8d423704d75f4aba812bb3b5e110", "rental_uris": {"android": "https://dc.lft.to/lastmile_qr_scan", "ios": "https://dc.lft.to/lastmile_qr_scan"}, "fusion_lat": 0.0, "lat": 38.898897166666664, "is_disabled": 0, "lon": -76.98572166666666, "is_reserved": 0}, {"bike_id": "ce1fecd454c5fccf31155a4e61184d7f", "fusion_lon": 0.0, "type": "electric_bike", "name": "ce1fecd454c5fccf31155a4e61184d7f", "rental_uris": {"android": "https://dc.lft.to/lastmile_qr_scan", "ios": "https://dc.lft.to/lastmile_qr_scan"}, "fusion_lat": 0.0, "lat": 38.9906185, "is_disabled": 0, "lon": -77.10029016666667, "is_reserved": 0}, {"bike_id": "52bb3e5afa7120448c91389645c0fba1", "fusion_lon": 0.0, "type": "electric_scooter", "name": "52bb3e5afa7120448c91389645c0fba1", "rental_uris": {"android": "https://dc.lft.to/lastmile_qr_scan", "ios": "https://dc.lft.to/lastmile_qr_scan"}, "fusion_lat": 0.0, "lat": 38.911925, "is_disabled": 0, "lon": -77.0181015, "is_reserved": 0}, {"bike_id": "dfa244ee13d0e2887f7683cdee906873", "fusion_lon": 0.0, "type": "electric_scooter", "name": "dfa244ee13d0e2887f7683cdee906873", "rental_uris": {"android": "https://dc.lft.to/lastmile_qr_scan", "ios": "https://dc.lft.to/lastmile_qr_scan"}, "fusion_lat": 0.0, "lat": 38.90689783333333, "is_disabled": 0, "lon": -77.0100075, "is_reserved": 0}, {"bike_id": "6309f9ec13b19c0198ee84604e40530c", "fusion_lon": 0.0, "type": "electric_scooter", "name": "6309f9ec13b19c0198ee84604e40530c", "rental_uris": {"android": "https://dc.lft.to/lastmile_qr_scan", "ios": "https://dc.lft.to/lastmile_qr_scan"}, "fusion_lat": 0.0, "lat": 38.91711516666667, "is_disabled": 0, "lon": -77.03898916666667, "is_reserved": 0}, {"bike_id": "2ecbf9d46f825efe7413c13a17f6e4d1", "fusion_lon": 0.0, "type": "electric_bike", "name": "2ecbf9d46f825efe7413c13a17f6e4d1", "rental_uris": {"android": "https://dc.lft.to/lastmile_qr_scan", "ios": "https://dc.lft.to/lastmile_qr_scan"}, "fusion_lat": 0.0, "lat": 38.87492233333333, "is_disabled": 0, "lon": -77.04900416666666, "is_reserved": 0}, {"bike_id": "3df0e41459577522a5e88448630c25e3", "fusion_lon": 0.0, "type": "electric_scooter", "name": "3df0e41459577522a5e88448630c25e3", "rental_uris": {"android": "https://dc.lft.to/lastmile_qr_scan", "ios": "https://dc.lft.to/lastmile_qr_scan"}, "fusion_lat": 0.0, "lat": 38.9327145, "is_disabled": 0, "lon": -77.0443345, "is_reserved": 0}, {"bike_id": "5584878da075fa894f08fb1869f05013", "fusion_lon": 0.0, "type": "electric_scooter", "name": "5584878da075fa894f08fb1869f05013", "rental_uris": {"android": "https://dc.lft.to/lastmile_qr_scan", "ios": "https://dc.lft.to/lastmile_qr_scan"}, "fusion_lat": 0.0, "lat": 38.944116, "is_disabled": 0, "lon": -77.05528016666666, "is_reserved": 0}, {"bike_id": "471e6bc4d3bb02fd99d37bbba8cfc606", "fusion_lon": 0.0, "type": "electric_scooter", "name": "471e6bc4d3bb02fd99d37bbba8cfc606", "rental_uris": {"android": "https://dc.lft.to/lastmile_qr_scan", "ios": "https://dc.lft.to/lastmile_qr_scan"}, "fusion_lat": 0.0, "lat": 38.8968675, "is_disabled": 0, "lon": -76.99269316666667, "is_reserved": 0}, {"bike_id": "bf6efb2f51efebcef1b54a4dbc0da7b3", "fusion_lon": 0.0, "type": "electric_scooter", "name": "bf6efb2f51efebcef1b54a4dbc0da7b3", "rental_uris": {"android": "https://dc.lft.to/lastmile_qr_scan", "ios": "https://dc.lft.to/lastmile_qr_scan"}, "fusion_lat": 0.0, "lat": 38.92686716666667, "is_disabled": 0, "lon": -77.03598083333333, "is_reserved": 0}, {"bike_id": "de72b4ecc64a201642929480ed9ec43f", "fusion_lon": 0.0, "type": "electric_scooter", "name": "de72b4ecc64a201642929480ed9ec43f", "rental_uris": {"android": "https://dc.lft.to/lastmile_qr_scan", "ios": "https://dc.lft.to/lastmile_qr_scan"}, "fusion_lat": 0.0, "lat": 38.89885783333333, "is_disabled": 0, "lon": -76.93172516666667, "is_reserved": 0}, {"bike_id": "746f1afdd34df04a3f52de6349e5f5f7", "fusion_lon": 0.0, "type": "electric_scooter", "name": "746f1afdd34df04a3f52de6349e5f5f7", "rental_uris": {"android": "https://dc.lft.to/lastmile_qr_scan", "ios": "https://dc.lft.to/lastmile_qr_scan"}, "fusion_lat": 0.0, "lat": 38.91821133333333, "is_disabled": 0, "lon": -77.03445416666666, "is_reserved": 0}, {"bike_id": "51b1cdd35b9f976cc79ca5ab56fb2b25", "fusion_lon": 0.0, "type": "electric_scooter", "name": "51b1cdd35b9f976cc79ca5ab56fb2b25", "rental_uris": {"android": "https://dc.lft.to/lastmile_qr_scan", "ios": "https://dc.lft.to/lastmile_qr_scan"}, "fusion_lat": 0.0, "lat": 38.917629833333336, "is_disabled": 0, "lon": -77.01455816666666, "is_reserved": 0}, {"bike_id": "27d0103b08dcb3a379466a19fe3e2711", "fusion_lon": 0.0, "type": "electric_scooter", "name": "27d0103b08dcb3a379466a19fe3e2711", "rental_uris": {"android": "https://dc.lft.to/lastmile_qr_scan", "ios": "https://dc.lft.to/lastmile_qr_scan"}, "fusion_lat": 0.0, "lat": 38.89484316666667, "is_disabled": 0, "lon": -76.9951715, "is_reserved": 0}, {"bike_id": "217d4b6cf5ff228f8072dda9a259eac1", "fusion_lon": 0.0, "type": "electric_scooter", "name": "217d4b6cf5ff228f8072dda9a259eac1", "rental_uris": {"android": "https://dc.lft.to/lastmile_qr_scan", "ios": "https://dc.lft.to/lastmile_qr_scan"}, "fusion_lat": 0.0, "lat": 38.92615933333333, "is_disabled": 0, "lon": -77.05298083333334, "is_reserved": 0}, {"bike_id": "943c9cabcf5b8dd7db462cc9c823a614", "fusion_lon": 0.0, "type": "electric_scooter", "name": "943c9cabcf5b8dd7db462cc9c823a614", "rental_uris": {"android": "https://dc.lft.to/lastmile_qr_scan", "ios": "https://dc.lft.to/lastmile_qr_scan"}, "fusion_lat": 0.0, "lat": 38.89739483333334, "is_disabled": 0, "lon": -77.00043383333333, "is_reserved": 0}, {"bike_id": "27b33a3638f9324d2cb34f31c2c7c659", "fusion_lon": 0.0, "type": "electric_scooter", "name": "27b33a3638f9324d2cb34f31c2c7c659", "rental_uris": {"android": "https://dc.lft.to/lastmile_qr_scan", "ios": "https://dc.lft.to/lastmile_qr_scan"}, "fusion_lat": 0.0, "lat": 38.88508266666667, "is_disabled": 0, "lon": -77.03352166666667, "is_reserved": 0}, {"bike_id": "2db99f9e02995e4d5a06c5bc142e9695", "fusion_lon": 0.0, "type": "electric_scooter", "name": "2db99f9e02995e4d5a06c5bc142e9695", "rental_uris": {"android": "https://dc.lft.to/lastmile_qr_scan", "ios": "https://dc.lft.to/lastmile_qr_scan"}, "fusion_lat": 0.0, "lat": 38.92163633333333, "is_disabled": 0, "lon": -77.03375766666667, "is_reserved": 0}, {"bike_id": "c5d14597346bebc0ed30016b3f29f5d4", "fusion_lon": 0.0, "type": "electric_scooter", "name": "c5d14597346bebc0ed30016b3f29f5d4", "rental_uris": {"android": "https://dc.lft.to/lastmile_qr_scan", "ios": "https://dc.lft.to/lastmile_qr_scan"}, "fusion_lat": 0.0, "lat": 38.93878266666667, "is_disabled": 0, "lon": -77.03282816666666, "is_reserved": 0}, {"bike_id": "8710f086822b83d01f53f70ac2b2a9e8", "fusion_lon": 0.0, "type": "electric_scooter", "name": "8710f086822b83d01f53f70ac2b2a9e8", "rental_uris": {"android": "https://dc.lft.to/lastmile_qr_scan", "ios": "https://dc.lft.to/lastmile_qr_scan"}, "fusion_lat": 0.0, "lat": 38.88303616666666, "is_disabled": 0, "lon": -76.94854116666667, "is_reserved": 0}, {"bike_id": "a38b0e73e06ccc42fae6d676a3ba34c6", "fusion_lon": 0.0, "type": "electric_scooter", "name": "a38b0e73e06ccc42fae6d676a3ba34c6", "rental_uris": {"android": "https://dc.lft.to/lastmile_qr_scan", "ios": "https://dc.lft.to/lastmile_qr_scan"}, "fusion_lat": 0.0, "lat": 38.8948435, "is_disabled": 0, "lon": -76.94842033333333, "is_reserved": 0}, {"bike_id": "eb4b1ac79ef495956b02c7bfb96bf302", "fusion_lon": 0.0, "type": "electric_scooter", "name": "eb4b1ac79ef495956b02c7bfb96bf302", "rental_uris": {"android": "https://dc.lft.to/lastmile_qr_scan", "ios": "https://dc.lft.to/lastmile_qr_scan"}, "fusion_lat": 0.0, "lat": 38.857621333333334, "is_disabled": 0, "lon": -76.993181, "is_reserved": 0}, {"bike_id": "9c7cb6e7c85899ccd9ab2d9659b6f4b3", "fusion_lon": 0.0, "type": "electric_scooter", "name": "9c7cb6e7c85899ccd9ab2d9659b6f4b3", "rental_uris": {"android": "https://dc.lft.to/lastmile_qr_scan", "ios": "https://dc.lft.to/lastmile_qr_scan"}, "fusion_lat": 0.0, "lat": 38.92125983333333, "is_disabled": 0, "lon": -77.04589916666667, "is_reserved": 0}, {"bike_id": "c5bb9caa6e18b5e3e4723b9a1fba4bd9", "fusion_lon": 0.0, "type": "electric_bike", "name": "c5bb9caa6e18b5e3e4723b9a1fba4bd9", "rental_uris": {"android": "https://dc.lft.to/lastmile_qr_scan", "ios": "https://dc.lft.to/lastmile_qr_scan"}, "fusion_lat": 0.0, "lat": 38.830402, "is_disabled": 0, "lon": -77.10897366666667, "is_reserved": 0}, {"bike_id": "7b41a749a6688e3e23bac9f37a4dc71e", "fusion_lon": 0.0, "type": "electric_scooter", "name": "7b41a749a6688e3e23bac9f37a4dc71e", "rental_uris": {"android": "https://dc.lft.to/lastmile_qr_scan", "ios": "https://dc.lft.to/lastmile_qr_scan"}, "fusion_lat": 0.0, "lat": 38.91545516666667, "is_disabled": 0, "lon": -77.0386575, "is_reserved": 0}, {"bike_id": "6898d4dbf01cd54bafd190bca0e2e901", "fusion_lon": 0.0, "type": "electric_scooter", "name": "6898d4dbf01cd54bafd190bca0e2e901", "rental_uris": {"android": "https://dc.lft.to/lastmile_qr_scan", "ios": "https://dc.lft.to/lastmile_qr_scan"}, "fusion_lat": 0.0, "lat": 38.9041075, "is_disabled": 0, "lon": -77.00136966666666, "is_reserved": 0}, {"bike_id": "62ebf5ebd9a8cf632700c03a27927451", "fusion_lon": 0.0, "type": "electric_bike", "name": "62ebf5ebd9a8cf632700c03a27927451", "rental_uris": {"android": "https://dc.lft.to/lastmile_qr_scan", "ios": "https://dc.lft.to/lastmile_qr_scan"}, "fusion_lat": 0.0, "lat": 38.92599833333333, "is_disabled": 0, "lon": -77.02427483333334, "is_reserved": 0}, {"bike_id": "bd7ff75627ea8ad6155bfdea20b5f932", "fusion_lon": 0.0, "type": "electric_scooter", "name": "bd7ff75627ea8ad6155bfdea20b5f932", "rental_uris": {"android": "https://dc.lft.to/lastmile_qr_scan", "ios": "https://dc.lft.to/lastmile_qr_scan"}, "fusion_lat": 0.0, "lat": 38.906513, "is_disabled": 0, "lon": -77.02953083333334, "is_reserved": 0}, {"bike_id": "d65069283ab77629f50725d8480578b6", "fusion_lon": 0.0, "type": "electric_bike", "name": "d65069283ab77629f50725d8480578b6", "rental_uris": {"android": "https://dc.lft.to/lastmile_qr_scan", "ios": "https://dc.lft.to/lastmile_qr_scan"}, "fusion_lat": 0.0, "lat": 38.891853, "is_disabled": 0, "lon": -76.95029433333333, "is_reserved": 0}, {"bike_id": "72866cb98a869900126ed12019bd570c", "fusion_lon": 0.0, "type": "electric_scooter", "name": "72866cb98a869900126ed12019bd570c", "rental_uris": {"android": "https://dc.lft.to/lastmile_qr_scan", "ios": "https://dc.lft.to/lastmile_qr_scan"}, "fusion_lat": 0.0, "lat": 38.9027135, "is_disabled": 0, "lon": -77.03455483333333, "is_reserved": 0}, {"bike_id": "6c7a7c47805dc31bade5c371f2c7ae7d", "fusion_lon": 0.0, "type": "electric_scooter", "name": "6c7a7c47805dc31bade5c371f2c7ae7d", "rental_uris": {"android": "https://dc.lft.to/lastmile_qr_scan", "ios": "https://dc.lft.to/lastmile_qr_scan"}, "fusion_lat": 0.0, "lat": 38.904807, "is_disabled": 0, "lon": -76.9733035, "is_reserved": 0}, {"bike_id": "ec0cc3f4dd53f93745d015263a460f16", "fusion_lon": 0.0, "type": "electric_bike", "name": "ec0cc3f4dd53f93745d015263a460f16", "rental_uris": {"android": "https://dc.lft.to/lastmile_qr_scan", "ios": "https://dc.lft.to/lastmile_qr_scan"}, "fusion_lat": 0.0, "lat": 38.9630575, "is_disabled": 0, "lon": -77.0110665, "is_reserved": 0}, {"bike_id": "533cc96349ad0f07e733a5d6ba3ed4f4", "fusion_lon": 0.0, "type": "electric_bike", "name": "533cc96349ad0f07e733a5d6ba3ed4f4", "rental_uris": {"android": "https://dc.lft.to/lastmile_qr_scan", "ios": "https://dc.lft.to/lastmile_qr_scan"}, "fusion_lat": 0.0, "lat": 38.93583783333333, "is_disabled": 0, "lon": -77.10681416666667, "is_reserved": 0}, {"bike_id": "53b81e66c8c4c396657ed426f9b6c325", "fusion_lon": 0.0, "type": "electric_scooter", "name": "53b81e66c8c4c396657ed426f9b6c325", "rental_uris": {"android": "https://dc.lft.to/lastmile_qr_scan", "ios": "https://dc.lft.to/lastmile_qr_scan"}, "fusion_lat": 0.0, "lat": 38.921256166666666, "is_disabled": 0, "lon": -77.01022716666667, "is_reserved": 0}, {"bike_id": "d3fb26906f479ff59073986fd49bcff3", "fusion_lon": 0.0, "type": "electric_scooter", "name": "d3fb26906f479ff59073986fd49bcff3", "rental_uris": {"android": "https://dc.lft.to/lastmile_qr_scan", "ios": "https://dc.lft.to/lastmile_qr_scan"}, "fusion_lat": 0.0, "lat": 38.9304135, "is_disabled": 0, "lon": -77.0321835, "is_reserved": 0}, {"bike_id": "7e433d04334f3b22c39b7ee7d2130675", "fusion_lon": 0.0, "type": "electric_scooter", "name": "7e433d04334f3b22c39b7ee7d2130675", "rental_uris": {"android": "https://dc.lft.to/lastmile_qr_scan", "ios": "https://dc.lft.to/lastmile_qr_scan"}, "fusion_lat": 0.0, "lat": 38.91413333333333, "is_disabled": 0, "lon": -77.03875316666667, "is_reserved": 0}, {"bike_id": "c96139c472f2c5283976d37d9d89ba92", "fusion_lon": 0.0, "type": "electric_scooter", "name": "c96139c472f2c5283976d37d9d89ba92", "rental_uris": {"android": "https://dc.lft.to/lastmile_qr_scan", "ios": "https://dc.lft.to/lastmile_qr_scan"}, "fusion_lat": 0.0, "lat": 38.90028816666667, "is_disabled": 0, "lon": -76.99117583333333, "is_reserved": 0}, {"bike_id": "6b0507c7e47e65768dfd0fbb1f36aba5", "fusion_lon": 0.0, "type": "electric_scooter", "name": "6b0507c7e47e65768dfd0fbb1f36aba5", "rental_uris": {"android": "https://dc.lft.to/lastmile_qr_scan", "ios": "https://dc.lft.to/lastmile_qr_scan"}, "fusion_lat": 0.0, "lat": 38.89437516666667, "is_disabled": 0, "lon": -76.979096, "is_reserved": 0}, {"bike_id": "50c03afbd195fe73166b7625bb5fdb06", "fusion_lon": 0.0, "type": "electric_scooter", "name": "50c03afbd195fe73166b7625bb5fdb06", "rental_uris": {"android": "https://dc.lft.to/lastmile_qr_scan", "ios": "https://dc.lft.to/lastmile_qr_scan"}, "fusion_lat": 0.0, "lat": 38.8933665, "is_disabled": 0, "lon": -77.04653316666666, "is_reserved": 0}, {"bike_id": "9fa12f2f8775ba48bfaed85cb5081f45", "fusion_lon": 0.0, "type": "electric_scooter", "name": "9fa12f2f8775ba48bfaed85cb5081f45", "rental_uris": {"android": "https://dc.lft.to/lastmile_qr_scan", "ios": "https://dc.lft.to/lastmile_qr_scan"}, "fusion_lat": 0.0, "lat": 38.90281483333333, "is_disabled": 0, "lon": -77.04520833333333, "is_reserved": 0}, {"bike_id": "68fc7927790dd1b17e0a231e03c0592b", "fusion_lon": 0.0, "type": "electric_scooter", "name": "68fc7927790dd1b17e0a231e03c0592b", "rental_uris": {"android": "https://dc.lft.to/lastmile_qr_scan", "ios": "https://dc.lft.to/lastmile_qr_scan"}, "fusion_lat": 0.0, "lat": 38.9183955, "is_disabled": 0, "lon": -77.03921816666667, "is_reserved": 0}, {"bike_id": "fd3afc56ad77559c2600babb8e166b1f", "fusion_lon": 0.0, "type": "electric_scooter", "name": "fd3afc56ad77559c2600babb8e166b1f", "rental_uris": {"android": "https://dc.lft.to/lastmile_qr_scan", "ios": "https://dc.lft.to/lastmile_qr_scan"}, "fusion_lat": 0.0, "lat": 38.904285333333334, "is_disabled": 0, "lon": -77.024113, "is_reserved": 0}, {"bike_id": "bbbf57495c586e6855e24686106e4878", "fusion_lon": 0.0, "type": "electric_scooter", "name": "bbbf57495c586e6855e24686106e4878", "rental_uris": {"android": "https://dc.lft.to/lastmile_qr_scan", "ios": "https://dc.lft.to/lastmile_qr_scan"}, "fusion_lat": 0.0, "lat": 38.918820833333335, "is_disabled": 0, "lon": -77.0363465, "is_reserved": 0}, {"bike_id": "68677aece6c8f736438ff47fe689e5b1", "fusion_lon": 0.0, "type": "electric_scooter", "name": "68677aece6c8f736438ff47fe689e5b1", "rental_uris": {"android": "https://dc.lft.to/lastmile_qr_scan", "ios": "https://dc.lft.to/lastmile_qr_scan"}, "fusion_lat": 0.0, "lat": 38.896201166666664, "is_disabled": 0, "lon": -76.956579, "is_reserved": 0}, {"bike_id": "6349b8c511ec83029bbd5aefb2bfb0a4", "fusion_lon": 0.0, "type": "electric_scooter", "name": "6349b8c511ec83029bbd5aefb2bfb0a4", "rental_uris": {"android": "https://dc.lft.to/lastmile_qr_scan", "ios": "https://dc.lft.to/lastmile_qr_scan"}, "fusion_lat": 0.0, "lat": 38.898242333333336, "is_disabled": 0, "lon": -76.94651366666666, "is_reserved": 0}, {"bike_id": "97e92bd1fcd01761117327453cde35fc", "fusion_lon": 0.0, "type": "electric_scooter", "name": "97e92bd1fcd01761117327453cde35fc", "rental_uris": {"android": "https://dc.lft.to/lastmile_qr_scan", "ios": "https://dc.lft.to/lastmile_qr_scan"}, "fusion_lat": 0.0, "lat": 38.91262016666667, "is_disabled": 0, "lon": -77.0387365, "is_reserved": 0}, {"bike_id": "ed7fb133e73bcc1351c2140822943371", "fusion_lon": 0.0, "type": "electric_scooter", "name": "ed7fb133e73bcc1351c2140822943371", "rental_uris": {"android": "https://dc.lft.to/lastmile_qr_scan", "ios": "https://dc.lft.to/lastmile_qr_scan"}, "fusion_lat": 0.0, "lat": 38.921852, "is_disabled": 0, "lon": -77.04010283333334, "is_reserved": 0}, {"bike_id": "744abc5a21db0648a6f647b4b31e6db8", "fusion_lon": 0.0, "type": "electric_scooter", "name": "744abc5a21db0648a6f647b4b31e6db8", "rental_uris": {"android": "https://dc.lft.to/lastmile_qr_scan", "ios": "https://dc.lft.to/lastmile_qr_scan"}, "fusion_lat": 0.0, "lat": 38.924659, "is_disabled": 0, "lon": -77.078248, "is_reserved": 0}, {"bike_id": "37e751342bc3a3ed9fb0b8cd9ecdfc3a", "fusion_lon": 0.0, "type": "electric_bike", "name": "37e751342bc3a3ed9fb0b8cd9ecdfc3a", "rental_uris": {"android": "https://dc.lft.to/lastmile_qr_scan", "ios": "https://dc.lft.to/lastmile_qr_scan"}, "fusion_lat": 0.0, "lat": 38.95742766666667, "is_disabled": 0, "lon": -76.97250433333333, "is_reserved": 0}, {"bike_id": "6706e3cad713f0304a0dbcd53a92f2d1", "fusion_lon": 0.0, "type": "electric_scooter", "name": "6706e3cad713f0304a0dbcd53a92f2d1", "rental_uris": {"android": "https://dc.lft.to/lastmile_qr_scan", "ios": "https://dc.lft.to/lastmile_qr_scan"}, "fusion_lat": 0.0, "lat": 38.897507166666664, "is_disabled": 0, "lon": -77.0333795, "is_reserved": 0}, {"bike_id": "679ff1a6189ef2308ce62f76cef4fc44", "fusion_lon": 0.0, "type": "electric_scooter", "name": "679ff1a6189ef2308ce62f76cef4fc44", "rental_uris": {"android": "https://dc.lft.to/lastmile_qr_scan", "ios": "https://dc.lft.to/lastmile_qr_scan"}, "fusion_lat": 0.0, "lat": 38.9084955, "is_disabled": 0, "lon": -77.02593283333333, "is_reserved": 0}, {"bike_id": "ee71ef980659c1d074038df881b90ce7", "fusion_lon": 0.0, "type": "electric_scooter", "name": "ee71ef980659c1d074038df881b90ce7", "rental_uris": {"android": "https://dc.lft.to/lastmile_qr_scan", "ios": "https://dc.lft.to/lastmile_qr_scan"}, "fusion_lat": 0.0, "lat": 38.857184333333336, "is_disabled": 0, "lon": -76.97119033333334, "is_reserved": 0}, {"bike_id": "ec646fd73014a1f651e8e4983e8874e1", "fusion_lon": 0.0, "type": "electric_scooter", "name": "ec646fd73014a1f651e8e4983e8874e1", "rental_uris": {"android": "https://dc.lft.to/lastmile_qr_scan", "ios": "https://dc.lft.to/lastmile_qr_scan"}, "fusion_lat": 0.0, "lat": 38.91181516666666, "is_disabled": 0, "lon": -77.00237783333333, "is_reserved": 0}, {"bike_id": "46a4d521b584b28a3e64b4de2345e2da", "fusion_lon": 0.0, "type": "electric_scooter", "name": "46a4d521b584b28a3e64b4de2345e2da", "rental_uris": {"android": "https://dc.lft.to/lastmile_qr_scan", "ios": "https://dc.lft.to/lastmile_qr_scan"}, "fusion_lat": 0.0, "lat": 38.931095166666665, "is_disabled": 0, "lon": -77.03821866666667, "is_reserved": 0}, {"bike_id": "b5279095eb8a95b9ff2704eb462c8b32", "fusion_lon": 0.0, "type": "electric_scooter", "name": "b5279095eb8a95b9ff2704eb462c8b32", "rental_uris": {"android": "https://dc.lft.to/lastmile_qr_scan", "ios": "https://dc.lft.to/lastmile_qr_scan"}, "fusion_lat": 0.0, "lat": 38.9078185, "is_disabled": 0, "lon": -77.04509216666666, "is_reserved": 0}, {"bike_id": "91d1caaf90a4de72f2e68efda4e20c42", "fusion_lon": 0.0, "type": "electric_scooter", "name": "91d1caaf90a4de72f2e68efda4e20c42", "rental_uris": {"android": "https://dc.lft.to/lastmile_qr_scan", "ios": "https://dc.lft.to/lastmile_qr_scan"}, "fusion_lat": 0.0, "lat": 38.91779366666667, "is_disabled": 0, "lon": -77.04251666666667, "is_reserved": 0}, {"bike_id": "60b303bfeab791abaafe316452031279", "fusion_lon": 0.0, "type": "electric_bike", "name": "60b303bfeab791abaafe316452031279", "rental_uris": {"android": "https://dc.lft.to/lastmile_qr_scan", "ios": "https://dc.lft.to/lastmile_qr_scan"}, "fusion_lat": 0.0, "lat": 38.91176316666667, "is_disabled": 0, "lon": -77.00205066666666, "is_reserved": 0}, {"bike_id": "42ba2c1389eb41431a6dc02048a5ba74", "fusion_lon": 0.0, "type": "electric_scooter", "name": "42ba2c1389eb41431a6dc02048a5ba74", "rental_uris": {"android": "https://dc.lft.to/lastmile_qr_scan", "ios": "https://dc.lft.to/lastmile_qr_scan"}, "fusion_lat": 0.0, "lat": 38.85972916666667, "is_disabled": 0, "lon": -76.98412033333334, "is_reserved": 0}, {"bike_id": "6cf30453fdb0090eab65ec801c62bbb1", "fusion_lon": 0.0, "type": "electric_bike", "name": "6cf30453fdb0090eab65ec801c62bbb1", "rental_uris": {"android": "https://dc.lft.to/lastmile_qr_scan", "ios": "https://dc.lft.to/lastmile_qr_scan"}, "fusion_lat": 0.0, "lat": 38.841005, "is_disabled": 0, "lon": -77.08946366666666, "is_reserved": 0}, {"bike_id": "43ec284ffaefaef34343d9b13d1187dc", "fusion_lon": 0.0, "type": "electric_scooter", "name": "43ec284ffaefaef34343d9b13d1187dc", "rental_uris": {"android": "https://dc.lft.to/lastmile_qr_scan", "ios": "https://dc.lft.to/lastmile_qr_scan"}, "fusion_lat": 0.0, "lat": 38.90034633333333, "is_disabled": 0, "lon": -77.03081333333333, "is_reserved": 0}, {"bike_id": "2acd786c1ff339e647f3e318a444a92d", "fusion_lon": 0.0, "type": "electric_scooter", "name": "2acd786c1ff339e647f3e318a444a92d", "rental_uris": {"android": "https://dc.lft.to/lastmile_qr_scan", "ios": "https://dc.lft.to/lastmile_qr_scan"}, "fusion_lat": 0.0, "lat": 38.899329, "is_disabled": 0, "lon": -77.055142, "is_reserved": 0}, {"bike_id": "3e8e91be51ca0503621e988ba2812d83", "fusion_lon": 0.0, "type": "electric_scooter", "name": "3e8e91be51ca0503621e988ba2812d83", "rental_uris": {"android": "https://dc.lft.to/lastmile_qr_scan", "ios": "https://dc.lft.to/lastmile_qr_scan"}, "fusion_lat": 0.0, "lat": 38.928233666666664, "is_disabled": 0, "lon": -77.02157233333334, "is_reserved": 0}, {"bike_id": "c7ad4e6836214cb0cbccd341b819a789", "fusion_lon": 0.0, "type": "electric_scooter", "name": "c7ad4e6836214cb0cbccd341b819a789", "rental_uris": {"android": "https://dc.lft.to/lastmile_qr_scan", "ios": "https://dc.lft.to/lastmile_qr_scan"}, "fusion_lat": 0.0, "lat": 38.88867066666667, "is_disabled": 0, "lon": -76.99601366666667, "is_reserved": 0}, {"bike_id": "837bb67ea6a75f576bdb23345fd51874", "fusion_lon": 0.0, "type": "electric_bike", "name": "837bb67ea6a75f576bdb23345fd51874", "rental_uris": {"android": "https://dc.lft.to/lastmile_qr_scan", "ios": "https://dc.lft.to/lastmile_qr_scan"}, "fusion_lat": 0.0, "lat": 38.928472, "is_disabled": 0, "lon": -77.105066, "is_reserved": 0}, {"bike_id": "e7ba601718f749f4cca8fd08e7f82696", "fusion_lon": 0.0, "type": "electric_scooter", "name": "e7ba601718f749f4cca8fd08e7f82696", "rental_uris": {"android": "https://dc.lft.to/lastmile_qr_scan", "ios": "https://dc.lft.to/lastmile_qr_scan"}, "fusion_lat": 0.0, "lat": 38.94285883333333, "is_disabled": 0, "lon": -77.02763533333334, "is_reserved": 0}, {"bike_id": "6ef5c85b3390f06f5232e4079dc3fa24", "fusion_lon": 0.0, "type": "electric_scooter", "name": "6ef5c85b3390f06f5232e4079dc3fa24", "rental_uris": {"android": "https://dc.lft.to/lastmile_qr_scan", "ios": "https://dc.lft.to/lastmile_qr_scan"}, "fusion_lat": 0.0, "lat": 38.889883833333336, "is_disabled": 0, "lon": -76.92402566666667, "is_reserved": 0}, {"bike_id": "c3e069b762efc83e711ec2f5acc1c19f", "fusion_lon": 0.0, "type": "electric_scooter", "name": "c3e069b762efc83e711ec2f5acc1c19f", "rental_uris": {"android": "https://dc.lft.to/lastmile_qr_scan", "ios": "https://dc.lft.to/lastmile_qr_scan"}, "fusion_lat": 0.0, "lat": 38.90784883333333, "is_disabled": 0, "lon": -77.04512533333333, "is_reserved": 0}, {"bike_id": "4f082bc9e8e86fff92e6481f5f753078", "fusion_lon": 0.0, "type": "electric_scooter", "name": "4f082bc9e8e86fff92e6481f5f753078", "rental_uris": {"android": "https://dc.lft.to/lastmile_qr_scan", "ios": "https://dc.lft.to/lastmile_qr_scan"}, "fusion_lat": 0.0, "lat": 38.906735166666664, "is_disabled": 0, "lon": -77.06292983333333, "is_reserved": 0}, {"bike_id": "62abfc15dec344542e910c8f85ca7ac7", "fusion_lon": 0.0, "type": "electric_scooter", "name": "62abfc15dec344542e910c8f85ca7ac7", "rental_uris": {"android": "https://dc.lft.to/lastmile_qr_scan", "ios": "https://dc.lft.to/lastmile_qr_scan"}, "fusion_lat": 0.0, "lat": 38.8933565, "is_disabled": 0, "lon": -77.02949483333333, "is_reserved": 0}, {"bike_id": "9da57c52bccd383c84026e312d7ec69e", "fusion_lon": 0.0, "type": "electric_scooter", "name": "9da57c52bccd383c84026e312d7ec69e", "rental_uris": {"android": "https://dc.lft.to/lastmile_qr_scan", "ios": "https://dc.lft.to/lastmile_qr_scan"}, "fusion_lat": 0.0, "lat": 38.91013616666667, "is_disabled": 0, "lon": -77.022063, "is_reserved": 0}, {"bike_id": "6ac42f24233ca67d33af419f8ddf86a3", "fusion_lon": 0.0, "type": "electric_scooter", "name": "6ac42f24233ca67d33af419f8ddf86a3", "rental_uris": {"android": "https://dc.lft.to/lastmile_qr_scan", "ios": "https://dc.lft.to/lastmile_qr_scan"}, "fusion_lat": 0.0, "lat": 38.91017433333333, "is_disabled": 0, "lon": -77.00920033333334, "is_reserved": 0}, {"bike_id": "5dfa9efc2727cf98776be4be71ed1e85", "fusion_lon": 0.0, "type": "electric_scooter", "name": "5dfa9efc2727cf98776be4be71ed1e85", "rental_uris": {"android": "https://dc.lft.to/lastmile_qr_scan", "ios": "https://dc.lft.to/lastmile_qr_scan"}, "fusion_lat": 0.0, "lat": 38.892493333333334, "is_disabled": 0, "lon": -77.0217795, "is_reserved": 0}, {"bike_id": "92cb5181b8d4ce2d46c6f5585db6ac61", "fusion_lon": 0.0, "type": "electric_scooter", "name": "92cb5181b8d4ce2d46c6f5585db6ac61", "rental_uris": {"android": "https://dc.lft.to/lastmile_qr_scan", "ios": "https://dc.lft.to/lastmile_qr_scan"}, "fusion_lat": 0.0, "lat": 38.879196, "is_disabled": 0, "lon": -76.99163766666666, "is_reserved": 0}, {"bike_id": "75ed095dbd51257e0d96691310517daa", "fusion_lon": 0.0, "type": "electric_scooter", "name": "75ed095dbd51257e0d96691310517daa", "rental_uris": {"android": "https://dc.lft.to/lastmile_qr_scan", "ios": "https://dc.lft.to/lastmile_qr_scan"}, "fusion_lat": 0.0, "lat": 38.86512916666667, "is_disabled": 0, "lon": -76.97348933333333, "is_reserved": 0}, {"bike_id": "3eb13b4c27f25ec2b1ed2d09b3a0d391", "fusion_lon": 0.0, "type": "electric_scooter", "name": "3eb13b4c27f25ec2b1ed2d09b3a0d391", "rental_uris": {"android": "https://dc.lft.to/lastmile_qr_scan", "ios": "https://dc.lft.to/lastmile_qr_scan"}, "fusion_lat": 0.0, "lat": 38.90624483333333, "is_disabled": 0, "lon": -77.076615, "is_reserved": 0}, {"bike_id": "07fad4c06aad4e173c014583bb35fcc4", "fusion_lon": 0.0, "type": "electric_scooter", "name": "07fad4c06aad4e173c014583bb35fcc4", "rental_uris": {"android": "https://dc.lft.to/lastmile_qr_scan", "ios": "https://dc.lft.to/lastmile_qr_scan"}, "fusion_lat": 0.0, "lat": 38.911088666666664, "is_disabled": 0, "lon": -77.04232966666666, "is_reserved": 0}, {"bike_id": "2e6d4e98b75bdb276bf9a5e01cb0cd4f", "fusion_lon": 0.0, "type": "electric_scooter", "name": "2e6d4e98b75bdb276bf9a5e01cb0cd4f", "rental_uris": {"android": "https://dc.lft.to/lastmile_qr_scan", "ios": "https://dc.lft.to/lastmile_qr_scan"}, "fusion_lat": 0.0, "lat": 38.9112425, "is_disabled": 0, "lon": -77.02197, "is_reserved": 0}, {"bike_id": "748ab355da54127421384f2d30c21a51", "fusion_lon": 0.0, "type": "electric_scooter", "name": "748ab355da54127421384f2d30c21a51", "rental_uris": {"android": "https://dc.lft.to/lastmile_qr_scan", "ios": "https://dc.lft.to/lastmile_qr_scan"}, "fusion_lat": 0.0, "lat": 38.893839166666666, "is_disabled": 0, "lon": -77.03182783333334, "is_reserved": 0}, {"bike_id": "4a39cd0aba7f5e5a174667cb64bd23e9", "fusion_lon": 0.0, "type": "electric_scooter", "name": "4a39cd0aba7f5e5a174667cb64bd23e9", "rental_uris": {"android": "https://dc.lft.to/lastmile_qr_scan", "ios": "https://dc.lft.to/lastmile_qr_scan"}, "fusion_lat": 0.0, "lat": 38.916902666666665, "is_disabled": 0, "lon": -77.02198083333333, "is_reserved": 0}, {"bike_id": "a343561fe51aafd6395a182fc6c21725", "fusion_lon": 0.0, "type": "electric_scooter", "name": "a343561fe51aafd6395a182fc6c21725", "rental_uris": {"android": "https://dc.lft.to/lastmile_qr_scan", "ios": "https://dc.lft.to/lastmile_qr_scan"}, "fusion_lat": 0.0, "lat": 38.904061166666665, "is_disabled": 0, "lon": -76.9905985, "is_reserved": 0}, {"bike_id": "92002c1c4473b9f372c0e68bb9fd8373", "fusion_lon": 0.0, "type": "electric_scooter", "name": "92002c1c4473b9f372c0e68bb9fd8373", "rental_uris": {"android": "https://dc.lft.to/lastmile_qr_scan", "ios": "https://dc.lft.to/lastmile_qr_scan"}, "fusion_lat": 0.0, "lat": 38.93074166666667, "is_disabled": 0, "lon": -77.032588, "is_reserved": 0}, {"bike_id": "87398155783a98bd9e9d71ca87321587", "fusion_lon": 0.0, "type": "electric_scooter", "name": "87398155783a98bd9e9d71ca87321587", "rental_uris": {"android": "https://dc.lft.to/lastmile_qr_scan", "ios": "https://dc.lft.to/lastmile_qr_scan"}, "fusion_lat": 0.0, "lat": 38.8905315, "is_disabled": 0, "lon": -76.95511083333334, "is_reserved": 0}, {"bike_id": "616811c300fe3f27c3bae7b850bee1f0", "fusion_lon": 0.0, "type": "electric_bike", "name": "616811c300fe3f27c3bae7b850bee1f0", "rental_uris": {"android": "https://dc.lft.to/lastmile_qr_scan", "ios": "https://dc.lft.to/lastmile_qr_scan"}, "fusion_lat": 0.0, "lat": 38.89476333333333, "is_disabled": 0, "lon": -77.00380366666667, "is_reserved": 0}, {"bike_id": "5cb6688a4ff51c251b549832cb2548ba", "fusion_lon": 0.0, "type": "electric_scooter", "name": "5cb6688a4ff51c251b549832cb2548ba", "rental_uris": {"android": "https://dc.lft.to/lastmile_qr_scan", "ios": "https://dc.lft.to/lastmile_qr_scan"}, "fusion_lat": 0.0, "lat": 38.89197466666667, "is_disabled": 0, "lon": -76.98124883333334, "is_reserved": 0}, {"bike_id": "665c0c061bd699447cfc29cc9f16be0d", "fusion_lon": 0.0, "type": "electric_scooter", "name": "665c0c061bd699447cfc29cc9f16be0d", "rental_uris": {"android": "https://dc.lft.to/lastmile_qr_scan", "ios": "https://dc.lft.to/lastmile_qr_scan"}, "fusion_lat": 0.0, "lat": 38.921622166666666, "is_disabled": 0, "lon": -77.0336325, "is_reserved": 0}, {"bike_id": "119216b3470c6b639e39fb08b1896a76", "fusion_lon": 0.0, "type": "electric_scooter", "name": "119216b3470c6b639e39fb08b1896a76", "rental_uris": {"android": "https://dc.lft.to/lastmile_qr_scan", "ios": "https://dc.lft.to/lastmile_qr_scan"}, "fusion_lat": 0.0, "lat": 38.937924333333335, "is_disabled": 0, "lon": -77.03284633333334, "is_reserved": 0}, {"bike_id": "293249696ab6dd88969df8f70847d1eb", "fusion_lon": 0.0, "type": "electric_bike", "name": "293249696ab6dd88969df8f70847d1eb", "rental_uris": {"android": "https://dc.lft.to/lastmile_qr_scan", "ios": "https://dc.lft.to/lastmile_qr_scan"}, "fusion_lat": 0.0, "lat": 38.956144333333334, "is_disabled": 0, "lon": -76.93889033333333, "is_reserved": 0},