{"data": {"bikes": [{"rental_uris": {"android": "https://dc.lft.to/lastmile_qr_scan", "ios": "https://dc.lft.to/lastmile_qr_scan"}, "fusion_lat": 0.0, "is_reserved": 0, "lat": 38.91991383333333, "name": "93a996aefd6da9ae9aa4e2730c1751f8", "bike_id": "93a996aefd6da9ae9aa4e2730c1751f8", "is_disabled": 0, "fusion_lon": 0.0, "type": "electric_scooter", "lon": -77.021806}, {"rental_uris": {"android": "https://dc.lft.to/lastmile_qr_scan", "ios": "https://dc.lft.to/lastmile_qr_scan"}, "fusion_lat": 0.0, "is_reserved": 0, "lat": 38.9033865, "name": "52198fb8fcd65475c7c74b9e7911173a", "bike_id": "52198fb8fcd65475c7c74b9e7911173a", "is_disabled": 0, "fusion_lon": 0.0, "type": "electric_scooter", "lon": -76.9823025}, {"rental_uris": {"android": "https://dc.lft.to/lastmile_qr_scan", "ios": "https://dc.lft.to/lastmile_qr_scan"}, "fusion_lat": 0.0, "is_reserved": 0, "lat": 38.8662395, "name": "890552af9696d220007ebe0eae956f42", "bike_id": "890552af9696d220007ebe0eae956f42", "is_disabled": 0, "fusion_lon": 0.0, "type": "electric_bike", "lon": -76.94567966666666}, {"rental_uris": {"android": "https://dc.lft.to/lastmile_qr_scan", "ios": "https://dc.lft.to/lastmile_qr_scan"}, "fusion_lat": 0.0, "is_reserved": 0, "lat": 38.889912833333334, "name": "ac096d34e1ab2ae31609a400348f00d5", "bike_id": "ac096d34e1ab2ae31609a400348f00d5", "is_disabled": 0, "fusion_lon": 0.0, "type": "electric_scooter", "lon": -76.9924725}, {"rental_uris": {"android": "https://dc.lft.to/lastmile_qr_scan", "ios": "https://dc.lft.to/lastmile_qr_scan"}, "fusion_lat": 0.0, "is_reserved": 0, "lat": 38.90492883333334, "name": "c38e8c4c5858e4d990adfca362965176", "bike_id": "c38e8c4c5858e4d990adfca362965176", "is_disabled": 0, "fusion_lon": 0.0, "type": "electric_scooter", "lon": -76.9773645}, {"rental_uris": {"android": "https://dc.lft.to/lastmile_qr_scan", "ios": "https://dc.lft.to/lastmile_qr_scan"}, "fusion_lat": 0.0, "is_reserved": 0, "lat": 38.959150666666666, "name": "f0a7a700637fa49b9f50a4581c03fad3", "bike_id": "f0a7a700637fa49b9f50a4581c03fad3", "is_disabled": 0, "fusion_lon": 0.0, "type": "electric_scooter", "lon": -77.000202}, {"rental_uris": {"android": "https://dc.lft.to/lastmile_qr_scan", "ios": "https://dc.lft.to/lastmile_qr_scan"}, "fusion_lat": 0.0, "is_reserved": 0, "lat": 38.879918, "name": "0c7d1dbfe097f6239910bc8c49e6fd48", "bike_id": "0c7d1dbfe097f6239910bc8c49e6fd48", "is_disabled": 0, "fusion_lon": 0.0, "type": "electric_scooter", "lon": -76.98396733333334}, {"rental_uris": {"android": "https://dc.lft.to/lastmile_qr_scan", "ios": "https://dc.lft.to/lastmile_qr_scan"}, "fusion_lat": 0.0, "is_reserved": 0, "lat": 38.91561083333333, "name": "f9a4b7e3e5b4b1088d6c1a8c994e7588", "bike_id": "f9a4b7e3e5b4b1088d6c1a8c994e7588", "is_disabled": 0, "fusion_lon": 0.0, "type": "electric_scooter", "lon": -77.04876883333333}, {"rental_uris": {"android": "https://dc.lft.to/lastmile_qr_scan", "ios": "https://dc.lft.to/lastmile_qr_scan"}, "fusion_lat": 0.0, "is_reserved": 0, "lat": 38.940819166666664, "name": "50f6aa7d150b08c7d89c2ce89558abac", "bike_id": "50f6aa7d150b08c7d89c2ce89558abac", "is_disabled": 0, "fusion_lon": 0.0, "type": "electric_scooter", "lon": -77.0617175}, {"rental_uris": {"android": "https://dc.lft.to/lastmile_qr_scan", "ios": "https://dc.lft.to/lastmile_qr_scan"}, "fusion_lat": 0.0, "is_reserved": 0, "lat": 38.89470266666667, "name": "bff7ca119071d6bf954b6f872e0b67b1", "bike_id": "bff7ca119071d6bf954b6f872e0b67b1", "is_disabled": 0, "fusion_lon": 0.0, "type": "electric_scooter", "lon": -76.9971165}, {"rental_uris": {"android": "https://dc.lft.to/lastmile_qr_scan", "ios": "https://dc.lft.to/lastmile_qr_scan"}, "fusion_lat": 0.0, "is_reserved": 0, "lat": 38.90263366666667, "name": "5dd8d84018c63ea775cfc9e25a6ff131", "bike_id": "5dd8d84018c63ea775cfc9e25a6ff131", "is_disabled": 0, "fusion_lon": 0.0, "type": "electric_scooter", "lon": -77.0154505}, {"rental_uris": {"android": "https://dc.lft.to/lastmile_qr_scan", "ios": "https://dc.lft.to/lastmile_qr_scan"}, "fusion_lat": 0.0, "is_reserved": 0, "lat": 38.930676, "name": "54e1533dcabe721a5c8d8a0aecab73df", "bike_id": "54e1533dcabe721a5c8d8a0aecab73df", "is_disabled": 0, "fusion_lon": 0.0, "type": "electric_scooter", "lon": -77.03724766666667}, {"rental_uris": {"android": "https://dc.lft.to/lastmile_qr_scan", "ios": "https://dc.lft.to/lastmile_qr_scan"}, "fusion_lat": 0.0, "is_reserved": 0, "lat": 38.9038975, "name": "bc241c7ec855eef20a504171e560026d", "bike_id": "bc241c7ec855eef20a504171e560026d", "is_disabled": 0, "fusion_lon": 0.0, "type": "electric_scooter", "lon": -77.0685035}, {"rental_uris": {"android": "https://dc.lft.to/lastmile_qr_scan", "ios": "https://dc.lft.to/lastmile_qr_scan"}, "fusion_lat": 0.0, "is_reserved": 0, "lat": 38.926489833333335, "name": "1f09b37400687ca7db3470b4877274b4", "bike_id": "1f09b37400687ca7db3470b4877274b4", "is_disabled": 0, "fusion_lon": 0.0, "type": "electric_scooter", "lon": -76.997462}, {"rental_uris": {"android": "https://dc.lft.to/lastmile_qr_scan", "ios": "https://dc.lft.to/lastmile_qr_scan"}, "fusion_lat": 0.0, "is_reserved": 0, "lat": 38.89808566666667, "name": "d29025a3f3f3f53d3716acb7642d6085", "bike_id": "d29025a3f3f3f53d3716acb7642d6085", "is_disabled": 0, "fusion_lon": 0.0, "type": "electric_scooter", "lon": -77.032339}, {"rental_uris": {"android": "https://dc.lft.to/lastmile_qr_scan", "ios": "https://dc.lft.to/lastmile_qr_scan"}, "fusion_lat": 0.0, "is_reserved": 0, "lat": 38.92513366666667, "name": "7d8e60ac4123fc8dc86a5e9106398086", "bike_id": "7d8e60ac4123fc8dc86a5e9106398086", "is_disabled": 0, "fusion_lon": 0.0, "type": "electric_scooter", "lon": -77.02142466666666}, {"rental_uris": {"android": "https://dc.lft.to/lastmile_qr_scan", "ios": "https://dc.lft.to/lastmile_qr_scan"}, "fusion_lat": 0.0, "is_reserved": 0, "lat": 38.91706283333333, "name": "af0c1ca3099bea3b5538d6706d0ed2fe", "bike_id": "af0c1ca3099bea3b5538d6706d0ed2fe", "is_disabled": 0, "fusion_lon": 0.0, "type": "electric_scooter", "lon": -77.03866066666667}, {"rental_uris": {"android": "https://dc.lft.to/lastmile_qr_scan", "ios": "https://dc.lft.to/lastmile_qr_scan"}, "fusion_lat": 0.0, "is_reserved": 0, "lat": 38.900382, "name": "b451a667df86e6b59200ea2091c0f500", "bike_id": "b451a667df86e6b59200ea2091c0f500", "is_disabled": 0, "fusion_lon": 0.0, "type": "electric_scooter", "lon": -76.98828283333333}, {"rental_uris": {"android": "https://dc.lft.to/lastmile_qr_scan", "ios": "https://dc.lft.to/lastmile_qr_scan"}, "fusion_lat": 0.0, "is_reserved": 0, "lat": 38.918067, "name": "d5a12f004adfc7f26f168aafe5f73a87", "bike_id": "d5a12f004adfc7f26f168aafe5f73a87", "is_disabled": 0, "fusion_lon": 0.0, "type": "electric_scooter", "lon": -77.02885133333334}, {"rental_uris": {"android": "https://dc.lft.to/lastmile_qr_scan", "ios": "https://dc.lft.to/lastmile_qr_scan"}, "fusion_lat": 0.0, "is_reserved": 0, "lat": 38.895615, "name": "dd46c8c74d8614b7fc96db5073aed8f9", "bike_id": "dd46c8c74d8614b7fc96db5073aed8f9", "is_disabled": 0, "fusion_lon": 0.0, "type": "electric_scooter", "lon": -77.01103833333333}, {"rental_uris": {"android": "https://dc.lft.to/lastmile_qr_scan", "ios": "https://dc.lft.to/lastmile_qr_scan"}, "fusion_lat": 0.0, "is_reserved": 0, "lat": 38.91973616666667, "name": "5c4a4a149a86a7769d5fe660a0bd9a3b", "bike_id": "5c4a4a149a86a7769d5fe660a0bd9a3b", "is_disabled": 0, "fusion_lon": 0.0, "type": "electric_scooter", "lon": -77.0709125}, {"rental_uris": {"android": "https://dc.lft.to/lastmile_qr_scan", "ios": "https://dc.lft.to/lastmile_qr_scan"}, "fusion_lat": 0.0, "is_reserved": 0, "lat": 38.908996, "name": "ec07fc6ad58b6f556cc326be85d50a17", "bike_id": "ec07fc6ad58b6f556cc326be85d50a17", "is_disabled": 0, "fusion_lon": 0.0, "type": "electric_scooter", "lon": -77.04404616666666}, {"rental_uris": {"android": "https://dc.lft.to/lastmile_qr_scan", "ios": "https://dc.lft.to/lastmile_qr_scan"}, "fusion_lat": 0.0, "is_reserved": 0, "lat": 38.900507, "name": "12c92244089b3a61ac31a1113fba56f3", "bike_id": "12c92244089b3a61ac31a1113fba56f3", "is_disabled": 0, "fusion_lon": 0.0, "type": "electric_scooter", "lon": -77.02929183333333}, {"rental_uris": {"android": "https://dc.lft.to/lastmile_qr_scan", "ios": "https://dc.lft.to/lastmile_qr_scan"}, "fusion_lat": 0.0, "is_reserved": 0, "lat": 38.89498916666667, "name": "a64e946685513c5a91987993b469859b", "bike_id": "a64e946685513c5a91987993b469859b", "is_disabled": 0, "fusion_lon": 0.0, "type": "electric_scooter", "lon": -77.04630883333333}, {"rental_uris": {"android": "https://dc.lft.to/lastmile_qr_scan", "ios": "https://dc.lft.to/lastmile_qr_scan"}, "fusion_lat": 0.0, "is_reserved": 0, "lat": 38.90609533333333, "name": "69cb42a6e0d53ed324756efd3fcaf597", "bike_id": "69cb42a6e0d53ed324756efd3fcaf597", "is_disabled": 0, "fusion_lon": 0.0, "type": "electric_scooter", "lon": -77.00697983333333}, {"rental_uris": {"android": "https://dc.lft.to/lastmile_qr_scan", "ios": "https://dc.lft.to/lastmile_qr_scan"}, "fusion_lat": 0.0, "is_reserved": 0, "lat": 38.90827133333333, "name": "a2e6d83719e309ed330e0bcccbfd9b04", "bike_id": "a2e6d83719e309ed330e0bcccbfd9b04", "is_disabled": 0, "fusion_lon": 0.0, "type": "electric_scooter", "lon": -77.00219716666666}, {"rental_uris": {"android": "https://dc.lft.to/lastmile_qr_scan", "ios": "https://dc.lft.to/lastmile_qr_scan"}, "fusion_lat": 0.0, "is_reserved": 0, "lat": 38.91497066666667, "name": "cdf84beba185a16da6d96e92b29d5eaf", "bike_id": "cdf84beba185a16da6d96e92b29d5eaf", "is_disabled": 0, "fusion_lon": 0.0, "type": "electric_scooter", "lon": -77.02178366666666}, {"rental_uris": {"android": "https://dc.lft.to/lastmile_qr_scan", "ios": "https://dc.lft.to/lastmile_qr_scan"}, "fusion_lat": 0.0, "is_reserved": 0, "lat": 38.89787066666667, "name": "547b726d23443f81acee65276d0ab391", "bike_id": "547b726d23443f81acee65276d0ab391", "is_disabled": 0, "fusion_lon": 0.0, "type": "electric_scooter", "lon": -77.0161765}, {"rental_uris": {"android": "https://dc.lft.to/lastmile_qr_scan", "ios": "https://dc.lft.to/lastmile_qr_scan"}, "fusion_lat": 0.0, "is_reserved": 0, "lat": 38.890152666666665, "name": "471115c9d5988d4e1d62fba3e96f7b1e", "bike_id": "471115c9d5988d4e1d62fba3e96f7b1e", "is_disabled": 0, "fusion_lon": 0.0, "type": "electric_scooter", "lon": -76.93733766666666}, {"rental_uris": {"android": "https://dc.lft.to/lastmile_qr_scan", "ios": "https://dc.lft.to/lastmile_qr_scan"}, "fusion_lat": 0.0, "is_reserved": 0, "lat": 38.911046, "name": "27d5aae6b09e63ba0edfa4384e79779c", "bike_id": "27d5aae6b09e63ba0edfa4384e79779c", "is_disabled": 0, "fusion_lon": 0.0, "type": "electric_scooter", "lon": -77.07347833333333}, {"rental_uris": {"android": "https://dc.lft.to/lastmile_qr_scan", "ios": "https://dc.lft.to/lastmile_qr_scan"}, "fusion_lat": 0.0, "is_reserved": 0, "lat": 38.90103233333333, "name": "3d1899b655f778b0cd7ae58805c97ffe", "bike_id": "3d1899b655f778b0cd7ae58805c97ffe", "is_disabled": 0, "fusion_lon": 0.0, "type": "electric_scooter", "lon": -76.98007666666666}, {"rental_uris": {"android": "https://dc.lft.to/lastmile_qr_scan", "ios": "https://dc.lft.to/lastmile_qr_scan"}, "fusion_lat": 0.0, "is_reserved": 0, "lat": 38.943828833333335, "name": "4c5c75502e79de4563867a8b32882280", "bike_id": "4c5c75502e79de4563867a8b32882280", "is_disabled": 0, "fusion_lon": 0.0, "type": "electric_scooter", "lon": -77.06042633333334}, {"rental_uris": {"android": "https://dc.lft.to/lastmile_qr_scan", "ios": "https://dc.lft.to/lastmile_qr_scan"}, "fusion_lat": 0.0, "is_reserved": 0, "lat": 38.9145535, "name": "e1311a3000c9ffcdd254da4f73e52f94", "bike_id": "e1311a3000c9ffcdd254da4f73e52f94", "is_disabled": 0, "fusion_lon": 0.0, "type": "electric_scooter", "lon": -77.02190283333333}, {"rental_uris": {"android": "https://dc.lft.to/lastmile_qr_scan", "ios": "https://dc.lft.to/lastmile_qr_scan"}, "fusion_lat": 0.0, "is_reserved": 0, "lat": 38.88712683333333, "name": "2b1717a839eaab5811dde5422da0afb5", "bike_id": "2b1717a839eaab5811dde5422da0afb5", "is_disabled": 0, "fusion_lon": 0.0, "type": "electric_scooter", "lon": -77.021801}, {"rental_uris": {"android": "https://dc.lft.to/lastmile_qr_scan", "ios": "https://dc.lft.to/lastmile_qr_scan"}, "fusion_lat": 0.0, "is_reserved": 0, "lat": 38.898017333333335, "name": "7ede79b435498e4c8881170fb64f7ffb", "bike_id": "7ede79b435498e4c8881170fb64f7ffb", "is_disabled": 0, "fusion_lon": 0.0, "type": "electric_scooter", "lon": -77.04610216666667}, {"rental_uris": {"android": "https://dc.lft.to/lastmile_qr_scan", "ios": "https://dc.lft.to/lastmile_qr_scan"}, "fusion_lat": 0.0, "is_reserved": 0, "lat": 38.914168333333336, "name": "0e43945eadb35da2d0f06f8a6ad76483", "bike_id": "0e43945eadb35da2d0f06f8a6ad76483", "is_disabled": 0, "fusion_lon": 0.0, "type": "electric_scooter", "lon": -77.01905583333334}, {"rental_uris": {"android": "https://dc.lft.to/lastmile_qr_scan", "ios": "https://dc.lft.to/lastmile_qr_scan"}, "fusion_lat": 0.0, "is_reserved": 0, "lat": 38.93466316666667, "name": "f3e64261ddee2cd89611781d8d3cf74f", "bike_id": "f3e64261ddee2cd89611781d8d3cf74f", "is_disabled": 0, "fusion_lon": 0.0, "type": "electric_scooter", "lon": -77.0412965}, {"rental_uris": {"android": "https://dc.lft.to/lastmile_qr_scan", "ios": "https://dc.lft.to/lastmile_qr_scan"}, "fusion_lat": 0.0, "is_reserved": 0, "lat": 38.89241083333334, "name": "e13af493ae3c35922d144b8d2785767d", "bike_id": "e13af493ae3c35922d144b8d2785767d", "is_disabled": 0, "fusion_lon": 0.0, "type": "electric_scooter", "lon": -77.031892}, {"rental_uris": {"android": "https://dc.lft.to/lastmile_qr_scan", "ios": "https://dc.lft.to/lastmile_qr_scan"}, "fusion_lat": 0.0, "is_reserved": 0, "lat": 38.907806, "name": "d363aa98abf5e078e7db735efdfd3983", "bike_id": "d363aa98abf5e078e7db735efdfd3983", "is_disabled": 0, "fusion_lon": 0.0, "type": "electric_scooter", "lon": -77.03760316666667}, {"rental_uris": {"android": "https://dc.lft.to/lastmile_qr_scan", "ios": "https://dc.lft.to/lastmile_qr_scan"}, "fusion_lat": 0.0, "is_reserved": 0, "lat": 38.922044166666666, "name": "47a3112ea0faa105ba71e331884d1593", "bike_id": "47a3112ea0faa105ba71e331884d1593", "is_disabled": 0, "fusion_lon": 0.0, "type": "electric_scooter", "lon": -77.02712816666667}, {"rental_uris": {"android": "https://dc.lft.to/lastmile_qr_scan", "ios": "https://dc.lft.to/lastmile_qr_scan"}, "fusion_lat": 0.0, "is_reserved": 0, "lat": 38.91044633333333, "name": "3a9a8c88fe48def2f519e55036bc550f", "bike_id": "3a9a8c88fe48def2f519e55036bc550f", "is_disabled": 0, "fusion_lon": 0.0, "type": "electric_scooter", "lon": -77.0218055}, {"rental_uris": {"android": "https://dc.lft.to/lastmile_qr_scan", "ios": "https://dc.lft.to/lastmile_qr_scan"}, "fusion_lat": 0.0, "is_reserved": 0, "lat": 38.922287833333336, "name": "4133447c3071ca84bd7a5537a9e02d5b", "bike_id": "4133447c3071ca84bd7a5537a9e02d5b", "is_disabled": 0, "fusion_lon": 0.0, "type": "electric_scooter", "lon": -77.02330516666666}, {"rental_uris": {"android": "https://dc.lft.to/lastmile_qr_scan", "ios": "https://dc.lft.to/lastmile_qr_scan"}, "fusion_lat": 0.0, "is_reserved": 0, "lat": 38.842773333333334, "name": "9ba4642ce7f2effa5afdd9b1d8c8ecdc", "bike_id": "9ba4642ce7f2effa5afdd9b1d8c8ecdc", "is_disabled": 0, "fusion_lon": 0.0, "type": "electric_bike", "lon": -76.9883995}, {"rental_uris": {"android": "https://dc.lft.to/lastmile_qr_scan", "ios": "https://dc.lft.to/lastmile_qr_scan"}, "fusion_lat": 0.0, "is_reserved": 0, "lat": 38.9431355, "name": "6d2b8aa438ebb697e617ebdaad14669c", "bike_id": "6d2b8aa438ebb697e617ebdaad14669c", "is_disabled": 0, "fusion_lon": 0.0, "type": "electric_scooter", "lon": -77.01749033333333}, {"rental_uris": {"android": "https://dc.lft.to/lastmile_qr_scan", "ios": "https://dc.lft.to/lastmile_qr_scan"}, "fusion_lat": 0.0, "is_reserved": 0, "lat": 38.91007616666667, "name": "a42f4b7245db4f351dc6a163e0c829d5", "bike_id": "a42f4b7245db4f351dc6a163e0c829d5", "is_disabled": 0, "fusion_lon": 0.0, "type": "electric_scooter", "lon": -77.03838133333333}, {"rental_uris": {"android": "https://dc.lft.to/lastmile_qr_scan", "ios": "https://dc.lft.to/lastmile_qr_scan"}, "fusion_lat": 0.0, "is_reserved": 0, "lat": 38.8922, "name": "d3457d8718558f60a08a1d6ea9305201", "bike_id": "d3457d8718558f60a08a1d6ea9305201", "is_disabled": 0, "fusion_lon": 0.0, "type": "electric_scooter", "lon": -77.03985916666667}, {"rental_uris": {"android": "https://dc.lft.to/lastmile_qr_scan", "ios": "https://dc.lft.to/lastmile_qr_scan"}, "fusion_lat": 0.0, "is_reserved": 0, "lat": 38.90016166666667, "name": "4cfad1ef0da7d6245ca567c2e08e9418", "bike_id": "4cfad1ef0da7d6245ca567c2e08e9418", "is_disabled": 0, "fusion_lon": 0.0, "type": "electric_scooter", "lon": -77.046534}, {"rental_uris": {"android": "https://dc.lft.to/lastmile_qr_scan", "ios": "https://dc.lft.to/lastmile_qr_scan"}, "fusion_lat": 0.0, "is_reserved": 0, "lat": 38.93074983333333, "name": "1b92f3e096ef966cbd0d156f3552e802", "bike_id": "1b92f3e096ef966cbd0d156f3552e802", "is_disabled": 0, "fusion_lon": 0.0, "type": "electric_scooter", "lon": -77.0412525}, {"rental_uris": {"android": "https://dc.lft.to/lastmile_qr_scan", "ios": "https://dc.lft.to/lastmile_qr_scan"}, "fusion_lat": 0.0, "is_reserved": 0, "lat": 38.915467166666666, "name": "7d8d88d2664817adbb34b31e81e1f437", "bike_id": "7d8d88d2664817adbb34b31e81e1f437", "is_disabled": 0, "fusion_lon": 0.0, "type": "electric_scooter", "lon": -77.036565}, {"rental_uris": {"android": "https://dc.lft.to/lastmile_qr_scan", "ios": "https://dc.lft.to/lastmile_qr_scan"}, "fusion_lat": 0.0, "is_reserved": 0, "lat": 38.934424, "name": "9f253018b75de11e523c0bfb94505ae1", "bike_id": "9f253018b75de11e523c0bfb94505ae1", "is_disabled": 0, "fusion_lon": 0.0, "type": "electric_scooter", "lon": -77.0297865}, {"rental_uris": {"android": "https://dc.lft.to/lastmile_qr_scan", "ios": "https://dc.lft.to/lastmile_qr_scan"}, "fusion_lat": 0.0, "is_reserved": 0, "lat": 38.974995166666666, "name": "0c215f75de589f17989b6064b5a59913", "bike_id": "0c215f75de589f17989b6064b5a59913", "is_disabled": 0, "fusion_lon": 0.0, "type": "electric_scooter", "lon": -77.016951}, {"rental_uris": {"android": "https://dc.lft.to/lastmile_qr_scan", "ios": "https://dc.lft.to/lastmile_qr_scan"}, "fusion_lat": 0.0, "is_reserved": 0, "lat": 38.879396666666665, "name": "5d5c8b08905950af92aa6b354c3d2470", "bike_id": "5d5c8b08905950af92aa6b354c3d2470", "is_disabled": 0, "fusion_lon": 0.0, "type": "electric_scooter", "lon": -77.01686016666666}, {"rental_uris": {"android": "https://dc.lft.to/lastmile_qr_scan", "ios": "https://dc.lft.to/lastmile_qr_scan"}, "fusion_lat": 0.0, "is_reserved": 0, "lat": 38.930132666666665, "name": "6831a7ee0968c75e758f5a29b25b1fa2", "bike_id": "6831a7ee0968c75e758f5a29b25b1fa2", "is_disabled": 0, "fusion_lon": 0.0, "type": "electric_scooter", "lon": -77.02322966666667}, {"rental_uris": {"android": "https://dc.lft.to/lastmile_qr_scan", "ios": "https://dc.lft.to/lastmile_qr_scan"}, "fusion_lat": 0.0, "is_reserved": 0, "lat": 38.926488166666665, "name": "3883c87e1bff4d4289295c74a4f9df5a", "bike_id": "3883c87e1bff4d4289295c74a4f9df5a", "is_disabled": 0, "fusion_lon": 0.0, "type": "electric_scooter", "lon": -77.02462683333333}, {"rental_uris": {"android": "https://dc.lft.to/lastmile_qr_scan", "ios": "https://dc.lft.to/lastmile_qr_scan"}, "fusion_lat": 0.0, "is_reserved": 0, "lat": 38.934911166666666, "name": "4afadb867dc8497794519671b1578f51", "bike_id": "4afadb867dc8497794519671b1578f51", "is_disabled": 0, "fusion_lon": 0.0, "type": "electric_scooter", "lon": -77.04520466666666}, {"rental_uris": {"android": "https://dc.lft.to/lastmile_qr_scan", "ios": "https://dc.lft.to/lastmile_qr_scan"}, "fusion_lat": 0.0, "is_reserved": 0, "lat": 38.91875866666667, "name": "6239e5616d1bc0c157de8622df85a541", "bike_id": "6239e5616d1bc0c157de8622df85a541", "is_disabled": 0, "fusion_lon": 0.0, "type": "electric_scooter", "lon": -77.04717516666666}, {"rental_uris": {"android": "https://dc.lft.to/lastmile_qr_scan", "ios": "https://dc.lft.to/lastmile_qr_scan"}, "fusion_lat": 0.0, "is_reserved": 0, "lat": 38.906382666666666, "name": "b553f81df911d5259bb2c398d914d236", "bike_id": "b553f81df911d5259bb2c398d914d236", "is_disabled": 0, "fusion_lon": 0.0, "type": "electric_scooter", "lon": -77.011351}, {"rental_uris": {"android": "https://dc.lft.to/lastmile_qr_scan", "ios": "https://dc.lft.to/lastmile_qr_scan"}, "fusion_lat": 0.0, "is_reserved": 0, "lat": 38.903331333333334, "name": "9aea7d3c3b11eb3b2ca376313858e0df", "bike_id": "9aea7d3c3b11eb3b2ca376313858e0df", "is_disabled": 0, "fusion_lon": 0.0, "type": "electric_bike", "lon": -76.933699}, {"rental_uris": {"android": "https://dc.lft.to/lastmile_qr_scan", "ios": "https://dc.lft.to/lastmile_qr_scan"}, "fusion_lat": 0.0, "is_reserved": 0, "lat": 38.9117495, "name": "41e89bc571f3f68c366250c9a1f968b4", "bike_id": "41e89bc571f3f68c366250c9a1f968b4", "is_disabled": 0, "fusion_lon": 0.0, "type": "electric_scooter", "lon": -77.0047505}, {"rental_uris": {"android": "https://dc.lft.to/lastmile_qr_scan", "ios": "https://dc.lft.to/lastmile_qr_scan"}, "fusion_lat": 0.0, "is_reserved": 0, "lat": 38.9186165, "name": "3ffb09f70d89b6157fed1d1ca6794c93", "bike_id": "3ffb09f70d89b6157fed1d1ca6794c93", "is_disabled": 0, "fusion_lon": 0.0, "type": "electric_scooter", "lon": -77.048383}, {"rental_uris": {"android": "https://dc.lft.to/lastmile_qr_scan", "ios": "https://dc.lft.to/lastmile_qr_scan"}, "fusion_lat": 0.0, "is_reserved": 0, "lat": 38.871851166666666, "name": "7e6063dfa14dc8d36580e9e24c7d1157", "bike_id": "7e6063dfa14dc8d36580e9e24c7d1157", "is_disabled": 0, "fusion_lon": 0.0, "type": "electric_scooter", "lon": -77.00600883333334}, {"rental_uris": {"android": "https://dc.lft.to/lastmile_qr_scan", "ios": "https://dc.lft.to/lastmile_qr_scan"}, "fusion_lat": 0.0, "is_reserved": 0, "lat": 38.892774833333334, "name": "0c3b14093dbf2fe514a94949e5fbb345", "bike_id": "0c3b14093dbf2fe514a94949e5fbb345", "is_disabled": 0, "fusion_lon": 0.0, "type": "electric_scooter", "lon": -76.9214045}, {"rental_uris": {"android": "https://dc.lft.to/lastmile_qr_scan", "ios": "https://dc.lft.to/lastmile_qr_scan"}, "fusion_lat": 0.0, "is_reserved": 0, "lat": 38.91555483333333, "name": "39da47f522673537b309493596216ddd", "bike_id": "39da47f522673537b309493596216ddd", "is_disabled": 0, "fusion_lon": 0.0, "type": "electric_scooter", "lon": -77.01414783333334}, {"rental_uris": {"android": "https://dc.lft.to/lastmile_qr_scan", "ios": "https://dc.lft.to/lastmile_qr_scan"}, "fusion_lat": 0.0, "is_reserved": 0, "lat": 38.902165, "name": "ead8ab24a53584ad4f2bc85992783626", "bike_id": "ead8ab24a53584ad4f2bc85992783626", "is_disabled": 0, "fusion_lon": 0.0, "type": "electric_scooter", "lon": -77.02435766666666}, {"rental_uris": {"android": "https://dc.lft.to/lastmile_qr_scan", "ios": "https://dc.lft.to/lastmile_qr_scan"}, "fusion_lat": 0.0, "is_reserved": 0, "lat": 38.79332466666666, "name": "1f2ae609f9ac3f2ea3a134269e35c385", "bike_id": "1f2ae609f9ac3f2ea3a134269e35c385", "is_disabled": 0, "fusion_lon": 0.0, "type": "electric_bike", "lon": -77.00051116666667}, {"rental_uris": {"android": "https://dc.lft.to/lastmile_qr_scan", "ios": "https://dc.lft.to/lastmile_qr_scan"}, "fusion_lat": 0.0, "is_reserved": 0, "lat": 38.896325, "name": "cbe3b8a43cffe1d6bdcab3b59d0efe4f", "bike_id": "cbe3b8a43cffe1d6bdcab3b59d0efe4f", "is_disabled": 0, "fusion_lon": 0.0, "type": "electric_scooter", "lon": -77.02206683333333}, {"rental_uris": {"android": "https://dc.lft.to/lastmile_qr_scan", "ios": "https://dc.lft.to/lastmile_qr_scan"}, "fusion_lat": 0.0, "is_reserved": 0, "lat": 38.878407, "name": "b8c760aefcc439e16740574b360dcb4e", "bike_id": "b8c760aefcc439e16740574b360dcb4e", "is_disabled": 0, "fusion_lon": 0.0, "type": "electric_scooter", "lon": -77.0223815}, {"rental_uris": {"android": "https://dc.lft.to/lastmile_qr_scan", "ios": "https://dc.lft.to/lastmile_qr_scan"}, "fusion_lat": 0.0, "is_reserved": 0, "lat": 38.8936235, "name": "de257e5446ed73cd52077de5766b8817", "bike_id": "de257e5446ed73cd52077de5766b8817", "is_disabled": 0, "fusion_lon": 0.0, "type": "electric_scooter", "lon": -77.003344}, {"rental_uris": {"android": "https://dc.lft.to/lastmile_qr_scan", "ios": "https://dc.lft.to/lastmile_qr_scan"}, "fusion_lat": 0.0, "is_reserved": 0, "lat": 38.90780783333334, "name": "dcdc3d2a2e93abd308b8c553f4dc7c7e", "bike_id": "dcdc3d2a2e93abd308b8c553f4dc7c7e", "is_disabled": 0, "fusion_lon": 0.0, "type": "electric_scooter", "lon": -77.03759383333333}, {"rental_uris": {"android": "https://dc.lft.to/lastmile_qr_scan", "ios": "https://dc.lft.to/lastmile_qr_scan"}, "fusion_lat": 0.0, "is_reserved": 0, "lat": 38.92474166666667, "name": "7326dd87576aa15a5d7c3cb6779e2ab1", "bike_id": "7326dd87576aa15a5d7c3cb6779e2ab1", "is_disabled": 0, "fusion_lon": 0.0, "type": "electric_scooter", "lon": -77.02220366666667}, {"rental_uris": {"android": "https://dc.lft.to/lastmile_qr_scan", "ios": "https://dc.lft.to/lastmile_qr_scan"}, "fusion_lat": 0.0, "is_reserved": 0, "lat": 38.91296783333333, "name": "99f24aa0a376417d8fc25d93075eb6c4", "bike_id": "99f24aa0a376417d8fc25d93075eb6c4", "is_disabled": 0, "fusion_lon": 0.0, "type": "electric_scooter", "lon": -76.98542816666667}, {"rental_uris": {"android": "https://dc.lft.to/lastmile_qr_scan", "ios": "https://dc.lft.to/lastmile_qr_scan"}, "fusion_lat": 0.0, "is_reserved": 0, "lat": 38.95212816666667, "name": "629232e9e4ba9f7daeafdeec17ee667b", "bike_id": "629232e9e4ba9f7daeafdeec17ee667b", "is_disabled": 0, "fusion_lon": 0.0, "type": "electric_scooter", "lon": -77.06966266666667}, {"rental_uris": {"android": "https://dc.lft.to/lastmile_qr_scan", "ios": "https://dc.lft.to/lastmile_qr_scan"}, "fusion_lat": 0.0, "is_reserved": 0, "lat": 38.909084166666666, "name": "45880e93e979dfaaa6e4d3e6a954ad07", "bike_id": "45880e93e979dfaaa6e4d3e6a954ad07", "is_disabled": 0, "fusion_lon": 0.0, "type": "electric_scooter", "lon": -77.04412466666666}, {"rental_uris": {"android": "https://dc.lft.to/lastmile_qr_scan", "ios": "https://dc.lft.to/lastmile_qr_scan"}, "fusion_lat": 0.0, "is_reserved": 0, "lat": 38.892218666666665, "name": "14ad3a617f3b08782078291fa83cfff8", "bike_id": "14ad3a617f3b08782078291fa83cfff8", "is_disabled": 0, "fusion_lon": 0.0, "type": "electric_scooter", "lon": -77.03986566666667}, {"rental_uris": {"android": "https://dc.lft.to/lastmile_qr_scan", "ios": "https://dc.lft.to/lastmile_qr_scan"}, "fusion_lat": 0.0, "is_reserved": 0, "lat": 38.92236466666667, "name": "ba828432d5fd60b5c5389af77ffc8375", "bike_id": "ba828432d5fd60b5c5389af77ffc8375", "is_disabled": 0, "fusion_lon": 0.0, "type": "electric_scooter", "lon": -77.034645}, {"rental_uris": {"android": "https://dc.lft.to/lastmile_qr_scan", "ios": "https://dc.lft.to/lastmile_qr_scan"}, "fusion_lat": 0.0, "is_reserved": 0, "lat": 38.89789, "name": "1cfb1343c5f62dc00ff33632d5db9036", "bike_id": "1cfb1343c5f62dc00ff33632d5db9036", "is_disabled": 0, "fusion_lon": 0.0, "type": "electric_scooter", "lon": -77.05477483333334}, {"rental_uris": {"android": "https://dc.lft.to/lastmile_qr_scan", "ios": "https://dc.lft.to/lastmile_qr_scan"}, "fusion_lat": 0.0, "is_reserved": 0, "lat": 38.881912, "name": "5b0e8354df6abf365e22ae893398f97b", "bike_id": "5b0e8354df6abf365e22ae893398f97b", "is_disabled": 0, "fusion_lon": 0.0, "type": "electric_scooter", "lon": -76.99026966666666}, {"rental_uris": {"android": "https://dc.lft.to/lastmile_qr_scan", "ios": "https://dc.lft.to/lastmile_qr_scan"}, "fusion_lat": 0.0, "is_reserved": 0, "lat": 38.91848783333333, "name": "9c53b4753857f0baf79142bf33fae155", "bike_id": "9c53b4753857f0baf79142bf33fae155", "is_disabled": 0, "fusion_lon": 0.0, "type": "electric_scooter", "lon": -77.02181633333333}, {"rental_uris": {"android": "https://dc.lft.to/lastmile_qr_scan", "ios": "https://dc.lft.to/lastmile_qr_scan"}, "fusion_lat": 0.0, "is_reserved": 0, "lat": 38.916202166666665, "name": "73e494db9faeff6739857515d48c86b1", "bike_id": "73e494db9faeff6739857515d48c86b1", "is_disabled": 0, "fusion_lon": 0.0, "type": "electric_scooter", "lon": -77.02289983333333}, {"rental_uris": {"android": "https://dc.lft.to/lastmile_qr_scan", "ios": "https://dc.lft.to/lastmile_qr_scan"}, "fusion_lat": 0.0, "is_reserved": 0, "lat": 38.87292816666667, "name": "f3a4f93d96ce9fc42d0905b5f69ace0d", "bike_id": "f3a4f93d96ce9fc42d0905b5f69ace0d", "is_disabled": 0, "fusion_lon": 0.0, "type": "electric_scooter", "lon": -77.0022935}, {"rental_uris": {"android": "https://dc.lft.to/lastmile_qr_scan", "ios": "https://dc.lft.to/lastmile_qr_scan"}, "fusion_lat": 0.0, "is_reserved": 0, "lat": 38.924659166666665, "name": "c0ce59fdeb25f53cccb25227b68f2f04", "bike_id": "c0ce59fdeb25f53cccb25227b68f2f04", "is_disabled": 0, "fusion_lon": 0.0, "type": "electric_scooter", "lon": -77.02696716666667}, {"rental_uris": {"android": "https://dc.lft.to/lastmile_qr_scan", "ios": "https://dc.lft.to/lastmile_qr_scan"}, "fusion_lat": 0.0, "is_reserved": 0, "lat": 38.88720583333333, "name": "d5df545e8fc35f5d31c110ec85c51471", "bike_id": "d5df545e8fc35f5d31c110ec85c51471", "is_disabled": 0, "fusion_lon": 0.0, "type": "electric_scooter", "lon": -76.996781}, {"rental_uris": {"android": "https://dc.lft.to/lastmile_qr_scan", "ios": "https://dc.lft.to/lastmile_qr_scan"}, "fusion_lat": 0.0, "is_reserved": 0, "lat": 38.989905666666665, "name": "db106457bcc883fbf97bbc371dce1698", "bike_id": "db106457bcc883fbf97bbc371dce1698", "is_disabled": 0, "fusion_lon": 0.0, "type": "electric_scooter", "lon": -77.03362983333334}, {"rental_uris": {"android": "https://dc.lft.to/lastmile_qr_scan", "ios": "https://dc.lft.to/lastmile_qr_scan"}, "fusion_lat": 0.0, "is_reserved": 0, "lat": 38.92107383333333, "name": "cfc5c9107eac598660773face6d072df", "bike_id": "cfc5c9107eac598660773face6d072df", "is_disabled": 0, "fusion_lon": 0.0, "type": "electric_scooter", "lon": -77.04192616666667}, {"rental_uris": {"android": "https://dc.lft.to/lastmile_qr_scan", "ios": "https://dc.lft.to/lastmile_qr_scan"}, "fusion_lat": 0.0, "is_reserved": 0, "lat": 38.897756333333334, "name": "917f263bf62a81713cd62b0aeb3972f1", "bike_id": "917f263bf62a81713cd62b0aeb3972f1", "is_disabled": 0, "fusion_lon": 0.0, "type": "electric_scooter", "lon": -76.99276666666667}, {"rental_uris": {"android": "https://dc.lft.to/lastmile_qr_scan", "ios": "https://dc.lft.to/lastmile_qr_scan"}, "fusion_lat": 0.0, "is_reserved": 0, "lat": 38.923658333333336, "name": "fcba430efe6274578fa177eebb466ba0", "bike_id": "fcba430efe6274578fa177eebb466ba0", "is_disabled": 0, "fusion_lon": 0.0, "type": "electric_scooter", "lon": -77.0195085}, {"rental_uris": {"android": "https://dc.lft.to/lastmile_qr_scan", "ios": "https://dc.lft.to/lastmile_qr_scan"}, "fusion_lat": 0.0, "is_reserved": 0, "lat": 38.92843966666667, "name": "0c490afc4448cf3af8b3ac9156b3e2d8", "bike_id": "0c490afc4448cf3af8b3ac9156b3e2d8", "is_disabled": 0, "fusion_lon": 0.0, "type": "electric_scooter", "lon": -77.02490083333333}, {"rental_uris": {"android": "https://dc.lft.to/lastmile_qr_scan", "ios": "https://dc.lft.to/lastmile_qr_scan"}, "fusion_lat": 0.0, "is_reserved": 0, "lat": 38.915404, "name": "a6662d7b158253ff8d50e602a2752198", "bike_id": "a6662d7b158253ff8d50e602a2752198", "is_disabled": 0, "fusion_lon": 0.0, "type": "electric_scooter", "lon": -77.02000616666666}, {"rental_uris": {"android": "https://dc.lft.to/lastmile_qr_scan", "ios": "https://dc.lft.to/lastmile_qr_scan"}, "fusion_lat": 0.0, "is_reserved": 0, "lat": 38.90113866666667, "name": "27ace3f0d0ac3641262e13486b9a0746", "bike_id": "27ace3f0d0ac3641262e13486b9a0746", "is_disabled": 0, "fusion_lon": 0.0, "type": "electric_scooter", "lon": -77.044792}, {"rental_uris": {"android": "https://dc.lft.to/lastmile_qr_scan", "ios": "https://dc.lft.to/lastmile_qr_scan"}, "fusion_lat": 0.0, "is_reserved": 0, "lat": 38.93322116666667, "name": "68565eb71aa60fc3c1444c43be2c8343", "bike_id": "68565eb71aa60fc3c1444c43be2c8343", "is_disabled": 0, "fusion_lon": 0.0, "type": "electric_scooter", "lon": -77.037924}, {"rental_uris": {"android": "https://dc.lft.to/lastmile_qr_scan", "ios": "https://dc.lft.to/lastmile_qr_scan"}, "fusion_lat": 0.0, "is_reserved": 0, "lat": 38.9433195, "name": "139d9f72594fa67fd581d17cc14d29a2", "bike_id": "139d9f72594fa67fd581d17cc14d29a2", "is_disabled": 0, "fusion_lon": 0.0, "type": "electric_scooter", "lon": -77.01553066666666}, {"rental_uris": {"android": "https://dc.lft.to/lastmile_qr_scan", "ios": "https://dc.lft.to/lastmile_qr_scan"}, "fusion_lat": 0.0, "is_reserved": 0, "lat": 38.896107666666666, "name": "95a69ad2d5a20a9755377bf3a32e3754", "bike_id": "95a69ad2d5a20a9755377bf3a32e3754", "is_disabled": 0, "fusion_lon": 0.0, "type": "electric_scooter", "lon": -76.97288666666667}, {"rental_uris": {"android": "https://dc.lft.to/lastmile_qr_scan", "ios": "https://dc.lft.to/lastmile_qr_scan"}, "fusion_lat": 0.0, "is_reserved": 0, "lat": 38.92642333333333, "name": "9c4f1d0fcb239a3cc4fe0a935446bd46", "bike_id": "9c4f1d0fcb239a3cc4fe0a935446bd46", "is_disabled": 0, "fusion_lon": 0.0, "type": "electric_scooter", "lon": -77.02511633333333}, {"rental_uris": {"android": "https://dc.lft.to/lastmile_qr_scan", "ios": "https://dc.lft.to/lastmile_qr_scan"}, "fusion_lat": 0.0, "is_reserved": 0, "lat": 38.9348605, "name": "b753e651a37eb590d127278a6542aad7", "bike_id": "b753e651a37eb590d127278a6542aad7", "is_disabled": 0, "fusion_lon": 0.0, "type": "electric_scooter", "lon": -77.04452566666667}, {"rental_uris": {"android": "https://dc.lft.to/lastmile_qr_scan", "ios": "https://dc.lft.to/lastmile_qr_scan"}, "fusion_lat": 0.0, "is_reserved": 0, "lat": 38.92141016666667, "name": "8e4957ad5870ab4b73f73b81cbdbd14b", "bike_id": "8e4957ad5870ab4b73f73b81cbdbd14b", "is_disabled": 0, "fusion_lon": 0.0, "type": "electric_scooter", "lon": -77.04121966666666}, {"rental_uris": {"android": "https://dc.lft.to/lastmile_qr_scan", "ios": "https://dc.lft.to/lastmile_qr_scan"}, "fusion_lat": 0.0, "is_reserved": 0, "lat": 38.9231135, "name": "79e752e7d0c811033429e21ac8fa11be", "bike_id": "79e752e7d0c811033429e21ac8fa11be", "is_disabled": 0, "fusion_lon": 0.0, "type": "electric_scooter", "lon": -77.04219933333333}, {"rental_uris": {"android": "https://dc.lft.to/lastmile_qr_scan", "ios": "https://dc.lft.to/lastmile_qr_scan"}, "fusion_lat": 0.0, "is_reserved": 0, "lat": 38.8988165, "name": "35aba351b618de941bdfa6919b9c862e", "bike_id": "35aba351b618de941bdfa6919b9c862e", "is_disabled": 0, "fusion_lon": 0.0, "type": "electric_scooter", "lon": -76.98837566666667}, {"rental_uris": {"android": "https://dc.lft.to/lastmile_qr_scan", "ios": "https://dc.lft.to/lastmile_qr_scan"}, "fusion_lat": 0.0, "is_reserved": 0, "lat": 38.91883466666667, "name": "db0d44182fd6997eb2b7d4a0542e6eb2", "bike_id": "db0d44182fd6997eb2b7d4a0542e6eb2", "is_disabled": 0, "fusion_lon": 0.0, "type": "electric_scooter", "lon": -77.04175166666667}, {"rental_uris": {"android": "https://dc.lft.to/lastmile_qr_scan", "ios": "https://dc.lft.to/lastmile_qr_scan"}, "fusion_lat": 0.0, "is_reserved": 0, "lat": 38.8872545, "name": "fdc66a494986a344489d6d8c69f42e8c", "bike_id": "fdc66a494986a344489d6d8c69f42e8c", "is_disabled": 0, "fusion_lon": 0.0, "type": "electric_scooter", "lon": -76.98376833333333}, {"rental_uris": {"android": "https://dc.lft.to/lastmile_qr_scan", "ios": "https://dc.lft.to/lastmile_qr_scan"}, "fusion_lat": 0.0, "is_reserved": 0, "lat": 38.920475833333334, "name": "a594177ced3fa14c30823dd02cbf354f", "bike_id": "a594177ced3fa14c30823dd02cbf354f", "is_disabled": 0, "fusion_lon": 0.0, "type": "electric_scooter", "lon": -77.02363583333333}, {"rental_uris": {"android": "https://dc.lft.to/lastmile_qr_scan", "ios": "https://dc.lft.to/lastmile_qr_scan"}, "fusion_lat": 0.0, "is_reserved": 0, "lat": 38.97260466666667, "name": "bb992a85ebf62a1a6218ef0118811738", "bike_id": "bb992a85ebf62a1a6218ef0118811738", "is_disabled": 0, "fusion_lon": 0.0, "type": "electric_bike", "lon": -76.992781}, {"rental_uris": {"android": "https://dc.lft.to/lastmile_qr_scan", "ios": "https://dc.lft.to/lastmile_qr_scan"}, "fusion_lat": 0.0, "is_reserved": 0, "lat": 38.91124516666667, "name": "a9ba6cc1108b6e10f2b31412e16c314c", "bike_id": "a9ba6cc1108b6e10f2b31412e16c314c", "is_disabled": 0, "fusion_lon": 0.0, "type": "electric_scooter", "lon": -77.03830883333333}, {"rental_uris": {"android": "https://dc.lft.to/lastmile_qr_scan", "ios": "https://dc.lft.to/lastmile_qr_scan"}, "fusion_lat": 0.0, "is_reserved": 0, "lat": 38.9648785, "name": "948caef754dda5ee4fe378d7526d5b21", "bike_id": "948caef754dda5ee4fe378d7526d5b21", "is_disabled": 0, "fusion_lon": 0.0, "type": "electric_bike", "lon": -77.02416016666666}, {"rental_uris": {"android": "https://dc.lft.to/lastmile_qr_scan", "ios": "https://dc.lft.to/lastmile_qr_scan"}, "fusion_lat": 0.0, "is_reserved": 0, "lat": 38.90079433333333, "name": "cd7ba207780fe35534a53bc16cd318a8", "bike_id": "cd7ba207780fe35534a53bc16cd318a8", "is_disabled": 0, "fusion_lon": 0.0, "type": "electric_scooter", "lon": -77.0491625}, {"rental_uris": {"android": "https://dc.lft.to/lastmile_qr_scan", "ios": "https://dc.lft.to/lastmile_qr_scan"}, "fusion_lat": 0.0, "is_reserved": 0, "lat": 38.936082666666664, "name": "160e509a8089dd320a3e7970d5b88bbe", "bike_id": "160e509a8089dd320a3e7970d5b88bbe", "is_disabled": 0, "fusion_lon": 0.0, "type": "electric_scooter", "lon": -77.055989}, {"rental_uris": {"android": "https://dc.lft.to/lastmile_qr_scan", "ios": "https://dc.lft.to/lastmile_qr_scan"}, "fusion_lat": 0.0, "is_reserved": 0, "lat": 38.857918, "name": "1a5d07467a3ffafe840f9752dace7f8e", "bike_id": "1a5d07467a3ffafe840f9752dace7f8e", "is_disabled": 0, "fusion_lon": 0.0, "type": "electric_bike", "lon": -77.09960816666667}, {"rental_uris": {"android": "https://dc.lft.to/lastmile_qr_scan", "ios": "https://dc.lft.to/lastmile_qr_scan"}, "fusion_lat": 0.0, "is_reserved": 0, "lat": 38.89488, "name": "a1c061b1151f10de3e19ec3c3c1dd008", "bike_id": "a1c061b1151f10de3e19ec3c3c1dd008", "is_disabled": 0, "fusion_lon": 0.0, "type": "electric_scooter", "lon": -77.01935683333333}, {"rental_uris": {"android": "https://dc.lft.to/lastmile_qr_scan", "ios": "https://dc.lft.to/lastmile_qr_scan"}, "fusion_lat": 0.0, "is_reserved": 0, "lat": 38.89844183333334, "name": "0d5a9fc84c4ecf790a9bff29b6edd80b", "bike_id": "0d5a9fc84c4ecf790a9bff29b6edd80b", "is_disabled": 0, "fusion_lon": 0.0, "type": "electric_scooter", "lon": -77.02216566666667}, {"rental_uris": {"android": "https://dc.lft.to/lastmile_qr_scan", "ios": "https://dc.lft.to/lastmile_qr_scan"}, "fusion_lat": 0.0, "is_reserved": 0, "lat": 38.933152166666666, "name": "07f372df0d5a986db6b4e493d1ab180c", "bike_id": "07f372df0d5a986db6b4e493d1ab180c", "is_disabled": 0, "fusion_lon": 0.0, "type": "electric_scooter", "lon": -77.0291455}, {"rental_uris": {"android": "https://dc.lft.to/lastmile_qr_scan", "ios": "https://dc.lft.to/lastmile_qr_scan"}, "fusion_lat": 0.0, "is_reserved": 0, "lat": 38.995221666666666, "name": "250e0dc34a22ab165b10ac60ac1c205e", "bike_id": "250e0dc34a22ab165b10ac60ac1c205e", "is_disabled": 0, "fusion_lon": 0.0, "type": "electric_bike", "lon": -76.99946283333334}, {"rental_uris": {"android": "https://dc.lft.to/lastmile_qr_scan", "ios": "https://dc.lft.to/lastmile_qr_scan"}, "fusion_lat": 0.0, "is_reserved": 0, "lat": 38.84630833333333, "name": "fdf5c4b7332a823992d948f38a31d189", "bike_id": "fdf5c4b7332a823992d948f38a31d189", "is_disabled": 0, "fusion_lon": 0.0, "type": "electric_scooter", "lon": -76.981209}, {"rental_uris": {"android": "https://dc.lft.to/lastmile_qr_scan", "ios": "https://dc.lft.to/lastmile_qr_scan"}, "fusion_lat": 0.0, "is_reserved": 0, "lat": 38.9341055, "name": "9255fe3e944d1985168698eab6bfc862", "bike_id": "9255fe3e944d1985168698eab6bfc862", "is_disabled": 0, "fusion_lon": 0.0, "type": "electric_scooter", "lon": -77.02034866666666}, {"rental_uris": {"android": "https://dc.lft.to/lastmile_qr_scan", "ios": "https://dc.lft.to/lastmile_qr_scan"}, "fusion_lat": 0.0, "is_reserved": 0, "lat": 38.90222133333333, "name": "30b879f3886539707cd995c7e424682e", "bike_id": "30b879f3886539707cd995c7e424682e", "is_disabled": 0, "fusion_lon": 0.0, "type": "electric_scooter", "lon": -77.0216875}, {"rental_uris": {"android": "https://dc.lft.to/lastmile_qr_scan", "ios": "https://dc.lft.to/lastmile_qr_scan"}, "fusion_lat": 0.0, "is_reserved": 0, "lat": 38.836108833333334, "name": "bf377bde7add85fc9cf6b30086a97e10", "bike_id": "bf377bde7add85fc9cf6b30086a97e10", "is_disabled": 0, "fusion_lon": 0.0, "type": "electric_bike", "lon": -77.00380733333333}, {"rental_uris": {"android": "https://dc.lft.to/lastmile_qr_scan", "ios": "https://dc.lft.to/lastmile_qr_scan"}, "fusion_lat": 0.0, "is_reserved": 0, "lat": 38.89865183333333, "name": "c76b409bf369b17fb2f353c4f9ef0924", "bike_id": "c76b409bf369b17fb2f353c4f9ef0924", "is_disabled": 0, "fusion_lon": 0.0, "type": "electric_scooter", "lon": -77.049993}, {"rental_uris": {"android": "https://dc.lft.to/lastmile_qr_scan", "ios": "https://dc.lft.to/lastmile_qr_scan"}, "fusion_lat": 0.0, "is_reserved": 0, "lat": 38.923323333333336, "name": "6b097efe54a2309ca1975f8f619b856d", "bike_id": "6b097efe54a2309ca1975f8f619b856d", "is_disabled": 0, "fusion_lon": 0.0, "type": "electric_scooter", "lon": -77.0005345}, {"rental_uris": {"android": "https://dc.lft.to/lastmile_qr_scan", "ios": "https://dc.lft.to/lastmile_qr_scan"}, "fusion_lat": 0.0, "is_reserved": 0, "lat": 38.9083345, "name": "5cc6e3fe39cf2328e2fa808c6281a1d6", "bike_id": "5cc6e3fe39cf2328e2fa808c6281a1d6", "is_disabled": 0, "fusion_lon": 0.0, "type": "electric_scooter", "lon": -76.99700833333333}, {"rental_uris": {"android": "https://dc.lft.to/lastmile_qr_scan", "ios": "https://dc.lft.to/lastmile_qr_scan"}, "fusion_lat": 0.0, "is_reserved": 0, "lat": 38.90011633333334, "name": "2356b3b615273d4717546b29ea4a079d", "bike_id": "2356b3b615273d4717546b29ea4a079d", "is_disabled": 0, "fusion_lon": 0.0, "type": "electric_scooter", "lon": -76.93026183333333}, {"rental_uris": {"android": "https://dc.lft.to/lastmile_qr_scan", "ios": "https://dc.lft.to/lastmile_qr_scan"}, "fusion_lat": 0.0, "is_reserved": 0, "lat": 38.91652583333333, "name": "6e97a86e27aa1b9c054f7b3f35ca5f3a", "bike_id": "6e97a86e27aa1b9c054f7b3f35ca5f3a", "is_disabled": 0, "fusion_lon": 0.0, "type": "electric_scooter", "lon": -77.010273}, {"rental_uris": {"android": "https://dc.lft.to/lastmile_qr_scan", "ios": "https://dc.lft.to/lastmile_qr_scan"}, "fusion_lat": 0.0, "is_reserved": 0, "lat": 38.9199545, "name": "3f9d7c397690611580d9f3df93a52205", "bike_id": "3f9d7c397690611580d9f3df93a52205", "is_disabled": 0, "fusion_lon": 0.0, "type": "electric_scooter", "lon": -77.023695}, {"rental_uris": {"android": "https://dc.lft.to/lastmile_qr_scan", "ios": "https://dc.lft.to/lastmile_qr_scan"}, "fusion_lat": 0.0, "is_reserved": 0, "lat": 38.9056955, "name": "295db8894f1ee1516ba9b41deb5c20a8", "bike_id": "295db8894f1ee1516ba9b41deb5c20a8", "is_disabled": 0, "fusion_lon": 0.0, "type": "electric_scooter", "lon": -77.005797}, {"rental_uris": {"android": "https://dc.lft.to/lastmile_qr_scan", "ios": "https://dc.lft.to/lastmile_qr_scan"}, "fusion_lat": 0.0, "is_reserved": 0, "lat": 38.8793545, "name": "25041b054eb9558e57892ddf975845bb", "bike_id": "25041b054eb9558e57892ddf975845bb", "is_disabled": 0, "fusion_lon": 0.0, "type": "electric_scooter", "lon": -77.02156033333333}, {"rental_uris": {"android": "https://dc.lft.to/lastmile_qr_scan", "ios": "https://dc.lft.to/lastmile_qr_scan"}, "fusion_lat": 0.0, "is_reserved": 0, "lat": 38.926731333333336, "name": "4547cacae3069b6b4cc17b549d796ee0", "bike_id": "4547cacae3069b6b4cc17b549d796ee0", "is_disabled": 0, "fusion_lon": 0.0, "type": "electric_scooter", "lon": -77.03026166666666}, {"rental_uris": {"android": "https://dc.lft.to/lastmile_qr_scan", "ios": "https://dc.lft.to/lastmile_qr_scan"}, "fusion_lat": 0.0, "is_reserved": 0, "lat": 38.90071583333334, "name": "ee220e85f6dabe48c8bbb927304965cf", "bike_id": "ee220e85f6dabe48c8bbb927304965cf", "is_disabled": 0, "fusion_lon": 0.0, "type": "electric_scooter", "lon": -77.02162416666667}, {"rental_uris": {"android": "https://dc.lft.to/lastmile_qr_scan", "ios": "https://dc.lft.to/lastmile_qr_scan"}, "fusion_lat": 0.0, "is_reserved": 0, "lat": 38.883897833333336, "name": "e949227fa4c6c3731984aa71f18da1a8", "bike_id": "e949227fa4c6c3731984aa71f18da1a8", "is_disabled": 0, "fusion_lon": 0.0, "type": "electric_scooter", "lon": -76.93046233333334}, {"rental_uris": {"android": "https://dc.lft.to/lastmile_qr_scan", "ios": "https://dc.lft.to/lastmile_qr_scan"}, "fusion_lat": 0.0, "is_reserved": 0, "lat": 38.907909333333336, "name": "ac485c3173d1d3a2fd9150c1baf20563", "bike_id": "ac485c3173d1d3a2fd9150c1baf20563", "is_disabled": 0, "fusion_lon": 0.0, "type": "electric_scooter", "lon": -77.03061}, {"rental_uris": {"android": "https://dc.lft.to/lastmile_qr_scan", "ios": "https://dc.lft.to/lastmile_qr_scan"}, "fusion_lat": 0.0, "is_reserved": 0, "lat": 38.89302416666666, "name": "7c75c85dcb13efa55b20cbd3c816a068", "bike_id": "7c75c85dcb13efa55b20cbd3c816a068", "is_disabled": 0, "fusion_lon": 0.0, "type": "electric_scooter", "lon": -76.92990533333334}, {"rental_uris": {"android": "https://dc.lft.to/lastmile_qr_scan", "ios": "https://dc.lft.to/lastmile_qr_scan"}, "fusion_lat": 0.0, "is_reserved": 0, "lat": 38.916917166666664, "name": "1e460137f10fe32fd37215ad18d3e56f", "bike_id": "1e460137f10fe32fd37215ad18d3e56f", "is_disabled": 0, "fusion_lon": 0.0, "type": "electric_scooter", "lon": -77.031037}, {"rental_uris": {"android": "https://dc.lft.to/lastmile_qr_scan", "ios": "https://dc.lft.to/lastmile_qr_scan"}, "fusion_lat": 0.0, "is_reserved": 0, "lat": 38.8998985, "name": "0e14aea1c23ebdbe8611089417fdfd69", "bike_id": "0e14aea1c23ebdbe8611089417fdfd69", "is_disabled": 0, "fusion_lon": 0.0, "type": "electric_scooter", "lon": -77.00060666666667}, {"rental_uris": {"android": "https://dc.lft.to/lastmile_qr_scan", "ios": "https://dc.lft.to/lastmile_qr_scan"}, "fusion_lat": 0.0, "is_reserved": 0, "lat": 38.90835083333333, "name": "9557a1d95143eaafee5d600e6cdb395d", "bike_id": "9557a1d95143eaafee5d600e6cdb395d", "is_disabled": 0, "fusion_lon": 0.0, "type": "electric_scooter", "lon": -76.996986}, {"rental_uris": {"android": "https://dc.lft.to/lastmile_qr_scan", "ios": "https://dc.lft.to/lastmile_qr_scan"}, "fusion_lat": 0.0, "is_reserved": 0, "lat": 38.909014, "name": "4651787b70b546b85f76459658bb52a5", "bike_id": "4651787b70b546b85f76459658bb52a5", "is_disabled": 0, "fusion_lon": 0.0, "type": "electric_scooter", "lon": -76.99113983333334}, {"rental_uris": {"android": "https://dc.lft.to/lastmile_qr_scan", "ios": "https://dc.lft.to/lastmile_qr_scan"}, "fusion_lat": 0.0, "is_reserved": 0, "lat": 38.89614483333333, "name": "5620019af30a849abed7151029e1b2fb", "bike_id": "5620019af30a849abed7151029e1b2fb", "is_disabled": 0, "fusion_lon": 0.0, "type": "electric_scooter", "lon": -76.9768585}, {"rental_uris": {"android": "https://dc.lft.to/lastmile_qr_scan", "ios": "https://dc.lft.to/lastmile_qr_scan"}, "fusion_lat": 0.0, "is_reserved": 0, "lat": 38.90245816666667, "name": "a716b99ce1007fe310611b4d533a26a6", "bike_id": "a716b99ce1007fe310611b4d533a26a6", "is_disabled": 0, "fusion_lon": 0.0, "type": "electric_scooter", "lon": -77.00183883333334}, {"rental_uris": {"android": "https://dc.lft.to/lastmile_qr_scan", "ios": "https://dc.lft.to/lastmile_qr_scan"}, "fusion_lat": 0.0, "is_reserved": 0, "lat": 38.926068666666666, "name": "d40a1f55d20d7bb7b9ed07ff35c01604", "bike_id": "d40a1f55d20d7bb7b9ed07ff35c01604", "is_disabled": 0, "fusion_lon": 0.0, "type": "electric_scooter", "lon": -77.02157466666667}, {"rental_uris": {"android": "https://dc.lft.to/lastmile_qr_scan", "ios": "https://dc.lft.to/lastmile_qr_scan"}, "fusion_lat": 0.0, "is_reserved": 0, "lat": 38.879244, "name": "16777d6ef80e41b5a8390b69d4678d0f", "bike_id": "16777d6ef80e41b5a8390b69d4678d0f", "is_disabled": 0, "fusion_lon": 0.0, "type": "electric_scooter", "lon": -77.003755}, {"rental_uris": {"android": "https://dc.lft.to/lastmile_qr_scan", "ios": "https://dc.lft.to/lastmile_qr_scan"}, "fusion_lat": 0.0, "is_reserved": 0, "lat": 38.883423, "name": "c4adf941cbbbdcc74967aa43eab3fc9d", "bike_id": "c4adf941cbbbdcc74967aa43eab3fc9d", "is_disabled": 0, "fusion_lon": 0.0, "type": "electric_scooter", "lon": -76.942841}, {"rental_uris": {"android": "https://dc.lft.to/lastmile_qr_scan", "ios": "https://dc.lft.to/lastmile_qr_scan"}, "fusion_lat": 0.0, "is_reserved": 0, "lat": 38.91719716666667, "name": "1cf916e8ee5c9626bcdcb101a838bc7f", "bike_id": "1cf916e8ee5c9626bcdcb101a838bc7f", "is_disabled": 0, "fusion_lon": 0.0, "type": "electric_scooter", "lon": -77.03453616666667}, {"rental_uris": {"android": "https://dc.lft.to/lastmile_qr_scan", "ios": "https://dc.lft.to/lastmile_qr_scan"}, "fusion_lat": 0.0, "is_reserved": 0, "lat": 38.911898, "name": "e65ea33f5c42397ec09ad8a91ea879aa", "bike_id": "e65ea33f5c42397ec09ad8a91ea879aa", "is_disabled": 0, "fusion_lon": 0.0, "type": "electric_scooter", "lon": -77.0383475}, {"rental_uris": {"android": "https://dc.lft.to/lastmile_qr_scan", "ios": "https://dc.lft.to/lastmile_qr_scan"}, "fusion_lat": 0.0, "is_reserved": 0, "lat": 38.870794, "name": "4c83b094675f759c4bb8c0ba295ecb96", "bike_id": "4c83b094675f759c4bb8c0ba295ecb96", "is_disabled": 0, "fusion_lon": 0.0, "type": "electric_bike", "lon": -77.1104275}, {"rental_uris": {"android": "https://dc.lft.to/lastmile_qr_scan", "ios": "https://dc.lft.to/lastmile_qr_scan"}, "fusion_lat": 0.0, "is_reserved": 0, "lat": 38.91732833333333, "name": "640c82c0519fbfc05a9e18ce1fe899eb", "bike_id": "640c82c0519fbfc05a9e18ce1fe899eb", "is_disabled": 0, "fusion_lon": 0.0, "type": "electric_scooter", "lon": -77.03206516666667}, {"rental_uris": {"android": "https://dc.lft.to/lastmile_qr_scan", "ios": "https://dc.lft.to/lastmile_qr_scan"}, "fusion_lat": 0.0, "is_reserved": 0, "lat": 38.8841825, "name": "774837f74ffe0e2fbf5f5b68df8a686d", "bike_id": "774837f74ffe0e2fbf5f5b68df8a686d", "is_disabled": 0, "fusion_lon": 0.0, "type": "electric_scooter", "lon": -77.02557416666667}, {"rental_uris": {"android": "https://dc.lft.to/lastmile_qr_scan", "ios": "https://dc.lft.to/lastmile_qr_scan"}, "fusion_lat": 0.0, "is_reserved": 0, "lat": 38.9042875, "name": "61a493ba16197129f7941c89be5f8ce2", "bike_id": "61a493ba16197129f7941c89be5f8ce2", "is_disabled": 0, "fusion_lon": 0.0, "type": "electric_scooter", "lon": -77.05339166666667}, {"rental_uris": {"android": "https://dc.lft.to/lastmile_qr_scan", "ios": "https://dc.lft.to/lastmile_qr_scan"}, "fusion_lat": 0.0, "is_reserved": 0, "lat": 38.91816716666666, "name": "4906a1ec123d3024007a56406ca2b35c", "bike_id": "4906a1ec123d3024007a56406ca2b35c", "is_disabled": 0, "fusion_lon": 0.0, "type": "electric_scooter", "lon": -77.03028933333333}, {"rental_uris": {"android": "https://dc.lft.to/lastmile_qr_scan", "ios": "https://dc.lft.to/lastmile_qr_scan"}, "fusion_lat": 0.0, "is_reserved": 0, "lat": 38.900676833333335, "name": "d634a65daa7946e43fc4aa2c4576dd15", "bike_id": "d634a65daa7946e43fc4aa2c4576dd15", "is_disabled": 0, "fusion_lon": 0.0, "type": "electric_scooter", "lon": -76.92741916666667}, {"rental_uris": {"android": "https://dc.lft.to/lastmile_qr_scan", "ios": "https://dc.lft.to/lastmile_qr_scan"}, "fusion_lat": 0.0, "is_reserved": 0, "lat": 38.91612966666667, "name": "26595c5c058b4eb70b907ce644080fb4", "bike_id": "26595c5c058b4eb70b907ce644080fb4", "is_disabled": 0, "fusion_lon": 0.0, "type": "electric_bike", "lon": -77.02168233333333}, {"rental_uris": {"android": "https://dc.lft.to/lastmile_qr_scan", "ios": "https://dc.lft.to/lastmile_qr_scan"}, "fusion_lat": 0.0, "is_reserved": 0, "lat": 38.8872655, "name": "777d898e95f554902b3b84354c4b156c", "bike_id": "777d898e95f554902b3b84354c4b156c", "is_disabled": 0, "fusion_lon": 0.0, "type": "electric_scooter", "lon": -76.98355316666667}, {"rental_uris": {"android": "https://dc.lft.to/lastmile_qr_scan", "ios": "https://dc.lft.to/lastmile_qr_scan"}, "fusion_lat": 0.0, "is_reserved": 0, "lat": 38.876568166666665, "name": "6e8e08f6ffd3eefac5de925e7329d1d8", "bike_id": "6e8e08f6ffd3eefac5de925e7329d1d8", "is_disabled": 0, "fusion_lon": 0.0, "type": "electric_scooter", "lon": -77.0158175}, {"rental_uris": {"android": "https://dc.lft.to/lastmile_qr_scan", "ios": "https://dc.lft.to/lastmile_qr_scan"}, "fusion_lat": 0.0, "is_reserved": 0, "lat": 38.917359166666664, "name": "ec822ce1b3f00724067819e3f8b9db37", "bike_id": "ec822ce1b3f00724067819e3f8b9db37", "is_disabled": 0, "fusion_lon": 0.0, "type": "electric_scooter", "lon": -77.04173433333334}, {"rental_uris": {"android": "https://dc.lft.to/lastmile_qr_scan", "ios": "https://dc.lft.to/lastmile_qr_scan"}, "fusion_lat": 0.0, "is_reserved": 0, "lat": 38.92212416666667, "name": "cadf3bd6377ea717a14e236b2847e98f", "bike_id": "cadf3bd6377ea717a14e236b2847e98f", "is_disabled": 0, "fusion_lon": 0.0, "type": "electric_scooter", "lon": -77.02657133333334}, {"rental_uris": {"android": "https://dc.lft.to/lastmile_qr_scan", "ios": "https://dc.lft.to/lastmile_qr_scan"}, "fusion_lat": 0.0, "is_reserved": 0, "lat": 38.90972283333333, "name": "16c93fdf3b988617ed2c612a2747234d", "bike_id": "16c93fdf3b988617ed2c612a2747234d", "is_disabled": 0, "fusion_lon": 0.0, "type": "electric_scooter", "lon": -77.02579866666666}, {"rental_uris": {"android": "https://dc.lft.to/lastmile_qr_scan", "ios": "https://dc.lft.to/lastmile_qr_scan"}, "fusion_lat": 0.0, "is_reserved": 0, "lat": 38.8922225, "name": "53ad22493825416033fc062dc41796d6", "bike_id": "53ad22493825416033fc062dc41796d6", "is_disabled": 0, "fusion_lon": 0.0, "type": "electric_scooter", "lon": -77.022267}, {"rental_uris": {"android": "https://dc.lft.to/lastmile_qr_scan", "ios": "https://dc.lft.to/lastmile_qr_scan"}, "fusion_lat": 0.0, "is_reserved": 0, "lat": 38.90273116666667, "name": "583e89e70fffc7d01e166d96dcb51154", "bike_id": "583e89e70fffc7d01e166d96dcb51154", "is_disabled": 0, "fusion_lon": 0.0, "type": "electric_scooter", "lon": -77.03928383333333}, {"rental_uris": {"android": "https://dc.lft.to/lastmile_qr_scan", "ios": "https://dc.lft.to/lastmile_qr_scan"}, "fusion_lat": 0.0, "is_reserved": 0, "lat": 38.914927, "name": "5332d7d57a49d4ce77fd840f473d1a2e", "bike_id": "5332d7d57a49d4ce77fd840f473d1a2e", "is_disabled": 0, "fusion_lon": 0.0, "type": "electric_scooter", "lon": -77.01860166666667}, {"rental_uris": {"android": "https://dc.lft.to/lastmile_qr_scan", "ios": "https://dc.lft.to/lastmile_qr_scan"}, "fusion_lat": 0.0, "is_reserved": 0, "lat": 38.92949333333333, "name": "f3bd0b821e41ea1aaf45f10ada7bfe13", "bike_id": "f3bd0b821e41ea1aaf45f10ada7bfe13", "is_disabled": 0, "fusion_lon": 0.0, "type": "electric_scooter", "lon": -77.00404466666667}, {"rental_uris": {"android": "https://dc.lft.to/lastmile_qr_scan", "ios": "https://dc.lft.to/lastmile_qr_scan"}, "fusion_lat": 0.0, "is_reserved": 0, "lat": 38.908174333333335, "name": "51d3292650ff10ce53a0596fe15610f1", "bike_id": "51d3292650ff10ce53a0596fe15610f1", "is_disabled": 0, "fusion_lon": 0.0, "type": "electric_scooter", "lon": -77.06912883333334}, {"rental_uris": {"android": "https://dc.lft.to/lastmile_qr_scan", "ios": "https://dc.lft.to/lastmile_qr_scan"}, "fusion_lat": 0.0, "is_reserved": 0, "lat": 38.8971425, "name": "c5f99b067c57ece1a7b1ff3914e6fd2d", "bike_id": "c5f99b067c57ece1a7b1ff3914e6fd2d", "is_disabled": 0, "fusion_lon": 0.0, "type": "electric_scooter", "lon": -77.028192}, {"rental_uris": {"android": "https://dc.lft.to/lastmile_qr_scan", "ios": "https://dc.lft.to/lastmile_qr_scan"}, "fusion_lat": 0.0, "is_reserved": 0, "lat": 38.91985433333333, "name": "e74b17f19614ec6e85857f3b6f3527d7", "bike_id": "e74b17f19614ec6e85857f3b6f3527d7", "is_disabled": 0, "fusion_lon": 0.0, "type": "electric_scooter", "lon": -77.04172483333333}, {"rental_uris": {"android": "https://dc.lft.to/lastmile_qr_scan", "ios": "https://dc.lft.to/lastmile_qr_scan"}, "fusion_lat": 0.0, "is_reserved": 0, "lat": 38.923662666666665, "name": "d5d959e812f662c9dfb210d61a016853", "bike_id": "d5d959e812f662c9dfb210d61a016853", "is_disabled": 0, "fusion_lon": 0.0, "type": "electric_scooter", "lon": -77.05026666666667}, {"rental_uris": {"android": "https://dc.lft.to/lastmile_qr_scan", "ios": "https://dc.lft.to/lastmile_qr_scan"}, "fusion_lat": 0.0, "is_reserved": 0, "lat": 38.900430166666666, "name": "ffdcf88e6bb993c15e56e88a0146cff7", "bike_id": "ffdcf88e6bb993c15e56e88a0146cff7", "is_disabled": 0, "fusion_lon": 0.0, "type": "electric_scooter", "lon": -77.01762183333334}, {"rental_uris": {"android": "https://dc.lft.to/lastmile_qr_scan", "ios": "https://dc.lft.to/lastmile_qr_scan"}, "fusion_lat": 0.0, "is_reserved": 0, "lat": 38.911900333333335, "name": "bf3a0ea84f82a2ae3832e6706f1d3f15", "bike_id": "bf3a0ea84f82a2ae3832e6706f1d3f15", "is_disabled": 0, "fusion_lon": 0.0, "type": "electric_scooter", "lon": -77.00783133333333}, {"rental_uris": {"android": "https://dc.lft.to/lastmile_qr_scan", "ios": "https://dc.lft.to/lastmile_qr_scan"}, "fusion_lat": 0.0, "is_reserved": 0, "lat": 38.93673183333333, "name": "03e48671c5749dc2ce106d40cd70b8f6", "bike_id": "03e48671c5749dc2ce106d40cd70b8f6", "is_disabled": 0, "fusion_lon": 0.0, "type": "electric_scooter", "lon": -77.0363125}, {"rental_uris": {"android": "https://dc.lft.to/lastmile_qr_scan", "ios": "https://dc.lft.to/lastmile_qr_scan"}, "fusion_lat": 0.0, "is_reserved": 0, "lat": 38.9070665, "name": "1affe92d14851866e3a2ead7ca2892b7", "bike_id": "1affe92d14851866e3a2ead7ca2892b7", "is_disabled": 0, "fusion_lon": 0.0, "type": "electric_scooter", "lon": -77.03197933333334}, {"rental_uris": {"android": "https://dc.lft.to/lastmile_qr_scan", "ios": "https://dc.lft.to/lastmile_qr_scan"}, "fusion_lat": 0.0, "is_reserved": 0, "lat": 38.956286, "name": "d417c32caa551c5e3e4549189fbe0d30", "bike_id": "d417c32caa551c5e3e4549189fbe0d30", "is_disabled": 0, "fusion_lon": 0.0, "type": "electric_scooter", "lon": -77.02426716666666}, {"rental_uris": {"android": "https://dc.lft.to/lastmile_qr_scan", "ios": "https://dc.lft.to/lastmile_qr_scan"}, "fusion_lat": 0.0, "is_reserved": 0, "lat": 39.094368, "name": "e102077041b0cca6aefac3f18a1d74ca", "bike_id": "e102077041b0cca6aefac3f18a1d74ca", "is_disabled": 0, "fusion_lon": 0.0, "type": "electric_bike", "lon": -77.1345985}, {"rental_uris": {"android": "https://dc.lft.to/lastmile_qr_scan", "ios": "https://dc.lft.to/lastmile_qr_scan"}, "fusion_lat": 0.0, "is_reserved": 0, "lat": 38.90506766666667, "name": "5c48c35d78c2392fbedd5c28ee69df16", "bike_id": "5c48c35d78c2392fbedd5c28ee69df16", "is_disabled": 0, "fusion_lon": 0.0, "type": "electric_scooter", "lon": -77.02947066666667}, {"rental_uris": {"android": "https://dc.lft.to/lastmile_qr_scan", "ios": "https://dc.lft.to/lastmile_qr_scan"}, "fusion_lat": 0.0, "is_reserved": 0, "lat": 38.93947516666667, "name": "ee462d38a28e8888aecb9872a19e773c", "bike_id": "ee462d38a28e8888aecb9872a19e773c", "is_disabled": 0, "fusion_lon": 0.0, "type": "electric_scooter", "lon": -77.03263633333333}, {"rental_uris": {"android": "https://dc.lft.to/lastmile_qr_scan", "ios": "https://dc.lft.to/lastmile_qr_scan"}, "fusion_lat": 0.0, "is_reserved": 0, "lat": 38.90386616666667, "name": "42c6e41baa72034469ff408cdf578d8a", "bike_id": "42c6e41baa72034469ff408cdf578d8a", "is_disabled": 0, "fusion_lon": 0.0, "type": "electric_scooter", "lon": -76.99854483333333}, {"rental_uris": {"android": "https://dc.lft.to/lastmile_qr_scan", "ios": "https://dc.lft.to/lastmile_qr_scan"}, "fusion_lat": 0.0, "is_reserved": 0, "lat": 38.92996216666667, "name": "421c72427406e1832df5917b0fdec4e7", "bike_id": "421c72427406e1832df5917b0fdec4e7", "is_disabled": 0, "fusion_lon": 0.0, "type": "electric_scooter", "lon": -77.03796816666667}, {"rental_uris": {"android": "https://dc.lft.to/lastmile_qr_scan", "ios": "https://dc.lft.to/lastmile_qr_scan"}, "fusion_lat": 0.0, "is_reserved": 0, "lat": 38.89708366666667, "name": "d969bd5e51787f7b66a46856ee62090f", "bike_id": "d969bd5e51787f7b66a46856ee62090f", "is_disabled": 0, "fusion_lon": 0.0, "type": "electric_scooter", "lon": -76.99117133333333}, {"rental_uris": {"android": "https://dc.lft.to/lastmile_qr_scan", "ios": "https://dc.lft.to/lastmile_qr_scan"}, "fusion_lat": 0.0, "is_reserved": 0, "lat": 38.950092833333336, "name": "155acb48b6869d54e58748d66f64ca1e", "bike_id": "155acb48b6869d54e58748d66f64ca1e", "is_disabled": 0, "fusion_lon": 0.0, "type": "electric_scooter", "lon": -77.01742833333333}, {"rental_uris": {"android": "https://dc.lft.to/lastmile_qr_scan", "ios": "https://dc.lft.to/lastmile_qr_scan"}, "fusion_lat": 0.0, "is_reserved": 0, "lat": 38.918184, "name": "11019aca8f30ce8c2b51e4a391f5e93e", "bike_id": "11019aca8f30ce8c2b51e4a391f5e93e", "is_disabled": 0, "fusion_lon": 0.0, "type": "electric_scooter", "lon": -77.02537783333334}, {"rental_uris": {"android": "https://dc.lft.to/lastmile_qr_scan", "ios": "https://dc.lft.to/lastmile_qr_scan"}, "fusion_lat": 0.0, "is_reserved": 0, "lat": 38.91600366666667, "name": "add5e80accf6b6db3997e7cd55ecd781", "bike_id": "add5e80accf6b6db3997e7cd55ecd781", "is_disabled": 0, "fusion_lon": 0.0, "type": "electric_scooter", "lon": -77.012131}, {"rental_uris": {"android": "https://dc.lft.to/lastmile_qr_scan", "ios": "https://dc.lft.to/lastmile_qr_scan"}, "fusion_lat": 0.0, "is_reserved": 0, "lat": 38.9364145, "name": "c924c4f45b49049860d3123d50fb319c", "bike_id": "c924c4f45b49049860d3123d50fb319c", "is_disabled": 0, "fusion_lon": 0.0, "type": "electric_scooter", "lon": -77.0600135}, {"rental_uris": {"android": "https://dc.lft.to/lastmile_qr_scan", "ios": "https://dc.lft.to/lastmile_qr_scan"}, "fusion_lat": 0.0, "is_reserved": 0, "lat": 38.917069833333336, "name": "df427bc43a4f31648b228d4a0fcf7cd4", "bike_id": "df427bc43a4f31648b228d4a0fcf7cd4", "is_disabled": 0, "fusion_lon": 0.0, "type": "electric_scooter", "lon": -77.01072616666667}, {"rental_uris": {"android": "https://dc.lft.to/lastmile_qr_scan", "ios": "https://dc.lft.to/lastmile_qr_scan"}, "fusion_lat": 0.0, "is_reserved": 0, "lat": 38.8913495, "name": "0fdd2c83c62a310b38a19cc3b1204d00", "bike_id": "0fdd2c83c62a310b38a19cc3b1204d00", "is_disabled": 0, "fusion_lon": 0.0, "type": "electric_bike", "lon": -76.99160966666666}, {"rental_uris": {"android": "https://dc.lft.to/lastmile_qr_scan", "ios": "https://dc.lft.to/lastmile_qr_scan"}, "fusion_lat": 0.0, "is_reserved": 0, "lat": 38.92373083333333, "name": "a5b0686d08407f349515cc2ee7067da4", "bike_id": "a5b0686d08407f349515cc2ee7067da4", "is_disabled": 0, "fusion_lon": 0.0, "type": "electric_scooter", "lon": -77.080539}, {"rental_uris": {"android": "https://dc.lft.to/lastmile_qr_scan", "ios": "https://dc.lft.to/lastmile_qr_scan"}, "fusion_lat": 0.0, "is_reserved": 0, "lat": 38.895496333333334, "name": "dd0f90afa9c8e0ffb8f69c0018b2fd8b", "bike_id": "dd0f90afa9c8e0ffb8f69c0018b2fd8b", "is_disabled": 0, "fusion_lon": 0.0, "type": "electric_scooter", "lon": -77.02982183333333}, {"rental_uris": {"android": "https://dc.lft.to/lastmile_qr_scan", "ios": "https://dc.lft.to/lastmile_qr_scan"}, "fusion_lat": 0.0, "is_reserved": 0, "lat": 38.90433, "name": "2c5b1fa5c23afda577ad70699c50e323", "bike_id": "2c5b1fa5c23afda577ad70699c50e323", "is_disabled": 0, "fusion_lon": 0.0, "type": "electric_scooter", "lon": -77.02592433333334}, {"rental_uris": {"android": "https://dc.lft.to/lastmile_qr_scan", "ios": "https://dc.lft.to/lastmile_qr_scan"}, "fusion_lat": 0.0, "is_reserved": 0, "lat": 38.90914933333333, "name": "42b2ec894e1eec169254b0e7a2b968d1", "bike_id": "42b2ec894e1eec169254b0e7a2b968d1", "is_disabled": 0, "fusion_lon": 0.0, "type": "electric_scooter", "lon": -77.030931}, {"rental_uris": {"android": "https://dc.lft.to/lastmile_qr_scan", "ios": "https://dc.lft.to/lastmile_qr_scan"}, "fusion_lat": 0.0, "is_reserved": 0, "lat": 38.909132166666666, "name": "7634996ec46d243369d46a912fe59e22", "bike_id": "7634996ec46d243369d46a912fe59e22", "is_disabled": 0, "fusion_lon": 0.0, "type": "electric_scooter", "lon": -77.04417516666666}, {"rental_uris": {"android": "https://dc.lft.to/lastmile_qr_scan", "ios": "https://dc.lft.to/lastmile_qr_scan"}, "fusion_lat": 0.0, "is_reserved": 0, "lat": 38.91263416666666, "name": "e384542ace5d11a52c36abe88ddf8f3a", "bike_id": "e384542ace5d11a52c36abe88ddf8f3a", "is_disabled": 0, "fusion_lon": 0.0, "type": "electric_scooter", "lon": -77.03508}, {"rental_uris": {"android": "https://dc.lft.to/lastmile_qr_scan", "ios": "https://dc.lft.to/lastmile_qr_scan"}, "fusion_lat": 0.0, "is_reserved": 0, "lat": 38.87905133333334, "name": "d086e2270d4f7f6674bc51b0d2e95040", "bike_id": "d086e2270d4f7f6674bc51b0d2e95040", "is_disabled": 0, "fusion_lon": 0.0, "type": "electric_scooter", "lon": -77.0060915}, {"rental_uris": {"android": "https://dc.lft.to/lastmile_qr_scan", "ios": "https://dc.lft.to/lastmile_qr_scan"}, "fusion_lat": 0.0, "is_reserved": 0, "lat": 38.9033055, "name": "80c0bae3ea20e8cd98ae731dbbb56e73", "bike_id": "80c0bae3ea20e8cd98ae731dbbb56e73", "is_disabled": 0, "fusion_lon": 0.0, "type": "electric_bike", "lon": -76.97530016666667}, {"rental_uris": {"android": "https://dc.lft.to/lastmile_qr_scan", "ios": "https://dc.lft.to/lastmile_qr_scan"}, "fusion_lat": 0.0, "is_reserved": 0, "lat": 38.934562666666665, "name": "60e202e1e731399070d0261b89af6596", "bike_id": "60e202e1e731399070d0261b89af6596", "is_disabled": 0, "fusion_lon": 0.0, "type": "electric_scooter", "lon": -77.0273055}, {"rental_uris": {"android": "https://dc.lft.to/lastmile_qr_scan", "ios": "https://dc.lft.to/lastmile_qr_scan"}, "fusion_lat": 0.0, "is_reserved": 0, "lat": 38.9191105, "name": "ccd60dacc3749f66bd6b6c7229bb7ca9", "bike_id": "ccd60dacc3749f66bd6b6c7229bb7ca9", "is_disabled": 0, "fusion_lon": 0.0, "type": "electric_scooter", "lon": -77.0416095}, {"rental_uris": {"android": "https://dc.lft.to/lastmile_qr_scan", "ios": "https://dc.lft.to/lastmile_qr_scan"}, "fusion_lat": 0.0, "is_reserved": 0, "lat": 38.94164166666667, "name": "b993e0bc181eba8e1aaec1432a3ad5a3", "bike_id": "b993e0bc181eba8e1aaec1432a3ad5a3", "is_disabled": 0, "fusion_lon": 0.0, "type": "electric_scooter", "lon": -77.02557883333333}, {"rental_uris": {"android": "https://dc.lft.to/lastmile_qr_scan", "ios": "https://dc.lft.to/lastmile_qr_scan"}, "fusion_lat": 0.0, "is_reserved": 0, "lat": 38.899159166666664, "name": "81f6ba94d33d01919b44ce708950a723", "bike_id": "81f6ba94d33d01919b44ce708950a723", "is_disabled": 0, "fusion_lon": 0.0, "type": "electric_scooter", "lon": -76.9336545}, {"rental_uris": {"android": "https://dc.lft.to/lastmile_qr_scan", "ios": "https://dc.lft.to/lastmile_qr_scan"}, "fusion_lat": 0.0, "is_reserved": 0, "lat": 38.88539433333333, "name": "5522330614a01472cabceb9d81c7f8ce", "bike_id": "5522330614a01472cabceb9d81c7f8ce", "is_disabled": 0, "fusion_lon": 0.0, "type": "electric_scooter", "lon": -77.02168883333333}, {"rental_uris": {"android": "https://dc.lft.to/lastmile_qr_scan", "ios": "https://dc.lft.to/lastmile_qr_scan"}, "fusion_lat": 0.0, "is_reserved": 0, "lat": 38.90562516666667, "name": "8a4cb682ecde9d204beba01b391b3517", "bike_id": "8a4cb682ecde9d204beba01b391b3517", "is_disabled": 0, "fusion_lon": 0.0, "type": "electric_scooter", "lon": -77.03230783333333}, {"rental_uris": {"android": "https://dc.lft.to/lastmile_qr_scan", "ios": "https://dc.lft.to/lastmile_qr_scan"}, "fusion_lat": 0.0, "is_reserved": 0, "lat": 38.92928766666667, "name": "271330656b47d11488c688f8009ff0ca", "bike_id": "271330656b47d11488c688f8009ff0ca", "is_disabled": 0, "fusion_lon": 0.0, "type": "electric_scooter", "lon": -77.02960233333333}, {"rental_uris": {"android": "https://dc.lft.to/lastmile_qr_scan", "ios": "https://dc.lft.to/lastmile_qr_scan"}, "fusion_lat": 0.0, "is_reserved": 0, "lat": 38.92072833333334, "name": "bf1062f9356bbeec9c17c21ba3cb807e", "bike_id": "bf1062f9356bbeec9c17c21ba3cb807e", "is_disabled": 0, "fusion_lon": 0.0, "type": "electric_scooter", "lon": -77.0345125}, {"rental_uris": {"android": "https://dc.lft.to/lastmile_qr_scan", "ios": "https://dc.lft.to/lastmile_qr_scan"}, "fusion_lat": 0.0, "is_reserved": 0, "lat": 38.9546865, "name": "c6af2f50b52a9e215d8bdc659366de2a", "bike_id": "c6af2f50b52a9e215d8bdc659366de2a", "is_disabled": 0, "fusion_lon": 0.0, "type": "electric_scooter", "lon": -77.077707}, {"rental_uris": {"android": "https://dc.lft.to/lastmile_qr_scan", "ios": "https://dc.lft.to/lastmile_qr_scan"}, "fusion_lat": 0.0, "is_reserved": 0, "lat": 38.9056935, "name": "aa292cbbb550a3727815e7022578b92c", "bike_id": "aa292cbbb550a3727815e7022578b92c", "is_disabled": 0, "fusion_lon": 0.0, "type": "electric_scooter", "lon": -77.04231033333333}, {"rental_uris": {"android": "https://dc.lft.to/lastmile_qr_scan", "ios": "https://dc.lft.to/lastmile_qr_scan"}, "fusion_lat": 0.0, "is_reserved": 0, "lat": 38.88601, "name": "0f1301d15136d6459fd7a02646f89313", "bike_id": "0f1301d15136d6459fd7a02646f89313", "is_disabled": 0, "fusion_lon": 0.0, "type": "electric_scooter", "lon": -77.00407416666667}, {"rental_uris": {"android": "https://dc.lft.to/lastmile_qr_scan", "ios": "https://dc.lft.to/lastmile_qr_scan"}, "fusion_lat": 0.0, "is_reserved": 0, "lat": 38.898733666666665, "name": "9ed313c4fb001daed8f1c9220af92342", "bike_id": "9ed313c4fb001daed8f1c9220af92342", "is_disabled": 0, "fusion_lon": 0.0, "type": "electric_scooter", "lon": -77.0467315}, {"rental_uris": {"android": "https://dc.lft.to/lastmile_qr_scan", "ios": "https://dc.lft.to/lastmile_qr_scan"}, "fusion_lat": 0.0, "is_reserved": 0, "lat": 38.91623533333333, "name": "1edd6c389e2230eb0f1b6fd71eb99cca", "bike_id": "1edd6c389e2230eb0f1b6fd71eb99cca", "is_disabled": 0, "fusion_lon": 0.0, "type": "electric_scooter", "lon": -77.00212216666667}, {"rental_uris": {"android": "https://dc.lft.to/lastmile_qr_scan", "ios": "https://dc.lft.to/lastmile_qr_scan"}, "fusion_lat": 0.0, "is_reserved": 0, "lat": 38.91018433333333, "name": "ba4b545a8b0e9803136bfd2bf5fe6520", "bike_id": "ba4b545a8b0e9803136bfd2bf5fe6520", "is_disabled": 0, "fusion_lon": 0.0, "type": "electric_scooter", "lon": -77.05270016666667}, {"rental_uris": {"android": "https://dc.lft.to/lastmile_qr_scan", "ios": "https://dc.lft.to/lastmile_qr_scan"}, "fusion_lat": 0.0, "is_reserved": 0, "lat": 38.9134925, "name": "a966d2b1694e284ee2a6e410e0e704d7", "bike_id": "a966d2b1694e284ee2a6e410e0e704d7", "is_disabled": 0, "fusion_lon": 0.0, "type": "electric_scooter", "lon": -77.03197166666666}, {"rental_uris": {"android": "https://dc.lft.to/lastmile_qr_scan", "ios": "https://dc.lft.to/lastmile_qr_scan"}, "fusion_lat": 0.0, "is_reserved": 0, "lat": 38.91781616666667, "name": "f2aeb0e1b9586cb9e677f9ef3e0efbb7", "bike_id": "f2aeb0e1b9586cb9e677f9ef3e0efbb7", "is_disabled": 0, "fusion_lon": 0.0, "type": "electric_scooter", "lon": -77.034434}, {"rental_uris": {"android": "https://dc.lft.to/lastmile_qr_scan", "ios": "https://dc.lft.to/lastmile_qr_scan"}, "fusion_lat": 0.0, "is_reserved": 0, "lat": 38.914054166666666, "name": "cdcbb3d025bb3df3453b80d68395150a", "bike_id": "cdcbb3d025bb3df3453b80d68395150a", "is_disabled": 0, "fusion_lon": 0.0, "type": "electric_scooter", "lon": -77.0316985}, {"rental_uris": {"android": "https://dc.lft.to/lastmile_qr_scan", "ios": "https://dc.lft.to/lastmile_qr_scan"}, "fusion_lat": 0.0, "is_reserved": 0, "lat": 38.90156016666667, "name": "37d32b4baafada405bcd39fe0f952447", "bike_id": "37d32b4baafada405bcd39fe0f952447", "is_disabled": 0, "fusion_lon": 0.0, "type": "electric_scooter", "lon": -77.025935}, {"rental_uris": {"android": "https://dc.lft.to/lastmile_qr_scan", "ios": "https://dc.lft.to/lastmile_qr_scan"}, "fusion_lat": 0.0, "is_reserved": 0, "lat": 38.89406816666666, "name": "f536bdf64cc381b7eecf248c5f96bcc3", "bike_id": "f536bdf64cc381b7eecf248c5f96bcc3", "is_disabled": 0, "fusion_lon": 0.0, "type": "electric_scooter", "lon": -77.02329716666667}, {"rental_uris": {"android": "https://dc.lft.to/lastmile_qr_scan", "ios": "https://dc.lft.to/lastmile_qr_scan"}, "fusion_lat": 0.0, "is_reserved": 0, "lat": 38.91881566666667, "name": "086bbca29e41ee4ad8db5c1ea220fc6e", "bike_id": "086bbca29e41ee4ad8db5c1ea220fc6e", "is_disabled": 0, "fusion_lon": 0.0, "type": "electric_scooter", "lon": -77.04174266666666}, {"rental_uris": {"android": "https://dc.lft.to/lastmile_qr_scan", "ios": "https://dc.lft.to/lastmile_qr_scan"}, "fusion_lat": 0.0, "is_reserved": 0, "lat": 38.9311815, "name": "54f7236d030e945d210a05e4b2f24afe", "bike_id": "54f7236d030e945d210a05e4b2f24afe", "is_disabled": 0, "fusion_lon": 0.0, "type": "electric_bike", "lon": -77.02729866666667}, {"rental_uris": {"android": "https://dc.lft.to/lastmile_qr_scan", "ios": "https://dc.lft.to/lastmile_qr_scan"}, "fusion_lat": 0.0, "is_reserved": 0, "lat": 38.9208365, "name": "8516aca4880bf04fe978ea20d9a00bed", "bike_id": "8516aca4880bf04fe978ea20d9a00bed", "is_disabled": 0, "fusion_lon": 0.0, "type": "electric_scooter", "lon": -77.0250435}, {"rental_uris": {"android": "https://dc.lft.to/lastmile_qr_scan", "ios": "https://dc.lft.to/lastmile_qr_scan"}, "fusion_lat": 0.0, "is_reserved": 0, "lat": 38.919243333333334, "name": "7fd3c5ff4b90d0ecea50df56fe14f3e5", "bike_id": "7fd3c5ff4b90d0ecea50df56fe14f3e5", "is_disabled": 0, "fusion_lon": 0.0, "type": "electric_scooter", "lon": -77.00993533333333}, {"rental_uris": {"android": "https://dc.lft.to/lastmile_qr_scan", "ios": "https://dc.lft.to/lastmile_qr_scan"}, "fusion_lat": 0.0, "is_reserved": 0, "lat": 38.9297315, "name": "a3280f84af02a5b40e68f3454ce31403", "bike_id": "a3280f84af02a5b40e68f3454ce31403", "is_disabled": 0, "fusion_lon": 0.0, "type": "electric_scooter", "lon": -77.02795583333334}, {"rental_uris": {"android": "https://dc.lft.to/lastmile_qr_scan", "ios": "https://dc.lft.to/lastmile_qr_scan"}, "fusion_lat": 0.0, "is_reserved": 0, "lat": 38.8926815, "name": "9b40ecb927b833349367b05f9bff07fa", "bike_id": "9b40ecb927b833349367b05f9bff07fa", "is_disabled": 0, "fusion_lon": 0.0, "type": "electric_scooter", "lon": -77.0420845}, {"rental_uris": {"android": "https://dc.lft.to/lastmile_qr_scan", "ios": "https://dc.lft.to/lastmile_qr_scan"}, "fusion_lat": 0.0, "is_reserved": 0, "lat": 39.08428283333333, "name": "1ce3201ecc4b745325c0513cd1839a3a", "bike_id": "1ce3201ecc4b745325c0513cd1839a3a", "is_disabled": 0, "fusion_lon": 0.0, "type": "electric_bike", "lon": -76.95150883333334}, {"rental_uris": {"android": "https://dc.lft.to/lastmile_qr_scan", "ios": "https://dc.lft.to/lastmile_qr_scan"}, "fusion_lat": 0.0, "is_reserved": 0, "lat": 38.919279833333334, "name": "6cbf5099ad2b3b21825d01c068ca27d0", "bike_id": "6cbf5099ad2b3b21825d01c068ca27d0", "is_disabled": 0, "fusion_lon": 0.0, "type": "electric_scooter", "lon": -77.01927966666666}, {"rental_uris": {"android": "https://dc.lft.to/lastmile_qr_scan", "ios": "https://dc.lft.to/lastmile_qr_scan"}, "fusion_lat": 0.0, "is_reserved": 0, "lat": 38.8873205, "name": "ecb128aaf7d7e0ebbc23d0de8c8940c5", "bike_id": "ecb128aaf7d7e0ebbc23d0de8c8940c5", "is_disabled": 0, "fusion_lon": 0.0, "type": "electric_scooter", "lon": -77.03179866666666}, {"rental_uris": {"android": "https://dc.lft.to/lastmile_qr_scan", "ios": "https://dc.lft.to/lastmile_qr_scan"}, "fusion_lat": 0.0, "is_reserved": 0, "lat": 38.865026, "name": "c9fee74eb57dcc99aa336a4c78ab6d79", "bike_id": "c9fee74eb57dcc99aa336a4c78ab6d79", "is_disabled": 0, "fusion_lon": 0.0, "type": "electric_scooter", "lon": -76.9805795}, {"rental_uris": {"android": "https://dc.lft.to/lastmile_qr_scan", "ios": "https://dc.lft.to/lastmile_qr_scan"}, "fusion_lat": 0.0, "is_reserved": 0, "lat": 38.9456295, "name": "6853a0d838e0b2a4bd3c2a322cc72fc8", "bike_id": "6853a0d838e0b2a4bd3c2a322cc72fc8", "is_disabled": 0, "fusion_lon": 0.0, "type": "electric_bike", "lon": -76.95842333333333}, {"rental_uris": {"android": "https://dc.lft.to/lastmile_qr_scan", "ios": "https://dc.lft.to/lastmile_qr_scan"}, "fusion_lat": 0.0, "is_reserved": 0, "lat": 38.90558433333333, "name": "c41da5eec340dc3deff54358c26ae21c", "bike_id": "c41da5eec340dc3deff54358c26ae21c", "is_disabled": 0, "fusion_lon": 0.0, "type": "electric_scooter", "lon": -77.02713983333334}, {"rental_uris": {"android": "https://dc.lft.to/lastmile_qr_scan", "ios": "https://dc.lft.to/lastmile_qr_scan"}, "fusion_lat": 0.0, "is_reserved": 0, "lat": 38.905141666666665, "name": "1e29d5e499b916b960da0e11e7cb7336", "bike_id": "1e29d5e499b916b960da0e11e7cb7336", "is_disabled": 0, "fusion_lon": 0.0, "type": "electric_scooter", "lon": -77.0403045}, {"rental_uris": {"android": "https://dc.lft.to/lastmile_qr_scan", "ios": "https://dc.lft.to/lastmile_qr_scan"}, "fusion_lat": 0.0, "is_reserved": 0, "lat": 38.8866185, "name": "c83330bd9e797531001bd541b6be9f84", "bike_id": "c83330bd9e797531001bd541b6be9f84", "is_disabled": 0, "fusion_lon": 0.0, "type": "electric_scooter", "lon": -76.93674483333334}, {"rental_uris": {"android": "https://dc.lft.to/lastmile_qr_scan", "ios": "https://dc.lft.to/lastmile_qr_scan"}, "fusion_lat": 0.0, "is_reserved": 0, "lat": 38.9042115, "name": "7364ef71eaa6ae315a2bd41499977b27", "bike_id": "7364ef71eaa6ae315a2bd41499977b27", "is_disabled": 0, "fusion_lon": 0.0, "type": "electric_scooter", "lon": -77.0060695}, {"rental_uris": {"android": "https://dc.lft.to/lastmile_qr_scan", "ios": "https://dc.lft.to/lastmile_qr_scan"}, "fusion_lat": 0.0, "is_reserved": 0, "lat": 38.908434, "name": "cc66cc9cd1629601fe8c8b21dda3bf56", "bike_id": "cc66cc9cd1629601fe8c8b21dda3bf56", "is_disabled": 0, "fusion_lon": 0.0, "type": "electric_scooter", "lon": -77.04482116666667}, {"rental_uris": {"android": "https://dc.lft.to/lastmile_qr_scan", "ios": "https://dc.lft.to/lastmile_qr_scan"}, "fusion_lat": 0.0, "is_reserved": 0, "lat": 38.945365, "name": "a2506a3d3f81d1547a0abc510edf74fe", "bike_id": "a2506a3d3f81d1547a0abc510edf74fe", "is_disabled": 0, "fusion_lon": 0.0, "type": "electric_bike", "lon": -77.344482}, {"rental_uris": {"android": "https://dc.lft.to/lastmile_qr_scan", "ios": "https://dc.lft.to/lastmile_qr_scan"}, "fusion_lat": 0.0, "is_reserved": 0, "lat": 38.924526666666665, "name": "d56199395af0c476965d6ab5ea900bc7", "bike_id": "d56199395af0c476965d6ab5ea900bc7", "is_disabled": 0, "fusion_lon": 0.0, "type": "electric_scooter", "lon": -77.02159266666666}, {"rental_uris": {"android": "https://dc.lft.to/lastmile_qr_scan", "ios": "https://dc.lft.to/lastmile_qr_scan"}, "fusion_lat": 0.0, "is_reserved": 0, "lat": 38.93754883333333, "name": "df186baaf8da814e48164db90258c55c", "bike_id": "df186baaf8da814e48164db90258c55c", "is_disabled": 0, "fusion_lon": 0.0, "type": "electric_bike", "lon": -77.02931033333333}, {"rental_uris": {"android": "https://dc.lft.to/lastmile_qr_scan", "ios": "https://dc.lft.to/lastmile_qr_scan"}, "fusion_lat": 0.0, "is_reserved": 0, "lat": 38.916649666666665, "name": "5a2db16560aa450780c95c42ae4f728f", "bike_id": "5a2db16560aa450780c95c42ae4f728f", "is_disabled": 0, "fusion_lon": 0.0, "type": "electric_scooter", "lon": -77.02467283333333}, {"rental_uris": {"android": "https://dc.lft.to/lastmile_qr_scan", "ios": "https://dc.lft.to/lastmile_qr_scan"}, "fusion_lat": 0.0, "is_reserved": 0, "lat": 38.900553, "name": "2ddc43f99b37412eb003251fee7ed20c", "bike_id": "2ddc43f99b37412eb003251fee7ed20c", "is_disabled": 0, "fusion_lon": 0.0, "type": "electric_scooter", "lon": -77.05025766666667}, {"rental_uris": {"android": "https://dc.lft.to/lastmile_qr_scan", "ios": "https://dc.lft.to/lastmile_qr_scan"}, "fusion_lat": 0.0, "is_reserved": 0, "lat": 38.92762966666667, "name": "de7d0f53d5e121d828642d220c2ed618", "bike_id": "de7d0f53d5e121d828642d220c2ed618", "is_disabled": 0, "fusion_lon": 0.0, "type": "electric_scooter", "lon": -77.05262133333333}, {"rental_uris": {"android": "https://dc.lft.to/lastmile_qr_scan", "ios": "https://dc.lft.to/lastmile_qr_scan"}, "fusion_lat": 0.0, "is_reserved": 0, "lat": 38.8672055, "name": "8ab7b2c1d085bb6637d55cf0c2ceea23", "bike_id": "8ab7b2c1d085bb6637d55cf0c2ceea23", "is_disabled": 0, "fusion_lon": 0.0, "type": "electric_scooter", "lon": -76.980738}, {"rental_uris": {"android": "https://dc.lft.to/lastmile_qr_scan", "ios": "https://dc.lft.to/lastmile_qr_scan"}, "fusion_lat": 0.0, "is_reserved": 0, "lat": 38.949630666666664, "name": "a9955c8a892d2a4fb6cfa5f33fa5cd6c", "bike_id": "a9955c8a892d2a4fb6cfa5f33fa5cd6c", "is_disabled": 0, "fusion_lon": 0.0, "type": "electric_bike", "lon": -77.06631166666666}, {"rental_uris": {"android": "https://dc.lft.to/lastmile_qr_scan", "ios": "https://dc.lft.to/lastmile_qr_scan"}, "fusion_lat": 0.0, "is_reserved": 0, "lat": 38.898735333333335, "name": "b665771d1dfb7b9e399ad63b3ea10613", "bike_id": "b665771d1dfb7b9e399ad63b3ea10613", "is_disabled": 0, "fusion_lon": 0.0, "type": "electric_scooter", "lon": -77.04553733333333}, {"rental_uris": {"android": "https://dc.lft.to/lastmile_qr_scan", "ios": "https://dc.lft.to/lastmile_qr_scan"}, "fusion_lat": 0.0, "is_reserved": 0, "lat": 38.9157485, "name": "ec8414e0104912df4050f91c5ac7164a", "bike_id": "ec8414e0104912df4050f91c5ac7164a", "is_disabled": 0, "fusion_lon": 0.0, "type": "electric_scooter", "lon": -77.02954966666667}, {"rental_uris": {"android": "https://dc.lft.to/lastmile_qr_scan", "ios": "https://dc.lft.to/lastmile_qr_scan"}, "fusion_lat": 0.0, "is_reserved": 0, "lat": 38.90129016666667, "name": "93ff7e5bc05172202ed6f2dae6997328", "bike_id": "93ff7e5bc05172202ed6f2dae6997328", "is_disabled": 0, "fusion_lon": 0.0, "type": "electric_scooter", "lon": -77.04310416666667}, {"rental_uris": {"android": "https://dc.lft.to/lastmile_qr_scan", "ios": "https://dc.lft.to/lastmile_qr_scan"}, "fusion_lat": 0.0, "is_reserved": 0, "lat": 38.87559383333333, "name": "0710dc5e212bb7d9511b50f68cdff744", "bike_id": "0710dc5e212bb7d9511b50f68cdff744", "is_disabled": 0, "fusion_lon": 0.0, "type": "electric_scooter", "lon": -77.0061135}, {"rental_uris": {"android": "https://dc.lft.to/lastmile_qr_scan", "ios": "https://dc.lft.to/lastmile_qr_scan"}, "fusion_lat": 0.0, "is_reserved": 0, "lat": 38.917202333333336, "name": "d5ea71a030957898c31364acf667cc25", "bike_id": "d5ea71a030957898c31364acf667cc25", "is_disabled": 0, "fusion_lon": 0.0, "type": "electric_scooter", "lon": -77.04151716666667}, {"rental_uris": {"android": "https://dc.lft.to/lastmile_qr_scan", "ios": "https://dc.lft.to/lastmile_qr_scan"}, "fusion_lat": 0.0, "is_reserved": 0, "lat": 38.910627833333336, "name": "0b1e87dd847917841730dd4e2ff8970d", "bike_id": "0b1e87dd847917841730dd4e2ff8970d", "is_disabled": 0, "fusion_lon": 0.0, "type": "electric_scooter", "lon": -77.040963}, {"rental_uris": {"android": "https://dc.lft.to/lastmile_qr_scan", "ios": "https://dc.lft.to/lastmile_qr_scan"}, "fusion_lat": 0.0, "is_reserved": 0, "lat": 38.912367333333336, "name": "832afc464b4e96f5e6223007255fdcc6", "bike_id": "832afc464b4e96f5e6223007255fdcc6", "is_disabled": 0, "fusion_lon": 0.0, "type": "electric_scooter", "lon": -77.0691605}, {"rental_uris": {"android": "https://dc.lft.to/lastmile_qr_scan", "ios": "https://dc.lft.to/lastmile_qr_scan"}, "fusion_lat": 0.0, "is_reserved": 0, "lat": 38.93855966666667, "name": "c6c1a9b4a33264051059283c6029201b", "bike_id": "c6c1a9b4a33264051059283c6029201b", "is_disabled": 0, "fusion_lon": 0.0, "type": "electric_scooter", "lon": -77.024654}, {"rental_uris": {"android": "https://dc.lft.to/lastmile_qr_scan", "ios": "https://dc.lft.to/lastmile_qr_scan"}, "fusion_lat": 0.0, "is_reserved": 0, "lat": 38.88531, "name": "1311383f6f48879bf1190bf01d0d49b1", "bike_id": "1311383f6f48879bf1190bf01d0d49b1", "is_disabled": 0, "fusion_lon": 0.0, "type": "electric_scooter", "lon": -76.98052716666666}, {"rental_uris": {"android": "https://dc.lft.to/lastmile_qr_scan", "ios": "https://dc.lft.to/lastmile_qr_scan"}, "fusion_lat": 0.0, "is_reserved": 0, "lat": 38.87612683333333, "name": "a77eda2d78a0baa7ce30a80c834cb723", "bike_id": "a77eda2d78a0baa7ce30a80c834cb723", "is_disabled": 0, "fusion_lon": 0.0, "type": "electric_scooter", "lon": -77.00252916666666}, {"rental_uris": {"android": "https://dc.lft.to/lastmile_qr_scan", "ios": "https://dc.lft.to/lastmile_qr_scan"}, "fusion_lat": 0.0, "is_reserved": 0, "lat": 38.91965416666667, "name": "2de854a832734d7fe8555bafa3674777", "bike_id": "2de854a832734d7fe8555bafa3674777", "is_disabled": 0, "fusion_lon": 0.0, "type": "electric_scooter", "lon": -77.04365383333334}, {"rental_uris": {"android": "https://dc.lft.to/lastmile_qr_scan", "ios": "https://dc.lft.to/lastmile_qr_scan"}, "fusion_lat": 0.0, "is_reserved": 0, "lat": 38.92472766666667, "name": "201a29209538364291f328e9e46cc52c", "bike_id": "201a29209538364291f328e9e46cc52c", "is_disabled": 0, "fusion_lon": 0.0, "type": "electric_scooter", "lon": -77.03503166666667}, {"rental_uris": {"android": "https://dc.lft.to/lastmile_qr_scan", "ios": "https://dc.lft.to/lastmile_qr_scan"}, "fusion_lat": 0.0, "is_reserved": 0, "lat": 38.9020075, "name": "a7df3c957852ccd4392c0d6328368502", "bike_id": "a7df3c957852ccd4392c0d6328368502", "is_disabled": 0, "fusion_lon": 0.0, "type": "electric_scooter", "lon": -77.02118566666667}, {"rental_uris": {"android": "https://dc.lft.to/lastmile_qr_scan", "ios": "https://dc.lft.to/lastmile_qr_scan"}, "fusion_lat": 0.0, "is_reserved": 0, "lat": 38.951001166666664, "name": "5541b20e94a60d700eecd782b1b9f1be", "bike_id": "5541b20e94a60d700eecd782b1b9f1be", "is_disabled": 0, "fusion_lon": 0.0, "type": "electric_scooter", "lon": -77.018797}, {"rental_uris": {"android": "https://dc.lft.to/lastmile_qr_scan", "ios": "https://dc.lft.to/lastmile_qr_scan"}, "fusion_lat": 0.0, "is_reserved": 0, "lat": 38.925143166666665, "name": "9deb9083c4d8ace52f483095fbec1c60", "bike_id": "9deb9083c4d8ace52f483095fbec1c60", "is_disabled": 0, "fusion_lon": 0.0, "type": "electric_scooter", "lon": -77.023183}, {"rental_uris": {"android": "https://dc.lft.to/lastmile_qr_scan", "ios": "https://dc.lft.to/lastmile_qr_scan"}, "fusion_lat": 0.0, "is_reserved": 0, "lat": 38.87697433333334, "name": "7752a9444afe0c6992e8bd0951493a30", "bike_id": "7752a9444afe0c6992e8bd0951493a30", "is_disabled": 0, "fusion_lon": 0.0, "type": "electric_scooter", "lon": -77.00735466666667}, {"rental_uris": {"android": "https://dc.lft.to/lastmile_qr_scan", "ios": "https://dc.lft.to/lastmile_qr_scan"}, "fusion_lat": 0.0, "is_reserved": 0, "lat": 38.875613333333334, "name": "ce4bb6e127a2b4b75954a9abacfaf4ab", "bike_id": "ce4bb6e127a2b4b75954a9abacfaf4ab", "is_disabled": 0, "fusion_lon": 0.0, "type": "electric_scooter", "lon": -77.00601033333334}, {"rental_uris": {"android": "https://dc.lft.to/lastmile_qr_scan", "ios": "https://dc.lft.to/lastmile_qr_scan"}, "fusion_lat": 0.0, "is_reserved": 0, "lat": 38.90867166666666, "name": "e43f9c7582dfd4228699e80cac898522", "bike_id": "e43f9c7582dfd4228699e80cac898522", "is_disabled": 0, "fusion_lon": 0.0, "type": "electric_scooter", "lon": -77.02356083333333}, {"rental_uris": {"android": "https://dc.lft.to/lastmile_qr_scan", "ios": "https://dc.lft.to/lastmile_qr_scan"}, "fusion_lat": 0.0, "is_reserved": 0, "lat": 38.924899333333336, "name": "058049266ed06ab70a185027aadb9835", "bike_id": "058049266ed06ab70a185027aadb9835", "is_disabled": 0, "fusion_lon": 0.0, "type": "electric_scooter", "lon": -77.0319}, {"rental_uris": {"android": "https://dc.lft.to/lastmile_qr_scan", "ios": "https://dc.lft.to/lastmile_qr_scan"}, "fusion_lat": 0.0, "is_reserved": 0, "lat": 38.90759033333333, "name": "2e9254c154f956e4afac36574ddfc7b1", "bike_id": "2e9254c154f956e4afac36574ddfc7b1", "is_disabled": 0, "fusion_lon": 0.0, "type": "electric_scooter", "lon": -77.04149716666667}, {"rental_uris": {"android": "https://dc.lft.to/lastmile_qr_scan", "ios": "https://dc.lft.to/lastmile_qr_scan"}, "fusion_lat": 0.0, "is_reserved": 0, "lat": 38.90032583333333, "name": "cb20d8a27a9cb2f50b9b52624b505dbd", "bike_id": "cb20d8a27a9cb2f50b9b52624b505dbd", "is_disabled": 0, "fusion_lon": 0.0, "type": "electric_scooter", "lon": -77.00237283333334}, {"rental_uris": {"android": "https://dc.lft.to/lastmile_qr_scan", "ios": "https://dc.lft.to/lastmile_qr_scan"}, "fusion_lat": 0.0, "is_reserved": 0, "lat": 38.89103566666667, "name": "b0019f8cec8952777f02a99ec34bb081", "bike_id": "b0019f8cec8952777f02a99ec34bb081", "is_disabled": 0, "fusion_lon": 0.0, "type": "electric_scooter", "lon": -77.00211933333334}, {"rental_uris": {"android": "https://dc.lft.to/lastmile_qr_scan", "ios": "https://dc.lft.to/lastmile_qr_scan"}, "fusion_lat": 0.0, "is_reserved": 0, "lat": 38.8570645, "name": "eb4a515a23eb83e79a3e1efc01de0bf8", "bike_id": "eb4a515a23eb83e79a3e1efc01de0bf8", "is_disabled": 0, "fusion_lon": 0.0, "type": "electric_scooter", "lon": -76.97177166666667}, {"rental_uris": {"android": "https://dc.lft.to/lastmile_qr_scan", "ios": "https://dc.lft.to/lastmile_qr_scan"}, "fusion_lat": 0.0, "is_reserved": 0, "lat": 38.89534466666667, "name": "d8b53f4891d394ee962eb9602ec4316b", "bike_id": "d8b53f4891d394ee962eb9602ec4316b", "is_disabled": 0, "fusion_lon": 0.0, "type": "electric_scooter", "lon": -77.033601}, {"rental_uris": {"android": "https://dc.lft.to/lastmile_qr_scan", "ios": "https://dc.lft.to/lastmile_qr_scan"}, "fusion_lat": 0.0, "is_reserved": 0, "lat": 38.902370833333336, "name": "cd112695262f8c2b3829d86e06353c60", "bike_id": "cd112695262f8c2b3829d86e06353c60", "is_disabled": 0, "fusion_lon": 0.0, "type": "electric_scooter", "lon": -77.035841}, {"rental_uris": {"android": "https://dc.lft.to/lastmile_qr_scan", "ios": "https://dc.lft.to/lastmile_qr_scan"}, "fusion_lat": 0.0, "is_reserved": 0, "lat": 38.94976666666667, "name": "98577e13232d18adb8b61bac2f257c42", "bike_id": "98577e13232d18adb8b61bac2f257c42", "is_disabled": 0, "fusion_lon": 0.0, "type": "electric_scooter", "lon": -77.02451816666667}, {"rental_uris": {"android": "https://dc.lft.to/lastmile_qr_scan", "ios": "https://dc.lft.to/lastmile_qr_scan"}, "fusion_lat": 0.0, "is_reserved": 0, "lat": 38.9234225, "name": "c97b5f71479c23ffb0be106d1f21f0af", "bike_id": "c97b5f71479c23ffb0be106d1f21f0af", "is_disabled": 0, "fusion_lon": 0.0, "type": "electric_scooter", "lon": -77.05087866666666}, {"rental_uris": {"android": "https://dc.lft.to/lastmile_qr_scan", "ios": "https://dc.lft.to/lastmile_qr_scan"}, "fusion_lat": 0.0, "is_reserved": 0, "lat": 38.8985845, "name": "d3cbe85031c9395c67f018a0cd62089f", "bike_id": "d3cbe85031c9395c67f018a0cd62089f", "is_disabled": 0, "fusion_lon": 0.0, "type": "electric_scooter", "lon": -77.02717683333333}, {"rental_uris": {"android": "https://dc.lft.to/lastmile_qr_scan", "ios": "https://dc.lft.to/lastmile_qr_scan"}, "fusion_lat": 0.0, "is_reserved": 0, "lat": 38.9242665, "name": "58c15af9eaef9696daf6f25df9767ea2", "bike_id": "58c15af9eaef9696daf6f25df9767ea2", "is_disabled": 0, "fusion_lon": 0.0, "type": "electric_scooter", "lon": -77.03620483333333}, {"rental_uris": {"android": "https://dc.lft.to/lastmile_qr_scan", "ios": "https://dc.lft.to/lastmile_qr_scan"}, "fusion_lat": 0.0, "is_reserved": 0, "lat": 38.955385666666665, "name": "290e9179608c9373b4438f071bdc50c8", "bike_id": "290e9179608c9373b4438f071bdc50c8", "is_disabled": 0, "fusion_lon": 0.0, "type": "electric_scooter", "lon": -76.99567633333334}, {"rental_uris": {"android": "https://dc.lft.to/lastmile_qr_scan", "ios": "https://dc.lft.to/lastmile_qr_scan"}, "fusion_lat": 0.0, "is_reserved": 0, "lat": 38.90359566666667, "name": "a096591e125380e24ba71893886099c2", "bike_id": "a096591e125380e24ba71893886099c2", "is_disabled": 0, "fusion_lon": 0.0, "type": "electric_scooter", "lon": -77.007204}, {"rental_uris": {"android": "https://dc.lft.to/lastmile_qr_scan", "ios": "https://dc.lft.to/lastmile_qr_scan"}, "fusion_lat": 0.0, "is_reserved": 0, "lat": 38.916495833333336, "name": "a6c7879b5d0782b80081e7632516195d", "bike_id": "a6c7879b5d0782b80081e7632516195d", "is_disabled": 0, "fusion_lon": 0.0, "type": "electric_scooter", "lon": -77.02394066666666}, {"rental_uris": {"android": "https://dc.lft.to/lastmile_qr_scan", "ios": "https://dc.lft.to/lastmile_qr_scan"}, "fusion_lat": 0.0, "is_reserved": 0, "lat": 38.9130685, "name": "2ad18004b2f354c4a992a8cd2173a1c4", "bike_id": "2ad18004b2f354c4a992a8cd2173a1c4", "is_disabled": 0, "fusion_lon": 0.0, "type": "electric_scooter", "lon": -77.02330983333333}, {"rental_uris": {"android": "https://dc.lft.to/lastmile_qr_scan", "ios": "https://dc.lft.to/lastmile_qr_scan"}, "fusion_lat": 0.0, "is_reserved": 0, "lat": 38.899476666666665, "name": "f9fc39f3d88f8144f569f22e6a4a2459", "bike_id": "f9fc39f3d88f8144f569f22e6a4a2459", "is_disabled": 0, "fusion_lon": 0.0, "type": "electric_scooter", "lon": -77.02093133333334}, {"rental_uris": {"android": "https://dc.lft.to/lastmile_qr_scan", "ios": "https://dc.lft.to/lastmile_qr_scan"}, "fusion_lat": 0.0, "is_reserved": 0, "lat": 38.900876, "name": "38a3d88189006ad8a32a3804aa0a9251", "bike_id": "38a3d88189006ad8a32a3804aa0a9251", "is_disabled": 0, "fusion_lon": 0.0, "type": "electric_scooter", "lon": -77.01607516666667}, {"rental_uris": {"android": "https://dc.lft.to/lastmile_qr_scan", "ios": "https://dc.lft.to/lastmile_qr_scan"}, "fusion_lat": 0.0, "is_reserved": 0, "lat": 38.9284315, "name": "1eff4d589dcd19a60b699ef3d8c01756", "bike_id": "1eff4d589dcd19a60b699ef3d8c01756", "is_disabled": 0, "fusion_lon": 0.0, "type": "electric_scooter", "lon": -76.999058}, {"rental_uris": {"android": "https://dc.lft.to/lastmile_qr_scan", "ios": "https://dc.lft.to/lastmile_qr_scan"}, "fusion_lat": 0.0, "is_reserved": 0, "lat": 38.9180105, "name": "2d307e7dc12281c9c8b08d9e007ba64d", "bike_id": "2d307e7dc12281c9c8b08d9e007ba64d", "is_disabled": 0, "fusion_lon": 0.0, "type": "electric_scooter", "lon": -77.04014683333334}, {"rental_uris": {"android": "https://dc.lft.to/lastmile_qr_scan", "ios": "https://dc.lft.to/lastmile_qr_scan"}, "fusion_lat": 0.0, "is_reserved": 0, "lat": 38.901107833333334, "name": "648a1c126a4489ff392037bc06724ec7", "bike_id": "648a1c126a4489ff392037bc06724ec7", "is_disabled": 0, "fusion_lon": 0.0, "type": "electric_scooter", "lon": -77.016202}, {"rental_uris": {"android": "https://dc.lft.to/lastmile_qr_scan", "ios": "https://dc.lft.to/lastmile_qr_scan"}, "fusion_lat": 0.0, "is_reserved": 0, "lat": 38.933862, "name": "83d3cc56abdcce417ca424ace68d2943", "bike_id": "83d3cc56abdcce417ca424ace68d2943", "is_disabled": 0, "fusion_lon": 0.0, "type": "electric_scooter", "lon": -77.0238985}, {"rental_uris": {"android": "https://dc.lft.to/lastmile_qr_scan", "ios": "https://dc.lft.to/lastmile_qr_scan"}, "fusion_lat": 0.0, "is_reserved": 0, "lat": 38.892386333333334, "name": "d98d6dc55fa0613d4cb7ecdeb6c8c1a3", "bike_id": "d98d6dc55fa0613d4cb7ecdeb6c8c1a3", "is_disabled": 0, "fusion_lon": 0.0, "type": "electric_scooter", "lon": -77.03183966666667}, {"rental_uris": {"android": "https://dc.lft.to/lastmile_qr_scan", "ios": "https://dc.lft.to/lastmile_qr_scan"}, "fusion_lat": 0.0, "is_reserved": 0, "lat": 38.9101785, "name": "d934fee0d1a8c4b5416d0079a60a6990", "bike_id": "d934fee0d1a8c4b5416d0079a60a6990", "is_disabled": 0, "fusion_lon": 0.0, "type": "electric_scooter", "lon": -77.04454566666666}, {"rental_uris": {"android": "https://dc.lft.to/lastmile_qr_scan", "ios": "https://dc.lft.to/lastmile_qr_scan"}, "fusion_lat": 0.0, "is_reserved": 0, "lat": 38.91739316666666, "name": "9e3b4df821280a6ca9d82b0ff8855f69", "bike_id": "9e3b4df821280a6ca9d82b0ff8855f69", "is_disabled": 0, "fusion_lon": 0.0, "type": "electric_scooter", "lon": -77.0683165}, {"rental_uris": {"android": "https://dc.lft.to/lastmile_qr_scan", "ios": "https://dc.lft.to/lastmile_qr_scan"}, "fusion_lat": 0.0, "is_reserved": 0, "lat": 38.89737483333333, "name": "57e80ed3a58ac8ed3bea4a271ff4f602", "bike_id": "57e80ed3a58ac8ed3bea4a271ff4f602", "is_disabled": 0, "fusion_lon": 0.0, "type": "electric_scooter", "lon": -77.00776916666666}, {"rental_uris": {"android": "https://dc.lft.to/lastmile_qr_scan", "ios": "https://dc.lft.to/lastmile_qr_scan"}, "fusion_lat": 0.0, "is_reserved": 0, "lat": 38.887744833333336, "name": "daeaa4a9cdb57cd04c2dde52532fccb4", "bike_id": "daeaa4a9cdb57cd04c2dde52532fccb4", "is_disabled": 0, "fusion_lon": 0.0, "type": "electric_scooter", "lon": -76.93260683333334}, {"rental_uris": {"android": "https://dc.lft.to/lastmile_qr_scan", "ios": "https://dc.lft.to/lastmile_qr_scan"}, "fusion_lat": 0.0, "is_reserved": 0, "lat": 38.933568333333334, "name": "5c018a30f4199001bfbca51758b6d9ce", "bike_id": "5c018a30f4199001bfbca51758b6d9ce", "is_disabled": 0, "fusion_lon": 0.0, "type": "electric_scooter", "lon": -77.02492966666667}, {"rental_uris": {"android": "https://dc.lft.to/lastmile_qr_scan", "ios": "https://dc.lft.to/lastmile_qr_scan"}, "fusion_lat": 0.0, "is_reserved": 0, "lat": 38.9215895, "name": "1ca5fca56ce7cc10be6728d9672d7e72", "bike_id": "1ca5fca56ce7cc10be6728d9672d7e72", "is_disabled": 0, "fusion_lon": 0.0, "type": "electric_scooter", "lon": -77.033859}, {"rental_uris": {"android": "https://dc.lft.to/lastmile_qr_scan", "ios": "https://dc.lft.to/lastmile_qr_scan"}, "fusion_lat": 0.0, "is_reserved": 0, "lat": 38.92028083333334, "name": "2a096d6c9a5546497e9cfce5e1d2a8f2", "bike_id": "2a096d6c9a5546497e9cfce5e1d2a8f2", "is_disabled": 0, "fusion_lon": 0.0, "type": "electric_scooter", "lon": -76.985441}, {"rental_uris": {"android": "https://dc.lft.to/lastmile_qr_scan", "ios": "https://dc.lft.to/lastmile_qr_scan"}, "fusion_lat": 0.0, "is_reserved": 0, "lat": 38.8621965, "name": "6bd229ae1ded320473d8ce7a86311c09", "bike_id": "6bd229ae1ded320473d8ce7a86311c09", "is_disabled": 0, "fusion_lon": 0.0, "type": "electric_scooter", "lon": -76.994827}, {"rental_uris": {"android": "https://dc.lft.to/lastmile_qr_scan", "ios": "https://dc.lft.to/lastmile_qr_scan"}, "fusion_lat": 0.0, "is_reserved": 0, "lat": 38.92363783333333, "name": "05e13731beaaa639d30b1292c50bdc09", "bike_id": "05e13731beaaa639d30b1292c50bdc09", "is_disabled": 0, "fusion_lon": 0.0, "type": "electric_scooter", "lon": -77.05031866666667}, {"rental_uris": {"android": "https://dc.lft.to/lastmile_qr_scan", "ios": "https://dc.lft.to/lastmile_qr_scan"}, "fusion_lat": 0.0, "is_reserved": 0, "lat": 38.90730633333333, "name": "ea98be73637d3d210fa758f0205ff763", "bike_id": "ea98be73637d3d210fa758f0205ff763", "is_disabled": 0, "fusion_lon": 0.0, "type": "electric_scooter", "lon": -77.01729566666667}, {"rental_uris": {"android": "https://dc.lft.to/lastmile_qr_scan", "ios": "https://dc.lft.to/lastmile_qr_scan"}, "fusion_lat": 0.0, "is_reserved": 0, "lat": 38.921721, "name": "25e6d452ae4804ddb2e03fffee7fdb77", "bike_id": "25e6d452ae4804ddb2e03fffee7fdb77", "is_disabled": 0, "fusion_lon": 0.0, "type": "electric_scooter", "lon": -77.01912466666667}, {"rental_uris": {"android": "https://dc.lft.to/lastmile_qr_scan", "ios": "https://dc.lft.to/lastmile_qr_scan"}, "fusion_lat": 0.0, "is_reserved": 0, "lat": 38.924645, "name": "cc981ce3157ffd0ff4efae91765fdbfe", "bike_id": "cc981ce3157ffd0ff4efae91765fdbfe", "is_disabled": 0, "fusion_lon": 0.0, "type": "electric_scooter", "lon": -77.021147}, {"rental_uris": {"android": "https://dc.lft.to/lastmile_qr_scan", "ios": "https://dc.lft.to/lastmile_qr_scan"}, "fusion_lat": 0.0, "is_reserved": 0, "lat": 38.899595, "name": "72566ee0bf7fe6c36d4b8b21e95fe019", "bike_id": "72566ee0bf7fe6c36d4b8b21e95fe019", "is_disabled": 0, "fusion_lon": 0.0, "type": "electric_scooter", "lon": -77.05122333333334}, {"rental_uris": {"android": "https://dc.lft.to/lastmile_qr_scan", "ios": "https://dc.lft.to/lastmile_qr_scan"}, "fusion_lat": 0.0, "is_reserved": 0, "lat": 38.90323433333333, "name": "5de1ec36712fc2c330a963e3de91cf02", "bike_id": "5de1ec36712fc2c330a963e3de91cf02", "is_disabled": 0, "fusion_lon": 0.0, "type": "electric_scooter", "lon": -76.98155416666667}, {"rental_uris": {"android": "https://dc.lft.to/lastmile_qr_scan", "ios": "https://dc.lft.to/lastmile_qr_scan"}, "fusion_lat": 0.0, "is_reserved": 0, "lat": 38.8935525, "name": "fbeb493c790114f1611aabdae6725f08", "bike_id": "fbeb493c790114f1611aabdae6725f08", "is_disabled": 0, "fusion_lon": 0.0, "type": "electric_scooter", "lon": -77.00336}, {"rental_uris": {"android": "https://dc.lft.to/lastmile_qr_scan", "ios": "https://dc.lft.to/lastmile_qr_scan"}, "fusion_lat": 0.0, "is_reserved": 0, "lat": 38.938545166666664, "name": "8e26fa54973a07a32db4aa18e0e78ad5", "bike_id": "8e26fa54973a07a32db4aa18e0e78ad5", "is_disabled": 0, "fusion_lon": 0.0, "type": "electric_scooter", "lon": -77.02469983333333}, {"rental_uris": {"android": "https://dc.lft.to/lastmile_qr_scan", "ios": "https://dc.lft.to/lastmile_qr_scan"},