{"data": {"bikes": [{"lon": -76.95184983333333, "lat": 38.8913475, "name": "72a09611060c31c0f5156b22fd8cbc88", "fusion_lat": 0.0, "fusion_lon": 0.0, "rental_uris": {"android": "https://dc.lft.to/lastmile_qr_scan", "ios": "https://dc.lft.to/lastmile_qr_scan"}, "is_reserved": 0, "is_disabled": 0, "type": "electric_scooter", "bike_id": "72a09611060c31c0f5156b22fd8cbc88"}, {"lon": -77.0059155, "lat": 38.90560416666667, "name": "d29e08c58967b7f5b5851846f2101c87", "fusion_lat": 0.0, "fusion_lon": 0.0, "rental_uris": {"android": "https://dc.lft.to/lastmile_qr_scan", "ios": "https://dc.lft.to/lastmile_qr_scan"}, "is_reserved": 0, "is_disabled": 0, "type": "electric_scooter", "bike_id": "d29e08c58967b7f5b5851846f2101c87"}, {"lon": -77.02418966666667, "lat": 38.92607533333333, "name": "df9db9900474986c075bfecc03d9d70b", "fusion_lat": 0.0, "fusion_lon": 0.0, "rental_uris": {"android": "https://dc.lft.to/lastmile_qr_scan", "ios": "https://dc.lft.to/lastmile_qr_scan"}, "is_reserved": 0, "is_disabled": 0, "type": "electric_scooter", "bike_id": "df9db9900474986c075bfecc03d9d70b"}, {"lon": -77.02396416666667, "lat": 38.92712783333333, "name": "2f3a0da8dbbe476ec779e2ce09db6df8", "fusion_lat": 0.0, "fusion_lon": 0.0, "rental_uris": {"android": "https://dc.lft.to/lastmile_qr_scan", "ios": "https://dc.lft.to/lastmile_qr_scan"}, "is_reserved": 0, "is_disabled": 0, "type": "electric_scooter", "bike_id": "2f3a0da8dbbe476ec779e2ce09db6df8"}, {"lon": -77.002033, "lat": 38.900366166666664, "name": "4e0c1cee6af2a093156348adbd8eeca2", "fusion_lat": 0.0, "fusion_lon": 0.0, "rental_uris": {"android": "https://dc.lft.to/lastmile_qr_scan", "ios": "https://dc.lft.to/lastmile_qr_scan"}, "is_reserved": 0, "is_disabled": 0, "type": "electric_scooter", "bike_id": "4e0c1cee6af2a093156348adbd8eeca2"}, {"lon": -77.02047983333334, "lat": 38.915605666666664, "name": "b331b86ebf3c75d154749fcf3cd0c285", "fusion_lat": 0.0, "fusion_lon": 0.0, "rental_uris": {"android": "https://dc.lft.to/lastmile_qr_scan", "ios": "https://dc.lft.to/lastmile_qr_scan"}, "is_reserved": 0, "is_disabled": 0, "type": "electric_scooter", "bike_id": "b331b86ebf3c75d154749fcf3cd0c285"}, {"lon": -77.02375916666666, "lat": 38.90724066666667, "name": "2b9f606465250fab611d413c176e0d40", "fusion_lat": 0.0, "fusion_lon": 0.0, "rental_uris": {"android": "https://dc.lft.to/lastmile_qr_scan", "ios": "https://dc.lft.to/lastmile_qr_scan"}, "is_reserved": 0, "is_disabled": 0, "type": "electric_scooter", "bike_id": "2b9f606465250fab611d413c176e0d40"}, {"lon": -77.01590616666667, "lat": 38.95762466666667, "name": "f3d29c3e9c6956dec3cdea04cad7868a", "fusion_lat": 0.0, "fusion_lon": 0.0, "rental_uris": {"android": "https://dc.lft.to/lastmile_qr_scan", "ios": "https://dc.lft.to/lastmile_qr_scan"}, "is_reserved": 0, "is_disabled": 0, "type": "electric_scooter", "bike_id": "f3d29c3e9c6956dec3cdea04cad7868a"}, {"lon": -77.0124735, "lat": 38.87626866666667, "name": "08655f028cb5ed87532b49198a99e9b2", "fusion_lat": 0.0, "fusion_lon": 0.0, "rental_uris": {"android": "https://dc.lft.to/lastmile_qr_scan", "ios": "https://dc.lft.to/lastmile_qr_scan"}, "is_reserved": 0, "is_disabled": 0, "type": "electric_scooter", "bike_id": "08655f028cb5ed87532b49198a99e9b2"}, {"lon": -77.0328215, "lat": 38.93005933333333, "name": "839c6f5248f495cfd32cf9413951ebb1", "fusion_lat": 0.0, "fusion_lon": 0.0, "rental_uris": {"android": "https://dc.lft.to/lastmile_qr_scan", "ios": "https://dc.lft.to/lastmile_qr_scan"}, "is_reserved": 0, "is_disabled": 0, "type": "electric_scooter", "bike_id": "839c6f5248f495cfd32cf9413951ebb1"}, {"lon": -76.93736, "lat": 38.89016216666667, "name": "17f217ff0ea142ccc02537b50ff85bbe", "fusion_lat": 0.0, "fusion_lon": 0.0, "rental_uris": {"android": "https://dc.lft.to/lastmile_qr_scan", "ios": "https://dc.lft.to/lastmile_qr_scan"}, "is_reserved": 0, "is_disabled": 0, "type": "electric_scooter", "bike_id": "17f217ff0ea142ccc02537b50ff85bbe"}, {"lon": -76.99009616666666, "lat": 38.911391333333334, "name": "e6d594654d18aaa17786053a34d7907e", "fusion_lat": 0.0, "fusion_lon": 0.0, "rental_uris": {"android": "https://dc.lft.to/lastmile_qr_scan", "ios": "https://dc.lft.to/lastmile_qr_scan"}, "is_reserved": 0, "is_disabled": 0, "type": "electric_scooter", "bike_id": "e6d594654d18aaa17786053a34d7907e"}, {"lon": -77.0104245, "lat": 38.88448966666667, "name": "a6ec038d661d87015be00c0f30a0cf9f", "fusion_lat": 0.0, "fusion_lon": 0.0, "rental_uris": {"android": "https://dc.lft.to/lastmile_qr_scan", "ios": "https://dc.lft.to/lastmile_qr_scan"}, "is_reserved": 0, "is_disabled": 0, "type": "electric_scooter", "bike_id": "a6ec038d661d87015be00c0f30a0cf9f"}, {"lon": -76.95260233333333, "lat": 38.885933666666666, "name": "7c49a9dd60ed19130b1d538f13e2c2db", "fusion_lat": 0.0, "fusion_lon": 0.0, "rental_uris": {"android": "https://dc.lft.to/lastmile_qr_scan", "ios": "https://dc.lft.to/lastmile_qr_scan"}, "is_reserved": 0, "is_disabled": 0, "type": "electric_scooter", "bike_id": "7c49a9dd60ed19130b1d538f13e2c2db"}, {"lon": -76.97904083333333, "lat": 38.90388766666667, "name": "31e10cffeb30cb869f615822234f2f74", "fusion_lat": 0.0, "fusion_lon": 0.0, "rental_uris": {"android": "https://dc.lft.to/lastmile_qr_scan", "ios": "https://dc.lft.to/lastmile_qr_scan"}, "is_reserved": 0, "is_disabled": 0, "type": "electric_scooter", "bike_id": "31e10cffeb30cb869f615822234f2f74"}, {"lon": -77.06460666666666, "lat": 38.910466, "name": "31f492240f73b872c43a5900131de466", "fusion_lat": 0.0, "fusion_lon": 0.0, "rental_uris": {"android": "https://dc.lft.to/lastmile_qr_scan", "ios": "https://dc.lft.to/lastmile_qr_scan"}, "is_reserved": 0, "is_disabled": 0, "type": "electric_scooter", "bike_id": "31f492240f73b872c43a5900131de466"}, {"lon": -77.03416983333334, "lat": 38.906913333333335, "name": "34e65df7ae6f94c96325363e87646021", "fusion_lat": 0.0, "fusion_lon": 0.0, "rental_uris": {"android": "https://dc.lft.to/lastmile_qr_scan", "ios": "https://dc.lft.to/lastmile_qr_scan"}, "is_reserved": 0, "is_disabled": 0, "type": "electric_scooter", "bike_id": "34e65df7ae6f94c96325363e87646021"}, {"lon": -77.02389033333333, "lat": 38.932700833333335, "name": "f080c4129a22b89c4d30b3a0103c38e3", "fusion_lat": 0.0, "fusion_lon": 0.0, "rental_uris": {"android": "https://dc.lft.to/lastmile_qr_scan", "ios": "https://dc.lft.to/lastmile_qr_scan"}, "is_reserved": 0, "is_disabled": 0, "type": "electric_scooter", "bike_id": "f080c4129a22b89c4d30b3a0103c38e3"}, {"lon": -77.02705216666666, "lat": 38.928849166666666, "name": "8427ce5f00578c309b6caf494d94274c", "fusion_lat": 0.0, "fusion_lon": 0.0, "rental_uris": {"android": "https://dc.lft.to/lastmile_qr_scan", "ios": "https://dc.lft.to/lastmile_qr_scan"}, "is_reserved": 0, "is_disabled": 0, "type": "electric_scooter", "bike_id": "8427ce5f00578c309b6caf494d94274c"}, {"lon": -77.01858316666667, "lat": 38.94920233333333, "name": "7690ec13bdd5f2e9a692aa6d65162665", "fusion_lat": 0.0, "fusion_lon": 0.0, "rental_uris": {"android": "https://dc.lft.to/lastmile_qr_scan", "ios": "https://dc.lft.to/lastmile_qr_scan"}, "is_reserved": 0, "is_disabled": 0, "type": "electric_scooter", "bike_id": "7690ec13bdd5f2e9a692aa6d65162665"}, {"lon": -77.038342, "lat": 38.91115416666667, "name": "6553e02f9cdb2c753fa839c286781538", "fusion_lat": 0.0, "fusion_lon": 0.0, "rental_uris": {"android": "https://dc.lft.to/lastmile_qr_scan", "ios": "https://dc.lft.to/lastmile_qr_scan"}, "is_reserved": 0, "is_disabled": 0, "type": "electric_scooter", "bike_id": "6553e02f9cdb2c753fa839c286781538"}, {"lon": -77.01714316666667, "lat": 38.879342666666666, "name": "a8313bf366f7fecfbbe45ee472d22424", "fusion_lat": 0.0, "fusion_lon": 0.0, "rental_uris": {"android": "https://dc.lft.to/lastmile_qr_scan", "ios": "https://dc.lft.to/lastmile_qr_scan"}, "is_reserved": 0, "is_disabled": 0, "type": "electric_scooter", "bike_id": "a8313bf366f7fecfbbe45ee472d22424"}, {"lon": -77.04340716666667, "lat": 38.89670183333333, "name": "4e8c48107fd303b87266630555dd97ec", "fusion_lat": 0.0, "fusion_lon": 0.0, "rental_uris": {"android": "https://dc.lft.to/lastmile_qr_scan", "ios": "https://dc.lft.to/lastmile_qr_scan"}, "is_reserved": 0, "is_disabled": 0, "type": "electric_scooter", "bike_id": "4e8c48107fd303b87266630555dd97ec"}, {"lon": -77.043161, "lat": 38.93421216666667, "name": "b4b2dea4a5150436452981ee138bac4e", "fusion_lat": 0.0, "fusion_lon": 0.0, "rental_uris": {"android": "https://dc.lft.to/lastmile_qr_scan", "ios": "https://dc.lft.to/lastmile_qr_scan"}, "is_reserved": 0, "is_disabled": 0, "type": "electric_scooter", "bike_id": "b4b2dea4a5150436452981ee138bac4e"}, {"lon": -77.02164216666667, "lat": 38.886335833333334, "name": "1d9ce410284d4c7ae8b64b5fb8c925e4", "fusion_lat": 0.0, "fusion_lon": 0.0, "rental_uris": {"android": "https://dc.lft.to/lastmile_qr_scan", "ios": "https://dc.lft.to/lastmile_qr_scan"}, "is_reserved": 0, "is_disabled": 0, "type": "electric_scooter", "bike_id": "1d9ce410284d4c7ae8b64b5fb8c925e4"}, {"lon": -76.99632016666666, "lat": 38.8462045, "name": "c64a81548d19a234c73a0d4a89ca4f1a", "fusion_lat": 0.0, "fusion_lon": 0.0, "rental_uris": {"android": "https://dc.lft.to/lastmile_qr_scan", "ios": "https://dc.lft.to/lastmile_qr_scan"}, "is_reserved": 0, "is_disabled": 0, "type": "electric_scooter", "bike_id": "c64a81548d19a234c73a0d4a89ca4f1a"}, {"lon": -77.02854033333334, "lat": 38.897343666666664, "name": "f53c14027e962c359b0f850849854ac0", "fusion_lat": 0.0, "fusion_lon": 0.0, "rental_uris": {"android": "https://dc.lft.to/lastmile_qr_scan", "ios": "https://dc.lft.to/lastmile_qr_scan"}, "is_reserved": 0, "is_disabled": 0, "type": "electric_scooter", "bike_id": "f53c14027e962c359b0f850849854ac0"}, {"lon": -77.0424405, "lat": 38.92228866666667, "name": "24ad009d6aa0472692dde13154a777a0", "fusion_lat": 0.0, "fusion_lon": 0.0, "rental_uris": {"android": "https://dc.lft.to/lastmile_qr_scan", "ios": "https://dc.lft.to/lastmile_qr_scan"}, "is_reserved": 0, "is_disabled": 0, "type": "electric_scooter", "bike_id": "24ad009d6aa0472692dde13154a777a0"}, {"lon": -76.9428805, "lat": 38.95408883333333, "name": "4c14f3bb5e2c9bc0c0444c0804192640", "fusion_lat": 0.0, "fusion_lon": 0.0, "rental_uris": {"android": "https://dc.lft.to/lastmile_qr_scan", "ios": "https://dc.lft.to/lastmile_qr_scan"}, "is_reserved": 0, "is_disabled": 0, "type": "electric_bike", "bike_id": "4c14f3bb5e2c9bc0c0444c0804192640"}, {"lon": -77.04163066666666, "lat": 38.91453883333333, "name": "913f9176f1cef8a759891bfecb95b054", "fusion_lat": 0.0, "fusion_lon": 0.0, "rental_uris": {"android": "https://dc.lft.to/lastmile_qr_scan", "ios": "https://dc.lft.to/lastmile_qr_scan"}, "is_reserved": 0, "is_disabled": 0, "type": "electric_scooter", "bike_id": "913f9176f1cef8a759891bfecb95b054"}, {"lon": -77.04060416666667, "lat": 38.91764666666667, "name": "e51315dd456e3989e76d69ca2bc2d5fd", "fusion_lat": 0.0, "fusion_lon": 0.0, "rental_uris": {"android": "https://dc.lft.to/lastmile_qr_scan", "ios": "https://dc.lft.to/lastmile_qr_scan"}, "is_reserved": 0, "is_disabled": 0, "type": "electric_scooter", "bike_id": "e51315dd456e3989e76d69ca2bc2d5fd"}, {"lon": -76.99777366666666, "lat": 38.84424716666667, "name": "43af086b950e64fa93743190a9a22ee4", "fusion_lat": 0.0, "fusion_lon": 0.0, "rental_uris": {"android": "https://dc.lft.to/lastmile_qr_scan", "ios": "https://dc.lft.to/lastmile_qr_scan"}, "is_reserved": 0, "is_disabled": 0, "type": "electric_scooter", "bike_id": "43af086b950e64fa93743190a9a22ee4"}, {"lon": -77.028159, "lat": 38.96503966666667, "name": "2a40bc2b0e94321f220b51c63d70f5c6", "fusion_lat": 0.0, "fusion_lon": 0.0, "rental_uris": {"android": "https://dc.lft.to/lastmile_qr_scan", "ios": "https://dc.lft.to/lastmile_qr_scan"}, "is_reserved": 0, "is_disabled": 0, "type": "electric_bike", "bike_id": "2a40bc2b0e94321f220b51c63d70f5c6"}, {"lon": -77.071632, "lat": 38.914543333333334, "name": "92d3498f2b306d30f79196ec47184d35", "fusion_lat": 0.0, "fusion_lon": 0.0, "rental_uris": {"android": "https://dc.lft.to/lastmile_qr_scan", "ios": "https://dc.lft.to/lastmile_qr_scan"}, "is_reserved": 0, "is_disabled": 0, "type": "electric_scooter", "bike_id": "92d3498f2b306d30f79196ec47184d35"}, {"lon": -77.01780566666666, "lat": 38.902553, "name": "f9703b40375e68f88dcdb5b3aa9cf80e", "fusion_lat": 0.0, "fusion_lon": 0.0, "rental_uris": {"android": "https://dc.lft.to/lastmile_qr_scan", "ios": "https://dc.lft.to/lastmile_qr_scan"}, "is_reserved": 0, "is_disabled": 0, "type": "electric_scooter", "bike_id": "f9703b40375e68f88dcdb5b3aa9cf80e"}, {"lon": -77.00206666666666, "lat": 38.82262883333333, "name": "159a30066e76761a0c04d1cfc52bff3e", "fusion_lat": 0.0, "fusion_lon": 0.0, "rental_uris": {"android": "https://dc.lft.to/lastmile_qr_scan", "ios": "https://dc.lft.to/lastmile_qr_scan"}, "is_reserved": 0, "is_disabled": 0, "type": "electric_scooter", "bike_id": "159a30066e76761a0c04d1cfc52bff3e"}, {"lon": -77.02713933333334, "lat": 38.97236866666667, "name": "9e7dd4e70158efaf5bf7f35d1f1d9898", "fusion_lat": 0.0, "fusion_lon": 0.0, "rental_uris": {"android": "https://dc.lft.to/lastmile_qr_scan", "ios": "https://dc.lft.to/lastmile_qr_scan"}, "is_reserved": 0, "is_disabled": 0, "type": "electric_scooter", "bike_id": "9e7dd4e70158efaf5bf7f35d1f1d9898"}, {"lon": -77.077941, "lat": 38.8451625, "name": "f0f446406e5d7806d24b7b4db1fda8cd", "fusion_lat": 0.0, "fusion_lon": 0.0, "rental_uris": {"android": "https://dc.lft.to/lastmile_qr_scan", "ios": "https://dc.lft.to/lastmile_qr_scan"}, "is_reserved": 0, "is_disabled": 0, "type": "electric_bike", "bike_id": "f0f446406e5d7806d24b7b4db1fda8cd"}, {"lon": -77.01529, "lat": 38.887387333333336, "name": "77ebcfd79289ddd859a4d30ae75a1bcc", "fusion_lat": 0.0, "fusion_lon": 0.0, "rental_uris": {"android": "https://dc.lft.to/lastmile_qr_scan", "ios": "https://dc.lft.to/lastmile_qr_scan"}, "is_reserved": 0, "is_disabled": 0, "type": "electric_scooter", "bike_id": "77ebcfd79289ddd859a4d30ae75a1bcc"}, {"lon": -77.01975716666666, "lat": 38.883984166666664, "name": "68b2eb7f859c4a7de2d721d3c63b8a56", "fusion_lat": 0.0, "fusion_lon": 0.0, "rental_uris": {"android": "https://dc.lft.to/lastmile_qr_scan", "ios": "https://dc.lft.to/lastmile_qr_scan"}, "is_reserved": 0, "is_disabled": 0, "type": "electric_scooter", "bike_id": "68b2eb7f859c4a7de2d721d3c63b8a56"}, {"lon": -77.04077833333334, "lat": 38.920181666666664, "name": "a4664871d62b7f24b4e987ceaed69b56", "fusion_lat": 0.0, "fusion_lon": 0.0, "rental_uris": {"android": "https://dc.lft.to/lastmile_qr_scan", "ios": "https://dc.lft.to/lastmile_qr_scan"}, "is_reserved": 0, "is_disabled": 0, "type": "electric_scooter", "bike_id": "a4664871d62b7f24b4e987ceaed69b56"}, {"lon": -77.023104, "lat": 38.917862, "name": "30f4403ac6c33201fbd9dcd8f32844f8", "fusion_lat": 0.0, "fusion_lon": 0.0, "rental_uris": {"android": "https://dc.lft.to/lastmile_qr_scan", "ios": "https://dc.lft.to/lastmile_qr_scan"}, "is_reserved": 0, "is_disabled": 0, "type": "electric_scooter", "bike_id": "30f4403ac6c33201fbd9dcd8f32844f8"}, {"lon": -76.99507533333333, "lat": 38.86201333333333, "name": "fa35cea35f0643a219f03d2f1174ecdd", "fusion_lat": 0.0, "fusion_lon": 0.0, "rental_uris": {"android": "https://dc.lft.to/lastmile_qr_scan", "ios": "https://dc.lft.to/lastmile_qr_scan"}, "is_reserved": 0, "is_disabled": 0, "type": "electric_scooter", "bike_id": "fa35cea35f0643a219f03d2f1174ecdd"}, {"lon": -77.00036016666667, "lat": 38.9076305, "name": "ecddbfa48e0abe254c6e7c69cea4ed2a", "fusion_lat": 0.0, "fusion_lon": 0.0, "rental_uris": {"android": "https://dc.lft.to/lastmile_qr_scan", "ios": "https://dc.lft.to/lastmile_qr_scan"}, "is_reserved": 0, "is_disabled": 0, "type": "electric_scooter", "bike_id": "ecddbfa48e0abe254c6e7c69cea4ed2a"}, {"lon": -77.00662816666667, "lat": 38.874739, "name": "06c14f6fcac934ea9a09f50518ade663", "fusion_lat": 0.0, "fusion_lon": 0.0, "rental_uris": {"android": "https://dc.lft.to/lastmile_qr_scan", "ios": "https://dc.lft.to/lastmile_qr_scan"}, "is_reserved": 0, "is_disabled": 0, "type": "electric_scooter", "bike_id": "06c14f6fcac934ea9a09f50518ade663"}, {"lon": -77.04824733333334, "lat": 38.900579666666665, "name": "fca02d08621e8918eac90298507308f4", "fusion_lat": 0.0, "fusion_lon": 0.0, "rental_uris": {"android": "https://dc.lft.to/lastmile_qr_scan", "ios": "https://dc.lft.to/lastmile_qr_scan"}, "is_reserved": 0, "is_disabled": 0, "type": "electric_scooter", "bike_id": "fca02d08621e8918eac90298507308f4"}, {"lon": -77.05228783333334, "lat": 38.925102833333334, "name": "47e56a7dfce206debc5ddae069777910", "fusion_lat": 0.0, "fusion_lon": 0.0, "rental_uris": {"android": "https://dc.lft.to/lastmile_qr_scan", "ios": "https://dc.lft.to/lastmile_qr_scan"}, "is_reserved": 0, "is_disabled": 0, "type": "electric_scooter", "bike_id": "47e56a7dfce206debc5ddae069777910"}, {"lon": -77.03835216666667, "lat": 38.91230216666666, "name": "2ef83b3ba185cdebb36264665b3fb184", "fusion_lat": 0.0, "fusion_lon": 0.0, "rental_uris": {"android": "https://dc.lft.to/lastmile_qr_scan", "ios": "https://dc.lft.to/lastmile_qr_scan"}, "is_reserved": 0, "is_disabled": 0, "type": "electric_scooter", "bike_id": "2ef83b3ba185cdebb36264665b3fb184"}, {"lon": -77.04993033333334, "lat": 38.901120166666665, "name": "16f801c915261130fe317c37ccb38912", "fusion_lat": 0.0, "fusion_lon": 0.0, "rental_uris": {"android": "https://dc.lft.to/lastmile_qr_scan", "ios": "https://dc.lft.to/lastmile_qr_scan"}, "is_reserved": 0, "is_disabled": 0, "type": "electric_scooter", "bike_id": "16f801c915261130fe317c37ccb38912"}, {"lon": -76.93533216666667, "lat": 38.89680333333333, "name": "5d7d5ed4f20bc3f0add6918325ebfeb9", "fusion_lat": 0.0, "fusion_lon": 0.0, "rental_uris": {"android": "https://dc.lft.to/lastmile_qr_scan", "ios": "https://dc.lft.to/lastmile_qr_scan"}, "is_reserved": 0, "is_disabled": 0, "type": "electric_scooter", "bike_id": "5d7d5ed4f20bc3f0add6918325ebfeb9"}, {"lon": -77.00602733333334, "lat": 38.874643, "name": "2812150e83614ac2f34bd090446c81c6", "fusion_lat": 0.0, "fusion_lon": 0.0, "rental_uris": {"android": "https://dc.lft.to/lastmile_qr_scan", "ios": "https://dc.lft.to/lastmile_qr_scan"}, "is_reserved": 0, "is_disabled": 0, "type": "electric_scooter", "bike_id": "2812150e83614ac2f34bd090446c81c6"}, {"lon": -77.14122766666667, "lat": 38.8160215, "name": "3ba8776a14d771b87962cd11a1851c48", "fusion_lat": 0.0, "fusion_lon": 0.0, "rental_uris": {"android": "https://dc.lft.to/lastmile_qr_scan", "ios": "https://dc.lft.to/lastmile_qr_scan"}, "is_reserved": 0, "is_disabled": 0, "type": "electric_bike", "bike_id": "3ba8776a14d771b87962cd11a1851c48"}, {"lon": -77.021837, "lat": 38.911303833333335, "name": "4455534d6726ee2c124c7c67aa8af052", "fusion_lat": 0.0, "fusion_lon": 0.0, "rental_uris": {"android": "https://dc.lft.to/lastmile_qr_scan", "ios": "https://dc.lft.to/lastmile_qr_scan"}, "is_reserved": 0, "is_disabled": 0, "type": "electric_scooter", "bike_id": "4455534d6726ee2c124c7c67aa8af052"}, {"lon": -77.023594, "lat": 38.933302833333336, "name": "d497f78e23fb0c555dad0b83deafa2cf", "fusion_lat": 0.0, "fusion_lon": 0.0, "rental_uris": {"android": "https://dc.lft.to/lastmile_qr_scan", "ios": "https://dc.lft.to/lastmile_qr_scan"}, "is_reserved": 0, "is_disabled": 0, "type": "electric_scooter", "bike_id": "d497f78e23fb0c555dad0b83deafa2cf"}, {"lon": -77.05296666666666, "lat": 38.9254945, "name": "3197b243421f2b5ee1f22fb22125c897", "fusion_lat": 0.0, "fusion_lon": 0.0, "rental_uris": {"android": "https://dc.lft.to/lastmile_qr_scan", "ios": "https://dc.lft.to/lastmile_qr_scan"}, "is_reserved": 0, "is_disabled": 0, "type": "electric_scooter", "bike_id": "3197b243421f2b5ee1f22fb22125c897"}, {"lon": -77.03456666666666, "lat": 38.91815783333333, "name": "4665263211737696f7ffaef36e271769", "fusion_lat": 0.0, "fusion_lon": 0.0, "rental_uris": {"android": "https://dc.lft.to/lastmile_qr_scan", "ios": "https://dc.lft.to/lastmile_qr_scan"}, "is_reserved": 0, "is_disabled": 0, "type": "electric_scooter", "bike_id": "4665263211737696f7ffaef36e271769"}, {"lon": -77.03210183333333, "lat": 38.907602833333335, "name": "4b69e501c6200e51879dded75055db8c", "fusion_lat": 0.0, "fusion_lon": 0.0, "rental_uris": {"android": "https://dc.lft.to/lastmile_qr_scan", "ios": "https://dc.lft.to/lastmile_qr_scan"}, "is_reserved": 0, "is_disabled": 0, "type": "electric_scooter", "bike_id": "4b69e501c6200e51879dded75055db8c"}, {"lon": -77.02353933333333, "lat": 38.925092666666664, "name": "21ced1bb0b58f1322d033db1637140b5", "fusion_lat": 0.0, "fusion_lon": 0.0, "rental_uris": {"android": "https://dc.lft.to/lastmile_qr_scan", "ios": "https://dc.lft.to/lastmile_qr_scan"}, "is_reserved": 0, "is_disabled": 0, "type": "electric_scooter", "bike_id": "21ced1bb0b58f1322d033db1637140b5"}, {"lon": -77.040546, "lat": 38.927105, "name": "0725425f9b23263dbf30444c2e6f5eea", "fusion_lat": 0.0, "fusion_lon": 0.0, "rental_uris": {"android": "https://dc.lft.to/lastmile_qr_scan", "ios": "https://dc.lft.to/lastmile_qr_scan"}, "is_reserved": 0, "is_disabled": 0, "type": "electric_scooter", "bike_id": "0725425f9b23263dbf30444c2e6f5eea"}, {"lon": -76.96506383333333, "lat": 38.876477333333334, "name": "d6453edcbd2c6e2ee5481c70a77b3643", "fusion_lat": 0.0, "fusion_lon": 0.0, "rental_uris": {"android": "https://dc.lft.to/lastmile_qr_scan", "ios": "https://dc.lft.to/lastmile_qr_scan"}, "is_reserved": 0, "is_disabled": 0, "type": "electric_scooter", "bike_id": "d6453edcbd2c6e2ee5481c70a77b3643"}, {"lon": -77.041506, "lat": 38.918948666666665, "name": "2c825d65a0013d817ce50c78b70cf960", "fusion_lat": 0.0, "fusion_lon": 0.0, "rental_uris": {"android": "https://dc.lft.to/lastmile_qr_scan", "ios": "https://dc.lft.to/lastmile_qr_scan"}, "is_reserved": 0, "is_disabled": 0, "type": "electric_scooter", "bike_id": "2c825d65a0013d817ce50c78b70cf960"}, {"lon": -77.15268066666667, "lat": 39.10565116666667, "name": "bfb6ebe95c388f210ee8b690e0d4d8a3", "fusion_lat": 0.0, "fusion_lon": 0.0, "rental_uris": {"android": "https://dc.lft.to/lastmile_qr_scan", "ios": "https://dc.lft.to/lastmile_qr_scan"}, "is_reserved": 0, "is_disabled": 0, "type": "electric_bike", "bike_id": "bfb6ebe95c388f210ee8b690e0d4d8a3"}, {"lon": -77.03029866666667, "lat": 38.91552683333333, "name": "f233df3153995b689e300bd82f5d99dc", "fusion_lat": 0.0, "fusion_lon": 0.0, "rental_uris": {"android": "https://dc.lft.to/lastmile_qr_scan", "ios": "https://dc.lft.to/lastmile_qr_scan"}, "is_reserved": 0, "is_disabled": 0, "type": "electric_scooter", "bike_id": "f233df3153995b689e300bd82f5d99dc"}, {"lon": -76.9574795, "lat": 38.884281, "name": "00a2a6485646750e13a27fdbce6d4b08", "fusion_lat": 0.0, "fusion_lon": 0.0, "rental_uris": {"android": "https://dc.lft.to/lastmile_qr_scan", "ios": "https://dc.lft.to/lastmile_qr_scan"}, "is_reserved": 0, "is_disabled": 0, "type": "electric_scooter", "bike_id": "00a2a6485646750e13a27fdbce6d4b08"}, {"lon": -77.03142983333333, "lat": 38.91418783333334, "name": "4f06b7418a5ee29eda4055117bfd3ae2", "fusion_lat": 0.0, "fusion_lon": 0.0, "rental_uris": {"android": "https://dc.lft.to/lastmile_qr_scan", "ios": "https://dc.lft.to/lastmile_qr_scan"}, "is_reserved": 0, "is_disabled": 0, "type": "electric_scooter", "bike_id": "4f06b7418a5ee29eda4055117bfd3ae2"}, {"lon": -77.05726583333333, "lat": 38.933675666666666, "name": "eb0171e825e383e229097d60c1bc6729", "fusion_lat": 0.0, "fusion_lon": 0.0, "rental_uris": {"android": "https://dc.lft.to/lastmile_qr_scan", "ios": "https://dc.lft.to/lastmile_qr_scan"}, "is_reserved": 0, "is_disabled": 0, "type": "electric_scooter", "bike_id": "eb0171e825e383e229097d60c1bc6729"}, {"lon": -77.11612316666667, "lat": 38.854909166666665, "name": "231eae9975ad8a692ff5e6ddb38ce8f1", "fusion_lat": 0.0, "fusion_lon": 0.0, "rental_uris": {"android": "https://dc.lft.to/lastmile_qr_scan", "ios": "https://dc.lft.to/lastmile_qr_scan"}, "is_reserved": 0, "is_disabled": 0, "type": "electric_bike", "bike_id": "231eae9975ad8a692ff5e6ddb38ce8f1"}, {"lon": -77.04991366666667, "lat": 38.9053265, "name": "d9af728ccfce3242b69d5e711438eaff", "fusion_lat": 0.0, "fusion_lon": 0.0, "rental_uris": {"android": "https://dc.lft.to/lastmile_qr_scan", "ios": "https://dc.lft.to/lastmile_qr_scan"}, "is_reserved": 0, "is_disabled": 0, "type": "electric_scooter", "bike_id": "d9af728ccfce3242b69d5e711438eaff"}, {"lon": -77.02294183333333, "lat": 38.909759666666666, "name": "fdcb3298628f6b2ee7688747725fe013", "fusion_lat": 0.0, "fusion_lon": 0.0, "rental_uris": {"android": "https://dc.lft.to/lastmile_qr_scan", "ios": "https://dc.lft.to/lastmile_qr_scan"}, "is_reserved": 0, "is_disabled": 0, "type": "electric_scooter", "bike_id": "fdcb3298628f6b2ee7688747725fe013"}, {"lon": -76.99453916666667, "lat": 38.9002835, "name": "8c2525d8cf31a61bd3f1c18c6aa8acb6", "fusion_lat": 0.0, "fusion_lon": 0.0, "rental_uris": {"android": "https://dc.lft.to/lastmile_qr_scan", "ios": "https://dc.lft.to/lastmile_qr_scan"}, "is_reserved": 0, "is_disabled": 0, "type": "electric_scooter", "bike_id": "8c2525d8cf31a61bd3f1c18c6aa8acb6"}, {"lon": -76.984656, "lat": 38.91150583333334, "name": "ab40fc7e75df3603d432e10452631c2b", "fusion_lat": 0.0, "fusion_lon": 0.0, "rental_uris": {"android": "https://dc.lft.to/lastmile_qr_scan", "ios": "https://dc.lft.to/lastmile_qr_scan"}, "is_reserved": 0, "is_disabled": 0, "type": "electric_scooter", "bike_id": "ab40fc7e75df3603d432e10452631c2b"}, {"lon": -77.04058416666666, "lat": 38.917651, "name": "979bbec8197e33e830a91c9bb51aca75", "fusion_lat": 0.0, "fusion_lon": 0.0, "rental_uris": {"android": "https://dc.lft.to/lastmile_qr_scan", "ios": "https://dc.lft.to/lastmile_qr_scan"}, "is_reserved": 0, "is_disabled": 0, "type": "electric_scooter", "bike_id": "979bbec8197e33e830a91c9bb51aca75"}, {"lon": -77.03843866666666, "lat": 38.91553916666667, "name": "8efe809791ab2b92b9a95bd758bb55b4", "fusion_lat": 0.0, "fusion_lon": 0.0, "rental_uris": {"android": "https://dc.lft.to/lastmile_qr_scan", "ios": "https://dc.lft.to/lastmile_qr_scan"}, "is_reserved": 0, "is_disabled": 0, "type": "electric_scooter", "bike_id": "8efe809791ab2b92b9a95bd758bb55b4"}, {"lon": -76.98720533333334, "lat": 38.86705116666667, "name": "2f3ae66f8eb27c13d0c0aa1e9fac937b", "fusion_lat": 0.0, "fusion_lon": 0.0, "rental_uris": {"android": "https://dc.lft.to/lastmile_qr_scan", "ios": "https://dc.lft.to/lastmile_qr_scan"}, "is_reserved": 0, "is_disabled": 0, "type": "electric_scooter", "bike_id": "2f3ae66f8eb27c13d0c0aa1e9fac937b"}, {"lon": -77.03491916666667, "lat": 38.924825166666665, "name": "7ec2be1c76cb92232c15d3df296cfde8", "fusion_lat": 0.0, "fusion_lon": 0.0, "rental_uris": {"android": "https://dc.lft.to/lastmile_qr_scan", "ios": "https://dc.lft.to/lastmile_qr_scan"}, "is_reserved": 0, "is_disabled": 0, "type": "electric_scooter", "bike_id": "7ec2be1c76cb92232c15d3df296cfde8"}, {"lon": -76.98096783333334, "lat": 38.85718, "name": "991a6b74fbf5c36bf46eb2c8543a1692", "fusion_lat": 0.0, "fusion_lon": 0.0, "rental_uris": {"android": "https://dc.lft.to/lastmile_qr_scan", "ios": "https://dc.lft.to/lastmile_qr_scan"}, "is_reserved": 0, "is_disabled": 0, "type": "electric_scooter", "bike_id": "991a6b74fbf5c36bf46eb2c8543a1692"}, {"lon": -77.02187116666667, "lat": 38.9112985, "name": "8b0ab3ea4b2a39038ef5cd69ddb9d949", "fusion_lat": 0.0, "fusion_lon": 0.0, "rental_uris": {"android": "https://dc.lft.to/lastmile_qr_scan", "ios": "https://dc.lft.to/lastmile_qr_scan"}, "is_reserved": 0, "is_disabled": 0, "type": "electric_scooter", "bike_id": "8b0ab3ea4b2a39038ef5cd69ddb9d949"}, {"lon": -77.02353983333333, "lat": 38.932148, "name": "33427069dcc8b999a5b9ab0e267ea39e", "fusion_lat": 0.0, "fusion_lon": 0.0, "rental_uris": {"android": "https://dc.lft.to/lastmile_qr_scan", "ios": "https://dc.lft.to/lastmile_qr_scan"}, "is_reserved": 0, "is_disabled": 0, "type": "electric_bike", "bike_id": "33427069dcc8b999a5b9ab0e267ea39e"}, {"lon": -77.0381095, "lat": 38.91408216666667, "name": "7a2240f901f79778f9f6d84fdb7ffad8", "fusion_lat": 0.0, "fusion_lon": 0.0, "rental_uris": {"android": "https://dc.lft.to/lastmile_qr_scan", "ios": "https://dc.lft.to/lastmile_qr_scan"}, "is_reserved": 0, "is_disabled": 0, "type": "electric_scooter", "bike_id": "7a2240f901f79778f9f6d84fdb7ffad8"}, {"lon": -77.02711116666667, "lat": 38.92883916666667, "name": "4b07ac8adc5f41747a2194c272a03fc5", "fusion_lat": 0.0, "fusion_lon": 0.0, "rental_uris": {"android": "https://dc.lft.to/lastmile_qr_scan", "ios": "https://dc.lft.to/lastmile_qr_scan"}, "is_reserved": 0, "is_disabled": 0, "type": "electric_scooter", "bike_id": "4b07ac8adc5f41747a2194c272a03fc5"}, {"lon": -77.03765116666666, "lat": 38.9187735, "name": "4e6d106f8d645d80098455bc05d60ef7", "fusion_lat": 0.0, "fusion_lon": 0.0, "rental_uris": {"android": "https://dc.lft.to/lastmile_qr_scan", "ios": "https://dc.lft.to/lastmile_qr_scan"}, "is_reserved": 0, "is_disabled": 0, "type": "electric_scooter", "bike_id": "4e6d106f8d645d80098455bc05d60ef7"}, {"lon": -77.04480533333333, "lat": 38.90042116666667, "name": "e5530ddae4a75a9c77f8eab5afbba55d", "fusion_lat": 0.0, "fusion_lon": 0.0, "rental_uris": {"android": "https://dc.lft.to/lastmile_qr_scan", "ios": "https://dc.lft.to/lastmile_qr_scan"}, "is_reserved": 0, "is_disabled": 0, "type": "electric_scooter", "bike_id": "e5530ddae4a75a9c77f8eab5afbba55d"}, {"lon": -77.0527845, "lat": 38.9101355, "name": "3fa9cd4bf75311c28e31f49b955ea71d", "fusion_lat": 0.0, "fusion_lon": 0.0, "rental_uris": {"android": "https://dc.lft.to/lastmile_qr_scan", "ios": "https://dc.lft.to/lastmile_qr_scan"}, "is_reserved": 0, "is_disabled": 0, "type": "electric_scooter", "bike_id": "3fa9cd4bf75311c28e31f49b955ea71d"}, {"lon": -76.9732505, "lat": 38.85063383333333, "name": "1dab3adc52dba3e6e4ade46215bcbc25", "fusion_lat": 0.0, "fusion_lon": 0.0, "rental_uris": {"android": "https://dc.lft.to/lastmile_qr_scan", "ios": "https://dc.lft.to/lastmile_qr_scan"}, "is_reserved": 0, "is_disabled": 0, "type": "electric_bike", "bike_id": "1dab3adc52dba3e6e4ade46215bcbc25"}, {"lon": -77.03664583333334, "lat": 38.921008666666665, "name": "1735d7765d86a19be7503bdd2cf46fa5", "fusion_lat": 0.0, "fusion_lon": 0.0, "rental_uris": {"android": "https://dc.lft.to/lastmile_qr_scan", "ios": "https://dc.lft.to/lastmile_qr_scan"}, "is_reserved": 0, "is_disabled": 0, "type": "electric_scooter", "bike_id": "1735d7765d86a19be7503bdd2cf46fa5"}, {"lon": -76.98118266666667, "lat": 38.89672816666667, "name": "8514f47e0f03a7a594a707a409a5cd78", "fusion_lat": 0.0, "fusion_lon": 0.0, "rental_uris": {"android": "https://dc.lft.to/lastmile_qr_scan", "ios": "https://dc.lft.to/lastmile_qr_scan"}, "is_reserved": 0, "is_disabled": 0, "type": "electric_bike", "bike_id": "8514f47e0f03a7a594a707a409a5cd78"}, {"lon": -77.01701016666667, "lat": 38.91385016666667, "name": "dfd9e7134f08bbb5c34421a3b64f1479", "fusion_lat": 0.0, "fusion_lon": 0.0, "rental_uris": {"android": "https://dc.lft.to/lastmile_qr_scan", "ios": "https://dc.lft.to/lastmile_qr_scan"}, "is_reserved": 0, "is_disabled": 0, "type": "electric_scooter", "bike_id": "dfd9e7134f08bbb5c34421a3b64f1479"}, {"lon": -77.022308, "lat": 38.912726, "name": "5186b4ae88876f086a45768189bfe4aa", "fusion_lat": 0.0, "fusion_lon": 0.0, "rental_uris": {"android": "https://dc.lft.to/lastmile_qr_scan", "ios": "https://dc.lft.to/lastmile_qr_scan"}, "is_reserved": 0, "is_disabled": 0, "type": "electric_scooter", "bike_id": "5186b4ae88876f086a45768189bfe4aa"}, {"lon": -77.021566, "lat": 38.926038166666665, "name": "cfe0483925a40a9c514f6641ab1ec4a5", "fusion_lat": 0.0, "fusion_lon": 0.0, "rental_uris": {"android": "https://dc.lft.to/lastmile_qr_scan", "ios": "https://dc.lft.to/lastmile_qr_scan"}, "is_reserved": 0, "is_disabled": 0, "type": "electric_scooter", "bike_id": "cfe0483925a40a9c514f6641ab1ec4a5"}, {"lon": -76.98329883333334, "lat": 38.96600883333333, "name": "783da8af29e1947482ddd8750df82fa9", "fusion_lat": 0.0, "fusion_lon": 0.0, "rental_uris": {"android": "https://dc.lft.to/lastmile_qr_scan", "ios": "https://dc.lft.to/lastmile_qr_scan"}, "is_reserved": 0, "is_disabled": 0, "type": "electric_bike", "bike_id": "783da8af29e1947482ddd8750df82fa9"}, {"lon": -77.03277516666667, "lat": 38.936856166666665, "name": "d440214af6df8b567c731076c9004ef7", "fusion_lat": 0.0, "fusion_lon": 0.0, "rental_uris": {"android": "https://dc.lft.to/lastmile_qr_scan", "ios": "https://dc.lft.to/lastmile_qr_scan"}, "is_reserved": 0, "is_disabled": 0, "type": "electric_scooter", "bike_id": "d440214af6df8b567c731076c9004ef7"}, {"lon": -77.02205566666666, "lat": 38.8871575, "name": "0ddd10b4e076a4e6b20a5772074e6568", "fusion_lat": 0.0, "fusion_lon": 0.0, "rental_uris": {"android": "https://dc.lft.to/lastmile_qr_scan", "ios": "https://dc.lft.to/lastmile_qr_scan"}, "is_reserved": 0, "is_disabled": 0, "type": "electric_scooter", "bike_id": "0ddd10b4e076a4e6b20a5772074e6568"}, {"lon": -76.99610066666666, "lat": 38.9047915, "name": "52a5386d06ac3b271aa4f2f2ccf1b105", "fusion_lat": 0.0, "fusion_lon": 0.0, "rental_uris": {"android": "https://dc.lft.to/lastmile_qr_scan", "ios": "https://dc.lft.to/lastmile_qr_scan"}, "is_reserved": 0, "is_disabled": 0, "type": "electric_scooter", "bike_id": "52a5386d06ac3b271aa4f2f2ccf1b105"}, {"lon": -77.0057025, "lat": 38.878671, "name": "cd63e750215e48b7aac9a53f0420a35c", "fusion_lat": 0.0, "fusion_lon": 0.0, "rental_uris": {"android": "https://dc.lft.to/lastmile_qr_scan", "ios": "https://dc.lft.to/lastmile_qr_scan"}, "is_reserved": 0, "is_disabled": 0, "type": "electric_scooter", "bike_id": "cd63e750215e48b7aac9a53f0420a35c"}, {"lon": -76.96524683333334, "lat": 38.876302333333335, "name": "af7342c166eb7aba9be5e22c1ef36a3b", "fusion_lat": 0.0, "fusion_lon": 0.0, "rental_uris": {"android": "https://dc.lft.to/lastmile_qr_scan", "ios": "https://dc.lft.to/lastmile_qr_scan"}, "is_reserved": 0, "is_disabled": 0, "type": "electric_scooter", "bike_id": "af7342c166eb7aba9be5e22c1ef36a3b"}, {"lon": -77.00150833333333, "lat": 38.900288, "name": "cb9df6cd66568bdf64b5edc38bfae9a4", "fusion_lat": 0.0, "fusion_lon": 0.0, "rental_uris": {"android": "https://dc.lft.to/lastmile_qr_scan", "ios": "https://dc.lft.to/lastmile_qr_scan"}, "is_reserved": 0, "is_disabled": 0, "type": "electric_scooter", "bike_id": "cb9df6cd66568bdf64b5edc38bfae9a4"}, {"lon": -76.95249533333333, "lat": 38.90691433333333, "name": "0b56cd6575debb28089443ef19e4a124", "fusion_lat": 0.0, "fusion_lon": 0.0, "rental_uris": {"android": "https://dc.lft.to/lastmile_qr_scan", "ios": "https://dc.lft.to/lastmile_qr_scan"}, "is_reserved": 0, "is_disabled": 0, "type": "electric_bike", "bike_id": "0b56cd6575debb28089443ef19e4a124"}, {"lon": -77.11216383333333, "lat": 38.812142333333334, "name": "edda7aba40ee84392a97b2de345c4e17", "fusion_lat": 0.0, "fusion_lon": 0.0, "rental_uris": {"android": "https://dc.lft.to/lastmile_qr_scan", "ios": "https://dc.lft.to/lastmile_qr_scan"}, "is_reserved": 0, "is_disabled": 0, "type": "electric_bike", "bike_id": "edda7aba40ee84392a97b2de345c4e17"}, {"lon": -77.03350266666666, "lat": 38.8983705, "name": "54937546cd6d12ad088c33fd4c1aa5cd", "fusion_lat": 0.0, "fusion_lon": 0.0, "rental_uris": {"android": "https://dc.lft.to/lastmile_qr_scan", "ios": "https://dc.lft.to/lastmile_qr_scan"}, "is_reserved": 0, "is_disabled": 0, "type": "electric_scooter", "bike_id": "54937546cd6d12ad088c33fd4c1aa5cd"}, {"lon": -77.04340783333333, "lat": 38.903265833333336, "name": "10044633f436b906b36af7ab55cbf6b3", "fusion_lat": 0.0, "fusion_lon": 0.0, "rental_uris": {"android": "https://dc.lft.to/lastmile_qr_scan", "ios": "https://dc.lft.to/lastmile_qr_scan"}, "is_reserved": 0, "is_disabled": 0, "type": "electric_scooter", "bike_id": "10044633f436b906b36af7ab55cbf6b3"}, {"lon": -77.0258985, "lat": 38.904313, "name": "bc58bde23046dffacfe31a9d9539b2a3", "fusion_lat": 0.0, "fusion_lon": 0.0, "rental_uris": {"android": "https://dc.lft.to/lastmile_qr_scan", "ios": "https://dc.lft.to/lastmile_qr_scan"}, "is_reserved": 0, "is_disabled": 0, "type": "electric_scooter", "bike_id": "bc58bde23046dffacfe31a9d9539b2a3"}, {"lon": -77.0316735, "lat": 38.905313, "name": "e4f2b0bb64ab10c5ac280d116c4bb6f5", "fusion_lat": 0.0, "fusion_lon": 0.0, "rental_uris": {"android": "https://dc.lft.to/lastmile_qr_scan", "ios": "https://dc.lft.to/lastmile_qr_scan"}, "is_reserved": 0, "is_disabled": 0, "type": "electric_scooter", "bike_id": "e4f2b0bb64ab10c5ac280d116c4bb6f5"}, {"lon": -77.0484765, "lat": 38.91964766666667, "name": "20fefc3c1f38bf6973e714dca9086760", "fusion_lat": 0.0, "fusion_lon": 0.0, "rental_uris": {"android": "https://dc.lft.to/lastmile_qr_scan", "ios": "https://dc.lft.to/lastmile_qr_scan"}, "is_reserved": 0, "is_disabled": 0, "type": "electric_scooter", "bike_id": "20fefc3c1f38bf6973e714dca9086760"}, {"lon": -77.00280666666667, "lat": 38.91475916666667, "name": "4ab1d632f04957e1a54cae740bd48bb0", "fusion_lat": 0.0, "fusion_lon": 0.0, "rental_uris": {"android": "https://dc.lft.to/lastmile_qr_scan", "ios": "https://dc.lft.to/lastmile_qr_scan"}, "is_reserved": 0, "is_disabled": 0, "type": "electric_scooter", "bike_id": "4ab1d632f04957e1a54cae740bd48bb0"}, {"lon": -77.02542333333334, "lat": 38.89225833333333, "name": "85d400ffdfbbcb88adba04c2db47b06e", "fusion_lat": 0.0, "fusion_lon": 0.0, "rental_uris": {"android": "https://dc.lft.to/lastmile_qr_scan", "ios": "https://dc.lft.to/lastmile_qr_scan"}, "is_reserved": 0, "is_disabled": 0, "type": "electric_scooter", "bike_id": "85d400ffdfbbcb88adba04c2db47b06e"}, {"lon": -76.93348516666667, "lat": 38.899051666666665, "name": "1af7b3be4b1427cbca0500f74092e397", "fusion_lat": 0.0, "fusion_lon": 0.0, "rental_uris": {"android": "https://dc.lft.to/lastmile_qr_scan", "ios": "https://dc.lft.to/lastmile_qr_scan"}, "is_reserved": 0, "is_disabled": 0, "type": "electric_scooter", "bike_id": "1af7b3be4b1427cbca0500f74092e397"}, {"lon": -76.99532516666666, "lat": 38.900159333333335, "name": "0fb6590d922b751fde9c46c28bfb07a9", "fusion_lat": 0.0, "fusion_lon": 0.0, "rental_uris": {"android": "https://dc.lft.to/lastmile_qr_scan", "ios": "https://dc.lft.to/lastmile_qr_scan"}, "is_reserved": 0, "is_disabled": 0, "type": "electric_scooter", "bike_id": "0fb6590d922b751fde9c46c28bfb07a9"}, {"lon": -77.0320715, "lat": 38.907881333333336, "name": "340b3ef7440208ecea9053850fd60022", "fusion_lat": 0.0, "fusion_lon": 0.0, "rental_uris": {"android": "https://dc.lft.to/lastmile_qr_scan", "ios": "https://dc.lft.to/lastmile_qr_scan"}, "is_reserved": 0, "is_disabled": 0, "type": "electric_scooter", "bike_id": "340b3ef7440208ecea9053850fd60022"}, {"lon": -76.9918065, "lat": 38.90503183333333, "name": "132443143fd45c7a4eb6819db357efe1", "fusion_lat": 0.0, "fusion_lon": 0.0, "rental_uris": {"android": "https://dc.lft.to/lastmile_qr_scan", "ios": "https://dc.lft.to/lastmile_qr_scan"}, "is_reserved": 0, "is_disabled": 0, "type": "electric_scooter", "bike_id": "132443143fd45c7a4eb6819db357efe1"}, {"lon": -76.99014983333333, "lat": 38.8587305, "name": "6cecba691502cd8ee60dab88f955c612", "fusion_lat": 0.0, "fusion_lon": 0.0, "rental_uris": {"android": "https://dc.lft.to/lastmile_qr_scan", "ios": "https://dc.lft.to/lastmile_qr_scan"}, "is_reserved": 0, "is_disabled": 0, "type": "electric_scooter", "bike_id": "6cecba691502cd8ee60dab88f955c612"}, {"lon": -77.02776433333334, "lat": 38.894813, "name": "faa587156486c7bef66039d350b861b2", "fusion_lat": 0.0, "fusion_lon": 0.0, "rental_uris": {"android": "https://dc.lft.to/lastmile_qr_scan", "ios": "https://dc.lft.to/lastmile_qr_scan"}, "is_reserved": 0, "is_disabled": 0, "type": "electric_scooter", "bike_id": "faa587156486c7bef66039d350b861b2"}, {"lon": -76.9899385, "lat": 38.90389283333333, "name": "0c848df9f36ce5d26b0dcda364d226d8", "fusion_lat": 0.0, "fusion_lon": 0.0, "rental_uris": {"android": "https://dc.lft.to/lastmile_qr_scan", "ios": "https://dc.lft.to/lastmile_qr_scan"}, "is_reserved": 0, "is_disabled": 0, "type": "electric_scooter", "bike_id": "0c848df9f36ce5d26b0dcda364d226d8"}, {"lon": -77.028873, "lat": 38.900287666666664, "name": "e62283d89a764d89fdac47e71b2bc92a", "fusion_lat": 0.0, "fusion_lon": 0.0, "rental_uris": {"android": "https://dc.lft.to/lastmile_qr_scan", "ios": "https://dc.lft.to/lastmile_qr_scan"}, "is_reserved": 0, "is_disabled": 0, "type": "electric_scooter", "bike_id": "e62283d89a764d89fdac47e71b2bc92a"}, {"lon": -77.0417645, "lat": 38.9190395, "name": "df290318f5266b27517108e25c95441c", "fusion_lat": 0.0, "fusion_lon": 0.0, "rental_uris": {"android": "https://dc.lft.to/lastmile_qr_scan", "ios": "https://dc.lft.to/lastmile_qr_scan"}, "is_reserved": 0, "is_disabled": 0, "type": "electric_scooter", "bike_id": "df290318f5266b27517108e25c95441c"}, {"lon": -77.033509, "lat": 38.899729, "name": "88927bd0b165e06d7b6f0c87daf47e73", "fusion_lat": 0.0, "fusion_lon": 0.0, "rental_uris": {"android": "https://dc.lft.to/lastmile_qr_scan", "ios": "https://dc.lft.to/lastmile_qr_scan"}, "is_reserved": 0, "is_disabled": 0, "type": "electric_scooter", "bike_id": "88927bd0b165e06d7b6f0c87daf47e73"}, {"lon": -77.04725433333333, "lat": 38.91881716666666, "name": "4abe5cee1161f3d5a4bb6bdbff0c0ed5", "fusion_lat": 0.0, "fusion_lon": 0.0, "rental_uris": {"android": "https://dc.lft.to/lastmile_qr_scan", "ios": "https://dc.lft.to/lastmile_qr_scan"}, "is_reserved": 0, "is_disabled": 0, "type": "electric_scooter", "bike_id": "4abe5cee1161f3d5a4bb6bdbff0c0ed5"}, {"lon": -77.02796283333333, "lat": 38.9307905, "name": "711d6f755a7e9d0e69bb276471ffbfb3", "fusion_lat": 0.0, "fusion_lon": 0.0, "rental_uris": {"android": "https://dc.lft.to/lastmile_qr_scan", "ios": "https://dc.lft.to/lastmile_qr_scan"}, "is_reserved": 0, "is_disabled": 0, "type": "electric_scooter", "bike_id": "711d6f755a7e9d0e69bb276471ffbfb3"}, {"lon": -77.01023733333334, "lat": 38.91802233333333, "name": "da7f8facd35fb36590867a8e322e477d", "fusion_lat": 0.0, "fusion_lon": 0.0, "rental_uris": {"android": "https://dc.lft.to/lastmile_qr_scan", "ios": "https://dc.lft.to/lastmile_qr_scan"}, "is_reserved": 0, "is_disabled": 0, "type": "electric_scooter", "bike_id": "da7f8facd35fb36590867a8e322e477d"}, {"lon": -76.98448633333334, "lat": 38.899551333333335, "name": "440ceeaed38518cdd8cb6bad72b6d7bf", "fusion_lat": 0.0, "fusion_lon": 0.0, "rental_uris": {"android": "https://dc.lft.to/lastmile_qr_scan", "ios": "https://dc.lft.to/lastmile_qr_scan"}, "is_reserved": 0, "is_disabled": 0, "type": "electric_scooter", "bike_id": "440ceeaed38518cdd8cb6bad72b6d7bf"}, {"lon": -77.061446, "lat": 38.906896, "name": "80bf7804d9d9118badc210ed5afcd868", "fusion_lat": 0.0, "fusion_lon": 0.0, "rental_uris": {"android": "https://dc.lft.to/lastmile_qr_scan", "ios": "https://dc.lft.to/lastmile_qr_scan"}, "is_reserved": 0, "is_disabled": 0, "type": "electric_scooter", "bike_id": "80bf7804d9d9118badc210ed5afcd868"}, {"lon": -77.02243516666667, "lat": 38.9127265, "name": "f00d702fc1478a0fa2a8aeb1f61986fb", "fusion_lat": 0.0, "fusion_lon": 0.0, "rental_uris": {"android": "https://dc.lft.to/lastmile_qr_scan", "ios": "https://dc.lft.to/lastmile_qr_scan"}, "is_reserved": 0, "is_disabled": 0, "type": "electric_scooter", "bike_id": "f00d702fc1478a0fa2a8aeb1f61986fb"}, {"lon": -77.0013315, "lat": 38.9040915, "name": "5932ea09d76b8f726cdf0e8095e72407", "fusion_lat": 0.0, "fusion_lon": 0.0, "rental_uris": {"android": "https://dc.lft.to/lastmile_qr_scan", "ios": "https://dc.lft.to/lastmile_qr_scan"}, "is_reserved": 0, "is_disabled": 0, "type": "electric_scooter", "bike_id": "5932ea09d76b8f726cdf0e8095e72407"}, {"lon": -77.031667, "lat": 38.9141715, "name": "f890949e04afe42d02d757edd96cfc44", "fusion_lat": 0.0, "fusion_lon": 0.0, "rental_uris": {"android": "https://dc.lft.to/lastmile_qr_scan", "ios": "https://dc.lft.to/lastmile_qr_scan"}, "is_reserved": 0, "is_disabled": 0, "type": "electric_scooter", "bike_id": "f890949e04afe42d02d757edd96cfc44"}, {"lon": -77.02154866666666, "lat": 38.88623966666667, "name": "dd999bb6f69a0f8731e050ec18e2b505", "fusion_lat": 0.0, "fusion_lon": 0.0, "rental_uris": {"android": "https://dc.lft.to/lastmile_qr_scan", "ios": "https://dc.lft.to/lastmile_qr_scan"}, "is_reserved": 0, "is_disabled": 0, "type": "electric_scooter", "bike_id": "dd999bb6f69a0f8731e050ec18e2b505"}, {"lon": -77.0424525, "lat": 38.9243065, "name": "66571049cce5f987939be05b18a6c812", "fusion_lat": 0.0, "fusion_lon": 0.0, "rental_uris": {"android": "https://dc.lft.to/lastmile_qr_scan", "ios": "https://dc.lft.to/lastmile_qr_scan"}, "is_reserved": 0, "is_disabled": 0, "type": "electric_scooter", "bike_id": "66571049cce5f987939be05b18a6c812"}, {"lon": -77.02973166666666, "lat": 38.962297, "name": "e35594dafeda891d6e84ed0792d8c1bf", "fusion_lat": 0.0, "fusion_lon": 0.0, "rental_uris": {"android": "https://dc.lft.to/lastmile_qr_scan", "ios": "https://dc.lft.to/lastmile_qr_scan"}, "is_reserved": 0, "is_disabled": 0, "type": "electric_scooter", "bike_id": "e35594dafeda891d6e84ed0792d8c1bf"}, {"lon": -76.99494466666667, "lat": 38.86221466666667, "name": "8fa29864d160f53795ab1c765bdcede5", "fusion_lat": 0.0, "fusion_lon": 0.0, "rental_uris": {"android": "https://dc.lft.to/lastmile_qr_scan", "ios": "https://dc.lft.to/lastmile_qr_scan"}, "is_reserved": 0, "is_disabled": 0, "type": "electric_scooter", "bike_id": "8fa29864d160f53795ab1c765bdcede5"}, {"lon": -77.1012975, "lat": 38.8520655, "name": "be333cf797d02cd556ffd89ecea9192d", "fusion_lat": 0.0, "fusion_lon": 0.0, "rental_uris": {"android": "https://dc.lft.to/lastmile_qr_scan", "ios": "https://dc.lft.to/lastmile_qr_scan"}, "is_reserved": 0, "is_disabled": 0, "type": "electric_bike", "bike_id": "be333cf797d02cd556ffd89ecea9192d"}, {"lon": -77.0056445, "lat": 38.876392, "name": "773e4abab52521ef374977130ebdcff0", "fusion_lat": 0.0, "fusion_lon": 0.0, "rental_uris": {"android": "https://dc.lft.to/lastmile_qr_scan", "ios": "https://dc.lft.to/lastmile_qr_scan"}, "is_reserved": 0, "is_disabled": 0, "type": "electric_scooter", "bike_id": "773e4abab52521ef374977130ebdcff0"}, {"lon": -77.038668, "lat": 38.91255266666667, "name": "38829b88734a8ad1da893388c982c107", "fusion_lat": 0.0, "fusion_lon": 0.0, "rental_uris": {"android": "https://dc.lft.to/lastmile_qr_scan", "ios": "https://dc.lft.to/lastmile_qr_scan"}, "is_reserved": 0, "is_disabled": 0, "type": "electric_scooter", "bike_id": "38829b88734a8ad1da893388c982c107"}, {"lon": -77.06340333333333, "lat": 38.90681266666667, "name": "8ba7338c469bc8d11531fc62f515d8a0", "fusion_lat": 0.0, "fusion_lon": 0.0, "rental_uris": {"android": "https://dc.lft.to/lastmile_qr_scan", "ios": "https://dc.lft.to/lastmile_qr_scan"}, "is_reserved": 0, "is_disabled": 0, "type": "electric_scooter", "bike_id": "8ba7338c469bc8d11531fc62f515d8a0"}, {"lon": -76.9847, "lat": 38.92892616666666, "name": "dd5f11c25205b3366112652529646ca4", "fusion_lat": 0.0, "fusion_lon": 0.0, "rental_uris": {"android": "https://dc.lft.to/lastmile_qr_scan", "ios": "https://dc.lft.to/lastmile_qr_scan"}, "is_reserved": 0, "is_disabled": 0, "type": "electric_scooter", "bike_id": "dd5f11c25205b3366112652529646ca4"}, {"lon": -77.031275, "lat": 38.91926333333333, "name": "01a3a28e66d502666b9d03756c36e81a", "fusion_lat": 0.0, "fusion_lon": 0.0, "rental_uris": {"android": "https://dc.lft.to/lastmile_qr_scan", "ios": "https://dc.lft.to/lastmile_qr_scan"}, "is_reserved": 0, "is_disabled": 0, "type": "electric_scooter", "bike_id": "01a3a28e66d502666b9d03756c36e81a"}, {"lon": -76.91923633333333, "lat": 38.890798833333335, "name": "36930fd5f38f0c661975db7a344fa39c", "fusion_lat": 0.0, "fusion_lon": 0.0, "rental_uris": {"android": "https://dc.lft.to/lastmile_qr_scan", "ios": "https://dc.lft.to/lastmile_qr_scan"}, "is_reserved": 0, "is_disabled": 0, "type": "electric_scooter", "bike_id": "36930fd5f38f0c661975db7a344fa39c"}, {"lon": -77.044054, "lat": 38.934215, "name": "574d96e45ac867e972b5dec3246f3ca4", "fusion_lat": 0.0, "fusion_lon": 0.0, "rental_uris": {"android": "https://dc.lft.to/lastmile_qr_scan", "ios": "https://dc.lft.to/lastmile_qr_scan"}, "is_reserved": 0, "is_disabled": 0, "type": "electric_scooter", "bike_id": "574d96e45ac867e972b5dec3246f3ca4"}, {"lon": -77.03461016666667, "lat": 38.90480083333333, "name": "268ffee0ce325ee638ac88b382a2426b", "fusion_lat": 0.0, "fusion_lon": 0.0, "rental_uris": {"android": "https://dc.lft.to/lastmile_qr_scan", "ios": "https://dc.lft.to/lastmile_qr_scan"}, "is_reserved": 0, "is_disabled": 0, "type": "electric_scooter", "bike_id": "268ffee0ce325ee638ac88b382a2426b"}, {"lon": -77.03646516666667, "lat": 38.9126815, "name": "35fea037608a46146ad772ccc71a59ff", "fusion_lat": 0.0, "fusion_lon": 0.0, "rental_uris": {"android": "https://dc.lft.to/lastmile_qr_scan", "ios": "https://dc.lft.to/lastmile_qr_scan"}, "is_reserved": 0, "is_disabled": 0, "type": "electric_scooter", "bike_id": "35fea037608a46146ad772ccc71a59ff"}, {"lon": -77.03063966666667, "lat": 38.9057525, "name": "14299d25170b55c91b48eec1571583d3", "fusion_lat": 0.0, "fusion_lon": 0.0, "rental_uris": {"android": "https://dc.lft.to/lastmile_qr_scan", "ios": "https://dc.lft.to/lastmile_qr_scan"}, "is_reserved": 0, "is_disabled": 0, "type": "electric_scooter", "bike_id": "14299d25170b55c91b48eec1571583d3"}, {"lon": -77.04699716666667, "lat": 38.92158883333333, "name": "36ad5cd070c7a6976a980bd93b3e9e1e", "fusion_lat": 0.0, "fusion_lon": 0.0, "rental_uris": {"android": "https://dc.lft.to/lastmile_qr_scan", "ios": "https://dc.lft.to/lastmile_qr_scan"}, "is_reserved": 0, "is_disabled": 0, "type": "electric_scooter", "bike_id": "36ad5cd070c7a6976a980bd93b3e9e1e"}, {"lon": -77.01227583333333, "lat": 38.95085733333333, "name": "7da4fa3df89769dfb03ebe412f8051a0", "fusion_lat": 0.0, "fusion_lon": 0.0, "rental_uris": {"android": "https://dc.lft.to/lastmile_qr_scan", "ios": "https://dc.lft.to/lastmile_qr_scan"}, "is_reserved": 0, "is_disabled": 0, "type": "electric_bike", "bike_id": "7da4fa3df89769dfb03ebe412f8051a0"}, {"lon": -77.03825916666666, "lat": 38.920634, "name": "e5411dbe3e1d8e25416d289669b86cf0", "fusion_lat": 0.0, "fusion_lon": 0.0, "rental_uris": {"android": "https://dc.lft.to/lastmile_qr_scan", "ios": "https://dc.lft.to/lastmile_qr_scan"}, "is_reserved": 0, "is_disabled": 0, "type": "electric_scooter", "bike_id": "e5411dbe3e1d8e25416d289669b86cf0"}, {"lon": -77.0450265, "lat": 38.911116666666665, "name": "22126c0e975d08a9ffe82e3518da104c", "fusion_lat": 0.0, "fusion_lon": 0.0, "rental_uris": {"android": "https://dc.lft.to/lastmile_qr_scan", "ios": "https://dc.lft.to/lastmile_qr_scan"}, "is_reserved": 0, "is_disabled": 0, "type": "electric_scooter", "bike_id": "22126c0e975d08a9ffe82e3518da104c"}, {"lon": -77.034471, "lat": 38.907377333333336, "name": "aff26e4c2ca611e41c8954db8b9ecfbf", "fusion_lat": 0.0, "fusion_lon": 0.0, "rental_uris": {"android": "https://dc.lft.to/lastmile_qr_scan", "ios": "https://dc.lft.to/lastmile_qr_scan"}, "is_reserved": 0, "is_disabled": 0, "type": "electric_scooter", "bike_id": "aff26e4c2ca611e41c8954db8b9ecfbf"}, {"lon": -77.029697, "lat": 38.94030383333333, "name": "9209eeee51bdb468e34e18dcc7c5b182", "fusion_lat": 0.0, "fusion_lon": 0.0, "rental_uris": {"android": "https://dc.lft.to/lastmile_qr_scan", "ios": "https://dc.lft.to/lastmile_qr_scan"}, "is_reserved": 0, "is_disabled": 0, "type": "electric_scooter", "bike_id": "9209eeee51bdb468e34e18dcc7c5b182"}, {"lon": -77.0159285, "lat": 38.87682383333333, "name": "c277e58a58c5dd4a5f479d5f4bebb564", "fusion_lat": 0.0, "fusion_lon": 0.0, "rental_uris": {"android": "https://dc.lft.to/lastmile_qr_scan", "ios": "https://dc.lft.to/lastmile_qr_scan"}, "is_reserved": 0, "is_disabled": 0, "type": "electric_scooter", "bike_id": "c277e58a58c5dd4a5f479d5f4bebb564"}, {"lon": -77.03074466666666, "lat": 38.92249, "name": "43c2780f1eeb2befbdd6ecfd37b29c94", "fusion_lat": 0.0, "fusion_lon": 0.0, "rental_uris": {"android": "https://dc.lft.to/lastmile_qr_scan", "ios": "https://dc.lft.to/lastmile_qr_scan"}, "is_reserved": 0, "is_disabled": 0, "type": "electric_scooter", "bike_id": "43c2780f1eeb2befbdd6ecfd37b29c94"}, {"lon": -77.0486445, "lat": 38.900575, "name": "9a24bdc6c62fd72584d4b7a45922ba71", "fusion_lat": 0.0, "fusion_lon": 0.0, "rental_uris": {"android": "https://dc.lft.to/lastmile_qr_scan", "ios": "https://dc.lft.to/lastmile_qr_scan"}, "is_reserved": 0, "is_disabled": 0, "type": "electric_scooter", "bike_id": "9a24bdc6c62fd72584d4b7a45922ba71"}, {"lon": -77.034728, "lat": 38.91713583333333, "name": "e942ff3bacc48242dde3791854f361f8", "fusion_lat": 0.0, "fusion_lon": 0.0, "rental_uris": {"android": "https://dc.lft.to/lastmile_qr_scan", "ios": "https://dc.lft.to/lastmile_qr_scan"}, "is_reserved": 0, "is_disabled": 0, "type": "electric_scooter", "bike_id": "e942ff3bacc48242dde3791854f361f8"}, {"lon": -77.04120416666666, "lat": 38.91892816666667, "name": "585f429e4d3afe04f51cc65930463827", "fusion_lat": 0.0, "fusion_lon": 0.0, "rental_uris": {"android": "https://dc.lft.to/lastmile_qr_scan", "ios": "https://dc.lft.to/lastmile_qr_scan"}, "is_reserved": 0, "is_disabled": 0, "type": "electric_scooter", "bike_id": "585f429e4d3afe04f51cc65930463827"}, {"lon": -76.9912545, "lat": 38.9031435, "name": "98172367e7e4901aff811fe5e3dbf4c1", "fusion_lat": 0.0, "fusion_lon": 0.0, "rental_uris": {"android": "https://dc.lft.to/lastmile_qr_scan", "ios": "https://dc.lft.to/lastmile_qr_scan"}, "is_reserved": 0, "is_disabled": 0, "type": "electric_bike", "bike_id": "98172367e7e4901aff811fe5e3dbf4c1"}, {"lon": -77.033733, "lat": 38.903856833333336, "name": "0ae69b20ca9475e132c82117cf3d3e9e", "fusion_lat": 0.0, "fusion_lon": 0.0, "rental_uris": {"android": "https://dc.lft.to/lastmile_qr_scan", "ios": "https://dc.lft.to/lastmile_qr_scan"}, "is_reserved": 0, "is_disabled": 0, "type": "electric_scooter", "bike_id": "0ae69b20ca9475e132c82117cf3d3e9e"}, {"lon": -76.98414866666667, "lat": 38.9000185, "name": "0c6a985353b0604ce2b354053ea87208", "fusion_lat": 0.0, "fusion_lon": 0.0, "rental_uris": {"android": "https://dc.lft.to/lastmile_qr_scan", "ios": "https://dc.lft.to/lastmile_qr_scan"}, "is_reserved": 0, "is_disabled": 0, "type": "electric_scooter", "bike_id": "0c6a985353b0604ce2b354053ea87208"}, {"lon": -77.02359266666667, "lat": 38.8791155, "name": "d1f8af12c3589d92cca0e935167bcbb4", "fusion_lat": 0.0, "fusion_lon": 0.0, "rental_uris": {"android": "https://dc.lft.to/lastmile_qr_scan", "ios": "https://dc.lft.to/lastmile_qr_scan"}, "is_reserved": 0, "is_disabled": 0, "type": "electric_scooter", "bike_id": "d1f8af12c3589d92cca0e935167bcbb4"}, {"lon": -77.00609, "lat": 38.898058166666665, "name": "93f7e698fece5ac26a456fc259cb2a44", "fusion_lat": 0.0, "fusion_lon": 0.0, "rental_uris": {"android": "https://dc.lft.to/lastmile_qr_scan", "ios": "https://dc.lft.to/lastmile_qr_scan"}, "is_reserved": 0, "is_disabled": 0, "type": "electric_bike", "bike_id": "93f7e698fece5ac26a456fc259cb2a44"}, {"lon": -77.04277216666667, "lat": 38.923114, "name": "1f7d06c443ce1e2200905eed369866ae", "fusion_lat": 0.0, "fusion_lon": 0.0, "rental_uris": {"android": "https://dc.lft.to/lastmile_qr_scan", "ios": "https://dc.lft.to/lastmile_qr_scan"}, "is_reserved": 0, "is_disabled": 0, "type": "electric_scooter", "bike_id": "1f7d06c443ce1e2200905eed369866ae"}, {"lon": -77.03348033333333, "lat": 38.897395, "name": "eec38c82bba2293159038d175f17222e", "fusion_lat": 0.0, "fusion_lon": 0.0, "rental_uris": {"android": "https://dc.lft.to/lastmile_qr_scan", "ios": "https://dc.lft.to/lastmile_qr_scan"}, "is_reserved": 0, "is_disabled": 0, "type": "electric_scooter", "bike_id": "eec38c82bba2293159038d175f17222e"}, {"lon": -76.97252466666667, "lat": 38.95741183333333, "name": "b5d5631e8d84d9564e1b616eb7cc02a9", "fusion_lat": 0.0, "fusion_lon": 0.0, "rental_uris": {"android": "https://dc.lft.to/lastmile_qr_scan", "ios": "https://dc.lft.to/lastmile_qr_scan"}, "is_reserved": 0, "is_disabled": 0, "type": "electric_bike", "bike_id": "b5d5631e8d84d9564e1b616eb7cc02a9"}, {"lon": -77.002562, "lat": 38.911769166666666, "name": "6c22ab2de2ff4628c68c66790df8651d", "fusion_lat": 0.0, "fusion_lon": 0.0, "rental_uris": {"android": "https://dc.lft.to/lastmile_qr_scan", "ios": "https://dc.lft.to/lastmile_qr_scan"}, "is_reserved": 0, "is_disabled": 0, "type": "electric_scooter", "bike_id": "6c22ab2de2ff4628c68c66790df8651d"}, {"lon": -76.97098166666666, "lat": 38.8571855, "name": "f069b09063b11393e343118a90c10d21", "fusion_lat": 0.0, "fusion_lon": 0.0, "rental_uris": {"android": "https://dc.lft.to/lastmile_qr_scan", "ios": "https://dc.lft.to/lastmile_qr_scan"}, "is_reserved": 0, "is_disabled": 0, "type": "electric_scooter", "bike_id": "f069b09063b11393e343118a90c10d21"}, {"lon": -77.0381945, "lat": 38.93110633333333, "name": "550e8e8884fe8313a8a26bd78558f28b", "fusion_lat": 0.0, "fusion_lon": 0.0, "rental_uris": {"android": "https://dc.lft.to/lastmile_qr_scan", "ios": "https://dc.lft.to/lastmile_qr_scan"}, "is_reserved": 0, "is_disabled": 0, "type": "electric_scooter", "bike_id": "550e8e8884fe8313a8a26bd78558f28b"}, {"lon": -76.95655866666667, "lat": 38.89608033333333, "name": "8f8469dc6306097c7abe771f504e8aa7", "fusion_lat": 0.0, "fusion_lon": 0.0, "rental_uris": {"android": "https://dc.lft.to/lastmile_qr_scan", "ios": "https://dc.lft.to/lastmile_qr_scan"}, "is_reserved": 0, "is_disabled": 0, "type": "electric_scooter", "bike_id": "8f8469dc6306097c7abe771f504e8aa7"}, {"lon": -76.94654516666667, "lat": 38.898255166666665, "name": "367f029708efb4cd472222a279f9e256", "fusion_lat": 0.0, "fusion_lon": 0.0, "rental_uris": {"android": "https://dc.lft.to/lastmile_qr_scan", "ios": "https://dc.lft.to/lastmile_qr_scan"}, "is_reserved": 0, "is_disabled": 0, "type": "electric_scooter", "bike_id": "367f029708efb4cd472222a279f9e256"}, {"lon": -77.03876366666667, "lat": 38.912645, "name": "d948f1dead863025b4e4cddcf595be28", "fusion_lat": 0.0, "fusion_lon": 0.0, "rental_uris": {"android": "https://dc.lft.to/lastmile_qr_scan", "ios": "https://dc.lft.to/lastmile_qr_scan"}, "is_reserved": 0, "is_disabled": 0, "type": "electric_scooter", "bike_id": "d948f1dead863025b4e4cddcf595be28"}, {"lon": -77.07823316666666, "lat": 38.924606833333335, "name": "bfae1f5f64b742d705591200db8d2824", "fusion_lat": 0.0, "fusion_lon": 0.0, "rental_uris": {"android": "https://dc.lft.to/lastmile_qr_scan", "ios": "https://dc.lft.to/lastmile_qr_scan"}, "is_reserved": 0, "is_disabled": 0, "type": "electric_scooter", "bike_id": "bfae1f5f64b742d705591200db8d2824"}, {"lon": -77.03511083333333, "lat": 38.975855833333334, "name": "c6e7c52ff757ecd5f45038edb2e4e9a9", "fusion_lat": 0.0, "fusion_lon": 0.0, "rental_uris": {"android": "https://dc.lft.to/lastmile_qr_scan", "ios": "https://dc.lft.to/lastmile_qr_scan"}, "is_reserved": 0, "is_disabled": 0, "type": "electric_bike", "bike_id": "c6e7c52ff757ecd5f45038edb2e4e9a9"}, {"lon": -76.99780433333333, "lat": 38.8442485, "name": "e8867f4342a3c10b6269cc0a663b349f", "fusion_lat": 0.0, "fusion_lon": 0.0, "rental_uris": {"android": "https://dc.lft.to/lastmile_qr_scan", "ios": "https://dc.lft.to/lastmile_qr_scan"}, "is_reserved": 0, "is_disabled": 0, "type": "electric_scooter", "bike_id": "e8867f4342a3c10b6269cc0a663b349f"}, {"lon": -77.01780533333333, "lat": 38.902479666666665, "name": "b49f9654e100ff271868a8ae8a3696b9", "fusion_lat": 0.0, "fusion_lon": 0.0, "rental_uris": {"android": "https://dc.lft.to/lastmile_qr_scan", "ios": "https://dc.lft.to/lastmile_qr_scan"}, "is_reserved": 0, "is_disabled": 0, "type": "electric_scooter", "bike_id": "b49f9654e100ff271868a8ae8a3696b9"}, {"lon": -77.09549233333334, "lat": 38.837315333333336, "name": "c6b100d8709b9a11213f59bb09c2e708", "fusion_lat": 0.0, "fusion_lon": 0.0, "rental_uris": {"android": "https://dc.lft.to/lastmile_qr_scan", "ios": "https://dc.lft.to/lastmile_qr_scan"}, "is_reserved": 0, "is_disabled": 0, "type": "electric_bike", "bike_id": "c6b100d8709b9a11213f59bb09c2e708"}, {"lon": -77.03642716666667, "lat": 38.912685, "name": "33c543587b0e6066b7c45e246b2ebdb7", "fusion_lat": 0.0, "fusion_lon": 0.0, "rental_uris": {"android": "https://dc.lft.to/lastmile_qr_scan", "ios": "https://dc.lft.to/lastmile_qr_scan"}, "is_reserved": 0, "is_disabled": 0, "type": "electric_scooter", "bike_id": "33c543587b0e6066b7c45e246b2ebdb7"}, {"lon": -77.02712633333333, "lat": 38.906729, "name": "1e0d78c31f8edbc43d35ea5197e5c0f3", "fusion_lat": 0.0, "fusion_lon": 0.0, "rental_uris": {"android": "https://dc.lft.to/lastmile_qr_scan", "ios": "https://dc.lft.to/lastmile_qr_scan"}, "is_reserved": 0, "is_disabled": 0, "type": "electric_scooter", "bike_id": "1e0d78c31f8edbc43d35ea5197e5c0f3"}, {"lon": -77.04291266666667, "lat": 38.90736283333333, "name": "e859aabfcb8c2d1e1e8280fc6b443655", "fusion_lat": 0.0, "fusion_lon": 0.0, "rental_uris": {"android": "https://dc.lft.to/lastmile_qr_scan", "ios": "https://dc.lft.to/lastmile_qr_scan"}, "is_reserved": 0, "is_disabled": 0, "type": "electric_scooter", "bike_id": "e859aabfcb8c2d1e1e8280fc6b443655"}, {"lon": -77.03288066666667, "lat": 38.9565175, "name": "5bbc02510bc6bd41098042c911bac101", "fusion_lat": 0.0, "fusion_lon": 0.0, "rental_uris": {"android": "https://dc.lft.to/lastmile_qr_scan", "ios": "https://dc.lft.to/lastmile_qr_scan"}, "is_reserved": 0, "is_disabled": 0, "type": "electric_scooter", "bike_id": "5bbc02510bc6bd41098042c911bac101"}, {"lon": -77.01161416666666, "lat": 38.89340516666667, "name": "b6a545e5d11e6c458dcc19200fefe3ca", "fusion_lat": 0.0, "fusion_lon": 0.0, "rental_uris": {"android": "https://dc.lft.to/lastmile_qr_scan", "ios": "https://dc.lft.to/lastmile_qr_scan"}, "is_reserved": 0, "is_disabled": 0, "type": "electric_scooter", "bike_id": "b6a545e5d11e6c458dcc19200fefe3ca"}, {"lon": -76.949425, "lat": 38.883205, "name": "e94ebfc47457351cb0de89affca0eccd", "fusion_lat": 0.0, "fusion_lon": 0.0, "rental_uris": {"android": "https://dc.lft.to/lastmile_qr_scan", "ios": "https://dc.lft.to/lastmile_qr_scan"}, "is_reserved": 0, "is_disabled": 0, "type": "electric_scooter", "bike_id": "e94ebfc47457351cb0de89affca0eccd"}, {"lon": -77.0036535, "lat": 38.83611466666667, "name": "991e0a69d7d1210db33b21dc815c53d6", "fusion_lat": 0.0, "fusion_lon": 0.0, "rental_uris": {"android": "https://dc.lft.to/lastmile_qr_scan", "ios": "https://dc.lft.to/lastmile_qr_scan"}, "is_reserved": 0, "is_disabled": 0, "type": "electric_bike", "bike_id": "991e0a69d7d1210db33b21dc815c53d6"}, {"lon": -76.8749425, "lat": 38.99089766666667, "name": "55cbf3861a494401a0c7c4019c01f2b6", "fusion_lat": 0.0, "fusion_lon": 0.0, "rental_uris": {"android": "https://dc.lft.to/lastmile_qr_scan", "ios": "https://dc.lft.to/lastmile_qr_scan"}, "is_reserved": 0, "is_disabled": 0, "type": "electric_bike", "bike_id": "55cbf3861a494401a0c7c4019c01f2b6"}, {"lon": -77.03134483333334, "lat": 38.915654, "name": "533c0f7573b8b2ef6e6a7e821add7e78", "fusion_lat": 0.0, "fusion_lon": 0.0, "rental_uris": {"android": "https://dc.lft.to/lastmile_qr_scan", "ios": "https://dc.lft.to/lastmile_qr_scan"}, "is_reserved": 0, "is_disabled": 0, "type": "electric_scooter", "bike_id": "533c0f7573b8b2ef6e6a7e821add7e78"}, {"lon": -77.11217533333334, "lat": 38.828717166666664, "name": "291dac10bdac5544f670e689bf7b81cc", "fusion_lat": 0.0, "fusion_lon": 0.0, "rental_uris": {"android": "https://dc.lft.to/lastmile_qr_scan", "ios": "https://dc.lft.to/lastmile_qr_scan"}, "is_reserved": 0, "is_disabled": 0, "type": "electric_bike", "bike_id": "291dac10bdac5544f670e689bf7b81cc"}, {"lon": -76.99624983333334, "lat": 38.880314166666665, "name": "8082d4dabec547ffeeed7edcfa7eab75", "fusion_lat": 0.0, "fusion_lon": 0.0, "rental_uris": {"android": "https://dc.lft.to/lastmile_qr_scan", "ios": "https://dc.lft.to/lastmile_qr_scan"}, "is_reserved": 0, "is_disabled": 0, "type": "electric_scooter", "bike_id": "8082d4dabec547ffeeed7edcfa7eab75"}, {"lon": -76.96555666666667, "lat": 38.91844233333333, "name": "c6add8fe19829d281c87f8d209124158", "fusion_lat": 0.0, "fusion_lon": 0.0, "rental_uris": {"android": "https://dc.lft.to/lastmile_qr_scan", "ios": "https://dc.lft.to/lastmile_qr_scan"}, "is_reserved": 0, "is_disabled": 0, "type": "electric_scooter", "bike_id": "c6add8fe19829d281c87f8d209124158"}, {"lon": -77.001967, "lat": 38.90033533333333, "name": "4727251f48a7c1bf375ff2ff264b42de", "fusion_lat": 0.0, "fusion_lon": 0.0, "rental_uris": {"android": "https://dc.lft.to/lastmile_qr_scan", "ios": "https://dc.lft.to/lastmile_qr_scan"}, "is_reserved": 0, "is_disabled": 0, "type": "electric_scooter", "bike_id": "4727251f48a7c1bf375ff2ff264b42de"}, {"lon": -77.00958183333333, "lat": 38.921353, "name": "343df32bc1ad04d841fe7c92b2c19f4a", "fusion_lat": 0.0, "fusion_lon": 0.0, "rental_uris": {"android": "https://dc.lft.to/lastmile_qr_scan", "ios": "https://dc.lft.to/lastmile_qr_scan"}, "is_reserved": 0, "is_disabled": 0, "type": "electric_scooter", "bike_id": "343df32bc1ad04d841fe7c92b2c19f4a"}, {"lon": -76.93157483333333, "lat": 38.89882, "name": "bd7bba8f026e0abea35b661461e86f85", "fusion_lat": 0.0, "fusion_lon": 0.0, "rental_uris": {"android": "https://dc.lft.to/lastmile_qr_scan", "ios": "https://dc.lft.to/lastmile_qr_scan"}, "is_reserved": 0, "is_disabled": 0, "type": "electric_scooter", "bike_id": "bd7bba8f026e0abea35b661461e86f85"}, {"lon": -77.0320405, "lat": 38.93862883333333, "name": "05ccc4f7c70dd3fb1ab18b0c9d23ba07", "fusion_lat": 0.0, "fusion_lon": 0.0, "rental_uris": {"android": "https://dc.lft.to/lastmile_qr_scan", "ios": "https://dc.lft.to/lastmile_qr_scan"}, "is_reserved": 0, "is_disabled": 0, "type": "electric_scooter", "bike_id": "05ccc4f7c70dd3fb1ab18b0c9d23ba07"}, {"lon": -77.02366716666667, "lat": 38.92054916666667, "name": "b64ac8bae19b6e30e043ca024756332c", "fusion_lat": 0.0, "fusion_lon": 0.0, "rental_uris": {"android": "https://dc.lft.to/lastmile_qr_scan", "ios": "https://dc.lft.to/lastmile_qr_scan"}, "is_reserved": 0, "is_disabled": 0, "type": "electric_scooter", "bike_id": "b64ac8bae19b6e30e043ca024756332c"}, {"lon": -77.00166733333333, "lat": 38.9076025, "name": "5d10e82c72bbaa1efd099a5c7cadcd02", "fusion_lat": 0.0, "fusion_lon": 0.0, "rental_uris": {"android": "https://dc.lft.to/lastmile_qr_scan", "ios": "https://dc.lft.to/lastmile_qr_scan"}, "is_reserved": 0, "is_disabled": 0, "type": "electric_scooter", "bike_id": "5d10e82c72bbaa1efd099a5c7cadcd02"}, {"lon": -76.96104266666667, "lat": 38.92869866666667, "name": "cc184e507321b186acfb3cd4cd4bc3d9", "fusion_lat": 0.0, "fusion_lon": 0.0, "rental_uris": {"android": "https://dc.lft.to/lastmile_qr_scan", "ios": "https://dc.lft.to/lastmile_qr_scan"}, "is_reserved": 0, "is_disabled": 0, "type": "electric_bike", "bike_id": "cc184e507321b186acfb3cd4cd4bc3d9"}, {"lon": -77.00318616666667, "lat": 38.901246666666665, "name": "ad67b26f4cd3fd771ac1d91fe4fa867a", "fusion_lat": 0.0, "fusion_lon": 0.0, "rental_uris": {"android": "https://dc.lft.to/lastmile_qr_scan", "ios": "https://dc.lft.to/lastmile_qr_scan"}, "is_reserved": 0, "is_disabled": 0, "type": "electric_scooter", "bike_id": "ad67b26f4cd3fd771ac1d91fe4fa867a"}, {"lon": -77.03732616666667, "lat": 38.931902, "name": "41346e1e793b40467cff4f3e385b35eb", "fusion_lat": 0.0, "fusion_lon": 0.0, "rental_uris": {"android": "https://dc.lft.to/lastmile_qr_scan", "ios": "https://dc.lft.to/lastmile_qr_scan"}, "is_reserved": 0, "is_disabled": 0, "type": "electric_bike", "bike_id": "41346e1e793b40467cff4f3e385b35eb"}, {"lon": -77.0364625, "lat": 38.902832, "name": "3459dc411be6d418a7c431a3d49dffd6", "fusion_lat": 0.0, "fusion_lon": 0.0, "rental_uris": {"android": "https://dc.lft.to/lastmile_qr_scan", "ios": "https://dc.lft.to/lastmile_qr_scan"}, "is_reserved": 0, "is_disabled": 0, "type": "electric_scooter", "bike_id": "3459dc411be6d418a7c431a3d49dffd6"}, {"lon": -77.0119105, "lat": 38.90017683333333, "name": "23f35c9937c81140c184ab42b259e39c", "fusion_lat": 0.0, "fusion_lon": 0.0, "rental_uris": {"android": "https://dc.lft.to/lastmile_qr_scan", "ios": "https://dc.lft.to/lastmile_qr_scan"}, "is_reserved": 0, "is_disabled": 0, "type": "electric_scooter", "bike_id": "23f35c9937c81140c184ab42b259e39c"}, {"lon": -77.0040745, "lat": 38.879375, "name": "08f4128301f663d1acf28d85d8dce5e1", "fusion_lat": 0.0, "fusion_lon": 0.0, "rental_uris": {"android": "https://dc.lft.to/lastmile_qr_scan", "ios": "https://dc.lft.to/lastmile_qr_scan"}, "is_reserved": 0, "is_disabled": 0, "type": "electric_scooter", "bike_id": "08f4128301f663d1acf28d85d8dce5e1"}, {"lon": -76.99942133333333, "lat": 38.880441833333336, "name": "22a72567f191d710612d185a79d044ec", "fusion_lat": 0.0, "fusion_lon": 0.0, "rental_uris": {"android": "https://dc.lft.to/lastmile_qr_scan", "ios": "https://dc.lft.to/lastmile_qr_scan"}, "is_reserved": 0, "is_disabled": 0, "type": "electric_scooter", "bike_id": "22a72567f191d710612d185a79d044ec"}, {"lon": -77.02494283333333, "lat": 38.97409316666667, "name": "2e84e5d8bd855083abeb556f8a54e84c", "fusion_lat": 0.0, "fusion_lon": 0.0, "rental_uris": {"android": "https://dc.lft.to/lastmile_qr_scan", "ios": "https://dc.lft.to/lastmile_qr_scan"}, "is_reserved": 0, "is_disabled": 0, "type": "electric_bike", "bike_id": "2e84e5d8bd855083abeb556f8a54e84c"}, {"lon": -76.947336, "lat": 38.89675833333333, "name": "a4ce57b36734f1192258e40a726c100e", "fusion_lat": 0.0, "fusion_lon": 0.0, "rental_uris": {"android": "https://dc.lft.to/lastmile_qr_scan", "ios": "https://dc.lft.to/lastmile_qr_scan"}, "is_reserved": 0, "is_disabled": 0, "type": "electric_scooter", "bike_id": "a4ce57b36734f1192258e40a726c100e"}, {"lon": -77.03345333333333, "lat": 38.90024733333333, "name": "64ea00ce9b48864f15b3a988d98506ee", "fusion_lat": 0.0, "fusion_lon": 0.0, "rental_uris": {"android": "https://dc.lft.to/lastmile_qr_scan", "ios": "https://dc.lft.to/lastmile_qr_scan"}, "is_reserved": 0, "is_disabled": 0, "type": "electric_scooter", "bike_id": "64ea00ce9b48864f15b3a988d98506ee"}, {"lon": -76.99942733333333, "lat": 38.842944833333334, "name": "78b2c1448d1921e7dd39af7b1432273a", "fusion_lat": 0.0, "fusion_lon": 0.0, "rental_uris": {"android": "https://dc.lft.to/lastmile_qr_scan", "ios": "https://dc.lft.to/lastmile_qr_scan"}, "is_reserved": 0, "is_disabled": 0, "type": "electric_scooter", "bike_id": "78b2c1448d1921e7dd39af7b1432273a"}, {"lon": -77.022935, "lat": 38.9174465, "name": "e627473f930397b911b105bad1196dc4", "fusion_lat": 0.0, "fusion_lon": 0.0, "rental_uris": {"android": "https://dc.lft.to/lastmile_qr_scan", "ios": "https://dc.lft.to/lastmile_qr_scan"}, "is_reserved": 0, "is_disabled": 0, "type": "electric_scooter", "bike_id": "e627473f930397b911b105bad1196dc4"}, {"lon": -77.06274166666667, "lat": 38.90405333333333, "name": "6daf5e6b27748a85b3b229ae799cd4c2", "fusion_lat": 0.0, "fusion_lon": 0.0, "rental_uris": {"android": "https://dc.lft.to/lastmile_qr_scan", "ios": "https://dc.lft.to/lastmile_qr_scan"}, "is_reserved": 0, "is_disabled": 0, "type": "electric_scooter", "bike_id": "6daf5e6b27748a85b3b229ae799cd4c2"}, {"lon": -77.04646066666666, "lat": 38.85212283333333, "name": "4e0f02902a2c9b5ef71b9118cd611f57", "fusion_lat": 0.0, "fusion_lon": 0.0, "rental_uris": {"android": "https://dc.lft.to/lastmile_qr_scan", "ios": "https://dc.lft.to/lastmile_qr_scan"}, "is_reserved": 0, "is_disabled": 0, "type": "electric_bike", "bike_id": "4e0f02902a2c9b5ef71b9118cd611f57"}, {"lon": -77.036953, "lat": 38.91691333333333, "name": "eeca45f22d903d165938750743fd4b8e", "fusion_lat": 0.0, "fusion_lon": 0.0, "rental_uris": {"android": "https://dc.lft.to/lastmile_qr_scan", "ios": "https://dc.lft.to/lastmile_qr_scan"}, "is_reserved": 0, "is_disabled": 0, "type": "electric_scooter", "bike_id": "eeca45f22d903d165938750743fd4b8e"}, {"lon": -77.05068166666666, "lat": 38.900906166666665, "name": "0171d702966f8ac12f60389226cca61e", "fusion_lat": 0.0, "fusion_lon": 0.0, "rental_uris": {"android": "https://dc.lft.to/lastmile_qr_scan", "ios": "https://dc.lft.to/lastmile_qr_scan"}, "is_reserved": 0, "is_disabled": 0, "type": "electric_scooter", "bike_id": "0171d702966f8ac12f60389226cca61e"}, {"lon": -77.00568433333333, "lat": 38.88503633333333, "name": "7d02647d5411b450c6daa52ccb9a09b2", "fusion_lat": 0.0, "fusion_lon": 0.0, "rental_uris": {"android": "https://dc.lft.to/lastmile_qr_scan", "ios": "https://dc.lft.to/lastmile_qr_scan"}, "is_reserved": 0, "is_disabled": 0, "type": "electric_scooter", "bike_id": "7d02647d5411b450c6daa52ccb9a09b2"}, {"lon": -77.01105433333333, "lat": 38.895087833333335, "name": "f42e9a10b87c5f6dcdfecb8b6a27ffb2", "fusion_lat": 0.0, "fusion_lon": 0.0, "rental_uris": {"android": "https://dc.lft.to/lastmile_qr_scan", "ios": "https://dc.lft.to/lastmile_qr_scan"}, "is_reserved": 0, "is_disabled": 0, "type": "electric_scooter", "bike_id": "f42e9a10b87c5f6dcdfecb8b6a27ffb2"}, {"lon": -77.031463, "lat": 38.92791616666667, "name": "65b75dfa600ad7f03832a985cfe27dad", "fusion_lat": 0.0, "fusion_lon": 0.0, "rental_uris": {"android": "https://dc.lft.to/lastmile_qr_scan", "ios": "https://dc.lft.to/lastmile_qr_scan"}, "is_reserved": 0, "is_disabled": 0, "type": "electric_scooter", "bike_id": "65b75dfa600ad7f03832a985cfe27dad"}, {"lon": -77.03878266666666, "lat": 38.93248116666667, "name": "ecb750cf2b1887c7cea6afa4cfc5fcdc", "fusion_lat": 0.0, "fusion_lon": 0.0, "rental_uris": {"android": "https://dc.lft.to/lastmile_qr_scan", "ios": "https://dc.lft.to/lastmile_qr_scan"}, "is_reserved": 0, "is_disabled": 0, "type": "electric_scooter", "bike_id": "ecb750cf2b1887c7cea6afa4cfc5fcdc"}, {"lon": -77.0336495, "lat": 38.9215835, "name": "cbac163e4e05cc060d2cc3d46ba32fa9", "fusion_lat": 0.0, "fusion_lon": 0.0, "rental_uris": {"android": "https://dc.lft.to/lastmile_qr_scan", "ios": "https://dc.lft.to/lastmile_qr_scan"}, "is_reserved": 0, "is_disabled": 0, "type": "electric_scooter", "bike_id": "cbac163e4e05cc060d2cc3d46ba32fa9"}, {"lon": -76.9812265, "lat": 38.891955, "name": "dbf83458b80b1414d7f248a3f2889a64", "fusion_lat": 0.0, "fusion_lon": 0.0, "rental_uris": {"android": "https://dc.lft.to/lastmile_qr_scan", "ios": "https://dc.lft.to/lastmile_qr_scan"}, "is_reserved": 0, "is_disabled": 0, "type": "electric_scooter", "bike_id": "dbf83458b80b1414d7f248a3f2889a64"}, {"lon": -76.95520133333333, "lat": 38.8905335, "name": "3fd624ee0a127f4c1f859f2f6855e874", "fusion_lat": 0.0, "fusion_lon": 0.0, "rental_uris": {"android": "https://dc.lft.to/lastmile_qr_scan", "ios": "https://dc.lft.to/lastmile_qr_scan"}, "is_reserved": 0, "is_disabled": 0, "type": "electric_scooter", "bike_id": "3fd624ee0a127f4c1f859f2f6855e874"}, {"lon": -77.03258433333333, "lat": 38.930699, "name": "33b04f48b6ce7542fd6d73e51f11c1f0", "fusion_lat": 0.0, "fusion_lon": 0.0, "rental_uris": {"android": "https://dc.lft.to/lastmile_qr_scan", "ios": "https://dc.lft.to/lastmile_qr_scan"}, "is_reserved": 0, "is_disabled": 0, "type": "electric_scooter", "bike_id": "33b04f48b6ce7542fd6d73e51f11c1f0"}, {"lon": -77.03281333333334, "lat": 38.93793683333333, "name": "dae627d3ff52ae2f990fdc94c4126670", "fusion_lat": 0.0, "fusion_lon": 0.0, "rental_uris": {"android": "https://dc.lft.to/lastmile_qr_scan", "ios": "https://dc.lft.to/lastmile_qr_scan"}, "is_reserved": 0, "is_disabled": 0, "type": "electric_scooter", "bike_id": "dae627d3ff52ae2f990fdc94c4126670"}, {"lon": -77.00380116666666, "lat": 38.89474216666667, "name": "727bdb25e3fb3f31756e8f027008a109", "fusion_lat": 0.0, "fusion_lon": 0.0, "rental_uris": {"android": "https://dc.lft.to/lastmile_qr_scan", "ios": "https://dc.lft.to/lastmile_qr_scan"}, "is_reserved": 0, "is_disabled": 0, "type": "electric_bike", "bike_id": "727bdb25e3fb3f31756e8f027008a109"}, {"lon": -77.03141166666667, "lat": 38.904464, "name": "7a1dc511b8ae05b2282d9963d9c5a5f3", "fusion_lat": 0.0, "fusion_lon": 0.0, "rental_uris": {"android": "https://dc.lft.to/lastmile_qr_scan", "ios": "https://dc.lft.to/lastmile_qr_scan"}, "is_reserved": 0, "is_disabled": 0, "type": "electric_scooter", "bike_id": "7a1dc511b8ae05b2282d9963d9c5a5f3"}, {"lon": -77.03868183333333, "lat": 38.90970466666667, "name": "e0ccfc911a47ff7e400a491aee21e25c", "fusion_lat": 0.0, "fusion_lon": 0.0, "rental_uris": {"android": "https://dc.lft.to/lastmile_qr_scan", "ios": "https://dc.lft.to/lastmile_qr_scan"}, "is_reserved": 0, "is_disabled": 0, "type": "electric_scooter", "bike_id": "e0ccfc911a47ff7e400a491aee21e25c"}, {"lon": -76.9361035, "lat": 38.97057433333333, "name": "fdb1ead4ab9851e9a35b3f6b6ab9538c", "fusion_lat": 0.0, "fusion_lon": 0.0, "rental_uris": {"android": "https://dc.lft.to/lastmile_qr_scan", "ios": "https://dc.lft.to/lastmile_qr_scan"}, "is_reserved": 0, "is_disabled": 0, "type": "electric_bike", "bike_id": "fdb1ead4ab9851e9a35b3f6b6ab9538c"}, {"lon": -77.0344845, "lat": 38.907402833333336, "name": "f26e01e59d6cfc31e791d90492165041", "fusion_lat": 0.0, "fusion_lon": 0.0, "rental_uris": {"android": "https://dc.lft.to/lastmile_qr_scan", "ios": "https://dc.lft.to/lastmile_qr_scan"}, "is_reserved": 0, "is_disabled": 0, "type": "electric_scooter", "bike_id": "f26e01e59d6cfc31e791d90492165041"}, {"lon": -77.03639833333334, "lat": 38.9127105, "name": "f433d7cd4c331b967b6218e33df387ad", "fusion_lat": 0.0, "fusion_lon": 0.0, "rental_uris": {"android": "https://dc.lft.to/lastmile_qr_scan", "ios": "https://dc.lft.to/lastmile_qr_scan"}, "is_reserved": 0, "is_disabled": 0, "type": "electric_scooter", "bike_id": "f433d7cd4c331b967b6218e33df387ad"}, {"lon": -77.07661666666667, "lat": 38.9062385, "name": "a9dd7c857850702c1637bfe0e7d705b2", "fusion_lat": 0.0, "fusion_lon": 0.0, "rental_uris": {"android": "https://dc.lft.to/lastmile_qr_scan", "ios": "https://dc.lft.to/lastmile_qr_scan"}, "is_reserved": 0, "is_disabled": 0, "type": "electric_scooter", "bike_id": "a9dd7c857850702c1637bfe0e7d705b2"}, {"lon": -76.98553816666667, "lat": 38.868873, "name": "94f0de5dc8d38f6b4df7c93c5b1d6836", "fusion_lat": 0.0, "fusion_lon": 0.0, "rental_uris": {"android": "https://dc.lft.to/lastmile_qr_scan", "ios": "https://dc.lft.to/lastmile_qr_scan"}, "is_reserved": 0, "is_disabled": 0, "type": "electric_bike", "bike_id": "94f0de5dc8d38f6b4df7c93c5b1d6836"}, {"lon": -77.01839, "lat": 38.913459333333336, "name": "110e520de50e5c64a9663b9d4889b7cb", "fusion_lat": 0.0, "fusion_lon": 0.0, "rental_uris": {"android": "https://dc.lft.to/lastmile_qr_scan", "ios": "https://dc.lft.to/lastmile_qr_scan"}, "is_reserved": 0, "is_disabled": 0, "type": "electric_scooter", "bike_id": "110e520de50e5c64a9663b9d4889b7cb"}, {"lon": -77.04226266666667, "lat": 38.911073333333334, "name": "28deacbe71fb53415c5afe6f6fb235e2", "fusion_lat": 0.0, "fusion_lon": 0.0, "rental_uris": {"android": "https://dc.lft.to/lastmile_qr_scan", "ios": "https://dc.lft.to/lastmile_qr_scan"}, "is_reserved": 0, "is_disabled": 0, "type": "electric_scooter", "bike_id": "28deacbe71fb53415c5afe6f6fb235e2"}, {"lon": -77.02191583333334, "lat": 38.91132983333333, "name": "1b2a2d4768300e0b133ab634070d6bd0", "fusion_lat": 0.0, "fusion_lon": 0.0, "rental_uris": {"android": "https://dc.lft.to/lastmile_qr_scan", "ios": "https://dc.lft.to/lastmile_qr_scan"}, "is_reserved": 0, "is_disabled": 0, "type": "electric_scooter", "bike_id": "1b2a2d4768300e0b133ab634070d6bd0"}, {"lon": -77.0318745, "lat": 38.8938515, "name": "d2bbdf978d2f7eb5c7617a4b8596d4e1", "fusion_lat": 0.0, "fusion_lon": 0.0, "rental_uris": {"android": "https://dc.lft.to/lastmile_qr_scan", "ios": "https://dc.lft.to/lastmile_qr_scan"}, "is_reserved": 0, "is_disabled": 0, "type": "electric_scooter", "bike_id": "d2bbdf978d2f7eb5c7617a4b8596d4e1"}, {"lon": -76.99064066666666, "lat": 38.90402533333334, "name": "0384270fed0a9c0450a6a84f6191bbd9", "fusion_lat": 0.0, "fusion_lon": 0.0, "rental_uris": {"android": "https://dc.lft.to/lastmile_qr_scan", "ios": "https://dc.lft.to/lastmile_qr_scan"}, "is_reserved": 0, "is_disabled": 0, "type": "electric_scooter", "bike_id": "0384270fed0a9c0450a6a84f6191bbd9"}, {"lon": -77.02199883333333, "lat": 38.91692716666667, "name": "1db491118d6d7ff0928e5fc0161a6e69", "fusion_lat": 0.0, "fusion_lon": 0.0, "rental_uris": {"android": "https://dc.lft.to/lastmile_qr_scan", "ios": "https://dc.lft.to/lastmile_qr_scan"}, "is_reserved": 0, "is_disabled": 0, "type": "electric_scooter", "bike_id": "1db491118d6d7ff0928e5fc0161a6e69"}, {"lon": -77.0433795, "lat": 38.9249725, "name": "ad10ccbb5f37d70dad86ad827ab62c8a", "fusion_lat": 0.0, "fusion_lon": 0.0, "rental_uris": {"android": "https://dc.lft.to/lastmile_qr_scan", "ios": "https://dc.lft.to/lastmile_qr_scan"}, "is_reserved": 0, "is_disabled": 0, "type": "electric_scooter", "bike_id": "ad10ccbb5f37d70dad86ad827ab62c8a"}, {"lon": -77.0346755, "lat": 38.90279433333333, "name": "6182e26f7bd3d1216f50126601876857", "fusion_lat": 0.0, "fusion_lon": 0.0, "rental_uris": {"android": "https://dc.lft.to/lastmile_qr_scan", "ios": "https://dc.lft.to/lastmile_qr_scan"}, "is_reserved": 0, "is_disabled": 0, "type": "electric_scooter", "bike_id": "6182e26f7bd3d1216f50126601876857"}, {"lon": -76.98820066666667, "lat": 38.88027566666667, "name": "28597d3b38a3a5eb6cb8022c1a74ed10", "fusion_lat": 0.0, "fusion_lon": 0.0, "rental_uris": {"android": "https://dc.lft.to/lastmile_qr_scan", "ios": "https://dc.lft.to/lastmile_qr_scan"}, "is_reserved": 0, "is_disabled": 0, "type": "electric_scooter", "bike_id": "28597d3b38a3a5eb6cb8022c1a74ed10"}, {"lon": -77.0335195, "lat": 38.899635833333335, "name": "16bd179038fdacc83a0a32efd6e93588", "fusion_lat": 0.0, "fusion_lon": 0.0, "rental_uris": {"android": "https://dc.lft.to/lastmile_qr_scan", "ios": "https://dc.lft.to/lastmile_qr_scan"}, "is_reserved": 0, "is_disabled": 0, "type": "electric_scooter", "bike_id": "16bd179038fdacc83a0a32efd6e93588"}, {"lon": -77.02715416666666, "lat": 38.906759666666666, "name": "2a65e97b19fa811674f052d4e47dda59", "fusion_lat": 0.0, "fusion_lon": 0.0, "rental_uris": {"android": "https://dc.lft.to/lastmile_qr_scan", "ios": "https://dc.lft.to/lastmile_qr_scan"}, "is_reserved": 0, "is_disabled": 0, "type": "electric_scooter", "bike_id": "2a65e97b19fa811674f052d4e47dda59"}, {"lon": -76.9745495, "lat": 38.86545866666667, "name": "1dfe4be394cbd2aaab8a26cc6df9a29b", "fusion_lat": 0.0, "fusion_lon": 0.0, "rental_uris": {"android": "https://dc.lft.to/lastmile_qr_scan", "ios": "https://dc.lft.to/lastmile_qr_scan"}, "is_reserved": 0, "is_disabled": 0, "type": "electric_scooter", "bike_id": "1dfe4be394cbd2aaab8a26cc6df9a29b"}, {"lon": -76.98049983333334, "lat": 38.90181483333333, "name": "173645e5316c1aac18aa1b53080718ec", "fusion_lat": 0.0, "fusion_lon": 0.0, "rental_uris": {"android": "https://dc.lft.to/lastmile_qr_scan", "ios": "https://dc.lft.to/lastmile_qr_scan"}, "is_reserved": 0, "is_disabled": 0, "type": "electric_scooter", "bike_id": "173645e5316c1aac18aa1b53080718ec"}, {"lon": -77.04226, "lat": 38.9110725, "name": "a05eabdb194f56957da1d429e5917730", "fusion_lat": 0.0, "fusion_lon": 0.0, "rental_uris": {"android": "https://dc.lft.to/lastmile_qr_scan", "ios": "https://dc.lft.to/lastmile_qr_scan"}, "is_reserved": 0, "is_disabled": 0, "type": "electric_scooter", "bike_id": "a05eabdb194f56957da1d429e5917730"}, {"lon": -77.026331, "lat": 38.8811195, "name": "5c59d5551e3ffe162621a07f45d35b04", "fusion_lat": 0.0, "fusion_lon": 0.0, "rental_uris": {"android": "https://dc.lft.to/lastmile_qr_scan", "ios": "https://dc.lft.to/lastmile_qr_scan"}, "is_reserved": 0, "is_disabled": 0, "type": "electric_scooter", "bike_id": "5c59d5551e3ffe162621a07f45d35b04"}, {"lon": -77.04483683333333, "lat": 38.89959133333333, "name": "a105798abcd6ba00bbee75c82dfa988e", "fusion_lat": 0.0, "fusion_lon": 0.0, "rental_uris": {"android": "https://dc.lft.to/lastmile_qr_scan", "ios": "https://dc.lft.to/lastmile_qr_scan"}, "is_reserved": 0, "is_disabled": 0, "type": "electric_scooter", "bike_id": "a105798abcd6ba00bbee75c82dfa988e"}, {"lon": -77.00572983333333, "lat": 38.90568116666667, "name": "0e424ccc7c2ddbf3f8671e1490fc20e5", "fusion_lat": 0.0, "fusion_lon": 0.0, "rental_uris": {"android": "https://dc.lft.to/lastmile_qr_scan", "ios": "https://dc.lft.to/lastmile_qr_scan"}, "is_reserved": 0, "is_disabled": 0, "type": "electric_scooter", "bike_id": "0e424ccc7c2ddbf3f8671e1490fc20e5"}, {"lon": -77.021928, "lat": 38.9187645, "name": "0cf6f914311ea1cbfd796ae7cc6cf2d6", "fusion_lat": 0.0, "fusion_lon": 0.0, "rental_uris": {"android": "https://dc.lft.to/lastmile_qr_scan", "ios": "https://dc.lft.to/lastmile_qr_scan"}, "is_reserved": 0, "is_disabled": 0, "type": "electric_scooter", "bike_id": "0cf6f914311ea1cbfd796ae7cc6cf2d6"}, {"lon": -77.029226, "lat": 38.9102825, "name": "e53f04e59e23eb1e22198b19856a8e10", "fusion_lat": 0.0, "fusion_lon": 0.0, "rental_uris": {"android": "https://dc.lft.to/lastmile_qr_scan", "ios": "https://dc.lft.to/lastmile_qr_scan"}, "is_reserved": 0, "is_disabled": 0, "type": "electric_scooter", "bike_id": "e53f04e59e23eb1e22198b19856a8e10"}, {"lon": -77.026872, "lat": 38.89221966666667, "name": "fb1831f42138d0d895a7f8ddb5f89db3", "fusion_lat": 0.0, "fusion_lon": 0.0, "rental_uris": {"android": "https://dc.lft.to/lastmile_qr_scan", "ios": "https://dc.lft.to/lastmile_qr_scan"}, "is_reserved": 0, "is_disabled": 0, "type": "electric_scooter", "bike_id": "fb1831f42138d0d895a7f8ddb5f89db3"}, {"lon": -76.93861333333334, "lat": 38.90081883333333, "name": "0d500f6d3bfdabe1363a806d6dfb5af9", "fusion_lat": 0.0, "fusion_lon": 0.0, "rental_uris": {"android": "https://dc.lft.to/lastmile_qr_scan", "ios": "https://dc.lft.to/lastmile_qr_scan"}, "is_reserved": 0, "is_disabled": 0, "type": "electric_scooter", "bike_id": "0d500f6d3bfdabe1363a806d6dfb5af9"}, {"lon": -77.052305, "lat": 38.92512683333333, "name": "086118c55935f042b7e7c7feaea85696", "fusion_lat": 0.0, "fusion_lon": 0.0, "rental_uris": {"android": "https://dc.lft.to/lastmile_qr_scan", "ios": "https://dc.lft.to/lastmile_qr_scan"}, "is_reserved": 0, "is_disabled": 0, "type": "electric_scooter", "bike_id": "086118c55935f042b7e7c7feaea85696"}, {"lon": -76.94904983333333, "lat": 38.89521883333333, "name": "a56e697949c6ecbe82db38113a752af4", "fusion_lat": 0.0, "fusion_lon": 0.0, "rental_uris": {"android": "https://dc.lft.to/lastmile_qr_scan", "ios": "https://dc.lft.to/lastmile_qr_scan"}, "is_reserved": 0, "is_disabled": 0, "type": "electric_scooter", "bike_id": "a56e697949c6ecbe82db38113a752af4"}, {"lon": -77.0396765, "lat": 38.919777833333335, "name": "38aabe6c5f661d7b32be3394ad7a312b", "fusion_lat": 0.0, "fusion_lon": 0.0, "rental_uris": {"android": "https://dc.lft.to/lastmile_qr_scan", "ios": "https://dc.lft.to/lastmile_qr_scan"}, "is_reserved": 0, "is_disabled": 0, "type": "electric_scooter", "bike_id": "38aabe6c5f661d7b32be3394ad7a312b"}, {"lon": -76.94571, "lat": 38.866214666666664, "name": "385c40956e44226583b11dc671d74181", "fusion_lat": 0.0, "fusion_lon": 0.0, "rental_uris": {"android": "https://dc.lft.to/lastmile_qr_scan", "ios": "https://dc.lft.to/lastmile_qr_scan"}, "is_reserved": 0, "is_disabled": 0, "type": "electric_bike", "bike_id": "385c40956e44226583b11dc671d74181"}, {"lon": -76.93344716666667, "lat": 38.899099, "name": "c7dbecf88d35293c5b980a446ddda2ee", "fusion_lat": 0.0, "fusion_lon": 0.0, "rental_uris": {"android": "https://dc.lft.to/lastmile_qr_scan", "ios": "https://dc.lft.to/lastmile_qr_scan"}, "is_reserved": 0, "is_disabled": 0, "type": "electric_scooter", "bike_id": "c7dbecf88d35293c5b980a446ddda2ee"}, {"lon": -77.06186566666666, "lat": 38.941584666666664, "name": "47c9cca15fe0598280b34db7a92eb40d", "fusion_lat": 0.0, "fusion_lon": 0.0, "rental_uris": {"android": "https://dc.lft.to/lastmile_qr_scan", "ios": "https://dc.lft.to/lastmile_qr_scan"}, "is_reserved": 0, "is_disabled": 0, "type": "electric_scooter", "bike_id": "47c9cca15fe0598280b34db7a92eb40d"}, {"lon": -76.97303066666667, "lat": 38.91984816666667, "name": "e64ad58cb042b0f89adaeb2cccea9c52", "fusion_lat": 0.0, "fusion_lon": 0.0, "rental_uris": {"android": "https://dc.lft.to/lastmile_qr_scan", "ios": "https://dc.lft.to/lastmile_qr_scan"}, "is_reserved": 0, "is_disabled": 0, "type": "electric_scooter", "bike_id": "e64ad58cb042b0f89adaeb2cccea9c52"}, {"lon": -77.03504766666667, "lat": 38.935928, "name": "33ee5300c5c5faab6cb14678fadd4f4c", "fusion_lat": 0.0, "fusion_lon": 0.0, "rental_uris": {"android": "https://dc.lft.to/lastmile_qr_scan", "ios": "https://dc.lft.to/lastmile_qr_scan"}, "is_reserved": 0, "is_disabled": 0, "type": "electric_scooter", "bike_id": "33ee5300c5c5faab6cb14678fadd4f4c"}, {"lon": -77.02490566666667, "lat": 38.938640666666664, "name": "d7aa95a2e2fc8164448bd2aa4fe74446", "fusion_lat": 0.0, "fusion_lon": 0.0, "rental_uris": {"android": "https://dc.lft.to/lastmile_qr_scan", "ios": "https://dc.lft.to/lastmile_qr_scan"}, "is_reserved": 0, "is_disabled": 0, "type": "electric_scooter", "bike_id": "d7aa95a2e2fc8164448bd2aa4fe74446"}, {"lon": -77.01549783333333, "lat": 38.89197816666667, "name": "1d7b9f17b118b9d30e30567dfbc583cf", "fusion_lat": 0.0, "fusion_lon": 0.0, "rental_uris": {"android": "https://dc.lft.to/lastmile_qr_scan", "ios": "https://dc.lft.to/lastmile_qr_scan"}, "is_reserved": 0, "is_disabled": 0, "type": "electric_scooter", "bike_id": "1d7b9f17b118b9d30e30567dfbc583cf"}, {"lon": -77.03228183333333, "lat": 38.892221666666664, "name": "ac599768c041707df278948f98616e0e", "fusion_lat": 0.0, "fusion_lon": 0.0, "rental_uris": {"android": "https://dc.lft.to/lastmile_qr_scan", "ios": "https://dc.lft.to/lastmile_qr_scan"}, "is_reserved": 0, "is_disabled": 0, "type": "electric_scooter", "bike_id": "ac599768c041707df278948f98616e0e"}, {"lon": -77.022998, "lat": 38.89695716666667, "name": "bcc11df261810eed787d661aa1c49e1d", "fusion_lat": 0.0, "fusion_lon": 0.0, "rental_uris": {"android": "https://dc.lft.to/lastmile_qr_scan", "ios": "https://dc.lft.to/lastmile_qr_scan"}, "is_reserved": 0, "is_disabled": 0, "type": "electric_scooter", "bike_id": "bcc11df261810eed787d661aa1c49e1d"}, {"lon": -77.03038133333334, "lat": 38.946487, "name": "faad4cb421d3cc6c27ec1141eb44db78", "fusion_lat": 0.0, "fusion_lon": 0.0, "rental_uris": {"android": "https://dc.lft.to/lastmile_qr_scan", "ios": "https://dc.lft.to/lastmile_qr_scan"}, "is_reserved": 0, "is_disabled": 0, "type": "electric_scooter", "bike_id": "faad4cb421d3cc6c27ec1141eb44db78"}, {"lon": -77.03332983333334, "lat": 38.89848966666667, "name": "aa18456f0a9c5094f5b59f3a8debef7a", "fusion_lat": 0.0, "fusion_lon": 0.0, "rental_uris": {"android": "https://dc.lft.to/lastmile_qr_scan", "ios": "https://dc.lft.to/lastmile_qr_scan"}, "is_reserved": 0, "is_disabled": 0, "type": "electric_scooter", "bike_id": "aa18456f0a9c5094f5b59f3a8debef7a"}, {"lon": -77.01246383333333, "lat": 38.87197283333333, "name": "29c39c94230cd38b2e2d49eaff818104", "fusion_lat": 0.0, "fusion_lon": 0.0, "rental_uris": {"android": "https://dc.lft.to/lastmile_qr_scan", "ios": "https://dc.lft.to/lastmile_qr_scan"}, "is_reserved": 0, "is_disabled": 0, "type": "electric_scooter", "bike_id": "29c39c94230cd38b2e2d49eaff818104"}, {"lon": -77.04510666666667, "lat": 38.9078185, "name": "888455546a1344a2003b46625c82424f", "fusion_lat": 0.0, "fusion_lon": 0.0, "rental_uris": {"android": "https://dc.lft.to/lastmile_qr_scan", "ios": "https://dc.lft.to/lastmile_qr_scan"}, "is_reserved": 0, "is_disabled": 0, "type": "electric_scooter", "bike_id": "888455546a1344a2003b46625c82424f"}, {"lon": -77.00549466666666, "lat": 38.91180833333333, "name": "5201e9dc3e7fadf9c2166abed4d07876", "fusion_lat": 0.0, "fusion_lon": 0.0, "rental_uris": {"android": "https://dc.lft.to/lastmile_qr_scan", "ios": "https://dc.lft.to/lastmile_qr_scan"}, "is_reserved": 0, "is_disabled": 0, "type": "electric_scooter", "bike_id": "5201e9dc3e7fadf9c2166abed4d07876"}, {"lon": -77.026961, "lat": 38.90845733333333, "name": "7ab0b5c127637b7a328e8598fd6af788", "fusion_lat": 0.0, "fusion_lon": 0.0, "rental_uris": {"android": "https://dc.lft.to/lastmile_qr_scan", "ios": "https://dc.lft.to/lastmile_qr_scan"}, "is_reserved": 0, "is_disabled": 0, "type": "electric_scooter", "bike_id": "7ab0b5c127637b7a328e8598fd6af788"}, {"lon": -77.01935533333334, "lat": 38.9492455, "name": "16606aa01d4853fb9209fe70c557ae15", "fusion_lat": 0.0, "fusion_lon": 0.0, "rental_uris": {"android": "https://dc.lft.to/lastmile_qr_scan", "ios": "https://dc.lft.to/lastmile_qr_scan"}, "is_reserved": 0, "is_disabled": 0, "type": "electric_scooter", "bike_id": "16606aa01d4853fb9209fe70c557ae15"}, {"lon": -77.04371766666667, "lat": 38.92568283333333, "name": "5dbf20f2768c33ac45e567562f4611a7", "fusion_lat": 0.0, "fusion_lon": 0.0, "rental_uris": {"android": "https://dc.lft.to/lastmile_qr_scan", "ios": "https://dc.lft.to/lastmile_qr_scan"}, "is_reserved": 0, "is_disabled": 0, "type": "electric_scooter", "bike_id": "5dbf20f2768c33ac45e567562f4611a7"}, {"lon": -77.02133216666667, "lat": 38.93563483333333, "name": "b078e978c4da07eb2d83828c5ef8df54", "fusion_lat": 0.0, "fusion_lon": 0.0, "rental_uris": {"android": "https://dc.lft.to/lastmile_qr_scan", "ios": "https://dc.lft.to/lastmile_qr_scan"}, "is_reserved": 0, "is_disabled": 0, "type": "electric_scooter", "bike_id": "b078e978c4da07eb2d83828c5ef8df54"}, {"lon": -77.0328025, "lat": 38.93074633333333, "name": "a347cce2324c2a1b9deb92f307b28822", "fusion_lat": 0.0, "fusion_lon": 0.0, "rental_uris": {"android": "https://dc.lft.to/lastmile_qr_scan", "ios": "https://dc.lft.to/lastmile_qr_scan"}, "is_reserved": 0, "is_disabled": 0, "type": "electric_scooter", "bike_id": "a347cce2324c2a1b9deb92f307b28822"}, {"lon": -77.0485295, "lat": 38.90978066666667, "name": "a9d8f85897352f065c1c6bd63ac37f7a", "fusion_lat": 0.0, "fusion_lon": 0.0, "rental_uris": {"android": "https://dc.lft.to/lastmile_qr_scan", "ios": "https://dc.lft.to/lastmile_qr_scan"}, "is_reserved": 0, "is_disabled": 0, "type": "electric_bike", "bike_id": "a9d8f85897352f065c1c6bd63ac37f7a"}, {"lon": -77.03376766666666, "lat": 38.909800833333335, "name": "f58864974f79918cc14e363412147484", "fusion_lat": 0.0, "fusion_lon": 0.0, "rental_uris": {"android": "https://dc.lft.to/lastmile_qr_scan", "ios": "https://dc.lft.to/lastmile_qr_scan"}, "is_reserved": 0, "is_disabled": 0, "type": "electric_scooter", "bike_id": "f58864974f79918cc14e363412147484"}, {"lon": -76.99947883333333, "lat": 38.84292883333333, "name": "ce1dbbc5aea926e324742e8d68314308", "fusion_lat": 0.0, "fusion_lon": 0.0, "rental_uris": {"android": "https://dc.lft.to/lastmile_qr_scan", "ios": "https://dc.lft.to/lastmile_qr_scan"}, "is_reserved": 0, "is_disabled": 0, "type": "electric_scooter", "bike_id": "ce1dbbc5aea926e324742e8d68314308"}, {"lon": -77.03812866666667, "lat": 38.92064466666667, "name": "df4064e8962c71c9b0e0be738d90f6f0", "fusion_lat": 0.0, "fusion_lon": 0.0, "rental_uris": {"android": "https://dc.lft.to/lastmile_qr_scan", "ios": "https://dc.lft.to/lastmile_qr_scan"}, "is_reserved": 0, "is_disabled": 0, "type": "electric_scooter", "bike_id": "df4064e8962c71c9b0e0be738d90f6f0"}, {"lon": -77.03643616666666, "lat": 38.916230666666664, "name": "1793f4c1bb1ed08422257574e61f7c6d", "fusion_lat": 0.0, "fusion_lon": 0.0, "rental_uris": {"android": "https://dc.lft.to/lastmile_qr_scan", "ios": "https://dc.lft.to/lastmile_qr_scan"}, "is_reserved": 0, "is_disabled": 0, "type": "electric_scooter", "bike_id": "1793f4c1bb1ed08422257574e61f7c6d"}, {"lon": -77.0350295, "lat": 38.921503666666666, "name": "f220bd44e923b133c381a3385982f6d1", "fusion_lat": 0.0, "fusion_lon": 0.0, "rental_uris": {"android": "https://dc.lft.to/lastmile_qr_scan", "ios": "https://dc.lft.to/lastmile_qr_scan"}, "is_reserved": 0, "is_disabled": 0, "type": "electric_scooter", "bike_id": "f220bd44e923b133c381a3385982f6d1"}, {"lon": -77.03834966666666, "lat": 38.91191383333334, "name": "658fb92a50ea38811dbe9e90a058f85d", "fusion_lat": 0.0, "fusion_lon": 0.0, "rental_uris": {"android": "https://dc.lft.to/lastmile_qr_scan", "ios": "https://dc.lft.to/lastmile_qr_scan"}, "is_reserved": 0, "is_disabled": 0, "type": "electric_scooter", "bike_id": "658fb92a50ea38811dbe9e90a058f85d"}, {"lon": -77.01747133333333, "lat": 38.877081, "name": "5ba7ead29eb1c7855bbdeb9914c3d547", "fusion_lat": 0.0, "fusion_lon": 0.0, "rental_uris": {"android": "https://dc.lft.to/lastmile_qr_scan", "ios": "https://dc.lft.to/lastmile_qr_scan"}, "is_reserved": 0, "is_disabled": 0, "type": "electric_bike", "bike_id": "5ba7ead29eb1c7855bbdeb9914c3d547"}, {"lon": -76.9708875, "lat": 38.878802, "name": "e05a4897cf34f4a9085b22b98a985b7b", "fusion_lat": 0.0, "fusion_lon": 0.0, "rental_uris": {"android": "https://dc.lft.to/lastmile_qr_scan", "ios": "https://dc.lft.to/lastmile_qr_scan"}, "is_reserved": 0, "is_disabled": 0, "type": "electric_scooter", "bike_id": "e05a4897cf34f4a9085b22b98a985b7b"}, {"lon": -76.99728266666666, "lat": 38.90792583333333, "name": "d0fddd0fb9098835da2f74c650991115", "fusion_lat": 0.0, "fusion_lon": 0.0, "rental_uris": {"android": "https://dc.lft.to/lastmile_qr_scan", "ios": "https://dc.lft.to/lastmile_qr_scan"}, "is_reserved": 0, "is_disabled": 0, "type": "electric_scooter", "bike_id": "d0fddd0fb9098835da2f74c650991115"}, {"lon": -77.03865766666667, "lat": 38.90975133333333, "name": "697088e696157798610bd6abd8e2d700", "fusion_lat": 0.0, "fusion_lon": 0.0, "rental_uris": {"android": "https://dc.lft.to/lastmile_qr_scan", "ios": "https://dc.lft.to/lastmile_qr_scan"}, "is_reserved": 0, "is_disabled": 0, "type": "electric_scooter", "bike_id": "697088e696157798610bd6abd8e2d700"}, {"lon": -77.02807833333334, "lat": 38.9168335, "name": "2eef944508188986ce12147f16e7e7df", "fusion_lat": 0.0, "fusion_lon": 0.0, "rental_uris": {"android": "https://dc.lft.to/lastmile_qr_scan", "ios": "https://dc.lft.to/lastmile_qr_scan"}, "is_reserved": 0, "is_disabled": 0, "type": "electric_scooter", "bike_id": "2eef944508188986ce12147f16e7e7df"}, {"lon": -76.998725, "lat": 38.90032383333333, "name": "7aadbf2b89c417825eff16052b131f7c", "fusion_lat": 0.0, "fusion_lon": 0.0, "rental_uris": {"android": "https://dc.lft.to/lastmile_qr_scan", "ios": "https://dc.lft.to/lastmile_qr_scan"}, "is_reserved": 0, "is_disabled": 0, "type": "electric_scooter", "bike_id": "7aadbf2b89c417825eff16052b131f7c"}, {"lon": -77.031465, "lat": 38.912636666666664, "name": "c7ad9082a151e802c5e2a6affd3bc366", "fusion_lat": 0.0, "fusion_lon": 0.0, "rental_uris": {"android": "https://dc.lft.to/lastmile_qr_scan", "ios": "https://dc.lft.to/lastmile_qr_scan"}, "is_reserved": 0, "is_disabled": 0, "type": "electric_scooter", "bike_id": "c7ad9082a151e802c5e2a6affd3bc366"}, {"lon": -77.02212066666667, "lat": 38.905747, "name": "a274e6cf26994b295d6726594dd20d87", "fusion_lat": 0.0, "fusion_lon": 0.0, "rental_uris": {"android": "https://dc.lft.to/lastmile_qr_scan", "ios": "https://dc.lft.to/lastmile_qr_scan"}, "is_reserved": 0, "is_disabled": 0, "type": "electric_scooter", "bike_id": "a274e6cf26994b295d6726594dd20d87"}, {"lon": -76.983718, "lat": 38.86487566666667, "name": "56e7c7ade1194c1819200d9c4635bb26", "fusion_lat": 0.0, "fusion_lon": 0.0, "rental_uris": {"android": "https://dc.lft.to/lastmile_qr_scan", "ios": "https://dc.lft.to/lastmile_qr_scan"}, "is_reserved": 0, "is_disabled": 0, "type": "electric_scooter", "bike_id": "56e7c7ade1194c1819200d9c4635bb26"}, {"lon": -77.11428966666666, "lat": 38.852416, "name": "1c0053f88a0bcf95912b182e646d3313", "fusion_lat": 0.0, "fusion_lon": 0.0, "rental_uris": {"android": "https://dc.lft.to/lastmile_qr_scan", "ios": "https://dc.lft.to/lastmile_qr_scan"}, "is_reserved": 0, "is_disabled": 0, "type": "electric_bike", "bike_id": "1c0053f88a0bcf95912b182e646d3313"}, {"lon": -76.99753066666666, "lat": 38.92268416666667, "name": "4cc62eb51ed30225a869f0772e6031ad", "fusion_lat": 0.0, "fusion_lon": 0.0, "rental_uris": {"android": "https://dc.lft.to/lastmile_qr_scan", "ios": "https://dc.lft.to/lastmile_qr_scan"}, "is_reserved": 0, "is_disabled": 0, "type": "electric_scooter", "bike_id": "4cc62eb51ed30225a869f0772e6031ad"}, {"lon": -77.040305, "lat": 38.92376816666667, "name": "8c0290188d3d045de497c923196d65e3", "fusion_lat": 0.0, "fusion_lon": 0.0, "rental_uris": {"android": "https://dc.lft.to/lastmile_qr_scan", "ios": "https://dc.lft.to/lastmile_qr_scan"}, "is_reserved": 0, "is_disabled": 0, "type": "electric_scooter", "bike_id": "8c0290188d3d045de497c923196d65e3"}, {"lon": -77.02711033333334, "lat": 38.91822066666667, "name": "327c53c2303936cd0fc6d2d57555d074", "fusion_lat": 0.0, "fusion_lon": 0.0, "rental_uris": {"android": "https://dc.lft.to/lastmile_qr_scan", "ios": "https://dc.lft.to/lastmile_qr_scan"}, "is_reserved": 0, "is_disabled": 0, "type": "electric_scooter", "bike_id": "327c53c2303936cd0fc6d2d57555d074"},