{"data": {"bikes": [{"lat": 38.9206825, "is_disabled": 0, "lon": -77.02546066666666, "is_reserved": 0, "fusion_lon": 0.0, "fusion_lat": 0.0, "name": "c7595de4e1489a9a7a102ec455266450", "type": "electric_scooter", "rental_uris": {"ios": "https://dc.lft.to/lastmile_qr_scan", "android": "https://dc.lft.to/lastmile_qr_scan"}, "bike_id": "c7595de4e1489a9a7a102ec455266450"}, {"lat": 38.9170745, "is_disabled": 0, "lon": -77.0245995, "is_reserved": 0, "fusion_lon": 0.0, "fusion_lat": 0.0, "name": "1610e74c7b992b99adb4bc38e2a28445", "type": "electric_scooter", "rental_uris": {"ios": "https://dc.lft.to/lastmile_qr_scan", "android": "https://dc.lft.to/lastmile_qr_scan"}, "bike_id": "1610e74c7b992b99adb4bc38e2a28445"}, {"lat": 38.9121195, "is_disabled": 0, "lon": -77.04388033333333, "is_reserved": 0, "fusion_lon": 0.0, "fusion_lat": 0.0, "name": "2717ae64d1b1f3358257ff60f95e54f6", "type": "electric_scooter", "rental_uris": {"ios": "https://dc.lft.to/lastmile_qr_scan", "android": "https://dc.lft.to/lastmile_qr_scan"}, "bike_id": "2717ae64d1b1f3358257ff60f95e54f6"}, {"lat": 38.90562833333333, "is_disabled": 0, "lon": -77.0569995, "is_reserved": 0, "fusion_lon": 0.0, "fusion_lat": 0.0, "name": "170eb46614b9890e5a9a9b12175b19c2", "type": "electric_scooter", "rental_uris": {"ios": "https://dc.lft.to/lastmile_qr_scan", "android": "https://dc.lft.to/lastmile_qr_scan"}, "bike_id": "170eb46614b9890e5a9a9b12175b19c2"}, {"lat": 38.874673666666666, "is_disabled": 0, "lon": -77.0053205, "is_reserved": 0, "fusion_lon": 0.0, "fusion_lat": 0.0, "name": "1519b656b55f609b08fe5d1ad4bbd609", "type": "electric_scooter", "rental_uris": {"ios": "https://dc.lft.to/lastmile_qr_scan", "android": "https://dc.lft.to/lastmile_qr_scan"}, "bike_id": "1519b656b55f609b08fe5d1ad4bbd609"}, {"lat": 38.89221283333333, "is_disabled": 0, "lon": -77.04642283333334, "is_reserved": 0, "fusion_lon": 0.0, "fusion_lat": 0.0, "name": "b4904c234079e6bd84b50e436fcea6ac", "type": "electric_scooter", "rental_uris": {"ios": "https://dc.lft.to/lastmile_qr_scan", "android": "https://dc.lft.to/lastmile_qr_scan"}, "bike_id": "b4904c234079e6bd84b50e436fcea6ac"}, {"lat": 38.901126833333336, "is_disabled": 0, "lon": -77.03877083333333, "is_reserved": 0, "fusion_lon": 0.0, "fusion_lat": 0.0, "name": "cdf2e0c83a82e1f776c7bd6658650ae3", "type": "electric_scooter", "rental_uris": {"ios": "https://dc.lft.to/lastmile_qr_scan", "android": "https://dc.lft.to/lastmile_qr_scan"}, "bike_id": "cdf2e0c83a82e1f776c7bd6658650ae3"}, {"lat": 38.91401, "is_disabled": 0, "lon": -77.03180916666666, "is_reserved": 0, "fusion_lon": 0.0, "fusion_lat": 0.0, "name": "d7bcdf8d5de2109f03b378f2be9b4262", "type": "electric_scooter", "rental_uris": {"ios": "https://dc.lft.to/lastmile_qr_scan", "android": "https://dc.lft.to/lastmile_qr_scan"}, "bike_id": "d7bcdf8d5de2109f03b378f2be9b4262"}, {"lat": 38.9086885, "is_disabled": 0, "lon": -77.00920683333334, "is_reserved": 0, "fusion_lon": 0.0, "fusion_lat": 0.0, "name": "4fedfb280f691955145deb7b76941802", "type": "electric_scooter", "rental_uris": {"ios": "https://dc.lft.to/lastmile_qr_scan", "android": "https://dc.lft.to/lastmile_qr_scan"}, "bike_id": "4fedfb280f691955145deb7b76941802"}, {"lat": 38.896226, "is_disabled": 0, "lon": -76.9075145, "is_reserved": 0, "fusion_lon": 0.0, "fusion_lat": 0.0, "name": "91e0dfff6ba6e0fd61d77dc25897f7c3", "type": "electric_bike", "rental_uris": {"ios": "https://dc.lft.to/lastmile_qr_scan", "android": "https://dc.lft.to/lastmile_qr_scan"}, "bike_id": "91e0dfff6ba6e0fd61d77dc25897f7c3"}, {"lat": 38.87667016666666, "is_disabled": 0, "lon": -77.00308333333334, "is_reserved": 0, "fusion_lon": 0.0, "fusion_lat": 0.0, "name": "fa891830a4b69cda290d487f43201c54", "type": "electric_scooter", "rental_uris": {"ios": "https://dc.lft.to/lastmile_qr_scan", "android": "https://dc.lft.to/lastmile_qr_scan"}, "bike_id": "fa891830a4b69cda290d487f43201c54"}, {"lat": 38.90158516666666, "is_disabled": 0, "lon": -77.05399383333334, "is_reserved": 0, "fusion_lon": 0.0, "fusion_lat": 0.0, "name": "7bc9c7e00a37ecf1d4751dfe8ff4955b", "type": "electric_scooter", "rental_uris": {"ios": "https://dc.lft.to/lastmile_qr_scan", "android": "https://dc.lft.to/lastmile_qr_scan"}, "bike_id": "7bc9c7e00a37ecf1d4751dfe8ff4955b"}, {"lat": 38.916916666666665, "is_disabled": 0, "lon": -77.03623683333333, "is_reserved": 0, "fusion_lon": 0.0, "fusion_lat": 0.0, "name": "3849c7de93b25b9ddbae833dfffbafed", "type": "electric_scooter", "rental_uris": {"ios": "https://dc.lft.to/lastmile_qr_scan", "android": "https://dc.lft.to/lastmile_qr_scan"}, "bike_id": "3849c7de93b25b9ddbae833dfffbafed"}, {"lat": 38.95418733333333, "is_disabled": 0, "lon": -77.02763416666667, "is_reserved": 0, "fusion_lon": 0.0, "fusion_lat": 0.0, "name": "8c0fa4efcf43a6ff2a784dac46769df9", "type": "electric_scooter", "rental_uris": {"ios": "https://dc.lft.to/lastmile_qr_scan", "android": "https://dc.lft.to/lastmile_qr_scan"}, "bike_id": "8c0fa4efcf43a6ff2a784dac46769df9"}, {"lat": 38.919183, "is_disabled": 0, "lon": -77.032036, "is_reserved": 0, "fusion_lon": 0.0, "fusion_lat": 0.0, "name": "5f5e2c1b05e5ea9860251824b03cc91b", "type": "electric_scooter", "rental_uris": {"ios": "https://dc.lft.to/lastmile_qr_scan", "android": "https://dc.lft.to/lastmile_qr_scan"}, "bike_id": "5f5e2c1b05e5ea9860251824b03cc91b"}, {"lat": 38.912833166666665, "is_disabled": 0, "lon": -77.04515383333333, "is_reserved": 0, "fusion_lon": 0.0, "fusion_lat": 0.0, "name": "97c73740f55359d2d8cf48dc1f13d74b", "type": "electric_scooter", "rental_uris": {"ios": "https://dc.lft.to/lastmile_qr_scan", "android": "https://dc.lft.to/lastmile_qr_scan"}, "bike_id": "97c73740f55359d2d8cf48dc1f13d74b"}, {"lat": 38.88731816666667, "is_disabled": 0, "lon": -76.983596, "is_reserved": 0, "fusion_lon": 0.0, "fusion_lat": 0.0, "name": "e8ed54210556eedb7eb1dc4c562a4393", "type": "electric_scooter", "rental_uris": {"ios": "https://dc.lft.to/lastmile_qr_scan", "android": "https://dc.lft.to/lastmile_qr_scan"}, "bike_id": "e8ed54210556eedb7eb1dc4c562a4393"}, {"lat": 38.929301833333334, "is_disabled": 0, "lon": -77.01952433333334, "is_reserved": 0, "fusion_lon": 0.0, "fusion_lat": 0.0, "name": "94d3a3e2932517a6dd57900c4dfb1787", "type": "electric_scooter", "rental_uris": {"ios": "https://dc.lft.to/lastmile_qr_scan", "android": "https://dc.lft.to/lastmile_qr_scan"}, "bike_id": "94d3a3e2932517a6dd57900c4dfb1787"}, {"lat": 38.922295, "is_disabled": 0, "lon": -77.04616816666666, "is_reserved": 0, "fusion_lon": 0.0, "fusion_lat": 0.0, "name": "9922167d7dca5228997a8423f8355ccd", "type": "electric_scooter", "rental_uris": {"ios": "https://dc.lft.to/lastmile_qr_scan", "android": "https://dc.lft.to/lastmile_qr_scan"}, "bike_id": "9922167d7dca5228997a8423f8355ccd"}, {"lat": 38.92376066666667, "is_disabled": 0, "lon": -77.02123633333333, "is_reserved": 0, "fusion_lon": 0.0, "fusion_lat": 0.0, "name": "4c075f8b1118aaa3a0bd1bb6227d484b", "type": "electric_scooter", "rental_uris": {"ios": "https://dc.lft.to/lastmile_qr_scan", "android": "https://dc.lft.to/lastmile_qr_scan"}, "bike_id": "4c075f8b1118aaa3a0bd1bb6227d484b"}, {"lat": 38.888744, "is_disabled": 0, "lon": -76.95702983333334, "is_reserved": 0, "fusion_lon": 0.0, "fusion_lat": 0.0, "name": "3d4ee1abe82c1eec782c1d9764f30b45", "type": "electric_bike", "rental_uris": {"ios": "https://dc.lft.to/lastmile_qr_scan", "android": "https://dc.lft.to/lastmile_qr_scan"}, "bike_id": "3d4ee1abe82c1eec782c1d9764f30b45"}, {"lat": 38.90164866666667, "is_disabled": 0, "lon": -77.0059725, "is_reserved": 0, "fusion_lon": 0.0, "fusion_lat": 0.0, "name": "f8a12a6347db81e165bbb143db0e3831", "type": "electric_scooter", "rental_uris": {"ios": "https://dc.lft.to/lastmile_qr_scan", "android": "https://dc.lft.to/lastmile_qr_scan"}, "bike_id": "f8a12a6347db81e165bbb143db0e3831"}, {"lat": 38.8989755, "is_disabled": 0, "lon": -77.008983, "is_reserved": 0, "fusion_lon": 0.0, "fusion_lat": 0.0, "name": "98f09e8f63bed8be6145f2eadcd924e2", "type": "electric_scooter", "rental_uris": {"ios": "https://dc.lft.to/lastmile_qr_scan", "android": "https://dc.lft.to/lastmile_qr_scan"}, "bike_id": "98f09e8f63bed8be6145f2eadcd924e2"}, {"lat": 38.952719, "is_disabled": 0, "lon": -77.02379816666667, "is_reserved": 0, "fusion_lon": 0.0, "fusion_lat": 0.0, "name": "9460e9f1abfacef9669af7501bad2811", "type": "electric_scooter", "rental_uris": {"ios": "https://dc.lft.to/lastmile_qr_scan", "android": "https://dc.lft.to/lastmile_qr_scan"}, "bike_id": "9460e9f1abfacef9669af7501bad2811"}, {"lat": 38.900552, "is_disabled": 0, "lon": -77.02614833333334, "is_reserved": 0, "fusion_lon": 0.0, "fusion_lat": 0.0, "name": "cb61c24fba789648e748f4df961c0167", "type": "electric_scooter", "rental_uris": {"ios": "https://dc.lft.to/lastmile_qr_scan", "android": "https://dc.lft.to/lastmile_qr_scan"}, "bike_id": "cb61c24fba789648e748f4df961c0167"}, {"lat": 38.90831633333333, "is_disabled": 0, "lon": -77.03330666666666, "is_reserved": 0, "fusion_lon": 0.0, "fusion_lat": 0.0, "name": "81fde82c38b8369a24a1fb1637448625", "type": "electric_scooter", "rental_uris": {"ios": "https://dc.lft.to/lastmile_qr_scan", "android": "https://dc.lft.to/lastmile_qr_scan"}, "bike_id": "81fde82c38b8369a24a1fb1637448625"}, {"lat": 38.9183155, "is_disabled": 0, "lon": -77.0451175, "is_reserved": 0, "fusion_lon": 0.0, "fusion_lat": 0.0, "name": "bf7bed28fcf7e1ff004e20b5088dde05", "type": "electric_scooter", "rental_uris": {"ios": "https://dc.lft.to/lastmile_qr_scan", "android": "https://dc.lft.to/lastmile_qr_scan"}, "bike_id": "bf7bed28fcf7e1ff004e20b5088dde05"}, {"lat": 38.90547683333333, "is_disabled": 0, "lon": -77.06284916666667, "is_reserved": 0, "fusion_lon": 0.0, "fusion_lat": 0.0, "name": "aa2dc0842f83fac66a7b970522b3ac7b", "type": "electric_scooter", "rental_uris": {"ios": "https://dc.lft.to/lastmile_qr_scan", "android": "https://dc.lft.to/lastmile_qr_scan"}, "bike_id": "aa2dc0842f83fac66a7b970522b3ac7b"}, {"lat": 38.89122366666667, "is_disabled": 0, "lon": -76.9408715, "is_reserved": 0, "fusion_lon": 0.0, "fusion_lat": 0.0, "name": "749a51f1c71e586884e3408b78cd2398", "type": "electric_scooter", "rental_uris": {"ios": "https://dc.lft.to/lastmile_qr_scan", "android": "https://dc.lft.to/lastmile_qr_scan"}, "bike_id": "749a51f1c71e586884e3408b78cd2398"}, {"lat": 38.9237215, "is_disabled": 0, "lon": -77.0255495, "is_reserved": 0, "fusion_lon": 0.0, "fusion_lat": 0.0, "name": "676357a65ad68b608ebdb62d30701acc", "type": "electric_scooter", "rental_uris": {"ios": "https://dc.lft.to/lastmile_qr_scan", "android": "https://dc.lft.to/lastmile_qr_scan"}, "bike_id": "676357a65ad68b608ebdb62d30701acc"}, {"lat": 38.90391916666667, "is_disabled": 0, "lon": -77.04063683333334, "is_reserved": 0, "fusion_lon": 0.0, "fusion_lat": 0.0, "name": "a87054469970ea258bdef5b2dec56643", "type": "electric_scooter", "rental_uris": {"ios": "https://dc.lft.to/lastmile_qr_scan", "android": "https://dc.lft.to/lastmile_qr_scan"}, "bike_id": "a87054469970ea258bdef5b2dec56643"}, {"lat": 38.90274633333333, "is_disabled": 0, "lon": -77.04529733333334, "is_reserved": 0, "fusion_lon": 0.0, "fusion_lat": 0.0, "name": "4a16e01e6ed0c041ecca2a892ea6ac90", "type": "electric_scooter", "rental_uris": {"ios": "https://dc.lft.to/lastmile_qr_scan", "android": "https://dc.lft.to/lastmile_qr_scan"}, "bike_id": "4a16e01e6ed0c041ecca2a892ea6ac90"}, {"lat": 38.895626666666665, "is_disabled": 0, "lon": -77.01515066666667, "is_reserved": 0, "fusion_lon": 0.0, "fusion_lat": 0.0, "name": "acbb9d6cd0650af613f9080d4685743e", "type": "electric_scooter", "rental_uris": {"ios": "https://dc.lft.to/lastmile_qr_scan", "android": "https://dc.lft.to/lastmile_qr_scan"}, "bike_id": "acbb9d6cd0650af613f9080d4685743e"}, {"lat": 38.901309166666664, "is_disabled": 0, "lon": -77.0032185, "is_reserved": 0, "fusion_lon": 0.0, "fusion_lat": 0.0, "name": "56621355048acab99e71ff9f6e632800", "type": "electric_scooter", "rental_uris": {"ios": "https://dc.lft.to/lastmile_qr_scan", "android": "https://dc.lft.to/lastmile_qr_scan"}, "bike_id": "56621355048acab99e71ff9f6e632800"}, {"lat": 38.923769, "is_disabled": 0, "lon": -77.05154183333333, "is_reserved": 0, "fusion_lon": 0.0, "fusion_lat": 0.0, "name": "3cf7de7e1b919d2954d5a48a4b9bfbf8", "type": "electric_scooter", "rental_uris": {"ios": "https://dc.lft.to/lastmile_qr_scan", "android": "https://dc.lft.to/lastmile_qr_scan"}, "bike_id": "3cf7de7e1b919d2954d5a48a4b9bfbf8"}, {"lat": 38.923496666666665, "is_disabled": 0, "lon": -77.03292883333333, "is_reserved": 0, "fusion_lon": 0.0, "fusion_lat": 0.0, "name": "5258d55f2618884dc349521441aa1420", "type": "electric_scooter", "rental_uris": {"ios": "https://dc.lft.to/lastmile_qr_scan", "android": "https://dc.lft.to/lastmile_qr_scan"}, "bike_id": "5258d55f2618884dc349521441aa1420"}, {"lat": 38.917201166666665, "is_disabled": 0, "lon": -77.04176366666667, "is_reserved": 0, "fusion_lon": 0.0, "fusion_lat": 0.0, "name": "910f18e9b7ba19fd89cbad73cc1537ba", "type": "electric_scooter", "rental_uris": {"ios": "https://dc.lft.to/lastmile_qr_scan", "android": "https://dc.lft.to/lastmile_qr_scan"}, "bike_id": "910f18e9b7ba19fd89cbad73cc1537ba"}, {"lat": 38.91741566666666, "is_disabled": 0, "lon": -77.0171895, "is_reserved": 0, "fusion_lon": 0.0, "fusion_lat": 0.0, "name": "056a464a0bd2d33bfc6bd6b6ac1b0dce", "type": "electric_scooter", "rental_uris": {"ios": "https://dc.lft.to/lastmile_qr_scan", "android": "https://dc.lft.to/lastmile_qr_scan"}, "bike_id": "056a464a0bd2d33bfc6bd6b6ac1b0dce"}, {"lat": 38.9559705, "is_disabled": 0, "lon": -77.01014983333333, "is_reserved": 0, "fusion_lon": 0.0, "fusion_lat": 0.0, "name": "b5dc171fef8b7a8ded59a0f6cdcf2d87", "type": "electric_bike", "rental_uris": {"ios": "https://dc.lft.to/lastmile_qr_scan", "android": "https://dc.lft.to/lastmile_qr_scan"}, "bike_id": "b5dc171fef8b7a8ded59a0f6cdcf2d87"}, {"lat": 38.900334, "is_disabled": 0, "lon": -77.00220716666666, "is_reserved": 0, "fusion_lon": 0.0, "fusion_lat": 0.0, "name": "438beaef17fa0955214729f021a1d001", "type": "electric_scooter", "rental_uris": {"ios": "https://dc.lft.to/lastmile_qr_scan", "android": "https://dc.lft.to/lastmile_qr_scan"}, "bike_id": "438beaef17fa0955214729f021a1d001"}, {"lat": 38.899544666666664, "is_disabled": 0, "lon": -77.03164, "is_reserved": 0, "fusion_lon": 0.0, "fusion_lat": 0.0, "name": "05a5b3051cf9f5bfe7062e4eb554c761", "type": "electric_scooter", "rental_uris": {"ios": "https://dc.lft.to/lastmile_qr_scan", "android": "https://dc.lft.to/lastmile_qr_scan"}, "bike_id": "05a5b3051cf9f5bfe7062e4eb554c761"}, {"lat": 38.906202, "is_disabled": 0, "lon": -77.008885, "is_reserved": 0, "fusion_lon": 0.0, "fusion_lat": 0.0, "name": "42655a1d4b424f6eccba1508e933198a", "type": "electric_scooter", "rental_uris": {"ios": "https://dc.lft.to/lastmile_qr_scan", "android": "https://dc.lft.to/lastmile_qr_scan"}, "bike_id": "42655a1d4b424f6eccba1508e933198a"}, {"lat": 38.898437333333334, "is_disabled": 0, "lon": -77.01288683333334, "is_reserved": 0, "fusion_lon": 0.0, "fusion_lat": 0.0, "name": "f2e3d233dee3da3279f163797bb24a5a", "type": "electric_scooter", "rental_uris": {"ios": "https://dc.lft.to/lastmile_qr_scan", "android": "https://dc.lft.to/lastmile_qr_scan"}, "bike_id": "f2e3d233dee3da3279f163797bb24a5a"}, {"lat": 39.010900166666666, "is_disabled": 0, "lon": -76.91069016666667, "is_reserved": 0, "fusion_lon": 0.0, "fusion_lat": 0.0, "name": "3ee3fcdd0dc1d2f664b64452669908c2", "type": "electric_bike", "rental_uris": {"ios": "https://dc.lft.to/lastmile_qr_scan", "android": "https://dc.lft.to/lastmile_qr_scan"}, "bike_id": "3ee3fcdd0dc1d2f664b64452669908c2"}, {"lat": 38.892323, "is_disabled": 0, "lon": -77.0296625, "is_reserved": 0, "fusion_lon": 0.0, "fusion_lat": 0.0, "name": "5a8a59f86c981756e5c1309ab68019b6", "type": "electric_scooter", "rental_uris": {"ios": "https://dc.lft.to/lastmile_qr_scan", "android": "https://dc.lft.to/lastmile_qr_scan"}, "bike_id": "5a8a59f86c981756e5c1309ab68019b6"}, {"lat": 38.895204, "is_disabled": 0, "lon": -77.027729, "is_reserved": 0, "fusion_lon": 0.0, "fusion_lat": 0.0, "name": "e8d4230225f51585443421d57aaaeac5", "type": "electric_scooter", "rental_uris": {"ios": "https://dc.lft.to/lastmile_qr_scan", "android": "https://dc.lft.to/lastmile_qr_scan"}, "bike_id": "e8d4230225f51585443421d57aaaeac5"}, {"lat": 38.99468016666667, "is_disabled": 0, "lon": -77.02900316666667, "is_reserved": 0, "fusion_lon": 0.0, "fusion_lat": 0.0, "name": "80c3f1c3bd82a06c58e90e6fc1cd71de", "type": "electric_bike", "rental_uris": {"ios": "https://dc.lft.to/lastmile_qr_scan", "android": "https://dc.lft.to/lastmile_qr_scan"}, "bike_id": "80c3f1c3bd82a06c58e90e6fc1cd71de"}, {"lat": 38.93951033333333, "is_disabled": 0, "lon": -77.07245266666666, "is_reserved": 0, "fusion_lon": 0.0, "fusion_lat": 0.0, "name": "26e0321c8bddf57affe485d324b209e7", "type": "electric_scooter", "rental_uris": {"ios": "https://dc.lft.to/lastmile_qr_scan", "android": "https://dc.lft.to/lastmile_qr_scan"}, "bike_id": "26e0321c8bddf57affe485d324b209e7"}, {"lat": 38.9157505, "is_disabled": 0, "lon": -77.03183416666667, "is_reserved": 0, "fusion_lon": 0.0, "fusion_lat": 0.0, "name": "6527cea55465f0d39ee2dfef56ae1437", "type": "electric_scooter", "rental_uris": {"ios": "https://dc.lft.to/lastmile_qr_scan", "android": "https://dc.lft.to/lastmile_qr_scan"}, "bike_id": "6527cea55465f0d39ee2dfef56ae1437"}, {"lat": 38.919277666666666, "is_disabled": 0, "lon": -77.07996, "is_reserved": 0, "fusion_lon": 0.0, "fusion_lat": 0.0, "name": "48a7654f78d249fae9f903df261f6351", "type": "electric_scooter", "rental_uris": {"ios": "https://dc.lft.to/lastmile_qr_scan", "android": "https://dc.lft.to/lastmile_qr_scan"}, "bike_id": "48a7654f78d249fae9f903df261f6351"}, {"lat": 38.944141333333334, "is_disabled": 0, "lon": -77.05519033333333, "is_reserved": 0, "fusion_lon": 0.0, "fusion_lat": 0.0, "name": "5fc67ec2b548964e2e2c9fcc1178232c", "type": "electric_scooter", "rental_uris": {"ios": "https://dc.lft.to/lastmile_qr_scan", "android": "https://dc.lft.to/lastmile_qr_scan"}, "bike_id": "5fc67ec2b548964e2e2c9fcc1178232c"}, {"lat": 38.871857166666665, "is_disabled": 0, "lon": -77.00604716666666, "is_reserved": 0, "fusion_lon": 0.0, "fusion_lat": 0.0, "name": "0c917971a1143c46046abc116ab5e620", "type": "electric_scooter", "rental_uris": {"ios": "https://dc.lft.to/lastmile_qr_scan", "android": "https://dc.lft.to/lastmile_qr_scan"}, "bike_id": "0c917971a1143c46046abc116ab5e620"}, {"lat": 38.90409916666667, "is_disabled": 0, "lon": -76.97329066666667, "is_reserved": 0, "fusion_lon": 0.0, "fusion_lat": 0.0, "name": "aad179afad32ac2a95a28f9134dde616", "type": "electric_scooter", "rental_uris": {"ios": "https://dc.lft.to/lastmile_qr_scan", "android": "https://dc.lft.to/lastmile_qr_scan"}, "bike_id": "aad179afad32ac2a95a28f9134dde616"}, {"lat": 38.9318565, "is_disabled": 0, "lon": -77.02837766666667, "is_reserved": 0, "fusion_lon": 0.0, "fusion_lat": 0.0, "name": "db50083ee4dae1a02c5e12a5b5d404aa", "type": "electric_bike", "rental_uris": {"ios": "https://dc.lft.to/lastmile_qr_scan", "android": "https://dc.lft.to/lastmile_qr_scan"}, "bike_id": "db50083ee4dae1a02c5e12a5b5d404aa"}, {"lat": 38.9065045, "is_disabled": 0, "lon": -77.005878, "is_reserved": 0, "fusion_lon": 0.0, "fusion_lat": 0.0, "name": "f1cadb7f47d0fdddc8e78a0a9741a459", "type": "electric_scooter", "rental_uris": {"ios": "https://dc.lft.to/lastmile_qr_scan", "android": "https://dc.lft.to/lastmile_qr_scan"}, "bike_id": "f1cadb7f47d0fdddc8e78a0a9741a459"}, {"lat": 38.903996, "is_disabled": 0, "lon": -77.065808, "is_reserved": 0, "fusion_lon": 0.0, "fusion_lat": 0.0, "name": "e6169ee17a4766fbcaf06b64b7ccc7b6", "type": "electric_scooter", "rental_uris": {"ios": "https://dc.lft.to/lastmile_qr_scan", "android": "https://dc.lft.to/lastmile_qr_scan"}, "bike_id": "e6169ee17a4766fbcaf06b64b7ccc7b6"}, {"lat": 38.9061005, "is_disabled": 0, "lon": -77.02413583333333, "is_reserved": 0, "fusion_lon": 0.0, "fusion_lat": 0.0, "name": "6a72fa3f5e39c4889ae8e59278c30c8c", "type": "electric_scooter", "rental_uris": {"ios": "https://dc.lft.to/lastmile_qr_scan", "android": "https://dc.lft.to/lastmile_qr_scan"}, "bike_id": "6a72fa3f5e39c4889ae8e59278c30c8c"}, {"lat": 38.91194266666667, "is_disabled": 0, "lon": -77.0325545, "is_reserved": 0, "fusion_lon": 0.0, "fusion_lat": 0.0, "name": "f946cc8b254a96a8a6b8db899f17387f", "type": "electric_scooter", "rental_uris": {"ios": "https://dc.lft.to/lastmile_qr_scan", "android": "https://dc.lft.to/lastmile_qr_scan"}, "bike_id": "f946cc8b254a96a8a6b8db899f17387f"}, {"lat": 38.920784166666664, "is_disabled": 0, "lon": -77.0233895, "is_reserved": 0, "fusion_lon": 0.0, "fusion_lat": 0.0, "name": "f2bc51ce197955e14b2d3d6062ceac71", "type": "electric_scooter", "rental_uris": {"ios": "https://dc.lft.to/lastmile_qr_scan", "android": "https://dc.lft.to/lastmile_qr_scan"}, "bike_id": "f2bc51ce197955e14b2d3d6062ceac71"}, {"lat": 38.90096833333333, "is_disabled": 0, "lon": -76.98334183333333, "is_reserved": 0, "fusion_lon": 0.0, "fusion_lat": 0.0, "name": "51f56ab2e2454fa31f4578cae671c037", "type": "electric_scooter", "rental_uris": {"ios": "https://dc.lft.to/lastmile_qr_scan", "android": "https://dc.lft.to/lastmile_qr_scan"}, "bike_id": "51f56ab2e2454fa31f4578cae671c037"}, {"lat": 38.91235916666667, "is_disabled": 0, "lon": -77.018889, "is_reserved": 0, "fusion_lon": 0.0, "fusion_lat": 0.0, "name": "cab5f826b90c0fe07d8f5f06fe835e94", "type": "electric_scooter", "rental_uris": {"ios": "https://dc.lft.to/lastmile_qr_scan", "android": "https://dc.lft.to/lastmile_qr_scan"}, "bike_id": "cab5f826b90c0fe07d8f5f06fe835e94"}, {"lat": 38.902844, "is_disabled": 0, "lon": -77.00204733333334, "is_reserved": 0, "fusion_lon": 0.0, "fusion_lat": 0.0, "name": "90fa618f33d1610d270942affb679abc", "type": "electric_scooter", "rental_uris": {"ios": "https://dc.lft.to/lastmile_qr_scan", "android": "https://dc.lft.to/lastmile_qr_scan"}, "bike_id": "90fa618f33d1610d270942affb679abc"}, {"lat": 38.903967333333334, "is_disabled": 0, "lon": -77.0482815, "is_reserved": 0, "fusion_lon": 0.0, "fusion_lat": 0.0, "name": "3433e7b77110487905583afb4afcf155", "type": "electric_scooter", "rental_uris": {"ios": "https://dc.lft.to/lastmile_qr_scan", "android": "https://dc.lft.to/lastmile_qr_scan"}, "bike_id": "3433e7b77110487905583afb4afcf155"}, {"lat": 38.897565166666666, "is_disabled": 0, "lon": -77.05022533333333, "is_reserved": 0, "fusion_lon": 0.0, "fusion_lat": 0.0, "name": "6142464cf2a06585d699f91350dd10c9", "type": "electric_scooter", "rental_uris": {"ios": "https://dc.lft.to/lastmile_qr_scan", "android": "https://dc.lft.to/lastmile_qr_scan"}, "bike_id": "6142464cf2a06585d699f91350dd10c9"}, {"lat": 38.916211833333335, "is_disabled": 0, "lon": -77.04811266666667, "is_reserved": 0, "fusion_lon": 0.0, "fusion_lat": 0.0, "name": "7c1b8f0ffaf95caf3ad044aa904590ba", "type": "electric_scooter", "rental_uris": {"ios": "https://dc.lft.to/lastmile_qr_scan", "android": "https://dc.lft.to/lastmile_qr_scan"}, "bike_id": "7c1b8f0ffaf95caf3ad044aa904590ba"}, {"lat": 38.904396166666665, "is_disabled": 0, "lon": -77.03805383333334, "is_reserved": 0, "fusion_lon": 0.0, "fusion_lat": 0.0, "name": "b34b422ba880a237772182e6dc6fded5", "type": "electric_scooter", "rental_uris": {"ios": "https://dc.lft.to/lastmile_qr_scan", "android": "https://dc.lft.to/lastmile_qr_scan"}, "bike_id": "b34b422ba880a237772182e6dc6fded5"}, {"lat": 38.907012333333334, "is_disabled": 0, "lon": -76.98696383333333, "is_reserved": 0, "fusion_lon": 0.0, "fusion_lat": 0.0, "name": "8978018425e519fda79aefae0aead282", "type": "electric_scooter", "rental_uris": {"ios": "https://dc.lft.to/lastmile_qr_scan", "android": "https://dc.lft.to/lastmile_qr_scan"}, "bike_id": "8978018425e519fda79aefae0aead282"}, {"lat": 38.899684666666666, "is_disabled": 0, "lon": -77.03076583333333, "is_reserved": 0, "fusion_lon": 0.0, "fusion_lat": 0.0, "name": "16643f39587cc343aa193e2c84197a97", "type": "electric_scooter", "rental_uris": {"ios": "https://dc.lft.to/lastmile_qr_scan", "android": "https://dc.lft.to/lastmile_qr_scan"}, "bike_id": "16643f39587cc343aa193e2c84197a97"}, {"lat": 38.91268383333333, "is_disabled": 0, "lon": -77.03147333333334, "is_reserved": 0, "fusion_lon": 0.0, "fusion_lat": 0.0, "name": "eaf6ea37722f6c094e666bdb46dcf7c3", "type": "electric_scooter", "rental_uris": {"ios": "https://dc.lft.to/lastmile_qr_scan", "android": "https://dc.lft.to/lastmile_qr_scan"}, "bike_id": "eaf6ea37722f6c094e666bdb46dcf7c3"}, {"lat": 38.898995666666664, "is_disabled": 0, "lon": -76.98959316666667, "is_reserved": 0, "fusion_lon": 0.0, "fusion_lat": 0.0, "name": "9e16377a97faaa5e96933da2bf33419a", "type": "electric_bike", "rental_uris": {"ios": "https://dc.lft.to/lastmile_qr_scan", "android": "https://dc.lft.to/lastmile_qr_scan"}, "bike_id": "9e16377a97faaa5e96933da2bf33419a"}, {"lat": 38.860343, "is_disabled": 0, "lon": -76.98376516666667, "is_reserved": 0, "fusion_lon": 0.0, "fusion_lat": 0.0, "name": "d8491cf191f7f2e907ee09da438159ec", "type": "electric_scooter", "rental_uris": {"ios": "https://dc.lft.to/lastmile_qr_scan", "android": "https://dc.lft.to/lastmile_qr_scan"}, "bike_id": "d8491cf191f7f2e907ee09da438159ec"}, {"lat": 38.91911916666667, "is_disabled": 0, "lon": -77.02414016666667, "is_reserved": 0, "fusion_lon": 0.0, "fusion_lat": 0.0, "name": "859b6156214b14b187e64fdf875ea6ef", "type": "electric_scooter", "rental_uris": {"ios": "https://dc.lft.to/lastmile_qr_scan", "android": "https://dc.lft.to/lastmile_qr_scan"}, "bike_id": "859b6156214b14b187e64fdf875ea6ef"}, {"lat": 38.90459233333333, "is_disabled": 0, "lon": -77.02829483333333, "is_reserved": 0, "fusion_lon": 0.0, "fusion_lat": 0.0, "name": "8deb47c6ba1adc4c231e0b05362d0695", "type": "electric_scooter", "rental_uris": {"ios": "https://dc.lft.to/lastmile_qr_scan", "android": "https://dc.lft.to/lastmile_qr_scan"}, "bike_id": "8deb47c6ba1adc4c231e0b05362d0695"}, {"lat": 38.892196, "is_disabled": 0, "lon": -77.02373883333334, "is_reserved": 0, "fusion_lon": 0.0, "fusion_lat": 0.0, "name": "b299c66860be076859a7496d36f4e4e5", "type": "electric_scooter", "rental_uris": {"ios": "https://dc.lft.to/lastmile_qr_scan", "android": "https://dc.lft.to/lastmile_qr_scan"}, "bike_id": "b299c66860be076859a7496d36f4e4e5"}, {"lat": 38.89619483333333, "is_disabled": 0, "lon": -77.022561, "is_reserved": 0, "fusion_lon": 0.0, "fusion_lat": 0.0, "name": "3a79a1a7cb0a268612ecfbbde388c2f7", "type": "electric_scooter", "rental_uris": {"ios": "https://dc.lft.to/lastmile_qr_scan", "android": "https://dc.lft.to/lastmile_qr_scan"}, "bike_id": "3a79a1a7cb0a268612ecfbbde388c2f7"}, {"lat": 38.902373833333336, "is_disabled": 0, "lon": -77.02802283333334, "is_reserved": 0, "fusion_lon": 0.0, "fusion_lat": 0.0, "name": "7d8eb5ff83336dfbf98318ab39275aa9", "type": "electric_scooter", "rental_uris": {"ios": "https://dc.lft.to/lastmile_qr_scan", "android": "https://dc.lft.to/lastmile_qr_scan"}, "bike_id": "7d8eb5ff83336dfbf98318ab39275aa9"}, {"lat": 38.932713166666666, "is_disabled": 0, "lon": -77.0209085, "is_reserved": 0, "fusion_lon": 0.0, "fusion_lat": 0.0, "name": "af77adab32709533f130f91f34a8ee0d", "type": "electric_scooter", "rental_uris": {"ios": "https://dc.lft.to/lastmile_qr_scan", "android": "https://dc.lft.to/lastmile_qr_scan"}, "bike_id": "af77adab32709533f130f91f34a8ee0d"}, {"lat": 38.93468283333333, "is_disabled": 0, "lon": -76.988743, "is_reserved": 0, "fusion_lon": 0.0, "fusion_lat": 0.0, "name": "080b0642f97faf622446d93be1237c4b", "type": "electric_scooter", "rental_uris": {"ios": "https://dc.lft.to/lastmile_qr_scan", "android": "https://dc.lft.to/lastmile_qr_scan"}, "bike_id": "080b0642f97faf622446d93be1237c4b"}, {"lat": 38.9211825, "is_disabled": 0, "lon": -77.01211116666667, "is_reserved": 0, "fusion_lon": 0.0, "fusion_lat": 0.0, "name": "328fd5441e6e78ec3551b157b66336f5", "type": "electric_scooter", "rental_uris": {"ios": "https://dc.lft.to/lastmile_qr_scan", "android": "https://dc.lft.to/lastmile_qr_scan"}, "bike_id": "328fd5441e6e78ec3551b157b66336f5"}, {"lat": 38.90593166666667, "is_disabled": 0, "lon": -77.04229016666666, "is_reserved": 0, "fusion_lon": 0.0, "fusion_lat": 0.0, "name": "20a29a43d70a1aea0227235a4ed6e31e", "type": "electric_scooter", "rental_uris": {"ios": "https://dc.lft.to/lastmile_qr_scan", "android": "https://dc.lft.to/lastmile_qr_scan"}, "bike_id": "20a29a43d70a1aea0227235a4ed6e31e"}, {"lat": 38.908524, "is_disabled": 0, "lon": -76.99960466666667, "is_reserved": 0, "fusion_lon": 0.0, "fusion_lat": 0.0, "name": "295781c0b8126ae1f07906224593d750", "type": "electric_scooter", "rental_uris": {"ios": "https://dc.lft.to/lastmile_qr_scan", "android": "https://dc.lft.to/lastmile_qr_scan"}, "bike_id": "295781c0b8126ae1f07906224593d750"}, {"lat": 38.90154, "is_disabled": 0, "lon": -77.03979916666667, "is_reserved": 0, "fusion_lon": 0.0, "fusion_lat": 0.0, "name": "6f0b3e282e836fcd757c9551b8db4e89", "type": "electric_scooter", "rental_uris": {"ios": "https://dc.lft.to/lastmile_qr_scan", "android": "https://dc.lft.to/lastmile_qr_scan"}, "bike_id": "6f0b3e282e836fcd757c9551b8db4e89"}, {"lat": 38.881212166666664, "is_disabled": 0, "lon": -77.02650633333333, "is_reserved": 0, "fusion_lon": 0.0, "fusion_lat": 0.0, "name": "918da738263fc6d4d00d4d2656ca40ab", "type": "electric_scooter", "rental_uris": {"ios": "https://dc.lft.to/lastmile_qr_scan", "android": "https://dc.lft.to/lastmile_qr_scan"}, "bike_id": "918da738263fc6d4d00d4d2656ca40ab"}, {"lat": 38.892192666666666, "is_disabled": 0, "lon": -77.0487, "is_reserved": 0, "fusion_lon": 0.0, "fusion_lat": 0.0, "name": "5f2b3b042eb7d79fc2245f2b96995ab5", "type": "electric_scooter", "rental_uris": {"ios": "https://dc.lft.to/lastmile_qr_scan", "android": "https://dc.lft.to/lastmile_qr_scan"}, "bike_id": "5f2b3b042eb7d79fc2245f2b96995ab5"}, {"lat": 38.92693233333333, "is_disabled": 0, "lon": -77.02575583333333, "is_reserved": 0, "fusion_lon": 0.0, "fusion_lat": 0.0, "name": "47874eede6d17d39282b10e86ab5f29a", "type": "electric_scooter", "rental_uris": {"ios": "https://dc.lft.to/lastmile_qr_scan", "android": "https://dc.lft.to/lastmile_qr_scan"}, "bike_id": "47874eede6d17d39282b10e86ab5f29a"}, {"lat": 38.916070833333336, "is_disabled": 0, "lon": -77.04157816666667, "is_reserved": 0, "fusion_lon": 0.0, "fusion_lat": 0.0, "name": "e7e85ebe5bca751e27449d69a1388bb5", "type": "electric_scooter", "rental_uris": {"ios": "https://dc.lft.to/lastmile_qr_scan", "android": "https://dc.lft.to/lastmile_qr_scan"}, "bike_id": "e7e85ebe5bca751e27449d69a1388bb5"}, {"lat": 38.8955285, "is_disabled": 0, "lon": -76.9305595, "is_reserved": 0, "fusion_lon": 0.0, "fusion_lat": 0.0, "name": "8959909705b58d31b57a7ad4269f00a2", "type": "electric_scooter", "rental_uris": {"ios": "https://dc.lft.to/lastmile_qr_scan", "android": "https://dc.lft.to/lastmile_qr_scan"}, "bike_id": "8959909705b58d31b57a7ad4269f00a2"}, {"lat": 38.918952166666664, "is_disabled": 0, "lon": -77.02369233333333, "is_reserved": 0, "fusion_lon": 0.0, "fusion_lat": 0.0, "name": "d20af52cd1f6df2fa45c5b7395d74465", "type": "electric_scooter", "rental_uris": {"ios": "https://dc.lft.to/lastmile_qr_scan", "android": "https://dc.lft.to/lastmile_qr_scan"}, "bike_id": "d20af52cd1f6df2fa45c5b7395d74465"}, {"lat": 38.907283666666665, "is_disabled": 0, "lon": -77.02729383333333, "is_reserved": 0, "fusion_lon": 0.0, "fusion_lat": 0.0, "name": "1424899c2c6d1a9380271a736ce03f43", "type": "electric_scooter", "rental_uris": {"ios": "https://dc.lft.to/lastmile_qr_scan", "android": "https://dc.lft.to/lastmile_qr_scan"}, "bike_id": "1424899c2c6d1a9380271a736ce03f43"}, {"lat": 38.92167083333333, "is_disabled": 0, "lon": -77.02190866666666, "is_reserved": 0, "fusion_lon": 0.0, "fusion_lat": 0.0, "name": "86c5d9bf62f6af2c1d414da939ddd343", "type": "electric_scooter", "rental_uris": {"ios": "https://dc.lft.to/lastmile_qr_scan", "android": "https://dc.lft.to/lastmile_qr_scan"}, "bike_id": "86c5d9bf62f6af2c1d414da939ddd343"}, {"lat": 38.8788185, "is_disabled": 0, "lon": -77.00060666666667, "is_reserved": 0, "fusion_lon": 0.0, "fusion_lat": 0.0, "name": "21a29ef4c5fc1a46026fdbe56269aaf4", "type": "electric_scooter", "rental_uris": {"ios": "https://dc.lft.to/lastmile_qr_scan", "android": "https://dc.lft.to/lastmile_qr_scan"}, "bike_id": "21a29ef4c5fc1a46026fdbe56269aaf4"}, {"lat": 38.900768166666666, "is_disabled": 0, "lon": -77.05406916666666, "is_reserved": 0, "fusion_lon": 0.0, "fusion_lat": 0.0, "name": "57cae9ca2c08c84daa31b1a1aef31716", "type": "electric_scooter", "rental_uris": {"ios": "https://dc.lft.to/lastmile_qr_scan", "android": "https://dc.lft.to/lastmile_qr_scan"}, "bike_id": "57cae9ca2c08c84daa31b1a1aef31716"}, {"lat": 38.91929183333333, "is_disabled": 0, "lon": -77.03429683333333, "is_reserved": 0, "fusion_lon": 0.0, "fusion_lat": 0.0, "name": "55f079c0c62c16307aa717c1eadd894c", "type": "electric_scooter", "rental_uris": {"ios": "https://dc.lft.to/lastmile_qr_scan", "android": "https://dc.lft.to/lastmile_qr_scan"}, "bike_id": "55f079c0c62c16307aa717c1eadd894c"}, {"lat": 38.9249335, "is_disabled": 0, "lon": -77.039234, "is_reserved": 0, "fusion_lon": 0.0, "fusion_lat": 0.0, "name": "aee90402e4431bf7640f8dfd92230969", "type": "electric_scooter", "rental_uris": {"ios": "https://dc.lft.to/lastmile_qr_scan", "android": "https://dc.lft.to/lastmile_qr_scan"}, "bike_id": "aee90402e4431bf7640f8dfd92230969"}, {"lat": 38.90808716666667, "is_disabled": 0, "lon": -77.03566816666667, "is_reserved": 0, "fusion_lon": 0.0, "fusion_lat": 0.0, "name": "501b93eca2663ee76fdb92e53946c99d", "type": "electric_scooter", "rental_uris": {"ios": "https://dc.lft.to/lastmile_qr_scan", "android": "https://dc.lft.to/lastmile_qr_scan"}, "bike_id": "501b93eca2663ee76fdb92e53946c99d"}, {"lat": 38.8997765, "is_disabled": 0, "lon": -76.99148916666667, "is_reserved": 0, "fusion_lon": 0.0, "fusion_lat": 0.0, "name": "0687e4f60261830d35e3dfd6727eca92", "type": "electric_scooter", "rental_uris": {"ios": "https://dc.lft.to/lastmile_qr_scan", "android": "https://dc.lft.to/lastmile_qr_scan"}, "bike_id": "0687e4f60261830d35e3dfd6727eca92"}, {"lat": 38.9033735, "is_disabled": 0, "lon": -77.03861483333333, "is_reserved": 0, "fusion_lon": 0.0, "fusion_lat": 0.0, "name": "195bde10020496d5de836f0367cd3c95", "type": "electric_scooter", "rental_uris": {"ios": "https://dc.lft.to/lastmile_qr_scan", "android": "https://dc.lft.to/lastmile_qr_scan"}, "bike_id": "195bde10020496d5de836f0367cd3c95"}, {"lat": 38.961300333333334, "is_disabled": 0, "lon": -77.02789683333333, "is_reserved": 0, "fusion_lon": 0.0, "fusion_lat": 0.0, "name": "14ef61d1fa38b732cb093a7489b3836c", "type": "electric_scooter", "rental_uris": {"ios": "https://dc.lft.to/lastmile_qr_scan", "android": "https://dc.lft.to/lastmile_qr_scan"}, "bike_id": "14ef61d1fa38b732cb093a7489b3836c"}, {"lat": 38.92106033333334, "is_disabled": 0, "lon": -77.04366783333333, "is_reserved": 0, "fusion_lon": 0.0, "fusion_lat": 0.0, "name": "7ea14a701d0930affd2a930811763acc", "type": "electric_scooter", "rental_uris": {"ios": "https://dc.lft.to/lastmile_qr_scan", "android": "https://dc.lft.to/lastmile_qr_scan"}, "bike_id": "7ea14a701d0930affd2a930811763acc"}, {"lat": 38.82207733333333, "is_disabled": 0, "lon": -76.97705266666667, "is_reserved": 0, "fusion_lon": 0.0, "fusion_lat": 0.0, "name": "253f70dcfb75fab8eaff42689ae2eab0", "type": "electric_bike", "rental_uris": {"ios": "https://dc.lft.to/lastmile_qr_scan", "android": "https://dc.lft.to/lastmile_qr_scan"}, "bike_id": "253f70dcfb75fab8eaff42689ae2eab0"}, {"lat": 38.915722833333334, "is_disabled": 0, "lon": -77.03183333333334, "is_reserved": 0, "fusion_lon": 0.0, "fusion_lat": 0.0, "name": "dd962d0fd145189ad1a8b5d0e410e79a", "type": "electric_scooter", "rental_uris": {"ios": "https://dc.lft.to/lastmile_qr_scan", "android": "https://dc.lft.to/lastmile_qr_scan"}, "bike_id": "dd962d0fd145189ad1a8b5d0e410e79a"}, {"lat": 38.9236475, "is_disabled": 0, "lon": -77.072299, "is_reserved": 0, "fusion_lon": 0.0, "fusion_lat": 0.0, "name": "ac1b65ef036f40f4c67035180634c147", "type": "electric_scooter", "rental_uris": {"ios": "https://dc.lft.to/lastmile_qr_scan", "android": "https://dc.lft.to/lastmile_qr_scan"}, "bike_id": "ac1b65ef036f40f4c67035180634c147"}, {"lat": 38.89221833333333, "is_disabled": 0, "lon": -77.04506183333334, "is_reserved": 0, "fusion_lon": 0.0, "fusion_lat": 0.0, "name": "f9ed52bf79492195b66df92fa08ba874", "type": "electric_scooter", "rental_uris": {"ios": "https://dc.lft.to/lastmile_qr_scan", "android": "https://dc.lft.to/lastmile_qr_scan"}, "bike_id": "f9ed52bf79492195b66df92fa08ba874"}, {"lat": 38.929146, "is_disabled": 0, "lon": -77.034878, "is_reserved": 0, "fusion_lon": 0.0, "fusion_lat": 0.0, "name": "f78fcc410134e431110962069d9ef109", "type": "electric_scooter", "rental_uris": {"ios": "https://dc.lft.to/lastmile_qr_scan", "android": "https://dc.lft.to/lastmile_qr_scan"}, "bike_id": "f78fcc410134e431110962069d9ef109"}, {"lat": 38.87897383333333, "is_disabled": 0, "lon": -76.93522216666666, "is_reserved": 0, "fusion_lon": 0.0, "fusion_lat": 0.0, "name": "6c9baa5b854481109a4ca904d022e6c0", "type": "electric_scooter", "rental_uris": {"ios": "https://dc.lft.to/lastmile_qr_scan", "android": "https://dc.lft.to/lastmile_qr_scan"}, "bike_id": "6c9baa5b854481109a4ca904d022e6c0"}, {"lat": 38.91716133333333, "is_disabled": 0, "lon": -77.02968666666666, "is_reserved": 0, "fusion_lon": 0.0, "fusion_lat": 0.0, "name": "8f42039f7099f37bc0d15147deff21f8", "type": "electric_scooter", "rental_uris": {"ios": "https://dc.lft.to/lastmile_qr_scan", "android": "https://dc.lft.to/lastmile_qr_scan"}, "bike_id": "8f42039f7099f37bc0d15147deff21f8"}, {"lat": 38.9170855, "is_disabled": 0, "lon": -77.02411933333333, "is_reserved": 0, "fusion_lon": 0.0, "fusion_lat": 0.0, "name": "f580ade6969d87021a0c13d9c8e19c9c", "type": "electric_scooter", "rental_uris": {"ios": "https://dc.lft.to/lastmile_qr_scan", "android": "https://dc.lft.to/lastmile_qr_scan"}, "bike_id": "f580ade6969d87021a0c13d9c8e19c9c"}, {"lat": 38.90592783333334, "is_disabled": 0, "lon": -76.985416, "is_reserved": 0, "fusion_lon": 0.0, "fusion_lat": 0.0, "name": "e3cf0a0de9adfa893c1136e365bc7c75", "type": "electric_scooter", "rental_uris": {"ios": "https://dc.lft.to/lastmile_qr_scan", "android": "https://dc.lft.to/lastmile_qr_scan"}, "bike_id": "e3cf0a0de9adfa893c1136e365bc7c75"}, {"lat": 38.92067183333333, "is_disabled": 0, "lon": -77.02540633333334, "is_reserved": 0, "fusion_lon": 0.0, "fusion_lat": 0.0, "name": "8046f1aa81e58058c9c250e19f235ffe", "type": "electric_scooter", "rental_uris": {"ios": "https://dc.lft.to/lastmile_qr_scan", "android": "https://dc.lft.to/lastmile_qr_scan"}, "bike_id": "8046f1aa81e58058c9c250e19f235ffe"}, {"lat": 38.899108, "is_disabled": 0, "lon": -77.05002633333334, "is_reserved": 0, "fusion_lon": 0.0, "fusion_lat": 0.0, "name": "d4350ecf00782f3f4077ce0d177c6d6f", "type": "electric_scooter", "rental_uris": {"ios": "https://dc.lft.to/lastmile_qr_scan", "android": "https://dc.lft.to/lastmile_qr_scan"}, "bike_id": "d4350ecf00782f3f4077ce0d177c6d6f"}, {"lat": 38.9158435, "is_disabled": 0, "lon": -76.9839395, "is_reserved": 0, "fusion_lon": 0.0, "fusion_lat": 0.0, "name": "010932416a69d43e86b75b104f7547c4", "type": "electric_scooter", "rental_uris": {"ios": "https://dc.lft.to/lastmile_qr_scan", "android": "https://dc.lft.to/lastmile_qr_scan"}, "bike_id": "010932416a69d43e86b75b104f7547c4"}, {"lat": 38.894714666666665, "is_disabled": 0, "lon": -77.00139616666667, "is_reserved": 0, "fusion_lon": 0.0, "fusion_lat": 0.0, "name": "759b281e95d66d84fc06c449e0257981", "type": "electric_scooter", "rental_uris": {"ios": "https://dc.lft.to/lastmile_qr_scan", "android": "https://dc.lft.to/lastmile_qr_scan"}, "bike_id": "759b281e95d66d84fc06c449e0257981"}, {"lat": 38.91832183333333, "is_disabled": 0, "lon": -77.034623, "is_reserved": 0, "fusion_lon": 0.0, "fusion_lat": 0.0, "name": "6130b602591ed423d2810c49cc173a0f", "type": "electric_scooter", "rental_uris": {"ios": "https://dc.lft.to/lastmile_qr_scan", "android": "https://dc.lft.to/lastmile_qr_scan"}, "bike_id": "6130b602591ed423d2810c49cc173a0f"}, {"lat": 38.84190266666667, "is_disabled": 0, "lon": -77.07755616666667, "is_reserved": 0, "fusion_lon": 0.0, "fusion_lat": 0.0, "name": "e84c6651125091f28a1967cd365be22e", "type": "electric_bike", "rental_uris": {"ios": "https://dc.lft.to/lastmile_qr_scan", "android": "https://dc.lft.to/lastmile_qr_scan"}, "bike_id": "e84c6651125091f28a1967cd365be22e"}, {"lat": 38.92668316666666, "is_disabled": 0, "lon": -77.040642, "is_reserved": 0, "fusion_lon": 0.0, "fusion_lat": 0.0, "name": "a1eeea66f01f1c4a210ae95803dec72e", "type": "electric_scooter", "rental_uris": {"ios": "https://dc.lft.to/lastmile_qr_scan", "android": "https://dc.lft.to/lastmile_qr_scan"}, "bike_id": "a1eeea66f01f1c4a210ae95803dec72e"}, {"lat": 38.897357, "is_disabled": 0, "lon": -77.02171416666667, "is_reserved": 0, "fusion_lon": 0.0, "fusion_lat": 0.0, "name": "c22e4472d10303a8925a17c9a5cca766", "type": "electric_scooter", "rental_uris": {"ios": "https://dc.lft.to/lastmile_qr_scan", "android": "https://dc.lft.to/lastmile_qr_scan"}, "bike_id": "c22e4472d10303a8925a17c9a5cca766"}, {"lat": 38.9305995, "is_disabled": 0, "lon": -77.039426, "is_reserved": 0, "fusion_lon": 0.0, "fusion_lat": 0.0, "name": "0a280a99099f4e595272c88cca34ee61", "type": "electric_scooter", "rental_uris": {"ios": "https://dc.lft.to/lastmile_qr_scan", "android": "https://dc.lft.to/lastmile_qr_scan"}, "bike_id": "0a280a99099f4e595272c88cca34ee61"}, {"lat": 38.892633333333336, "is_disabled": 0, "lon": -76.98373, "is_reserved": 0, "fusion_lon": 0.0, "fusion_lat": 0.0, "name": "d789d2c334e4d51f142c7372a5756660", "type": "electric_scooter", "rental_uris": {"ios": "https://dc.lft.to/lastmile_qr_scan", "android": "https://dc.lft.to/lastmile_qr_scan"}, "bike_id": "d789d2c334e4d51f142c7372a5756660"}, {"lat": 38.88389433333333, "is_disabled": 0, "lon": -76.95739116666667, "is_reserved": 0, "fusion_lon": 0.0, "fusion_lat": 0.0, "name": "e082bc6a79b1875e4566273435afbf09", "type": "electric_scooter", "rental_uris": {"ios": "https://dc.lft.to/lastmile_qr_scan", "android": "https://dc.lft.to/lastmile_qr_scan"}, "bike_id": "e082bc6a79b1875e4566273435afbf09"}, {"lat": 38.916294666666666, "is_disabled": 0, "lon": -77.03505333333334, "is_reserved": 0, "fusion_lon": 0.0, "fusion_lat": 0.0, "name": "967fab11d7a3289745b21f9335793578", "type": "electric_scooter", "rental_uris": {"ios": "https://dc.lft.to/lastmile_qr_scan", "android": "https://dc.lft.to/lastmile_qr_scan"}, "bike_id": "967fab11d7a3289745b21f9335793578"}, {"lat": 38.908627333333335, "is_disabled": 0, "lon": -77.02432816666666, "is_reserved": 0, "fusion_lon": 0.0, "fusion_lat": 0.0, "name": "345d5727fa81f71100e807db5f9c4470", "type": "electric_scooter", "rental_uris": {"ios": "https://dc.lft.to/lastmile_qr_scan", "android": "https://dc.lft.to/lastmile_qr_scan"}, "bike_id": "345d5727fa81f71100e807db5f9c4470"}, {"lat": 38.92472333333333, "is_disabled": 0, "lon": -77.03377316666666, "is_reserved": 0, "fusion_lon": 0.0, "fusion_lat": 0.0, "name": "5d86b6302720107625e0c5bc98130e98", "type": "electric_scooter", "rental_uris": {"ios": "https://dc.lft.to/lastmile_qr_scan", "android": "https://dc.lft.to/lastmile_qr_scan"}, "bike_id": "5d86b6302720107625e0c5bc98130e98"}, {"lat": 38.89414083333333, "is_disabled": 0, "lon": -77.02210966666667, "is_reserved": 0, "fusion_lon": 0.0, "fusion_lat": 0.0, "name": "7a01c32a7a79829461c67aca868619ad", "type": "electric_scooter", "rental_uris": {"ios": "https://dc.lft.to/lastmile_qr_scan", "android": "https://dc.lft.to/lastmile_qr_scan"}, "bike_id": "7a01c32a7a79829461c67aca868619ad"}, {"lat": 38.91749766666667, "is_disabled": 0, "lon": -77.02489833333334, "is_reserved": 0, "fusion_lon": 0.0, "fusion_lat": 0.0, "name": "38a5f91d70f251c06d58a199a1c3b874", "type": "electric_scooter", "rental_uris": {"ios": "https://dc.lft.to/lastmile_qr_scan", "android": "https://dc.lft.to/lastmile_qr_scan"}, "bike_id": "38a5f91d70f251c06d58a199a1c3b874"}, {"lat": 38.91132966666667, "is_disabled": 0, "lon": -77.032032, "is_reserved": 0, "fusion_lon": 0.0, "fusion_lat": 0.0, "name": "80a147a5f17238aee8536ec5368e973b", "type": "electric_scooter", "rental_uris": {"ios": "https://dc.lft.to/lastmile_qr_scan", "android": "https://dc.lft.to/lastmile_qr_scan"}, "bike_id": "80a147a5f17238aee8536ec5368e973b"}, {"lat": 38.92372683333333, "is_disabled": 0, "lon": -77.02127916666667, "is_reserved": 0, "fusion_lon": 0.0, "fusion_lat": 0.0, "name": "18f6356a8541abf31d2ea86ae9328bed", "type": "electric_scooter", "rental_uris": {"ios": "https://dc.lft.to/lastmile_qr_scan", "android": "https://dc.lft.to/lastmile_qr_scan"}, "bike_id": "18f6356a8541abf31d2ea86ae9328bed"}, {"lat": 38.928494666666666, "is_disabled": 0, "lon": -77.05429766666667, "is_reserved": 0, "fusion_lon": 0.0, "fusion_lat": 0.0, "name": "cec80b08645a75095b22beffc7d278bd", "type": "electric_scooter", "rental_uris": {"ios": "https://dc.lft.to/lastmile_qr_scan", "android": "https://dc.lft.to/lastmile_qr_scan"}, "bike_id": "cec80b08645a75095b22beffc7d278bd"}, {"lat": 38.919905, "is_disabled": 0, "lon": -77.03210966666667, "is_reserved": 0, "fusion_lon": 0.0, "fusion_lat": 0.0, "name": "58159d1ba7881dca938841906c14be91", "type": "electric_scooter", "rental_uris": {"ios": "https://dc.lft.to/lastmile_qr_scan", "android": "https://dc.lft.to/lastmile_qr_scan"}, "bike_id": "58159d1ba7881dca938841906c14be91"}, {"lat": 38.940934, "is_disabled": 0, "lon": -77.0326715, "is_reserved": 0, "fusion_lon": 0.0, "fusion_lat": 0.0, "name": "dca9e6d5360b3d706b96466c91560b93", "type": "electric_bike", "rental_uris": {"ios": "https://dc.lft.to/lastmile_qr_scan", "android": "https://dc.lft.to/lastmile_qr_scan"}, "bike_id": "dca9e6d5360b3d706b96466c91560b93"}, {"lat": 38.906761, "is_disabled": 0, "lon": -76.98639683333333, "is_reserved": 0, "fusion_lon": 0.0, "fusion_lat": 0.0, "name": "bcc1ec388507d128646dc38d3208b6fa", "type": "electric_scooter", "rental_uris": {"ios": "https://dc.lft.to/lastmile_qr_scan", "android": "https://dc.lft.to/lastmile_qr_scan"}, "bike_id": "bcc1ec388507d128646dc38d3208b6fa"}, {"lat": 38.923700833333335, "is_disabled": 0, "lon": -77.02137483333334, "is_reserved": 0, "fusion_lon": 0.0, "fusion_lat": 0.0, "name": "84d57a7d314c4410786bf59de9e49981", "type": "electric_scooter", "rental_uris": {"ios": "https://dc.lft.to/lastmile_qr_scan", "android": "https://dc.lft.to/lastmile_qr_scan"}, "bike_id": "84d57a7d314c4410786bf59de9e49981"}, {"lat": 38.914061333333336, "is_disabled": 0, "lon": -77.02896783333334, "is_reserved": 0, "fusion_lon": 0.0, "fusion_lat": 0.0, "name": "8f6ed3938a7c5a0571965f71156819e8", "type": "electric_scooter", "rental_uris": {"ios": "https://dc.lft.to/lastmile_qr_scan", "android": "https://dc.lft.to/lastmile_qr_scan"}, "bike_id": "8f6ed3938a7c5a0571965f71156819e8"}, {"lat": 38.902565833333334, "is_disabled": 0, "lon": -77.01864133333333, "is_reserved": 0, "fusion_lon": 0.0, "fusion_lat": 0.0, "name": "76945a1279841d3792782d3e8f731fd1", "type": "electric_scooter", "rental_uris": {"ios": "https://dc.lft.to/lastmile_qr_scan", "android": "https://dc.lft.to/lastmile_qr_scan"}, "bike_id": "76945a1279841d3792782d3e8f731fd1"}, {"lat": 38.9213105, "is_disabled": 0, "lon": -77.028706, "is_reserved": 0, "fusion_lon": 0.0, "fusion_lat": 0.0, "name": "a214941a29b87b783b46ad01d1a8b45c", "type": "electric_bike", "rental_uris": {"ios": "https://dc.lft.to/lastmile_qr_scan", "android": "https://dc.lft.to/lastmile_qr_scan"}, "bike_id": "a214941a29b87b783b46ad01d1a8b45c"}, {"lat": 38.99781083333333, "is_disabled": 0, "lon": -77.00762416666667, "is_reserved": 0, "fusion_lon": 0.0, "fusion_lat": 0.0, "name": "369134a9cfeae0e621ac1dbac6e9fa85", "type": "electric_bike", "rental_uris": {"ios": "https://dc.lft.to/lastmile_qr_scan", "android": "https://dc.lft.to/lastmile_qr_scan"}, "bike_id": "369134a9cfeae0e621ac1dbac6e9fa85"}, {"lat": 38.89636983333333, "is_disabled": 0, "lon": -77.02655033333333, "is_reserved": 0, "fusion_lon": 0.0, "fusion_lat": 0.0, "name": "d78f845be3947545a0c7a083a5512ce9", "type": "electric_scooter", "rental_uris": {"ios": "https://dc.lft.to/lastmile_qr_scan", "android": "https://dc.lft.to/lastmile_qr_scan"}, "bike_id": "d78f845be3947545a0c7a083a5512ce9"}, {"lat": 38.8770115, "is_disabled": 0, "lon": -77.01673033333333, "is_reserved": 0, "fusion_lon": 0.0, "fusion_lat": 0.0, "name": "f60ab192a964fb66e1b3337fde308764", "type": "electric_scooter", "rental_uris": {"ios": "https://dc.lft.to/lastmile_qr_scan", "android": "https://dc.lft.to/lastmile_qr_scan"}, "bike_id": "f60ab192a964fb66e1b3337fde308764"}, {"lat": 38.88466916666667, "is_disabled": 0, "lon": -76.952497, "is_reserved": 0, "fusion_lon": 0.0, "fusion_lat": 0.0, "name": "3389daa1b89c43f76ee2fd5c2c1a5175", "type": "electric_bike", "rental_uris": {"ios": "https://dc.lft.to/lastmile_qr_scan", "android": "https://dc.lft.to/lastmile_qr_scan"}, "bike_id": "3389daa1b89c43f76ee2fd5c2c1a5175"}, {"lat": 38.8984255, "is_disabled": 0, "lon": -77.04039966666667, "is_reserved": 0, "fusion_lon": 0.0, "fusion_lat": 0.0, "name": "4f50ca122c01be6ac83c8301db0c8077", "type": "electric_scooter", "rental_uris": {"ios": "https://dc.lft.to/lastmile_qr_scan", "android": "https://dc.lft.to/lastmile_qr_scan"}, "bike_id": "4f50ca122c01be6ac83c8301db0c8077"}, {"lat": 38.961275, "is_disabled": 0, "lon": -77.03279966666666, "is_reserved": 0, "fusion_lon": 0.0, "fusion_lat": 0.0, "name": "2f071ce65269b92c66f3b0fd02448784", "type": "electric_bike", "rental_uris": {"ios": "https://dc.lft.to/lastmile_qr_scan", "android": "https://dc.lft.to/lastmile_qr_scan"}, "bike_id": "2f071ce65269b92c66f3b0fd02448784"}, {"lat": 38.892043, "is_disabled": 0, "lon": -76.99017416666666, "is_reserved": 0, "fusion_lon": 0.0, "fusion_lat": 0.0, "name": "0a304c20779c7307d6373e6086b65954", "type": "electric_scooter", "rental_uris": {"ios": "https://dc.lft.to/lastmile_qr_scan", "android": "https://dc.lft.to/lastmile_qr_scan"}, "bike_id": "0a304c20779c7307d6373e6086b65954"}, {"lat": 38.93575466666667, "is_disabled": 0, "lon": -77.03653416666667, "is_reserved": 0, "fusion_lon": 0.0, "fusion_lat": 0.0, "name": "e51b056deb7cf2d15ad6e774cc722cb1", "type": "electric_bike", "rental_uris": {"ios": "https://dc.lft.to/lastmile_qr_scan", "android": "https://dc.lft.to/lastmile_qr_scan"}, "bike_id": "e51b056deb7cf2d15ad6e774cc722cb1"}, {"lat": 38.922451, "is_disabled": 0, "lon": -77.03028166666667, "is_reserved": 0, "fusion_lon": 0.0, "fusion_lat": 0.0, "name": "51e8afc05e7ee61918542a3ab7b5f2e0", "type": "electric_scooter", "rental_uris": {"ios": "https://dc.lft.to/lastmile_qr_scan", "android": "https://dc.lft.to/lastmile_qr_scan"}, "bike_id": "51e8afc05e7ee61918542a3ab7b5f2e0"}, {"lat": 38.88051466666667, "is_disabled": 0, "lon": -76.93219033333334, "is_reserved": 0, "fusion_lon": 0.0, "fusion_lat": 0.0, "name": "9a3d5f4a32179c8ab095201abde07c0a", "type": "electric_scooter", "rental_uris": {"ios": "https://dc.lft.to/lastmile_qr_scan", "android": "https://dc.lft.to/lastmile_qr_scan"}, "bike_id": "9a3d5f4a32179c8ab095201abde07c0a"}, {"lat": 38.9096755, "is_disabled": 0, "lon": -77.04027283333333, "is_reserved": 0, "fusion_lon": 0.0, "fusion_lat": 0.0, "name": "78b84687dc55826ee80685bf91db68ac", "type": "electric_scooter", "rental_uris": {"ios": "https://dc.lft.to/lastmile_qr_scan", "android": "https://dc.lft.to/lastmile_qr_scan"}, "bike_id": "78b84687dc55826ee80685bf91db68ac"}, {"lat": 38.9142275, "is_disabled": 0, "lon": -77.045096, "is_reserved": 0, "fusion_lon": 0.0, "fusion_lat": 0.0, "name": "d193b04c84a92ca0f607d011a3f6bc40", "type": "electric_scooter", "rental_uris": {"ios": "https://dc.lft.to/lastmile_qr_scan", "android": "https://dc.lft.to/lastmile_qr_scan"}, "bike_id": "d193b04c84a92ca0f607d011a3f6bc40"}, {"lat": 38.917398166666665, "is_disabled": 0, "lon": -77.02107883333333, "is_reserved": 0, "fusion_lon": 0.0, "fusion_lat": 0.0, "name": "25f4dff68cedb5ecd41f3f384bc14867", "type": "electric_scooter", "rental_uris": {"ios": "https://dc.lft.to/lastmile_qr_scan", "android": "https://dc.lft.to/lastmile_qr_scan"}, "bike_id": "25f4dff68cedb5ecd41f3f384bc14867"}, {"lat": 38.902377, "is_disabled": 0, "lon": -77.002032, "is_reserved": 0, "fusion_lon": 0.0, "fusion_lat": 0.0, "name": "3dfd446ffc87cfc180029fbbb9dfd325", "type": "electric_scooter", "rental_uris": {"ios": "https://dc.lft.to/lastmile_qr_scan", "android": "https://dc.lft.to/lastmile_qr_scan"}, "bike_id": "3dfd446ffc87cfc180029fbbb9dfd325"}, {"lat": 38.91797783333333, "is_disabled": 0, "lon": -77.0401375, "is_reserved": 0, "fusion_lon": 0.0, "fusion_lat": 0.0, "name": "12ca27064b0c38dae20808d6bfef5165", "type": "electric_scooter", "rental_uris": {"ios": "https://dc.lft.to/lastmile_qr_scan", "android": "https://dc.lft.to/lastmile_qr_scan"}, "bike_id": "12ca27064b0c38dae20808d6bfef5165"}, {"lat": 38.908892, "is_disabled": 0, "lon": -76.98237966666667, "is_reserved": 0, "fusion_lon": 0.0, "fusion_lat": 0.0, "name": "7a139a4ca164266a5dd56aefa47bde67", "type": "electric_scooter", "rental_uris": {"ios": "https://dc.lft.to/lastmile_qr_scan", "android": "https://dc.lft.to/lastmile_qr_scan"}, "bike_id": "7a139a4ca164266a5dd56aefa47bde67"}, {"lat": 38.91774866666667, "is_disabled": 0, "lon": -77.0343325, "is_reserved": 0, "fusion_lon": 0.0, "fusion_lat": 0.0, "name": "7f76c6183d06ea99c4d247e368e681b9", "type": "electric_scooter", "rental_uris": {"ios": "https://dc.lft.to/lastmile_qr_scan", "android": "https://dc.lft.to/lastmile_qr_scan"}, "bike_id": "7f76c6183d06ea99c4d247e368e681b9"}, {"lat": 38.8985545, "is_disabled": 0, "lon": -76.93194083333333, "is_reserved": 0, "fusion_lon": 0.0, "fusion_lat": 0.0, "name": "17f88226115110805a25b6eb43217f1d", "type": "electric_scooter", "rental_uris": {"ios": "https://dc.lft.to/lastmile_qr_scan", "android": "https://dc.lft.to/lastmile_qr_scan"}, "bike_id": "17f88226115110805a25b6eb43217f1d"}, {"lat": 38.900300666666666, "is_disabled": 0, "lon": -77.04386583333333, "is_reserved": 0, "fusion_lon": 0.0, "fusion_lat": 0.0, "name": "8b0a4a5531c145601cd8136712b7ece7", "type": "electric_scooter", "rental_uris": {"ios": "https://dc.lft.to/lastmile_qr_scan", "android": "https://dc.lft.to/lastmile_qr_scan"}, "bike_id": "8b0a4a5531c145601cd8136712b7ece7"}, {"lat": 38.92315, "is_disabled": 0, "lon": -77.04206516666666, "is_reserved": 0, "fusion_lon": 0.0, "fusion_lat": 0.0, "name": "acad917450714ea917c5ae8b1a9eb755", "type": "electric_scooter", "rental_uris": {"ios": "https://dc.lft.to/lastmile_qr_scan", "android": "https://dc.lft.to/lastmile_qr_scan"}, "bike_id": "acad917450714ea917c5ae8b1a9eb755"}, {"lat": 38.903599666666665, "is_disabled": 0, "lon": -77.0221065, "is_reserved": 0, "fusion_lon": 0.0, "fusion_lat": 0.0, "name": "4cde3901e57c8348c6132868836db0fa", "type": "electric_scooter", "rental_uris": {"ios": "https://dc.lft.to/lastmile_qr_scan", "android": "https://dc.lft.to/lastmile_qr_scan"}, "bike_id": "4cde3901e57c8348c6132868836db0fa"}, {"lat": 38.90535, "is_disabled": 0, "lon": -76.99634933333333, "is_reserved": 0, "fusion_lon": 0.0, "fusion_lat": 0.0, "name": "ff62012757129faa549275ff7fec8694", "type": "electric_scooter", "rental_uris": {"ios": "https://dc.lft.to/lastmile_qr_scan", "android": "https://dc.lft.to/lastmile_qr_scan"}, "bike_id": "ff62012757129faa549275ff7fec8694"}, {"lat": 38.942977166666665, "is_disabled": 0, "lon": -77.0593795, "is_reserved": 0, "fusion_lon": 0.0, "fusion_lat": 0.0, "name": "4d86f1608d7b6970fdcf5aa6550b9b51", "type": "electric_scooter", "rental_uris": {"ios": "https://dc.lft.to/lastmile_qr_scan", "android": "https://dc.lft.to/lastmile_qr_scan"}, "bike_id": "4d86f1608d7b6970fdcf5aa6550b9b51"}, {"lat": 38.96498966666667, "is_disabled": 0, "lon": -77.0628385, "is_reserved": 0, "fusion_lon": 0.0, "fusion_lat": 0.0, "name": "83bd45edc1f2d6d20f6b9e072ff32975", "type": "electric_scooter", "rental_uris": {"ios": "https://dc.lft.to/lastmile_qr_scan", "android": "https://dc.lft.to/lastmile_qr_scan"}, "bike_id": "83bd45edc1f2d6d20f6b9e072ff32975"}, {"lat": 38.91971566666667, "is_disabled": 0, "lon": -77.071209, "is_reserved": 0, "fusion_lon": 0.0, "fusion_lat": 0.0, "name": "5babffdc3938ddc3f01fe5866f119622", "type": "electric_scooter", "rental_uris": {"ios": "https://dc.lft.to/lastmile_qr_scan", "android": "https://dc.lft.to/lastmile_qr_scan"}, "bike_id": "5babffdc3938ddc3f01fe5866f119622"}, {"lat": 38.91805, "is_disabled": 0, "lon": -77.06826416666667, "is_reserved": 0, "fusion_lon": 0.0, "fusion_lat": 0.0, "name": "d8a11d502126e062f5dd72f24e6efaab", "type": "electric_scooter", "rental_uris": {"ios": "https://dc.lft.to/lastmile_qr_scan", "android": "https://dc.lft.to/lastmile_qr_scan"}, "bike_id": "d8a11d502126e062f5dd72f24e6efaab"}, {"lat": 38.90593166666667, "is_disabled": 0, "lon": -76.98624033333333, "is_reserved": 0, "fusion_lon": 0.0, "fusion_lat": 0.0, "name": "55b7b6330874c8532e5c5d8140ba1a69", "type": "electric_scooter", "rental_uris": {"ios": "https://dc.lft.to/lastmile_qr_scan", "android": "https://dc.lft.to/lastmile_qr_scan"}, "bike_id": "55b7b6330874c8532e5c5d8140ba1a69"}, {"lat": 38.871843, "is_disabled": 0, "lon": -77.00602583333334, "is_reserved": 0, "fusion_lon": 0.0, "fusion_lat": 0.0, "name": "9ab46254063015d42b2e51a23c3ba5f5", "type": "electric_scooter", "rental_uris": {"ios": "https://dc.lft.to/lastmile_qr_scan", "android": "https://dc.lft.to/lastmile_qr_scan"}, "bike_id": "9ab46254063015d42b2e51a23c3ba5f5"}, {"lat": 38.90577616666667, "is_disabled": 0, "lon": -77.00617016666666, "is_reserved": 0, "fusion_lon": 0.0, "fusion_lat": 0.0, "name": "435800afe7ddeefc07d27629025f9929", "type": "electric_scooter", "rental_uris": {"ios": "https://dc.lft.to/lastmile_qr_scan", "android": "https://dc.lft.to/lastmile_qr_scan"}, "bike_id": "435800afe7ddeefc07d27629025f9929"}, {"lat": 38.95084283333333, "is_disabled": 0, "lon": -77.03040483333334, "is_reserved": 0, "fusion_lon": 0.0, "fusion_lat": 0.0, "name": "3fc113c4438571deaadcf139e88dc76d", "type": "electric_scooter", "rental_uris": {"ios": "https://dc.lft.to/lastmile_qr_scan", "android": "https://dc.lft.to/lastmile_qr_scan"}, "bike_id": "3fc113c4438571deaadcf139e88dc76d"}, {"lat": 38.88713283333333, "is_disabled": 0, "lon": -77.021993, "is_reserved": 0, "fusion_lon": 0.0, "fusion_lat": 0.0, "name": "b3f6c6120d4f3c4024421784e22f2d07", "type": "electric_scooter", "rental_uris": {"ios": "https://dc.lft.to/lastmile_qr_scan", "android": "https://dc.lft.to/lastmile_qr_scan"}, "bike_id": "b3f6c6120d4f3c4024421784e22f2d07"}, {"lat": 38.897445166666664, "is_disabled": 0, "lon": -77.03197233333333, "is_reserved": 0, "fusion_lon": 0.0, "fusion_lat": 0.0, "name": "4e3c6d232bb1f3cb4f06f888afbb0b61", "type": "electric_scooter", "rental_uris": {"ios": "https://dc.lft.to/lastmile_qr_scan", "android": "https://dc.lft.to/lastmile_qr_scan"}, "bike_id": "4e3c6d232bb1f3cb4f06f888afbb0b61"}, {"lat": 38.905947166666664, "is_disabled": 0, "lon": -77.07009283333333, "is_reserved": 0, "fusion_lon": 0.0, "fusion_lat": 0.0, "name": "3d31efb6a86eef5d8865cd006d5043a2", "type": "electric_scooter", "rental_uris": {"ios": "https://dc.lft.to/lastmile_qr_scan", "android": "https://dc.lft.to/lastmile_qr_scan"}, "bike_id": "3d31efb6a86eef5d8865cd006d5043a2"}, {"lat": 38.91101883333333, "is_disabled": 0, "lon": -77.0263985, "is_reserved": 0, "fusion_lon": 0.0, "fusion_lat": 0.0, "name": "da0130164618e1baf3ea3acb41c280d6", "type": "electric_scooter", "rental_uris": {"ios": "https://dc.lft.to/lastmile_qr_scan", "android": "https://dc.lft.to/lastmile_qr_scan"}, "bike_id": "da0130164618e1baf3ea3acb41c280d6"}, {"lat": 38.859707, "is_disabled": 0, "lon": -76.96710866666666, "is_reserved": 0, "fusion_lon": 0.0, "fusion_lat": 0.0, "name": "abbc488cd21baaee1244f86d77d9070d", "type": "electric_scooter", "rental_uris": {"ios": "https://dc.lft.to/lastmile_qr_scan", "android": "https://dc.lft.to/lastmile_qr_scan"}, "bike_id": "abbc488cd21baaee1244f86d77d9070d"}, {"lat": 38.97517333333333, "is_disabled": 0, "lon": -77.01733333333334, "is_reserved": 0, "fusion_lon": 0.0, "fusion_lat": 0.0, "name": "1a168ccaa7bb1a415785a356629fb485", "type": "electric_scooter", "rental_uris": {"ios": "https://dc.lft.to/lastmile_qr_scan", "android": "https://dc.lft.to/lastmile_qr_scan"}, "bike_id": "1a168ccaa7bb1a415785a356629fb485"}, {"lat": 38.902380666666666, "is_disabled": 0, "lon": -77.01746733333333, "is_reserved": 0, "fusion_lon": 0.0, "fusion_lat": 0.0, "name": "a7ce1277a99adbd5b9c1865fdb90f4df", "type": "electric_scooter", "rental_uris": {"ios": "https://dc.lft.to/lastmile_qr_scan", "android": "https://dc.lft.to/lastmile_qr_scan"}, "bike_id": "a7ce1277a99adbd5b9c1865fdb90f4df"}, {"lat": 38.876613, "is_disabled": 0, "lon": -77.003351, "is_reserved": 0, "fusion_lon": 0.0, "fusion_lat": 0.0, "name": "dff8eb01ff64a53babff7b6e224f8a9f", "type": "electric_scooter", "rental_uris": {"ios": "https://dc.lft.to/lastmile_qr_scan", "android": "https://dc.lft.to/lastmile_qr_scan"}, "bike_id": "dff8eb01ff64a53babff7b6e224f8a9f"}, {"lat": 38.89837633333333, "is_disabled": 0, "lon": -77.04020516666667, "is_reserved": 0, "fusion_lon": 0.0, "fusion_lat": 0.0, "name": "d4825ac1e1af6274a44cb5dc2d062623", "type": "electric_scooter", "rental_uris": {"ios": "https://dc.lft.to/lastmile_qr_scan", "android": "https://dc.lft.to/lastmile_qr_scan"}, "bike_id": "d4825ac1e1af6274a44cb5dc2d062623"}, {"lat": 38.9227475, "is_disabled": 0, "lon": -77.021304, "is_reserved": 0, "fusion_lon": 0.0, "fusion_lat": 0.0, "name": "f376c041c9388d3baf759b427bf86961", "type": "electric_scooter", "rental_uris": {"ios": "https://dc.lft.to/lastmile_qr_scan", "android": "https://dc.lft.to/lastmile_qr_scan"}, "bike_id": "f376c041c9388d3baf759b427bf86961"}, {"lat": 38.91858033333333, "is_disabled": 0, "lon": -76.96543116666666, "is_reserved": 0, "fusion_lon": 0.0, "fusion_lat": 0.0, "name": "331ef669569f0ffeba8c3e6866ac3cfb", "type": "electric_scooter", "rental_uris": {"ios": "https://dc.lft.to/lastmile_qr_scan", "android": "https://dc.lft.to/lastmile_qr_scan"}, "bike_id": "331ef669569f0ffeba8c3e6866ac3cfb"}, {"lat": 38.934055666666666, "is_disabled": 0, "lon": -77.02788483333333, "is_reserved": 0, "fusion_lon": 0.0, "fusion_lat": 0.0, "name": "2c751e161f6dd9334aeb4dd7fd886664", "type": "electric_scooter", "rental_uris": {"ios": "https://dc.lft.to/lastmile_qr_scan", "android": "https://dc.lft.to/lastmile_qr_scan"}, "bike_id": "2c751e161f6dd9334aeb4dd7fd886664"}, {"lat": 38.89978833333333, "is_disabled": 0, "lon": -77.00927533333333, "is_reserved": 0, "fusion_lon": 0.0, "fusion_lat": 0.0, "name": "9da6bd867ea67c6aea82cf3866babf93", "type": "electric_scooter", "rental_uris": {"ios": "https://dc.lft.to/lastmile_qr_scan", "android": "https://dc.lft.to/lastmile_qr_scan"}, "bike_id": "9da6bd867ea67c6aea82cf3866babf93"}, {"lat": 38.937808833333335, "is_disabled": 0, "lon": -77.07456283333333, "is_reserved": 0, "fusion_lon": 0.0, "fusion_lat": 0.0, "name": "b5e9635f94b73a852580c381f016c67a", "type": "electric_scooter", "rental_uris": {"ios": "https://dc.lft.to/lastmile_qr_scan", "android": "https://dc.lft.to/lastmile_qr_scan"}, "bike_id": "b5e9635f94b73a852580c381f016c67a"}, {"lat": 38.90574133333333, "is_disabled": 0, "lon": -77.0059755, "is_reserved": 0, "fusion_lon": 0.0, "fusion_lat": 0.0, "name": "22945059729c69b98516b7e3084fe429", "type": "electric_scooter", "rental_uris": {"ios": "https://dc.lft.to/lastmile_qr_scan", "android": "https://dc.lft.to/lastmile_qr_scan"}, "bike_id": "22945059729c69b98516b7e3084fe429"}, {"lat": 38.87684316666667, "is_disabled": 0, "lon": -77.0175665, "is_reserved": 0, "fusion_lon": 0.0, "fusion_lat": 0.0, "name": "b908e3d8b702cf6c8187489ae47c9cb4", "type": "electric_scooter", "rental_uris": {"ios": "https://dc.lft.to/lastmile_qr_scan", "android": "https://dc.lft.to/lastmile_qr_scan"}, "bike_id": "b908e3d8b702cf6c8187489ae47c9cb4"}, {"lat": 38.887099, "is_disabled": 0, "lon": -77.00351683333334, "is_reserved": 0, "fusion_lon": 0.0, "fusion_lat": 0.0, "name": "dd45cd82510e3c745f5dc9451e055d68", "type": "electric_scooter", "rental_uris": {"ios": "https://dc.lft.to/lastmile_qr_scan", "android": "https://dc.lft.to/lastmile_qr_scan"}, "bike_id": "dd45cd82510e3c745f5dc9451e055d68"}, {"lat": 38.90057433333333, "is_disabled": 0, "lon": -77.01349383333333, "is_reserved": 0, "fusion_lon": 0.0, "fusion_lat": 0.0, "name": "50651b4a9d25bb4f5819a213b896180b", "type": "electric_scooter", "rental_uris": {"ios": "https://dc.lft.to/lastmile_qr_scan", "android": "https://dc.lft.to/lastmile_qr_scan"}, "bike_id": "50651b4a9d25bb4f5819a213b896180b"}, {"lat": 38.929143833333335, "is_disabled": 0, "lon": -77.01857583333333, "is_reserved": 0, "fusion_lon": 0.0, "fusion_lat": 0.0, "name": "e02400e33c22675df99923ea297ec8fe", "type": "electric_scooter", "rental_uris": {"ios": "https://dc.lft.to/lastmile_qr_scan", "android": "https://dc.lft.to/lastmile_qr_scan"}, "bike_id": "e02400e33c22675df99923ea297ec8fe"}, {"lat": 38.9072755, "is_disabled": 0, "lon": -77.04012633333333, "is_reserved": 0, "fusion_lon": 0.0, "fusion_lat": 0.0, "name": "34f0e02f00a9dd6f13e2a8e206f50a31", "type": "electric_scooter", "rental_uris": {"ios": "https://dc.lft.to/lastmile_qr_scan", "android": "https://dc.lft.to/lastmile_qr_scan"}, "bike_id": "34f0e02f00a9dd6f13e2a8e206f50a31"}, {"lat": 38.91506533333333, "is_disabled": 0, "lon": -77.00622066666666, "is_reserved": 0, "fusion_lon": 0.0, "fusion_lat": 0.0, "name": "05aae698f5ce049eddbbe626497bb989", "type": "electric_scooter", "rental_uris": {"ios": "https://dc.lft.to/lastmile_qr_scan", "android": "https://dc.lft.to/lastmile_qr_scan"}, "bike_id": "05aae698f5ce049eddbbe626497bb989"}, {"lat": 38.902656, "is_disabled": 0, "lon": -77.00327166666666, "is_reserved": 0, "fusion_lon": 0.0, "fusion_lat": 0.0, "name": "023e63ba97f0803c3fee8b90258740fe", "type": "electric_scooter", "rental_uris": {"ios": "https://dc.lft.to/lastmile_qr_scan", "android": "https://dc.lft.to/lastmile_qr_scan"}, "bike_id": "023e63ba97f0803c3fee8b90258740fe"}, {"lat": 38.8717335, "is_disabled": 0, "lon": -77.0062735, "is_reserved": 0, "fusion_lon": 0.0, "fusion_lat": 0.0, "name": "c97111ac466507eaf8fb8a4f09174e77", "type": "electric_scooter", "rental_uris": {"ios": "https://dc.lft.to/lastmile_qr_scan", "android": "https://dc.lft.to/lastmile_qr_scan"}, "bike_id": "c97111ac466507eaf8fb8a4f09174e77"}, {"lat": 38.898845333333334, "is_disabled": 0, "lon": -77.02821233333333, "is_reserved": 0, "fusion_lon": 0.0, "fusion_lat": 0.0, "name": "8814eb905d5947e83da5512712c88d97", "type": "electric_scooter", "rental_uris": {"ios": "https://dc.lft.to/lastmile_qr_scan", "android": "https://dc.lft.to/lastmile_qr_scan"}, "bike_id": "8814eb905d5947e83da5512712c88d97"}, {"lat": 38.922644166666664, "is_disabled": 0, "lon": -77.03680683333333, "is_reserved": 0, "fusion_lon": 0.0, "fusion_lat": 0.0, "name": "5409d98d392498c0eac50d93a51c7953", "type": "electric_scooter", "rental_uris": {"ios": "https://dc.lft.to/lastmile_qr_scan", "android": "https://dc.lft.to/lastmile_qr_scan"}, "bike_id": "5409d98d392498c0eac50d93a51c7953"}, {"lat": 38.9225365, "is_disabled": 0, "lon": -77.01954933333333, "is_reserved": 0, "fusion_lon": 0.0, "fusion_lat": 0.0, "name": "64529040e9f4f015ce1553d4ca9a878c", "type": "electric_scooter", "rental_uris": {"ios": "https://dc.lft.to/lastmile_qr_scan", "android": "https://dc.lft.to/lastmile_qr_scan"}, "bike_id": "64529040e9f4f015ce1553d4ca9a878c"}, {"lat": 38.90031283333333, "is_disabled": 0, "lon": -77.04350766666667, "is_reserved": 0, "fusion_lon": 0.0, "fusion_lat": 0.0, "name": "994339681fb62a6103526e5e9cb1da0b", "type": "electric_scooter", "rental_uris": {"ios": "https://dc.lft.to/lastmile_qr_scan", "android": "https://dc.lft.to/lastmile_qr_scan"}, "bike_id": "994339681fb62a6103526e5e9cb1da0b"}, {"lat": 39.03424616666667, "is_disabled": 0, "lon": -77.04300433333333, "is_reserved": 0, "fusion_lon": 0.0, "fusion_lat": 0.0, "name": "f68264e8e490241642137ba2e63f26f7", "type": "electric_bike", "rental_uris": {"ios": "https://dc.lft.to/lastmile_qr_scan", "android": "https://dc.lft.to/lastmile_qr_scan"}, "bike_id": "f68264e8e490241642137ba2e63f26f7"}, {"lat": 38.9022925, "is_disabled": 0, "lon": -77.05343283333333, "is_reserved": 0, "fusion_lon": 0.0, "fusion_lat": 0.0, "name": "f82b391a015366408dfd6d2058587558", "type": "electric_scooter", "rental_uris": {"ios": "https://dc.lft.to/lastmile_qr_scan", "android": "https://dc.lft.to/lastmile_qr_scan"}, "bike_id": "f82b391a015366408dfd6d2058587558"}, {"lat": 38.89832033333333, "is_disabled": 0, "lon": -77.05025983333333, "is_reserved": 0, "fusion_lon": 0.0, "fusion_lat": 0.0, "name": "ae7ea0f5d083350d60c4e6817d31849d", "type": "electric_scooter", "rental_uris": {"ios": "https://dc.lft.to/lastmile_qr_scan", "android": "https://dc.lft.to/lastmile_qr_scan"}, "bike_id": "ae7ea0f5d083350d60c4e6817d31849d"}, {"lat": 38.942542833333334, "is_disabled": 0, "lon": -76.99064383333334, "is_reserved": 0, "fusion_lon": 0.0, "fusion_lat": 0.0, "name": "f30c5758dc10ea885a33adf2bf4c2644", "type": "electric_bike", "rental_uris": {"ios": "https://dc.lft.to/lastmile_qr_scan", "android": "https://dc.lft.to/lastmile_qr_scan"}, "bike_id": "f30c5758dc10ea885a33adf2bf4c2644"}, {"lat": 38.91132916666667, "is_disabled": 0, "lon": -77.05081116666666, "is_reserved": 0, "fusion_lon": 0.0, "fusion_lat": 0.0, "name": "4cd84fbdf164058a22b46a914dc17ec9", "type": "electric_scooter", "rental_uris": {"ios": "https://dc.lft.to/lastmile_qr_scan", "android": "https://dc.lft.to/lastmile_qr_scan"}, "bike_id": "4cd84fbdf164058a22b46a914dc17ec9"}, {"lat": 38.94877116666667, "is_disabled": 0, "lon": -77.06450266666667, "is_reserved": 0, "fusion_lon": 0.0, "fusion_lat": 0.0, "name": "2178ba9fd9b968da04abd0b1fbca3d1b", "type": "electric_scooter", "rental_uris": {"ios": "https://dc.lft.to/lastmile_qr_scan", "android": "https://dc.lft.to/lastmile_qr_scan"}, "bike_id": "2178ba9fd9b968da04abd0b1fbca3d1b"}, {"lat": 38.91098866666667, "is_disabled": 0, "lon": -77.0254865, "is_reserved": 0, "fusion_lon": 0.0, "fusion_lat": 0.0, "name": "7146c556c06a97cff0efbab2f69dfe4a", "type": "electric_scooter", "rental_uris": {"ios": "https://dc.lft.to/lastmile_qr_scan", "android": "https://dc.lft.to/lastmile_qr_scan"}, "bike_id": "7146c556c06a97cff0efbab2f69dfe4a"}, {"lat": 38.89225033333334, "is_disabled": 0, "lon": -77.04498933333333, "is_reserved": 0, "fusion_lon": 0.0, "fusion_lat": 0.0, "name": "7509d1908faafa859083057c8038cbf2", "type": "electric_scooter", "rental_uris": {"ios": "https://dc.lft.to/lastmile_qr_scan", "android": "https://dc.lft.to/lastmile_qr_scan"}, "bike_id": "7509d1908faafa859083057c8038cbf2"}, {"lat": 38.90649366666667, "is_disabled": 0, "lon": -77.01689883333333, "is_reserved": 0, "fusion_lon": 0.0, "fusion_lat": 0.0, "name": "179eaf7950d02d3d151cb08794f655a4", "type": "electric_scooter", "rental_uris": {"ios": "https://dc.lft.to/lastmile_qr_scan", "android": "https://dc.lft.to/lastmile_qr_scan"}, "bike_id": "179eaf7950d02d3d151cb08794f655a4"}, {"lat": 38.88603916666667, "is_disabled": 0, "lon": -76.92496033333333, "is_reserved": 0, "fusion_lon": 0.0, "fusion_lat": 0.0, "name": "83c8af90a20dc68bbc06275a740fbf00", "type": "electric_scooter", "rental_uris": {"ios": "https://dc.lft.to/lastmile_qr_scan", "android": "https://dc.lft.to/lastmile_qr_scan"}, "bike_id": "83c8af90a20dc68bbc06275a740fbf00"}, {"lat": 38.887396333333335, "is_disabled": 0, "lon": -77.02821966666667, "is_reserved": 0, "fusion_lon": 0.0, "fusion_lat": 0.0, "name": "8f7a5847d8d62f9ee87cc7b1245eba67", "type": "electric_scooter", "rental_uris": {"ios": "https://dc.lft.to/lastmile_qr_scan", "android": "https://dc.lft.to/lastmile_qr_scan"}, "bike_id": "8f7a5847d8d62f9ee87cc7b1245eba67"}, {"lat": 38.898255, "is_disabled": 0, "lon": -77.0307885, "is_reserved": 0, "fusion_lon": 0.0, "fusion_lat": 0.0, "name": "fd7b400203265b8bf2dd01121ae77e3b", "type": "electric_scooter", "rental_uris": {"ios": "https://dc.lft.to/lastmile_qr_scan", "android": "https://dc.lft.to/lastmile_qr_scan"}, "bike_id": "fd7b400203265b8bf2dd01121ae77e3b"}, {"lat": 38.89297366666667, "is_disabled": 0, "lon": -77.02819183333334, "is_reserved": 0, "fusion_lon": 0.0, "fusion_lat": 0.0, "name": "717444a6429d4336fbac33c5eb917cab", "type": "electric_scooter", "rental_uris": {"ios": "https://dc.lft.to/lastmile_qr_scan", "android": "https://dc.lft.to/lastmile_qr_scan"}, "bike_id": "717444a6429d4336fbac33c5eb917cab"}, {"lat": 38.90968183333333, "is_disabled": 0, "lon": -77.03590966666667, "is_reserved": 0, "fusion_lon": 0.0, "fusion_lat": 0.0, "name": "c1e7352e4e10eb268f3b724c00649529", "type": "electric_scooter", "rental_uris": {"ios": "https://dc.lft.to/lastmile_qr_scan", "android": "https://dc.lft.to/lastmile_qr_scan"}, "bike_id": "c1e7352e4e10eb268f3b724c00649529"}, {"lat": 38.901876333333334, "is_disabled": 0, "lon": -77.02404166666666, "is_reserved": 0, "fusion_lon": 0.0, "fusion_lat": 0.0, "name": "aea90e35be3be49654d8e3f01074d50b", "type": "electric_scooter", "rental_uris": {"ios": "https://dc.lft.to/lastmile_qr_scan", "android": "https://dc.lft.to/lastmile_qr_scan"}, "bike_id": "aea90e35be3be49654d8e3f01074d50b"}, {"lat": 38.900383, "is_disabled": 0, "lon": -76.98844783333334, "is_reserved": 0, "fusion_lon": 0.0, "fusion_lat": 0.0, "name": "2707cb273ee1bd3408632c091e175e64", "type": "electric_scooter", "rental_uris": {"ios": "https://dc.lft.to/lastmile_qr_scan", "android": "https://dc.lft.to/lastmile_qr_scan"}, "bike_id": "2707cb273ee1bd3408632c091e175e64"}, {"lat": 38.90406616666667, "is_disabled": 0, "lon": -77.02094266666667, "is_reserved": 0, "fusion_lon": 0.0, "fusion_lat": 0.0, "name": "f3f62e246483d618b5ade08589a1aadc", "type": "electric_scooter", "rental_uris": {"ios": "https://dc.lft.to/lastmile_qr_scan", "android": "https://dc.lft.to/lastmile_qr_scan"}, "bike_id": "f3f62e246483d618b5ade08589a1aadc"}, {"lat": 38.89644416666667, "is_disabled": 0, "lon": -77.02407266666667, "is_reserved": 0, "fusion_lon": 0.0, "fusion_lat": 0.0, "name": "991b394a687ca6220a869e5e1b8efca3", "type": "electric_scooter", "rental_uris": {"ios": "https://dc.lft.to/lastmile_qr_scan", "android": "https://dc.lft.to/lastmile_qr_scan"}, "bike_id": "991b394a687ca6220a869e5e1b8efca3"}, {"lat": 38.992302333333335, "is_disabled": 0, "lon": -77.06532166666666, "is_reserved": 0, "fusion_lon": 0.0, "fusion_lat": 0.0, "name": "fe5d3d89246cf2af52a5761d4622f395", "type": "electric_bike", "rental_uris": {"ios": "https://dc.lft.to/lastmile_qr_scan", "android": "https://dc.lft.to/lastmile_qr_scan"}, "bike_id": "fe5d3d89246cf2af52a5761d4622f395"}, {"lat": 38.925923166666664, "is_disabled": 0, "lon": -77.0249635, "is_reserved": 0, "fusion_lon": 0.0, "fusion_lat": 0.0, "name": "03522ab00be9bc441ef32ad63b8ca3d1", "type": "electric_scooter", "rental_uris": {"ios": "https://dc.lft.to/lastmile_qr_scan", "android": "https://dc.lft.to/lastmile_qr_scan"}, "bike_id": "03522ab00be9bc441ef32ad63b8ca3d1"}, {"lat": 38.90695783333334, "is_disabled": 0, "lon": -76.95252216666667, "is_reserved": 0, "fusion_lon": 0.0, "fusion_lat": 0.0, "name": "ce4b739fc49c0f2233e9a1a4a7142657", "type": "electric_bike", "rental_uris": {"ios": "https://dc.lft.to/lastmile_qr_scan", "android": "https://dc.lft.to/lastmile_qr_scan"}, "bike_id": "ce4b739fc49c0f2233e9a1a4a7142657"}, {"lat": 38.903139833333334, "is_disabled": 0, "lon": -77.03855816666666, "is_reserved": 0, "fusion_lon": 0.0, "fusion_lat": 0.0, "name": "ac33e40af4a051027338fee1ea3118b2", "type": "electric_scooter", "rental_uris": {"ios": "https://dc.lft.to/lastmile_qr_scan", "android": "https://dc.lft.to/lastmile_qr_scan"}, "bike_id": "ac33e40af4a051027338fee1ea3118b2"}, {"lat": 38.909997, "is_disabled": 0, "lon": -77.04007883333334, "is_reserved": 0, "fusion_lon": 0.0, "fusion_lat": 0.0, "name": "5841e19f9beb1fdc6c8e92e806d19335", "type": "electric_scooter", "rental_uris": {"ios": "https://dc.lft.to/lastmile_qr_scan", "android": "https://dc.lft.to/lastmile_qr_scan"}, "bike_id": "5841e19f9beb1fdc6c8e92e806d19335"}, {"lat": 38.895495833333335, "is_disabled": 0, "lon": -77.00910133333333, "is_reserved": 0, "fusion_lon": 0.0, "fusion_lat": 0.0, "name": "6d397494baeb6425515a53d7ef899814", "type": "electric_scooter", "rental_uris": {"ios": "https://dc.lft.to/lastmile_qr_scan", "android": "https://dc.lft.to/lastmile_qr_scan"}, "bike_id": "6d397494baeb6425515a53d7ef899814"}, {"lat": 38.903966833333335, "is_disabled": 0, "lon": -77.06295433333334, "is_reserved": 0, "fusion_lon": 0.0, "fusion_lat": 0.0, "name": "9933f021e3baf4a9c3c62ae0e0826c19", "type": "electric_scooter", "rental_uris": {"ios": "https://dc.lft.to/lastmile_qr_scan", "android": "https://dc.lft.to/lastmile_qr_scan"}, "bike_id": "9933f021e3baf4a9c3c62ae0e0826c19"}, {"lat": 38.9187045, "is_disabled": 0, "lon": -77.04201033333334, "is_reserved": 0, "fusion_lon": 0.0, "fusion_lat": 0.0, "name": "658098dafd06f60b6fc99ff8ce1aa206", "type": "electric_scooter", "rental_uris": {"ios": "https://dc.lft.to/lastmile_qr_scan", "android": "https://dc.lft.to/lastmile_qr_scan"}, "bike_id": "658098dafd06f60b6fc99ff8ce1aa206"}, {"lat": 38.88748366666667, "is_disabled": 0, "lon": -77.01625866666667, "is_reserved": 0, "fusion_lon": 0.0, "fusion_lat": 0.0, "name": "fd559cbaa43208cb93ef9fa8e78f7642", "type": "electric_scooter", "rental_uris": {"ios": "https://dc.lft.to/lastmile_qr_scan", "android": "https://dc.lft.to/lastmile_qr_scan"}, "bike_id": "fd559cbaa43208cb93ef9fa8e78f7642"}, {"lat": 38.89722866666666, "is_disabled": 0, "lon": -76.983596, "is_reserved": 0, "fusion_lon": 0.0, "fusion_lat": 0.0, "name": "d4729eb96849f1dd3b1426730dbb0ecc", "type": "electric_scooter", "rental_uris": {"ios": "https://dc.lft.to/lastmile_qr_scan", "android": "https://dc.lft.to/lastmile_qr_scan"}, "bike_id": "d4729eb96849f1dd3b1426730dbb0ecc"}, {"lat": 38.89359533333333, "is_disabled": 0, "lon": -77.00334833333334, "is_reserved": 0, "fusion_lon": 0.0, "fusion_lat": 0.0, "name": "edfcbc60858e954e93ad8fe62e3f2403", "type": "electric_scooter", "rental_uris": {"ios": "https://dc.lft.to/lastmile_qr_scan", "android": "https://dc.lft.to/lastmile_qr_scan"}, "bike_id": "edfcbc60858e954e93ad8fe62e3f2403"}, {"lat": 38.91187333333333, "is_disabled": 0, "lon": -77.00727433333333, "is_reserved": 0, "fusion_lon": 0.0, "fusion_lat": 0.0, "name": "7f67f881fbee8a65921768b7d312afdd", "type": "electric_scooter", "rental_uris": {"ios": "https://dc.lft.to/lastmile_qr_scan", "android": "https://dc.lft.to/lastmile_qr_scan"}, "bike_id": "7f67f881fbee8a65921768b7d312afdd"}, {"lat": 38.897276166666664, "is_disabled": 0, "lon": -77.0287725, "is_reserved": 0, "fusion_lon": 0.0, "fusion_lat": 0.0, "name": "e4c3498c4da3fdd1a63676a9a0854182", "type": "electric_scooter", "rental_uris": {"ios": "https://dc.lft.to/lastmile_qr_scan", "android": "https://dc.lft.to/lastmile_qr_scan"}, "bike_id": "e4c3498c4da3fdd1a63676a9a0854182"}, {"lat": 38.9216465, "is_disabled": 0, "lon": -77.03321716666666, "is_reserved": 0, "fusion_lon": 0.0, "fusion_lat": 0.0, "name": "1f88bdaaabee19b87608139f347e1f40", "type": "electric_scooter", "rental_uris": {"ios": "https://dc.lft.to/lastmile_qr_scan", "android": "https://dc.lft.to/lastmile_qr_scan"}, "bike_id": "1f88bdaaabee19b87608139f347e1f40"}, {"lat": 38.920458833333335, "is_disabled": 0, "lon": -77.01678316666667, "is_reserved": 0, "fusion_lon": 0.0, "fusion_lat": 0.0, "name": "b0189bc27f5d59509dc5b00401486245", "type": "electric_scooter", "rental_uris": {"ios": "https://dc.lft.to/lastmile_qr_scan", "android": "https://dc.lft.to/lastmile_qr_scan"}, "bike_id": "b0189bc27f5d59509dc5b00401486245"}, {"lat": 38.889547666666665, "is_disabled": 0, "lon": -76.95361933333334, "is_reserved": 0, "fusion_lon": 0.0, "fusion_lat": 0.0, "name": "eb15c4824c67427aff7109bdc58d73c8", "type": "electric_scooter", "rental_uris": {"ios": "https://dc.lft.to/lastmile_qr_scan", "android": "https://dc.lft.to/lastmile_qr_scan"}, "bike_id": "eb15c4824c67427aff7109bdc58d73c8"}, {"lat": 38.87700483333333, "is_disabled": 0, "lon": -77.01765166666667, "is_reserved": 0, "fusion_lon": 0.0, "fusion_lat": 0.0, "name": "2d266648ded8977d552564a477fc519b", "type": "electric_scooter", "rental_uris": {"ios": "https://dc.lft.to/lastmile_qr_scan", "android": "https://dc.lft.to/lastmile_qr_scan"}, "bike_id": "2d266648ded8977d552564a477fc519b"}, {"lat": 38.90146433333334, "is_disabled": 0, "lon": -77.059221, "is_reserved": 0, "fusion_lon": 0.0, "fusion_lat": 0.0, "name": "0cdf36c8db49a160ebf77d568f6b2c21", "type": "electric_scooter", "rental_uris": {"ios": "https://dc.lft.to/lastmile_qr_scan", "android": "https://dc.lft.to/lastmile_qr_scan"}, "bike_id": "0cdf36c8db49a160ebf77d568f6b2c21"}, {"lat": 38.92302166666666, "is_disabled": 0, "lon": -76.9885015, "is_reserved": 0, "fusion_lon": 0.0, "fusion_lat": 0.0, "name": "57915994f0eed644e273fdf121635be8", "type": "electric_scooter", "rental_uris": {"ios": "https://dc.lft.to/lastmile_qr_scan", "android": "https://dc.lft.to/lastmile_qr_scan"}, "bike_id": "57915994f0eed644e273fdf121635be8"}, {"lat": 38.921606, "is_disabled": 0, "lon": -77.02091466666667, "is_reserved": 0, "fusion_lon": 0.0, "fusion_lat": 0.0, "name": "51bbc9f7848a3accde8531a950186797", "type": "electric_scooter", "rental_uris": {"ios": "https://dc.lft.to/lastmile_qr_scan", "android": "https://dc.lft.to/lastmile_qr_scan"}, "bike_id": "51bbc9f7848a3accde8531a950186797"}, {"lat": 38.902660166666664, "is_disabled": 0, "lon": -76.9984825, "is_reserved": 0, "fusion_lon": 0.0, "fusion_lat": 0.0, "name": "4d9462c3e80650b1ceb95641b84b1b18", "type": "electric_scooter", "rental_uris": {"ios": "https://dc.lft.to/lastmile_qr_scan", "android": "https://dc.lft.to/lastmile_qr_scan"}, "bike_id": "4d9462c3e80650b1ceb95641b84b1b18"}, {"lat": 38.906592, "is_disabled": 0, "lon": -76.98598183333333, "is_reserved": 0, "fusion_lon": 0.0, "fusion_lat": 0.0, "name": "92997b95eaa5d74ec5f4ea8fd1c2193f", "type": "electric_scooter", "rental_uris": {"ios": "https://dc.lft.to/lastmile_qr_scan", "android": "https://dc.lft.to/lastmile_qr_scan"}, "bike_id": "92997b95eaa5d74ec5f4ea8fd1c2193f"}, {"lat": 38.9220955, "is_disabled": 0, "lon": -77.0319845, "is_reserved": 0, "fusion_lon": 0.0, "fusion_lat": 0.0, "name": "e0c054cec996c9d0d5dcafbca8166a85", "type": "electric_scooter", "rental_uris": {"ios": "https://dc.lft.to/lastmile_qr_scan", "android": "https://dc.lft.to/lastmile_qr_scan"}, "bike_id": "e0c054cec996c9d0d5dcafbca8166a85"}, {"lat": 38.9249305, "is_disabled": 0, "lon": -77.02176483333334, "is_reserved": 0, "fusion_lon": 0.0, "fusion_lat": 0.0, "name": "624044eae52999ddeef1c174ba704025", "type": "electric_scooter", "rental_uris": {"ios": "https://dc.lft.to/lastmile_qr_scan", "android": "https://dc.lft.to/lastmile_qr_scan"}, "bike_id": "624044eae52999ddeef1c174ba704025"}, {"lat": 38.99825116666667, "is_disabled": 0, "lon": -76.99767833333334, "is_reserved": 0, "fusion_lon": 0.0, "fusion_lat": 0.0, "name": "73351b92b93fc60a188ce7790129bd6c", "type": "electric_bike", "rental_uris": {"ios": "https://dc.lft.to/lastmile_qr_scan", "android": "https://dc.lft.to/lastmile_qr_scan"}, "bike_id": "73351b92b93fc60a188ce7790129bd6c"}, {"lat": 38.920855, "is_disabled": 0, "lon": -77.02417133333333, "is_reserved": 0, "fusion_lon": 0.0, "fusion_lat": 0.0, "name": "8c360a0108baf3970456ac5904681a56", "type": "electric_scooter", "rental_uris": {"ios": "https://dc.lft.to/lastmile_qr_scan", "android": "https://dc.lft.to/lastmile_qr_scan"}, "bike_id": "8c360a0108baf3970456ac5904681a56"}, {"lat": 38.92944883333333, "is_disabled": 0, "lon": -77.03258133333334, "is_reserved": 0, "fusion_lon": 0.0, "fusion_lat": 0.0, "name": "d02b8e9373f4e562b05bbe31e4fc21c3", "type": "electric_scooter", "rental_uris": {"ios": "https://dc.lft.to/lastmile_qr_scan", "android": "https://dc.lft.to/lastmile_qr_scan"}, "bike_id": "d02b8e9373f4e562b05bbe31e4fc21c3"}, {"lat": 38.91833833333333, "is_disabled": 0, "lon": -77.034559, "is_reserved": 0, "fusion_lon": 0.0, "fusion_lat": 0.0, "name": "57824a14d569de31e6cc00c88685674a", "type": "electric_scooter", "rental_uris": {"ios": "https://dc.lft.to/lastmile_qr_scan", "android": "https://dc.lft.to/lastmile_qr_scan"}, "bike_id": "57824a14d569de31e6cc00c88685674a"}, {"lat": 38.89905733333333, "is_disabled": 0, "lon": -77.0329725, "is_reserved": 0, "fusion_lon": 0.0, "fusion_lat": 0.0, "name": "79dd522c667c916f44c6dad28feb3ce3", "type": "electric_scooter", "rental_uris": {"ios": "https://dc.lft.to/lastmile_qr_scan", "android": "https://dc.lft.to/lastmile_qr_scan"}, "bike_id": "79dd522c667c916f44c6dad28feb3ce3"}, {"lat": 38.911614166666666, "is_disabled": 0, "lon": -77.06242233333333, "is_reserved": 0, "fusion_lon": 0.0, "fusion_lat": 0.0, "name": "3a9988a6001b99f55c8a4855c82140f7", "type": "electric_scooter", "rental_uris": {"ios": "https://dc.lft.to/lastmile_qr_scan", "android": "https://dc.lft.to/lastmile_qr_scan"}, "bike_id": "3a9988a6001b99f55c8a4855c82140f7"}, {"lat": 38.92418883333333, "is_disabled": 0, "lon": -77.01944833333333, "is_reserved": 0, "fusion_lon": 0.0, "fusion_lat": 0.0, "name": "b378f8ab278f00d2d30ceb5e7a17a82b", "type": "electric_scooter", "rental_uris": {"ios": "https://dc.lft.to/lastmile_qr_scan", "android": "https://dc.lft.to/lastmile_qr_scan"}, "bike_id": "b378f8ab278f00d2d30ceb5e7a17a82b"}, {"lat": 38.90243133333333, "is_disabled": 0, "lon": -77.01750883333334, "is_reserved": 0, "fusion_lon": 0.0, "fusion_lat": 0.0, "name": "c56cdd203e2f65d3035ff25476b61586", "type": "electric_scooter", "rental_uris": {"ios": "https://dc.lft.to/lastmile_qr_scan", "android": "https://dc.lft.to/lastmile_qr_scan"}, "bike_id": "c56cdd203e2f65d3035ff25476b61586"}, {"lat": 38.90128716666667, "is_disabled": 0, "lon": -76.930171, "is_reserved": 0, "fusion_lon": 0.0, "fusion_lat": 0.0, "name": "098507b028ae8db4806a681daa2a9cdc", "type": "electric_scooter", "rental_uris": {"ios": "https://dc.lft.to/lastmile_qr_scan", "android": "https://dc.lft.to/lastmile_qr_scan"}, "bike_id": "098507b028ae8db4806a681daa2a9cdc"}, {"lat": 38.93422366666667, "is_disabled": 0, "lon": -77.0196275, "is_reserved": 0, "fusion_lon": 0.0, "fusion_lat": 0.0, "name": "44fd67075ff078152d795b2b99545a20", "type": "electric_scooter", "rental_uris": {"ios": "https://dc.lft.to/lastmile_qr_scan", "android": "https://dc.lft.to/lastmile_qr_scan"}, "bike_id": "44fd67075ff078152d795b2b99545a20"}, {"lat": 38.92053666666666, "is_disabled": 0, "lon": -77.01585, "is_reserved": 0, "fusion_lon": 0.0, "fusion_lat": 0.0, "name": "39d41404127c380ec818e77903840cc5", "type": "electric_scooter", "rental_uris": {"ios": "https://dc.lft.to/lastmile_qr_scan", "android": "https://dc.lft.to/lastmile_qr_scan"}, "bike_id": "39d41404127c380ec818e77903840cc5"}, {"lat": 38.903200166666664, "is_disabled": 0, "lon": -77.0162945, "is_reserved": 0, "fusion_lon": 0.0, "fusion_lat": 0.0, "name": "0e8bbc3528f5b4a9d6379af25f89d7e1", "type": "electric_scooter", "rental_uris": {"ios": "https://dc.lft.to/lastmile_qr_scan", "android": "https://dc.lft.to/lastmile_qr_scan"}, "bike_id": "0e8bbc3528f5b4a9d6379af25f89d7e1"}, {"lat": 38.985247666666666, "is_disabled": 0, "lon": -77.00424983333333, "is_reserved": 0, "fusion_lon": 0.0, "fusion_lat": 0.0, "name": "18c320584dcf964174d2e24441e3986b", "type": "electric_bike", "rental_uris": {"ios": "https://dc.lft.to/lastmile_qr_scan", "android": "https://dc.lft.to/lastmile_qr_scan"}, "bike_id": "18c320584dcf964174d2e24441e3986b"}, {"lat": 38.908334833333335, "is_disabled": 0, "lon": -76.99161883333333, "is_reserved": 0, "fusion_lon": 0.0, "fusion_lat": 0.0, "name": "33a334f95db3d5150571404ef85e37b9", "type": "electric_scooter", "rental_uris": {"ios": "https://dc.lft.to/lastmile_qr_scan", "android": "https://dc.lft.to/lastmile_qr_scan"}, "bike_id": "33a334f95db3d5150571404ef85e37b9"}, {"lat": 38.9312935, "is_disabled": 0, "lon": -77.02818516666666, "is_reserved": 0, "fusion_lon": 0.0, "fusion_lat": 0.0, "name": "4f95fa13a9c693f1b0ea31b8217401e5", "type": "electric_scooter", "rental_uris": {"ios": "https://dc.lft.to/lastmile_qr_scan", "android": "https://dc.lft.to/lastmile_qr_scan"}, "bike_id": "4f95fa13a9c693f1b0ea31b8217401e5"}, {"lat": 38.91709316666667, "is_disabled": 0, "lon": -77.02580116666667, "is_reserved": 0, "fusion_lon": 0.0, "fusion_lat": 0.0, "name": "0a8874766f772b5ebe2818ff00eba7e8", "type": "electric_scooter", "rental_uris": {"ios": "https://dc.lft.to/lastmile_qr_scan", "android": "https://dc.lft.to/lastmile_qr_scan"}, "bike_id": "0a8874766f772b5ebe2818ff00eba7e8"}, {"lat": 38.92747133333334, "is_disabled": 0, "lon": -77.033059, "is_reserved": 0, "fusion_lon": 0.0, "fusion_lat": 0.0, "name": "2c532a27d03ce1c484498b1949f97e57", "type": "electric_scooter", "rental_uris": {"ios": "https://dc.lft.to/lastmile_qr_scan", "android": "https://dc.lft.to/lastmile_qr_scan"}, "bike_id": "2c532a27d03ce1c484498b1949f97e57"}, {"lat": 38.89962166666667, "is_disabled": 0, "lon": -77.04683833333333, "is_reserved": 0, "fusion_lon": 0.0, "fusion_lat": 0.0, "name": "86d95ca3bd8f9e4443a5e6ad1cb76d5a", "type": "electric_scooter", "rental_uris": {"ios": "https://dc.lft.to/lastmile_qr_scan", "android": "https://dc.lft.to/lastmile_qr_scan"}, "bike_id": "86d95ca3bd8f9e4443a5e6ad1cb76d5a"}, {"lat": 38.90018383333334, "is_disabled": 0, "lon": -77.04492316666666, "is_reserved": 0, "fusion_lon": 0.0, "fusion_lat": 0.0, "name": "6f71601306d01520d91b879d37307acc", "type": "electric_scooter", "rental_uris": {"ios": "https://dc.lft.to/lastmile_qr_scan", "android": "https://dc.lft.to/lastmile_qr_scan"}, "bike_id": "6f71601306d01520d91b879d37307acc"}, {"lat": 38.864484166666664, "is_disabled": 0, "lon": -76.99912583333334, "is_reserved": 0, "fusion_lon": 0.0, "fusion_lat": 0.0, "name": "a33ddb435fc31a1cf20d68363d848d3a", "type": "electric_bike", "rental_uris": {"ios": "https://dc.lft.to/lastmile_qr_scan", "android": "https://dc.lft.to/lastmile_qr_scan"}, "bike_id": "a33ddb435fc31a1cf20d68363d848d3a"}, {"lat": 38.89367983333333, "is_disabled": 0, "lon": -77.04769916666666, "is_reserved": 0, "fusion_lon": 0.0, "fusion_lat": 0.0, "name": "976d550deba61236a252631bd5821d7d", "type": "electric_scooter", "rental_uris": {"ios": "https://dc.lft.to/lastmile_qr_scan", "android": "https://dc.lft.to/lastmile_qr_scan"}, "bike_id": "976d550deba61236a252631bd5821d7d"}, {"lat": 38.902502166666665, "is_disabled": 0, "lon": -77.03953233333333, "is_reserved": 0, "fusion_lon": 0.0, "fusion_lat": 0.0, "name": "185be0250ccde30575b7a48cc561a661", "type": "electric_scooter", "rental_uris": {"ios": "https://dc.lft.to/lastmile_qr_scan", "android": "https://dc.lft.to/lastmile_qr_scan"}, "bike_id": "185be0250ccde30575b7a48cc561a661"}, {"lat": 38.923312833333334, "is_disabled": 0, "lon": -77.04298566666667, "is_reserved": 0, "fusion_lon": 0.0, "fusion_lat": 0.0, "name": "e4743b4121aaa3e4056fecb8a9e24dac", "type": "electric_scooter", "rental_uris": {"ios": "https://dc.lft.to/lastmile_qr_scan", "android": "https://dc.lft.to/lastmile_qr_scan"}, "bike_id": "e4743b4121aaa3e4056fecb8a9e24dac"}, {"lat": 38.900060833333335, "is_disabled": 0, "lon": -77.03319116666667, "is_reserved": 0, "fusion_lon": 0.0, "fusion_lat": 0.0, "name": "19a015ce7ac8851d9438d7138a234835", "type": "electric_scooter", "rental_uris": {"ios": "https://dc.lft.to/lastmile_qr_scan", "android": "https://dc.lft.to/lastmile_qr_scan"}, "bike_id": "19a015ce7ac8851d9438d7138a234835"}, {"lat": 38.90277916666667, "is_disabled": 0, "lon": -77.04601616666666, "is_reserved": 0, "fusion_lon": 0.0, "fusion_lat": 0.0, "name": "1fa6737ce65d38fce603ee469890c808", "type": "electric_scooter", "rental_uris": {"ios": "https://dc.lft.to/lastmile_qr_scan", "android": "https://dc.lft.to/lastmile_qr_scan"}, "bike_id": "1fa6737ce65d38fce603ee469890c808"}, {"lat": 38.92409633333333, "is_disabled": 0, "lon": -77.029822, "is_reserved": 0, "fusion_lon": 0.0, "fusion_lat": 0.0, "name": "ef07618e972118290546dd4a9c58da39", "type": "electric_scooter", "rental_uris": {"ios": "https://dc.lft.to/lastmile_qr_scan", "android": "https://dc.lft.to/lastmile_qr_scan"}, "bike_id": "ef07618e972118290546dd4a9c58da39"}, {"lat": 38.90564033333333, "is_disabled": 0, "lon": -77.04276166666666, "is_reserved": 0, "fusion_lon": 0.0, "fusion_lat": 0.0, "name": "fc9c79652fd7d1b398a1ae1d9d2672a8", "type": "electric_scooter", "rental_uris": {"ios": "https://dc.lft.to/lastmile_qr_scan", "android": "https://dc.lft.to/lastmile_qr_scan"}, "bike_id": "fc9c79652fd7d1b398a1ae1d9d2672a8"}, {"lat": 38.92013583333333, "is_disabled": 0, "lon": -77.0319975, "is_reserved": 0, "fusion_lon": 0.0, "fusion_lat": 0.0, "name": "c9e7ff9e61e55143be390e309a2bf42e", "type": "electric_scooter", "rental_uris": {"ios": "https://dc.lft.to/lastmile_qr_scan", "android": "https://dc.lft.to/lastmile_qr_scan"}, "bike_id": "c9e7ff9e61e55143be390e309a2bf42e"}, {"lat": 38.914143, "is_disabled": 0, "lon": -77.0317405, "is_reserved": 0, "fusion_lon": 0.0, "fusion_lat": 0.0, "name": "d3912035f9f5b7ca1de4bfeeb518d7a9", "type": "electric_scooter", "rental_uris": {"ios": "https://dc.lft.to/lastmile_qr_scan", "android": "https://dc.lft.to/lastmile_qr_scan"}, "bike_id": "d3912035f9f5b7ca1de4bfeeb518d7a9"}, {"lat": 38.892225, "is_disabled": 0, "lon": -77.04498883333333, "is_reserved": 0, "fusion_lon": 0.0, "fusion_lat": 0.0, "name": "55aea45357140fedd1495e0e63da8ba3", "type": "electric_scooter", "rental_uris": {"ios": "https://dc.lft.to/lastmile_qr_scan", "android": "https://dc.lft.to/lastmile_qr_scan"}, "bike_id": "55aea45357140fedd1495e0e63da8ba3"}, {"lat": 38.89997733333333, "is_disabled": 0, "lon": -77.00643883333333, "is_reserved": 0, "fusion_lon": 0.0, "fusion_lat": 0.0, "name": "db2c0e533bf3b4fc42880348c46a47c1", "type": "electric_scooter", "rental_uris": {"ios": "https://dc.lft.to/lastmile_qr_scan", "android": "https://dc.lft.to/lastmile_qr_scan"}, "bike_id": "db2c0e533bf3b4fc42880348c46a47c1"}, {"lat": 38.902171833333334, "is_disabled": 0, "lon": -77.02320833333333, "is_reserved": 0, "fusion_lon": 0.0, "fusion_lat": 0.0, "name": "f7397a4f4d3c5f93e44f909b771c994c", "type": "electric_scooter", "rental_uris": {"ios": "https://dc.lft.to/lastmile_qr_scan", "android": "https://dc.lft.to/lastmile_qr_scan"}, "bike_id": "f7397a4f4d3c5f93e44f909b771c994c"}, {"lat": 38.89984966666667, "is_disabled": 0, "lon": -77.02274966666667, "is_reserved": 0, "fusion_lon": 0.0, "fusion_lat": 0.0, "name": "ad22ab84df6692669784024a73ddf2c0", "type": "electric_scooter", "rental_uris": {"ios": "https://dc.lft.to/lastmile_qr_scan", "android": "https://dc.lft.to/lastmile_qr_scan"}, "bike_id": "ad22ab84df6692669784024a73ddf2c0"}, {"lat": 38.906393, "is_disabled": 0, "lon": -77.06888883333333, "is_reserved": 0, "fusion_lon": 0.0, "fusion_lat": 0.0, "name": "4e7a5683cc21dbe16672614b3e1d3af1", "type": "electric_scooter", "rental_uris": {"ios": "https://dc.lft.to/lastmile_qr_scan", "android": "https://dc.lft.to/lastmile_qr_scan"}, "bike_id": "4e7a5683cc21dbe16672614b3e1d3af1"}, {"lat": 38.944947666666664, "is_disabled": 0, "lon": -77.02332666666666, "is_reserved": 0, "fusion_lon": 0.0, "fusion_lat": 0.0, "name": "33c0a190de0385db23d2e5f1afa395df", "type": "electric_scooter", "rental_uris": {"ios": "https://dc.lft.to/lastmile_qr_scan", "android": "https://dc.lft.to/lastmile_qr_scan"}, "bike_id": "33c0a190de0385db23d2e5f1afa395df"}, {"lat": 38.9005765, "is_disabled": 0, "lon": -77.05061416666666, "is_reserved": 0, "fusion_lon": 0.0, "fusion_lat": 0.0, "name": "7b89dfc2d70da5c050d272d6df9692e5", "type": "electric_scooter", "rental_uris": {"ios": "https://dc.lft.to/lastmile_qr_scan", "android": "https://dc.lft.to/lastmile_qr_scan"}, "bike_id": "7b89dfc2d70da5c050d272d6df9692e5"}, {"lat": 38.92972566666667, "is_disabled": 0, "lon": -77.027896, "is_reserved": 0, "fusion_lon": 0.0, "fusion_lat": 0.0, "name": "6dccac3b085352389ef3154b670466d8", "type": "electric_scooter", "rental_uris": {"ios": "https://dc.lft.to/lastmile_qr_scan", "android": "https://dc.lft.to/lastmile_qr_scan"}, "bike_id": "6dccac3b085352389ef3154b670466d8"}, {"lat": 38.9222725, "is_disabled": 0, "lon": -76.983723, "is_reserved": 0, "fusion_lon": 0.0, "fusion_lat": 0.0, "name": "cda8d517e8cbbb1832ebb410dd8325b4", "type": "electric_scooter", "rental_uris": {"ios": "https://dc.lft.to/lastmile_qr_scan", "android": "https://dc.lft.to/lastmile_qr_scan"}, "bike_id": "cda8d517e8cbbb1832ebb410dd8325b4"}, {"lat": 38.894777833333336, "is_disabled": 0, "lon": -77.01679066666667, "is_reserved": 0, "fusion_lon": 0.0, "fusion_lat": 0.0, "name": "b3df7174a9f701b8c655c91cf1dfc299", "type": "electric_scooter", "rental_uris": {"ios": "https://dc.lft.to/lastmile_qr_scan", "android": "https://dc.lft.to/lastmile_qr_scan"}, "bike_id": "b3df7174a9f701b8c655c91cf1dfc299"}, {"lat": 38.9561745, "is_disabled": 0, "lon": -77.03298366666667, "is_reserved": 0, "fusion_lon": 0.0, "fusion_lat": 0.0, "name": "6a30be8dc25c398b8682a6692f975bc5", "type": "electric_scooter", "rental_uris": {"ios": "https://dc.lft.to/lastmile_qr_scan", "android": "https://dc.lft.to/lastmile_qr_scan"}, "bike_id": "6a30be8dc25c398b8682a6692f975bc5"}, {"lat": 38.921729666666664, "is_disabled": 0, "lon": -77.04225716666667, "is_reserved": 0, "fusion_lon": 0.0, "fusion_lat": 0.0, "name": "6a1806bac1d5680e3b957945710e6d5f", "type": "electric_scooter", "rental_uris": {"ios": "https://dc.lft.to/lastmile_qr_scan", "android": "https://dc.lft.to/lastmile_qr_scan"}, "bike_id": "6a1806bac1d5680e3b957945710e6d5f"}, {"lat": 38.8802835, "is_disabled": 0, "lon": -76.91721616666666, "is_reserved": 0, "fusion_lon": 0.0, "fusion_lat": 0.0, "name": "b93e8af077d0ebe9add30f8b239d997d", "type": "electric_bike", "rental_uris": {"ios": "https://dc.lft.to/lastmile_qr_scan", "android": "https://dc.lft.to/lastmile_qr_scan"}, "bike_id": "b93e8af077d0ebe9add30f8b239d997d"}, {"lat": 38.898317166666665, "is_disabled": 0, "lon": -77.04991233333334, "is_reserved": 0, "fusion_lon": 0.0, "fusion_lat": 0.0, "name": "d36cc8bb44bf414ae789720bce3cd62f", "type": "electric_scooter", "rental_uris": {"ios": "https://dc.lft.to/lastmile_qr_scan", "android": "https://dc.lft.to/lastmile_qr_scan"}, "bike_id": "d36cc8bb44bf414ae789720bce3cd62f"}, {"lat": 38.90246833333333, "is_disabled": 0, "lon": -77.01743616666667, "is_reserved": 0, "fusion_lon": 0.0, "fusion_lat": 0.0, "name": "d0f52a918999dfa113e5fde2df09df5a", "type": "electric_scooter", "rental_uris": {"ios": "https://dc.lft.to/lastmile_qr_scan", "android": "https://dc.lft.to/lastmile_qr_scan"}, "bike_id": "d0f52a918999dfa113e5fde2df09df5a"}, {"lat": 38.9240675, "is_disabled": 0, "lon": -77.0248425, "is_reserved": 0, "fusion_lon": 0.0, "fusion_lat": 0.0, "name": "e3995cd5892ef1f84f9db4f4ff392c37", "type": "electric_scooter", "rental_uris": {"ios": "https://dc.lft.to/lastmile_qr_scan", "android": "https://dc.lft.to/lastmile_qr_scan"}, "bike_id": "e3995cd5892ef1f84f9db4f4ff392c37"}, {"lat": 38.90607333333333, "is_disabled": 0, "lon": -77.06377283333333, "is_reserved": 0, "fusion_lon": 0.0, "fusion_lat": 0.0, "name": "aac9bee596dff37f99e5728da0fdbe34", "type": "electric_scooter", "rental_uris": {"ios": "https://dc.lft.to/lastmile_qr_scan", "android": "https://dc.lft.to/lastmile_qr_scan"}, "bike_id": "aac9bee596dff37f99e5728da0fdbe34"}, {"lat": 38.943129166666665, "is_disabled": 0, "lon": -77.06150466666666, "is_reserved": 0, "fusion_lon": 0.0, "fusion_lat": 0.0, "name": "89833c8a9d70cfcf110f481b4a730854", "type": "electric_scooter", "rental_uris": {"ios": "https://dc.lft.to/lastmile_qr_scan", "android": "https://dc.lft.to/lastmile_qr_scan"}, "bike_id": "89833c8a9d70cfcf110f481b4a730854"}, {"lat": 38.902897833333334, "is_disabled": 0, "lon": -77.0242485, "is_reserved": 0, "fusion_lon": 0.0, "fusion_lat": 0.0, "name": "70d17e054d3122f6d8f41ccf7fb4746a", "type": "electric_scooter", "rental_uris": {"ios": "https://dc.lft.to/lastmile_qr_scan", "android": "https://dc.lft.to/lastmile_qr_scan"}, "bike_id": "70d17e054d3122f6d8f41ccf7fb4746a"}, {"lat": 38.90463883333334, "is_disabled": 0, "lon": -77.02815216666667, "is_reserved": 0, "fusion_lon": 0.0, "fusion_lat": 0.0, "name": "009b2f2a7188dcd246a476687615aaec", "type": "electric_scooter", "rental_uris": {"ios": "https://dc.lft.to/lastmile_qr_scan", "android": "https://dc.lft.to/lastmile_qr_scan"}, "bike_id": "009b2f2a7188dcd246a476687615aaec"},