{"data": {"bikes": [{"lon": -77.03291866666666, "bike_id": "a66763e0a823953609c4adc72d1d4321", "lat": 38.956519, "fusion_lon": 0.0, "fusion_lat": 0.0, "type": "electric_scooter", "name": "a66763e0a823953609c4adc72d1d4321", "is_disabled": 0, "rental_uris": {"ios": "https://dc.lft.to/lastmile_qr_scan", "android": "https://dc.lft.to/lastmile_qr_scan"}, "is_reserved": 0}, {"lon": -77.03864433333334, "bike_id": "2f3af4c709da5bf52d1ded942c850e3b", "lat": 38.90655116666667, "fusion_lon": 0.0, "fusion_lat": 0.0, "type": "electric_scooter", "name": "2f3af4c709da5bf52d1ded942c850e3b", "is_disabled": 0, "rental_uris": {"ios": "https://dc.lft.to/lastmile_qr_scan", "android": "https://dc.lft.to/lastmile_qr_scan"}, "is_reserved": 0}, {"lon": -76.87495216666667, "bike_id": "514055dc2bf5c5df3de827d85f4ab382", "lat": 38.99090433333333, "fusion_lon": 0.0, "fusion_lat": 0.0, "type": "electric_bike", "name": "514055dc2bf5c5df3de827d85f4ab382", "is_disabled": 0, "rental_uris": {"ios": "https://dc.lft.to/lastmile_qr_scan", "android": "https://dc.lft.to/lastmile_qr_scan"}, "is_reserved": 0}, {"lon": -77.02565733333333, "bike_id": "cf6d53a138e48c8e30b10868ee3aaa43", "lat": 38.938608333333335, "fusion_lon": 0.0, "fusion_lat": 0.0, "type": "electric_scooter", "name": "cf6d53a138e48c8e30b10868ee3aaa43", "is_disabled": 0, "rental_uris": {"ios": "https://dc.lft.to/lastmile_qr_scan", "android": "https://dc.lft.to/lastmile_qr_scan"}, "is_reserved": 0}, {"lon": -77.02724316666666, "bike_id": "e6fdc6429e1da37a802fba2465088675", "lat": 38.897136333333336, "fusion_lon": 0.0, "fusion_lat": 0.0, "type": "electric_scooter", "name": "e6fdc6429e1da37a802fba2465088675", "is_disabled": 0, "rental_uris": {"ios": "https://dc.lft.to/lastmile_qr_scan", "android": "https://dc.lft.to/lastmile_qr_scan"}, "is_reserved": 0}, {"lon": -76.95746866666667, "bike_id": "e4044f896b306a6c3737a68dd5fa0cc4", "lat": 38.884266333333336, "fusion_lon": 0.0, "fusion_lat": 0.0, "type": "electric_scooter", "name": "e4044f896b306a6c3737a68dd5fa0cc4", "is_disabled": 0, "rental_uris": {"ios": "https://dc.lft.to/lastmile_qr_scan", "android": "https://dc.lft.to/lastmile_qr_scan"}, "is_reserved": 0}, {"lon": -76.99884066666667, "bike_id": "efad218529d28e729d27142560352dc2", "lat": 38.92056, "fusion_lon": 0.0, "fusion_lat": 0.0, "type": "electric_scooter", "name": "efad218529d28e729d27142560352dc2", "is_disabled": 0, "rental_uris": {"ios": "https://dc.lft.to/lastmile_qr_scan", "android": "https://dc.lft.to/lastmile_qr_scan"}, "is_reserved": 0}, {"lon": -77.0320235, "bike_id": "5dfad69787ea1853475ae6f4ba93ed9a", "lat": 38.90360616666667, "fusion_lon": 0.0, "fusion_lat": 0.0, "type": "electric_scooter", "name": "5dfad69787ea1853475ae6f4ba93ed9a", "is_disabled": 0, "rental_uris": {"ios": "https://dc.lft.to/lastmile_qr_scan", "android": "https://dc.lft.to/lastmile_qr_scan"}, "is_reserved": 0}, {"lon": -77.0065505, "bike_id": "4edf2fa97433be51d7d7e7b5157161a9", "lat": 38.838961833333336, "fusion_lon": 0.0, "fusion_lat": 0.0, "type": "electric_scooter", "name": "4edf2fa97433be51d7d7e7b5157161a9", "is_disabled": 0, "rental_uris": {"ios": "https://dc.lft.to/lastmile_qr_scan", "android": "https://dc.lft.to/lastmile_qr_scan"}, "is_reserved": 0}, {"lon": -76.9301015, "bike_id": "7937f8d9031ed1e0660ade8299e3119e", "lat": 38.89646233333333, "fusion_lon": 0.0, "fusion_lat": 0.0, "type": "electric_bike", "name": "7937f8d9031ed1e0660ade8299e3119e", "is_disabled": 0, "rental_uris": {"ios": "https://dc.lft.to/lastmile_qr_scan", "android": "https://dc.lft.to/lastmile_qr_scan"}, "is_reserved": 0}, {"lon": -77.03264416666667, "bike_id": "faa8fd46d884e94dcd64ca5b6dbe4c28", "lat": 38.9389045, "fusion_lon": 0.0, "fusion_lat": 0.0, "type": "electric_scooter", "name": "faa8fd46d884e94dcd64ca5b6dbe4c28", "is_disabled": 0, "rental_uris": {"ios": "https://dc.lft.to/lastmile_qr_scan", "android": "https://dc.lft.to/lastmile_qr_scan"}, "is_reserved": 0}, {"lon": -76.93174616666667, "bike_id": "4b53b357aa651ee3ba35b4f0c49fdc4b", "lat": 38.898831666666666, "fusion_lon": 0.0, "fusion_lat": 0.0, "type": "electric_scooter", "name": "4b53b357aa651ee3ba35b4f0c49fdc4b", "is_disabled": 0, "rental_uris": {"ios": "https://dc.lft.to/lastmile_qr_scan", "android": "https://dc.lft.to/lastmile_qr_scan"}, "is_reserved": 0}, {"lon": -77.04146416666667, "bike_id": "a00e36ed9ca314c9f1faf933bdf36ed8", "lat": 38.90319383333333, "fusion_lon": 0.0, "fusion_lat": 0.0, "type": "electric_scooter", "name": "a00e36ed9ca314c9f1faf933bdf36ed8", "is_disabled": 0, "rental_uris": {"ios": "https://dc.lft.to/lastmile_qr_scan", "android": "https://dc.lft.to/lastmile_qr_scan"}, "is_reserved": 0}, {"lon": -77.05028033333333, "bike_id": "b2a1bcf29eff79c50f889aef1265652c", "lat": 38.90541833333333, "fusion_lon": 0.0, "fusion_lat": 0.0, "type": "electric_scooter", "name": "b2a1bcf29eff79c50f889aef1265652c", "is_disabled": 0, "rental_uris": {"ios": "https://dc.lft.to/lastmile_qr_scan", "android": "https://dc.lft.to/lastmile_qr_scan"}, "is_reserved": 0}, {"lon": -77.03275433333333, "bike_id": "b4aa04bc800fdf5c2b0aaeb17ad615d8", "lat": 38.91984866666667, "fusion_lon": 0.0, "fusion_lat": 0.0, "type": "electric_scooter", "name": "b4aa04bc800fdf5c2b0aaeb17ad615d8", "is_disabled": 0, "rental_uris": {"ios": "https://dc.lft.to/lastmile_qr_scan", "android": "https://dc.lft.to/lastmile_qr_scan"}, "is_reserved": 0}, {"lon": -76.9722505, "bike_id": "7ca09a37d51ebf0763c8aabbcf1a80da", "lat": 38.900316, "fusion_lon": 0.0, "fusion_lat": 0.0, "type": "electric_bike", "name": "7ca09a37d51ebf0763c8aabbcf1a80da", "is_disabled": 0, "rental_uris": {"ios": "https://dc.lft.to/lastmile_qr_scan", "android": "https://dc.lft.to/lastmile_qr_scan"}, "is_reserved": 0}, {"lon": -77.02838583333333, "bike_id": "193ebca24e584c6539c5cd1ab55758dd", "lat": 38.9257515, "fusion_lon": 0.0, "fusion_lat": 0.0, "type": "electric_scooter", "name": "193ebca24e584c6539c5cd1ab55758dd", "is_disabled": 0, "rental_uris": {"ios": "https://dc.lft.to/lastmile_qr_scan", "android": "https://dc.lft.to/lastmile_qr_scan"}, "is_reserved": 0}, {"lon": -77.05052866666666, "bike_id": "23a3b3da9d4caf5813e37c3d3fee8fc9", "lat": 38.901646666666664, "fusion_lon": 0.0, "fusion_lat": 0.0, "type": "electric_scooter", "name": "23a3b3da9d4caf5813e37c3d3fee8fc9", "is_disabled": 0, "rental_uris": {"ios": "https://dc.lft.to/lastmile_qr_scan", "android": "https://dc.lft.to/lastmile_qr_scan"}, "is_reserved": 0}, {"lon": -77.02137216666667, "bike_id": "fdea590b15259a00aac67cd5d8d6ab14", "lat": 38.897114333333334, "fusion_lon": 0.0, "fusion_lat": 0.0, "type": "electric_scooter", "name": "fdea590b15259a00aac67cd5d8d6ab14", "is_disabled": 0, "rental_uris": {"ios": "https://dc.lft.to/lastmile_qr_scan", "android": "https://dc.lft.to/lastmile_qr_scan"}, "is_reserved": 0}, {"lon": -77.03246166666666, "bike_id": "b44a3373ba78080b9108100b9b85b35f", "lat": 38.896773, "fusion_lon": 0.0, "fusion_lat": 0.0, "type": "electric_scooter", "name": "b44a3373ba78080b9108100b9b85b35f", "is_disabled": 0, "rental_uris": {"ios": "https://dc.lft.to/lastmile_qr_scan", "android": "https://dc.lft.to/lastmile_qr_scan"}, "is_reserved": 0}, {"lon": -77.06714266666667, "bike_id": "6e3d60b2d771f166fd215ccbcf810b24", "lat": 38.914333, "fusion_lon": 0.0, "fusion_lat": 0.0, "type": "electric_scooter", "name": "6e3d60b2d771f166fd215ccbcf810b24", "is_disabled": 0, "rental_uris": {"ios": "https://dc.lft.to/lastmile_qr_scan", "android": "https://dc.lft.to/lastmile_qr_scan"}, "is_reserved": 0}, {"lon": -77.02488933333333, "bike_id": "fa76db2fb8e4bfcc7d9e469a8c2670ce", "lat": 38.91689066666667, "fusion_lon": 0.0, "fusion_lat": 0.0, "type": "electric_scooter", "name": "fa76db2fb8e4bfcc7d9e469a8c2670ce", "is_disabled": 0, "rental_uris": {"ios": "https://dc.lft.to/lastmile_qr_scan", "android": "https://dc.lft.to/lastmile_qr_scan"}, "is_reserved": 0}, {"lon": -77.0386175, "bike_id": "b29ea2b6e7beb3b23e84a3feda0dc5f6", "lat": 38.90651316666667, "fusion_lon": 0.0, "fusion_lat": 0.0, "type": "electric_scooter", "name": "b29ea2b6e7beb3b23e84a3feda0dc5f6", "is_disabled": 0, "rental_uris": {"ios": "https://dc.lft.to/lastmile_qr_scan", "android": "https://dc.lft.to/lastmile_qr_scan"}, "is_reserved": 0}, {"lon": -77.02398266666667, "bike_id": "69a5dd7e99b0aee6d68c99e5891cb3fd", "lat": 38.916839833333334, "fusion_lon": 0.0, "fusion_lat": 0.0, "type": "electric_scooter", "name": "69a5dd7e99b0aee6d68c99e5891cb3fd", "is_disabled": 0, "rental_uris": {"ios": "https://dc.lft.to/lastmile_qr_scan", "android": "https://dc.lft.to/lastmile_qr_scan"}, "is_reserved": 0}, {"lon": -77.07376966666666, "bike_id": "8a4705e94090e46ac5b8cee38f1f0164", "lat": 38.96208016666667, "fusion_lon": 0.0, "fusion_lat": 0.0, "type": "electric_bike", "name": "8a4705e94090e46ac5b8cee38f1f0164", "is_disabled": 0, "rental_uris": {"ios": "https://dc.lft.to/lastmile_qr_scan", "android": "https://dc.lft.to/lastmile_qr_scan"}, "is_reserved": 0}, {"lon": -76.929967, "bike_id": "07916a4492a51e207694f92a4b9b8cde", "lat": 38.901837666666665, "fusion_lon": 0.0, "fusion_lat": 0.0, "type": "electric_scooter", "name": "07916a4492a51e207694f92a4b9b8cde", "is_disabled": 0, "rental_uris": {"ios": "https://dc.lft.to/lastmile_qr_scan", "android": "https://dc.lft.to/lastmile_qr_scan"}, "is_reserved": 0}, {"lon": -77.01206666666667, "bike_id": "47a731138583f817f71e87e4a3e5d719", "lat": 38.870852166666666, "fusion_lon": 0.0, "fusion_lat": 0.0, "type": "electric_bike", "name": "47a731138583f817f71e87e4a3e5d719", "is_disabled": 0, "rental_uris": {"ios": "https://dc.lft.to/lastmile_qr_scan", "android": "https://dc.lft.to/lastmile_qr_scan"}, "is_reserved": 0}, {"lon": -77.02098433333333, "bike_id": "cacf31712a4c36e90f2736ada5034c6a", "lat": 38.93444916666667, "fusion_lon": 0.0, "fusion_lat": 0.0, "type": "electric_bike", "name": "cacf31712a4c36e90f2736ada5034c6a", "is_disabled": 0, "rental_uris": {"ios": "https://dc.lft.to/lastmile_qr_scan", "android": "https://dc.lft.to/lastmile_qr_scan"}, "is_reserved": 0}, {"lon": -77.02223183333334, "bike_id": "778c6db48f27011e591e0cb1b90faf35", "lat": 38.9355065, "fusion_lon": 0.0, "fusion_lat": 0.0, "type": "electric_scooter", "name": "778c6db48f27011e591e0cb1b90faf35", "is_disabled": 0, "rental_uris": {"ios": "https://dc.lft.to/lastmile_qr_scan", "android": "https://dc.lft.to/lastmile_qr_scan"}, "is_reserved": 0}, {"lon": -77.014394, "bike_id": "b34ede3ca500893d7865b18baf3a11bc", "lat": 38.87940483333333, "fusion_lon": 0.0, "fusion_lat": 0.0, "type": "electric_bike", "name": "b34ede3ca500893d7865b18baf3a11bc", "is_disabled": 0, "rental_uris": {"ios": "https://dc.lft.to/lastmile_qr_scan", "android": "https://dc.lft.to/lastmile_qr_scan"}, "is_reserved": 0}, {"lon": -77.03192816666666, "bike_id": "e574f8358a2f488457c5a58729903a01", "lat": 38.91835783333333, "fusion_lon": 0.0, "fusion_lat": 0.0, "type": "electric_scooter", "name": "e574f8358a2f488457c5a58729903a01", "is_disabled": 0, "rental_uris": {"ios": "https://dc.lft.to/lastmile_qr_scan", "android": "https://dc.lft.to/lastmile_qr_scan"}, "is_reserved": 0}, {"lon": -77.02089983333333, "bike_id": "1b5abdbd6a0cd194aef51c12254dce9c", "lat": 38.95755166666667, "fusion_lon": 0.0, "fusion_lat": 0.0, "type": "electric_scooter", "name": "1b5abdbd6a0cd194aef51c12254dce9c", "is_disabled": 0, "rental_uris": {"ios": "https://dc.lft.to/lastmile_qr_scan", "android": "https://dc.lft.to/lastmile_qr_scan"}, "is_reserved": 0}, {"lon": -77.0442035, "bike_id": "e38c1be11c3dcef9e86b3a43ed73d36d", "lat": 38.9113015, "fusion_lon": 0.0, "fusion_lat": 0.0, "type": "electric_scooter", "name": "e38c1be11c3dcef9e86b3a43ed73d36d", "is_disabled": 0, "rental_uris": {"ios": "https://dc.lft.to/lastmile_qr_scan", "android": "https://dc.lft.to/lastmile_qr_scan"}, "is_reserved": 0}, {"lon": -77.00744283333333, "bike_id": "b92365cd1bdf8df5e1ae1c53e9a9caf3", "lat": 38.89834283333333, "fusion_lon": 0.0, "fusion_lat": 0.0, "type": "electric_scooter", "name": "b92365cd1bdf8df5e1ae1c53e9a9caf3", "is_disabled": 0, "rental_uris": {"ios": "https://dc.lft.to/lastmile_qr_scan", "android": "https://dc.lft.to/lastmile_qr_scan"}, "is_reserved": 0}, {"lon": -77.03177866666667, "bike_id": "533d0c09aad06691f5b670ec77f541ad", "lat": 38.91827266666667, "fusion_lon": 0.0, "fusion_lat": 0.0, "type": "electric_scooter", "name": "533d0c09aad06691f5b670ec77f541ad", "is_disabled": 0, "rental_uris": {"ios": "https://dc.lft.to/lastmile_qr_scan", "android": "https://dc.lft.to/lastmile_qr_scan"}, "is_reserved": 0}, {"lon": -77.03930483333333, "bike_id": "3061cc87ec22ccf7272d16f8759b195f", "lat": 38.92620466666666, "fusion_lon": 0.0, "fusion_lat": 0.0, "type": "electric_scooter", "name": "3061cc87ec22ccf7272d16f8759b195f", "is_disabled": 0, "rental_uris": {"ios": "https://dc.lft.to/lastmile_qr_scan", "android": "https://dc.lft.to/lastmile_qr_scan"}, "is_reserved": 0}, {"lon": -76.9457245, "bike_id": "862f02e83d63998b38c9509448ee55f1", "lat": 38.866200166666665, "fusion_lon": 0.0, "fusion_lat": 0.0, "type": "electric_bike", "name": "862f02e83d63998b38c9509448ee55f1", "is_disabled": 0, "rental_uris": {"ios": "https://dc.lft.to/lastmile_qr_scan", "android": "https://dc.lft.to/lastmile_qr_scan"}, "is_reserved": 0}, {"lon": -77.05573616666666, "bike_id": "c4420e4705c5afd9dcd1791687fbd11c", "lat": 38.915955833333335, "fusion_lon": 0.0, "fusion_lat": 0.0, "type": "electric_scooter", "name": "c4420e4705c5afd9dcd1791687fbd11c", "is_disabled": 0, "rental_uris": {"ios": "https://dc.lft.to/lastmile_qr_scan", "android": "https://dc.lft.to/lastmile_qr_scan"}, "is_reserved": 0}, {"lon": -77.0411225, "bike_id": "0735e6e6024e490d2ba0f92893fe8e13", "lat": 38.898378666666666, "fusion_lon": 0.0, "fusion_lat": 0.0, "type": "electric_scooter", "name": "0735e6e6024e490d2ba0f92893fe8e13", "is_disabled": 0, "rental_uris": {"ios": "https://dc.lft.to/lastmile_qr_scan", "android": "https://dc.lft.to/lastmile_qr_scan"}, "is_reserved": 0}, {"lon": -76.99003533333334, "bike_id": "0028661c6df4f097313ca93c9c75a64e", "lat": 38.86504466666667, "fusion_lon": 0.0, "fusion_lat": 0.0, "type": "electric_scooter", "name": "0028661c6df4f097313ca93c9c75a64e", "is_disabled": 0, "rental_uris": {"ios": "https://dc.lft.to/lastmile_qr_scan", "android": "https://dc.lft.to/lastmile_qr_scan"}, "is_reserved": 0}, {"lon": -77.04701066666667, "bike_id": "77dfdf7710635523e7080005a2c6e987", "lat": 38.92180466666667, "fusion_lon": 0.0, "fusion_lat": 0.0, "type": "electric_scooter", "name": "77dfdf7710635523e7080005a2c6e987", "is_disabled": 0, "rental_uris": {"ios": "https://dc.lft.to/lastmile_qr_scan", "android": "https://dc.lft.to/lastmile_qr_scan"}, "is_reserved": 0}, {"lon": -77.04694916666666, "bike_id": "1f71176d3996774af600fd92a2d5162c", "lat": 38.92135433333333, "fusion_lon": 0.0, "fusion_lat": 0.0, "type": "electric_scooter", "name": "1f71176d3996774af600fd92a2d5162c", "is_disabled": 0, "rental_uris": {"ios": "https://dc.lft.to/lastmile_qr_scan", "android": "https://dc.lft.to/lastmile_qr_scan"}, "is_reserved": 0}, {"lon": -77.04649383333333, "bike_id": "956462cce0c58c755b197e2835b577fc", "lat": 38.91425733333333, "fusion_lon": 0.0, "fusion_lat": 0.0, "type": "electric_scooter", "name": "956462cce0c58c755b197e2835b577fc", "is_disabled": 0, "rental_uris": {"ios": "https://dc.lft.to/lastmile_qr_scan", "android": "https://dc.lft.to/lastmile_qr_scan"}, "is_reserved": 0}, {"lon": -77.02754783333333, "bike_id": "265c7134c769d066560f5fb8a9042f5b", "lat": 38.91692466666667, "fusion_lon": 0.0, "fusion_lat": 0.0, "type": "electric_scooter", "name": "265c7134c769d066560f5fb8a9042f5b", "is_disabled": 0, "rental_uris": {"ios": "https://dc.lft.to/lastmile_qr_scan", "android": "https://dc.lft.to/lastmile_qr_scan"}, "is_reserved": 0}, {"lon": -76.99293366666667, "bike_id": "453ce6dde38377d77a52c1f1de46e851", "lat": 38.898885666666665, "fusion_lon": 0.0, "fusion_lat": 0.0, "type": "electric_scooter", "name": "453ce6dde38377d77a52c1f1de46e851", "is_disabled": 0, "rental_uris": {"ios": "https://dc.lft.to/lastmile_qr_scan", "android": "https://dc.lft.to/lastmile_qr_scan"}, "is_reserved": 0}, {"lon": -77.0265525, "bike_id": "c34f2d9b8840ede1e187af2fd428bf87", "lat": 38.917002333333336, "fusion_lon": 0.0, "fusion_lat": 0.0, "type": "electric_scooter", "name": "c34f2d9b8840ede1e187af2fd428bf87", "is_disabled": 0, "rental_uris": {"ios": "https://dc.lft.to/lastmile_qr_scan", "android": "https://dc.lft.to/lastmile_qr_scan"}, "is_reserved": 0}, {"lon": -77.0554625, "bike_id": "c1cc19baed2ec94ed468eea116b6274d", "lat": 38.93008533333333, "fusion_lon": 0.0, "fusion_lat": 0.0, "type": "electric_scooter", "name": "c1cc19baed2ec94ed468eea116b6274d", "is_disabled": 0, "rental_uris": {"ios": "https://dc.lft.to/lastmile_qr_scan", "android": "https://dc.lft.to/lastmile_qr_scan"}, "is_reserved": 0}, {"lon": -77.00383366666667, "bike_id": "9e013ea8543211554d860c2e460da837", "lat": 38.836016666666666, "fusion_lon": 0.0, "fusion_lat": 0.0, "type": "electric_bike", "name": "9e013ea8543211554d860c2e460da837", "is_disabled": 0, "rental_uris": {"ios": "https://dc.lft.to/lastmile_qr_scan", "android": "https://dc.lft.to/lastmile_qr_scan"}, "is_reserved": 0}, {"lon": -77.045173, "bike_id": "b21f25723f993bda97761c70d4c57d6d", "lat": 38.923217666666666, "fusion_lon": 0.0, "fusion_lat": 0.0, "type": "electric_scooter", "name": "b21f25723f993bda97761c70d4c57d6d", "is_disabled": 0, "rental_uris": {"ios": "https://dc.lft.to/lastmile_qr_scan", "android": "https://dc.lft.to/lastmile_qr_scan"}, "is_reserved": 0}, {"lon": -77.03555633333333, "bike_id": "c2052bba1f51ecd92b00610c0f72a3f5", "lat": 38.9246605, "fusion_lon": 0.0, "fusion_lat": 0.0, "type": "electric_scooter", "name": "c2052bba1f51ecd92b00610c0f72a3f5", "is_disabled": 0, "rental_uris": {"ios": "https://dc.lft.to/lastmile_qr_scan", "android": "https://dc.lft.to/lastmile_qr_scan"}, "is_reserved": 0}, {"lon": -77.0374625, "bike_id": "ee15604e24d5cedb67d1b37aa953ff98", "lat": 38.929173666666664, "fusion_lon": 0.0, "fusion_lat": 0.0, "type": "electric_scooter", "name": "ee15604e24d5cedb67d1b37aa953ff98", "is_disabled": 0, "rental_uris": {"ios": "https://dc.lft.to/lastmile_qr_scan", "android": "https://dc.lft.to/lastmile_qr_scan"}, "is_reserved": 0}, {"lon": -77.04226733333333, "bike_id": "2a79b724821568f42f1aabf0a73c2bd3", "lat": 38.913245833333335, "fusion_lon": 0.0, "fusion_lat": 0.0, "type": "electric_scooter", "name": "2a79b724821568f42f1aabf0a73c2bd3", "is_disabled": 0, "rental_uris": {"ios": "https://dc.lft.to/lastmile_qr_scan", "android": "https://dc.lft.to/lastmile_qr_scan"}, "is_reserved": 0}, {"lon": -77.050479, "bike_id": "ff369b7129997d914631346ab99ab0cf", "lat": 38.923594333333334, "fusion_lon": 0.0, "fusion_lat": 0.0, "type": "electric_scooter", "name": "ff369b7129997d914631346ab99ab0cf", "is_disabled": 0, "rental_uris": {"ios": "https://dc.lft.to/lastmile_qr_scan", "android": "https://dc.lft.to/lastmile_qr_scan"}, "is_reserved": 0}, {"lon": -77.03484716666667, "bike_id": "36c7a9270540ca0baaee001c26d3a1c3", "lat": 38.934421666666665, "fusion_lon": 0.0, "fusion_lat": 0.0, "type": "electric_scooter", "name": "36c7a9270540ca0baaee001c26d3a1c3", "is_disabled": 0, "rental_uris": {"ios": "https://dc.lft.to/lastmile_qr_scan", "android": "https://dc.lft.to/lastmile_qr_scan"}, "is_reserved": 0}, {"lon": -77.0251065, "bike_id": "7046e275e6b6654b9c3662880d1b17fe", "lat": 38.92071583333333, "fusion_lon": 0.0, "fusion_lat": 0.0, "type": "electric_scooter", "name": "7046e275e6b6654b9c3662880d1b17fe", "is_disabled": 0, "rental_uris": {"ios": "https://dc.lft.to/lastmile_qr_scan", "android": "https://dc.lft.to/lastmile_qr_scan"}, "is_reserved": 0}, {"lon": -77.02167283333333, "bike_id": "5f67a90e962d36d945b0e08bd3af6148", "lat": 38.92994816666667, "fusion_lon": 0.0, "fusion_lat": 0.0, "type": "electric_scooter", "name": "5f67a90e962d36d945b0e08bd3af6148", "is_disabled": 0, "rental_uris": {"ios": "https://dc.lft.to/lastmile_qr_scan", "android": "https://dc.lft.to/lastmile_qr_scan"}, "is_reserved": 0}, {"lon": -77.03266666666667, "bike_id": "96aa3eccf17968344186a17b22a193da", "lat": 38.93208816666667, "fusion_lon": 0.0, "fusion_lat": 0.0, "type": "electric_scooter", "name": "96aa3eccf17968344186a17b22a193da", "is_disabled": 0, "rental_uris": {"ios": "https://dc.lft.to/lastmile_qr_scan", "android": "https://dc.lft.to/lastmile_qr_scan"}, "is_reserved": 0}, {"lon": -77.058095, "bike_id": "5499e9f722d7920d83b3c6f737b17005", "lat": 38.823949, "fusion_lon": 0.0, "fusion_lat": 0.0, "type": "electric_bike", "name": "5499e9f722d7920d83b3c6f737b17005", "is_disabled": 0, "rental_uris": {"ios": "https://dc.lft.to/lastmile_qr_scan", "android": "https://dc.lft.to/lastmile_qr_scan"}, "is_reserved": 0}, {"lon": -76.987201, "bike_id": "8f3471bfcaad2023952c4ef92b94837c", "lat": 38.86630566666667, "fusion_lon": 0.0, "fusion_lat": 0.0, "type": "electric_scooter", "name": "8f3471bfcaad2023952c4ef92b94837c", "is_disabled": 0, "rental_uris": {"ios": "https://dc.lft.to/lastmile_qr_scan", "android": "https://dc.lft.to/lastmile_qr_scan"}, "is_reserved": 0}, {"lon": -77.02119733333333, "bike_id": "7e317f1d2e82d124e497d2c2e4f26a15", "lat": 38.9223965, "fusion_lon": 0.0, "fusion_lat": 0.0, "type": "electric_scooter", "name": "7e317f1d2e82d124e497d2c2e4f26a15", "is_disabled": 0, "rental_uris": {"ios": "https://dc.lft.to/lastmile_qr_scan", "android": "https://dc.lft.to/lastmile_qr_scan"}, "is_reserved": 0}, {"lon": -77.074372, "bike_id": "23ecb68f659eb91c7ca4a0b88f349554", "lat": 38.999464333333336, "fusion_lon": 0.0, "fusion_lat": 0.0, "type": "electric_bike", "name": "23ecb68f659eb91c7ca4a0b88f349554", "is_disabled": 0, "rental_uris": {"ios": "https://dc.lft.to/lastmile_qr_scan", "android": "https://dc.lft.to/lastmile_qr_scan"}, "is_reserved": 0}, {"lon": -77.052153, "bike_id": "0959606e9d47d3a1c883b0f95683d1b0", "lat": 38.92483033333333, "fusion_lon": 0.0, "fusion_lat": 0.0, "type": "electric_scooter", "name": "0959606e9d47d3a1c883b0f95683d1b0", "is_disabled": 0, "rental_uris": {"ios": "https://dc.lft.to/lastmile_qr_scan", "android": "https://dc.lft.to/lastmile_qr_scan"}, "is_reserved": 0}, {"lon": -76.94925883333333, "bike_id": "e6c533ab96ac928e4ad9d861db6b8b6f", "lat": 38.8935495, "fusion_lon": 0.0, "fusion_lat": 0.0, "type": "electric_scooter", "name": "e6c533ab96ac928e4ad9d861db6b8b6f", "is_disabled": 0, "rental_uris": {"ios": "https://dc.lft.to/lastmile_qr_scan", "android": "https://dc.lft.to/lastmile_qr_scan"}, "is_reserved": 0}, {"lon": -76.98944166666666, "bike_id": "ebb28724b4f7e2865e0695aafee0d1c2", "lat": 38.903940166666665, "fusion_lon": 0.0, "fusion_lat": 0.0, "type": "electric_scooter", "name": "ebb28724b4f7e2865e0695aafee0d1c2", "is_disabled": 0, "rental_uris": {"ios": "https://dc.lft.to/lastmile_qr_scan", "android": "https://dc.lft.to/lastmile_qr_scan"}, "is_reserved": 0}, {"lon": -77.04151416666667, "bike_id": "bd944a3bb89950fa337ef147d6a471ed", "lat": 38.926536166666665, "fusion_lon": 0.0, "fusion_lat": 0.0, "type": "electric_scooter", "name": "bd944a3bb89950fa337ef147d6a471ed", "is_disabled": 0, "rental_uris": {"ios": "https://dc.lft.to/lastmile_qr_scan", "android": "https://dc.lft.to/lastmile_qr_scan"}, "is_reserved": 0}, {"lon": -77.06404333333333, "bike_id": "482749479246a664cd5c9f5b70c25b0b", "lat": 38.90782083333333, "fusion_lon": 0.0, "fusion_lat": 0.0, "type": "electric_scooter", "name": "482749479246a664cd5c9f5b70c25b0b", "is_disabled": 0, "rental_uris": {"ios": "https://dc.lft.to/lastmile_qr_scan", "android": "https://dc.lft.to/lastmile_qr_scan"}, "is_reserved": 0}, {"lon": -77.06770316666666, "bike_id": "5c28329d4bd307595ac9b957344081b9", "lat": 38.904985, "fusion_lon": 0.0, "fusion_lat": 0.0, "type": "electric_scooter", "name": "5c28329d4bd307595ac9b957344081b9", "is_disabled": 0, "rental_uris": {"ios": "https://dc.lft.to/lastmile_qr_scan", "android": "https://dc.lft.to/lastmile_qr_scan"}, "is_reserved": 0}, {"lon": -77.00295983333334, "bike_id": "d67f674632511cd2b019be4b7821773c", "lat": 38.90118666666667, "fusion_lon": 0.0, "fusion_lat": 0.0, "type": "electric_scooter", "name": "d67f674632511cd2b019be4b7821773c", "is_disabled": 0, "rental_uris": {"ios": "https://dc.lft.to/lastmile_qr_scan", "android": "https://dc.lft.to/lastmile_qr_scan"}, "is_reserved": 0}, {"lon": -77.03972683333333, "bike_id": "af45d260739bfd192ec8cefeccdc5204", "lat": 38.92795733333333, "fusion_lon": 0.0, "fusion_lat": 0.0, "type": "electric_scooter", "name": "af45d260739bfd192ec8cefeccdc5204", "is_disabled": 0, "rental_uris": {"ios": "https://dc.lft.to/lastmile_qr_scan", "android": "https://dc.lft.to/lastmile_qr_scan"}, "is_reserved": 0}, {"lon": -77.031723, "bike_id": "8fe2c703da264475341b9dfc88232e47", "lat": 38.899616, "fusion_lon": 0.0, "fusion_lat": 0.0, "type": "electric_scooter", "name": "8fe2c703da264475341b9dfc88232e47", "is_disabled": 0, "rental_uris": {"ios": "https://dc.lft.to/lastmile_qr_scan", "android": "https://dc.lft.to/lastmile_qr_scan"}, "is_reserved": 0}, {"lon": -77.03436116666667, "bike_id": "1695ee65190cf9d2188e3d08ecc4d1ff", "lat": 38.90424466666666, "fusion_lon": 0.0, "fusion_lat": 0.0, "type": "electric_scooter", "name": "1695ee65190cf9d2188e3d08ecc4d1ff", "is_disabled": 0, "rental_uris": {"ios": "https://dc.lft.to/lastmile_qr_scan", "android": "https://dc.lft.to/lastmile_qr_scan"}, "is_reserved": 0}, {"lon": -76.985301, "bike_id": "5b9bf08bf937ba929fd0d48517b2a923", "lat": 38.86686783333333, "fusion_lon": 0.0, "fusion_lat": 0.0, "type": "electric_scooter", "name": "5b9bf08bf937ba929fd0d48517b2a923", "is_disabled": 0, "rental_uris": {"ios": "https://dc.lft.to/lastmile_qr_scan", "android": "https://dc.lft.to/lastmile_qr_scan"}, "is_reserved": 0}, {"lon": -77.032797, "bike_id": "9a31bf1067208fa771cdb99896d70464", "lat": 38.912132, "fusion_lon": 0.0, "fusion_lat": 0.0, "type": "electric_scooter", "name": "9a31bf1067208fa771cdb99896d70464", "is_disabled": 0, "rental_uris": {"ios": "https://dc.lft.to/lastmile_qr_scan", "android": "https://dc.lft.to/lastmile_qr_scan"}, "is_reserved": 0}, {"lon": -76.96545216666667, "bike_id": "ccde4dd9877313e9a2cb69cea0087282", "lat": 38.918457, "fusion_lon": 0.0, "fusion_lat": 0.0, "type": "electric_scooter", "name": "ccde4dd9877313e9a2cb69cea0087282", "is_disabled": 0, "rental_uris": {"ios": "https://dc.lft.to/lastmile_qr_scan", "android": "https://dc.lft.to/lastmile_qr_scan"}, "is_reserved": 0}, {"lon": -77.23334116666666, "bike_id": "727b2a10377dff712dc2716a7d0eae2e", "lat": 38.872787833333334, "fusion_lon": 0.0, "fusion_lat": 0.0, "type": "electric_bike", "name": "727b2a10377dff712dc2716a7d0eae2e", "is_disabled": 0, "rental_uris": {"ios": "https://dc.lft.to/lastmile_qr_scan", "android": "https://dc.lft.to/lastmile_qr_scan"}, "is_reserved": 0}, {"lon": -76.988758, "bike_id": "4559952a828095043355b6faf66da03f", "lat": 38.8665855, "fusion_lon": 0.0, "fusion_lat": 0.0, "type": "electric_scooter", "name": "4559952a828095043355b6faf66da03f", "is_disabled": 0, "rental_uris": {"ios": "https://dc.lft.to/lastmile_qr_scan", "android": "https://dc.lft.to/lastmile_qr_scan"}, "is_reserved": 0}, {"lon": -77.0447545, "bike_id": "23890c586f806b2138f7f4442f766b4a", "lat": 38.89224083333333, "fusion_lon": 0.0, "fusion_lat": 0.0, "type": "electric_scooter", "name": "23890c586f806b2138f7f4442f766b4a", "is_disabled": 0, "rental_uris": {"ios": "https://dc.lft.to/lastmile_qr_scan", "android": "https://dc.lft.to/lastmile_qr_scan"}, "is_reserved": 0}, {"lon": -77.04998183333333, "bike_id": "31cce13729a072014969d7eac405c887", "lat": 38.8923025, "fusion_lon": 0.0, "fusion_lat": 0.0, "type": "electric_scooter", "name": "31cce13729a072014969d7eac405c887", "is_disabled": 0, "rental_uris": {"ios": "https://dc.lft.to/lastmile_qr_scan", "android": "https://dc.lft.to/lastmile_qr_scan"}, "is_reserved": 0}, {"lon": -77.0114055, "bike_id": "45e902fcab970bb8ab77cff17e9df82e", "lat": 38.906408166666665, "fusion_lon": 0.0, "fusion_lat": 0.0, "type": "electric_scooter", "name": "45e902fcab970bb8ab77cff17e9df82e", "is_disabled": 0, "rental_uris": {"ios": "https://dc.lft.to/lastmile_qr_scan", "android": "https://dc.lft.to/lastmile_qr_scan"}, "is_reserved": 0}, {"lon": -77.00105133333334, "bike_id": "315ad6d1244d9beba4d168892dc79891", "lat": 38.912421333333334, "fusion_lon": 0.0, "fusion_lat": 0.0, "type": "electric_scooter", "name": "315ad6d1244d9beba4d168892dc79891", "is_disabled": 0, "rental_uris": {"ios": "https://dc.lft.to/lastmile_qr_scan", "android": "https://dc.lft.to/lastmile_qr_scan"}, "is_reserved": 0}, {"lon": -77.022792, "bike_id": "12266bedd9df3b39ea21ea155b79fcad", "lat": 38.9183325, "fusion_lon": 0.0, "fusion_lat": 0.0, "type": "electric_scooter", "name": "12266bedd9df3b39ea21ea155b79fcad", "is_disabled": 0, "rental_uris": {"ios": "https://dc.lft.to/lastmile_qr_scan", "android": "https://dc.lft.to/lastmile_qr_scan"}, "is_reserved": 0}, {"lon": -77.0385585, "bike_id": "8c94d890d6ddbc80b81522d78df55dc5", "lat": 38.9154715, "fusion_lon": 0.0, "fusion_lat": 0.0, "type": "electric_scooter", "name": "8c94d890d6ddbc80b81522d78df55dc5", "is_disabled": 0, "rental_uris": {"ios": "https://dc.lft.to/lastmile_qr_scan", "android": "https://dc.lft.to/lastmile_qr_scan"}, "is_reserved": 0}, {"lon": -77.02217883333333, "bike_id": "d92a3892d0e404ddffd01a6d62b22ed1", "lat": 38.892184, "fusion_lon": 0.0, "fusion_lat": 0.0, "type": "electric_scooter", "name": "d92a3892d0e404ddffd01a6d62b22ed1", "is_disabled": 0, "rental_uris": {"ios": "https://dc.lft.to/lastmile_qr_scan", "android": "https://dc.lft.to/lastmile_qr_scan"}, "is_reserved": 0}, {"lon": -76.94101133333334, "bike_id": "9d6878ed29c911486302e45816a25c27", "lat": 38.88458333333333, "fusion_lon": 0.0, "fusion_lat": 0.0, "type": "electric_scooter", "name": "9d6878ed29c911486302e45816a25c27", "is_disabled": 0, "rental_uris": {"ios": "https://dc.lft.to/lastmile_qr_scan", "android": "https://dc.lft.to/lastmile_qr_scan"}, "is_reserved": 0}, {"lon": -76.97735333333333, "bike_id": "910769266c91795c54ffe061d5320d79", "lat": 38.864923166666664, "fusion_lon": 0.0, "fusion_lat": 0.0, "type": "electric_bike", "name": "910769266c91795c54ffe061d5320d79", "is_disabled": 0, "rental_uris": {"ios": "https://dc.lft.to/lastmile_qr_scan", "android": "https://dc.lft.to/lastmile_qr_scan"}, "is_reserved": 0}, {"lon": -77.0234325, "bike_id": "00d0e3b08508249584711421e913e6f7", "lat": 38.935302166666666, "fusion_lon": 0.0, "fusion_lat": 0.0, "type": "electric_scooter", "name": "00d0e3b08508249584711421e913e6f7", "is_disabled": 0, "rental_uris": {"ios": "https://dc.lft.to/lastmile_qr_scan", "android": "https://dc.lft.to/lastmile_qr_scan"}, "is_reserved": 0}, {"lon": -77.1856475, "bike_id": "4fca53c4a23d541015e157c653db8a89", "lat": 39.09975016666667, "fusion_lon": 0.0, "fusion_lat": 0.0, "type": "electric_bike", "name": "4fca53c4a23d541015e157c653db8a89", "is_disabled": 0, "rental_uris": {"ios": "https://dc.lft.to/lastmile_qr_scan", "android": "https://dc.lft.to/lastmile_qr_scan"}, "is_reserved": 0}, {"lon": -77.0220025, "bike_id": "f431dea3365f2d7fbc80ba54f19dc6e4", "lat": 38.911259, "fusion_lon": 0.0, "fusion_lat": 0.0, "type": "electric_scooter", "name": "f431dea3365f2d7fbc80ba54f19dc6e4", "is_disabled": 0, "rental_uris": {"ios": "https://dc.lft.to/lastmile_qr_scan", "android": "https://dc.lft.to/lastmile_qr_scan"}, "is_reserved": 0}, {"lon": -77.03390666666667, "bike_id": "40b1cf15ea124d554f23907601866720", "lat": 38.920382833333335, "fusion_lon": 0.0, "fusion_lat": 0.0, "type": "electric_scooter", "name": "40b1cf15ea124d554f23907601866720", "is_disabled": 0, "rental_uris": {"ios": "https://dc.lft.to/lastmile_qr_scan", "android": "https://dc.lft.to/lastmile_qr_scan"}, "is_reserved": 0}, {"lon": -77.00714016666667, "bike_id": "dbb4de46d52c1939027960cdd5e3364c", "lat": 38.9459985, "fusion_lon": 0.0, "fusion_lat": 0.0, "type": "electric_bike", "name": "dbb4de46d52c1939027960cdd5e3364c", "is_disabled": 0, "rental_uris": {"ios": "https://dc.lft.to/lastmile_qr_scan", "android": "https://dc.lft.to/lastmile_qr_scan"}, "is_reserved": 0}, {"lon": -77.031774, "bike_id": "88d4f46d526208f29c85f45390b5b349", "lat": 38.93600516666667, "fusion_lon": 0.0, "fusion_lat": 0.0, "type": "electric_scooter", "name": "88d4f46d526208f29c85f45390b5b349", "is_disabled": 0, "rental_uris": {"ios": "https://dc.lft.to/lastmile_qr_scan", "android": "https://dc.lft.to/lastmile_qr_scan"}, "is_reserved": 0}, {"lon": -77.04130566666667, "bike_id": "2c86fc7b4ce7dad370b0f35bb0e8c43a", "lat": 38.927180166666666, "fusion_lon": 0.0, "fusion_lat": 0.0, "type": "electric_scooter", "name": "2c86fc7b4ce7dad370b0f35bb0e8c43a", "is_disabled": 0, "rental_uris": {"ios": "https://dc.lft.to/lastmile_qr_scan", "android": "https://dc.lft.to/lastmile_qr_scan"}, "is_reserved": 0}, {"lon": -76.99006733333333, "bike_id": "c451f5f72e19a438d6a3bd0a62872456", "lat": 38.90390383333333, "fusion_lon": 0.0, "fusion_lat": 0.0, "type": "electric_scooter", "name": "c451f5f72e19a438d6a3bd0a62872456", "is_disabled": 0, "rental_uris": {"ios": "https://dc.lft.to/lastmile_qr_scan", "android": "https://dc.lft.to/lastmile_qr_scan"}, "is_reserved": 0}, {"lon": -77.00657716666667, "bike_id": "0fbe1cb4fd618bcc4b982e607973242e", "lat": 38.94462933333333, "fusion_lon": 0.0, "fusion_lat": 0.0, "type": "electric_scooter", "name": "0fbe1cb4fd618bcc4b982e607973242e", "is_disabled": 0, "rental_uris": {"ios": "https://dc.lft.to/lastmile_qr_scan", "android": "https://dc.lft.to/lastmile_qr_scan"}, "is_reserved": 0}, {"lon": -77.03820566666667, "bike_id": "435f78ae6cf5dee64687332d5d845636", "lat": 38.930950833333334, "fusion_lon": 0.0, "fusion_lat": 0.0, "type": "electric_scooter", "name": "435f78ae6cf5dee64687332d5d845636", "is_disabled": 0, "rental_uris": {"ios": "https://dc.lft.to/lastmile_qr_scan", "android": "https://dc.lft.to/lastmile_qr_scan"}, "is_reserved": 0}, {"lon": -77.038472, "bike_id": "4ffef39fa989f40cf9712b45d9340aeb", "lat": 38.915497333333334, "fusion_lon": 0.0, "fusion_lat": 0.0, "type": "electric_scooter", "name": "4ffef39fa989f40cf9712b45d9340aeb", "is_disabled": 0, "rental_uris": {"ios": "https://dc.lft.to/lastmile_qr_scan", "android": "https://dc.lft.to/lastmile_qr_scan"}, "is_reserved": 0}, {"lon": -77.03514966666667, "bike_id": "4278f30dd85ec503b5d27244efa6e242", "lat": 38.921348, "fusion_lon": 0.0, "fusion_lat": 0.0, "type": "electric_scooter", "name": "4278f30dd85ec503b5d27244efa6e242", "is_disabled": 0, "rental_uris": {"ios": "https://dc.lft.to/lastmile_qr_scan", "android": "https://dc.lft.to/lastmile_qr_scan"}, "is_reserved": 0}, {"lon": -77.0211545, "bike_id": "03d9a3b0278f7f73fc10443f090ef70d", "lat": 38.93693716666667, "fusion_lon": 0.0, "fusion_lat": 0.0, "type": "electric_scooter", "name": "03d9a3b0278f7f73fc10443f090ef70d", "is_disabled": 0, "rental_uris": {"ios": "https://dc.lft.to/lastmile_qr_scan", "android": "https://dc.lft.to/lastmile_qr_scan"}, "is_reserved": 0}, {"lon": -77.04689216666667, "bike_id": "1c55b9bba4328310c928df30b46d6990", "lat": 38.8921945, "fusion_lon": 0.0, "fusion_lat": 0.0, "type": "electric_scooter", "name": "1c55b9bba4328310c928df30b46d6990", "is_disabled": 0, "rental_uris": {"ios": "https://dc.lft.to/lastmile_qr_scan", "android": "https://dc.lft.to/lastmile_qr_scan"}, "is_reserved": 0}, {"lon": -77.04691666666666, "bike_id": "aa1d9c0ab980a167841c4c2a335c8ba0", "lat": 38.892220333333334, "fusion_lon": 0.0, "fusion_lat": 0.0, "type": "electric_scooter", "name": "aa1d9c0ab980a167841c4c2a335c8ba0", "is_disabled": 0, "rental_uris": {"ios": "https://dc.lft.to/lastmile_qr_scan", "android": "https://dc.lft.to/lastmile_qr_scan"}, "is_reserved": 0}, {"lon": -77.048624, "bike_id": "a6e84b257a800019b983107dcc50933b", "lat": 38.90718116666667, "fusion_lon": 0.0, "fusion_lat": 0.0, "type": "electric_scooter", "name": "a6e84b257a800019b983107dcc50933b", "is_disabled": 0, "rental_uris": {"ios": "https://dc.lft.to/lastmile_qr_scan", "android": "https://dc.lft.to/lastmile_qr_scan"}, "is_reserved": 0}, {"lon": -77.02953333333333, "bike_id": "ea9534899f00675f1cf7a3cbcb0b5d4a", "lat": 38.906627666666665, "fusion_lon": 0.0, "fusion_lat": 0.0, "type": "electric_scooter", "name": "ea9534899f00675f1cf7a3cbcb0b5d4a", "is_disabled": 0, "rental_uris": {"ios": "https://dc.lft.to/lastmile_qr_scan", "android": "https://dc.lft.to/lastmile_qr_scan"}, "is_reserved": 0}, {"lon": -77.0242735, "bike_id": "38b52a5a3fe44701262578cd2a901df0", "lat": 38.9043685, "fusion_lon": 0.0, "fusion_lat": 0.0, "type": "electric_scooter", "name": "38b52a5a3fe44701262578cd2a901df0", "is_disabled": 0, "rental_uris": {"ios": "https://dc.lft.to/lastmile_qr_scan", "android": "https://dc.lft.to/lastmile_qr_scan"}, "is_reserved": 0}, {"lon": -77.02581566666667, "bike_id": "2a4f97f27d521e074eff64a7345df207", "lat": 38.88737483333333, "fusion_lon": 0.0, "fusion_lat": 0.0, "type": "electric_scooter", "name": "2a4f97f27d521e074eff64a7345df207", "is_disabled": 0, "rental_uris": {"ios": "https://dc.lft.to/lastmile_qr_scan", "android": "https://dc.lft.to/lastmile_qr_scan"}, "is_reserved": 0}, {"lon": -76.9589725, "bike_id": "b1ce5ee060b309fc1207ffa2e6b14d8f", "lat": 38.890113666666664, "fusion_lon": 0.0, "fusion_lat": 0.0, "type": "electric_scooter", "name": "b1ce5ee060b309fc1207ffa2e6b14d8f", "is_disabled": 0, "rental_uris": {"ios": "https://dc.lft.to/lastmile_qr_scan", "android": "https://dc.lft.to/lastmile_qr_scan"}, "is_reserved": 0}, {"lon": -77.00915433333333, "bike_id": "3fb86e66591eb39fa977e67590915f27", "lat": 38.82779216666667, "fusion_lon": 0.0, "fusion_lat": 0.0, "type": "electric_bike", "name": "3fb86e66591eb39fa977e67590915f27", "is_disabled": 0, "rental_uris": {"ios": "https://dc.lft.to/lastmile_qr_scan", "android": "https://dc.lft.to/lastmile_qr_scan"}, "is_reserved": 0}, {"lon": -76.9635895, "bike_id": "9ceb3d3b7a7ec49c3e268d0671827e41", "lat": 38.93500866666667, "fusion_lon": 0.0, "fusion_lat": 0.0, "type": "electric_scooter", "name": "9ceb3d3b7a7ec49c3e268d0671827e41", "is_disabled": 0, "rental_uris": {"ios": "https://dc.lft.to/lastmile_qr_scan", "android": "https://dc.lft.to/lastmile_qr_scan"}, "is_reserved": 0}, {"lon": -76.97632183333333, "bike_id": "23ad18c71ae395ccb62be96588be37c4", "lat": 38.9057345, "fusion_lon": 0.0, "fusion_lat": 0.0, "type": "electric_scooter", "name": "23ad18c71ae395ccb62be96588be37c4", "is_disabled": 0, "rental_uris": {"ios": "https://dc.lft.to/lastmile_qr_scan", "android": "https://dc.lft.to/lastmile_qr_scan"}, "is_reserved": 0}, {"lon": -77.03826783333334, "bike_id": "f406fbab5efb7e340323e7364eee5fc9", "lat": 38.91033616666667, "fusion_lon": 0.0, "fusion_lat": 0.0, "type": "electric_scooter", "name": "f406fbab5efb7e340323e7364eee5fc9", "is_disabled": 0, "rental_uris": {"ios": "https://dc.lft.to/lastmile_qr_scan", "android": "https://dc.lft.to/lastmile_qr_scan"}, "is_reserved": 0}, {"lon": -77.04162083333334, "bike_id": "989a9b58c3bab20e4e52299a122b2156", "lat": 38.9124705, "fusion_lon": 0.0, "fusion_lat": 0.0, "type": "electric_scooter", "name": "989a9b58c3bab20e4e52299a122b2156", "is_disabled": 0, "rental_uris": {"ios": "https://dc.lft.to/lastmile_qr_scan", "android": "https://dc.lft.to/lastmile_qr_scan"}, "is_reserved": 0}, {"lon": -76.93058633333334, "bike_id": "548b0e943d8241ea95cc5e899d6e7e22", "lat": 38.901546, "fusion_lon": 0.0, "fusion_lat": 0.0, "type": "electric_scooter", "name": "548b0e943d8241ea95cc5e899d6e7e22", "is_disabled": 0, "rental_uris": {"ios": "https://dc.lft.to/lastmile_qr_scan", "android": "https://dc.lft.to/lastmile_qr_scan"}, "is_reserved": 0}, {"lon": -77.02972016666666, "bike_id": "d0e09e13000c79c9d8a477b74046caaa", "lat": 38.91682016666667, "fusion_lon": 0.0, "fusion_lat": 0.0, "type": "electric_scooter", "name": "d0e09e13000c79c9d8a477b74046caaa", "is_disabled": 0, "rental_uris": {"ios": "https://dc.lft.to/lastmile_qr_scan", "android": "https://dc.lft.to/lastmile_qr_scan"}, "is_reserved": 0}, {"lon": -76.99022616666667, "bike_id": "f8e84bb1e0fa30b1487881a8252b508c", "lat": 38.8664005, "fusion_lon": 0.0, "fusion_lat": 0.0, "type": "electric_scooter", "name": "f8e84bb1e0fa30b1487881a8252b508c", "is_disabled": 0, "rental_uris": {"ios": "https://dc.lft.to/lastmile_qr_scan", "android": "https://dc.lft.to/lastmile_qr_scan"}, "is_reserved": 0}, {"lon": -76.98543933333333, "bike_id": "be6737c1d50c52c208ef3e92e9ecc77b", "lat": 38.896567, "fusion_lon": 0.0, "fusion_lat": 0.0, "type": "electric_scooter", "name": "be6737c1d50c52c208ef3e92e9ecc77b", "is_disabled": 0, "rental_uris": {"ios": "https://dc.lft.to/lastmile_qr_scan", "android": "https://dc.lft.to/lastmile_qr_scan"}, "is_reserved": 0}, {"lon": -77.03297833333333, "bike_id": "998eafc0aabcea13acd31295fd1471af", "lat": 38.92549416666667, "fusion_lon": 0.0, "fusion_lat": 0.0, "type": "electric_scooter", "name": "998eafc0aabcea13acd31295fd1471af", "is_disabled": 0, "rental_uris": {"ios": "https://dc.lft.to/lastmile_qr_scan", "android": "https://dc.lft.to/lastmile_qr_scan"}, "is_reserved": 0}, {"lon": -77.0476715, "bike_id": "fc148793ba8c3556c0d27140c9bd093d", "lat": 38.921384, "fusion_lon": 0.0, "fusion_lat": 0.0, "type": "electric_scooter", "name": "fc148793ba8c3556c0d27140c9bd093d", "is_disabled": 0, "rental_uris": {"ios": "https://dc.lft.to/lastmile_qr_scan", "android": "https://dc.lft.to/lastmile_qr_scan"}, "is_reserved": 0}, {"lon": -77.025481, "bike_id": "213afc15387b66793c43da9acce5fca3", "lat": 38.992753666666665, "fusion_lon": 0.0, "fusion_lat": 0.0, "type": "electric_bike", "name": "213afc15387b66793c43da9acce5fca3", "is_disabled": 0, "rental_uris": {"ios": "https://dc.lft.to/lastmile_qr_scan", "android": "https://dc.lft.to/lastmile_qr_scan"}, "is_reserved": 0}, {"lon": -77.01940483333334, "bike_id": "86bc458bb7c9757efc99ef26d8a92a41", "lat": 38.936868833333335, "fusion_lon": 0.0, "fusion_lat": 0.0, "type": "electric_scooter", "name": "86bc458bb7c9757efc99ef26d8a92a41", "is_disabled": 0, "rental_uris": {"ios": "https://dc.lft.to/lastmile_qr_scan", "android": "https://dc.lft.to/lastmile_qr_scan"}, "is_reserved": 0}, {"lon": -77.0211855, "bike_id": "97fe5bfe46ac9982be9350a97d16097b", "lat": 38.9158585, "fusion_lon": 0.0, "fusion_lat": 0.0, "type": "electric_scooter", "name": "97fe5bfe46ac9982be9350a97d16097b", "is_disabled": 0, "rental_uris": {"ios": "https://dc.lft.to/lastmile_qr_scan", "android": "https://dc.lft.to/lastmile_qr_scan"}, "is_reserved": 0}, {"lon": -77.03469033333333, "bike_id": "8e93cb366e2ad8528b49e32c2f9e984e", "lat": 38.9045305, "fusion_lon": 0.0, "fusion_lat": 0.0, "type": "electric_scooter", "name": "8e93cb366e2ad8528b49e32c2f9e984e", "is_disabled": 0, "rental_uris": {"ios": "https://dc.lft.to/lastmile_qr_scan", "android": "https://dc.lft.to/lastmile_qr_scan"}, "is_reserved": 0}, {"lon": -77.03247016666667, "bike_id": "439ceda92f1b4d916fe8613278278576", "lat": 38.919895, "fusion_lon": 0.0, "fusion_lat": 0.0, "type": "electric_scooter", "name": "439ceda92f1b4d916fe8613278278576", "is_disabled": 0, "rental_uris": {"ios": "https://dc.lft.to/lastmile_qr_scan", "android": "https://dc.lft.to/lastmile_qr_scan"}, "is_reserved": 0}, {"lon": -76.99510033333334, "bike_id": "0fde1a803a0a9b102e08133858556327", "lat": 38.8791685, "fusion_lon": 0.0, "fusion_lat": 0.0, "type": "electric_scooter", "name": "0fde1a803a0a9b102e08133858556327", "is_disabled": 0, "rental_uris": {"ios": "https://dc.lft.to/lastmile_qr_scan", "android": "https://dc.lft.to/lastmile_qr_scan"}, "is_reserved": 0}, {"lon": -77.03516333333333, "bike_id": "ae8370bda1bacfb4822f307b139eb5b1", "lat": 38.91595433333333, "fusion_lon": 0.0, "fusion_lat": 0.0, "type": "electric_scooter", "name": "ae8370bda1bacfb4822f307b139eb5b1", "is_disabled": 0, "rental_uris": {"ios": "https://dc.lft.to/lastmile_qr_scan", "android": "https://dc.lft.to/lastmile_qr_scan"}, "is_reserved": 0}, {"lon": -77.04132333333334, "bike_id": "4724bb186feec9f52d88a1073fffea35", "lat": 38.921396666666666, "fusion_lon": 0.0, "fusion_lat": 0.0, "type": "electric_scooter", "name": "4724bb186feec9f52d88a1073fffea35", "is_disabled": 0, "rental_uris": {"ios": "https://dc.lft.to/lastmile_qr_scan", "android": "https://dc.lft.to/lastmile_qr_scan"}, "is_reserved": 0}, {"lon": -77.03260333333333, "bike_id": "bf28de187eef35fac68ba8b9e2721a71", "lat": 38.942725833333334, "fusion_lon": 0.0, "fusion_lat": 0.0, "type": "electric_scooter", "name": "bf28de187eef35fac68ba8b9e2721a71", "is_disabled": 0, "rental_uris": {"ios": "https://dc.lft.to/lastmile_qr_scan", "android": "https://dc.lft.to/lastmile_qr_scan"}, "is_reserved": 0}, {"lon": -77.01876733333333, "bike_id": "6ed417a67d36bcae63c59e3a1fdf5f8f", "lat": 38.902661333333334, "fusion_lon": 0.0, "fusion_lat": 0.0, "type": "electric_scooter", "name": "6ed417a67d36bcae63c59e3a1fdf5f8f", "is_disabled": 0, "rental_uris": {"ios": "https://dc.lft.to/lastmile_qr_scan", "android": "https://dc.lft.to/lastmile_qr_scan"}, "is_reserved": 0}, {"lon": -77.0432195, "bike_id": "32f0fa513c96928a0f61e8633c2cf749", "lat": 38.9087825, "fusion_lon": 0.0, "fusion_lat": 0.0, "type": "electric_scooter", "name": "32f0fa513c96928a0f61e8633c2cf749", "is_disabled": 0, "rental_uris": {"ios": "https://dc.lft.to/lastmile_qr_scan", "android": "https://dc.lft.to/lastmile_qr_scan"}, "is_reserved": 0}, {"lon": -77.03330816666667, "bike_id": "cb56f8e2bda5ec1438129c90c61e6074", "lat": 38.9389605, "fusion_lon": 0.0, "fusion_lat": 0.0, "type": "electric_scooter", "name": "cb56f8e2bda5ec1438129c90c61e6074", "is_disabled": 0, "rental_uris": {"ios": "https://dc.lft.to/lastmile_qr_scan", "android": "https://dc.lft.to/lastmile_qr_scan"}, "is_reserved": 0}, {"lon": -77.09071266666666, "bike_id": "21f6702f7c91d59c07949063c13e8f3f", "lat": 38.978534833333335, "fusion_lon": 0.0, "fusion_lat": 0.0, "type": "electric_bike", "name": "21f6702f7c91d59c07949063c13e8f3f", "is_disabled": 0, "rental_uris": {"ios": "https://dc.lft.to/lastmile_qr_scan", "android": "https://dc.lft.to/lastmile_qr_scan"}, "is_reserved": 0}, {"lon": -77.018491, "bike_id": "f3bd56abf7065e91a11faa72a310256e", "lat": 38.903885, "fusion_lon": 0.0, "fusion_lat": 0.0, "type": "electric_scooter", "name": "f3bd56abf7065e91a11faa72a310256e", "is_disabled": 0, "rental_uris": {"ios": "https://dc.lft.to/lastmile_qr_scan", "android": "https://dc.lft.to/lastmile_qr_scan"}, "is_reserved": 0}, {"lon": -77.03832833333334, "bike_id": "342226bd0c54f89aa4350be0a3f25105", "lat": 38.9028075, "fusion_lon": 0.0, "fusion_lat": 0.0, "type": "electric_scooter", "name": "342226bd0c54f89aa4350be0a3f25105", "is_disabled": 0, "rental_uris": {"ios": "https://dc.lft.to/lastmile_qr_scan", "android": "https://dc.lft.to/lastmile_qr_scan"}, "is_reserved": 0}, {"lon": -77.03952116666666, "bike_id": "5dec7680b742d545d2d671f2eed0388e", "lat": 38.90819116666667, "fusion_lon": 0.0, "fusion_lat": 0.0, "type": "electric_scooter", "name": "5dec7680b742d545d2d671f2eed0388e", "is_disabled": 0, "rental_uris": {"ios": "https://dc.lft.to/lastmile_qr_scan", "android": "https://dc.lft.to/lastmile_qr_scan"}, "is_reserved": 0}, {"lon": -77.03503283333333, "bike_id": "b6bb80f96c9ec56df760801ba672c797", "lat": 38.917043, "fusion_lon": 0.0, "fusion_lat": 0.0, "type": "electric_scooter", "name": "b6bb80f96c9ec56df760801ba672c797", "is_disabled": 0, "rental_uris": {"ios": "https://dc.lft.to/lastmile_qr_scan", "android": "https://dc.lft.to/lastmile_qr_scan"}, "is_reserved": 0}, {"lon": -77.06784216666667, "bike_id": "c95429cb9f89c210042b012ac27873a1", "lat": 38.904602, "fusion_lon": 0.0, "fusion_lat": 0.0, "type": "electric_scooter", "name": "c95429cb9f89c210042b012ac27873a1", "is_disabled": 0, "rental_uris": {"ios": "https://dc.lft.to/lastmile_qr_scan", "android": "https://dc.lft.to/lastmile_qr_scan"}, "is_reserved": 0}, {"lon": -77.027236, "bike_id": "4bcbac8cee378cb6017d5e19fc9a92ad", "lat": 38.91682083333333, "fusion_lon": 0.0, "fusion_lat": 0.0, "type": "electric_scooter", "name": "4bcbac8cee378cb6017d5e19fc9a92ad", "is_disabled": 0, "rental_uris": {"ios": "https://dc.lft.to/lastmile_qr_scan", "android": "https://dc.lft.to/lastmile_qr_scan"}, "is_reserved": 0}, {"lon": -76.99599366666666, "bike_id": "5c62e35b884626f02ab71af9239248f2", "lat": 38.884313666666664, "fusion_lon": 0.0, "fusion_lat": 0.0, "type": "electric_scooter", "name": "5c62e35b884626f02ab71af9239248f2", "is_disabled": 0, "rental_uris": {"ios": "https://dc.lft.to/lastmile_qr_scan", "android": "https://dc.lft.to/lastmile_qr_scan"}, "is_reserved": 0}, {"lon": -77.01931116666667, "bike_id": "e6cbe4367619cdf72e126181bd13f9ff", "lat": 38.92219383333333, "fusion_lon": 0.0, "fusion_lat": 0.0, "type": "electric_scooter", "name": "e6cbe4367619cdf72e126181bd13f9ff", "is_disabled": 0, "rental_uris": {"ios": "https://dc.lft.to/lastmile_qr_scan", "android": "https://dc.lft.to/lastmile_qr_scan"}, "is_reserved": 0}, {"lon": -77.015449, "bike_id": "6eb472612b8d231d487e1cb6de32935f", "lat": 38.902432166666664, "fusion_lon": 0.0, "fusion_lat": 0.0, "type": "electric_scooter", "name": "6eb472612b8d231d487e1cb6de32935f", "is_disabled": 0, "rental_uris": {"ios": "https://dc.lft.to/lastmile_qr_scan", "android": "https://dc.lft.to/lastmile_qr_scan"}, "is_reserved": 0}, {"lon": -77.02411483333333, "bike_id": "871f64f50de6bc53b2ca031c693ab28a", "lat": 38.92060466666667, "fusion_lon": 0.0, "fusion_lat": 0.0, "type": "electric_scooter", "name": "871f64f50de6bc53b2ca031c693ab28a", "is_disabled": 0, "rental_uris": {"ios": "https://dc.lft.to/lastmile_qr_scan", "android": "https://dc.lft.to/lastmile_qr_scan"}, "is_reserved": 0}, {"lon": -77.03182416666667, "bike_id": "c46fe7e69cf7c61800b85b94fb8b962b", "lat": 38.887376833333335, "fusion_lon": 0.0, "fusion_lat": 0.0, "type": "electric_scooter", "name": "c46fe7e69cf7c61800b85b94fb8b962b", "is_disabled": 0, "rental_uris": {"ios": "https://dc.lft.to/lastmile_qr_scan", "android": "https://dc.lft.to/lastmile_qr_scan"}, "is_reserved": 0}, {"lon": -77.03206183333333, "bike_id": "da3e54c6ac226730a64f5a062c65beb0", "lat": 38.91646133333333, "fusion_lon": 0.0, "fusion_lat": 0.0, "type": "electric_scooter", "name": "da3e54c6ac226730a64f5a062c65beb0", "is_disabled": 0, "rental_uris": {"ios": "https://dc.lft.to/lastmile_qr_scan", "android": "https://dc.lft.to/lastmile_qr_scan"}, "is_reserved": 0}, {"lon": -77.13102283333333, "bike_id": "0dbd0d25181978f0505f48b0cc9f5b24", "lat": 39.02434233333334, "fusion_lon": 0.0, "fusion_lat": 0.0, "type": "electric_bike", "name": "0dbd0d25181978f0505f48b0cc9f5b24", "is_disabled": 0, "rental_uris": {"ios": "https://dc.lft.to/lastmile_qr_scan", "android": "https://dc.lft.to/lastmile_qr_scan"}, "is_reserved": 0}, {"lon": -77.03321716666666, "bike_id": "858b2b8dd5d10368cfffdd149b6264b2", "lat": 38.901117, "fusion_lon": 0.0, "fusion_lat": 0.0, "type": "electric_scooter", "name": "858b2b8dd5d10368cfffdd149b6264b2", "is_disabled": 0, "rental_uris": {"ios": "https://dc.lft.to/lastmile_qr_scan", "android": "https://dc.lft.to/lastmile_qr_scan"}, "is_reserved": 0}, {"lon": -77.02722383333334, "bike_id": "06af308fc1c95f180dca80d9962f1030", "lat": 38.92480616666667, "fusion_lon": 0.0, "fusion_lat": 0.0, "type": "electric_scooter", "name": "06af308fc1c95f180dca80d9962f1030", "is_disabled": 0, "rental_uris": {"ios": "https://dc.lft.to/lastmile_qr_scan", "android": "https://dc.lft.to/lastmile_qr_scan"}, "is_reserved": 0}, {"lon": -77.046595, "bike_id": "6e50615d40ed02b35ba1e7e95b062b4b", "lat": 38.89657066666667, "fusion_lon": 0.0, "fusion_lat": 0.0, "type": "electric_scooter", "name": "6e50615d40ed02b35ba1e7e95b062b4b", "is_disabled": 0, "rental_uris": {"ios": "https://dc.lft.to/lastmile_qr_scan", "android": "https://dc.lft.to/lastmile_qr_scan"}, "is_reserved": 0}, {"lon": -77.03645666666667, "bike_id": "a3777e58a992bdc47eca3758874e5c6b", "lat": 38.91340816666667, "fusion_lon": 0.0, "fusion_lat": 0.0, "type": "electric_scooter", "name": "a3777e58a992bdc47eca3758874e5c6b", "is_disabled": 0, "rental_uris": {"ios": "https://dc.lft.to/lastmile_qr_scan", "android": "https://dc.lft.to/lastmile_qr_scan"}, "is_reserved": 0}, {"lon": -76.9833965, "bike_id": "57ff42ea2d2f5ec28bcff018acb276f4", "lat": 38.8954865, "fusion_lon": 0.0, "fusion_lat": 0.0, "type": "electric_scooter", "name": "57ff42ea2d2f5ec28bcff018acb276f4", "is_disabled": 0, "rental_uris": {"ios": "https://dc.lft.to/lastmile_qr_scan", "android": "https://dc.lft.to/lastmile_qr_scan"}, "is_reserved": 0}, {"lon": -76.961565, "bike_id": "4c10a51a12cb741f27d64d2e73e2c619", "lat": 38.8835835, "fusion_lon": 0.0, "fusion_lat": 0.0, "type": "electric_scooter", "name": "4c10a51a12cb741f27d64d2e73e2c619", "is_disabled": 0, "rental_uris": {"ios": "https://dc.lft.to/lastmile_qr_scan", "android": "https://dc.lft.to/lastmile_qr_scan"}, "is_reserved": 0}, {"lon": -77.06768516666666, "bike_id": "b84b158ead42778ba45d48f8d32397ea", "lat": 38.903662833333335, "fusion_lon": 0.0, "fusion_lat": 0.0, "type": "electric_scooter", "name": "b84b158ead42778ba45d48f8d32397ea", "is_disabled": 0, "rental_uris": {"ios": "https://dc.lft.to/lastmile_qr_scan", "android": "https://dc.lft.to/lastmile_qr_scan"}, "is_reserved": 0}, {"lon": -77.039393, "bike_id": "881d024fba6d49ccd526046da0f57ce7", "lat": 38.91692783333333, "fusion_lon": 0.0, "fusion_lat": 0.0, "type": "electric_scooter", "name": "881d024fba6d49ccd526046da0f57ce7", "is_disabled": 0, "rental_uris": {"ios": "https://dc.lft.to/lastmile_qr_scan", "android": "https://dc.lft.to/lastmile_qr_scan"}, "is_reserved": 0}, {"lon": -77.04595116666667, "bike_id": "517a984feccc3d62adcb703ffbb8a6e3", "lat": 38.9158255, "fusion_lon": 0.0, "fusion_lat": 0.0, "type": "electric_scooter", "name": "517a984feccc3d62adcb703ffbb8a6e3", "is_disabled": 0, "rental_uris": {"ios": "https://dc.lft.to/lastmile_qr_scan", "android": "https://dc.lft.to/lastmile_qr_scan"}, "is_reserved": 0}, {"lon": -76.96908, "bike_id": "3524a36bb93f43ba33ff6cfdeba6eac0", "lat": 38.84612833333333, "fusion_lon": 0.0, "fusion_lat": 0.0, "type": "electric_bike", "name": "3524a36bb93f43ba33ff6cfdeba6eac0", "is_disabled": 0, "rental_uris": {"ios": "https://dc.lft.to/lastmile_qr_scan", "android": "https://dc.lft.to/lastmile_qr_scan"}, "is_reserved": 0}, {"lon": -77.12430483333333, "bike_id": "ae01835d5f6ee18da42997ed5ebd92ee", "lat": 38.85379416666667, "fusion_lon": 0.0, "fusion_lat": 0.0, "type": "electric_bike", "name": "ae01835d5f6ee18da42997ed5ebd92ee", "is_disabled": 0, "rental_uris": {"ios": "https://dc.lft.to/lastmile_qr_scan", "android": "https://dc.lft.to/lastmile_qr_scan"}, "is_reserved": 0}, {"lon": -76.988352, "bike_id": "b7e57e8f583995e1b6113b67f0861b50", "lat": 38.896605, "fusion_lon": 0.0, "fusion_lat": 0.0, "type": "electric_scooter", "name": "b7e57e8f583995e1b6113b67f0861b50", "is_disabled": 0, "rental_uris": {"ios": "https://dc.lft.to/lastmile_qr_scan", "android": "https://dc.lft.to/lastmile_qr_scan"}, "is_reserved": 0}, {"lon": -77.02213666666667, "bike_id": "a07b8f4fb210ab9122fc664ec6ee6ede", "lat": 38.89355533333333, "fusion_lon": 0.0, "fusion_lat": 0.0, "type": "electric_scooter", "name": "a07b8f4fb210ab9122fc664ec6ee6ede", "is_disabled": 0, "rental_uris": {"ios": "https://dc.lft.to/lastmile_qr_scan", "android": "https://dc.lft.to/lastmile_qr_scan"}, "is_reserved": 0}, {"lon": -77.03817583333333, "bike_id": "8eca1457c9441095ae939739ac778e36", "lat": 38.930998833333334, "fusion_lon": 0.0, "fusion_lat": 0.0, "type": "electric_scooter", "name": "8eca1457c9441095ae939739ac778e36", "is_disabled": 0, "rental_uris": {"ios": "https://dc.lft.to/lastmile_qr_scan", "android": "https://dc.lft.to/lastmile_qr_scan"}, "is_reserved": 0}, {"lon": -77.04997983333334, "bike_id": "89a501d74ef766bb7aa31b2ef6a30344", "lat": 38.9051105, "fusion_lon": 0.0, "fusion_lat": 0.0, "type": "electric_scooter", "name": "89a501d74ef766bb7aa31b2ef6a30344", "is_disabled": 0, "rental_uris": {"ios": "https://dc.lft.to/lastmile_qr_scan", "android": "https://dc.lft.to/lastmile_qr_scan"}, "is_reserved": 0}, {"lon": -77.0557155, "bike_id": "ace3ac905376a6ef4911e9cd96372019", "lat": 38.930550833333335, "fusion_lon": 0.0, "fusion_lat": 0.0, "type": "electric_scooter", "name": "ace3ac905376a6ef4911e9cd96372019", "is_disabled": 0, "rental_uris": {"ios": "https://dc.lft.to/lastmile_qr_scan", "android": "https://dc.lft.to/lastmile_qr_scan"}, "is_reserved": 0}, {"lon": -76.97706383333333, "bike_id": "f1898ad0628375de6e6261220d4e5cea", "lat": 38.885216666666665, "fusion_lon": 0.0, "fusion_lat": 0.0, "type": "electric_scooter", "name": "f1898ad0628375de6e6261220d4e5cea", "is_disabled": 0, "rental_uris": {"ios": "https://dc.lft.to/lastmile_qr_scan", "android": "https://dc.lft.to/lastmile_qr_scan"}, "is_reserved": 0}, {"lon": -76.992749, "bike_id": "bb2356148ffc9a156aa7ed0764d21bad", "lat": 38.860361, "fusion_lon": 0.0, "fusion_lat": 0.0, "type": "electric_scooter", "name": "bb2356148ffc9a156aa7ed0764d21bad", "is_disabled": 0, "rental_uris": {"ios": "https://dc.lft.to/lastmile_qr_scan", "android": "https://dc.lft.to/lastmile_qr_scan"}, "is_reserved": 0}, {"lon": -77.041812, "bike_id": "0a5b0f3e794bd0abcabdd7301dbc517c", "lat": 38.915516, "fusion_lon": 0.0, "fusion_lat": 0.0, "type": "electric_scooter", "name": "0a5b0f3e794bd0abcabdd7301dbc517c", "is_disabled": 0, "rental_uris": {"ios": "https://dc.lft.to/lastmile_qr_scan", "android": "https://dc.lft.to/lastmile_qr_scan"}, "is_reserved": 0}, {"lon": -76.972092, "bike_id": "93c4b559eb13f622e1d93ce46b08b458", "lat": 38.892898, "fusion_lon": 0.0, "fusion_lat": 0.0, "type": "electric_bike", "name": "93c4b559eb13f622e1d93ce46b08b458", "is_disabled": 0, "rental_uris": {"ios": "https://dc.lft.to/lastmile_qr_scan", "android": "https://dc.lft.to/lastmile_qr_scan"}, "is_reserved": 0}, {"lon": -77.03212466666666, "bike_id": "d434ee3606696b29f4fcd8c389ac3971", "lat": 38.91500633333333, "fusion_lon": 0.0, "fusion_lat": 0.0, "type": "electric_scooter", "name": "d434ee3606696b29f4fcd8c389ac3971", "is_disabled": 0, "rental_uris": {"ios": "https://dc.lft.to/lastmile_qr_scan", "android": "https://dc.lft.to/lastmile_qr_scan"}, "is_reserved": 0}, {"lon": -77.036602, "bike_id": "ac1aefcb08865f80bb50bd8e27155f8b", "lat": 38.922563333333336, "fusion_lon": 0.0, "fusion_lat": 0.0, "type": "electric_scooter", "name": "ac1aefcb08865f80bb50bd8e27155f8b", "is_disabled": 0, "rental_uris": {"ios": "https://dc.lft.to/lastmile_qr_scan", "android": "https://dc.lft.to/lastmile_qr_scan"}, "is_reserved": 0}, {"lon": -77.02709766666666, "bike_id": "a750d4e1261bc2c140fa931948027a69", "lat": 38.9499025, "fusion_lon": 0.0, "fusion_lat": 0.0, "type": "electric_scooter", "name": "a750d4e1261bc2c140fa931948027a69", "is_disabled": 0, "rental_uris": {"ios": "https://dc.lft.to/lastmile_qr_scan", "android": "https://dc.lft.to/lastmile_qr_scan"}, "is_reserved": 0}, {"lon": -77.139347, "bike_id": "4b9ebc7f07d4191206bdc552effeba2e", "lat": 38.873012833333334, "fusion_lon": 0.0, "fusion_lat": 0.0, "type": "electric_bike", "name": "4b9ebc7f07d4191206bdc552effeba2e", "is_disabled": 0, "rental_uris": {"ios": "https://dc.lft.to/lastmile_qr_scan", "android": "https://dc.lft.to/lastmile_qr_scan"}, "is_reserved": 0}, {"lon": -77.02946966666667, "bike_id": "d20b46d4315b0129a6a297e5549fc36a", "lat": 38.90501, "fusion_lon": 0.0, "fusion_lat": 0.0, "type": "electric_scooter", "name": "d20b46d4315b0129a6a297e5549fc36a", "is_disabled": 0, "rental_uris": {"ios": "https://dc.lft.to/lastmile_qr_scan", "android": "https://dc.lft.to/lastmile_qr_scan"}, "is_reserved": 0}, {"lon": -77.04486883333334, "bike_id": "e063d35457755e382c6e3a1fb8af2778", "lat": 38.9132355, "fusion_lon": 0.0, "fusion_lat": 0.0, "type": "electric_scooter", "name": "e063d35457755e382c6e3a1fb8af2778", "is_disabled": 0, "rental_uris": {"ios": "https://dc.lft.to/lastmile_qr_scan", "android": "https://dc.lft.to/lastmile_qr_scan"}, "is_reserved": 0}, {"lon": -77.0386285, "bike_id": "efa0965457d9f5862bcc9f9f257e5d8d", "lat": 38.90668383333333, "fusion_lon": 0.0, "fusion_lat": 0.0, "type": "electric_scooter", "name": "efa0965457d9f5862bcc9f9f257e5d8d", "is_disabled": 0, "rental_uris": {"ios": "https://dc.lft.to/lastmile_qr_scan", "android": "https://dc.lft.to/lastmile_qr_scan"}, "is_reserved": 0}, {"lon": -77.0675185, "bike_id": "a8f5d73bf3c4995ebf7ced22689eebcd", "lat": 38.90341, "fusion_lon": 0.0, "fusion_lat": 0.0, "type": "electric_scooter", "name": "a8f5d73bf3c4995ebf7ced22689eebcd", "is_disabled": 0, "rental_uris": {"ios": "https://dc.lft.to/lastmile_qr_scan", "android": "https://dc.lft.to/lastmile_qr_scan"}, "is_reserved": 0}, {"lon": -77.08590816666667, "bike_id": "b7bfe93e45db9c446e948f2a52c2420a", "lat": 38.908689833333334, "fusion_lon": 0.0, "fusion_lat": 0.0, "type": "electric_scooter", "name": "b7bfe93e45db9c446e948f2a52c2420a", "is_disabled": 0, "rental_uris": {"ios": "https://dc.lft.to/lastmile_qr_scan", "android": "https://dc.lft.to/lastmile_qr_scan"}, "is_reserved": 0}, {"lon": -77.0258905, "bike_id": "c811191040c39c60fabe15244a180fa3", "lat": 38.941985833333334, "fusion_lon": 0.0, "fusion_lat": 0.0, "type": "electric_scooter", "name": "c811191040c39c60fabe15244a180fa3", "is_disabled": 0, "rental_uris": {"ios": "https://dc.lft.to/lastmile_qr_scan", "android": "https://dc.lft.to/lastmile_qr_scan"}, "is_reserved": 0}, {"lon": -76.995425, "bike_id": "0e034d5f9ed874e481896c3425aa60a1", "lat": 38.8837445, "fusion_lon": 0.0, "fusion_lat": 0.0, "type": "electric_scooter", "name": "0e034d5f9ed874e481896c3425aa60a1", "is_disabled": 0, "rental_uris": {"ios": "https://dc.lft.to/lastmile_qr_scan", "android": "https://dc.lft.to/lastmile_qr_scan"}, "is_reserved": 0}, {"lon": -76.9977745, "bike_id": "77dcf7599be7aa6fc60155dc20f8f5e2", "lat": 38.844269833333335, "fusion_lon": 0.0, "fusion_lat": 0.0, "type": "electric_scooter", "name": "77dcf7599be7aa6fc60155dc20f8f5e2", "is_disabled": 0, "rental_uris": {"ios": "https://dc.lft.to/lastmile_qr_scan", "android": "https://dc.lft.to/lastmile_qr_scan"}, "is_reserved": 0}, {"lon": -77.03948566666666, "bike_id": "a881cb87f9fdda0565e6be179ed6674c", "lat": 38.9305465, "fusion_lon": 0.0, "fusion_lat": 0.0, "type": "electric_scooter", "name": "a881cb87f9fdda0565e6be179ed6674c", "is_disabled": 0, "rental_uris": {"ios": "https://dc.lft.to/lastmile_qr_scan", "android": "https://dc.lft.to/lastmile_qr_scan"}, "is_reserved": 0}, {"lon": -77.03262366666667, "bike_id": "3f17e5769adfb4890af01f0db8f65351", "lat": 38.89851933333333, "fusion_lon": 0.0, "fusion_lat": 0.0, "type": "electric_bike", "name": "3f17e5769adfb4890af01f0db8f65351", "is_disabled": 0, "rental_uris": {"ios": "https://dc.lft.to/lastmile_qr_scan", "android": "https://dc.lft.to/lastmile_qr_scan"}, "is_reserved": 0}, {"lon": -77.02961233333333, "bike_id": "4a9cf18242affe8659f0a46ee06772be", "lat": 38.93059233333334, "fusion_lon": 0.0, "fusion_lat": 0.0, "type": "electric_scooter", "name": "4a9cf18242affe8659f0a46ee06772be", "is_disabled": 0, "rental_uris": {"ios": "https://dc.lft.to/lastmile_qr_scan", "android": "https://dc.lft.to/lastmile_qr_scan"}, "is_reserved": 0}, {"lon": -77.03443883333334, "bike_id": "55a9a934c79a1981d2420cee78744553", "lat": 38.90733266666667, "fusion_lon": 0.0, "fusion_lat": 0.0, "type": "electric_scooter", "name": "55a9a934c79a1981d2420cee78744553", "is_disabled": 0, "rental_uris": {"ios": "https://dc.lft.to/lastmile_qr_scan", "android": "https://dc.lft.to/lastmile_qr_scan"}, "is_reserved": 0}, {"lon": -76.98584383333333, "bike_id": "25cfe68063a37f4d553d28792e1acdc4", "lat": 38.9001705, "fusion_lon": 0.0, "fusion_lat": 0.0, "type": "electric_scooter", "name": "25cfe68063a37f4d553d28792e1acdc4", "is_disabled": 0, "rental_uris": {"ios": "https://dc.lft.to/lastmile_qr_scan", "android": "https://dc.lft.to/lastmile_qr_scan"}, "is_reserved": 0}, {"lon": -77.04061233333333, "bike_id": "acacb07e32a1e38d222c14d1ad97aecc", "lat": 38.9176565, "fusion_lon": 0.0, "fusion_lat": 0.0, "type": "electric_scooter", "name": "acacb07e32a1e38d222c14d1ad97aecc", "is_disabled": 0, "rental_uris": {"ios": "https://dc.lft.to/lastmile_qr_scan", "android": "https://dc.lft.to/lastmile_qr_scan"}, "is_reserved": 0}, {"lon": -77.00108616666667, "bike_id": "34891bc192de0bd48a0f0c69d6534334", "lat": 38.90756016666667, "fusion_lon": 0.0, "fusion_lat": 0.0, "type": "electric_scooter", "name": "34891bc192de0bd48a0f0c69d6534334", "is_disabled": 0, "rental_uris": {"ios": "https://dc.lft.to/lastmile_qr_scan", "android": "https://dc.lft.to/lastmile_qr_scan"}, "is_reserved": 0}, {"lon": -77.03646983333333, "bike_id": "d776ce7e6642fcaf248d239d058ba938", "lat": 38.92306283333333, "fusion_lon": 0.0, "fusion_lat": 0.0, "type": "electric_scooter", "name": "d776ce7e6642fcaf248d239d058ba938", "is_disabled": 0, "rental_uris": {"ios": "https://dc.lft.to/lastmile_qr_scan", "android": "https://dc.lft.to/lastmile_qr_scan"}, "is_reserved": 0}, {"lon": -77.0270475, "bike_id": "91d66333a171afa13d8936b7e908e3e4", "lat": 38.90633233333333, "fusion_lon": 0.0, "fusion_lat": 0.0, "type": "electric_scooter", "name": "91d66333a171afa13d8936b7e908e3e4", "is_disabled": 0, "rental_uris": {"ios": "https://dc.lft.to/lastmile_qr_scan", "android": "https://dc.lft.to/lastmile_qr_scan"}, "is_reserved": 0}, {"lon": -77.0603575, "bike_id": "21731709e4955ae48389062d5c8ad466", "lat": 38.93359933333333, "fusion_lon": 0.0, "fusion_lat": 0.0, "type": "electric_scooter", "name": "21731709e4955ae48389062d5c8ad466", "is_disabled": 0, "rental_uris": {"ios": "https://dc.lft.to/lastmile_qr_scan", "android": "https://dc.lft.to/lastmile_qr_scan"}, "is_reserved": 0}, {"lon": -77.04649416666666, "bike_id": "275889b713d22e9e11e7107d9dcc799b", "lat": 39.05498383333333, "fusion_lon": 0.0, "fusion_lat": 0.0, "type": "electric_bike", "name": "275889b713d22e9e11e7107d9dcc799b", "is_disabled": 0, "rental_uris": {"ios": "https://dc.lft.to/lastmile_qr_scan", "android": "https://dc.lft.to/lastmile_qr_scan"}, "is_reserved": 0}, {"lon": -77.03729416666667, "bike_id": "21148d57405e5133bf8f9580ac8a53b2", "lat": 38.92698733333334, "fusion_lon": 0.0, "fusion_lat": 0.0, "type": "electric_scooter", "name": "21148d57405e5133bf8f9580ac8a53b2", "is_disabled": 0, "rental_uris": {"ios": "https://dc.lft.to/lastmile_qr_scan", "android": "https://dc.lft.to/lastmile_qr_scan"}, "is_reserved": 0}, {"lon": -77.02945683333333, "bike_id": "d82380471add7b8bfaf6aea2e4c9de0a", "lat": 38.88503133333333, "fusion_lon": 0.0, "fusion_lat": 0.0, "type": "electric_scooter", "name": "d82380471add7b8bfaf6aea2e4c9de0a", "is_disabled": 0, "rental_uris": {"ios": "https://dc.lft.to/lastmile_qr_scan", "android": "https://dc.lft.to/lastmile_qr_scan"}, "is_reserved": 0}, {"lon": -77.0388375, "bike_id": "3804a3fe55bdc151d0c3575149ea9a4b", "lat": 38.948684, "fusion_lon": 0.0, "fusion_lat": 0.0, "type": "electric_scooter", "name": "3804a3fe55bdc151d0c3575149ea9a4b", "is_disabled": 0, "rental_uris": {"ios": "https://dc.lft.to/lastmile_qr_scan", "android": "https://dc.lft.to/lastmile_qr_scan"}, "is_reserved": 0}, {"lon": -77.0368025, "bike_id": "df12a066fdbfa0b4d11fbac69331cb06", "lat": 38.90354, "fusion_lon": 0.0, "fusion_lat": 0.0, "type": "electric_scooter", "name": "df12a066fdbfa0b4d11fbac69331cb06", "is_disabled": 0, "rental_uris": {"ios": "https://dc.lft.to/lastmile_qr_scan", "android": "https://dc.lft.to/lastmile_qr_scan"}, "is_reserved": 0}, {"lon": -77.027564, "bike_id": "cafd2805d9c2c87664928dbfbfc22a3a", "lat": 38.965729833333334, "fusion_lon": 0.0, "fusion_lat": 0.0, "type": "electric_bike", "name": "cafd2805d9c2c87664928dbfbfc22a3a", "is_disabled": 0, "rental_uris": {"ios": "https://dc.lft.to/lastmile_qr_scan", "android": "https://dc.lft.to/lastmile_qr_scan"}, "is_reserved": 0}, {"lon": -76.95657116666666, "bike_id": "320acb345bcba891f5dfb6f1b98c75db", "lat": 38.896233, "fusion_lon": 0.0, "fusion_lat": 0.0, "type": "electric_scooter", "name": "320acb345bcba891f5dfb6f1b98c75db", "is_disabled": 0, "rental_uris": {"ios": "https://dc.lft.to/lastmile_qr_scan", "android": "https://dc.lft.to/lastmile_qr_scan"}, "is_reserved": 0}, {"lon": -76.99851166666667, "bike_id": "fc9c41c9ded6bb22aa9ba81a3c2ada27", "lat": 38.962528166666665, "fusion_lon": 0.0, "fusion_lat": 0.0, "type": "electric_bike", "name": "fc9c41c9ded6bb22aa9ba81a3c2ada27", "is_disabled": 0, "rental_uris": {"ios": "https://dc.lft.to/lastmile_qr_scan", "android": "https://dc.lft.to/lastmile_qr_scan"}, "is_reserved": 0}, {"lon": -76.883995, "bike_id": "10752d02ad2ff4e9fa837f16daac0c58", "lat": 38.93166983333333, "fusion_lon": 0.0, "fusion_lat": 0.0, "type": "electric_bike", "name": "10752d02ad2ff4e9fa837f16daac0c58", "is_disabled": 0, "rental_uris": {"ios": "https://dc.lft.to/lastmile_qr_scan", "android": "https://dc.lft.to/lastmile_qr_scan"}, "is_reserved": 0}, {"lon": -77.02354816666667, "bike_id": "09d4b948fad2be337ae61597c4b4c12e", "lat": 38.92511783333333, "fusion_lon": 0.0, "fusion_lat": 0.0, "type": "electric_scooter", "name": "09d4b948fad2be337ae61597c4b4c12e", "is_disabled": 0, "rental_uris": {"ios": "https://dc.lft.to/lastmile_qr_scan", "android": "https://dc.lft.to/lastmile_qr_scan"}, "is_reserved": 0}, {"lon": -77.02483433333333, "bike_id": "c944c7d80eb333fb6fe8f0989f60cbed", "lat": 38.917008, "fusion_lon": 0.0, "fusion_lat": 0.0, "type": "electric_scooter", "name": "c944c7d80eb333fb6fe8f0989f60cbed", "is_disabled": 0, "rental_uris": {"ios": "https://dc.lft.to/lastmile_qr_scan", "android": "https://dc.lft.to/lastmile_qr_scan"}, "is_reserved": 0}, {"lon": -77.04173983333334, "bike_id": "f7d57272a9df43789c30caebb36a15c0", "lat": 38.917917333333335, "fusion_lon": 0.0, "fusion_lat": 0.0, "type": "electric_scooter", "name": "f7d57272a9df43789c30caebb36a15c0", "is_disabled": 0, "rental_uris": {"ios": "https://dc.lft.to/lastmile_qr_scan", "android": "https://dc.lft.to/lastmile_qr_scan"}, "is_reserved": 0}, {"lon": -77.12734866666666, "bike_id": "90371a58376d2702a034e1d34345a639", "lat": 38.89564416666666, "fusion_lon": 0.0, "fusion_lat": 0.0, "type": "electric_bike", "name": "90371a58376d2702a034e1d34345a639", "is_disabled": 0, "rental_uris": {"ios": "https://dc.lft.to/lastmile_qr_scan", "android": "https://dc.lft.to/lastmile_qr_scan"}, "is_reserved": 0}, {"lon": -77.0525025, "bike_id": "5d159d1fbd09973c8a9d282e9b818c18", "lat": 38.927397166666665, "fusion_lon": 0.0, "fusion_lat": 0.0, "type": "electric_scooter", "name": "5d159d1fbd09973c8a9d282e9b818c18", "is_disabled": 0, "rental_uris": {"ios": "https://dc.lft.to/lastmile_qr_scan", "android": "https://dc.lft.to/lastmile_qr_scan"}, "is_reserved": 0}, {"lon": -77.04319066666666, "bike_id": "8b32593f11d2ba99c99fa2e51e971e2e", "lat": 38.902320833333334, "fusion_lon": 0.0, "fusion_lat": 0.0, "type": "electric_scooter", "name": "8b32593f11d2ba99c99fa2e51e971e2e", "is_disabled": 0, "rental_uris": {"ios": "https://dc.lft.to/lastmile_qr_scan", "android": "https://dc.lft.to/lastmile_qr_scan"}, "is_reserved": 0}, {"lon": -77.02443516666666, "bike_id": "51dcba630a32c381e5218dca7ce9c4bf", "lat": 38.88425733333333, "fusion_lon": 0.0, "fusion_lat": 0.0, "type": "electric_scooter", "name": "51dcba630a32c381e5218dca7ce9c4bf", "is_disabled": 0, "rental_uris": {"ios": "https://dc.lft.to/lastmile_qr_scan", "android": "https://dc.lft.to/lastmile_qr_scan"}, "is_reserved": 0}, {"lon": -77.04796116666667, "bike_id": "6ca126f0d4fe27ac1c6e7438fee34c3c", "lat": 38.913993833333336, "fusion_lon": 0.0, "fusion_lat": 0.0, "type": "electric_scooter", "name": "6ca126f0d4fe27ac1c6e7438fee34c3c", "is_disabled": 0, "rental_uris": {"ios": "https://dc.lft.to/lastmile_qr_scan", "android": "https://dc.lft.to/lastmile_qr_scan"}, "is_reserved": 0}, {"lon": -76.982409, "bike_id": "5f7c81d5b973d41d3bd5ea13d35195a6", "lat": 38.888724, "fusion_lon": 0.0, "fusion_lat": 0.0, "type": "electric_scooter", "name": "5f7c81d5b973d41d3bd5ea13d35195a6", "is_disabled": 0, "rental_uris": {"ios": "https://dc.lft.to/lastmile_qr_scan", "android": "https://dc.lft.to/lastmile_qr_scan"}, "is_reserved": 0}, {"lon": -77.0306535, "bike_id": "af97f360fdd59c3ab307ae51986912cb", "lat": 38.90803983333333, "fusion_lon": 0.0, "fusion_lat": 0.0, "type": "electric_scooter", "name": "af97f360fdd59c3ab307ae51986912cb", "is_disabled": 0, "rental_uris": {"ios": "https://dc.lft.to/lastmile_qr_scan", "android": "https://dc.lft.to/lastmile_qr_scan"}, "is_reserved": 0}, {"lon": -77.041821, "bike_id": "4566264742ed71d5e37a060d895a4dc7", "lat": 38.89227, "fusion_lon": 0.0, "fusion_lat": 0.0, "type": "electric_scooter", "name": "4566264742ed71d5e37a060d895a4dc7", "is_disabled": 0, "rental_uris": {"ios": "https://dc.lft.to/lastmile_qr_scan", "android": "https://dc.lft.to/lastmile_qr_scan"}, "is_reserved": 0}, {"lon": -77.0335575, "bike_id": "c1b7702d4ab8d7f0e384db601303d505", "lat": 38.92346033333333, "fusion_lon": 0.0, "fusion_lat": 0.0, "type": "electric_scooter", "name": "c1b7702d4ab8d7f0e384db601303d505", "is_disabled": 0, "rental_uris": {"ios": "https://dc.lft.to/lastmile_qr_scan", "android": "https://dc.lft.to/lastmile_qr_scan"}, "is_reserved": 0}, {"lon": -77.03831566666666, "bike_id": "9909a0cbbf552536993d0b1405780de5", "lat": 38.912719833333334, "fusion_lon": 0.0, "fusion_lat": 0.0, "type": "electric_scooter", "name": "9909a0cbbf552536993d0b1405780de5", "is_disabled": 0, "rental_uris": {"ios": "https://dc.lft.to/lastmile_qr_scan", "android": "https://dc.lft.to/lastmile_qr_scan"}, "is_reserved": 0}, {"lon": -77.01787366666667, "bike_id": "152d480e71a0b52103726d7a5ef828cd", "lat": 38.8858075, "fusion_lon": 0.0, "fusion_lat": 0.0, "type": "electric_scooter", "name": "152d480e71a0b52103726d7a5ef828cd", "is_disabled": 0, "rental_uris": {"ios": "https://dc.lft.to/lastmile_qr_scan", "android": "https://dc.lft.to/lastmile_qr_scan"}, "is_reserved": 0}, {"lon": -77.041599, "bike_id": "f5e4352067d53ec099c214c1f1fc0688", "lat": 38.91251066666667, "fusion_lon": 0.0, "fusion_lat": 0.0, "type": "electric_scooter", "name": "f5e4352067d53ec099c214c1f1fc0688", "is_disabled": 0, "rental_uris": {"ios": "https://dc.lft.to/lastmile_qr_scan", "android": "https://dc.lft.to/lastmile_qr_scan"}, "is_reserved": 0}, {"lon": -76.99949433333333, "bike_id": "d12fadb6e935e379cd1d82daf19f1ea0", "lat": 38.906235, "fusion_lon": 0.0, "fusion_lat": 0.0, "type": "electric_scooter", "name": "d12fadb6e935e379cd1d82daf19f1ea0", "is_disabled": 0, "rental_uris": {"ios": "https://dc.lft.to/lastmile_qr_scan", "android": "https://dc.lft.to/lastmile_qr_scan"}, "is_reserved": 0}, {"lon": -77.03109433333333, "bike_id": "5b277b796f2217caffd4a9962c91ac37", "lat": 38.8873515, "fusion_lon": 0.0, "fusion_lat": 0.0, "type": "electric_scooter", "name": "5b277b796f2217caffd4a9962c91ac37", "is_disabled": 0, "rental_uris": {"ios": "https://dc.lft.to/lastmile_qr_scan", "android": "https://dc.lft.to/lastmile_qr_scan"}, "is_reserved": 0}, {"lon": -77.03427216666667, "bike_id": "271c4051575375a7861397da6d096fd0", "lat": 38.96530766666667, "fusion_lon": 0.0, "fusion_lat": 0.0, "type": "electric_bike", "name": "271c4051575375a7861397da6d096fd0", "is_disabled": 0, "rental_uris": {"ios": "https://dc.lft.to/lastmile_qr_scan", "android": "https://dc.lft.to/lastmile_qr_scan"}, "is_reserved": 0}, {"lon": -77.04516166666667, "bike_id": "c303fe259ad890f36aa154d33c9689de", "lat": 38.902369666666665, "fusion_lon": 0.0, "fusion_lat": 0.0, "type": "electric_scooter", "name": "c303fe259ad890f36aa154d33c9689de", "is_disabled": 0, "rental_uris": {"ios": "https://dc.lft.to/lastmile_qr_scan", "android": "https://dc.lft.to/lastmile_qr_scan"}, "is_reserved": 0}, {"lon": -77.046611, "bike_id": "73ae0fd0a072026aae0ac72dc879e6f6", "lat": 38.89777316666667, "fusion_lon": 0.0, "fusion_lat": 0.0, "type": "electric_scooter", "name": "73ae0fd0a072026aae0ac72dc879e6f6", "is_disabled": 0, "rental_uris": {"ios": "https://dc.lft.to/lastmile_qr_scan", "android": "https://dc.lft.to/lastmile_qr_scan"}, "is_reserved": 0}, {"lon": -77.01229783333334, "bike_id": "f6f2039e21e153c0d189d69f998e5f92", "lat": 38.8928905, "fusion_lon": 0.0, "fusion_lat": 0.0, "type": "electric_scooter", "name": "f6f2039e21e153c0d189d69f998e5f92", "is_disabled": 0, "rental_uris": {"ios": "https://dc.lft.to/lastmile_qr_scan", "android": "https://dc.lft.to/lastmile_qr_scan"}, "is_reserved": 0}, {"lon": -77.033401, "bike_id": "f98c1a513a2cc282bd3be84d4607017c", "lat": 38.916993166666664, "fusion_lon": 0.0, "fusion_lat": 0.0, "type": "electric_bike", "name": "f98c1a513a2cc282bd3be84d4607017c", "is_disabled": 0, "rental_uris": {"ios": "https://dc.lft.to/lastmile_qr_scan", "android": "https://dc.lft.to/lastmile_qr_scan"}, "is_reserved": 0}, {"lon": -77.03943966666667, "bike_id": "a51296990a7376b8209f0c6faf5566b3", "lat": 38.90590866666667, "fusion_lon": 0.0, "fusion_lat": 0.0, "type": "electric_scooter", "name": "a51296990a7376b8209f0c6faf5566b3", "is_disabled": 0, "rental_uris": {"ios": "https://dc.lft.to/lastmile_qr_scan", "android": "https://dc.lft.to/lastmile_qr_scan"}, "is_reserved": 0}, {"lon": -76.94892583333333, "bike_id": "705ae9aa4762285a7b46d7b544a989ef", "lat": 38.89512466666667, "fusion_lon": 0.0, "fusion_lat": 0.0, "type": "electric_scooter", "name": "705ae9aa4762285a7b46d7b544a989ef", "is_disabled": 0, "rental_uris": {"ios": "https://dc.lft.to/lastmile_qr_scan", "android": "https://dc.lft.to/lastmile_qr_scan"}, "is_reserved": 0}, {"lon": -77.02773483333333, "bike_id": "1b5abe717c709684ceeaffb77c3520d4", "lat": 38.89481766666667, "fusion_lon": 0.0, "fusion_lat": 0.0, "type": "electric_scooter", "name": "1b5abe717c709684ceeaffb77c3520d4", "is_disabled": 0, "rental_uris": {"ios": "https://dc.lft.to/lastmile_qr_scan", "android": "https://dc.lft.to/lastmile_qr_scan"}, "is_reserved": 0}, {"lon": -77.00444566666667, "bike_id": "ec1995a4b4a40ecb872f981cfadd0a5b", "lat": 38.87630133333333, "fusion_lon": 0.0, "fusion_lat": 0.0, "type": "electric_scooter", "name": "ec1995a4b4a40ecb872f981cfadd0a5b", "is_disabled": 0, "rental_uris": {"ios": "https://dc.lft.to/lastmile_qr_scan", "android": "https://dc.lft.to/lastmile_qr_scan"}, "is_reserved": 0}, {"lon": -77.00905566666667, "bike_id": "f20d27fcde2b8cd9a8439e5ee2d6e1f1", "lat": 38.899112, "fusion_lon": 0.0, "fusion_lat": 0.0, "type": "electric_scooter", "name": "f20d27fcde2b8cd9a8439e5ee2d6e1f1", "is_disabled": 0, "rental_uris": {"ios": "https://dc.lft.to/lastmile_qr_scan", "android": "https://dc.lft.to/lastmile_qr_scan"}, "is_reserved": 0}, {"lon": -76.9914565, "bike_id": "38b96e230ff624c0d78673df6a1e42b2", "lat": 38.889767166666665, "fusion_lon": 0.0, "fusion_lat": 0.0, "type": "electric_scooter", "name": "38b96e230ff624c0d78673df6a1e42b2", "is_disabled": 0, "rental_uris": {"ios": "https://dc.lft.to/lastmile_qr_scan", "android": "https://dc.lft.to/lastmile_qr_scan"}, "is_reserved": 0}, {"lon": -77.044764, "bike_id": "c92462ec05e92cb27481df57e835f26d", "lat": 38.904772333333334, "fusion_lon": 0.0, "fusion_lat": 0.0, "type": "electric_scooter", "name": "c92462ec05e92cb27481df57e835f26d", "is_disabled": 0, "rental_uris": {"ios": "https://dc.lft.to/lastmile_qr_scan", "android": "https://dc.lft.to/lastmile_qr_scan"}, "is_reserved": 0}, {"lon": -77.02227816666667, "bike_id": "1366489299dc922f46aa0900a8069f7a", "lat": 38.91244616666667, "fusion_lon": 0.0, "fusion_lat": 0.0, "type": "electric_scooter", "name": "1366489299dc922f46aa0900a8069f7a", "is_disabled": 0, "rental_uris": {"ios": "https://dc.lft.to/lastmile_qr_scan", "android": "https://dc.lft.to/lastmile_qr_scan"}, "is_reserved": 0}, {"lon": -77.031737, "bike_id": "7244fd3bfd7991c0a8e9169f8aaa8faf", "lat": 38.914217666666666, "fusion_lon": 0.0, "fusion_lat": 0.0, "type": "electric_scooter", "name": "7244fd3bfd7991c0a8e9169f8aaa8faf", "is_disabled": 0, "rental_uris": {"ios": "https://dc.lft.to/lastmile_qr_scan", "android": "https://dc.lft.to/lastmile_qr_scan"}, "is_reserved": 0}, {"lon": -77.0363645, "bike_id": "0e96540ec5a248548e2a8e4741da598f", "lat": 38.91762, "fusion_lon": 0.0, "fusion_lat": 0.0, "type": "electric_scooter", "name": "0e96540ec5a248548e2a8e4741da598f", "is_disabled": 0, "rental_uris": {"ios": "https://dc.lft.to/lastmile_qr_scan", "android": "https://dc.lft.to/lastmile_qr_scan"}, "is_reserved": 0}, {"lon": -77.02719483333334, "bike_id": "8940171326625deb63490f18605d8a3a", "lat": 38.90929083333333, "fusion_lon": 0.0, "fusion_lat": 0.0, "type": "electric_scooter", "name": "8940171326625deb63490f18605d8a3a", "is_disabled": 0, "rental_uris": {"ios": "https://dc.lft.to/lastmile_qr_scan", "android": "https://dc.lft.to/lastmile_qr_scan"}, "is_reserved": 0}, {"lon": -76.98458633333334, "bike_id": "2a411ebdbb275cb20a72c358cb7a2889", "lat": 38.90553116666667, "fusion_lon": 0.0, "fusion_lat": 0.0, "type": "electric_scooter", "name": "2a411ebdbb275cb20a72c358cb7a2889", "is_disabled": 0, "rental_uris": {"ios": "https://dc.lft.to/lastmile_qr_scan", "android": "https://dc.lft.to/lastmile_qr_scan"}, "is_reserved": 0}, {"lon": -77.03236333333334, "bike_id": "225c43d750b757ae698f1517fbac59c9", "lat": 38.9288335, "fusion_lon": 0.0, "fusion_lat": 0.0, "type": "electric_scooter", "name": "225c43d750b757ae698f1517fbac59c9", "is_disabled": 0, "rental_uris": {"ios": "https://dc.lft.to/lastmile_qr_scan", "android": "https://dc.lft.to/lastmile_qr_scan"}, "is_reserved": 0}, {"lon": -77.02209333333333, "bike_id": "f18db04914b70f5f2aaa24ef15ca4dae", "lat": 38.90560466666667, "fusion_lon": 0.0, "fusion_lat": 0.0, "type": "electric_scooter", "name": "f18db04914b70f5f2aaa24ef15ca4dae", "is_disabled": 0, "rental_uris": {"ios": "https://dc.lft.to/lastmile_qr_scan", "android": "https://dc.lft.to/lastmile_qr_scan"}, "is_reserved": 0}, {"lon": -77.03916933333333, "bike_id": "d1af3d55470d75469a9015fb96d006fa", "lat": 38.92577333333333, "fusion_lon": 0.0, "fusion_lat": 0.0, "type": "electric_scooter", "name": "d1af3d55470d75469a9015fb96d006fa", "is_disabled": 0, "rental_uris": {"ios": "https://dc.lft.to/lastmile_qr_scan", "android": "https://dc.lft.to/lastmile_qr_scan"}, "is_reserved": 0}, {"lon": -77.0272185, "bike_id": "6f23f48b918971187a78cd5ea6fc2cc2", "lat": 38.92482916666667, "fusion_lon": 0.0, "fusion_lat": 0.0, "type": "electric_scooter", "name": "6f23f48b918971187a78cd5ea6fc2cc2", "is_disabled": 0, "rental_uris": {"ios": "https://dc.lft.to/lastmile_qr_scan", "android": "https://dc.lft.to/lastmile_qr_scan"}, "is_reserved": 0}, {"lon": -77.03548533333333, "bike_id": "f5f8bd1d5b7d89f5cbce2fa5b28828b6", "lat": 38.9083645, "fusion_lon": 0.0, "fusion_lat": 0.0, "type": "electric_scooter", "name": "f5f8bd1d5b7d89f5cbce2fa5b28828b6", "is_disabled": 0, "rental_uris": {"ios": "https://dc.lft.to/lastmile_qr_scan", "android": "https://dc.lft.to/lastmile_qr_scan"}, "is_reserved": 0}, {"lon": -77.03525783333333, "bike_id": "6db2b13a4db5764282362151664de085", "lat": 38.92200316666667, "fusion_lon": 0.0, "fusion_lat": 0.0, "type": "electric_scooter", "name": "6db2b13a4db5764282362151664de085", "is_disabled": 0, "rental_uris": {"ios": "https://dc.lft.to/lastmile_qr_scan", "android": "https://dc.lft.to/lastmile_qr_scan"}, "is_reserved": 0}, {"lon": -77.0323095, "bike_id": "66534067224e819cc65a4b61eb1bab4a", "lat": 38.9286305, "fusion_lon": 0.0, "fusion_lat": 0.0, "type": "electric_scooter", "name": "66534067224e819cc65a4b61eb1bab4a", "is_disabled": 0, "rental_uris": {"ios": "https://dc.lft.to/lastmile_qr_scan", "android": "https://dc.lft.to/lastmile_qr_scan"}, "is_reserved": 0}, {"lon": -77.099573, "bike_id": "43712e432260e867e05b007abe103b5f", "lat": 38.857852333333334, "fusion_lon": 0.0, "fusion_lat": 0.0, "type": "electric_bike", "name": "43712e432260e867e05b007abe103b5f", "is_disabled": 0, "rental_uris": {"ios": "https://dc.lft.to/lastmile_qr_scan", "android": "https://dc.lft.to/lastmile_qr_scan"}, "is_reserved": 0}, {"lon": -77.03541683333333, "bike_id": "5da6a2dd1dd93825dbc078fc7d5ff294", "lat": 38.92467083333333, "fusion_lon": 0.0, "fusion_lat": 0.0, "type": "electric_scooter", "name": "5da6a2dd1dd93825dbc078fc7d5ff294", "is_disabled": 0, "rental_uris": {"ios": "https://dc.lft.to/lastmile_qr_scan", "android": "https://dc.lft.to/lastmile_qr_scan"}, "is_reserved": 0}, {"lon": -77.0276445, "bike_id": "4f9db6ed4c77107b48b138d99afbb462", "lat": 38.934528666666665, "fusion_lon": 0.0, "fusion_lat": 0.0, "type": "electric_scooter", "name": "4f9db6ed4c77107b48b138d99afbb462", "is_disabled": 0, "rental_uris": {"ios": "https://dc.lft.to/lastmile_qr_scan", "android": "https://dc.lft.to/lastmile_qr_scan"}, "is_reserved": 0}, {"lon": -77.04468366666667, "bike_id": "689e480af3796cc65e19f074d381e777", "lat": 38.90852066666667, "fusion_lon": 0.0, "fusion_lat": 0.0, "type": "electric_scooter", "name": "689e480af3796cc65e19f074d381e777", "is_disabled": 0, "rental_uris": {"ios": "https://dc.lft.to/lastmile_qr_scan", "android": "https://dc.lft.to/lastmile_qr_scan"}, "is_reserved": 0}, {"lon": -77.03199566666666, "bike_id": "a9fc366477d6c275915eb49f8b6190a8", "lat": 38.904379, "fusion_lon": 0.0, "fusion_lat": 0.0, "type": "electric_scooter", "name": "a9fc366477d6c275915eb49f8b6190a8", "is_disabled": 0, "rental_uris": {"ios": "https://dc.lft.to/lastmile_qr_scan", "android": "https://dc.lft.to/lastmile_qr_scan"}, "is_reserved": 0}, {"lon": -77.032074, "bike_id": "f0594ecef82ccf48fbcfc16c9ad9c00e", "lat": 38.9070885, "fusion_lon": 0.0, "fusion_lat": 0.0, "type": "electric_scooter", "name": "f0594ecef82ccf48fbcfc16c9ad9c00e", "is_disabled": 0, "rental_uris": {"ios": "https://dc.lft.to/lastmile_qr_scan", "android": "https://dc.lft.to/lastmile_qr_scan"}, "is_reserved": 0}, {"lon": -77.02719733333333, "bike_id": "7a4181bcc2fe187734fe53930de0424e", "lat": 38.90950216666667, "fusion_lon": 0.0, "fusion_lat": 0.0, "type": "electric_scooter", "name": "7a4181bcc2fe187734fe53930de0424e", "is_disabled": 0, "rental_uris": {"ios": "https://dc.lft.to/lastmile_qr_scan", "android": "https://dc.lft.to/lastmile_qr_scan"}, "is_reserved": 0}, {"lon": -77.03202966666667, "bike_id": "31a03826a8779cd88a6cc997746fd97a", "lat": 38.91253016666667, "fusion_lon": 0.0, "fusion_lat": 0.0, "type": "electric_scooter", "name": "31a03826a8779cd88a6cc997746fd97a", "is_disabled": 0, "rental_uris": {"ios": "https://dc.lft.to/lastmile_qr_scan", "android": "https://dc.lft.to/lastmile_qr_scan"}, "is_reserved": 0}, {"lon": -76.99795233333333, "bike_id": "8670f03074fe0156c940064a37f08ce1", "lat": 38.82908533333333, "fusion_lon": 0.0, "fusion_lat": 0.0, "type": "electric_bike", "name": "8670f03074fe0156c940064a37f08ce1", "is_disabled": 0, "rental_uris": {"ios": "https://dc.lft.to/lastmile_qr_scan", "android": "https://dc.lft.to/lastmile_qr_scan"}, "is_reserved": 0}, {"lon": -77.02303333333333, "bike_id": "520199ef163d9761a23cbb337a751362", "lat": 38.894795, "fusion_lon": 0.0, "fusion_lat": 0.0, "type": "electric_scooter", "name": "520199ef163d9761a23cbb337a751362", "is_disabled": 0, "rental_uris": {"ios": "https://dc.lft.to/lastmile_qr_scan", "android": "https://dc.lft.to/lastmile_qr_scan"}, "is_reserved": 0}, {"lon": -77.02177333333333, "bike_id": "2dafd9d1f4b0dabe9dfeba89d0836468", "lat": 38.909712, "fusion_lon": 0.0, "fusion_lat": 0.0, "type": "electric_scooter", "name": "2dafd9d1f4b0dabe9dfeba89d0836468", "is_disabled": 0, "rental_uris": {"ios": "https://dc.lft.to/lastmile_qr_scan", "android": "https://dc.lft.to/lastmile_qr_scan"}, "is_reserved": 0}, {"lon": -77.021714, "bike_id": "009b1deee69d2aeffa90a473f1dbd7f0", "lat": 38.9148745, "fusion_lon": 0.0, "fusion_lat": 0.0, "type": "electric_scooter", "name": "009b1deee69d2aeffa90a473f1dbd7f0", "is_disabled": 0, "rental_uris": {"ios": "https://dc.lft.to/lastmile_qr_scan", "android": "https://dc.lft.to/lastmile_qr_scan"}, "is_reserved": 0}, {"lon": -77.07621533333334, "bike_id": "bcdc16972b0595470f3b58f360c83623", "lat": 38.965784666666664, "fusion_lon": 0.0, "fusion_lat": 0.0, "type": "electric_bike", "name": "bcdc16972b0595470f3b58f360c83623", "is_disabled": 0, "rental_uris": {"ios": "https://dc.lft.to/lastmile_qr_scan", "android": "https://dc.lft.to/lastmile_qr_scan"}, "is_reserved": 0}, {"lon": -77.02209116666667, "bike_id": "8cc204cd2535014164e50cc83189eb1c", "lat": 38.903861666666664, "fusion_lon": 0.0, "fusion_lat": 0.0, "type": "electric_scooter", "name": "8cc204cd2535014164e50cc83189eb1c", "is_disabled": 0, "rental_uris": {"ios": "https://dc.lft.to/lastmile_qr_scan", "android": "https://dc.lft.to/lastmile_qr_scan"}, "is_reserved": 0}, {"lon": -76.957483, "bike_id": "eb6d82cd91e74d7223e0c9b1883e6929", "lat": 38.8843025, "fusion_lon": 0.0, "fusion_lat": 0.0, "type": "electric_scooter", "name": "eb6d82cd91e74d7223e0c9b1883e6929", "is_disabled": 0, "rental_uris": {"ios": "https://dc.lft.to/lastmile_qr_scan", "android": "https://dc.lft.to/lastmile_qr_scan"}, "is_reserved": 0}, {"lon": -77.11710216666667, "bike_id": "de0479d5e07f4a8ad59d082b21e7552b", "lat": 38.867472666666664, "fusion_lon": 0.0, "fusion_lat": 0.0, "type": "electric_bike", "name": "de0479d5e07f4a8ad59d082b21e7552b", "is_disabled": 0, "rental_uris": {"ios": "https://dc.lft.to/lastmile_qr_scan", "android": "https://dc.lft.to/lastmile_qr_scan"}, "is_reserved": 0}, {"lon": -77.02246433333333, "bike_id": "9d5f20db1d2f9b1dfb8056e15468fefb", "lat": 38.927368, "fusion_lon": 0.0, "fusion_lat": 0.0, "type": "electric_scooter", "name": "9d5f20db1d2f9b1dfb8056e15468fefb", "is_disabled": 0, "rental_uris": {"ios": "https://dc.lft.to/lastmile_qr_scan", "android": "https://dc.lft.to/lastmile_qr_scan"}, "is_reserved": 0}, {"lon": -77.03080233333333, "bike_id": "b89e6db2c3c3234bcb24c1572d0bfd89", "lat": 38.92024633333333, "fusion_lon": 0.0, "fusion_lat": 0.0, "type": "electric_scooter", "name": "b89e6db2c3c3234bcb24c1572d0bfd89", "is_disabled": 0, "rental_uris": {"ios": "https://dc.lft.to/lastmile_qr_scan", "android": "https://dc.lft.to/lastmile_qr_scan"}, "is_reserved": 0}, {"lon": -77.02131466666667, "bike_id": "ffd4bfa49b548508bb1489fc10bb4b9c", "lat": 38.89711033333333, "fusion_lon": 0.0, "fusion_lat": 0.0, "type": "electric_scooter", "name": "ffd4bfa49b548508bb1489fc10bb4b9c", "is_disabled": 0, "rental_uris": {"ios": "https://dc.lft.to/lastmile_qr_scan", "android": "https://dc.lft.to/lastmile_qr_scan"}, "is_reserved": 0}, {"lon": -77.0418595, "bike_id": "e21924f15cb6bb1a63c7219d7d45231d", "lat": 38.899611166666666, "fusion_lon": 0.0, "fusion_lat": 0.0, "type": "electric_scooter", "name": "e21924f15cb6bb1a63c7219d7d45231d", "is_disabled": 0, "rental_uris": {"ios": "https://dc.lft.to/lastmile_qr_scan", "android": "https://dc.lft.to/lastmile_qr_scan"}, "is_reserved": 0}, {"lon": -77.036043, "bike_id": "1791ebc86ef13ab2ac57b1783778f10c", "lat": 38.93681616666667, "fusion_lon": 0.0, "fusion_lat": 0.0, "type": "electric_scooter", "name": "1791ebc86ef13ab2ac57b1783778f10c", "is_disabled": 0, "rental_uris": {"ios": "https://dc.lft.to/lastmile_qr_scan", "android": "https://dc.lft.to/lastmile_qr_scan"}, "is_reserved": 0}, {"lon": -77.0342485, "bike_id": "195969866baa9931651cf5368435a92a", "lat": 38.96535383333333, "fusion_lon": 0.0, "fusion_lat": 0.0, "type": "electric_bike", "name": "195969866baa9931651cf5368435a92a", "is_disabled": 0, "rental_uris": {"ios": "https://dc.lft.to/lastmile_qr_scan", "android": "https://dc.lft.to/lastmile_qr_scan"}, "is_reserved": 0}, {"lon": -77.02211933333334, "bike_id": "f3a39caeda88a144c6a77c7424c44b4c", "lat": 38.912681666666664, "fusion_lon": 0.0, "fusion_lat": 0.0, "type": "electric_scooter", "name": "f3a39caeda88a144c6a77c7424c44b4c", "is_disabled": 0, "rental_uris": {"ios": "https://dc.lft.to/lastmile_qr_scan", "android": "https://dc.lft.to/lastmile_qr_scan"}, "is_reserved": 0}, {"lon": -77.03015583333334, "bike_id": "62c01deea6d31762fd23a2bcbd322473", "lat": 38.88453833333333, "fusion_lon": 0.0, "fusion_lat": 0.0, "type": "electric_scooter", "name": "62c01deea6d31762fd23a2bcbd322473", "is_disabled": 0, "rental_uris": {"ios": "https://dc.lft.to/lastmile_qr_scan", "android": "https://dc.lft.to/lastmile_qr_scan"}, "is_reserved": 0}, {"lon": -77.03213083333333, "bike_id": "9a680819551b1d430a597bfbdfcc5e04", "lat": 38.91204283333333, "fusion_lon": 0.0, "fusion_lat": 0.0, "type": "electric_scooter", "name": "9a680819551b1d430a597bfbdfcc5e04", "is_disabled": 0, "rental_uris": {"ios": "https://dc.lft.to/lastmile_qr_scan", "android": "https://dc.lft.to/lastmile_qr_scan"}, "is_reserved": 0}, {"lon": -77.017436, "bike_id": "4af3f1a887202aa80797d48454bbe23d", "lat": 38.887497833333335, "fusion_lon": 0.0, "fusion_lat": 0.0, "type": "electric_scooter", "name": "4af3f1a887202aa80797d48454bbe23d", "is_disabled": 0, "rental_uris": {"ios": "https://dc.lft.to/lastmile_qr_scan", "android": "https://dc.lft.to/lastmile_qr_scan"}, "is_reserved": 0}, {"lon": -77.03232883333334, "bike_id": "71b38abea582723755986f54201ced70", "lat": 38.92991983333334, "fusion_lon": 0.0, "fusion_lat": 0.0, "type": "electric_scooter", "name": "71b38abea582723755986f54201ced70", "is_disabled": 0, "rental_uris": {"ios": "https://dc.lft.to/lastmile_qr_scan", "android": "https://dc.lft.to/lastmile_qr_scan"}, "is_reserved": 0}, {"lon": -76.98797316666666, "bike_id": "0ef5a3b4163414b0a9eefc96093f2f50", "lat": 38.89235133333333, "fusion_lon": 0.0, "fusion_lat": 0.0, "type": "electric_scooter", "name": "0ef5a3b4163414b0a9eefc96093f2f50", "is_disabled": 0, "rental_uris": {"ios": "https://dc.lft.to/lastmile_qr_scan", "android": "https://dc.lft.to/lastmile_qr_scan"}, "is_reserved": 0}, {"lon": -77.04344683333333, "bike_id": "5b3899b26726716fa13e55e56bbb719d", "lat": 38.9083165, "fusion_lon": 0.0, "fusion_lat": 0.0, "type": "electric_scooter", "name": "5b3899b26726716fa13e55e56bbb719d", "is_disabled": 0, "rental_uris": {"ios": "https://dc.lft.to/lastmile_qr_scan", "android": "https://dc.lft.to/lastmile_qr_scan"}, "is_reserved": 0}, {"lon": -77.04114033333333, "bike_id": "157866afb24e50012806aafcd352b285", "lat": 38.915566166666665, "fusion_lon": 0.0, "fusion_lat": 0.0, "type": "electric_scooter", "name": "157866afb24e50012806aafcd352b285", "is_disabled": 0, "rental_uris": {"ios": "https://dc.lft.to/lastmile_qr_scan", "android": "https://dc.lft.to/lastmile_qr_scan"}, "is_reserved": 0}, {"lon": -77.03182633333333, "bike_id": "4324b6edfa086e41eeeab7c80044a4fd", "lat": 38.8962285, "fusion_lon": 0.0, "fusion_lat": 0.0, "type": "electric_scooter", "name": "4324b6edfa086e41eeeab7c80044a4fd", "is_disabled": 0, "rental_uris": {"ios": "https://dc.lft.to/lastmile_qr_scan", "android": "https://dc.lft.to/lastmile_qr_scan"}, "is_reserved": 0}, {"lon": -77.026904, "bike_id": "127c35a6bb522589076cdf097d06a37a", "lat": 38.9181235, "fusion_lon": 0.0, "fusion_lat": 0.0, "type": "electric_scooter", "name": "127c35a6bb522589076cdf097d06a37a", "is_disabled": 0, "rental_uris": {"ios": "https://dc.lft.to/lastmile_qr_scan", "android": "https://dc.lft.to/lastmile_qr_scan"}, "is_reserved": 0}, {"lon": -77.0057875, "bike_id": "bc4a53ee3475dd8e482257df89d399c0", "lat": 38.829993, "fusion_lon": 0.0, "fusion_lat": 0.0, "type": "electric_scooter", "name": "bc4a53ee3475dd8e482257df89d399c0", "is_disabled": 0, "rental_uris": {"ios": "https://dc.lft.to/lastmile_qr_scan", "android": "https://dc.lft.to/lastmile_qr_scan"}, "is_reserved": 0}, {"lon": -77.02590616666667, "bike_id": "1e03a38fd9e435f84208546dd54abcbf", "lat": 38.90351, "fusion_lon": 0.0, "fusion_lat": 0.0, "type": "electric_scooter", "name": "1e03a38fd9e435f84208546dd54abcbf", "is_disabled": 0, "rental_uris": {"ios": "https://dc.lft.to/lastmile_qr_scan", "android": "https://dc.lft.to/lastmile_qr_scan"}, "is_reserved": 0}, {"lon": -77.02510666666667, "bike_id": "9235ca2e77e803125ed9f1d45e3090a8", "lat": 38.920491, "fusion_lon": 0.0, "fusion_lat": 0.0, "type": "electric_scooter", "name": "9235ca2e77e803125ed9f1d45e3090a8", "is_disabled": 0, "rental_uris": {"ios": "https://dc.lft.to/lastmile_qr_scan", "android": "https://dc.lft.to/lastmile_qr_scan"}, "is_reserved": 0}, {"lon": -77.0222025, "bike_id": "cb0d3a44b542ce6d0fc942385a013db4", "lat": 38.93545616666667, "fusion_lon": 0.0, "fusion_lat": 0.0, "type": "electric_scooter", "name": "cb0d3a44b542ce6d0fc942385a013db4", "is_disabled": 0, "rental_uris": {"ios": "https://dc.lft.to/lastmile_qr_scan", "android": "https://dc.lft.to/lastmile_qr_scan"}, "is_reserved": 0}, {"lon": -76.98145216666667, "bike_id": "eb858437497a8dbc1d546dda9acec2d2", "lat": 38.905624333333336, "fusion_lon": 0.0, "fusion_lat": 0.0, "type": "electric_scooter", "name": "eb858437497a8dbc1d546dda9acec2d2", "is_disabled": 0, "rental_uris": {"ios": "https://dc.lft.to/lastmile_qr_scan", "android": "https://dc.lft.to/lastmile_qr_scan"}, "is_reserved": 0}, {"lon": -77.07822716666666, "bike_id": "0a80c0b20d7d6b510ccb1f3d69669cce", "lat": 38.923633, "fusion_lon": 0.0, "fusion_lat": 0.0, "type": "electric_scooter", "name": "0a80c0b20d7d6b510ccb1f3d69669cce", "is_disabled": 0, "rental_uris": {"ios": "https://dc.lft.to/lastmile_qr_scan", "android": "https://dc.lft.to/lastmile_qr_scan"}, "is_reserved": 0}, {"lon": -77.03446833333334, "bike_id": "9dbd34ab06e5276b144de47d94680517", "lat": 38.908105, "fusion_lon": 0.0, "fusion_lat": 0.0, "type": "electric_scooter", "name": "9dbd34ab06e5276b144de47d94680517", "is_disabled": 0, "rental_uris": {"ios": "https://dc.lft.to/lastmile_qr_scan", "android": "https://dc.lft.to/lastmile_qr_scan"}, "is_reserved": 0}, {"lon": -77.0947255, "bike_id": "61ad051105ff2a494017608dac067228", "lat": 38.869415333333336, "fusion_lon": 0.0, "fusion_lat": 0.0, "type": "electric_bike", "name": "61ad051105ff2a494017608dac067228", "is_disabled": 0, "rental_uris": {"ios": "https://dc.lft.to/lastmile_qr_scan", "android": "https://dc.lft.to/lastmile_qr_scan"}, "is_reserved": 0}, {"lon": -77.043486, "bike_id": "45de95def76bf49d49f72cd16dfe783b", "lat": 38.9121255, "fusion_lon": 0.0, "fusion_lat": 0.0, "type": "electric_scooter", "name": "45de95def76bf49d49f72cd16dfe783b", "is_disabled": 0, "rental_uris": {"ios": "https://dc.lft.to/lastmile_qr_scan", "android": "https://dc.lft.to/lastmile_qr_scan"}, "is_reserved": 0}, {"lon": -77.0487325, "bike_id": "7518096ccd0dadd9d9ed5f272c36e692", "lat": 38.90720816666666, "fusion_lon": 0.0, "fusion_lat": 0.0, "type": "electric_scooter", "name": "7518096ccd0dadd9d9ed5f272c36e692", "is_disabled": 0, "rental_uris": {"ios": "https://dc.lft.to/lastmile_qr_scan", "android": "https://dc.lft.to/lastmile_qr_scan"}, "is_reserved": 0}, {"lon": -77.042575, "bike_id": "b42619a0388b069e6b049ce102e04423", "lat": 38.900070166666666, "fusion_lon": 0.0, "fusion_lat": 0.0, "type": "electric_scooter", "name": "b42619a0388b069e6b049ce102e04423", "is_disabled": 0, "rental_uris": {"ios": "https://dc.lft.to/lastmile_qr_scan", "android": "https://dc.lft.to/lastmile_qr_scan"}, "is_reserved": 0}, {"lon": -77.105249, "bike_id": "1a3e9576d8001539260defea99d1fff6", "lat": 38.8737065, "fusion_lon": 0.0, "fusion_lat": 0.0, "type": "electric_bike", "name": "1a3e9576d8001539260defea99d1fff6", "is_disabled": 0, "rental_uris": {"ios": "https://dc.lft.to/lastmile_qr_scan", "android": "https://dc.lft.to/lastmile_qr_scan"}, "is_reserved": 0}, {"lon": -77.03324133333334, "bike_id": "fa81d3f0ee6328f1acd6752dd23b0e00", "lat": 38.902855833333334, "fusion_lon": 0.0, "fusion_lat": 0.0, "type": "electric_scooter", "name": "fa81d3f0ee6328f1acd6752dd23b0e00", "is_disabled": 0, "rental_uris": {"ios": "https://dc.lft.to/lastmile_qr_scan", "android": "https://dc.lft.to/lastmile_qr_scan"}, "is_reserved": 0}, {"lon": -77.02949583333333, "bike_id": "e89c5b68b7f085da2b9541e7314190b9", "lat": 38.908367, "fusion_lon": 0.0, "fusion_lat": 0.0, "type": "electric_bike", "name": "e89c5b68b7f085da2b9541e7314190b9", "is_disabled": 0, "rental_uris": {"ios": "https://dc.lft.to/lastmile_qr_scan", "android": "https://dc.lft.to/lastmile_qr_scan"}, "is_reserved": 0}, {"lon": -77.0389585, "bike_id": "e79f40fce5039111ec5879393a8e747b", "lat": 38.92231683333333, "fusion_lon": 0.0, "fusion_lat": 0.0, "type": "electric_scooter", "name": "e79f40fce5039111ec5879393a8e747b", "is_disabled": 0, "rental_uris": {"ios": "https://dc.lft.to/lastmile_qr_scan", "android": "https://dc.lft.to/lastmile_qr_scan"}, "is_reserved": 0}, {"lon": -77.003118, "bike_id": "5b2da33e71b5257d0e0eef542756cb80", "lat": 38.923502166666665, "fusion_lon": 0.0, "fusion_lat": 0.0, "type": "electric_scooter", "name": "5b2da33e71b5257d0e0eef542756cb80", "is_disabled": 0, "rental_uris": {"ios": "https://dc.lft.to/lastmile_qr_scan", "android": "https://dc.lft.to/lastmile_qr_scan"}, "is_reserved": 0},