{"data": {"bikes": [{"is_disabled": 0, "is_reserved": 0, "fusion_lat": 0.0, "lat": 38.927193833333334, "fusion_lon": 0.0, "rental_uris": {"ios": "https://dc.lft.to/lastmile_qr_scan", "android": "https://dc.lft.to/lastmile_qr_scan"}, "lon": -77.02298366666666, "bike_id": "af544a59034d3afc643f7c52f8204a3e", "type": "electric_scooter", "name": "af544a59034d3afc643f7c52f8204a3e"}, {"is_disabled": 0, "is_reserved": 0, "fusion_lat": 0.0, "lat": 38.86370216666667, "fusion_lon": 0.0, "rental_uris": {"ios": "https://dc.lft.to/lastmile_qr_scan", "android": "https://dc.lft.to/lastmile_qr_scan"}, "lon": -77.013674, "bike_id": "ce65c95220e84d8e99d205c29876e848", "type": "electric_scooter", "name": "ce65c95220e84d8e99d205c29876e848"}, {"is_disabled": 0, "is_reserved": 0, "fusion_lat": 0.0, "lat": 38.887320833333334, "fusion_lon": 0.0, "rental_uris": {"ios": "https://dc.lft.to/lastmile_qr_scan", "android": "https://dc.lft.to/lastmile_qr_scan"}, "lon": -76.9835445, "bike_id": "3c0ea23be38657e809401c2cdaace783", "type": "electric_bike", "name": "3c0ea23be38657e809401c2cdaace783"}, {"is_disabled": 0, "is_reserved": 0, "fusion_lat": 0.0, "lat": 38.932524666666666, "fusion_lon": 0.0, "rental_uris": {"ios": "https://dc.lft.to/lastmile_qr_scan", "android": "https://dc.lft.to/lastmile_qr_scan"}, "lon": -77.03279533333334, "bike_id": "01e3abe3b454c8d79aed329beecf65e9", "type": "electric_scooter", "name": "01e3abe3b454c8d79aed329beecf65e9"}, {"is_disabled": 0, "is_reserved": 0, "fusion_lat": 0.0, "lat": 38.927205, "fusion_lon": 0.0, "rental_uris": {"ios": "https://dc.lft.to/lastmile_qr_scan", "android": "https://dc.lft.to/lastmile_qr_scan"}, "lon": -77.0513855, "bike_id": "2e2c1d6f0e223ac6455072ce50646cd1", "type": "electric_scooter", "name": "2e2c1d6f0e223ac6455072ce50646cd1"}, {"is_disabled": 0, "is_reserved": 0, "fusion_lat": 0.0, "lat": 38.89991633333333, "fusion_lon": 0.0, "rental_uris": {"ios": "https://dc.lft.to/lastmile_qr_scan", "android": "https://dc.lft.to/lastmile_qr_scan"}, "lon": -77.02703466666667, "bike_id": "c21bb33246e14a196766a1e83bd47438", "type": "electric_scooter", "name": "c21bb33246e14a196766a1e83bd47438"}, {"is_disabled": 0, "is_reserved": 0, "fusion_lat": 0.0, "lat": 38.8551335, "fusion_lon": 0.0, "rental_uris": {"ios": "https://dc.lft.to/lastmile_qr_scan", "android": "https://dc.lft.to/lastmile_qr_scan"}, "lon": -77.10155916666666, "bike_id": "99aa4c5998eaec1c5b47e02ceda90e63", "type": "electric_bike", "name": "99aa4c5998eaec1c5b47e02ceda90e63"}, {"is_disabled": 0, "is_reserved": 0, "fusion_lat": 0.0, "lat": 38.89270283333333, "fusion_lon": 0.0, "rental_uris": {"ios": "https://dc.lft.to/lastmile_qr_scan", "android": "https://dc.lft.to/lastmile_qr_scan"}, "lon": -77.0465515, "bike_id": "bf6c269b3e5aad551841d752dc6ca986", "type": "electric_scooter", "name": "bf6c269b3e5aad551841d752dc6ca986"}, {"is_disabled": 0, "is_reserved": 0, "fusion_lat": 0.0, "lat": 38.92473716666667, "fusion_lon": 0.0, "rental_uris": {"ios": "https://dc.lft.to/lastmile_qr_scan", "android": "https://dc.lft.to/lastmile_qr_scan"}, "lon": -77.02616266666666, "bike_id": "67e0ce9d18107ef375378a4b429a8d56", "type": "electric_scooter", "name": "67e0ce9d18107ef375378a4b429a8d56"}, {"is_disabled": 0, "is_reserved": 0, "fusion_lat": 0.0, "lat": 38.87853283333333, "fusion_lon": 0.0, "rental_uris": {"ios": "https://dc.lft.to/lastmile_qr_scan", "android": "https://dc.lft.to/lastmile_qr_scan"}, "lon": -77.01878116666667, "bike_id": "bfffaa52daff03cddf33b55a1a4295d6", "type": "electric_scooter", "name": "bfffaa52daff03cddf33b55a1a4295d6"}, {"is_disabled": 0, "is_reserved": 0, "fusion_lat": 0.0, "lat": 38.93662616666667, "fusion_lon": 0.0, "rental_uris": {"ios": "https://dc.lft.to/lastmile_qr_scan", "android": "https://dc.lft.to/lastmile_qr_scan"}, "lon": -77.0661035, "bike_id": "ff20c24567ee2ab4992aa8588fc9e3f4", "type": "electric_scooter", "name": "ff20c24567ee2ab4992aa8588fc9e3f4"}, {"is_disabled": 0, "is_reserved": 0, "fusion_lat": 0.0, "lat": 38.895125, "fusion_lon": 0.0, "rental_uris": {"ios": "https://dc.lft.to/lastmile_qr_scan", "android": "https://dc.lft.to/lastmile_qr_scan"}, "lon": -77.02289816666666, "bike_id": "16eb0f7b50c366fa852ce59a35b2f875", "type": "electric_scooter", "name": "16eb0f7b50c366fa852ce59a35b2f875"}, {"is_disabled": 0, "is_reserved": 0, "fusion_lat": 0.0, "lat": 38.907848333333334, "fusion_lon": 0.0, "rental_uris": {"ios": "https://dc.lft.to/lastmile_qr_scan", "android": "https://dc.lft.to/lastmile_qr_scan"}, "lon": -76.9973165, "bike_id": "7a153c61c859e73f63f4ec4f339e3e14", "type": "electric_scooter", "name": "7a153c61c859e73f63f4ec4f339e3e14"}, {"is_disabled": 0, "is_reserved": 0, "fusion_lat": 0.0, "lat": 38.929714833333335, "fusion_lon": 0.0, "rental_uris": {"ios": "https://dc.lft.to/lastmile_qr_scan", "android": "https://dc.lft.to/lastmile_qr_scan"}, "lon": -77.02340366666667, "bike_id": "4c5948f84260943f92d88db84732a1ff", "type": "electric_scooter", "name": "4c5948f84260943f92d88db84732a1ff"}, {"is_disabled": 0, "is_reserved": 0, "fusion_lat": 0.0, "lat": 38.901225833333335, "fusion_lon": 0.0, "rental_uris": {"ios": "https://dc.lft.to/lastmile_qr_scan", "android": "https://dc.lft.to/lastmile_qr_scan"}, "lon": -76.99718916666667, "bike_id": "45e0c0e79b1dc782dc014a8eae2dcc42", "type": "electric_scooter", "name": "45e0c0e79b1dc782dc014a8eae2dcc42"}, {"is_disabled": 0, "is_reserved": 0, "fusion_lat": 0.0, "lat": 38.9368145, "fusion_lon": 0.0, "rental_uris": {"ios": "https://dc.lft.to/lastmile_qr_scan", "android": "https://dc.lft.to/lastmile_qr_scan"}, "lon": -77.036218, "bike_id": "9dda9cb3570bbac7a30b14b5eb3fae83", "type": "electric_scooter", "name": "9dda9cb3570bbac7a30b14b5eb3fae83"}, {"is_disabled": 0, "is_reserved": 0, "fusion_lat": 0.0, "lat": 38.910174833333336, "fusion_lon": 0.0, "rental_uris": {"ios": "https://dc.lft.to/lastmile_qr_scan", "android": "https://dc.lft.to/lastmile_qr_scan"}, "lon": -77.0364345, "bike_id": "506fe73c0cff6a17c44e2e1168fe6bcb", "type": "electric_scooter", "name": "506fe73c0cff6a17c44e2e1168fe6bcb"}, {"is_disabled": 0, "is_reserved": 0, "fusion_lat": 0.0, "lat": 38.905873166666666, "fusion_lon": 0.0, "rental_uris": {"ios": "https://dc.lft.to/lastmile_qr_scan", "android": "https://dc.lft.to/lastmile_qr_scan"}, "lon": -77.02183616666667, "bike_id": "5f8ecbb492ea73653f2838cf7b9934c4", "type": "electric_scooter", "name": "5f8ecbb492ea73653f2838cf7b9934c4"}, {"is_disabled": 0, "is_reserved": 0, "fusion_lat": 0.0, "lat": 38.912523166666666, "fusion_lon": 0.0, "rental_uris": {"ios": "https://dc.lft.to/lastmile_qr_scan", "android": "https://dc.lft.to/lastmile_qr_scan"}, "lon": -77.01947883333334, "bike_id": "75bc7fe03e8c7ab97ddb0a96ecfe00e5", "type": "electric_scooter", "name": "75bc7fe03e8c7ab97ddb0a96ecfe00e5"}, {"is_disabled": 0, "is_reserved": 0, "fusion_lat": 0.0, "lat": 38.925712833333336, "fusion_lon": 0.0, "rental_uris": {"ios": "https://dc.lft.to/lastmile_qr_scan", "android": "https://dc.lft.to/lastmile_qr_scan"}, "lon": -77.040115, "bike_id": "62aa71dc8b9c45efa698de4bc4172e72", "type": "electric_bike", "name": "62aa71dc8b9c45efa698de4bc4172e72"}, {"is_disabled": 0, "is_reserved": 0, "fusion_lat": 0.0, "lat": 38.9254715, "fusion_lon": 0.0, "rental_uris": {"ios": "https://dc.lft.to/lastmile_qr_scan", "android": "https://dc.lft.to/lastmile_qr_scan"}, "lon": -77.022647, "bike_id": "ab0469e600a8f7708f8c149f56f70cda", "type": "electric_scooter", "name": "ab0469e600a8f7708f8c149f56f70cda"}, {"is_disabled": 0, "is_reserved": 0, "fusion_lat": 0.0, "lat": 38.88624033333333, "fusion_lon": 0.0, "rental_uris": {"ios": "https://dc.lft.to/lastmile_qr_scan", "android": "https://dc.lft.to/lastmile_qr_scan"}, "lon": -77.02818616666667, "bike_id": "f992a21e282662c3e2b1ce488be93ebf", "type": "electric_scooter", "name": "f992a21e282662c3e2b1ce488be93ebf"}, {"is_disabled": 0, "is_reserved": 0, "fusion_lat": 0.0, "lat": 38.9084445, "fusion_lon": 0.0, "rental_uris": {"ios": "https://dc.lft.to/lastmile_qr_scan", "android": "https://dc.lft.to/lastmile_qr_scan"}, "lon": -76.93443483333333, "bike_id": "1bacaaa68c4816175e76a25a3b1cc99c", "type": "electric_scooter", "name": "1bacaaa68c4816175e76a25a3b1cc99c"}, {"is_disabled": 0, "is_reserved": 0, "fusion_lat": 0.0, "lat": 38.923769666666665, "fusion_lon": 0.0, "rental_uris": {"ios": "https://dc.lft.to/lastmile_qr_scan", "android": "https://dc.lft.to/lastmile_qr_scan"}, "lon": -77.03091983333333, "bike_id": "f520023c3762f48f872294a432a118f1", "type": "electric_scooter", "name": "f520023c3762f48f872294a432a118f1"}, {"is_disabled": 0, "is_reserved": 0, "fusion_lat": 0.0, "lat": 38.914225333333334, "fusion_lon": 0.0, "rental_uris": {"ios": "https://dc.lft.to/lastmile_qr_scan", "android": "https://dc.lft.to/lastmile_qr_scan"}, "lon": -77.03175283333333, "bike_id": "aab9008fb98336c3d49adcaa613fe08b", "type": "electric_scooter", "name": "aab9008fb98336c3d49adcaa613fe08b"}, {"is_disabled": 0, "is_reserved": 0, "fusion_lat": 0.0, "lat": 38.92745466666667, "fusion_lon": 0.0, "rental_uris": {"ios": "https://dc.lft.to/lastmile_qr_scan", "android": "https://dc.lft.to/lastmile_qr_scan"}, "lon": -77.03299316666667, "bike_id": "81907887bc3c137eb4ef2f9635420789", "type": "electric_scooter", "name": "81907887bc3c137eb4ef2f9635420789"}, {"is_disabled": 0, "is_reserved": 0, "fusion_lat": 0.0, "lat": 38.96800733333333, "fusion_lon": 0.0, "rental_uris": {"ios": "https://dc.lft.to/lastmile_qr_scan", "android": "https://dc.lft.to/lastmile_qr_scan"}, "lon": -77.02433016666667, "bike_id": "182c0f72bc9c37847dca3a5bcde4fd31", "type": "electric_scooter", "name": "182c0f72bc9c37847dca3a5bcde4fd31"}, {"is_disabled": 0, "is_reserved": 0, "fusion_lat": 0.0, "lat": 38.871749666666666, "fusion_lon": 0.0, "rental_uris": {"ios": "https://dc.lft.to/lastmile_qr_scan", "android": "https://dc.lft.to/lastmile_qr_scan"}, "lon": -77.23394283333333, "bike_id": "c42932f00406dcd710c7ffb79b809ec0", "type": "electric_bike", "name": "c42932f00406dcd710c7ffb79b809ec0"}, {"is_disabled": 0, "is_reserved": 0, "fusion_lat": 0.0, "lat": 38.941792, "fusion_lon": 0.0, "rental_uris": {"ios": "https://dc.lft.to/lastmile_qr_scan", "android": "https://dc.lft.to/lastmile_qr_scan"}, "lon": -77.033921, "bike_id": "ed02e0c2021db2e06d484db29387255e", "type": "electric_scooter", "name": "ed02e0c2021db2e06d484db29387255e"}, {"is_disabled": 0, "is_reserved": 0, "fusion_lat": 0.0, "lat": 38.9191915, "fusion_lon": 0.0, "rental_uris": {"ios": "https://dc.lft.to/lastmile_qr_scan", "android": "https://dc.lft.to/lastmile_qr_scan"}, "lon": -77.00996266666667, "bike_id": "8f890c32f4272e40668ae7422da7d41e", "type": "electric_scooter", "name": "8f890c32f4272e40668ae7422da7d41e"}, {"is_disabled": 0, "is_reserved": 0, "fusion_lat": 0.0, "lat": 38.904269666666664, "fusion_lon": 0.0, "rental_uris": {"ios": "https://dc.lft.to/lastmile_qr_scan", "android": "https://dc.lft.to/lastmile_qr_scan"}, "lon": -77.02599433333333, "bike_id": "43baf16ba7faa3f650e1ca3f3466ae11", "type": "electric_scooter", "name": "43baf16ba7faa3f650e1ca3f3466ae11"}, {"is_disabled": 0, "is_reserved": 0, "fusion_lat": 0.0, "lat": 38.918009, "fusion_lon": 0.0, "rental_uris": {"ios": "https://dc.lft.to/lastmile_qr_scan", "android": "https://dc.lft.to/lastmile_qr_scan"}, "lon": -77.03435883333333, "bike_id": "64669730b1c8f26d90cb53fb64f8aae5", "type": "electric_scooter", "name": "64669730b1c8f26d90cb53fb64f8aae5"}, {"is_disabled": 0, "is_reserved": 0, "fusion_lat": 0.0, "lat": 38.903792833333334, "fusion_lon": 0.0, "rental_uris": {"ios": "https://dc.lft.to/lastmile_qr_scan", "android": "https://dc.lft.to/lastmile_qr_scan"}, "lon": -77.04844283333334, "bike_id": "2db0a0e8f38cb188c2177ba87bf27ca3", "type": "electric_scooter", "name": "2db0a0e8f38cb188c2177ba87bf27ca3"}, {"is_disabled": 0, "is_reserved": 0, "fusion_lat": 0.0, "lat": 38.932545, "fusion_lon": 0.0, "rental_uris": {"ios": "https://dc.lft.to/lastmile_qr_scan", "android": "https://dc.lft.to/lastmile_qr_scan"}, "lon": -77.02959016666667, "bike_id": "d80147f5377510f46324da06813905ba", "type": "electric_scooter", "name": "d80147f5377510f46324da06813905ba"}, {"is_disabled": 0, "is_reserved": 0, "fusion_lat": 0.0, "lat": 38.92480966666667, "fusion_lon": 0.0, "rental_uris": {"ios": "https://dc.lft.to/lastmile_qr_scan", "android": "https://dc.lft.to/lastmile_qr_scan"}, "lon": -77.02788466666667, "bike_id": "9a107c4401778c5dc3d1aa9b8cef5eca", "type": "electric_scooter", "name": "9a107c4401778c5dc3d1aa9b8cef5eca"}, {"is_disabled": 0, "is_reserved": 0, "fusion_lat": 0.0, "lat": 38.9531695, "fusion_lon": 0.0, "rental_uris": {"ios": "https://dc.lft.to/lastmile_qr_scan", "android": "https://dc.lft.to/lastmile_qr_scan"}, "lon": -76.99461666666667, "bike_id": "bd3df2e758f17e617a90735c0cfabebe", "type": "electric_scooter", "name": "bd3df2e758f17e617a90735c0cfabebe"}, {"is_disabled": 0, "is_reserved": 0, "fusion_lat": 0.0, "lat": 38.99990116666667, "fusion_lon": 0.0, "rental_uris": {"ios": "https://dc.lft.to/lastmile_qr_scan", "android": "https://dc.lft.to/lastmile_qr_scan"}, "lon": -76.92493183333333, "bike_id": "8391a4edf8c0cab2396d7d209bd79c40", "type": "electric_bike", "name": "8391a4edf8c0cab2396d7d209bd79c40"}, {"is_disabled": 0, "is_reserved": 0, "fusion_lat": 0.0, "lat": 38.88522866666667, "fusion_lon": 0.0, "rental_uris": {"ios": "https://dc.lft.to/lastmile_qr_scan", "android": "https://dc.lft.to/lastmile_qr_scan"}, "lon": -76.9771275, "bike_id": "ce7753e5fb0f63ed3eea641630657a88", "type": "electric_scooter", "name": "ce7753e5fb0f63ed3eea641630657a88"}, {"is_disabled": 0, "is_reserved": 0, "fusion_lat": 0.0, "lat": 38.91811166666667, "fusion_lon": 0.0, "rental_uris": {"ios": "https://dc.lft.to/lastmile_qr_scan", "android": "https://dc.lft.to/lastmile_qr_scan"}, "lon": -77.0270345, "bike_id": "99257de8859110bd5ced7e35412d05c1", "type": "electric_scooter", "name": "99257de8859110bd5ced7e35412d05c1"}, {"is_disabled": 0, "is_reserved": 0, "fusion_lat": 0.0, "lat": 38.90851966666666, "fusion_lon": 0.0, "rental_uris": {"ios": "https://dc.lft.to/lastmile_qr_scan", "android": "https://dc.lft.to/lastmile_qr_scan"}, "lon": -76.99959283333334, "bike_id": "aeaf699ae5f3692d736ad71788fa4d49", "type": "electric_scooter", "name": "aeaf699ae5f3692d736ad71788fa4d49"}, {"is_disabled": 0, "is_reserved": 0, "fusion_lat": 0.0, "lat": 38.89097433333333, "fusion_lon": 0.0, "rental_uris": {"ios": "https://dc.lft.to/lastmile_qr_scan", "android": "https://dc.lft.to/lastmile_qr_scan"}, "lon": -76.94306533333334, "bike_id": "04f87d3e5c1f241ec77d7d2698cd39ad", "type": "electric_scooter", "name": "04f87d3e5c1f241ec77d7d2698cd39ad"}, {"is_disabled": 0, "is_reserved": 0, "fusion_lat": 0.0, "lat": 38.924276, "fusion_lon": 0.0, "rental_uris": {"ios": "https://dc.lft.to/lastmile_qr_scan", "android": "https://dc.lft.to/lastmile_qr_scan"}, "lon": -77.02720916666667, "bike_id": "5987830c1e1790db60fbe0d0f4b373f8", "type": "electric_scooter", "name": "5987830c1e1790db60fbe0d0f4b373f8"}, {"is_disabled": 0, "is_reserved": 0, "fusion_lat": 0.0, "lat": 38.9274995, "fusion_lon": 0.0, "rental_uris": {"ios": "https://dc.lft.to/lastmile_qr_scan", "android": "https://dc.lft.to/lastmile_qr_scan"}, "lon": -77.0330725, "bike_id": "77e114426c8d5eeb8a95eff6fb01b17b", "type": "electric_scooter", "name": "77e114426c8d5eeb8a95eff6fb01b17b"}, {"is_disabled": 0, "is_reserved": 0, "fusion_lat": 0.0, "lat": 38.93694816666667, "fusion_lon": 0.0, "rental_uris": {"ios": "https://dc.lft.to/lastmile_qr_scan", "android": "https://dc.lft.to/lastmile_qr_scan"}, "lon": -77.05597983333334, "bike_id": "193219b5bc086816623e3e0084c121e6", "type": "electric_scooter", "name": "193219b5bc086816623e3e0084c121e6"}, {"is_disabled": 0, "is_reserved": 0, "fusion_lat": 0.0, "lat": 38.915530833333335, "fusion_lon": 0.0, "rental_uris": {"ios": "https://dc.lft.to/lastmile_qr_scan", "android": "https://dc.lft.to/lastmile_qr_scan"}, "lon": -77.00368283333333, "bike_id": "ec12a05775739e5f67f5fdfa4f7af720", "type": "electric_scooter", "name": "ec12a05775739e5f67f5fdfa4f7af720"}, {"is_disabled": 0, "is_reserved": 0, "fusion_lat": 0.0, "lat": 38.901797, "fusion_lon": 0.0, "rental_uris": {"ios": "https://dc.lft.to/lastmile_qr_scan", "android": "https://dc.lft.to/lastmile_qr_scan"}, "lon": -77.0243625, "bike_id": "260fc84aae6c60aeb5075aaea1654378", "type": "electric_scooter", "name": "260fc84aae6c60aeb5075aaea1654378"}, {"is_disabled": 0, "is_reserved": 0, "fusion_lat": 0.0, "lat": 38.91622683333333, "fusion_lon": 0.0, "rental_uris": {"ios": "https://dc.lft.to/lastmile_qr_scan", "android": "https://dc.lft.to/lastmile_qr_scan"}, "lon": -77.02102916666666, "bike_id": "b7d1b124b0a52c4d0f737bce15e68b2d", "type": "electric_scooter", "name": "b7d1b124b0a52c4d0f737bce15e68b2d"}, {"is_disabled": 0, "is_reserved": 0, "fusion_lat": 0.0, "lat": 38.925194166666664, "fusion_lon": 0.0, "rental_uris": {"ios": "https://dc.lft.to/lastmile_qr_scan", "android": "https://dc.lft.to/lastmile_qr_scan"}, "lon": -77.0384245, "bike_id": "ff128769c0f1f0ccc7898049f6ca9846", "type": "electric_scooter", "name": "ff128769c0f1f0ccc7898049f6ca9846"}, {"is_disabled": 0, "is_reserved": 0, "fusion_lat": 0.0, "lat": 38.9270525, "fusion_lon": 0.0, "rental_uris": {"ios": "https://dc.lft.to/lastmile_qr_scan", "android": "https://dc.lft.to/lastmile_qr_scan"}, "lon": -76.96078066666666, "bike_id": "697b7c035a7578bf448b56060400cdfc", "type": "electric_scooter", "name": "697b7c035a7578bf448b56060400cdfc"}, {"is_disabled": 0, "is_reserved": 0, "fusion_lat": 0.0, "lat": 38.91815616666667, "fusion_lon": 0.0, "rental_uris": {"ios": "https://dc.lft.to/lastmile_qr_scan", "android": "https://dc.lft.to/lastmile_qr_scan"}, "lon": -77.02529633333333, "bike_id": "ac31f00ae3658ee27779b4b5cd4f9ca1", "type": "electric_scooter", "name": "ac31f00ae3658ee27779b4b5cd4f9ca1"}, {"is_disabled": 0, "is_reserved": 0, "fusion_lat": 0.0, "lat": 38.94913416666667, "fusion_lon": 0.0, "rental_uris": {"ios": "https://dc.lft.to/lastmile_qr_scan", "android": "https://dc.lft.to/lastmile_qr_scan"}, "lon": -77.02080633333334, "bike_id": "d1f80298efad6eae31fccfc2faf9f821", "type": "electric_scooter", "name": "d1f80298efad6eae31fccfc2faf9f821"}, {"is_disabled": 0, "is_reserved": 0, "fusion_lat": 0.0, "lat": 38.87524283333333, "fusion_lon": 0.0, "rental_uris": {"ios": "https://dc.lft.to/lastmile_qr_scan", "android": "https://dc.lft.to/lastmile_qr_scan"}, "lon": -77.0122595, "bike_id": "de10bd663a41ccb57b1ce599b5618745", "type": "electric_scooter", "name": "de10bd663a41ccb57b1ce599b5618745"}, {"is_disabled": 0, "is_reserved": 0, "fusion_lat": 0.0, "lat": 38.88081183333333, "fusion_lon": 0.0, "rental_uris": {"ios": "https://dc.lft.to/lastmile_qr_scan", "android": "https://dc.lft.to/lastmile_qr_scan"}, "lon": -76.98529966666666, "bike_id": "6f5b263faf72f5e049d76085b3ecd199", "type": "electric_bike", "name": "6f5b263faf72f5e049d76085b3ecd199"}, {"is_disabled": 0, "is_reserved": 0, "fusion_lat": 0.0, "lat": 38.884178666666664, "fusion_lon": 0.0, "rental_uris": {"ios": "https://dc.lft.to/lastmile_qr_scan", "android": "https://dc.lft.to/lastmile_qr_scan"}, "lon": -77.0292055, "bike_id": "3c3f40a1ff43c25c83f501a8ed8ef8b1", "type": "electric_scooter", "name": "3c3f40a1ff43c25c83f501a8ed8ef8b1"}, {"is_disabled": 0, "is_reserved": 0, "fusion_lat": 0.0, "lat": 38.92360933333333, "fusion_lon": 0.0, "rental_uris": {"ios": "https://dc.lft.to/lastmile_qr_scan", "android": "https://dc.lft.to/lastmile_qr_scan"}, "lon": -77.033691, "bike_id": "e2188331c0beddc0f31b3550843a892c", "type": "electric_scooter", "name": "e2188331c0beddc0f31b3550843a892c"}, {"is_disabled": 0, "is_reserved": 0, "fusion_lat": 0.0, "lat": 38.91417166666667, "fusion_lon": 0.0, "rental_uris": {"ios": "https://dc.lft.to/lastmile_qr_scan", "android": "https://dc.lft.to/lastmile_qr_scan"}, "lon": -77.02212983333334, "bike_id": "67b1372bd3f59d1b4157a5c9bb5681d1", "type": "electric_scooter", "name": "67b1372bd3f59d1b4157a5c9bb5681d1"}, {"is_disabled": 0, "is_reserved": 0, "fusion_lat": 0.0, "lat": 38.906219, "fusion_lon": 0.0, "rental_uris": {"ios": "https://dc.lft.to/lastmile_qr_scan", "android": "https://dc.lft.to/lastmile_qr_scan"}, "lon": -76.98663, "bike_id": "3a031db25a14a0484e3264e0f602bebf", "type": "electric_scooter", "name": "3a031db25a14a0484e3264e0f602bebf"}, {"is_disabled": 0, "is_reserved": 0, "fusion_lat": 0.0, "lat": 38.8989625, "fusion_lon": 0.0, "rental_uris": {"ios": "https://dc.lft.to/lastmile_qr_scan", "android": "https://dc.lft.to/lastmile_qr_scan"}, "lon": -77.03222633333333, "bike_id": "c20f0fb3f1013029747dbfe8957ffca7", "type": "electric_scooter", "name": "c20f0fb3f1013029747dbfe8957ffca7"}, {"is_disabled": 0, "is_reserved": 0, "fusion_lat": 0.0, "lat": 38.87163616666667, "fusion_lon": 0.0, "rental_uris": {"ios": "https://dc.lft.to/lastmile_qr_scan", "android": "https://dc.lft.to/lastmile_qr_scan"}, "lon": -77.013574, "bike_id": "12771259a540f9db734f941c49cb1417", "type": "electric_scooter", "name": "12771259a540f9db734f941c49cb1417"}, {"is_disabled": 0, "is_reserved": 0, "fusion_lat": 0.0, "lat": 38.90478616666667, "fusion_lon": 0.0, "rental_uris": {"ios": "https://dc.lft.to/lastmile_qr_scan", "android": "https://dc.lft.to/lastmile_qr_scan"}, "lon": -76.95056533333333, "bike_id": "cd76333171e63ec218eef40635c3dc71", "type": "electric_scooter", "name": "cd76333171e63ec218eef40635c3dc71"}, {"is_disabled": 0, "is_reserved": 0, "fusion_lat": 0.0, "lat": 38.90482266666667, "fusion_lon": 0.0, "rental_uris": {"ios": "https://dc.lft.to/lastmile_qr_scan", "android": "https://dc.lft.to/lastmile_qr_scan"}, "lon": -77.04849583333333, "bike_id": "4fe6a925c295753e06454ee818a01472", "type": "electric_scooter", "name": "4fe6a925c295753e06454ee818a01472"}, {"is_disabled": 0, "is_reserved": 0, "fusion_lat": 0.0, "lat": 38.909131, "fusion_lon": 0.0, "rental_uris": {"ios": "https://dc.lft.to/lastmile_qr_scan", "android": "https://dc.lft.to/lastmile_qr_scan"}, "lon": -77.04421583333334, "bike_id": "14a8ca38a68e9c1458c12dc98ae80369", "type": "electric_scooter", "name": "14a8ca38a68e9c1458c12dc98ae80369"}, {"is_disabled": 0, "is_reserved": 0, "fusion_lat": 0.0, "lat": 38.9308095, "fusion_lon": 0.0, "rental_uris": {"ios": "https://dc.lft.to/lastmile_qr_scan", "android": "https://dc.lft.to/lastmile_qr_scan"}, "lon": -77.028066, "bike_id": "f98ed9eed169b0bc3de110e6b980224c", "type": "electric_scooter", "name": "f98ed9eed169b0bc3de110e6b980224c"}, {"is_disabled": 0, "is_reserved": 0, "fusion_lat": 0.0, "lat": 38.85530383333333, "fusion_lon": 0.0, "rental_uris": {"ios": "https://dc.lft.to/lastmile_qr_scan", "android": "https://dc.lft.to/lastmile_qr_scan"}, "lon": -76.9918405, "bike_id": "27ee1a5364d3425fb646938917cfc8c8", "type": "electric_scooter", "name": "27ee1a5364d3425fb646938917cfc8c8"}, {"is_disabled": 0, "is_reserved": 0, "fusion_lat": 0.0, "lat": 38.92058733333333, "fusion_lon": 0.0, "rental_uris": {"ios": "https://dc.lft.to/lastmile_qr_scan", "android": "https://dc.lft.to/lastmile_qr_scan"}, "lon": -77.024077, "bike_id": "018033925a81e36c5a230773c734b49d", "type": "electric_scooter", "name": "018033925a81e36c5a230773c734b49d"}, {"is_disabled": 0, "is_reserved": 0, "fusion_lat": 0.0, "lat": 38.892238166666665, "fusion_lon": 0.0, "rental_uris": {"ios": "https://dc.lft.to/lastmile_qr_scan", "android": "https://dc.lft.to/lastmile_qr_scan"}, "lon": -77.02783766666667, "bike_id": "bbbab057e7162f75a0bafbe42ff81de8", "type": "electric_scooter", "name": "bbbab057e7162f75a0bafbe42ff81de8"}, {"is_disabled": 0, "is_reserved": 0, "fusion_lat": 0.0, "lat": 38.875154, "fusion_lon": 0.0, "rental_uris": {"ios": "https://dc.lft.to/lastmile_qr_scan", "android": "https://dc.lft.to/lastmile_qr_scan"}, "lon": -77.11757633333333, "bike_id": "4b4b9d95550d53ae92a2edc414a3c113", "type": "electric_bike", "name": "4b4b9d95550d53ae92a2edc414a3c113"}, {"is_disabled": 0, "is_reserved": 0, "fusion_lat": 0.0, "lat": 38.900326, "fusion_lon": 0.0, "rental_uris": {"ios": "https://dc.lft.to/lastmile_qr_scan", "android": "https://dc.lft.to/lastmile_qr_scan"}, "lon": -77.01192033333334, "bike_id": "0fe44fcccf906117dd22d7a6e253ddb7", "type": "electric_scooter", "name": "0fe44fcccf906117dd22d7a6e253ddb7"}, {"is_disabled": 0, "is_reserved": 0, "fusion_lat": 0.0, "lat": 38.8848655, "fusion_lon": 0.0, "rental_uris": {"ios": "https://dc.lft.to/lastmile_qr_scan", "android": "https://dc.lft.to/lastmile_qr_scan"}, "lon": -77.03477116666667, "bike_id": "cb4592c04a40418aac3fbef627c1b1a5", "type": "electric_scooter", "name": "cb4592c04a40418aac3fbef627c1b1a5"}, {"is_disabled": 0, "is_reserved": 0, "fusion_lat": 0.0, "lat": 38.9070675, "fusion_lon": 0.0, "rental_uris": {"ios": "https://dc.lft.to/lastmile_qr_scan", "android": "https://dc.lft.to/lastmile_qr_scan"}, "lon": -77.03200516666666, "bike_id": "b551a6c4cff64ded219e96b2ec0077d3", "type": "electric_scooter", "name": "b551a6c4cff64ded219e96b2ec0077d3"}, {"is_disabled": 0, "is_reserved": 0, "fusion_lat": 0.0, "lat": 38.919879333333334, "fusion_lon": 0.0, "rental_uris": {"ios": "https://dc.lft.to/lastmile_qr_scan", "android": "https://dc.lft.to/lastmile_qr_scan"}, "lon": -77.0416915, "bike_id": "8e62366df1531841869937f1d14a0cde", "type": "electric_scooter", "name": "8e62366df1531841869937f1d14a0cde"}, {"is_disabled": 0, "is_reserved": 0, "fusion_lat": 0.0, "lat": 38.911271, "fusion_lon": 0.0, "rental_uris": {"ios": "https://dc.lft.to/lastmile_qr_scan", "android": "https://dc.lft.to/lastmile_qr_scan"}, "lon": -77.02095983333334, "bike_id": "97cbdccc70d536c4e64ca4b0674e3e69", "type": "electric_scooter", "name": "97cbdccc70d536c4e64ca4b0674e3e69"}, {"is_disabled": 0, "is_reserved": 0, "fusion_lat": 0.0, "lat": 38.9326215, "fusion_lon": 0.0, "rental_uris": {"ios": "https://dc.lft.to/lastmile_qr_scan", "android": "https://dc.lft.to/lastmile_qr_scan"}, "lon": -77.02063816666667, "bike_id": "b045f303c51bf8d9faf8ce7b97f8abd1", "type": "electric_bike", "name": "b045f303c51bf8d9faf8ce7b97f8abd1"}, {"is_disabled": 0, "is_reserved": 0, "fusion_lat": 0.0, "lat": 38.905477, "fusion_lon": 0.0, "rental_uris": {"ios": "https://dc.lft.to/lastmile_qr_scan", "android": "https://dc.lft.to/lastmile_qr_scan"}, "lon": -77.02213866666666, "bike_id": "9cbc4886478d73a45a8d6f938f853df4", "type": "electric_scooter", "name": "9cbc4886478d73a45a8d6f938f853df4"}, {"is_disabled": 0, "is_reserved": 0, "fusion_lat": 0.0, "lat": 38.91816566666667, "fusion_lon": 0.0, "rental_uris": {"ios": "https://dc.lft.to/lastmile_qr_scan", "android": "https://dc.lft.to/lastmile_qr_scan"}, "lon": -77.024732, "bike_id": "e36f233e4039e99beab370c5a0992d3f", "type": "electric_scooter", "name": "e36f233e4039e99beab370c5a0992d3f"}, {"is_disabled": 0, "is_reserved": 0, "fusion_lat": 0.0, "lat": 38.91581566666667, "fusion_lon": 0.0, "rental_uris": {"ios": "https://dc.lft.to/lastmile_qr_scan", "android": "https://dc.lft.to/lastmile_qr_scan"}, "lon": -77.0199395, "bike_id": "1c0495f5f442a8d76870a98f6b97da01", "type": "electric_scooter", "name": "1c0495f5f442a8d76870a98f6b97da01"}, {"is_disabled": 0, "is_reserved": 0, "fusion_lat": 0.0, "lat": 38.898938666666666, "fusion_lon": 0.0, "rental_uris": {"ios": "https://dc.lft.to/lastmile_qr_scan", "android": "https://dc.lft.to/lastmile_qr_scan"}, "lon": -77.00195816666667, "bike_id": "c78a2e72f0464c00ab44b02ea424bd85", "type": "electric_bike", "name": "c78a2e72f0464c00ab44b02ea424bd85"}, {"is_disabled": 0, "is_reserved": 0, "fusion_lat": 0.0, "lat": 38.9111695, "fusion_lon": 0.0, "rental_uris": {"ios": "https://dc.lft.to/lastmile_qr_scan", "android": "https://dc.lft.to/lastmile_qr_scan"}, "lon": -77.03829116666667, "bike_id": "c693848ef712f789c545a3e746fe3bb4", "type": "electric_scooter", "name": "c693848ef712f789c545a3e746fe3bb4"}, {"is_disabled": 0, "is_reserved": 0, "fusion_lat": 0.0, "lat": 38.92251383333333, "fusion_lon": 0.0, "rental_uris": {"ios": "https://dc.lft.to/lastmile_qr_scan", "android": "https://dc.lft.to/lastmile_qr_scan"}, "lon": -77.03069083333334, "bike_id": "2a3e13b579c61b824c45319f44bc523e", "type": "electric_scooter", "name": "2a3e13b579c61b824c45319f44bc523e"}, {"is_disabled": 0, "is_reserved": 0, "fusion_lat": 0.0, "lat": 39.0106925, "fusion_lon": 0.0, "rental_uris": {"ios": "https://dc.lft.to/lastmile_qr_scan", "android": "https://dc.lft.to/lastmile_qr_scan"}, "lon": -76.92245266666667, "bike_id": "4010340f280e128b4a7156a69d320516", "type": "electric_bike", "name": "4010340f280e128b4a7156a69d320516"}, {"is_disabled": 0, "is_reserved": 0, "fusion_lat": 0.0, "lat": 38.920335666666666, "fusion_lon": 0.0, "rental_uris": {"ios": "https://dc.lft.to/lastmile_qr_scan", "android": "https://dc.lft.to/lastmile_qr_scan"}, "lon": -77.02602033333334, "bike_id": "36fefda2bf56529fc0c01bdf7fc7bdf4", "type": "electric_scooter", "name": "36fefda2bf56529fc0c01bdf7fc7bdf4"}, {"is_disabled": 0, "is_reserved": 0, "fusion_lat": 0.0, "lat": 38.872152166666666, "fusion_lon": 0.0, "rental_uris": {"ios": "https://dc.lft.to/lastmile_qr_scan", "android": "https://dc.lft.to/lastmile_qr_scan"}, "lon": -77.22833916666667, "bike_id": "9025829f462f8a834819453b49c5d370", "type": "electric_bike", "name": "9025829f462f8a834819453b49c5d370"}, {"is_disabled": 0, "is_reserved": 0, "fusion_lat": 0.0, "lat": 38.93271933333333, "fusion_lon": 0.0, "rental_uris": {"ios": "https://dc.lft.to/lastmile_qr_scan", "android": "https://dc.lft.to/lastmile_qr_scan"}, "lon": -77.03490416666666, "bike_id": "3990ed057a2574c6d99a798b3e1984cf", "type": "electric_scooter", "name": "3990ed057a2574c6d99a798b3e1984cf"}, {"is_disabled": 0, "is_reserved": 0, "fusion_lat": 0.0, "lat": 38.916867833333335, "fusion_lon": 0.0, "rental_uris": {"ios": "https://dc.lft.to/lastmile_qr_scan", "android": "https://dc.lft.to/lastmile_qr_scan"}, "lon": -77.02512316666666, "bike_id": "126836b8927627506b545102f69c159e", "type": "electric_scooter", "name": "126836b8927627506b545102f69c159e"}, {"is_disabled": 0, "is_reserved": 0, "fusion_lat": 0.0, "lat": 38.921483333333335, "fusion_lon": 0.0, "rental_uris": {"ios": "https://dc.lft.to/lastmile_qr_scan", "android": "https://dc.lft.to/lastmile_qr_scan"}, "lon": -77.0387055, "bike_id": "0a6a9f63b95c62ed894183440ea9fdd9", "type": "electric_scooter", "name": "0a6a9f63b95c62ed894183440ea9fdd9"}, {"is_disabled": 0, "is_reserved": 0, "fusion_lat": 0.0, "lat": 38.89219683333334, "fusion_lon": 0.0, "rental_uris": {"ios": "https://dc.lft.to/lastmile_qr_scan", "android": "https://dc.lft.to/lastmile_qr_scan"}, "lon": -77.02415933333333, "bike_id": "095043a854630f4153ba789865c31b91", "type": "electric_scooter", "name": "095043a854630f4153ba789865c31b91"}, {"is_disabled": 0, "is_reserved": 0, "fusion_lat": 0.0, "lat": 38.94098283333334, "fusion_lon": 0.0, "rental_uris": {"ios": "https://dc.lft.to/lastmile_qr_scan", "android": "https://dc.lft.to/lastmile_qr_scan"}, "lon": -77.02509816666667, "bike_id": "bb4326c404a8f01857947de9640e2942", "type": "electric_scooter", "name": "bb4326c404a8f01857947de9640e2942"}, {"is_disabled": 0, "is_reserved": 0, "fusion_lat": 0.0, "lat": 38.912557166666666, "fusion_lon": 0.0, "rental_uris": {"ios": "https://dc.lft.to/lastmile_qr_scan", "android": "https://dc.lft.to/lastmile_qr_scan"}, "lon": -77.038275, "bike_id": "03e40799a91e8178e64b615faf31093e", "type": "electric_scooter", "name": "03e40799a91e8178e64b615faf31093e"}, {"is_disabled": 0, "is_reserved": 0, "fusion_lat": 0.0, "lat": 38.92863216666667, "fusion_lon": 0.0, "rental_uris": {"ios": "https://dc.lft.to/lastmile_qr_scan", "android": "https://dc.lft.to/lastmile_qr_scan"}, "lon": -77.03629483333333, "bike_id": "12623b135321fe20a1fc3838e36ef300", "type": "electric_scooter", "name": "12623b135321fe20a1fc3838e36ef300"}, {"is_disabled": 0, "is_reserved": 0, "fusion_lat": 0.0, "lat": 38.91199483333333, "fusion_lon": 0.0, "rental_uris": {"ios": "https://dc.lft.to/lastmile_qr_scan", "android": "https://dc.lft.to/lastmile_qr_scan"}, "lon": -77.04477283333334, "bike_id": "c4a683bc85efdd7235787f1155eb1729", "type": "electric_scooter", "name": "c4a683bc85efdd7235787f1155eb1729"}, {"is_disabled": 0, "is_reserved": 0, "fusion_lat": 0.0, "lat": 38.9283735, "fusion_lon": 0.0, "rental_uris": {"ios": "https://dc.lft.to/lastmile_qr_scan", "android": "https://dc.lft.to/lastmile_qr_scan"}, "lon": -77.03297683333334, "bike_id": "d8a73b8e962184dfd6a1bca051357a19", "type": "electric_scooter", "name": "d8a73b8e962184dfd6a1bca051357a19"}, {"is_disabled": 0, "is_reserved": 0, "fusion_lat": 0.0, "lat": 38.95357666666666, "fusion_lon": 0.0, "rental_uris": {"ios": "https://dc.lft.to/lastmile_qr_scan", "android": "https://dc.lft.to/lastmile_qr_scan"}, "lon": -76.980878, "bike_id": "c58aadba61674e8172bda5ce87c44e87", "type": "electric_bike", "name": "c58aadba61674e8172bda5ce87c44e87"}, {"is_disabled": 0, "is_reserved": 0, "fusion_lat": 0.0, "lat": 38.898753166666665, "fusion_lon": 0.0, "rental_uris": {"ios": "https://dc.lft.to/lastmile_qr_scan", "android": "https://dc.lft.to/lastmile_qr_scan"}, "lon": -77.04996933333334, "bike_id": "892888b2007cb022521b4c1e785811bf", "type": "electric_scooter", "name": "892888b2007cb022521b4c1e785811bf"}, {"is_disabled": 0, "is_reserved": 0, "fusion_lat": 0.0, "lat": 38.80977083333333, "fusion_lon": 0.0, "rental_uris": {"ios": "https://dc.lft.to/lastmile_qr_scan", "android": "https://dc.lft.to/lastmile_qr_scan"}, "lon": -77.0765785, "bike_id": "333a2c4ff9854d0437e227e6de0e0936", "type": "electric_bike", "name": "333a2c4ff9854d0437e227e6de0e0936"}, {"is_disabled": 0, "is_reserved": 0, "fusion_lat": 0.0, "lat": 38.917127666666666, "fusion_lon": 0.0, "rental_uris": {"ios": "https://dc.lft.to/lastmile_qr_scan", "android": "https://dc.lft.to/lastmile_qr_scan"}, "lon": -77.03162, "bike_id": "7bbe2c837a3593eaaf0f2793fa05bdc4", "type": "electric_scooter", "name": "7bbe2c837a3593eaaf0f2793fa05bdc4"}, {"is_disabled": 0, "is_reserved": 0, "fusion_lat": 0.0, "lat": 38.9140185, "fusion_lon": 0.0, "rental_uris": {"ios": "https://dc.lft.to/lastmile_qr_scan", "android": "https://dc.lft.to/lastmile_qr_scan"}, "lon": -77.01147216666666, "bike_id": "67ad7abe82cdc5cc456b6bb9df8fa28a", "type": "electric_scooter", "name": "67ad7abe82cdc5cc456b6bb9df8fa28a"}, {"is_disabled": 0, "is_reserved": 0, "fusion_lat": 0.0, "lat": 38.86516266666667, "fusion_lon": 0.0, "rental_uris": {"ios": "https://dc.lft.to/lastmile_qr_scan", "android": "https://dc.lft.to/lastmile_qr_scan"}, "lon": -76.97327483333333, "bike_id": "0e8ad9e8337b73aa979c2d10b0a6df5e", "type": "electric_scooter", "name": "0e8ad9e8337b73aa979c2d10b0a6df5e"}, {"is_disabled": 0, "is_reserved": 0, "fusion_lat": 0.0, "lat": 38.936757166666666, "fusion_lon": 0.0, "rental_uris": {"ios": "https://dc.lft.to/lastmile_qr_scan", "android": "https://dc.lft.to/lastmile_qr_scan"}, "lon": -77.03269683333333, "bike_id": "fade1951c34a0a0d5c78ae0d1d5564f7", "type": "electric_scooter", "name": "fade1951c34a0a0d5c78ae0d1d5564f7"}, {"is_disabled": 0, "is_reserved": 0, "fusion_lat": 0.0, "lat": 38.92614283333333, "fusion_lon": 0.0, "rental_uris": {"ios": "https://dc.lft.to/lastmile_qr_scan", "android": "https://dc.lft.to/lastmile_qr_scan"}, "lon": -77.02264866666667, "bike_id": "311f230d98826d0e4c60d1f135215aa1", "type": "electric_scooter", "name": "311f230d98826d0e4c60d1f135215aa1"}, {"is_disabled": 0, "is_reserved": 0, "fusion_lat": 0.0, "lat": 38.906716, "fusion_lon": 0.0, "rental_uris": {"ios": "https://dc.lft.to/lastmile_qr_scan", "android": "https://dc.lft.to/lastmile_qr_scan"}, "lon": -77.02696116666667, "bike_id": "dafb4c3889f91a8988bf2953af1d55ef", "type": "electric_scooter", "name": "dafb4c3889f91a8988bf2953af1d55ef"}, {"is_disabled": 0, "is_reserved": 0, "fusion_lat": 0.0, "lat": 38.9429335, "fusion_lon": 0.0, "rental_uris": {"ios": "https://dc.lft.to/lastmile_qr_scan", "android": "https://dc.lft.to/lastmile_qr_scan"}, "lon": -77.07704033333333, "bike_id": "180485840c82a3c3e4aa3ab8527e5b39", "type": "electric_scooter", "name": "180485840c82a3c3e4aa3ab8527e5b39"}, {"is_disabled": 0, "is_reserved": 0, "fusion_lat": 0.0, "lat": 38.916246666666666, "fusion_lon": 0.0, "rental_uris": {"ios": "https://dc.lft.to/lastmile_qr_scan", "android": "https://dc.lft.to/lastmile_qr_scan"}, "lon": -77.05051433333334, "bike_id": "7e3cef4f0e8bb738055fa3fee21c657d", "type": "electric_scooter", "name": "7e3cef4f0e8bb738055fa3fee21c657d"}, {"is_disabled": 0, "is_reserved": 0, "fusion_lat": 0.0, "lat": 38.9676925, "fusion_lon": 0.0, "rental_uris": {"ios": "https://dc.lft.to/lastmile_qr_scan", "android": "https://dc.lft.to/lastmile_qr_scan"}, "lon": -77.033381, "bike_id": "edf05b5fbdb7747ee60e84333b374937", "type": "electric_scooter", "name": "edf05b5fbdb7747ee60e84333b374937"}, {"is_disabled": 0, "is_reserved": 0, "fusion_lat": 0.0, "lat": 38.92512166666667, "fusion_lon": 0.0, "rental_uris": {"ios": "https://dc.lft.to/lastmile_qr_scan", "android": "https://dc.lft.to/lastmile_qr_scan"}, "lon": -77.02130733333334, "bike_id": "76ec8044e1816ceea4d99ef6902d861f", "type": "electric_scooter", "name": "76ec8044e1816ceea4d99ef6902d861f"}, {"is_disabled": 0, "is_reserved": 0, "fusion_lat": 0.0, "lat": 38.936309, "fusion_lon": 0.0, "rental_uris": {"ios": "https://dc.lft.to/lastmile_qr_scan", "android": "https://dc.lft.to/lastmile_qr_scan"}, "lon": -77.036847, "bike_id": "5f5bbbe4dee68c10ff8385698d3bf03d", "type": "electric_scooter", "name": "5f5bbbe4dee68c10ff8385698d3bf03d"}, {"is_disabled": 0, "is_reserved": 0, "fusion_lat": 0.0, "lat": 38.89198916666667, "fusion_lon": 0.0, "rental_uris": {"ios": "https://dc.lft.to/lastmile_qr_scan", "android": "https://dc.lft.to/lastmile_qr_scan"}, "lon": -77.0438895, "bike_id": "486b43f5f7b229f6214d9f7c75b4dcab", "type": "electric_scooter", "name": "486b43f5f7b229f6214d9f7c75b4dcab"}, {"is_disabled": 0, "is_reserved": 0, "fusion_lat": 0.0, "lat": 38.92161733333333, "fusion_lon": 0.0, "rental_uris": {"ios": "https://dc.lft.to/lastmile_qr_scan", "android": "https://dc.lft.to/lastmile_qr_scan"}, "lon": -77.0338365, "bike_id": "c5c5736d9f72522179fa42089f830cbd", "type": "electric_scooter", "name": "c5c5736d9f72522179fa42089f830cbd"}, {"is_disabled": 0, "is_reserved": 0, "fusion_lat": 0.0, "lat": 38.90085533333333, "fusion_lon": 0.0, "rental_uris": {"ios": "https://dc.lft.to/lastmile_qr_scan", "android": "https://dc.lft.to/lastmile_qr_scan"}, "lon": -77.04769483333334, "bike_id": "75bde00c13a592fed6d64a5e5d97e600", "type": "electric_scooter", "name": "75bde00c13a592fed6d64a5e5d97e600"}, {"is_disabled": 0, "is_reserved": 0, "fusion_lat": 0.0, "lat": 38.927747333333336, "fusion_lon": 0.0, "rental_uris": {"ios": "https://dc.lft.to/lastmile_qr_scan", "android": "https://dc.lft.to/lastmile_qr_scan"}, "lon": -77.05259416666667, "bike_id": "8b5f58678b215e857d9d057cf57e563e", "type": "electric_scooter", "name": "8b5f58678b215e857d9d057cf57e563e"}, {"is_disabled": 0, "is_reserved": 0, "fusion_lat": 0.0, "lat": 38.90672283333333, "fusion_lon": 0.0, "rental_uris": {"ios": "https://dc.lft.to/lastmile_qr_scan", "android": "https://dc.lft.to/lastmile_qr_scan"}, "lon": -77.02707783333334, "bike_id": "66760459b1311d20c570f40a875fbc7d", "type": "electric_scooter", "name": "66760459b1311d20c570f40a875fbc7d"}, {"is_disabled": 0, "is_reserved": 0, "fusion_lat": 0.0, "lat": 39.026446, "fusion_lon": 0.0, "rental_uris": {"ios": "https://dc.lft.to/lastmile_qr_scan", "android": "https://dc.lft.to/lastmile_qr_scan"}, "lon": -77.03684616666666, "bike_id": "ab926aef5016be5d5fd224549a915198", "type": "electric_bike", "name": "ab926aef5016be5d5fd224549a915198"}, {"is_disabled": 0, "is_reserved": 0, "fusion_lat": 0.0, "lat": 38.930192, "fusion_lon": 0.0, "rental_uris": {"ios": "https://dc.lft.to/lastmile_qr_scan", "android": "https://dc.lft.to/lastmile_qr_scan"}, "lon": -77.0233335, "bike_id": "9c13f8e7f4430467922337efd6cdfd54", "type": "electric_scooter", "name": "9c13f8e7f4430467922337efd6cdfd54"}, {"is_disabled": 0, "is_reserved": 0, "fusion_lat": 0.0, "lat": 38.943321, "fusion_lon": 0.0, "rental_uris": {"ios": "https://dc.lft.to/lastmile_qr_scan", "android": "https://dc.lft.to/lastmile_qr_scan"}, "lon": -77.02691233333333, "bike_id": "5ffb631c67df03cd8853f079bb0ab356", "type": "electric_scooter", "name": "5ffb631c67df03cd8853f079bb0ab356"}, {"is_disabled": 0, "is_reserved": 0, "fusion_lat": 0.0, "lat": 38.9051665, "fusion_lon": 0.0, "rental_uris": {"ios": "https://dc.lft.to/lastmile_qr_scan", "android": "https://dc.lft.to/lastmile_qr_scan"}, "lon": -76.95194283333333, "bike_id": "5a370e2094aad16ae92a8e0eaa0f2143", "type": "electric_scooter", "name": "5a370e2094aad16ae92a8e0eaa0f2143"}, {"is_disabled": 0, "is_reserved": 0, "fusion_lat": 0.0, "lat": 38.91417083333333, "fusion_lon": 0.0, "rental_uris": {"ios": "https://dc.lft.to/lastmile_qr_scan", "android": "https://dc.lft.to/lastmile_qr_scan"}, "lon": -77.0521175, "bike_id": "a86c3c46fbbebfc70c6785a9e878ba22", "type": "electric_scooter", "name": "a86c3c46fbbebfc70c6785a9e878ba22"}, {"is_disabled": 0, "is_reserved": 0, "fusion_lat": 0.0, "lat": 38.886269666666664, "fusion_lon": 0.0, "rental_uris": {"ios": "https://dc.lft.to/lastmile_qr_scan", "android": "https://dc.lft.to/lastmile_qr_scan"}, "lon": -76.9263005, "bike_id": "7976e6248d286aefde5c98dc0739688b", "type": "electric_scooter", "name": "7976e6248d286aefde5c98dc0739688b"}, {"is_disabled": 0, "is_reserved": 0, "fusion_lat": 0.0, "lat": 38.92356683333333, "fusion_lon": 0.0, "rental_uris": {"ios": "https://dc.lft.to/lastmile_qr_scan", "android": "https://dc.lft.to/lastmile_qr_scan"}, "lon": -77.021334, "bike_id": "6869aa5c495524e9d11c96a80949f0c0", "type": "electric_scooter", "name": "6869aa5c495524e9d11c96a80949f0c0"}, {"is_disabled": 0, "is_reserved": 0, "fusion_lat": 0.0, "lat": 38.900022166666666, "fusion_lon": 0.0, "rental_uris": {"ios": "https://dc.lft.to/lastmile_qr_scan", "android": "https://dc.lft.to/lastmile_qr_scan"}, "lon": -77.02712716666667, "bike_id": "9deb5da04e371cc588a3f8de2fb21c2a", "type": "electric_scooter", "name": "9deb5da04e371cc588a3f8de2fb21c2a"}, {"is_disabled": 0, "is_reserved": 0, "fusion_lat": 0.0, "lat": 38.93073033333334, "fusion_lon": 0.0, "rental_uris": {"ios": "https://dc.lft.to/lastmile_qr_scan", "android": "https://dc.lft.to/lastmile_qr_scan"}, "lon": -77.04051683333333, "bike_id": "fc9512bc34d26d206b1bc71f5c238d73", "type": "electric_scooter", "name": "fc9512bc34d26d206b1bc71f5c238d73"}, {"is_disabled": 0, "is_reserved": 0, "fusion_lat": 0.0, "lat": 38.92593683333333, "fusion_lon": 0.0, "rental_uris": {"ios": "https://dc.lft.to/lastmile_qr_scan", "android": "https://dc.lft.to/lastmile_qr_scan"}, "lon": -77.05286466666666, "bike_id": "fa978b63d59dee62d62368112357bbda", "type": "electric_scooter", "name": "fa978b63d59dee62d62368112357bbda"}, {"is_disabled": 0, "is_reserved": 0, "fusion_lat": 0.0, "lat": 38.91474083333333, "fusion_lon": 0.0, "rental_uris": {"ios": "https://dc.lft.to/lastmile_qr_scan", "android": "https://dc.lft.to/lastmile_qr_scan"}, "lon": -77.009184, "bike_id": "8899d436628eb83c47f3d7a7db985e8e", "type": "electric_scooter", "name": "8899d436628eb83c47f3d7a7db985e8e"}, {"is_disabled": 0, "is_reserved": 0, "fusion_lat": 0.0, "lat": 38.914606, "fusion_lon": 0.0, "rental_uris": {"ios": "https://dc.lft.to/lastmile_qr_scan", "android": "https://dc.lft.to/lastmile_qr_scan"}, "lon": -77.03196566666666, "bike_id": "a54cf4dfb2fdfa5a5d0886846911e6a6", "type": "electric_scooter", "name": "a54cf4dfb2fdfa5a5d0886846911e6a6"}, {"is_disabled": 0, "is_reserved": 0, "fusion_lat": 0.0, "lat": 38.9026095, "fusion_lon": 0.0, "rental_uris": {"ios": "https://dc.lft.to/lastmile_qr_scan", "android": "https://dc.lft.to/lastmile_qr_scan"}, "lon": -77.0017055, "bike_id": "9b6e6379e119e701b4741e18fbcda59e", "type": "electric_scooter", "name": "9b6e6379e119e701b4741e18fbcda59e"}, {"is_disabled": 0, "is_reserved": 0, "fusion_lat": 0.0, "lat": 38.91359833333333, "fusion_lon": 0.0, "rental_uris": {"ios": "https://dc.lft.to/lastmile_qr_scan", "android": "https://dc.lft.to/lastmile_qr_scan"}, "lon": -77.02047583333334, "bike_id": "17a6a36e123b88851897bb31edb45380", "type": "electric_scooter", "name": "17a6a36e123b88851897bb31edb45380"}, {"is_disabled": 0, "is_reserved": 0, "fusion_lat": 0.0, "lat": 38.9082665, "fusion_lon": 0.0, "rental_uris": {"ios": "https://dc.lft.to/lastmile_qr_scan", "android": "https://dc.lft.to/lastmile_qr_scan"}, "lon": -76.98259333333333, "bike_id": "c29928762112ad1fe0726ee839eeeab9", "type": "electric_scooter", "name": "c29928762112ad1fe0726ee839eeeab9"}, {"is_disabled": 0, "is_reserved": 0, "fusion_lat": 0.0, "lat": 38.925435666666665, "fusion_lon": 0.0, "rental_uris": {"ios": "https://dc.lft.to/lastmile_qr_scan", "android": "https://dc.lft.to/lastmile_qr_scan"}, "lon": -77.03866016666667, "bike_id": "1d770cdcd53559f07966a0e95789a5b4", "type": "electric_scooter", "name": "1d770cdcd53559f07966a0e95789a5b4"}, {"is_disabled": 0, "is_reserved": 0, "fusion_lat": 0.0, "lat": 38.901997333333334, "fusion_lon": 0.0, "rental_uris": {"ios": "https://dc.lft.to/lastmile_qr_scan", "android": "https://dc.lft.to/lastmile_qr_scan"}, "lon": -77.0339545, "bike_id": "b41663525315375aa2f117e846967a84", "type": "electric_scooter", "name": "b41663525315375aa2f117e846967a84"}, {"is_disabled": 0, "is_reserved": 0, "fusion_lat": 0.0, "lat": 38.90780733333333, "fusion_lon": 0.0, "rental_uris": {"ios": "https://dc.lft.to/lastmile_qr_scan", "android": "https://dc.lft.to/lastmile_qr_scan"}, "lon": -77.04506216666667, "bike_id": "4fd85fdaeb1ffc872a778ad6400df76c", "type": "electric_scooter", "name": "4fd85fdaeb1ffc872a778ad6400df76c"}, {"is_disabled": 0, "is_reserved": 0, "fusion_lat": 0.0, "lat": 38.87088283333333, "fusion_lon": 0.0, "rental_uris": {"ios": "https://dc.lft.to/lastmile_qr_scan", "android": "https://dc.lft.to/lastmile_qr_scan"}, "lon": -77.13332316666667, "bike_id": "1f1876a7f65c9357f6f507052960d2e5", "type": "electric_bike", "name": "1f1876a7f65c9357f6f507052960d2e5"}, {"is_disabled": 0, "is_reserved": 0, "fusion_lat": 0.0, "lat": 38.8464735, "fusion_lon": 0.0, "rental_uris": {"ios": "https://dc.lft.to/lastmile_qr_scan", "android": "https://dc.lft.to/lastmile_qr_scan"}, "lon": -77.00366233333334, "bike_id": "bd6a52e4ed2771bcd1585ae0938cf207", "type": "electric_scooter", "name": "bd6a52e4ed2771bcd1585ae0938cf207"}, {"is_disabled": 0, "is_reserved": 0, "fusion_lat": 0.0, "lat": 38.831617333333334, "fusion_lon": 0.0, "rental_uris": {"ios": "https://dc.lft.to/lastmile_qr_scan", "android": "https://dc.lft.to/lastmile_qr_scan"}, "lon": -76.995746, "bike_id": "e683ab8da21dae85dfd387a39b2fdaa7", "type": "electric_bike", "name": "e683ab8da21dae85dfd387a39b2fdaa7"}, {"is_disabled": 0, "is_reserved": 0, "fusion_lat": 0.0, "lat": 38.880256333333335, "fusion_lon": 0.0, "rental_uris": {"ios": "https://dc.lft.to/lastmile_qr_scan", "android": "https://dc.lft.to/lastmile_qr_scan"}, "lon": -76.9432245, "bike_id": "96fd9fbc959765c19d99ad2f8ff0b2f8", "type": "electric_scooter", "name": "96fd9fbc959765c19d99ad2f8ff0b2f8"}, {"is_disabled": 0, "is_reserved": 0, "fusion_lat": 0.0, "lat": 38.91323166666667, "fusion_lon": 0.0, "rental_uris": {"ios": "https://dc.lft.to/lastmile_qr_scan", "android": "https://dc.lft.to/lastmile_qr_scan"}, "lon": -77.03187, "bike_id": "473f7810e86a18efdee253e9f6f9bc64", "type": "electric_scooter", "name": "473f7810e86a18efdee253e9f6f9bc64"}, {"is_disabled": 0, "is_reserved": 0, "fusion_lat": 0.0, "lat": 38.8871195, "fusion_lon": 0.0, "rental_uris": {"ios": "https://dc.lft.to/lastmile_qr_scan", "android": "https://dc.lft.to/lastmile_qr_scan"}, "lon": -76.98341916666666, "bike_id": "7ef951613e06158a87b32c09078e071a", "type": "electric_scooter", "name": "7ef951613e06158a87b32c09078e071a"}, {"is_disabled": 0, "is_reserved": 0, "fusion_lat": 0.0, "lat": 38.919214833333335, "fusion_lon": 0.0, "rental_uris": {"ios": "https://dc.lft.to/lastmile_qr_scan", "android": "https://dc.lft.to/lastmile_qr_scan"}, "lon": -77.0318385, "bike_id": "d21283ec84309b91438fe95f2e0e3ebd", "type": "electric_scooter", "name": "d21283ec84309b91438fe95f2e0e3ebd"}, {"is_disabled": 0, "is_reserved": 0, "fusion_lat": 0.0, "lat": 38.90957516666667, "fusion_lon": 0.0, "rental_uris": {"ios": "https://dc.lft.to/lastmile_qr_scan", "android": "https://dc.lft.to/lastmile_qr_scan"}, "lon": -77.022801, "bike_id": "543acf179962695e532705464e4dfb0f", "type": "electric_scooter", "name": "543acf179962695e532705464e4dfb0f"}, {"is_disabled": 0, "is_reserved": 0, "fusion_lat": 0.0, "lat": 38.9224, "fusion_lon": 0.0, "rental_uris": {"ios": "https://dc.lft.to/lastmile_qr_scan", "android": "https://dc.lft.to/lastmile_qr_scan"}, "lon": -77.03886616666666, "bike_id": "a9ef21c87ac766121b94ce7dca4553b2", "type": "electric_scooter", "name": "a9ef21c87ac766121b94ce7dca4553b2"}, {"is_disabled": 0, "is_reserved": 0, "fusion_lat": 0.0, "lat": 38.900444666666665, "fusion_lon": 0.0, "rental_uris": {"ios": "https://dc.lft.to/lastmile_qr_scan", "android": "https://dc.lft.to/lastmile_qr_scan"}, "lon": -77.01775783333333, "bike_id": "efbd524c430e1e9c16a853ec2d76d9a2", "type": "electric_scooter", "name": "efbd524c430e1e9c16a853ec2d76d9a2"}, {"is_disabled": 0, "is_reserved": 0, "fusion_lat": 0.0, "lat": 38.91577866666667, "fusion_lon": 0.0, "rental_uris": {"ios": "https://dc.lft.to/lastmile_qr_scan", "android": "https://dc.lft.to/lastmile_qr_scan"}, "lon": -77.03939966666667, "bike_id": "bc3b07280ea1fcd5015740db8a46bea2", "type": "electric_scooter", "name": "bc3b07280ea1fcd5015740db8a46bea2"}, {"is_disabled": 0, "is_reserved": 0, "fusion_lat": 0.0, "lat": 38.9171, "fusion_lon": 0.0, "rental_uris": {"ios": "https://dc.lft.to/lastmile_qr_scan", "android": "https://dc.lft.to/lastmile_qr_scan"}, "lon": -77.04124083333333, "bike_id": "91816a9f205ac3afdb9b53ad3e6c529a", "type": "electric_scooter", "name": "91816a9f205ac3afdb9b53ad3e6c529a"}, {"is_disabled": 0, "is_reserved": 0, "fusion_lat": 0.0, "lat": 38.931451833333334, "fusion_lon": 0.0, "rental_uris": {"ios": "https://dc.lft.to/lastmile_qr_scan", "android": "https://dc.lft.to/lastmile_qr_scan"}, "lon": -77.02365233333333, "bike_id": "08dfd03bb0c92b5975f75d846d36808d", "type": "electric_scooter", "name": "08dfd03bb0c92b5975f75d846d36808d"}, {"is_disabled": 0, "is_reserved": 0, "fusion_lat": 0.0, "lat": 38.87746933333333, "fusion_lon": 0.0, "rental_uris": {"ios": "https://dc.lft.to/lastmile_qr_scan", "android": "https://dc.lft.to/lastmile_qr_scan"}, "lon": -77.00704283333333, "bike_id": "2776c897c892100ad0136a896e509007", "type": "electric_scooter", "name": "2776c897c892100ad0136a896e509007"}, {"is_disabled": 0, "is_reserved": 0, "fusion_lat": 0.0, "lat": 38.934492, "fusion_lon": 0.0, "rental_uris": {"ios": "https://dc.lft.to/lastmile_qr_scan", "android": "https://dc.lft.to/lastmile_qr_scan"}, "lon": -77.02974066666667, "bike_id": "4322bf8f77862a17d079cfcf6394c13b", "type": "electric_scooter", "name": "4322bf8f77862a17d079cfcf6394c13b"}, {"is_disabled": 0, "is_reserved": 0, "fusion_lat": 0.0, "lat": 38.91708633333333, "fusion_lon": 0.0, "rental_uris": {"ios": "https://dc.lft.to/lastmile_qr_scan", "android": "https://dc.lft.to/lastmile_qr_scan"}, "lon": -77.034685, "bike_id": "8f97d0108c5cc50ca72ae68dda60f71b", "type": "electric_scooter", "name": "8f97d0108c5cc50ca72ae68dda60f71b"}, {"is_disabled": 0, "is_reserved": 0, "fusion_lat": 0.0, "lat": 38.92787766666667, "fusion_lon": 0.0, "rental_uris": {"ios": "https://dc.lft.to/lastmile_qr_scan", "android": "https://dc.lft.to/lastmile_qr_scan"}, "lon": -77.05579983333334, "bike_id": "37ac752fa0421c48bb911dfb82d06c0d", "type": "electric_scooter", "name": "37ac752fa0421c48bb911dfb82d06c0d"}, {"is_disabled": 0, "is_reserved": 0, "fusion_lat": 0.0, "lat": 38.8981915, "fusion_lon": 0.0, "rental_uris": {"ios": "https://dc.lft.to/lastmile_qr_scan", "android": "https://dc.lft.to/lastmile_qr_scan"}, "lon": -77.02940066666666, "bike_id": "b7c7eedd923e11c4c7b28731f2a4e65f", "type": "electric_scooter", "name": "b7c7eedd923e11c4c7b28731f2a4e65f"}, {"is_disabled": 0, "is_reserved": 0, "fusion_lat": 0.0, "lat": 38.920642, "fusion_lon": 0.0, "rental_uris": {"ios": "https://dc.lft.to/lastmile_qr_scan", "android": "https://dc.lft.to/lastmile_qr_scan"}, "lon": -77.04359016666666, "bike_id": "9db2d415c47e02314838603129d38047", "type": "electric_scooter", "name": "9db2d415c47e02314838603129d38047"}, {"is_disabled": 0, "is_reserved": 0, "fusion_lat": 0.0, "lat": 38.93522683333333, "fusion_lon": 0.0, "rental_uris": {"ios": "https://dc.lft.to/lastmile_qr_scan", "android": "https://dc.lft.to/lastmile_qr_scan"}, "lon": -77.03261766666667, "bike_id": "801286e044bd155c40cb41bb19fb112e", "type": "electric_scooter", "name": "801286e044bd155c40cb41bb19fb112e"}, {"is_disabled": 0, "is_reserved": 0, "fusion_lat": 0.0, "lat": 38.90393433333333, "fusion_lon": 0.0, "rental_uris": {"ios": "https://dc.lft.to/lastmile_qr_scan", "android": "https://dc.lft.to/lastmile_qr_scan"}, "lon": -76.9900615, "bike_id": "c51a9612e24cfc64f3a616d3a72becc1", "type": "electric_scooter", "name": "c51a9612e24cfc64f3a616d3a72becc1"}, {"is_disabled": 0, "is_reserved": 0, "fusion_lat": 0.0, "lat": 38.9560945, "fusion_lon": 0.0, "rental_uris": {"ios": "https://dc.lft.to/lastmile_qr_scan", "android": "https://dc.lft.to/lastmile_qr_scan"}, "lon": -77.03296616666667, "bike_id": "49dc824c1c382c2fc8a8c4a88fe895ea", "type": "electric_scooter", "name": "49dc824c1c382c2fc8a8c4a88fe895ea"}, {"is_disabled": 0, "is_reserved": 0, "fusion_lat": 0.0, "lat": 38.90975516666666, "fusion_lon": 0.0, "rental_uris": {"ios": "https://dc.lft.to/lastmile_qr_scan", "android": "https://dc.lft.to/lastmile_qr_scan"}, "lon": -77.02414733333333, "bike_id": "3b9a93bfbb58a1c25fcc2f0ff23e7a15", "type": "electric_scooter", "name": "3b9a93bfbb58a1c25fcc2f0ff23e7a15"}, {"is_disabled": 0, "is_reserved": 0, "fusion_lat": 0.0, "lat": 38.929752666666666, "fusion_lon": 0.0, "rental_uris": {"ios": "https://dc.lft.to/lastmile_qr_scan", "android": "https://dc.lft.to/lastmile_qr_scan"}, "lon": -77.0279545, "bike_id": "553e01340f5a423fac508ce61c01aabb", "type": "electric_scooter", "name": "553e01340f5a423fac508ce61c01aabb"}, {"is_disabled": 0, "is_reserved": 0, "fusion_lat": 0.0, "lat": 38.9008235, "fusion_lon": 0.0, "rental_uris": {"ios": "https://dc.lft.to/lastmile_qr_scan", "android": "https://dc.lft.to/lastmile_qr_scan"}, "lon": -77.05905183333333, "bike_id": "e6c984d4bc543f2ba54e34786d6ebd6d", "type": "electric_scooter", "name": "e6c984d4bc543f2ba54e34786d6ebd6d"}, {"is_disabled": 0, "is_reserved": 0, "fusion_lat": 0.0, "lat": 38.89197, "fusion_lon": 0.0, "rental_uris": {"ios": "https://dc.lft.to/lastmile_qr_scan", "android": "https://dc.lft.to/lastmile_qr_scan"}, "lon": -77.02229566666666, "bike_id": "bc17b471e4b74376feadf0df47f71268", "type": "electric_scooter", "name": "bc17b471e4b74376feadf0df47f71268"}, {"is_disabled": 0, "is_reserved": 0, "fusion_lat": 0.0, "lat": 38.930169166666666, "fusion_lon": 0.0, "rental_uris": {"ios": "https://dc.lft.to/lastmile_qr_scan", "android": "https://dc.lft.to/lastmile_qr_scan"}, "lon": -77.038007, "bike_id": "28ce8fd8f03166d26d7fd13543e9bbbe", "type": "electric_scooter", "name": "28ce8fd8f03166d26d7fd13543e9bbbe"}, {"is_disabled": 0, "is_reserved": 0, "fusion_lat": 0.0, "lat": 38.906782, "fusion_lon": 0.0, "rental_uris": {"ios": "https://dc.lft.to/lastmile_qr_scan", "android": "https://dc.lft.to/lastmile_qr_scan"}, "lon": -76.97926783333334, "bike_id": "863279970921fe90d9fac1ea4a337e35", "type": "electric_scooter", "name": "863279970921fe90d9fac1ea4a337e35"}, {"is_disabled": 0, "is_reserved": 0, "fusion_lat": 0.0, "lat": 38.92477066666667, "fusion_lon": 0.0, "rental_uris": {"ios": "https://dc.lft.to/lastmile_qr_scan", "android": "https://dc.lft.to/lastmile_qr_scan"}, "lon": -77.0266765, "bike_id": "6a281864e4080eb741e171ae8a220035", "type": "electric_scooter", "name": "6a281864e4080eb741e171ae8a220035"}, {"is_disabled": 0, "is_reserved": 0, "fusion_lat": 0.0, "lat": 38.90412666666667, "fusion_lon": 0.0, "rental_uris": {"ios": "https://dc.lft.to/lastmile_qr_scan", "android": "https://dc.lft.to/lastmile_qr_scan"}, "lon": -77.05319333333334, "bike_id": "f36dcbf06bd5a18a542b248a2afa7699", "type": "electric_scooter", "name": "f36dcbf06bd5a18a542b248a2afa7699"}, {"is_disabled": 0, "is_reserved": 0, "fusion_lat": 0.0, "lat": 38.904175, "fusion_lon": 0.0, "rental_uris": {"ios": "https://dc.lft.to/lastmile_qr_scan", "android": "https://dc.lft.to/lastmile_qr_scan"}, "lon": -77.02593633333333, "bike_id": "c6fcfce22b83848da794ecf24c508c59", "type": "electric_scooter", "name": "c6fcfce22b83848da794ecf24c508c59"}, {"is_disabled": 0, "is_reserved": 0, "fusion_lat": 0.0, "lat": 38.920753, "fusion_lon": 0.0, "rental_uris": {"ios": "https://dc.lft.to/lastmile_qr_scan", "android": "https://dc.lft.to/lastmile_qr_scan"}, "lon": -77.02313716666667, "bike_id": "47eeb71ae5039306047210ddb3979ce2", "type": "electric_scooter", "name": "47eeb71ae5039306047210ddb3979ce2"}, {"is_disabled": 0, "is_reserved": 0, "fusion_lat": 0.0, "lat": 38.887687, "fusion_lon": 0.0, "rental_uris": {"ios": "https://dc.lft.to/lastmile_qr_scan", "android": "https://dc.lft.to/lastmile_qr_scan"}, "lon": -77.03348233333334, "bike_id": "9523a06b14767ef34c6ae525709657e0", "type": "electric_scooter", "name": "9523a06b14767ef34c6ae525709657e0"}, {"is_disabled": 0, "is_reserved": 0, "fusion_lat": 0.0, "lat": 38.918048, "fusion_lon": 0.0, "rental_uris": {"ios": "https://dc.lft.to/lastmile_qr_scan", "android": "https://dc.lft.to/lastmile_qr_scan"}, "lon": -77.03437233333334, "bike_id": "e74729e05384491a49d57c3c9c329381", "type": "electric_scooter", "name": "e74729e05384491a49d57c3c9c329381"}, {"is_disabled": 0, "is_reserved": 0, "fusion_lat": 0.0, "lat": 38.923962333333336, "fusion_lon": 0.0, "rental_uris": {"ios": "https://dc.lft.to/lastmile_qr_scan", "android": "https://dc.lft.to/lastmile_qr_scan"}, "lon": -77.00000483333334, "bike_id": "01a64b0d6ffb7519c6b00d8c5bd3c33b", "type": "electric_bike", "name": "01a64b0d6ffb7519c6b00d8c5bd3c33b"}, {"is_disabled": 0, "is_reserved": 0, "fusion_lat": 0.0, "lat": 38.923852833333335, "fusion_lon": 0.0, "rental_uris": {"ios": "https://dc.lft.to/lastmile_qr_scan", "android": "https://dc.lft.to/lastmile_qr_scan"}, "lon": -77.02746366666666, "bike_id": "24bce6466b3adea11df37e3d48d1119e", "type": "electric_scooter", "name": "24bce6466b3adea11df37e3d48d1119e"}, {"is_disabled": 0, "is_reserved": 0, "fusion_lat": 0.0, "lat": 38.925196, "fusion_lon": 0.0, "rental_uris": {"ios": "https://dc.lft.to/lastmile_qr_scan", "android": "https://dc.lft.to/lastmile_qr_scan"}, "lon": -77.0770705, "bike_id": "31c2f3df167e1fe10381d89fa1cd20cc", "type": "electric_scooter", "name": "31c2f3df167e1fe10381d89fa1cd20cc"}, {"is_disabled": 0, "is_reserved": 0, "fusion_lat": 0.0, "lat": 38.862818833333336, "fusion_lon": 0.0, "rental_uris": {"ios": "https://dc.lft.to/lastmile_qr_scan", "android": "https://dc.lft.to/lastmile_qr_scan"}, "lon": -76.94516766666666, "bike_id": "bb8ffe7f1ef789d5c3b99566f8570c5a", "type": "electric_bike", "name": "bb8ffe7f1ef789d5c3b99566f8570c5a"}, {"is_disabled": 0, "is_reserved": 0, "fusion_lat": 0.0, "lat": 38.93248916666667, "fusion_lon": 0.0, "rental_uris": {"ios": "https://dc.lft.to/lastmile_qr_scan", "android": "https://dc.lft.to/lastmile_qr_scan"}, "lon": -77.03848416666666, "bike_id": "b2459839c6615c927632c83f57b44308", "type": "electric_scooter", "name": "b2459839c6615c927632c83f57b44308"}, {"is_disabled": 0, "is_reserved": 0, "fusion_lat": 0.0, "lat": 38.90954833333333, "fusion_lon": 0.0, "rental_uris": {"ios": "https://dc.lft.to/lastmile_qr_scan", "android": "https://dc.lft.to/lastmile_qr_scan"}, "lon": -77.04857816666667, "bike_id": "e4047892325490732daade25c81f3ce4", "type": "electric_scooter", "name": "e4047892325490732daade25c81f3ce4"}, {"is_disabled": 0, "is_reserved": 0, "fusion_lat": 0.0, "lat": 38.906234833333336, "fusion_lon": 0.0, "rental_uris": {"ios": "https://dc.lft.to/lastmile_qr_scan", "android": "https://dc.lft.to/lastmile_qr_scan"}, "lon": -77.07028833333334, "bike_id": "145ebcb404e92b3a1b7b9f192221d92f", "type": "electric_scooter", "name": "145ebcb404e92b3a1b7b9f192221d92f"}, {"is_disabled": 0, "is_reserved": 0, "fusion_lat": 0.0, "lat": 38.91257, "fusion_lon": 0.0, "rental_uris": {"ios": "https://dc.lft.to/lastmile_qr_scan", "android": "https://dc.lft.to/lastmile_qr_scan"}, "lon": -77.038633, "bike_id": "73db65e507fc87306c274c84a3fd41e5", "type": "electric_scooter", "name": "73db65e507fc87306c274c84a3fd41e5"}, {"is_disabled": 0, "is_reserved": 0, "fusion_lat": 0.0, "lat": 38.92490733333333, "fusion_lon": 0.0, "rental_uris": {"ios": "https://dc.lft.to/lastmile_qr_scan", "android": "https://dc.lft.to/lastmile_qr_scan"}, "lon": -77.02514016666667, "bike_id": "213b123daf9769064c0d57a96afaa6fd", "type": "electric_scooter", "name": "213b123daf9769064c0d57a96afaa6fd"}, {"is_disabled": 0, "is_reserved": 0, "fusion_lat": 0.0, "lat": 38.906556, "fusion_lon": 0.0, "rental_uris": {"ios": "https://dc.lft.to/lastmile_qr_scan", "android": "https://dc.lft.to/lastmile_qr_scan"}, "lon": -76.979395, "bike_id": "7996ea57436b407d424c9cf505e6c4e8", "type": "electric_scooter", "name": "7996ea57436b407d424c9cf505e6c4e8"}, {"is_disabled": 0, "is_reserved": 0, "fusion_lat": 0.0, "lat": 38.89364166666667, "fusion_lon": 0.0, "rental_uris": {"ios": "https://dc.lft.to/lastmile_qr_scan", "android": "https://dc.lft.to/lastmile_qr_scan"}, "lon": -77.01981783333333, "bike_id": "cdba53f0eb9138a5bceacc01ed4637f2", "type": "electric_scooter", "name": "cdba53f0eb9138a5bceacc01ed4637f2"}, {"is_disabled": 0, "is_reserved": 0, "fusion_lat": 0.0, "lat": 38.91647733333333, "fusion_lon": 0.0, "rental_uris": {"ios": "https://dc.lft.to/lastmile_qr_scan", "android": "https://dc.lft.to/lastmile_qr_scan"}, "lon": -77.02393516666666, "bike_id": "e9bb431372baaa8ac7f96a249d0ea3ae", "type": "electric_scooter", "name": "e9bb431372baaa8ac7f96a249d0ea3ae"}, {"is_disabled": 0, "is_reserved": 0, "fusion_lat": 0.0, "lat": 38.920921, "fusion_lon": 0.0, "rental_uris": {"ios": "https://dc.lft.to/lastmile_qr_scan", "android": "https://dc.lft.to/lastmile_qr_scan"}, "lon": -77.02506783333334, "bike_id": "6d611bd7862a6a6a54680e841aa08963", "type": "electric_scooter", "name": "6d611bd7862a6a6a54680e841aa08963"}, {"is_disabled": 0, "is_reserved": 0, "fusion_lat": 0.0, "lat": 38.88112366666667, "fusion_lon": 0.0, "rental_uris": {"ios": "https://dc.lft.to/lastmile_qr_scan", "android": "https://dc.lft.to/lastmile_qr_scan"}, "lon": -77.016815, "bike_id": "c05de88880149f1a644d0b40b770c3f1", "type": "electric_bike", "name": "c05de88880149f1a644d0b40b770c3f1"}, {"is_disabled": 0, "is_reserved": 0, "fusion_lat": 0.0, "lat": 38.9622005, "fusion_lon": 0.0, "rental_uris": {"ios": "https://dc.lft.to/lastmile_qr_scan", "android": "https://dc.lft.to/lastmile_qr_scan"}, "lon": -77.02627666666666, "bike_id": "038968dfc628655fcb1189fba552e79e", "type": "electric_bike", "name": "038968dfc628655fcb1189fba552e79e"}, {"is_disabled": 0, "is_reserved": 0, "fusion_lat": 0.0, "lat": 38.924576, "fusion_lon": 0.0, "rental_uris": {"ios": "https://dc.lft.to/lastmile_qr_scan", "android": "https://dc.lft.to/lastmile_qr_scan"}, "lon": -77.0204765, "bike_id": "5087ddd6f0870b0be3a7ac9a1cbf7ccd", "type": "electric_scooter", "name": "5087ddd6f0870b0be3a7ac9a1cbf7ccd"}, {"is_disabled": 0, "is_reserved": 0, "fusion_lat": 0.0, "lat": 38.9226415, "fusion_lon": 0.0, "rental_uris": {"ios": "https://dc.lft.to/lastmile_qr_scan", "android": "https://dc.lft.to/lastmile_qr_scan"}, "lon": -77.0296485, "bike_id": "3ab7ab8d441077ef3985e8003cc36955", "type": "electric_scooter", "name": "3ab7ab8d441077ef3985e8003cc36955"}, {"is_disabled": 0, "is_reserved": 0, "fusion_lat": 0.0, "lat": 38.9235125, "fusion_lon": 0.0, "rental_uris": {"ios": "https://dc.lft.to/lastmile_qr_scan", "android": "https://dc.lft.to/lastmile_qr_scan"}, "lon": -77.00188216666666, "bike_id": "d65246a26af5b0905f05e01e1057797b", "type": "electric_scooter", "name": "d65246a26af5b0905f05e01e1057797b"}, {"is_disabled": 0, "is_reserved": 0, "fusion_lat": 0.0, "lat": 38.8831305, "fusion_lon": 0.0, "rental_uris": {"ios": "https://dc.lft.to/lastmile_qr_scan", "android": "https://dc.lft.to/lastmile_qr_scan"}, "lon": -77.01743933333333, "bike_id": "455d6b849f4af56368958546f104cbd7", "type": "electric_scooter", "name": "455d6b849f4af56368958546f104cbd7"}, {"is_disabled": 0, "is_reserved": 0, "fusion_lat": 0.0, "lat": 38.90760133333333, "fusion_lon": 0.0, "rental_uris": {"ios": "https://dc.lft.to/lastmile_qr_scan", "android": "https://dc.lft.to/lastmile_qr_scan"}, "lon": -77.04502983333333, "bike_id": "d387030e88e0a1dc81576ee841633399", "type": "electric_scooter", "name": "d387030e88e0a1dc81576ee841633399"}, {"is_disabled": 0, "is_reserved": 0, "fusion_lat": 0.0, "lat": 38.90023716666666, "fusion_lon": 0.0, "rental_uris": {"ios": "https://dc.lft.to/lastmile_qr_scan", "android": "https://dc.lft.to/lastmile_qr_scan"}, "lon": -77.011993, "bike_id": "aaaddc690dae15cc0fc1bd50491281cf", "type": "electric_scooter", "name": "aaaddc690dae15cc0fc1bd50491281cf"}, {"is_disabled": 0, "is_reserved": 0, "fusion_lat": 0.0, "lat": 38.87089683333333, "fusion_lon": 0.0, "rental_uris": {"ios": "https://dc.lft.to/lastmile_qr_scan", "android": "https://dc.lft.to/lastmile_qr_scan"}, "lon": -77.01083833333334, "bike_id": "2be7c2b69a1e567ed46e8f24f0890ac3", "type": "electric_scooter", "name": "2be7c2b69a1e567ed46e8f24f0890ac3"}, {"is_disabled": 0, "is_reserved": 0, "fusion_lat": 0.0, "lat": 38.91918233333333, "fusion_lon": 0.0, "rental_uris": {"ios": "https://dc.lft.to/lastmile_qr_scan", "android": "https://dc.lft.to/lastmile_qr_scan"}, "lon": -77.034168, "bike_id": "a21a392e3e174f4863fa1af60f9f5fb9", "type": "electric_scooter", "name": "a21a392e3e174f4863fa1af60f9f5fb9"}, {"is_disabled": 0, "is_reserved": 0, "fusion_lat": 0.0, "lat": 38.9200245, "fusion_lon": 0.0, "rental_uris": {"ios": "https://dc.lft.to/lastmile_qr_scan", "android": "https://dc.lft.to/lastmile_qr_scan"}, "lon": -77.03248233333333, "bike_id": "eac04b18ae65192ee141f91b2d4ba428", "type": "electric_scooter", "name": "eac04b18ae65192ee141f91b2d4ba428"}, {"is_disabled": 0, "is_reserved": 0, "fusion_lat": 0.0, "lat": 38.8073205, "fusion_lon": 0.0, "rental_uris": {"ios": "https://dc.lft.to/lastmile_qr_scan", "android": "https://dc.lft.to/lastmile_qr_scan"}, "lon": -76.99262233333333, "bike_id": "9bf995d9fe238526a57675902a82f1d5", "type": "electric_bike", "name": "9bf995d9fe238526a57675902a82f1d5"}, {"is_disabled": 0, "is_reserved": 0, "fusion_lat": 0.0, "lat": 38.88365183333333, "fusion_lon": 0.0, "rental_uris": {"ios": "https://dc.lft.to/lastmile_qr_scan", "android": "https://dc.lft.to/lastmile_qr_scan"}, "lon": -76.92792333333334, "bike_id": "b014ed3cf3244581f7c75d60a0902dff", "type": "electric_scooter", "name": "b014ed3cf3244581f7c75d60a0902dff"}, {"is_disabled": 0, "is_reserved": 0, "fusion_lat": 0.0, "lat": 38.92236333333334, "fusion_lon": 0.0, "rental_uris": {"ios": "https://dc.lft.to/lastmile_qr_scan", "android": "https://dc.lft.to/lastmile_qr_scan"}, "lon": -77.02714566666667, "bike_id": "a7e3216bc29da9aaf69cc098d55697fb", "type": "electric_scooter", "name": "a7e3216bc29da9aaf69cc098d55697fb"}, {"is_disabled": 0, "is_reserved": 0, "fusion_lat": 0.0, "lat": 38.91832, "fusion_lon": 0.0, "rental_uris": {"ios": "https://dc.lft.to/lastmile_qr_scan", "android": "https://dc.lft.to/lastmile_qr_scan"}, "lon": -77.04161166666667, "bike_id": "969fc1e7fc6f848faf484375bd8e7500", "type": "electric_scooter", "name": "969fc1e7fc6f848faf484375bd8e7500"}, {"is_disabled": 0, "is_reserved": 0, "fusion_lat": 0.0, "lat": 38.923273333333334, "fusion_lon": 0.0, "rental_uris": {"ios": "https://dc.lft.to/lastmile_qr_scan", "android": "https://dc.lft.to/lastmile_qr_scan"}, "lon": -77.05677066666667, "bike_id": "ce84c3786fc4e3286ddac4a3e93cc82f", "type": "electric_scooter", "name": "ce84c3786fc4e3286ddac4a3e93cc82f"}, {"is_disabled": 0, "is_reserved": 0, "fusion_lat": 0.0, "lat": 38.9184165, "fusion_lon": 0.0, "rental_uris": {"ios": "https://dc.lft.to/lastmile_qr_scan", "android": "https://dc.lft.to/lastmile_qr_scan"}, "lon": -77.03917783333333, "bike_id": "d79fc75f0bee8c47831d20742b6fc3c0", "type": "electric_scooter", "name": "d79fc75f0bee8c47831d20742b6fc3c0"}, {"is_disabled": 0, "is_reserved": 0, "fusion_lat": 0.0, "lat": 38.923875, "fusion_lon": 0.0, "rental_uris": {"ios": "https://dc.lft.to/lastmile_qr_scan", "android": "https://dc.lft.to/lastmile_qr_scan"}, "lon": -77.02582116666666, "bike_id": "78821303f13b367e2f11893eeb29a873", "type": "electric_scooter", "name": "78821303f13b367e2f11893eeb29a873"}, {"is_disabled": 0, "is_reserved": 0, "fusion_lat": 0.0, "lat": 38.90469233333334, "fusion_lon": 0.0, "rental_uris": {"ios": "https://dc.lft.to/lastmile_qr_scan", "android": "https://dc.lft.to/lastmile_qr_scan"}, "lon": -77.04889216666666, "bike_id": "b7c479cc001c148295918cd7dce73bfb", "type": "electric_scooter", "name": "b7c479cc001c148295918cd7dce73bfb"}, {"is_disabled": 0, "is_reserved": 0, "fusion_lat": 0.0, "lat": 38.928674666666666, "fusion_lon": 0.0, "rental_uris": {"ios": "https://dc.lft.to/lastmile_qr_scan", "android": "https://dc.lft.to/lastmile_qr_scan"}, "lon": -77.07888866666667, "bike_id": "aaa252af79fa215111f1373343f4ed4c", "type": "electric_scooter", "name": "aaa252af79fa215111f1373343f4ed4c"}, {"is_disabled": 0, "is_reserved": 0, "fusion_lat": 0.0, "lat": 38.941233, "fusion_lon": 0.0, "rental_uris": {"ios": "https://dc.lft.to/lastmile_qr_scan", "android": "https://dc.lft.to/lastmile_qr_scan"}, "lon": -77.02497566666666, "bike_id": "aec6b59dbc2f3e6fd79c0456fd8f8202", "type": "electric_bike", "name": "aec6b59dbc2f3e6fd79c0456fd8f8202"}, {"is_disabled": 0, "is_reserved": 0, "fusion_lat": 0.0, "lat": 38.917119666666665, "fusion_lon": 0.0, "rental_uris": {"ios": "https://dc.lft.to/lastmile_qr_scan", "android": "https://dc.lft.to/lastmile_qr_scan"}, "lon": -77.038667, "bike_id": "602da1794155f6fae78487345b88d21e", "type": "electric_scooter", "name": "602da1794155f6fae78487345b88d21e"}, {"is_disabled": 0, "is_reserved": 0, "fusion_lat": 0.0, "lat": 38.877943333333334, "fusion_lon": 0.0, "rental_uris": {"ios": "https://dc.lft.to/lastmile_qr_scan", "android": "https://dc.lft.to/lastmile_qr_scan"}, "lon": -77.00119366666667, "bike_id": "c072392dc7b36b1248b2801c3d795878", "type": "electric_scooter", "name": "c072392dc7b36b1248b2801c3d795878"}, {"is_disabled": 0, "is_reserved": 0, "fusion_lat": 0.0, "lat": 38.822067833333335, "fusion_lon": 0.0, "rental_uris": {"ios": "https://dc.lft.to/lastmile_qr_scan", "android": "https://dc.lft.to/lastmile_qr_scan"}, "lon": -76.9770585, "bike_id": "87e70d4a52836d4e3c418a3a3240df13", "type": "electric_bike", "name": "87e70d4a52836d4e3c418a3a3240df13"}, {"is_disabled": 0, "is_reserved": 0, "fusion_lat": 0.0, "lat": 38.8919845, "fusion_lon": 0.0, "rental_uris": {"ios": "https://dc.lft.to/lastmile_qr_scan", "android": "https://dc.lft.to/lastmile_qr_scan"}, "lon": -77.0438665, "bike_id": "41d565adbe9376d8d71f9bffd249b5ee", "type": "electric_scooter", "name": "41d565adbe9376d8d71f9bffd249b5ee"}, {"is_disabled": 0, "is_reserved": 0, "fusion_lat": 0.0, "lat": 38.911196333333336, "fusion_lon": 0.0, "rental_uris": {"ios": "https://dc.lft.to/lastmile_qr_scan", "android": "https://dc.lft.to/lastmile_qr_scan"}, "lon": -77.03871333333333, "bike_id": "f564118d894d6ee5437459146b9cb40c", "type": "electric_scooter", "name": "f564118d894d6ee5437459146b9cb40c"}, {"is_disabled": 0, "is_reserved": 0, "fusion_lat": 0.0, "lat": 38.9069435, "fusion_lon": 0.0, "rental_uris": {"ios": "https://dc.lft.to/lastmile_qr_scan", "android": "https://dc.lft.to/lastmile_qr_scan"}, "lon": -76.95252716666667, "bike_id": "24f5f042e47cc7b679b3002444bd8bdb", "type": "electric_bike", "name": "24f5f042e47cc7b679b3002444bd8bdb"}, {"is_disabled": 0, "is_reserved": 0, "fusion_lat": 0.0, "lat": 38.9110945, "fusion_lon": 0.0, "rental_uris": {"ios": "https://dc.lft.to/lastmile_qr_scan", "android": "https://dc.lft.to/lastmile_qr_scan"}, "lon": -77.03831583333333, "bike_id": "3f977ec4f68f54c047793d729342671b", "type": "electric_scooter", "name": "3f977ec4f68f54c047793d729342671b"}, {"is_disabled": 0, "is_reserved": 0, "fusion_lat": 0.0, "lat": 38.91568433333333, "fusion_lon": 0.0, "rental_uris": {"ios": "https://dc.lft.to/lastmile_qr_scan", "android": "https://dc.lft.to/lastmile_qr_scan"}, "lon": -77.0008185, "bike_id": "9c3fb21d69716b2dff4297da89ac50ff", "type": "electric_scooter", "name": "9c3fb21d69716b2dff4297da89ac50ff"}, {"is_disabled": 0, "is_reserved": 0, "fusion_lat": 0.0, "lat": 38.898472, "fusion_lon": 0.0, "rental_uris": {"ios": "https://dc.lft.to/lastmile_qr_scan", "android": "https://dc.lft.to/lastmile_qr_scan"}, "lon": -76.94252416666667, "bike_id": "1ad3ef290c61474e52a7b04375f97a3b", "type": "electric_bike", "name": "1ad3ef290c61474e52a7b04375f97a3b"}, {"is_disabled": 0, "is_reserved": 0, "fusion_lat": 0.0, "lat": 38.892343833333335, "fusion_lon": 0.0, "rental_uris": {"ios": "https://dc.lft.to/lastmile_qr_scan", "android": "https://dc.lft.to/lastmile_qr_scan"}, "lon": -77.0500365, "bike_id": "eac162ed2b218e5f40a9334148ed17ef", "type": "electric_scooter", "name": "eac162ed2b218e5f40a9334148ed17ef"}, {"is_disabled": 0, "is_reserved": 0, "fusion_lat": 0.0, "lat": 38.9175795, "fusion_lon": 0.0, "rental_uris": {"ios": "https://dc.lft.to/lastmile_qr_scan", "android": "https://dc.lft.to/lastmile_qr_scan"}, "lon": -77.03908566666667, "bike_id": "3b49a05cf552c1c35531ca42987eb27b", "type": "electric_scooter", "name": "3b49a05cf552c1c35531ca42987eb27b"}, {"is_disabled": 0, "is_reserved": 0, "fusion_lat": 0.0, "lat": 38.91999466666667, "fusion_lon": 0.0, "rental_uris": {"ios": "https://dc.lft.to/lastmile_qr_scan", "android": "https://dc.lft.to/lastmile_qr_scan"}, "lon": -77.04747633333334, "bike_id": "502fceb5a4217691b236eec0e26dcd79", "type": "electric_scooter", "name": "502fceb5a4217691b236eec0e26dcd79"}, {"is_disabled": 0, "is_reserved": 0, "fusion_lat": 0.0, "lat": 38.88357583333333, "fusion_lon": 0.0, "rental_uris": {"ios": "https://dc.lft.to/lastmile_qr_scan", "android": "https://dc.lft.to/lastmile_qr_scan"}, "lon": -76.95766233333333, "bike_id": "a10ed9ba29f857f63eba937b1eee9979", "type": "electric_scooter", "name": "a10ed9ba29f857f63eba937b1eee9979"}, {"is_disabled": 0, "is_reserved": 0, "fusion_lat": 0.0, "lat": 38.94461233333333, "fusion_lon": 0.0, "rental_uris": {"ios": "https://dc.lft.to/lastmile_qr_scan", "android": "https://dc.lft.to/lastmile_qr_scan"}, "lon": -77.006536, "bike_id": "547d5994e70b1ae5809bca70bdae0e52", "type": "electric_scooter", "name": "547d5994e70b1ae5809bca70bdae0e52"}, {"is_disabled": 0, "is_reserved": 0, "fusion_lat": 0.0, "lat": 38.94840416666667, "fusion_lon": 0.0, "rental_uris": {"ios": "https://dc.lft.to/lastmile_qr_scan", "android": "https://dc.lft.to/lastmile_qr_scan"}, "lon": -77.07982016666666, "bike_id": "328eb3991253923f8f77236226a0343a", "type": "electric_scooter", "name": "328eb3991253923f8f77236226a0343a"}, {"is_disabled": 0, "is_reserved": 0, "fusion_lat": 0.0, "lat": 38.902733, "fusion_lon": 0.0, "rental_uris": {"ios": "https://dc.lft.to/lastmile_qr_scan", "android": "https://dc.lft.to/lastmile_qr_scan"}, "lon": -77.03066966666667, "bike_id": "b8d05062bde4cfe42cbeec1d0f6f9a9c", "type": "electric_scooter", "name": "b8d05062bde4cfe42cbeec1d0f6f9a9c"}, {"is_disabled": 0, "is_reserved": 0, "fusion_lat": 0.0, "lat": 38.92571216666666, "fusion_lon": 0.0, "rental_uris": {"ios": "https://dc.lft.to/lastmile_qr_scan", "android": "https://dc.lft.to/lastmile_qr_scan"}, "lon": -77.0314425, "bike_id": "a34a352b560fb0f634d0078612ecf305", "type": "electric_scooter", "name": "a34a352b560fb0f634d0078612ecf305"}, {"is_disabled": 0, "is_reserved": 0, "fusion_lat": 0.0, "lat": 38.90985383333334, "fusion_lon": 0.0, "rental_uris": {"ios": "https://dc.lft.to/lastmile_qr_scan", "android": "https://dc.lft.to/lastmile_qr_scan"}, "lon": -77.03198316666666, "bike_id": "1155efe4c57caf4bde30268ac54e89f6", "type": "electric_scooter", "name": "1155efe4c57caf4bde30268ac54e89f6"}, {"is_disabled": 0, "is_reserved": 0, "fusion_lat": 0.0, "lat": 38.918164833333336, "fusion_lon": 0.0, "rental_uris": {"ios": "https://dc.lft.to/lastmile_qr_scan", "android": "https://dc.lft.to/lastmile_qr_scan"}, "lon": -77.02472533333334, "bike_id": "73feb6d8e97a372c11b3afba661067e9", "type": "electric_scooter", "name": "73feb6d8e97a372c11b3afba661067e9"}, {"is_disabled": 0, "is_reserved": 0, "fusion_lat": 0.0, "lat": 38.891786333333336, "fusion_lon": 0.0, "rental_uris": {"ios": "https://dc.lft.to/lastmile_qr_scan", "android": "https://dc.lft.to/lastmile_qr_scan"}, "lon": -77.01559233333333, "bike_id": "9c82c9074dd771e7991427340c9c40b0", "type": "electric_scooter", "name": "9c82c9074dd771e7991427340c9c40b0"}, {"is_disabled": 0, "is_reserved": 0, "fusion_lat": 0.0, "lat": 38.89174783333333, "fusion_lon": 0.0, "rental_uris": {"ios": "https://dc.lft.to/lastmile_qr_scan", "android": "https://dc.lft.to/lastmile_qr_scan"}, "lon": -77.01547333333333, "bike_id": "c64b61f0a79968c32f328a7a3ce1bf84", "type": "electric_scooter", "name": "c64b61f0a79968c32f328a7a3ce1bf84"}, {"is_disabled": 0, "is_reserved": 0, "fusion_lat": 0.0, "lat": 38.920434, "fusion_lon": 0.0, "rental_uris": {"ios": "https://dc.lft.to/lastmile_qr_scan", "android": "https://dc.lft.to/lastmile_qr_scan"}, "lon": -77.0332635, "bike_id": "6dc73c3a8d0351e9fa691a5e845f9f1e", "type": "electric_scooter", "name": "6dc73c3a8d0351e9fa691a5e845f9f1e"}, {"is_disabled": 0, "is_reserved": 0, "fusion_lat": 0.0, "lat": 38.912872166666666, "fusion_lon": 0.0, "rental_uris": {"ios": "https://dc.lft.to/lastmile_qr_scan", "android": "https://dc.lft.to/lastmile_qr_scan"}, "lon": -77.02302183333333, "bike_id": "e9b2c513631df6d5f0d343cc2fa6737b", "type": "electric_scooter", "name": "e9b2c513631df6d5f0d343cc2fa6737b"}, {"is_disabled": 0, "is_reserved": 0, "fusion_lat": 0.0, "lat": 38.911093666666666, "fusion_lon": 0.0, "rental_uris": {"ios": "https://dc.lft.to/lastmile_qr_scan", "android": "https://dc.lft.to/lastmile_qr_scan"}, "lon": -77.03833016666667, "bike_id": "fed3aa454b4f76ad202732790b374254", "type": "electric_scooter", "name": "fed3aa454b4f76ad202732790b374254"}, {"is_disabled": 0, "is_reserved": 0, "fusion_lat": 0.0, "lat": 38.906357166666666, "fusion_lon": 0.0, "rental_uris": {"ios": "https://dc.lft.to/lastmile_qr_scan", "android": "https://dc.lft.to/lastmile_qr_scan"}, "lon": -77.0414145, "bike_id": "7554f13f60ca5c8e3bb53de51b070104", "type": "electric_scooter", "name": "7554f13f60ca5c8e3bb53de51b070104"}, {"is_disabled": 0, "is_reserved": 0, "fusion_lat": 0.0, "lat": 38.9093475, "fusion_lon": 0.0, "rental_uris": {"ios": "https://dc.lft.to/lastmile_qr_scan", "android": "https://dc.lft.to/lastmile_qr_scan"}, "lon": -76.9990335, "bike_id": "2cce842c7737710e85b4a5af086bfb22", "type": "electric_scooter", "name": "2cce842c7737710e85b4a5af086bfb22"}, {"is_disabled": 0, "is_reserved": 0, "fusion_lat": 0.0, "lat": 38.93874983333333, "fusion_lon": 0.0, "rental_uris": {"ios": "https://dc.lft.to/lastmile_qr_scan", "android": "https://dc.lft.to/lastmile_qr_scan"}, "lon": -77.0304165, "bike_id": "78ceb7c773920a7fc3b0635785fa0892", "type": "electric_scooter", "name": "78ceb7c773920a7fc3b0635785fa0892"}, {"is_disabled": 0, "is_reserved": 0, "fusion_lat": 0.0, "lat": 38.9568495, "fusion_lon": 0.0, "rental_uris": {"ios": "https://dc.lft.to/lastmile_qr_scan", "android": "https://dc.lft.to/lastmile_qr_scan"}, "lon": -77.02232666666667, "bike_id": "4115c83bb18dc09b9e215997d1d9d068", "type": "electric_bike", "name": "4115c83bb18dc09b9e215997d1d9d068"}, {"is_disabled": 0, "is_reserved": 0, "fusion_lat": 0.0, "lat": 38.89890833333333, "fusion_lon": 0.0, "rental_uris": {"ios": "https://dc.lft.to/lastmile_qr_scan", "android": "https://dc.lft.to/lastmile_qr_scan"}, "lon": -76.93238316666667, "bike_id": "cfd141f2bc40449c2890c45cb7adb69f", "type": "electric_scooter", "name": "cfd141f2bc40449c2890c45cb7adb69f"}, {"is_disabled": 0, "is_reserved": 0, "fusion_lat": 0.0, "lat": 38.932887666666666, "fusion_lon": 0.0, "rental_uris": {"ios": "https://dc.lft.to/lastmile_qr_scan", "android": "https://dc.lft.to/lastmile_qr_scan"}, "lon": -77.03545416666667, "bike_id": "b63d16110300ef7b5fe2d7a2c2de55c7", "type": "electric_scooter", "name": "b63d16110300ef7b5fe2d7a2c2de55c7"}, {"is_disabled": 0, "is_reserved": 0, "fusion_lat": 0.0, "lat": 38.89676933333333, "fusion_lon": 0.0, "rental_uris": {"ios": "https://dc.lft.to/lastmile_qr_scan", "android": "https://dc.lft.to/lastmile_qr_scan"}, "lon": -77.05098666666666, "bike_id": "e9f5c66720b686f48b4d2711e6db64c8", "type": "electric_scooter", "name": "e9f5c66720b686f48b4d2711e6db64c8"}, {"is_disabled": 0, "is_reserved": 0, "fusion_lat": 0.0, "lat": 38.89951033333333, "fusion_lon": 0.0, "rental_uris": {"ios": "https://dc.lft.to/lastmile_qr_scan", "android": "https://dc.lft.to/lastmile_qr_scan"}, "lon": -77.05272566666666, "bike_id": "316c1d35252c4b3e48fc8bb7439aa91c", "type": "electric_scooter", "name": "316c1d35252c4b3e48fc8bb7439aa91c"}, {"is_disabled": 0, "is_reserved": 0, "fusion_lat": 0.0, "lat": 38.88897983333333, "fusion_lon": 0.0, "rental_uris": {"ios": "https://dc.lft.to/lastmile_qr_scan", "android": "https://dc.lft.to/lastmile_qr_scan"}, "lon": -76.9836795, "bike_id": "1ea3280cbdddda519d51ba2aade8f1a0", "type": "electric_scooter", "name": "1ea3280cbdddda519d51ba2aade8f1a0"}, {"is_disabled": 0, "is_reserved": 0, "fusion_lat": 0.0, "lat": 38.89299783333333, "fusion_lon": 0.0, "rental_uris": {"ios": "https://dc.lft.to/lastmile_qr_scan", "android": "https://dc.lft.to/lastmile_qr_scan"}, "lon": -76.99959216666667, "bike_id": "239f5fdc1e998ab0c6e9718c9355edc1", "type": "electric_scooter", "name": "239f5fdc1e998ab0c6e9718c9355edc1"}, {"is_disabled": 0, "is_reserved": 0, "fusion_lat": 0.0, "lat": 38.898241666666664, "fusion_lon": 0.0, "rental_uris": {"ios": "https://dc.lft.to/lastmile_qr_scan", "android": "https://dc.lft.to/lastmile_qr_scan"}, "lon": -76.92600233333333, "bike_id": "c207878fc00001cde59cb7561ae7176e", "type": "electric_scooter", "name": "c207878fc00001cde59cb7561ae7176e"}, {"is_disabled": 0, "is_reserved": 0, "fusion_lat": 0.0, "lat": 38.9090435, "fusion_lon": 0.0, "rental_uris": {"ios": "https://dc.lft.to/lastmile_qr_scan", "android": "https://dc.lft.to/lastmile_qr_scan"}, "lon": -77.00455683333334, "bike_id": "c2a491fd2fa4d389814b677206a1741c", "type": "electric_scooter", "name": "c2a491fd2fa4d389814b677206a1741c"}, {"is_disabled": 0, "is_reserved": 0, "fusion_lat": 0.0, "lat": 38.921519, "fusion_lon": 0.0, "rental_uris": {"ios": "https://dc.lft.to/lastmile_qr_scan", "android": "https://dc.lft.to/lastmile_qr_scan"}, "lon": -77.03508616666667, "bike_id": "1ccb72e5397469d634518b2ef05b74d8", "type": "electric_scooter", "name": "1ccb72e5397469d634518b2ef05b74d8"}, {"is_disabled": 0, "is_reserved": 0, "fusion_lat": 0.0, "lat": 38.9212075, "fusion_lon": 0.0, "rental_uris": {"ios": "https://dc.lft.to/lastmile_qr_scan", "android": "https://dc.lft.to/lastmile_qr_scan"}, "lon": -77.01208766666667, "bike_id": "6820f8efade44228c7d7eb18bed8abe7", "type": "electric_scooter", "name": "6820f8efade44228c7d7eb18bed8abe7"}, {"is_disabled": 0, "is_reserved": 0, "fusion_lat": 0.0, "lat": 38.916231833333335, "fusion_lon": 0.0, "rental_uris": {"ios": "https://dc.lft.to/lastmile_qr_scan", "android": "https://dc.lft.to/lastmile_qr_scan"}, "lon": -77.03499216666667, "bike_id": "e1badf3e500f0b6ccbe0af9dde896e49", "type": "electric_scooter", "name": "e1badf3e500f0b6ccbe0af9dde896e49"}, {"is_disabled": 0, "is_reserved": 0, "fusion_lat": 0.0, "lat": 38.90498916666667, "fusion_lon": 0.0, "rental_uris": {"ios": "https://dc.lft.to/lastmile_qr_scan", "android": "https://dc.lft.to/lastmile_qr_scan"}, "lon": -77.01691166666667, "bike_id": "4b456df493284fe3fe347c786279cd01", "type": "electric_scooter", "name": "4b456df493284fe3fe347c786279cd01"}, {"is_disabled": 0, "is_reserved": 0, "fusion_lat": 0.0, "lat": 38.911209666666664, "fusion_lon": 0.0, "rental_uris": {"ios": "https://dc.lft.to/lastmile_qr_scan", "android": "https://dc.lft.to/lastmile_qr_scan"}, "lon": -77.03834666666667, "bike_id": "9b12e8648daefbef94fdeeb438919a30", "type": "electric_scooter", "name": "9b12e8648daefbef94fdeeb438919a30"}, {"is_disabled": 0, "is_reserved": 0, "fusion_lat": 0.0, "lat": 38.91550483333333, "fusion_lon": 0.0, "rental_uris": {"ios": "https://dc.lft.to/lastmile_qr_scan", "android": "https://dc.lft.to/lastmile_qr_scan"}, "lon": -77.05099883333334, "bike_id": "876fb6e8970b8289e5ff007fa5998659", "type": "electric_scooter", "name": "876fb6e8970b8289e5ff007fa5998659"}, {"is_disabled": 0, "is_reserved": 0, "fusion_lat": 0.0, "lat": 38.889691166666665, "fusion_lon": 0.0, "rental_uris": {"ios": "https://dc.lft.to/lastmile_qr_scan", "android": "https://dc.lft.to/lastmile_qr_scan"}, "lon": -76.98033283333334, "bike_id": "247420adb8bbc1cc4641ed748f76c76d", "type": "electric_scooter", "name": "247420adb8bbc1cc4641ed748f76c76d"}, {"is_disabled": 0, "is_reserved": 0, "fusion_lat": 0.0, "lat": 38.92230383333333, "fusion_lon": 0.0, "rental_uris": {"ios": "https://dc.lft.to/lastmile_qr_scan", "android": "https://dc.lft.to/lastmile_qr_scan"}, "lon": -77.03886816666666, "bike_id": "b9e6148226534da4770b1f9a09fa7ddc", "type": "electric_scooter", "name": "b9e6148226534da4770b1f9a09fa7ddc"}, {"is_disabled": 0, "is_reserved": 0, "fusion_lat": 0.0, "lat": 38.9327245, "fusion_lon": 0.0, "rental_uris": {"ios": "https://dc.lft.to/lastmile_qr_scan", "android": "https://dc.lft.to/lastmile_qr_scan"}, "lon": -77.02094633333333, "bike_id": "0aa1340fe125d13232f3bc1627c9f8eb", "type": "electric_scooter", "name": "0aa1340fe125d13232f3bc1627c9f8eb"}, {"is_disabled": 0, "is_reserved": 0, "fusion_lat": 0.0, "lat": 38.88489416666667, "fusion_lon": 0.0, "rental_uris": {"ios": "https://dc.lft.to/lastmile_qr_scan", "android": "https://dc.lft.to/lastmile_qr_scan"}, "lon": -77.0347475, "bike_id": "ff1db64a0f6ea40c1be90d95ec6ad281", "type": "electric_scooter", "name": "ff1db64a0f6ea40c1be90d95ec6ad281"}, {"is_disabled": 0, "is_reserved": 0, "fusion_lat": 0.0, "lat": 38.91996683333333, "fusion_lon": 0.0, "rental_uris": {"ios": "https://dc.lft.to/lastmile_qr_scan", "android": "https://dc.lft.to/lastmile_qr_scan"}, "lon": -77.021636, "bike_id": "4064a00913f1d42fbcb1ee51ef5cca62", "type": "electric_scooter", "name": "4064a00913f1d42fbcb1ee51ef5cca62"}, {"is_disabled": 0, "is_reserved": 0, "fusion_lat": 0.0, "lat": 38.914627333333335, "fusion_lon": 0.0, "rental_uris": {"ios": "https://dc.lft.to/lastmile_qr_scan", "android": "https://dc.lft.to/lastmile_qr_scan"}, "lon": -77.01789533333333, "bike_id": "caab1837c0729954bc02e8fc08ca4ed4", "type": "electric_scooter", "name": "caab1837c0729954bc02e8fc08ca4ed4"}, {"is_disabled": 0, "is_reserved": 0, "fusion_lat": 0.0, "lat": 38.846781, "fusion_lon": 0.0, "rental_uris": {"ios": "https://dc.lft.to/lastmile_qr_scan", "android": "https://dc.lft.to/lastmile_qr_scan"}, "lon": -77.139323, "bike_id": "5518c670883131bfccb5945e6898edb5", "type": "electric_bike", "name": "5518c670883131bfccb5945e6898edb5"}, {"is_disabled": 0, "is_reserved": 0, "fusion_lat": 0.0, "lat": 38.89954516666667, "fusion_lon": 0.0, "rental_uris": {"ios": "https://dc.lft.to/lastmile_qr_scan", "android": "https://dc.lft.to/lastmile_qr_scan"}, "lon": -77.02356016666667, "bike_id": "1822c9c0e9fc7719f12a233e36efa552", "type": "electric_scooter", "name": "1822c9c0e9fc7719f12a233e36efa552"}, {"is_disabled": 0, "is_reserved": 0, "fusion_lat": 0.0, "lat": 38.91420766666667, "fusion_lon": 0.0, "rental_uris": {"ios": "https://dc.lft.to/lastmile_qr_scan", "android": "https://dc.lft.to/lastmile_qr_scan"}, "lon": -77.0222385, "bike_id": "d4e4efabfcb6b93de0932924cbd38946", "type": "electric_scooter", "name": "d4e4efabfcb6b93de0932924cbd38946"}, {"is_disabled": 0, "is_reserved": 0, "fusion_lat": 0.0, "lat": 38.8919795, "fusion_lon": 0.0, "rental_uris": {"ios": "https://dc.lft.to/lastmile_qr_scan", "android": "https://dc.lft.to/lastmile_qr_scan"}, "lon": -77.04384633333333, "bike_id": "4c161f8240f8497a15cce20fb1e43412", "type": "electric_scooter", "name": "4c161f8240f8497a15cce20fb1e43412"}, {"is_disabled": 0, "is_reserved": 0, "fusion_lat": 0.0, "lat": 38.82764516666667, "fusion_lon": 0.0, "rental_uris": {"ios": "https://dc.lft.to/lastmile_qr_scan", "android": "https://dc.lft.to/lastmile_qr_scan"}, "lon": -77.05030483333333, "bike_id": "15ece0b4cee2655809622df98d10d857", "type": "electric_bike", "name": "15ece0b4cee2655809622df98d10d857"}, {"is_disabled": 0, "is_reserved": 0, "fusion_lat": 0.0, "lat": 38.8840145, "fusion_lon": 0.0, "rental_uris": {"ios": "https://dc.lft.to/lastmile_qr_scan", "android": "https://dc.lft.to/lastmile_qr_scan"}, "lon": -76.98581783333333, "bike_id": "b20b19e7b8610bc47178821d18b07b0c", "type": "electric_bike", "name": "b20b19e7b8610bc47178821d18b07b0c"}, {"is_disabled": 0, "is_reserved": 0, "fusion_lat": 0.0, "lat": 38.9009275, "fusion_lon": 0.0, "rental_uris": {"ios": "https://dc.lft.to/lastmile_qr_scan", "android": "https://dc.lft.to/lastmile_qr_scan"}, "lon": -77.047969, "bike_id": "a400fd86453254ec3462e5e00ebdadb0", "type": "electric_scooter", "name": "a400fd86453254ec3462e5e00ebdadb0"}, {"is_disabled": 0, "is_reserved": 0, "fusion_lat": 0.0, "lat": 38.931731666666664, "fusion_lon": 0.0, "rental_uris": {"ios": "https://dc.lft.to/lastmile_qr_scan", "android": "https://dc.lft.to/lastmile_qr_scan"}, "lon": -77.028158, "bike_id": "1cb43c1092159e6627e11451990c0c62", "type": "electric_scooter", "name": "1cb43c1092159e6627e11451990c0c62"}, {"is_disabled": 0, "is_reserved": 0, "fusion_lat": 0.0, "lat": 38.902900333333335, "fusion_lon": 0.0, "rental_uris": {"ios": "https://dc.lft.to/lastmile_qr_scan", "android": "https://dc.lft.to/lastmile_qr_scan"}, "lon": -77.05020733333333, "bike_id": "c14ba50af56a83f30a6f35bcdd8556b9", "type": "electric_scooter", "name": "c14ba50af56a83f30a6f35bcdd8556b9"}, {"is_disabled": 0, "is_reserved": 0, "fusion_lat": 0.0, "lat": 38.911393, "fusion_lon": 0.0, "rental_uris": {"ios": "https://dc.lft.to/lastmile_qr_scan", "android": "https://dc.lft.to/lastmile_qr_scan"}, "lon": -77.0486495, "bike_id": "8f3e84543665944acc1cfd71e9c93e96", "type": "electric_scooter", "name": "8f3e84543665944acc1cfd71e9c93e96"}, {"is_disabled": 0, "is_reserved": 0, "fusion_lat": 0.0, "lat": 38.918135, "fusion_lon": 0.0, "rental_uris": {"ios": "https://dc.lft.to/lastmile_qr_scan", "android": "https://dc.lft.to/lastmile_qr_scan"}, "lon": -77.0247625, "bike_id": "8a57bf003ac27bec4d3a487281f76ab4", "type": "electric_scooter", "name": "8a57bf003ac27bec4d3a487281f76ab4"}, {"is_disabled": 0, "is_reserved": 0, "fusion_lat": 0.0, "lat": 38.92081, "fusion_lon": 0.0, "rental_uris": {"ios": "https://dc.lft.to/lastmile_qr_scan", "android": "https://dc.lft.to/lastmile_qr_scan"}, "lon": -77.02311766666666, "bike_id": "b1c27285f0fc2be859144f8f711e42aa", "type": "electric_scooter", "name": "b1c27285f0fc2be859144f8f711e42aa"}, {"is_disabled": 0, "is_reserved": 0, "fusion_lat": 0.0, "lat": 38.896179333333336, "fusion_lon": 0.0, "rental_uris": {"ios": "https://dc.lft.to/lastmile_qr_scan", "android": "https://dc.lft.to/lastmile_qr_scan"}, "lon": -77.043317, "bike_id": "95e090d90005e5e3eede8680ae37b457", "type": "electric_scooter", "name": "95e090d90005e5e3eede8680ae37b457"}, {"is_disabled": 0, "is_reserved": 0, "fusion_lat": 0.0, "lat": 38.93705583333333, "fusion_lon": 0.0, "rental_uris": {"ios": "https://dc.lft.to/lastmile_qr_scan", "android": "https://dc.lft.to/lastmile_qr_scan"}, "lon": -77.02402466666666, "bike_id": "f205cb2b3d5fe148bab7da23a1c25e07", "type": "electric_scooter", "name": "f205cb2b3d5fe148bab7da23a1c25e07"}, {"is_disabled": 0, "is_reserved": 0, "fusion_lat": 0.0, "lat": 38.92329, "fusion_lon": 0.0, "rental_uris": {"ios": "https://dc.lft.to/lastmile_qr_scan", "android": "https://dc.lft.to/lastmile_qr_scan"}, "lon": -77.0089065, "bike_id": "7da087124d88307d725b41bd60f8d326", "type": "electric_scooter", "name": "7da087124d88307d725b41bd60f8d326"}, {"is_disabled": 0, "is_reserved": 0, "fusion_lat": 0.0, "lat": 38.892632166666665, "fusion_lon": 0.0, "rental_uris": {"ios": "https://dc.lft.to/lastmile_qr_scan", "android": "https://dc.lft.to/lastmile_qr_scan"}, "lon": -77.05023383333334, "bike_id": "d416131aa6f438677794bdd7fe4af7b6", "type": "electric_scooter", "name": "d416131aa6f438677794bdd7fe4af7b6"}, {"is_disabled": 0, "is_reserved": 0, "fusion_lat": 0.0, "lat": 38.91758883333333, "fusion_lon": 0.0, "rental_uris": {"ios": "https://dc.lft.to/lastmile_qr_scan", "android": "https://dc.lft.to/lastmile_qr_scan"}, "lon": -77.0045085, "bike_id": "69e5c75f9980940d8a716e01d05d413b", "type": "electric_scooter", "name": "69e5c75f9980940d8a716e01d05d413b"}, {"is_disabled": 0, "is_reserved": 0, "fusion_lat": 0.0, "lat": 38.92166066666667, "fusion_lon": 0.0, "rental_uris": {"ios": "https://dc.lft.to/lastmile_qr_scan", "android": "https://dc.lft.to/lastmile_qr_scan"}, "lon": -77.0365625, "bike_id": "ecc51fcb28dd62cbc791c6ea95decc9f", "type": "electric_scooter", "name": "ecc51fcb28dd62cbc791c6ea95decc9f"}, {"is_disabled": 0, "is_reserved": 0, "fusion_lat": 0.0, "lat": 38.876667166666664, "fusion_lon": 0.0, "rental_uris": {"ios": "https://dc.lft.to/lastmile_qr_scan", "android": "https://dc.lft.to/lastmile_qr_scan"}, "lon": -77.01757566666667, "bike_id": "a7eba4cd4d26093f6dccb5ab753ffa64", "type": "electric_scooter", "name": "a7eba4cd4d26093f6dccb5ab753ffa64"}, {"is_disabled": 0, "is_reserved": 0, "fusion_lat": 0.0, "lat": 38.91207766666667, "fusion_lon": 0.0, "rental_uris": {"ios": "https://dc.lft.to/lastmile_qr_scan", "android": "https://dc.lft.to/lastmile_qr_scan"}, "lon": -77.0210435, "bike_id": "5c47aa3e3787c41129f0b0e6c0197619", "type": "electric_scooter", "name": "5c47aa3e3787c41129f0b0e6c0197619"}, {"is_disabled": 0, "is_reserved": 0, "fusion_lat": 0.0, "lat": 38.93523283333333, "fusion_lon": 0.0, "rental_uris": {"ios": "https://dc.lft.to/lastmile_qr_scan", "android": "https://dc.lft.to/lastmile_qr_scan"}, "lon": -77.081601, "bike_id": "2cba159627ab110d90ff9c755ef19c85", "type": "electric_scooter", "name": "2cba159627ab110d90ff9c755ef19c85"}, {"is_disabled": 0, "is_reserved": 0, "fusion_lat": 0.0, "lat": 38.916288, "fusion_lon": 0.0, "rental_uris": {"ios": "https://dc.lft.to/lastmile_qr_scan", "android": "https://dc.lft.to/lastmile_qr_scan"}, "lon": -77.02385916666667, "bike_id": "09b8fd9f6fc68d77f6f0d48a1cf03b58", "type": "electric_scooter", "name": "09b8fd9f6fc68d77f6f0d48a1cf03b58"}, {"is_disabled": 0, "is_reserved": 0, "fusion_lat": 0.0, "lat": 38.93133983333333, "fusion_lon": 0.0, "rental_uris": {"ios": "https://dc.lft.to/lastmile_qr_scan", "android": "https://dc.lft.to/lastmile_qr_scan"}, "lon": -77.02801783333334, "bike_id": "fd119018098616e481577ef842ad3c28", "type": "electric_scooter", "name": "fd119018098616e481577ef842ad3c28"}, {"is_disabled": 0, "is_reserved": 0, "fusion_lat": 0.0, "lat": 38.907198666666666, "fusion_lon": 0.0, "rental_uris": {"ios": "https://dc.lft.to/lastmile_qr_scan", "android": "https://dc.lft.to/lastmile_qr_scan"}, "lon": -77.0530125, "bike_id": "13550ce9b014e312494aee031e2cc871", "type": "electric_scooter", "name": "13550ce9b014e312494aee031e2cc871"}, {"is_disabled": 0, "is_reserved": 0, "fusion_lat": 0.0, "lat": 38.893526333333334, "fusion_lon": 0.0, "rental_uris": {"ios": "https://dc.lft.to/lastmile_qr_scan", "android": "https://dc.lft.to/lastmile_qr_scan"}, "lon": -76.99212766666666, "bike_id": "889d2942edfcf3f609cf8ff29489d690", "type": "electric_scooter", "name": "889d2942edfcf3f609cf8ff29489d690"}, {"is_disabled": 0, "is_reserved": 0, "fusion_lat": 0.0, "lat": 38.93064966666667, "fusion_lon": 0.0, "rental_uris": {"ios": "https://dc.lft.to/lastmile_qr_scan", "android": "https://dc.lft.to/lastmile_qr_scan"}, "lon": -77.0318885, "bike_id": "29c797d4bf52a9293725c431fb988c60", "type": "electric_scooter", "name": "29c797d4bf52a9293725c431fb988c60"}, {"is_disabled": 0, "is_reserved": 0, "fusion_lat": 0.0, "lat": 38.921598333333336, "fusion_lon": 0.0, "rental_uris": {"ios": "https://dc.lft.to/lastmile_qr_scan", "android": "https://dc.lft.to/lastmile_qr_scan"}, "lon": -77.0347275, "bike_id": "80ff000eb0f321c67ee56586ca84ff6b", "type": "electric_scooter", "name": "80ff000eb0f321c67ee56586ca84ff6b"}, {"is_disabled": 0, "is_reserved": 0, "fusion_lat": 0.0, "lat": 38.93313466666667, "fusion_lon": 0.0, "rental_uris": {"ios": "https://dc.lft.to/lastmile_qr_scan", "android": "https://dc.lft.to/lastmile_qr_scan"}, "lon": -77.03184916666666, "bike_id": "8abb70debf9ad466f96c6bbdbeb02669", "type": "electric_scooter", "name": "8abb70debf9ad466f96c6bbdbeb02669"}, {"is_disabled": 0, "is_reserved": 0, "fusion_lat": 0.0, "lat": 38.884797, "fusion_lon": 0.0, "rental_uris": {"ios": "https://dc.lft.to/lastmile_qr_scan", "android": "https://dc.lft.to/lastmile_qr_scan"}, "lon": -77.03355533333334, "bike_id": "60a77a138a5fbd467d71472147080330", "type": "electric_scooter", "name": "60a77a138a5fbd467d71472147080330"}, {"is_disabled": 0, "is_reserved": 0, "fusion_lat": 0.0, "lat": 38.913406, "fusion_lon": 0.0, "rental_uris": {"ios": "https://dc.lft.to/lastmile_qr_scan", "android": "https://dc.lft.to/lastmile_qr_scan"}, "lon": -77.00225883333333, "bike_id": "6725d05a2d30a7f389c51fdd411285fe", "type": "electric_scooter", "name": "6725d05a2d30a7f389c51fdd411285fe"}, {"is_disabled": 0, "is_reserved": 0, "fusion_lat": 0.0, "lat": 38.88739666666667, "fusion_lon": 0.0, "rental_uris": {"ios": "https://dc.lft.to/lastmile_qr_scan", "android": "https://dc.lft.to/lastmile_qr_scan"}, "lon": -77.02205366666666, "bike_id": "20e5daa5c9dfdf834bf2ee48f598baf1", "type": "electric_scooter", "name": "20e5daa5c9dfdf834bf2ee48f598baf1"}, {"is_disabled": 0, "is_reserved": 0, "fusion_lat": 0.0, "lat": 38.921989833333335, "fusion_lon": 0.0, "rental_uris": {"ios": "https://dc.lft.to/lastmile_qr_scan", "android": "https://dc.lft.to/lastmile_qr_scan"}, "lon": -77.0379375, "bike_id": "78620e24321637f78e3b0e8ebe45a2d2", "type": "electric_scooter", "name": "78620e24321637f78e3b0e8ebe45a2d2"}, {"is_disabled": 0, "is_reserved": 0, "fusion_lat": 0.0, "lat": 38.9231705, "fusion_lon": 0.0, "rental_uris": {"ios": "https://dc.lft.to/lastmile_qr_scan", "android": "https://dc.lft.to/lastmile_qr_scan"}, "lon": -77.02800416666666, "bike_id": "4c00de0421deb7a83cbfeb5c7e38b1c4", "type": "electric_scooter", "name": "4c00de0421deb7a83cbfeb5c7e38b1c4"}, {"is_disabled": 0, "is_reserved": 0, "fusion_lat": 0.0, "lat": 38.85787416666667, "fusion_lon": 0.0, "rental_uris": {"ios": "https://dc.lft.to/lastmile_qr_scan", "android": "https://dc.lft.to/lastmile_qr_scan"}, "lon": -76.9875705, "bike_id": "1261c5a00fc1a6abed1239e46d4dcd05", "type": "electric_bike", "name": "1261c5a00fc1a6abed1239e46d4dcd05"}, {"is_disabled": 0, "is_reserved": 0, "fusion_lat": 0.0, "lat": 38.92327133333333, "fusion_lon": 0.0, "rental_uris": {"ios": "https://dc.lft.to/lastmile_qr_scan", "android": "https://dc.lft.to/lastmile_qr_scan"}, "lon": -77.03806283333333, "bike_id": "e33bb52ca6965bf62711be486c171df0", "type": "electric_bike", "name": "e33bb52ca6965bf62711be486c171df0"}, {"is_disabled": 0, "is_reserved": 0, "fusion_lat": 0.0, "lat": 38.900068, "fusion_lon": 0.0, "rental_uris": {"ios": "https://dc.lft.to/lastmile_qr_scan", "android": "https://dc.lft.to/lastmile_qr_scan"}, "lon": -77.05252833333333, "bike_id": "e57690529664b4fa5aaca4164d59a4d1", "type": "electric_scooter", "name": "e57690529664b4fa5aaca4164d59a4d1"}, {"is_disabled": 0, "is_reserved": 0, "fusion_lat": 0.0, "lat": 38.919214333333336, "fusion_lon": 0.0, "rental_uris": {"ios": "https://dc.lft.to/lastmile_qr_scan", "android": "https://dc.lft.to/lastmile_qr_scan"}, "lon": -77.03091616666667, "bike_id": "68ac1d782f64e5bf7283b334026bce8f", "type": "electric_scooter", "name": "68ac1d782f64e5bf7283b334026bce8f"}, {"is_disabled": 0, "is_reserved": 0, "fusion_lat": 0.0, "lat": 38.9232695, "fusion_lon": 0.0, "rental_uris": {"ios": "https://dc.lft.to/lastmile_qr_scan", "android": "https://dc.lft.to/lastmile_qr_scan"}, "lon": -77.02972816666667, "bike_id": "efb127ff6ff5705a576c3d1bd320cee0", "type": "electric_scooter", "name": "efb127ff6ff5705a576c3d1bd320cee0"},