{"data": {"bikes": [{"name": "a15d31b6d66c6b0924c81098c95d5744", "type": "electric_scooter", "lat": 38.90079266666667, "is_reserved": 0, "lon": -77.04915016666666, "fusion_lon": 0.0, "is_disabled": 0, "fusion_lat": 0.0, "bike_id": "a15d31b6d66c6b0924c81098c95d5744", "rental_uris": {"ios": "https://dc.lft.to/lastmile_qr_scan", "android": "https://dc.lft.to/lastmile_qr_scan"}}, {"name": "2128d62dedfe635389323ea68b9d1236", "type": "electric_scooter", "lat": 38.91103233333333, "is_reserved": 0, "lon": -77.0105825, "fusion_lon": 0.0, "is_disabled": 0, "fusion_lat": 0.0, "bike_id": "2128d62dedfe635389323ea68b9d1236", "rental_uris": {"ios": "https://dc.lft.to/lastmile_qr_scan", "android": "https://dc.lft.to/lastmile_qr_scan"}}, {"name": "1e297481c5ee1f95bc2ba02f6cfe75e2", "type": "electric_scooter", "lat": 38.892472833333336, "is_reserved": 0, "lon": -77.03197666666667, "fusion_lon": 0.0, "is_disabled": 0, "fusion_lat": 0.0, "bike_id": "1e297481c5ee1f95bc2ba02f6cfe75e2", "rental_uris": {"ios": "https://dc.lft.to/lastmile_qr_scan", "android": "https://dc.lft.to/lastmile_qr_scan"}}, {"name": "a5e89d95fd12133cc8b32d23e9414365", "type": "electric_scooter", "lat": 38.916884333333336, "is_reserved": 0, "lon": -77.0252535, "fusion_lon": 0.0, "is_disabled": 0, "fusion_lat": 0.0, "bike_id": "a5e89d95fd12133cc8b32d23e9414365", "rental_uris": {"ios": "https://dc.lft.to/lastmile_qr_scan", "android": "https://dc.lft.to/lastmile_qr_scan"}}, {"name": "7c99e180a52464b7e96e41a387c0ab8e", "type": "electric_scooter", "lat": 38.9080875, "is_reserved": 0, "lon": -77.03866883333333, "fusion_lon": 0.0, "is_disabled": 0, "fusion_lat": 0.0, "bike_id": "7c99e180a52464b7e96e41a387c0ab8e", "rental_uris": {"ios": "https://dc.lft.to/lastmile_qr_scan", "android": "https://dc.lft.to/lastmile_qr_scan"}}, {"name": "675416ecff92fc0662ffdf246cd9462b", "type": "electric_bike", "lat": 38.86198183333333, "is_reserved": 0, "lon": -76.948038, "fusion_lon": 0.0, "is_disabled": 0, "fusion_lat": 0.0, "bike_id": "675416ecff92fc0662ffdf246cd9462b", "rental_uris": {"ios": "https://dc.lft.to/lastmile_qr_scan", "android": "https://dc.lft.to/lastmile_qr_scan"}}, {"name": "c952c86ceeec37df24c1410b1ca60497", "type": "electric_scooter", "lat": 38.9391395, "is_reserved": 0, "lon": -77.02470916666667, "fusion_lon": 0.0, "is_disabled": 0, "fusion_lat": 0.0, "bike_id": "c952c86ceeec37df24c1410b1ca60497", "rental_uris": {"ios": "https://dc.lft.to/lastmile_qr_scan", "android": "https://dc.lft.to/lastmile_qr_scan"}}, {"name": "5ff05177688af77fd4b46d51c90c07fc", "type": "electric_scooter", "lat": 38.905205, "is_reserved": 0, "lon": -77.06935266666666, "fusion_lon": 0.0, "is_disabled": 0, "fusion_lat": 0.0, "bike_id": "5ff05177688af77fd4b46d51c90c07fc", "rental_uris": {"ios": "https://dc.lft.to/lastmile_qr_scan", "android": "https://dc.lft.to/lastmile_qr_scan"}}, {"name": "7427998b29eab026ba19dbd5b9ae39a9", "type": "electric_scooter", "lat": 38.923317, "is_reserved": 0, "lon": -77.03897333333333, "fusion_lon": 0.0, "is_disabled": 0, "fusion_lat": 0.0, "bike_id": "7427998b29eab026ba19dbd5b9ae39a9", "rental_uris": {"ios": "https://dc.lft.to/lastmile_qr_scan", "android": "https://dc.lft.to/lastmile_qr_scan"}}, {"name": "96c5b21d9d6f5959d545466ff1de5341", "type": "electric_scooter", "lat": 38.91410066666667, "is_reserved": 0, "lon": -77.0211675, "fusion_lon": 0.0, "is_disabled": 0, "fusion_lat": 0.0, "bike_id": "96c5b21d9d6f5959d545466ff1de5341", "rental_uris": {"ios": "https://dc.lft.to/lastmile_qr_scan", "android": "https://dc.lft.to/lastmile_qr_scan"}}, {"name": "221891f4841e22b48e8732fa8c1b10da", "type": "electric_scooter", "lat": 38.9203885, "is_reserved": 0, "lon": -77.03420016666666, "fusion_lon": 0.0, "is_disabled": 0, "fusion_lat": 0.0, "bike_id": "221891f4841e22b48e8732fa8c1b10da", "rental_uris": {"ios": "https://dc.lft.to/lastmile_qr_scan", "android": "https://dc.lft.to/lastmile_qr_scan"}}, {"name": "9db8a4ebef4d42afbd107a081fe6952d", "type": "electric_scooter", "lat": 38.92796716666667, "is_reserved": 0, "lon": -77.03150216666667, "fusion_lon": 0.0, "is_disabled": 0, "fusion_lat": 0.0, "bike_id": "9db8a4ebef4d42afbd107a081fe6952d", "rental_uris": {"ios": "https://dc.lft.to/lastmile_qr_scan", "android": "https://dc.lft.to/lastmile_qr_scan"}}, {"name": "7c0b8f34076d2a9fcbf49c2dcaf5c635", "type": "electric_scooter", "lat": 38.910177166666664, "is_reserved": 0, "lon": -77.05289483333334, "fusion_lon": 0.0, "is_disabled": 0, "fusion_lat": 0.0, "bike_id": "7c0b8f34076d2a9fcbf49c2dcaf5c635", "rental_uris": {"ios": "https://dc.lft.to/lastmile_qr_scan", "android": "https://dc.lft.to/lastmile_qr_scan"}}, {"name": "fed6ec1dd51d1bab0bf9a1b58a9bd855", "type": "electric_scooter", "lat": 38.906443833333334, "is_reserved": 0, "lon": -76.9857285, "fusion_lon": 0.0, "is_disabled": 0, "fusion_lat": 0.0, "bike_id": "fed6ec1dd51d1bab0bf9a1b58a9bd855", "rental_uris": {"ios": "https://dc.lft.to/lastmile_qr_scan", "android": "https://dc.lft.to/lastmile_qr_scan"}}, {"name": "3e723905fd4ab02dadaa24c9a0abac4a", "type": "electric_scooter", "lat": 38.92725216666667, "is_reserved": 0, "lon": -77.03079616666666, "fusion_lon": 0.0, "is_disabled": 0, "fusion_lat": 0.0, "bike_id": "3e723905fd4ab02dadaa24c9a0abac4a", "rental_uris": {"ios": "https://dc.lft.to/lastmile_qr_scan", "android": "https://dc.lft.to/lastmile_qr_scan"}}, {"name": "ac47a8e361708bdd5122e9db117ceef6", "type": "electric_scooter", "lat": 38.921815, "is_reserved": 0, "lon": -77.0401645, "fusion_lon": 0.0, "is_disabled": 0, "fusion_lat": 0.0, "bike_id": "ac47a8e361708bdd5122e9db117ceef6", "rental_uris": {"ios": "https://dc.lft.to/lastmile_qr_scan", "android": "https://dc.lft.to/lastmile_qr_scan"}}, {"name": "139a7f3515a88edbb17687a152fbbe83", "type": "electric_scooter", "lat": 38.918241333333334, "is_reserved": 0, "lon": -77.034382, "fusion_lon": 0.0, "is_disabled": 0, "fusion_lat": 0.0, "bike_id": "139a7f3515a88edbb17687a152fbbe83", "rental_uris": {"ios": "https://dc.lft.to/lastmile_qr_scan", "android": "https://dc.lft.to/lastmile_qr_scan"}}, {"name": "f1831ca9d0162762bb350523e1f9dd40", "type": "electric_scooter", "lat": 38.93253333333333, "is_reserved": 0, "lon": -77.03279433333333, "fusion_lon": 0.0, "is_disabled": 0, "fusion_lat": 0.0, "bike_id": "f1831ca9d0162762bb350523e1f9dd40", "rental_uris": {"ios": "https://dc.lft.to/lastmile_qr_scan", "android": "https://dc.lft.to/lastmile_qr_scan"}}, {"name": "8fc487adf53de3270fb1f788aed063a0", "type": "electric_scooter", "lat": 38.91108666666667, "is_reserved": 0, "lon": -77.036315, "fusion_lon": 0.0, "is_disabled": 0, "fusion_lat": 0.0, "bike_id": "8fc487adf53de3270fb1f788aed063a0", "rental_uris": {"ios": "https://dc.lft.to/lastmile_qr_scan", "android": "https://dc.lft.to/lastmile_qr_scan"}}, {"name": "569886d0ebb7180dad7ca09a913b472a", "type": "electric_scooter", "lat": 38.922467, "is_reserved": 0, "lon": -77.01010083333334, "fusion_lon": 0.0, "is_disabled": 0, "fusion_lat": 0.0, "bike_id": "569886d0ebb7180dad7ca09a913b472a", "rental_uris": {"ios": "https://dc.lft.to/lastmile_qr_scan", "android": "https://dc.lft.to/lastmile_qr_scan"}}, {"name": "b202001ede58b012f407fc676230f5fb", "type": "electric_scooter", "lat": 38.9154565, "is_reserved": 0, "lon": -77.03859083333333, "fusion_lon": 0.0, "is_disabled": 0, "fusion_lat": 0.0, "bike_id": "b202001ede58b012f407fc676230f5fb", "rental_uris": {"ios": "https://dc.lft.to/lastmile_qr_scan", "android": "https://dc.lft.to/lastmile_qr_scan"}}, {"name": "be8a34384561e12495254d03e20c975f", "type": "electric_scooter", "lat": 38.89559116666667, "is_reserved": 0, "lon": -77.028317, "fusion_lon": 0.0, "is_disabled": 0, "fusion_lat": 0.0, "bike_id": "be8a34384561e12495254d03e20c975f", "rental_uris": {"ios": "https://dc.lft.to/lastmile_qr_scan", "android": "https://dc.lft.to/lastmile_qr_scan"}}, {"name": "9bdcc5464ceb383b02cc3a4af992ba3c", "type": "electric_scooter", "lat": 38.90278333333333, "is_reserved": 0, "lon": -77.0592185, "fusion_lon": 0.0, "is_disabled": 0, "fusion_lat": 0.0, "bike_id": "9bdcc5464ceb383b02cc3a4af992ba3c", "rental_uris": {"ios": "https://dc.lft.to/lastmile_qr_scan", "android": "https://dc.lft.to/lastmile_qr_scan"}}, {"name": "05c1f16cb6ccc8c9caf683ddd0ef4bee", "type": "electric_bike", "lat": 38.863719333333336, "is_reserved": 0, "lon": -76.97005, "fusion_lon": 0.0, "is_disabled": 0, "fusion_lat": 0.0, "bike_id": "05c1f16cb6ccc8c9caf683ddd0ef4bee", "rental_uris": {"ios": "https://dc.lft.to/lastmile_qr_scan", "android": "https://dc.lft.to/lastmile_qr_scan"}}, {"name": "a37a1c36c79a3d73d24c57a184975a02", "type": "electric_scooter", "lat": 38.912421333333334, "is_reserved": 0, "lon": -77.00111116666666, "fusion_lon": 0.0, "is_disabled": 0, "fusion_lat": 0.0, "bike_id": "a37a1c36c79a3d73d24c57a184975a02", "rental_uris": {"ios": "https://dc.lft.to/lastmile_qr_scan", "android": "https://dc.lft.to/lastmile_qr_scan"}}, {"name": "c4a8b89b8e5c2f96dd843ab04f1bb8d9", "type": "electric_scooter", "lat": 38.90257233333333, "is_reserved": 0, "lon": -77.03180283333333, "fusion_lon": 0.0, "is_disabled": 0, "fusion_lat": 0.0, "bike_id": "c4a8b89b8e5c2f96dd843ab04f1bb8d9", "rental_uris": {"ios": "https://dc.lft.to/lastmile_qr_scan", "android": "https://dc.lft.to/lastmile_qr_scan"}}, {"name": "bdd2b6d3343be3e6b9e28919faadabb4", "type": "electric_scooter", "lat": 38.90658783333333, "is_reserved": 0, "lon": -77.0385605, "fusion_lon": 0.0, "is_disabled": 0, "fusion_lat": 0.0, "bike_id": "bdd2b6d3343be3e6b9e28919faadabb4", "rental_uris": {"ios": "https://dc.lft.to/lastmile_qr_scan", "android": "https://dc.lft.to/lastmile_qr_scan"}}, {"name": "cf537226a86b8491a472f82504e52a22", "type": "electric_scooter", "lat": 38.906451833333335, "is_reserved": 0, "lon": -77.01141233333334, "fusion_lon": 0.0, "is_disabled": 0, "fusion_lat": 0.0, "bike_id": "cf537226a86b8491a472f82504e52a22", "rental_uris": {"ios": "https://dc.lft.to/lastmile_qr_scan", "android": "https://dc.lft.to/lastmile_qr_scan"}}, {"name": "c5976d2f523464370fd41adad7f874b2", "type": "electric_scooter", "lat": 38.89223616666666, "is_reserved": 0, "lon": -77.042652, "fusion_lon": 0.0, "is_disabled": 0, "fusion_lat": 0.0, "bike_id": "c5976d2f523464370fd41adad7f874b2", "rental_uris": {"ios": "https://dc.lft.to/lastmile_qr_scan", "android": "https://dc.lft.to/lastmile_qr_scan"}}, {"name": "12c0b9d342caa474f23e56f8cfed18f7", "type": "electric_scooter", "lat": 38.90849466666667, "is_reserved": 0, "lon": -77.044162, "fusion_lon": 0.0, "is_disabled": 0, "fusion_lat": 0.0, "bike_id": "12c0b9d342caa474f23e56f8cfed18f7", "rental_uris": {"ios": "https://dc.lft.to/lastmile_qr_scan", "android": "https://dc.lft.to/lastmile_qr_scan"}}, {"name": "7b02a8a3bcaad87b36dec550a2a2e67d", "type": "electric_scooter", "lat": 38.90720233333333, "is_reserved": 0, "lon": -77.04351133333333, "fusion_lon": 0.0, "is_disabled": 0, "fusion_lat": 0.0, "bike_id": "7b02a8a3bcaad87b36dec550a2a2e67d", "rental_uris": {"ios": "https://dc.lft.to/lastmile_qr_scan", "android": "https://dc.lft.to/lastmile_qr_scan"}}, {"name": "e7b114b425600cf66bea19b283853173", "type": "electric_scooter", "lat": 38.90684916666667, "is_reserved": 0, "lon": -77.01339783333333, "fusion_lon": 0.0, "is_disabled": 0, "fusion_lat": 0.0, "bike_id": "e7b114b425600cf66bea19b283853173", "rental_uris": {"ios": "https://dc.lft.to/lastmile_qr_scan", "android": "https://dc.lft.to/lastmile_qr_scan"}}, {"name": "f4a5d167db6bf4342cdeca16e5e842e3", "type": "electric_bike", "lat": 38.869042, "is_reserved": 0, "lon": -77.1317935, "fusion_lon": 0.0, "is_disabled": 0, "fusion_lat": 0.0, "bike_id": "f4a5d167db6bf4342cdeca16e5e842e3", "rental_uris": {"ios": "https://dc.lft.to/lastmile_qr_scan", "android": "https://dc.lft.to/lastmile_qr_scan"}}, {"name": "f9f009a705e74d663c49228fe28673cc", "type": "electric_scooter", "lat": 38.9325365, "is_reserved": 0, "lon": -77.032839, "fusion_lon": 0.0, "is_disabled": 0, "fusion_lat": 0.0, "bike_id": "f9f009a705e74d663c49228fe28673cc", "rental_uris": {"ios": "https://dc.lft.to/lastmile_qr_scan", "android": "https://dc.lft.to/lastmile_qr_scan"}}, {"name": "6ce4d4a363d3dbcb024d8b1abb7055c8", "type": "electric_scooter", "lat": 38.9044085, "is_reserved": 0, "lon": -77.01800116666666, "fusion_lon": 0.0, "is_disabled": 0, "fusion_lat": 0.0, "bike_id": "6ce4d4a363d3dbcb024d8b1abb7055c8", "rental_uris": {"ios": "https://dc.lft.to/lastmile_qr_scan", "android": "https://dc.lft.to/lastmile_qr_scan"}}, {"name": "1b6aa29985b2bc6bcb4fc3d064330e9c", "type": "electric_scooter", "lat": 38.9126655, "is_reserved": 0, "lon": -77.00636266666666, "fusion_lon": 0.0, "is_disabled": 0, "fusion_lat": 0.0, "bike_id": "1b6aa29985b2bc6bcb4fc3d064330e9c", "rental_uris": {"ios": "https://dc.lft.to/lastmile_qr_scan", "android": "https://dc.lft.to/lastmile_qr_scan"}}, {"name": "cf24c2a96e12977f348c3d4ef83f1bd5", "type": "electric_scooter", "lat": 38.89218783333333, "is_reserved": 0, "lon": -77.02143366666667, "fusion_lon": 0.0, "is_disabled": 0, "fusion_lat": 0.0, "bike_id": "cf24c2a96e12977f348c3d4ef83f1bd5", "rental_uris": {"ios": "https://dc.lft.to/lastmile_qr_scan", "android": "https://dc.lft.to/lastmile_qr_scan"}}, {"name": "20961ac3195a97339579d2e698fc9be1", "type": "electric_scooter", "lat": 38.90374716666667, "is_reserved": 0, "lon": -77.00755883333333, "fusion_lon": 0.0, "is_disabled": 0, "fusion_lat": 0.0, "bike_id": "20961ac3195a97339579d2e698fc9be1", "rental_uris": {"ios": "https://dc.lft.to/lastmile_qr_scan", "android": "https://dc.lft.to/lastmile_qr_scan"}}, {"name": "b5952724fd9cc0bfe5d2ab68a0747aea", "type": "electric_bike", "lat": 38.96506316666667, "is_reserved": 0, "lon": -77.028186, "fusion_lon": 0.0, "is_disabled": 0, "fusion_lat": 0.0, "bike_id": "b5952724fd9cc0bfe5d2ab68a0747aea", "rental_uris": {"ios": "https://dc.lft.to/lastmile_qr_scan", "android": "https://dc.lft.to/lastmile_qr_scan"}}, {"name": "fadf30bcd10466ece5737e1ce35ad457", "type": "electric_scooter", "lat": 38.928446, "is_reserved": 0, "lon": -77.05418316666666, "fusion_lon": 0.0, "is_disabled": 0, "fusion_lat": 0.0, "bike_id": "fadf30bcd10466ece5737e1ce35ad457", "rental_uris": {"ios": "https://dc.lft.to/lastmile_qr_scan", "android": "https://dc.lft.to/lastmile_qr_scan"}}, {"name": "656910df3bdbc243e89881a6a337da61", "type": "electric_scooter", "lat": 38.89196316666666, "is_reserved": 0, "lon": -77.01550066666667, "fusion_lon": 0.0, "is_disabled": 0, "fusion_lat": 0.0, "bike_id": "656910df3bdbc243e89881a6a337da61", "rental_uris": {"ios": "https://dc.lft.to/lastmile_qr_scan", "android": "https://dc.lft.to/lastmile_qr_scan"}}, {"name": "550c1b26468b31444fdbd65a909b5799", "type": "electric_scooter", "lat": 38.89132333333333, "is_reserved": 0, "lon": -77.00340716666666, "fusion_lon": 0.0, "is_disabled": 0, "fusion_lat": 0.0, "bike_id": "550c1b26468b31444fdbd65a909b5799", "rental_uris": {"ios": "https://dc.lft.to/lastmile_qr_scan", "android": "https://dc.lft.to/lastmile_qr_scan"}}, {"name": "0c073320eccef7afe08c472512ee9193", "type": "electric_scooter", "lat": 38.8797445, "is_reserved": 0, "lon": -76.9853615, "fusion_lon": 0.0, "is_disabled": 0, "fusion_lat": 0.0, "bike_id": "0c073320eccef7afe08c472512ee9193", "rental_uris": {"ios": "https://dc.lft.to/lastmile_qr_scan", "android": "https://dc.lft.to/lastmile_qr_scan"}}, {"name": "854035faa75248e1ef5de2bcabb6548b", "type": "electric_scooter", "lat": 38.90827266666667, "is_reserved": 0, "lon": -76.99693466666666, "fusion_lon": 0.0, "is_disabled": 0, "fusion_lat": 0.0, "bike_id": "854035faa75248e1ef5de2bcabb6548b", "rental_uris": {"ios": "https://dc.lft.to/lastmile_qr_scan", "android": "https://dc.lft.to/lastmile_qr_scan"}}, {"name": "c51b2b4083568140adaa371582930c65", "type": "electric_scooter", "lat": 38.89590483333333, "is_reserved": 0, "lon": -77.02587333333334, "fusion_lon": 0.0, "is_disabled": 0, "fusion_lat": 0.0, "bike_id": "c51b2b4083568140adaa371582930c65", "rental_uris": {"ios": "https://dc.lft.to/lastmile_qr_scan", "android": "https://dc.lft.to/lastmile_qr_scan"}}, {"name": "a9d3dc5d66d1de993c583271f2bde268", "type": "electric_bike", "lat": 39.03044933333334, "is_reserved": 0, "lon": -77.09485983333333, "fusion_lon": 0.0, "is_disabled": 0, "fusion_lat": 0.0, "bike_id": "a9d3dc5d66d1de993c583271f2bde268", "rental_uris": {"ios": "https://dc.lft.to/lastmile_qr_scan", "android": "https://dc.lft.to/lastmile_qr_scan"}}, {"name": "d12ebb8ab7d61b44ac9e81c5f614bbd4", "type": "electric_scooter", "lat": 38.90263616666667, "is_reserved": 0, "lon": -77.0181645, "fusion_lon": 0.0, "is_disabled": 0, "fusion_lat": 0.0, "bike_id": "d12ebb8ab7d61b44ac9e81c5f614bbd4", "rental_uris": {"ios": "https://dc.lft.to/lastmile_qr_scan", "android": "https://dc.lft.to/lastmile_qr_scan"}}, {"name": "7bc2bb49b6bcb89d70f549d09ea3a554", "type": "electric_scooter", "lat": 38.87672233333333, "is_reserved": 0, "lon": -77.00059183333333, "fusion_lon": 0.0, "is_disabled": 0, "fusion_lat": 0.0, "bike_id": "7bc2bb49b6bcb89d70f549d09ea3a554", "rental_uris": {"ios": "https://dc.lft.to/lastmile_qr_scan", "android": "https://dc.lft.to/lastmile_qr_scan"}}, {"name": "b79508bc02da668b3cba3df88dce0b24", "type": "electric_scooter", "lat": 38.90514316666667, "is_reserved": 0, "lon": -77.05140183333333, "fusion_lon": 0.0, "is_disabled": 0, "fusion_lat": 0.0, "bike_id": "b79508bc02da668b3cba3df88dce0b24", "rental_uris": {"ios": "https://dc.lft.to/lastmile_qr_scan", "android": "https://dc.lft.to/lastmile_qr_scan"}}, {"name": "a1620802655e94827703dd6301404de8", "type": "electric_scooter", "lat": 38.927328833333334, "is_reserved": 0, "lon": -77.02489616666666, "fusion_lon": 0.0, "is_disabled": 0, "fusion_lat": 0.0, "bike_id": "a1620802655e94827703dd6301404de8", "rental_uris": {"ios": "https://dc.lft.to/lastmile_qr_scan", "android": "https://dc.lft.to/lastmile_qr_scan"}}, {"name": "33c2c9edd60ccc855a10d200d303bdcf", "type": "electric_scooter", "lat": 38.905649333333336, "is_reserved": 0, "lon": -77.0344645, "fusion_lon": 0.0, "is_disabled": 0, "fusion_lat": 0.0, "bike_id": "33c2c9edd60ccc855a10d200d303bdcf", "rental_uris": {"ios": "https://dc.lft.to/lastmile_qr_scan", "android": "https://dc.lft.to/lastmile_qr_scan"}}, {"name": "87bfa4d60d1115cc1a678e19f03ab59d", "type": "electric_scooter", "lat": 38.92273483333334, "is_reserved": 0, "lon": -77.03664333333333, "fusion_lon": 0.0, "is_disabled": 0, "fusion_lat": 0.0, "bike_id": "87bfa4d60d1115cc1a678e19f03ab59d", "rental_uris": {"ios": "https://dc.lft.to/lastmile_qr_scan", "android": "https://dc.lft.to/lastmile_qr_scan"}}, {"name": "e32804c0ff93ce6e9a896854663187d7", "type": "electric_scooter", "lat": 38.932668166666666, "is_reserved": 0, "lon": -77.03282983333334, "fusion_lon": 0.0, "is_disabled": 0, "fusion_lat": 0.0, "bike_id": "e32804c0ff93ce6e9a896854663187d7", "rental_uris": {"ios": "https://dc.lft.to/lastmile_qr_scan", "android": "https://dc.lft.to/lastmile_qr_scan"}}, {"name": "afff83a53bd83b1aa1ed966eabc5b655", "type": "electric_scooter", "lat": 38.91819683333333, "is_reserved": 0, "lon": -77.02302066666667, "fusion_lon": 0.0, "is_disabled": 0, "fusion_lat": 0.0, "bike_id": "afff83a53bd83b1aa1ed966eabc5b655", "rental_uris": {"ios": "https://dc.lft.to/lastmile_qr_scan", "android": "https://dc.lft.to/lastmile_qr_scan"}}, {"name": "ae5efec17f903015a72eeb767d40eb63", "type": "electric_bike", "lat": 38.839373333333334, "is_reserved": 0, "lon": -77.07899316666666, "fusion_lon": 0.0, "is_disabled": 0, "fusion_lat": 0.0, "bike_id": "ae5efec17f903015a72eeb767d40eb63", "rental_uris": {"ios": "https://dc.lft.to/lastmile_qr_scan", "android": "https://dc.lft.to/lastmile_qr_scan"}}, {"name": "47ad666f09e0d3c55ed35abfee2fb2ea", "type": "electric_scooter", "lat": 38.921826833333334, "is_reserved": 0, "lon": -77.04289016666667, "fusion_lon": 0.0, "is_disabled": 0, "fusion_lat": 0.0, "bike_id": "47ad666f09e0d3c55ed35abfee2fb2ea", "rental_uris": {"ios": "https://dc.lft.to/lastmile_qr_scan", "android": "https://dc.lft.to/lastmile_qr_scan"}}, {"name": "22b8579298fe713514efd8592e687cfd", "type": "electric_scooter", "lat": 38.9215235, "is_reserved": 0, "lon": -77.03664166666667, "fusion_lon": 0.0, "is_disabled": 0, "fusion_lat": 0.0, "bike_id": "22b8579298fe713514efd8592e687cfd", "rental_uris": {"ios": "https://dc.lft.to/lastmile_qr_scan", "android": "https://dc.lft.to/lastmile_qr_scan"}}, {"name": "77d8dc2220d78fa36b9d4e394af5be98", "type": "electric_scooter", "lat": 38.8961595, "is_reserved": 0, "lon": -77.050851, "fusion_lon": 0.0, "is_disabled": 0, "fusion_lat": 0.0, "bike_id": "77d8dc2220d78fa36b9d4e394af5be98", "rental_uris": {"ios": "https://dc.lft.to/lastmile_qr_scan", "android": "https://dc.lft.to/lastmile_qr_scan"}}, {"name": "89e5b3754388b4212d53412cd8362cc7", "type": "electric_scooter", "lat": 38.892245833333334, "is_reserved": 0, "lon": -77.04643683333333, "fusion_lon": 0.0, "is_disabled": 0, "fusion_lat": 0.0, "bike_id": "89e5b3754388b4212d53412cd8362cc7", "rental_uris": {"ios": "https://dc.lft.to/lastmile_qr_scan", "android": "https://dc.lft.to/lastmile_qr_scan"}}, {"name": "845a943d5131b8b800bf4eb0ad1bcf50", "type": "electric_scooter", "lat": 38.949608, "is_reserved": 0, "lon": -77.02724283333333, "fusion_lon": 0.0, "is_disabled": 0, "fusion_lat": 0.0, "bike_id": "845a943d5131b8b800bf4eb0ad1bcf50", "rental_uris": {"ios": "https://dc.lft.to/lastmile_qr_scan", "android": "https://dc.lft.to/lastmile_qr_scan"}}, {"name": "f05e859d92f26e0c12ab688ca7162686", "type": "electric_bike", "lat": 38.842775, "is_reserved": 0, "lon": -76.98842483333334, "fusion_lon": 0.0, "is_disabled": 0, "fusion_lat": 0.0, "bike_id": "f05e859d92f26e0c12ab688ca7162686", "rental_uris": {"ios": "https://dc.lft.to/lastmile_qr_scan", "android": "https://dc.lft.to/lastmile_qr_scan"}}, {"name": "9f8099c923438567da6dc421a1b62cbb", "type": "electric_scooter", "lat": 38.91482883333333, "is_reserved": 0, "lon": -77.0392415, "fusion_lon": 0.0, "is_disabled": 0, "fusion_lat": 0.0, "bike_id": "9f8099c923438567da6dc421a1b62cbb", "rental_uris": {"ios": "https://dc.lft.to/lastmile_qr_scan", "android": "https://dc.lft.to/lastmile_qr_scan"}}, {"name": "bb7458c17b89fccce9801167bcac8f6f", "type": "electric_scooter", "lat": 38.905967, "is_reserved": 0, "lon": -77.016114, "fusion_lon": 0.0, "is_disabled": 0, "fusion_lat": 0.0, "bike_id": "bb7458c17b89fccce9801167bcac8f6f", "rental_uris": {"ios": "https://dc.lft.to/lastmile_qr_scan", "android": "https://dc.lft.to/lastmile_qr_scan"}}, {"name": "8f007e7e63ee6bb4ab9bff4ae18af78e", "type": "electric_scooter", "lat": 38.91455033333333, "is_reserved": 0, "lon": -77.03854883333334, "fusion_lon": 0.0, "is_disabled": 0, "fusion_lat": 0.0, "bike_id": "8f007e7e63ee6bb4ab9bff4ae18af78e", "rental_uris": {"ios": "https://dc.lft.to/lastmile_qr_scan", "android": "https://dc.lft.to/lastmile_qr_scan"}}, {"name": "4c749eb2bee7948244aa4552614efa45", "type": "electric_scooter", "lat": 38.90045, "is_reserved": 0, "lon": -77.01158716666667, "fusion_lon": 0.0, "is_disabled": 0, "fusion_lat": 0.0, "bike_id": "4c749eb2bee7948244aa4552614efa45", "rental_uris": {"ios": "https://dc.lft.to/lastmile_qr_scan", "android": "https://dc.lft.to/lastmile_qr_scan"}}, {"name": "b4ff5b5042957d1f8693341a44e55e28", "type": "electric_scooter", "lat": 38.903227666666666, "is_reserved": 0, "lon": -77.03331266666666, "fusion_lon": 0.0, "is_disabled": 0, "fusion_lat": 0.0, "bike_id": "b4ff5b5042957d1f8693341a44e55e28", "rental_uris": {"ios": "https://dc.lft.to/lastmile_qr_scan", "android": "https://dc.lft.to/lastmile_qr_scan"}}, {"name": "00ad5b170fc037eb6d1bb495a7e4d91a", "type": "electric_scooter", "lat": 38.898460166666666, "is_reserved": 0, "lon": -77.03318616666667, "fusion_lon": 0.0, "is_disabled": 0, "fusion_lat": 0.0, "bike_id": "00ad5b170fc037eb6d1bb495a7e4d91a", "rental_uris": {"ios": "https://dc.lft.to/lastmile_qr_scan", "android": "https://dc.lft.to/lastmile_qr_scan"}}, {"name": "3c1a04b8a5e2e13ff88d5c17684fc622", "type": "electric_scooter", "lat": 38.93980666666667, "is_reserved": 0, "lon": -77.02595366666667, "fusion_lon": 0.0, "is_disabled": 0, "fusion_lat": 0.0, "bike_id": "3c1a04b8a5e2e13ff88d5c17684fc622", "rental_uris": {"ios": "https://dc.lft.to/lastmile_qr_scan", "android": "https://dc.lft.to/lastmile_qr_scan"}}, {"name": "44c7934f152946650b3570153d12c5bf", "type": "electric_scooter", "lat": 38.911098833333334, "is_reserved": 0, "lon": -77.03480266666666, "fusion_lon": 0.0, "is_disabled": 0, "fusion_lat": 0.0, "bike_id": "44c7934f152946650b3570153d12c5bf", "rental_uris": {"ios": "https://dc.lft.to/lastmile_qr_scan", "android": "https://dc.lft.to/lastmile_qr_scan"}}, {"name": "b1df3abb2fb079fa69bea9d64e2fb18c", "type": "electric_bike", "lat": 38.83933233333333, "is_reserved": 0, "lon": -77.078983, "fusion_lon": 0.0, "is_disabled": 0, "fusion_lat": 0.0, "bike_id": "b1df3abb2fb079fa69bea9d64e2fb18c", "rental_uris": {"ios": "https://dc.lft.to/lastmile_qr_scan", "android": "https://dc.lft.to/lastmile_qr_scan"}}, {"name": "b06c4667cef54a0be71d891d3608b747", "type": "electric_bike", "lat": 38.880426166666666, "is_reserved": 0, "lon": -77.01325833333334, "fusion_lon": 0.0, "is_disabled": 0, "fusion_lat": 0.0, "bike_id": "b06c4667cef54a0be71d891d3608b747", "rental_uris": {"ios": "https://dc.lft.to/lastmile_qr_scan", "android": "https://dc.lft.to/lastmile_qr_scan"}}, {"name": "7a2c30549b276594efaeca214d5c373f", "type": "electric_scooter", "lat": 38.91581983333333, "is_reserved": 0, "lon": -77.02183933333333, "fusion_lon": 0.0, "is_disabled": 0, "fusion_lat": 0.0, "bike_id": "7a2c30549b276594efaeca214d5c373f", "rental_uris": {"ios": "https://dc.lft.to/lastmile_qr_scan", "android": "https://dc.lft.to/lastmile_qr_scan"}}, {"name": "36f0c768f9c3de3f52741a2cf4b277e3", "type": "electric_scooter", "lat": 38.898120166666665, "is_reserved": 0, "lon": -77.03290116666666, "fusion_lon": 0.0, "is_disabled": 0, "fusion_lat": 0.0, "bike_id": "36f0c768f9c3de3f52741a2cf4b277e3", "rental_uris": {"ios": "https://dc.lft.to/lastmile_qr_scan", "android": "https://dc.lft.to/lastmile_qr_scan"}}, {"name": "cbac3bfbc004b9d4aced0b36dc90ea2e", "type": "electric_scooter", "lat": 38.90951116666667, "is_reserved": 0, "lon": -77.04320733333333, "fusion_lon": 0.0, "is_disabled": 0, "fusion_lat": 0.0, "bike_id": "cbac3bfbc004b9d4aced0b36dc90ea2e", "rental_uris": {"ios": "https://dc.lft.to/lastmile_qr_scan", "android": "https://dc.lft.to/lastmile_qr_scan"}}, {"name": "e1300d97850a8cda6ffced672414845a", "type": "electric_bike", "lat": 38.871373, "is_reserved": 0, "lon": -76.9372685, "fusion_lon": 0.0, "is_disabled": 0, "fusion_lat": 0.0, "bike_id": "e1300d97850a8cda6ffced672414845a", "rental_uris": {"ios": "https://dc.lft.to/lastmile_qr_scan", "android": "https://dc.lft.to/lastmile_qr_scan"}}, {"name": "e87b69c498c2e101a8d96ec65ed8e91b", "type": "electric_scooter", "lat": 38.90953016666667, "is_reserved": 0, "lon": -76.99902966666667, "fusion_lon": 0.0, "is_disabled": 0, "fusion_lat": 0.0, "bike_id": "e87b69c498c2e101a8d96ec65ed8e91b", "rental_uris": {"ios": "https://dc.lft.to/lastmile_qr_scan", "android": "https://dc.lft.to/lastmile_qr_scan"}}, {"name": "f738759f4f7af6e983520fa90a7ce69a", "type": "electric_scooter", "lat": 38.92485516666667, "is_reserved": 0, "lon": -77.02712583333333, "fusion_lon": 0.0, "is_disabled": 0, "fusion_lat": 0.0, "bike_id": "f738759f4f7af6e983520fa90a7ce69a", "rental_uris": {"ios": "https://dc.lft.to/lastmile_qr_scan", "android": "https://dc.lft.to/lastmile_qr_scan"}}, {"name": "e4f28ac7736e7fd6735112949b575832", "type": "electric_scooter", "lat": 38.92987016666667, "is_reserved": 0, "lon": -77.07936633333334, "fusion_lon": 0.0, "is_disabled": 0, "fusion_lat": 0.0, "bike_id": "e4f28ac7736e7fd6735112949b575832", "rental_uris": {"ios": "https://dc.lft.to/lastmile_qr_scan", "android": "https://dc.lft.to/lastmile_qr_scan"}}, {"name": "c17b560d55409aaae46873bf9c8261c9", "type": "electric_scooter", "lat": 38.90579183333333, "is_reserved": 0, "lon": -77.029593, "fusion_lon": 0.0, "is_disabled": 0, "fusion_lat": 0.0, "bike_id": "c17b560d55409aaae46873bf9c8261c9", "rental_uris": {"ios": "https://dc.lft.to/lastmile_qr_scan", "android": "https://dc.lft.to/lastmile_qr_scan"}}, {"name": "1bbaed4b8abef94fc8abff55fea0e741", "type": "electric_scooter", "lat": 38.9311115, "is_reserved": 0, "lon": -77.03803633333334, "fusion_lon": 0.0, "is_disabled": 0, "fusion_lat": 0.0, "bike_id": "1bbaed4b8abef94fc8abff55fea0e741", "rental_uris": {"ios": "https://dc.lft.to/lastmile_qr_scan", "android": "https://dc.lft.to/lastmile_qr_scan"}}, {"name": "216f96b968b20409de3966a7058130fa", "type": "electric_scooter", "lat": 38.9413565, "is_reserved": 0, "lon": -77.0154495, "fusion_lon": 0.0, "is_disabled": 0, "fusion_lat": 0.0, "bike_id": "216f96b968b20409de3966a7058130fa", "rental_uris": {"ios": "https://dc.lft.to/lastmile_qr_scan", "android": "https://dc.lft.to/lastmile_qr_scan"}}, {"name": "c5edabaea3b97c8eeb74dcd92641578b", "type": "electric_scooter", "lat": 38.915937, "is_reserved": 0, "lon": -76.98382533333333, "fusion_lon": 0.0, "is_disabled": 0, "fusion_lat": 0.0, "bike_id": "c5edabaea3b97c8eeb74dcd92641578b", "rental_uris": {"ios": "https://dc.lft.to/lastmile_qr_scan", "android": "https://dc.lft.to/lastmile_qr_scan"}}, {"name": "86e4d5df9b9bf39b8f5e63a201dba141", "type": "electric_bike", "lat": 38.83237733333333, "is_reserved": 0, "lon": -76.94619916666667, "fusion_lon": 0.0, "is_disabled": 0, "fusion_lat": 0.0, "bike_id": "86e4d5df9b9bf39b8f5e63a201dba141", "rental_uris": {"ios": "https://dc.lft.to/lastmile_qr_scan", "android": "https://dc.lft.to/lastmile_qr_scan"}}, {"name": "3b1bf085b175b65b1608248ba22649ed", "type": "electric_scooter", "lat": 38.92716, "is_reserved": 0, "lon": -77.02085183333334, "fusion_lon": 0.0, "is_disabled": 0, "fusion_lat": 0.0, "bike_id": "3b1bf085b175b65b1608248ba22649ed", "rental_uris": {"ios": "https://dc.lft.to/lastmile_qr_scan", "android": "https://dc.lft.to/lastmile_qr_scan"}}, {"name": "052c5f1a9c4289a7d94335622c052bda", "type": "electric_scooter", "lat": 38.942755, "is_reserved": 0, "lon": -77.02497916666667, "fusion_lon": 0.0, "is_disabled": 0, "fusion_lat": 0.0, "bike_id": "052c5f1a9c4289a7d94335622c052bda", "rental_uris": {"ios": "https://dc.lft.to/lastmile_qr_scan", "android": "https://dc.lft.to/lastmile_qr_scan"}}, {"name": "85df918045447a5bc594abb888c6c1df", "type": "electric_scooter", "lat": 38.866586166666664, "is_reserved": 0, "lon": -76.98883966666666, "fusion_lon": 0.0, "is_disabled": 0, "fusion_lat": 0.0, "bike_id": "85df918045447a5bc594abb888c6c1df", "rental_uris": {"ios": "https://dc.lft.to/lastmile_qr_scan", "android": "https://dc.lft.to/lastmile_qr_scan"}}, {"name": "a2f5f8f45e3789519cb1bb00acd22b73", "type": "electric_scooter", "lat": 38.89644966666667, "is_reserved": 0, "lon": -77.03231083333333, "fusion_lon": 0.0, "is_disabled": 0, "fusion_lat": 0.0, "bike_id": "a2f5f8f45e3789519cb1bb00acd22b73", "rental_uris": {"ios": "https://dc.lft.to/lastmile_qr_scan", "android": "https://dc.lft.to/lastmile_qr_scan"}}, {"name": "d5b4802454ff4ce814cdaacce25bb6f7", "type": "electric_scooter", "lat": 38.916254333333335, "is_reserved": 0, "lon": -77.03630466666667, "fusion_lon": 0.0, "is_disabled": 0, "fusion_lat": 0.0, "bike_id": "d5b4802454ff4ce814cdaacce25bb6f7", "rental_uris": {"ios": "https://dc.lft.to/lastmile_qr_scan", "android": "https://dc.lft.to/lastmile_qr_scan"}}, {"name": "8b83f511b666514f2433df6293819066", "type": "electric_scooter", "lat": 38.902439666666666, "is_reserved": 0, "lon": -77.0020105, "fusion_lon": 0.0, "is_disabled": 0, "fusion_lat": 0.0, "bike_id": "8b83f511b666514f2433df6293819066", "rental_uris": {"ios": "https://dc.lft.to/lastmile_qr_scan", "android": "https://dc.lft.to/lastmile_qr_scan"}}, {"name": "e99a05ae6ba066d8cc39155c6dbeae03", "type": "electric_scooter", "lat": 38.91631566666667, "is_reserved": 0, "lon": -77.01084433333334, "fusion_lon": 0.0, "is_disabled": 0, "fusion_lat": 0.0, "bike_id": "e99a05ae6ba066d8cc39155c6dbeae03", "rental_uris": {"ios": "https://dc.lft.to/lastmile_qr_scan", "android": "https://dc.lft.to/lastmile_qr_scan"}}, {"name": "73d9e3661e63e2ec062f1fa323d8b6f9", "type": "electric_scooter", "lat": 38.89850283333333, "is_reserved": 0, "lon": -76.99033516666667, "fusion_lon": 0.0, "is_disabled": 0, "fusion_lat": 0.0, "bike_id": "73d9e3661e63e2ec062f1fa323d8b6f9", "rental_uris": {"ios": "https://dc.lft.to/lastmile_qr_scan", "android": "https://dc.lft.to/lastmile_qr_scan"}}, {"name": "6b98ca34ee0bbc4040a0e3b8c5757270", "type": "electric_scooter", "lat": 38.906636, "is_reserved": 0, "lon": -77.0269045, "fusion_lon": 0.0, "is_disabled": 0, "fusion_lat": 0.0, "bike_id": "6b98ca34ee0bbc4040a0e3b8c5757270", "rental_uris": {"ios": "https://dc.lft.to/lastmile_qr_scan", "android": "https://dc.lft.to/lastmile_qr_scan"}}, {"name": "fd2ffdbb0dc5efd271e7f6bb45ee11f0", "type": "electric_scooter", "lat": 38.923661, "is_reserved": 0, "lon": -77.050294, "fusion_lon": 0.0, "is_disabled": 0, "fusion_lat": 0.0, "bike_id": "fd2ffdbb0dc5efd271e7f6bb45ee11f0", "rental_uris": {"ios": "https://dc.lft.to/lastmile_qr_scan", "android": "https://dc.lft.to/lastmile_qr_scan"}}, {"name": "56eb3e90ba7c338c624ec4b964a43cd2", "type": "electric_scooter", "lat": 38.925650166666664, "is_reserved": 0, "lon": -77.02281466666666, "fusion_lon": 0.0, "is_disabled": 0, "fusion_lat": 0.0, "bike_id": "56eb3e90ba7c338c624ec4b964a43cd2", "rental_uris": {"ios": "https://dc.lft.to/lastmile_qr_scan", "android": "https://dc.lft.to/lastmile_qr_scan"}}, {"name": "5d9fbfd9a3e8cda8257ea54a87dcbf87", "type": "electric_bike", "lat": 38.9650355, "is_reserved": 0, "lon": -77.10335366666666, "fusion_lon": 0.0, "is_disabled": 0, "fusion_lat": 0.0, "bike_id": "5d9fbfd9a3e8cda8257ea54a87dcbf87", "rental_uris": {"ios": "https://dc.lft.to/lastmile_qr_scan", "android": "https://dc.lft.to/lastmile_qr_scan"}}, {"name": "3e2ab3849518ebdb7207e794180c8679", "type": "electric_scooter", "lat": 38.901468333333334, "is_reserved": 0, "lon": -77.03312466666667, "fusion_lon": 0.0, "is_disabled": 0, "fusion_lat": 0.0, "bike_id": "3e2ab3849518ebdb7207e794180c8679", "rental_uris": {"ios": "https://dc.lft.to/lastmile_qr_scan", "android": "https://dc.lft.to/lastmile_qr_scan"}}, {"name": "9ed307924bfc299ed335ac6de8a81e03", "type": "electric_scooter", "lat": 38.904653833333334, "is_reserved": 0, "lon": -77.04653733333333, "fusion_lon": 0.0, "is_disabled": 0, "fusion_lat": 0.0, "bike_id": "9ed307924bfc299ed335ac6de8a81e03", "rental_uris": {"ios": "https://dc.lft.to/lastmile_qr_scan", "android": "https://dc.lft.to/lastmile_qr_scan"}}, {"name": "4d7ca03e53eae2a2ff6fabfad5aa9c8e", "type": "electric_scooter", "lat": 38.9096, "is_reserved": 0, "lon": -77.007626, "fusion_lon": 0.0, "is_disabled": 0, "fusion_lat": 0.0, "bike_id": "4d7ca03e53eae2a2ff6fabfad5aa9c8e", "rental_uris": {"ios": "https://dc.lft.to/lastmile_qr_scan", "android": "https://dc.lft.to/lastmile_qr_scan"}}, {"name": "72546015f2f207330ccd01af44f029ad", "type": "electric_scooter", "lat": 38.93201583333333, "is_reserved": 0, "lon": -77.03876983333333, "fusion_lon": 0.0, "is_disabled": 0, "fusion_lat": 0.0, "bike_id": "72546015f2f207330ccd01af44f029ad", "rental_uris": {"ios": "https://dc.lft.to/lastmile_qr_scan", "android": "https://dc.lft.to/lastmile_qr_scan"}}, {"name": "fc8525860ed1c84f416c66ac029b5681", "type": "electric_scooter", "lat": 38.8919275, "is_reserved": 0, "lon": -77.0458725, "fusion_lon": 0.0, "is_disabled": 0, "fusion_lat": 0.0, "bike_id": "fc8525860ed1c84f416c66ac029b5681", "rental_uris": {"ios": "https://dc.lft.to/lastmile_qr_scan", "android": "https://dc.lft.to/lastmile_qr_scan"}}, {"name": "3a685fec02f6ec6bb720d3f4937a07ed", "type": "electric_scooter", "lat": 38.936799, "is_reserved": 0, "lon": -77.03633033333334, "fusion_lon": 0.0, "is_disabled": 0, "fusion_lat": 0.0, "bike_id": "3a685fec02f6ec6bb720d3f4937a07ed", "rental_uris": {"ios": "https://dc.lft.to/lastmile_qr_scan", "android": "https://dc.lft.to/lastmile_qr_scan"}}, {"name": "1d54bb83dfe2792013b4febe2c35deb7", "type": "electric_scooter", "lat": 38.913196666666664, "is_reserved": 0, "lon": -77.03854116666666, "fusion_lon": 0.0, "is_disabled": 0, "fusion_lat": 0.0, "bike_id": "1d54bb83dfe2792013b4febe2c35deb7", "rental_uris": {"ios": "https://dc.lft.to/lastmile_qr_scan", "android": "https://dc.lft.to/lastmile_qr_scan"}}, {"name": "92eeea1b0caa370e45befa130d9a1f9c", "type": "electric_bike", "lat": 38.80226733333333, "is_reserved": 0, "lon": -77.07915083333333, "fusion_lon": 0.0, "is_disabled": 0, "fusion_lat": 0.0, "bike_id": "92eeea1b0caa370e45befa130d9a1f9c", "rental_uris": {"ios": "https://dc.lft.to/lastmile_qr_scan", "android": "https://dc.lft.to/lastmile_qr_scan"}}, {"name": "d5f6816bed42876c3f9aa83810ad1372", "type": "electric_bike", "lat": 38.8971915, "is_reserved": 0, "lon": -77.00709833333333, "fusion_lon": 0.0, "is_disabled": 0, "fusion_lat": 0.0, "bike_id": "d5f6816bed42876c3f9aa83810ad1372", "rental_uris": {"ios": "https://dc.lft.to/lastmile_qr_scan", "android": "https://dc.lft.to/lastmile_qr_scan"}}, {"name": "b40b09f180a642e3c26e597cbb2120e2", "type": "electric_bike", "lat": 38.906885333333335, "is_reserved": 0, "lon": -76.95185183333334, "fusion_lon": 0.0, "is_disabled": 0, "fusion_lat": 0.0, "bike_id": "b40b09f180a642e3c26e597cbb2120e2", "rental_uris": {"ios": "https://dc.lft.to/lastmile_qr_scan", "android": "https://dc.lft.to/lastmile_qr_scan"}}, {"name": "999dba28dc2c288243baf1289228fae9", "type": "electric_scooter", "lat": 38.903761, "is_reserved": 0, "lon": -77.01095183333334, "fusion_lon": 0.0, "is_disabled": 0, "fusion_lat": 0.0, "bike_id": "999dba28dc2c288243baf1289228fae9", "rental_uris": {"ios": "https://dc.lft.to/lastmile_qr_scan", "android": "https://dc.lft.to/lastmile_qr_scan"}}, {"name": "7b5a736b935fda80adf13a571ce0036e", "type": "electric_scooter", "lat": 38.94448, "is_reserved": 0, "lon": -77.06355716666667, "fusion_lon": 0.0, "is_disabled": 0, "fusion_lat": 0.0, "bike_id": "7b5a736b935fda80adf13a571ce0036e", "rental_uris": {"ios": "https://dc.lft.to/lastmile_qr_scan", "android": "https://dc.lft.to/lastmile_qr_scan"}}, {"name": "a9294a9fb8cbc8b3954ea991bd7960c0", "type": "electric_scooter", "lat": 38.907258666666664, "is_reserved": 0, "lon": -77.03447266666667, "fusion_lon": 0.0, "is_disabled": 0, "fusion_lat": 0.0, "bike_id": "a9294a9fb8cbc8b3954ea991bd7960c0", "rental_uris": {"ios": "https://dc.lft.to/lastmile_qr_scan", "android": "https://dc.lft.to/lastmile_qr_scan"}}, {"name": "45dbea5c20273541bb22fb67436150bd", "type": "electric_scooter", "lat": 38.905484666666666, "is_reserved": 0, "lon": -77.02195266666666, "fusion_lon": 0.0, "is_disabled": 0, "fusion_lat": 0.0, "bike_id": "45dbea5c20273541bb22fb67436150bd", "rental_uris": {"ios": "https://dc.lft.to/lastmile_qr_scan", "android": "https://dc.lft.to/lastmile_qr_scan"}}, {"name": "44ec09f963f54086241dcb9f9830b9de", "type": "electric_scooter", "lat": 38.91817566666667, "is_reserved": 0, "lon": -77.02531266666666, "fusion_lon": 0.0, "is_disabled": 0, "fusion_lat": 0.0, "bike_id": "44ec09f963f54086241dcb9f9830b9de", "rental_uris": {"ios": "https://dc.lft.to/lastmile_qr_scan", "android": "https://dc.lft.to/lastmile_qr_scan"}}, {"name": "db50809ddeb80696759eaad4e59c3285", "type": "electric_scooter", "lat": 38.90869216666667, "is_reserved": 0, "lon": -77.085948, "fusion_lon": 0.0, "is_disabled": 0, "fusion_lat": 0.0, "bike_id": "db50809ddeb80696759eaad4e59c3285", "rental_uris": {"ios": "https://dc.lft.to/lastmile_qr_scan", "android": "https://dc.lft.to/lastmile_qr_scan"}}, {"name": "1905be9d61c12d11efc199f312ff63ec", "type": "electric_scooter", "lat": 38.902006666666665, "is_reserved": 0, "lon": -76.98220533333334, "fusion_lon": 0.0, "is_disabled": 0, "fusion_lat": 0.0, "bike_id": "1905be9d61c12d11efc199f312ff63ec", "rental_uris": {"ios": "https://dc.lft.to/lastmile_qr_scan", "android": "https://dc.lft.to/lastmile_qr_scan"}}, {"name": "ce8f29339ab380e57c1bab173eb77a72", "type": "electric_scooter", "lat": 38.90173333333333, "is_reserved": 0, "lon": -77.02187416666666, "fusion_lon": 0.0, "is_disabled": 0, "fusion_lat": 0.0, "bike_id": "ce8f29339ab380e57c1bab173eb77a72", "rental_uris": {"ios": "https://dc.lft.to/lastmile_qr_scan", "android": "https://dc.lft.to/lastmile_qr_scan"}}, {"name": "2508a7b90133b5882953f961275fd931", "type": "electric_scooter", "lat": 38.9284925, "is_reserved": 0, "lon": -77.014144, "fusion_lon": 0.0, "is_disabled": 0, "fusion_lat": 0.0, "bike_id": "2508a7b90133b5882953f961275fd931", "rental_uris": {"ios": "https://dc.lft.to/lastmile_qr_scan", "android": "https://dc.lft.to/lastmile_qr_scan"}}, {"name": "70dcbaa1cad297a4fdc2e4bc6a869983", "type": "electric_scooter", "lat": 38.927190833333334, "is_reserved": 0, "lon": -77.020981, "fusion_lon": 0.0, "is_disabled": 0, "fusion_lat": 0.0, "bike_id": "70dcbaa1cad297a4fdc2e4bc6a869983", "rental_uris": {"ios": "https://dc.lft.to/lastmile_qr_scan", "android": "https://dc.lft.to/lastmile_qr_scan"}}, {"name": "fe6275774b94099583efd84fc7f08a5c", "type": "electric_scooter", "lat": 38.90565566666667, "is_reserved": 0, "lon": -77.04867266666666, "fusion_lon": 0.0, "is_disabled": 0, "fusion_lat": 0.0, "bike_id": "fe6275774b94099583efd84fc7f08a5c", "rental_uris": {"ios": "https://dc.lft.to/lastmile_qr_scan", "android": "https://dc.lft.to/lastmile_qr_scan"}}, {"name": "0bddd182382c20abcefdaab75d11e6ce", "type": "electric_scooter", "lat": 38.920881666666666, "is_reserved": 0, "lon": -77.01373633333333, "fusion_lon": 0.0, "is_disabled": 0, "fusion_lat": 0.0, "bike_id": "0bddd182382c20abcefdaab75d11e6ce", "rental_uris": {"ios": "https://dc.lft.to/lastmile_qr_scan", "android": "https://dc.lft.to/lastmile_qr_scan"}}, {"name": "b1037dc0721f757171a96fa62dc9f49f", "type": "electric_scooter", "lat": 38.88295933333333, "is_reserved": 0, "lon": -76.986144, "fusion_lon": 0.0, "is_disabled": 0, "fusion_lat": 0.0, "bike_id": "b1037dc0721f757171a96fa62dc9f49f", "rental_uris": {"ios": "https://dc.lft.to/lastmile_qr_scan", "android": "https://dc.lft.to/lastmile_qr_scan"}}, {"name": "1902b74ba8ef5d1cdad5f76024069381", "type": "electric_scooter", "lat": 38.93280633333333, "is_reserved": 0, "lon": -77.02976283333334, "fusion_lon": 0.0, "is_disabled": 0, "fusion_lat": 0.0, "bike_id": "1902b74ba8ef5d1cdad5f76024069381", "rental_uris": {"ios": "https://dc.lft.to/lastmile_qr_scan", "android": "https://dc.lft.to/lastmile_qr_scan"}}, {"name": "9b78c698f285b5e9094d3040666104ef", "type": "electric_scooter", "lat": 38.86828633333333, "is_reserved": 0, "lon": -76.98612166666666, "fusion_lon": 0.0, "is_disabled": 0, "fusion_lat": 0.0, "bike_id": "9b78c698f285b5e9094d3040666104ef", "rental_uris": {"ios": "https://dc.lft.to/lastmile_qr_scan", "android": "https://dc.lft.to/lastmile_qr_scan"}}, {"name": "afc25e633f4af6a2e5b7508aaa49506b", "type": "electric_scooter", "lat": 38.943062833333336, "is_reserved": 0, "lon": -77.05931683333333, "fusion_lon": 0.0, "is_disabled": 0, "fusion_lat": 0.0, "bike_id": "afc25e633f4af6a2e5b7508aaa49506b", "rental_uris": {"ios": "https://dc.lft.to/lastmile_qr_scan", "android": "https://dc.lft.to/lastmile_qr_scan"}}, {"name": "0626327c456d141771f2967f37752d0c", "type": "electric_scooter", "lat": 38.91823433333333, "is_reserved": 0, "lon": -77.03441766666667, "fusion_lon": 0.0, "is_disabled": 0, "fusion_lat": 0.0, "bike_id": "0626327c456d141771f2967f37752d0c", "rental_uris": {"ios": "https://dc.lft.to/lastmile_qr_scan", "android": "https://dc.lft.to/lastmile_qr_scan"}}, {"name": "803ccf716e0d9383359a50cf4460eb2c", "type": "electric_scooter", "lat": 38.901188, "is_reserved": 0, "lon": -77.041602, "fusion_lon": 0.0, "is_disabled": 0, "fusion_lat": 0.0, "bike_id": "803ccf716e0d9383359a50cf4460eb2c", "rental_uris": {"ios": "https://dc.lft.to/lastmile_qr_scan", "android": "https://dc.lft.to/lastmile_qr_scan"}}, {"name": "92a05197c127e0ff72675e196d714db2", "type": "electric_scooter", "lat": 38.91628883333333, "is_reserved": 0, "lon": -77.0133295, "fusion_lon": 0.0, "is_disabled": 0, "fusion_lat": 0.0, "bike_id": "92a05197c127e0ff72675e196d714db2", "rental_uris": {"ios": "https://dc.lft.to/lastmile_qr_scan", "android": "https://dc.lft.to/lastmile_qr_scan"}}, {"name": "1039f03ea0efe6d94d9eac3d2e77e583", "type": "electric_scooter", "lat": 38.91592633333333, "is_reserved": 0, "lon": -77.04479233333333, "fusion_lon": 0.0, "is_disabled": 0, "fusion_lat": 0.0, "bike_id": "1039f03ea0efe6d94d9eac3d2e77e583", "rental_uris": {"ios": "https://dc.lft.to/lastmile_qr_scan", "android": "https://dc.lft.to/lastmile_qr_scan"}}, {"name": "c32798e1a518834e8a1a10499995de48", "type": "electric_scooter", "lat": 38.906099833333336, "is_reserved": 0, "lon": -77.07487916666666, "fusion_lon": 0.0, "is_disabled": 0, "fusion_lat": 0.0, "bike_id": "c32798e1a518834e8a1a10499995de48", "rental_uris": {"ios": "https://dc.lft.to/lastmile_qr_scan", "android": "https://dc.lft.to/lastmile_qr_scan"}}, {"name": "e02ad943cc93eb438fba203dea41ae55", "type": "electric_bike", "lat": 39.038799, "is_reserved": 0, "lon": -76.99042433333334, "fusion_lon": 0.0, "is_disabled": 0, "fusion_lat": 0.0, "bike_id": "e02ad943cc93eb438fba203dea41ae55", "rental_uris": {"ios": "https://dc.lft.to/lastmile_qr_scan", "android": "https://dc.lft.to/lastmile_qr_scan"}}, {"name": "658c077666b1fde493187e4f1d70d569", "type": "electric_scooter", "lat": 38.90011066666667, "is_reserved": 0, "lon": -76.99121033333333, "fusion_lon": 0.0, "is_disabled": 0, "fusion_lat": 0.0, "bike_id": "658c077666b1fde493187e4f1d70d569", "rental_uris": {"ios": "https://dc.lft.to/lastmile_qr_scan", "android": "https://dc.lft.to/lastmile_qr_scan"}}, {"name": "d67a4833619a40e5c7ddc373f4b255b5", "type": "electric_scooter", "lat": 38.90531766666667, "is_reserved": 0, "lon": -77.043484, "fusion_lon": 0.0, "is_disabled": 0, "fusion_lat": 0.0, "bike_id": "d67a4833619a40e5c7ddc373f4b255b5", "rental_uris": {"ios": "https://dc.lft.to/lastmile_qr_scan", "android": "https://dc.lft.to/lastmile_qr_scan"}}, {"name": "bfb091da71169fb58ebc18e6162e76f5", "type": "electric_scooter", "lat": 38.900747833333334, "is_reserved": 0, "lon": -77.05021233333333, "fusion_lon": 0.0, "is_disabled": 0, "fusion_lat": 0.0, "bike_id": "bfb091da71169fb58ebc18e6162e76f5", "rental_uris": {"ios": "https://dc.lft.to/lastmile_qr_scan", "android": "https://dc.lft.to/lastmile_qr_scan"}}, {"name": "03f1adac13bc3c143378ed896373fd11", "type": "electric_scooter", "lat": 38.92167083333333, "is_reserved": 0, "lon": -77.03263066666666, "fusion_lon": 0.0, "is_disabled": 0, "fusion_lat": 0.0, "bike_id": "03f1adac13bc3c143378ed896373fd11", "rental_uris": {"ios": "https://dc.lft.to/lastmile_qr_scan", "android": "https://dc.lft.to/lastmile_qr_scan"}}, {"name": "d443ef205803ae7587b6c26915d815aa", "type": "electric_scooter", "lat": 38.883104833333334, "is_reserved": 0, "lon": -77.01747033333334, "fusion_lon": 0.0, "is_disabled": 0, "fusion_lat": 0.0, "bike_id": "d443ef205803ae7587b6c26915d815aa", "rental_uris": {"ios": "https://dc.lft.to/lastmile_qr_scan", "android": "https://dc.lft.to/lastmile_qr_scan"}}, {"name": "4aa31fe3532abf5c11830b505a290edb", "type": "electric_scooter", "lat": 38.90262933333333, "is_reserved": 0, "lon": -77.03828116666666, "fusion_lon": 0.0, "is_disabled": 0, "fusion_lat": 0.0, "bike_id": "4aa31fe3532abf5c11830b505a290edb", "rental_uris": {"ios": "https://dc.lft.to/lastmile_qr_scan", "android": "https://dc.lft.to/lastmile_qr_scan"}}, {"name": "fac6c898390d2d336c849b506662ffc9", "type": "electric_scooter", "lat": 38.899721, "is_reserved": 0, "lon": -76.92634783333334, "fusion_lon": 0.0, "is_disabled": 0, "fusion_lat": 0.0, "bike_id": "fac6c898390d2d336c849b506662ffc9", "rental_uris": {"ios": "https://dc.lft.to/lastmile_qr_scan", "android": "https://dc.lft.to/lastmile_qr_scan"}}, {"name": "a31f8d6f2119e22ace33a30a103bbaea", "type": "electric_scooter", "lat": 38.91992583333333, "is_reserved": 0, "lon": -77.034673, "fusion_lon": 0.0, "is_disabled": 0, "fusion_lat": 0.0, "bike_id": "a31f8d6f2119e22ace33a30a103bbaea", "rental_uris": {"ios": "https://dc.lft.to/lastmile_qr_scan", "android": "https://dc.lft.to/lastmile_qr_scan"}}, {"name": "6b685e5f2d2647324dcdf7fcf65990f0", "type": "electric_scooter", "lat": 38.911894833333335, "is_reserved": 0, "lon": -77.045399, "fusion_lon": 0.0, "is_disabled": 0, "fusion_lat": 0.0, "bike_id": "6b685e5f2d2647324dcdf7fcf65990f0", "rental_uris": {"ios": "https://dc.lft.to/lastmile_qr_scan", "android": "https://dc.lft.to/lastmile_qr_scan"}}, {"name": "083eca422ab75f45e4d423fc28606e7b", "type": "electric_scooter", "lat": 38.899067333333335, "is_reserved": 0, "lon": -77.03923433333334, "fusion_lon": 0.0, "is_disabled": 0, "fusion_lat": 0.0, "bike_id": "083eca422ab75f45e4d423fc28606e7b", "rental_uris": {"ios": "https://dc.lft.to/lastmile_qr_scan", "android": "https://dc.lft.to/lastmile_qr_scan"}}, {"name": "3f539d7d2641210b2477f6acc57c88a9", "type": "electric_scooter", "lat": 38.892081833333336, "is_reserved": 0, "lon": -77.00245283333334, "fusion_lon": 0.0, "is_disabled": 0, "fusion_lat": 0.0, "bike_id": "3f539d7d2641210b2477f6acc57c88a9", "rental_uris": {"ios": "https://dc.lft.to/lastmile_qr_scan", "android": "https://dc.lft.to/lastmile_qr_scan"}}, {"name": "675d023d1232b073da7634c021b29660", "type": "electric_scooter", "lat": 38.90956966666667, "is_reserved": 0, "lon": -77.04863, "fusion_lon": 0.0, "is_disabled": 0, "fusion_lat": 0.0, "bike_id": "675d023d1232b073da7634c021b29660", "rental_uris": {"ios": "https://dc.lft.to/lastmile_qr_scan", "android": "https://dc.lft.to/lastmile_qr_scan"}}, {"name": "1cd039b3ec303d2cd44fdd313812720c", "type": "electric_scooter", "lat": 38.933586, "is_reserved": 0, "lon": -77.069356, "fusion_lon": 0.0, "is_disabled": 0, "fusion_lat": 0.0, "bike_id": "1cd039b3ec303d2cd44fdd313812720c", "rental_uris": {"ios": "https://dc.lft.to/lastmile_qr_scan", "android": "https://dc.lft.to/lastmile_qr_scan"}}, {"name": "f59d46f21804be6e70fe8d73ed4a2af5", "type": "electric_scooter", "lat": 38.9206605, "is_reserved": 0, "lon": -77.02915316666666, "fusion_lon": 0.0, "is_disabled": 0, "fusion_lat": 0.0, "bike_id": "f59d46f21804be6e70fe8d73ed4a2af5", "rental_uris": {"ios": "https://dc.lft.to/lastmile_qr_scan", "android": "https://dc.lft.to/lastmile_qr_scan"}}, {"name": "104b581ba1aa19e6bf857a35aa2b4a43", "type": "electric_scooter", "lat": 38.883388833333335, "is_reserved": 0, "lon": -77.0174855, "fusion_lon": 0.0, "is_disabled": 0, "fusion_lat": 0.0, "bike_id": "104b581ba1aa19e6bf857a35aa2b4a43", "rental_uris": {"ios": "https://dc.lft.to/lastmile_qr_scan", "android": "https://dc.lft.to/lastmile_qr_scan"}}, {"name": "2d52b8ba0737091a8c27aed29cb5ab60", "type": "electric_scooter", "lat": 38.96115616666667, "is_reserved": 0, "lon": -77.02810833333334, "fusion_lon": 0.0, "is_disabled": 0, "fusion_lat": 0.0, "bike_id": "2d52b8ba0737091a8c27aed29cb5ab60", "rental_uris": {"ios": "https://dc.lft.to/lastmile_qr_scan", "android": "https://dc.lft.to/lastmile_qr_scan"}}, {"name": "185607b93890e8d87fe0eac1a536eeaf", "type": "electric_bike", "lat": 38.85495266666667, "is_reserved": 0, "lon": -77.115233, "fusion_lon": 0.0, "is_disabled": 0, "fusion_lat": 0.0, "bike_id": "185607b93890e8d87fe0eac1a536eeaf", "rental_uris": {"ios": "https://dc.lft.to/lastmile_qr_scan", "android": "https://dc.lft.to/lastmile_qr_scan"}}, {"name": "ef9b067eacd74389a97ddb3b50b2a384", "type": "electric_scooter", "lat": 38.917103, "is_reserved": 0, "lon": -77.03102833333334, "fusion_lon": 0.0, "is_disabled": 0, "fusion_lat": 0.0, "bike_id": "ef9b067eacd74389a97ddb3b50b2a384", "rental_uris": {"ios": "https://dc.lft.to/lastmile_qr_scan", "android": "https://dc.lft.to/lastmile_qr_scan"}}, {"name": "c6cd194b9d233a47960b2d50a9dc9cfa", "type": "electric_scooter", "lat": 38.91946733333333, "is_reserved": 0, "lon": -77.01349283333333, "fusion_lon": 0.0, "is_disabled": 0, "fusion_lat": 0.0, "bike_id": "c6cd194b9d233a47960b2d50a9dc9cfa", "rental_uris": {"ios": "https://dc.lft.to/lastmile_qr_scan", "android": "https://dc.lft.to/lastmile_qr_scan"}}, {"name": "0a0c65d872840bd4389fbf19fd691c93", "type": "electric_scooter", "lat": 38.925686, "is_reserved": 0, "lon": -77.03914016666667, "fusion_lon": 0.0, "is_disabled": 0, "fusion_lat": 0.0, "bike_id": "0a0c65d872840bd4389fbf19fd691c93", "rental_uris": {"ios": "https://dc.lft.to/lastmile_qr_scan", "android": "https://dc.lft.to/lastmile_qr_scan"}}, {"name": "9bf2fe8dcb7c7cd4a4e10a91de2ca3b7", "type": "electric_scooter", "lat": 38.9205475, "is_reserved": 0, "lon": -76.9987325, "fusion_lon": 0.0, "is_disabled": 0, "fusion_lat": 0.0, "bike_id": "9bf2fe8dcb7c7cd4a4e10a91de2ca3b7", "rental_uris": {"ios": "https://dc.lft.to/lastmile_qr_scan", "android": "https://dc.lft.to/lastmile_qr_scan"}}, {"name": "cafd4c1c0eaf2fab95490df515a1e827", "type": "electric_scooter", "lat": 38.913536666666666, "is_reserved": 0, "lon": -77.01558733333333, "fusion_lon": 0.0, "is_disabled": 0, "fusion_lat": 0.0, "bike_id": "cafd4c1c0eaf2fab95490df515a1e827", "rental_uris": {"ios": "https://dc.lft.to/lastmile_qr_scan", "android": "https://dc.lft.to/lastmile_qr_scan"}}, {"name": "f72aa731bfb1fa6878357700516581f9", "type": "electric_scooter", "lat": 38.924559, "is_reserved": 0, "lon": -77.00213966666666, "fusion_lon": 0.0, "is_disabled": 0, "fusion_lat": 0.0, "bike_id": "f72aa731bfb1fa6878357700516581f9", "rental_uris": {"ios": "https://dc.lft.to/lastmile_qr_scan", "android": "https://dc.lft.to/lastmile_qr_scan"}}, {"name": "b3fc829384e3faecd244acc7b62593f7", "type": "electric_scooter", "lat": 38.900229833333334, "is_reserved": 0, "lon": -77.01190216666667, "fusion_lon": 0.0, "is_disabled": 0, "fusion_lat": 0.0, "bike_id": "b3fc829384e3faecd244acc7b62593f7", "rental_uris": {"ios": "https://dc.lft.to/lastmile_qr_scan", "android": "https://dc.lft.to/lastmile_qr_scan"}}, {"name": "a1536dada5b3be849369ad64b0684603", "type": "electric_scooter", "lat": 38.9119275, "is_reserved": 0, "lon": -76.99619716666666, "fusion_lon": 0.0, "is_disabled": 0, "fusion_lat": 0.0, "bike_id": "a1536dada5b3be849369ad64b0684603", "rental_uris": {"ios": "https://dc.lft.to/lastmile_qr_scan", "android": "https://dc.lft.to/lastmile_qr_scan"}}, {"name": "1598eab79cc79224874d23f2be8298e5", "type": "electric_scooter", "lat": 38.944388000000004, "is_reserved": 0, "lon": -77.06352783333334, "fusion_lon": 0.0, "is_disabled": 0, "fusion_lat": 0.0, "bike_id": "1598eab79cc79224874d23f2be8298e5", "rental_uris": {"ios": "https://dc.lft.to/lastmile_qr_scan", "android": "https://dc.lft.to/lastmile_qr_scan"}}, {"name": "7a45a77fb9535c5a5124f726d5b77c18", "type": "electric_scooter", "lat": 38.89800733333333, "is_reserved": 0, "lon": -77.02976133333334, "fusion_lon": 0.0, "is_disabled": 0, "fusion_lat": 0.0, "bike_id": "7a45a77fb9535c5a5124f726d5b77c18", "rental_uris": {"ios": "https://dc.lft.to/lastmile_qr_scan", "android": "https://dc.lft.to/lastmile_qr_scan"}}, {"name": "2b675ed685ba6567dd9bfa7578984b8b", "type": "electric_scooter", "lat": 38.892245333333335, "is_reserved": 0, "lon": -77.04264266666667, "fusion_lon": 0.0, "is_disabled": 0, "fusion_lat": 0.0, "bike_id": "2b675ed685ba6567dd9bfa7578984b8b", "rental_uris": {"ios": "https://dc.lft.to/lastmile_qr_scan", "android": "https://dc.lft.to/lastmile_qr_scan"}}, {"name": "8af69fc55f9ef5a2e2db7d0a01cd34ba", "type": "electric_scooter", "lat": 38.905803666666664, "is_reserved": 0, "lon": -77.039758, "fusion_lon": 0.0, "is_disabled": 0, "fusion_lat": 0.0, "bike_id": "8af69fc55f9ef5a2e2db7d0a01cd34ba", "rental_uris": {"ios": "https://dc.lft.to/lastmile_qr_scan", "android": "https://dc.lft.to/lastmile_qr_scan"}}, {"name": "eb7953abb6751215af68c8377e0cf672", "type": "electric_scooter", "lat": 38.903369833333336, "is_reserved": 0, "lon": -77.03815416666667, "fusion_lon": 0.0, "is_disabled": 0, "fusion_lat": 0.0, "bike_id": "eb7953abb6751215af68c8377e0cf672", "rental_uris": {"ios": "https://dc.lft.to/lastmile_qr_scan", "android": "https://dc.lft.to/lastmile_qr_scan"}}, {"name": "9bf4b28206f31c7632b0006350587f48", "type": "electric_scooter", "lat": 38.862036, "is_reserved": 0, "lon": -76.99475166666667, "fusion_lon": 0.0, "is_disabled": 0, "fusion_lat": 0.0, "bike_id": "9bf4b28206f31c7632b0006350587f48", "rental_uris": {"ios": "https://dc.lft.to/lastmile_qr_scan", "android": "https://dc.lft.to/lastmile_qr_scan"}}, {"name": "390f2b9d82df536fe40bcb60be1100d1", "type": "electric_bike", "lat": 38.9290715, "is_reserved": 0, "lon": -77.02381566666666, "fusion_lon": 0.0, "is_disabled": 0, "fusion_lat": 0.0, "bike_id": "390f2b9d82df536fe40bcb60be1100d1", "rental_uris": {"ios": "https://dc.lft.to/lastmile_qr_scan", "android": "https://dc.lft.to/lastmile_qr_scan"}}, {"name": "afc9a570b9547d5d11027895c60e6862", "type": "electric_scooter", "lat": 38.95927316666667, "is_reserved": 0, "lon": -77.03327133333333, "fusion_lon": 0.0, "is_disabled": 0, "fusion_lat": 0.0, "bike_id": "afc9a570b9547d5d11027895c60e6862", "rental_uris": {"ios": "https://dc.lft.to/lastmile_qr_scan", "android": "https://dc.lft.to/lastmile_qr_scan"}}, {"name": "37a153767216a551438ded45154a50e2", "type": "electric_scooter", "lat": 38.901083666666665, "is_reserved": 0, "lon": -77.0515945, "fusion_lon": 0.0, "is_disabled": 0, "fusion_lat": 0.0, "bike_id": "37a153767216a551438ded45154a50e2", "rental_uris": {"ios": "https://dc.lft.to/lastmile_qr_scan", "android": "https://dc.lft.to/lastmile_qr_scan"}}, {"name": "e853312d10406fb35f1a97a227d1d619", "type": "electric_scooter", "lat": 38.923405833333334, "is_reserved": 0, "lon": -77.05042733333333, "fusion_lon": 0.0, "is_disabled": 0, "fusion_lat": 0.0, "bike_id": "e853312d10406fb35f1a97a227d1d619", "rental_uris": {"ios": "https://dc.lft.to/lastmile_qr_scan", "android": "https://dc.lft.to/lastmile_qr_scan"}}, {"name": "fad5c979f701180f32cc5b70a651ce64", "type": "electric_scooter", "lat": 38.89804183333333, "is_reserved": 0, "lon": -76.9950345, "fusion_lon": 0.0, "is_disabled": 0, "fusion_lat": 0.0, "bike_id": "fad5c979f701180f32cc5b70a651ce64", "rental_uris": {"ios": "https://dc.lft.to/lastmile_qr_scan", "android": "https://dc.lft.to/lastmile_qr_scan"}}, {"name": "511536ca5078168fb8154b09ae44e7a1", "type": "electric_scooter", "lat": 38.92167383333334, "is_reserved": 0, "lon": -77.026843, "fusion_lon": 0.0, "is_disabled": 0, "fusion_lat": 0.0, "bike_id": "511536ca5078168fb8154b09ae44e7a1", "rental_uris": {"ios": "https://dc.lft.to/lastmile_qr_scan", "android": "https://dc.lft.to/lastmile_qr_scan"}}, {"name": "de51e58142f17b0121be3ceffc4f35ec", "type": "electric_scooter", "lat": 38.91203383333333, "is_reserved": 0, "lon": -77.00655016666667, "fusion_lon": 0.0, "is_disabled": 0, "fusion_lat": 0.0, "bike_id": "de51e58142f17b0121be3ceffc4f35ec", "rental_uris": {"ios": "https://dc.lft.to/lastmile_qr_scan", "android": "https://dc.lft.to/lastmile_qr_scan"}}, {"name": "7fbee4f6473a4b9b7d0b85ebcaedb921", "type": "electric_scooter", "lat": 38.9084145, "is_reserved": 0, "lon": -77.02695666666666, "fusion_lon": 0.0, "is_disabled": 0, "fusion_lat": 0.0, "bike_id": "7fbee4f6473a4b9b7d0b85ebcaedb921", "rental_uris": {"ios": "https://dc.lft.to/lastmile_qr_scan", "android": "https://dc.lft.to/lastmile_qr_scan"}}, {"name": "2e00d010c915ae3e188788b3e884eb3a", "type": "electric_scooter", "lat": 38.91961833333333, "is_reserved": 0, "lon": -77.01437733333333, "fusion_lon": 0.0, "is_disabled": 0, "fusion_lat": 0.0, "bike_id": "2e00d010c915ae3e188788b3e884eb3a", "rental_uris": {"ios": "https://dc.lft.to/lastmile_qr_scan", "android": "https://dc.lft.to/lastmile_qr_scan"}}, {"name": "74e458fc898b378a669943adf98422d3", "type": "electric_scooter", "lat": 38.8937975, "is_reserved": 0, "lon": -76.949768, "fusion_lon": 0.0, "is_disabled": 0, "fusion_lat": 0.0, "bike_id": "74e458fc898b378a669943adf98422d3", "rental_uris": {"ios": "https://dc.lft.to/lastmile_qr_scan", "android": "https://dc.lft.to/lastmile_qr_scan"}}, {"name": "d4faf9f3b0a239e22977d1ce0ce15764", "type": "electric_scooter", "lat": 38.9271975, "is_reserved": 0, "lon": -77.02088266666667, "fusion_lon": 0.0, "is_disabled": 0, "fusion_lat": 0.0, "bike_id": "d4faf9f3b0a239e22977d1ce0ce15764", "rental_uris": {"ios": "https://dc.lft.to/lastmile_qr_scan", "android": "https://dc.lft.to/lastmile_qr_scan"}}, {"name": "544704a92ca3daf96918f804e6c4564e", "type": "electric_bike", "lat": 38.93716383333334, "is_reserved": 0, "lon": -77.02097366666666, "fusion_lon": 0.0, "is_disabled": 0, "fusion_lat": 0.0, "bike_id": "544704a92ca3daf96918f804e6c4564e", "rental_uris": {"ios": "https://dc.lft.to/lastmile_qr_scan", "android": "https://dc.lft.to/lastmile_qr_scan"}}, {"name": "2bf89452fd6a3f4a2750feba549039b2", "type": "electric_scooter", "lat": 38.905331333333336, "is_reserved": 0, "lon": -77.05150983333333, "fusion_lon": 0.0, "is_disabled": 0, "fusion_lat": 0.0, "bike_id": "2bf89452fd6a3f4a2750feba549039b2", "rental_uris": {"ios": "https://dc.lft.to/lastmile_qr_scan", "android": "https://dc.lft.to/lastmile_qr_scan"}}, {"name": "4ddc73887affa515bcace877ea0b6c93", "type": "electric_bike", "lat": 38.874766, "is_reserved": 0, "lon": -76.96533516666666, "fusion_lon": 0.0, "is_disabled": 0, "fusion_lat": 0.0, "bike_id": "4ddc73887affa515bcace877ea0b6c93", "rental_uris": {"ios": "https://dc.lft.to/lastmile_qr_scan", "android": "https://dc.lft.to/lastmile_qr_scan"}}, {"name": "e0d824f4715affa37d91105b38b05b52", "type": "electric_scooter", "lat": 38.902347666666664, "is_reserved": 0, "lon": -77.05344666666667, "fusion_lon": 0.0, "is_disabled": 0, "fusion_lat": 0.0, "bike_id": "e0d824f4715affa37d91105b38b05b52", "rental_uris": {"ios": "https://dc.lft.to/lastmile_qr_scan", "android": "https://dc.lft.to/lastmile_qr_scan"}}, {"name": "77fc9f37d730852c2d5d402a0ca09983", "type": "electric_scooter", "lat": 38.9084895, "is_reserved": 0, "lon": -77.04281616666667, "fusion_lon": 0.0, "is_disabled": 0, "fusion_lat": 0.0, "bike_id": "77fc9f37d730852c2d5d402a0ca09983", "rental_uris": {"ios": "https://dc.lft.to/lastmile_qr_scan", "android": "https://dc.lft.to/lastmile_qr_scan"}}, {"name": "07cc6f1abbe678ba7bf4338f458007b1", "type": "electric_scooter", "lat": 38.9067775, "is_reserved": 0, "lon": -77.03818383333333, "fusion_lon": 0.0, "is_disabled": 0, "fusion_lat": 0.0, "bike_id": "07cc6f1abbe678ba7bf4338f458007b1", "rental_uris": {"ios": "https://dc.lft.to/lastmile_qr_scan", "android": "https://dc.lft.to/lastmile_qr_scan"}}, {"name": "678faaebe36f18a174e7fb505d8df68a", "type": "electric_scooter", "lat": 38.898021166666666, "is_reserved": 0, "lon": -77.02728983333333, "fusion_lon": 0.0, "is_disabled": 0, "fusion_lat": 0.0, "bike_id": "678faaebe36f18a174e7fb505d8df68a", "rental_uris": {"ios": "https://dc.lft.to/lastmile_qr_scan", "android": "https://dc.lft.to/lastmile_qr_scan"}}, {"name": "8b0c4c937fb6fa76f7839806cb27e9cc", "type": "electric_scooter", "lat": 38.88209066666667, "is_reserved": 0, "lon": -77.01446016666667, "fusion_lon": 0.0, "is_disabled": 0, "fusion_lat": 0.0, "bike_id": "8b0c4c937fb6fa76f7839806cb27e9cc", "rental_uris": {"ios": "https://dc.lft.to/lastmile_qr_scan", "android": "https://dc.lft.to/lastmile_qr_scan"}}, {"name": "b84b5c378cee492300388cc7becee802", "type": "electric_scooter", "lat": 38.925327, "is_reserved": 0, "lon": -77.03518766666667, "fusion_lon": 0.0, "is_disabled": 0, "fusion_lat": 0.0, "bike_id": "b84b5c378cee492300388cc7becee802", "rental_uris": {"ios": "https://dc.lft.to/lastmile_qr_scan", "android": "https://dc.lft.to/lastmile_qr_scan"}}, {"name": "03bac1921a877911f40e06623db890f4", "type": "electric_scooter", "lat": 38.9510525, "is_reserved": 0, "lon": -77.01579016666666, "fusion_lon": 0.0, "is_disabled": 0, "fusion_lat": 0.0, "bike_id": "03bac1921a877911f40e06623db890f4", "rental_uris": {"ios": "https://dc.lft.to/lastmile_qr_scan", "android": "https://dc.lft.to/lastmile_qr_scan"}}, {"name": "e8b006d689b33b1c374c6408220d7a59", "type": "electric_scooter", "lat": 38.9573315, "is_reserved": 0, "lon": -77.02407116666667, "fusion_lon": 0.0, "is_disabled": 0, "fusion_lat": 0.0, "bike_id": "e8b006d689b33b1c374c6408220d7a59", "rental_uris": {"ios": "https://dc.lft.to/lastmile_qr_scan", "android": "https://dc.lft.to/lastmile_qr_scan"}}, {"name": "74ca87c2fecd4cdf938d164ca498d574", "type": "electric_scooter", "lat": 38.911084833333334, "is_reserved": 0, "lon": -77.04227483333334, "fusion_lon": 0.0, "is_disabled": 0, "fusion_lat": 0.0, "bike_id": "74ca87c2fecd4cdf938d164ca498d574", "rental_uris": {"ios": "https://dc.lft.to/lastmile_qr_scan", "android": "https://dc.lft.to/lastmile_qr_scan"}}, {"name": "5dcc7f6bf915bdf567e11c4bbc90bf44", "type": "electric_scooter", "lat": 38.90391616666667, "is_reserved": 0, "lon": -77.04018966666666, "fusion_lon": 0.0, "is_disabled": 0, "fusion_lat": 0.0, "bike_id": "5dcc7f6bf915bdf567e11c4bbc90bf44", "rental_uris": {"ios": "https://dc.lft.to/lastmile_qr_scan", "android": "https://dc.lft.to/lastmile_qr_scan"}}, {"name": "9dacd3c08ebea991ea95befac1d25db9", "type": "electric_scooter", "lat": 38.91711433333333, "is_reserved": 0, "lon": -77.0385655, "fusion_lon": 0.0, "is_disabled": 0, "fusion_lat": 0.0, "bike_id": "9dacd3c08ebea991ea95befac1d25db9", "rental_uris": {"ios": "https://dc.lft.to/lastmile_qr_scan", "android": "https://dc.lft.to/lastmile_qr_scan"}}, {"name": "5b698a17e041723738e6c2348631b302", "type": "electric_scooter", "lat": 38.94985633333334, "is_reserved": 0, "lon": -77.0669325, "fusion_lon": 0.0, "is_disabled": 0, "fusion_lat": 0.0, "bike_id": "5b698a17e041723738e6c2348631b302", "rental_uris": {"ios": "https://dc.lft.to/lastmile_qr_scan", "android": "https://dc.lft.to/lastmile_qr_scan"}}, {"name": "0ab415ef167f30516099402ff4446bc1", "type": "electric_scooter", "lat": 38.902810833333334, "is_reserved": 0, "lon": -77.03665783333334, "fusion_lon": 0.0, "is_disabled": 0, "fusion_lat": 0.0, "bike_id": "0ab415ef167f30516099402ff4446bc1", "rental_uris": {"ios": "https://dc.lft.to/lastmile_qr_scan", "android": "https://dc.lft.to/lastmile_qr_scan"}}, {"name": "9e4032ed3112742425e283a829cc06ad", "type": "electric_scooter", "lat": 38.91700633333333, "is_reserved": 0, "lon": -77.0081155, "fusion_lon": 0.0, "is_disabled": 0, "fusion_lat": 0.0, "bike_id": "9e4032ed3112742425e283a829cc06ad", "rental_uris": {"ios": "https://dc.lft.to/lastmile_qr_scan", "android": "https://dc.lft.to/lastmile_qr_scan"}}, {"name": "7be40db0fa6274c92cada48340b7a779", "type": "electric_scooter", "lat": 38.8947505, "is_reserved": 0, "lon": -76.98593583333333, "fusion_lon": 0.0, "is_disabled": 0, "fusion_lat": 0.0, "bike_id": "7be40db0fa6274c92cada48340b7a779", "rental_uris": {"ios": "https://dc.lft.to/lastmile_qr_scan", "android": "https://dc.lft.to/lastmile_qr_scan"}}, {"name": "65a8a70815614eee845331554fcf788a", "type": "electric_scooter", "lat": 38.94012633333333, "is_reserved": 0, "lon": -77.0717165, "fusion_lon": 0.0, "is_disabled": 0, "fusion_lat": 0.0, "bike_id": "65a8a70815614eee845331554fcf788a", "rental_uris": {"ios": "https://dc.lft.to/lastmile_qr_scan", "android": "https://dc.lft.to/lastmile_qr_scan"}}, {"name": "bcda1c49879f387e2b44771683a101b4", "type": "electric_scooter", "lat": 38.930959666666666, "is_reserved": 0, "lon": -77.02508683333333, "fusion_lon": 0.0, "is_disabled": 0, "fusion_lat": 0.0, "bike_id": "bcda1c49879f387e2b44771683a101b4", "rental_uris": {"ios": "https://dc.lft.to/lastmile_qr_scan", "android": "https://dc.lft.to/lastmile_qr_scan"}}, {"name": "bdc64dbd6cfca9904d4d2c2fef0678dc", "type": "electric_scooter", "lat": 38.9072625, "is_reserved": 0, "lon": -76.98600216666667, "fusion_lon": 0.0, "is_disabled": 0, "fusion_lat": 0.0, "bike_id": "bdc64dbd6cfca9904d4d2c2fef0678dc", "rental_uris": {"ios": "https://dc.lft.to/lastmile_qr_scan", "android": "https://dc.lft.to/lastmile_qr_scan"}}, {"name": "8ce112fe9ba576df6920aa88ec2155bd", "type": "electric_bike", "lat": 38.85058683333333, "is_reserved": 0, "lon": -76.9733185, "fusion_lon": 0.0, "is_disabled": 0, "fusion_lat": 0.0, "bike_id": "8ce112fe9ba576df6920aa88ec2155bd", "rental_uris": {"ios": "https://dc.lft.to/lastmile_qr_scan", "android": "https://dc.lft.to/lastmile_qr_scan"}}, {"name": "2f19ac1e092fe17eaa790b2d98e704e3", "type": "electric_scooter", "lat": 38.942492666666666, "is_reserved": 0, "lon": -77.02174366666667, "fusion_lon": 0.0, "is_disabled": 0, "fusion_lat": 0.0, "bike_id": "2f19ac1e092fe17eaa790b2d98e704e3", "rental_uris": {"ios": "https://dc.lft.to/lastmile_qr_scan", "android": "https://dc.lft.to/lastmile_qr_scan"}}, {"name": "f6e29b4419a4e2e209acdaeaf70ab200", "type": "electric_scooter", "lat": 38.90361016666667, "is_reserved": 0, "lon": -77.044875, "fusion_lon": 0.0, "is_disabled": 0, "fusion_lat": 0.0, "bike_id": "f6e29b4419a4e2e209acdaeaf70ab200", "rental_uris": {"ios": "https://dc.lft.to/lastmile_qr_scan", "android": "https://dc.lft.to/lastmile_qr_scan"}}, {"name": "47b1e9d695da36ac721bfc73d35148fd", "type": "electric_bike", "lat": 38.945548333333335, "is_reserved": 0, "lon": -76.89538616666667, "fusion_lon": 0.0, "is_disabled": 0, "fusion_lat": 0.0, "bike_id": "47b1e9d695da36ac721bfc73d35148fd", "rental_uris": {"ios": "https://dc.lft.to/lastmile_qr_scan", "android": "https://dc.lft.to/lastmile_qr_scan"}}, {"name": "f9776ad2378507761f11b89d41a0eaeb", "type": "electric_scooter", "lat": 38.92725033333333, "is_reserved": 0, "lon": -77.02081083333333, "fusion_lon": 0.0, "is_disabled": 0, "fusion_lat": 0.0, "bike_id": "f9776ad2378507761f11b89d41a0eaeb", "rental_uris": {"ios": "https://dc.lft.to/lastmile_qr_scan", "android": "https://dc.lft.to/lastmile_qr_scan"}}, {"name": "1573aaa4f8eb9a3d372e667bcd375b6b", "type": "electric_scooter", "lat": 38.92251066666667, "is_reserved": 0, "lon": -77.03071033333333, "fusion_lon": 0.0, "is_disabled": 0, "fusion_lat": 0.0, "bike_id": "1573aaa4f8eb9a3d372e667bcd375b6b", "rental_uris": {"ios": "https://dc.lft.to/lastmile_qr_scan", "android": "https://dc.lft.to/lastmile_qr_scan"}}, {"name": "e08fcc6565bde1f91e136a425a068c41", "type": "electric_scooter", "lat": 38.8937945, "is_reserved": 0, "lon": -76.94978083333334, "fusion_lon": 0.0, "is_disabled": 0, "fusion_lat": 0.0, "bike_id": "e08fcc6565bde1f91e136a425a068c41", "rental_uris": {"ios": "https://dc.lft.to/lastmile_qr_scan", "android": "https://dc.lft.to/lastmile_qr_scan"}}, {"name": "b093be3bb064bef923205ce543bce0e3", "type": "electric_scooter", "lat": 38.89510083333333, "is_reserved": 0, "lon": -77.01614116666667, "fusion_lon": 0.0, "is_disabled": 0, "fusion_lat": 0.0, "bike_id": "b093be3bb064bef923205ce543bce0e3", "rental_uris": {"ios": "https://dc.lft.to/lastmile_qr_scan", "android": "https://dc.lft.to/lastmile_qr_scan"}}, {"name": "2b81d8889fad5c34ac477a69c7b4339b", "type": "electric_scooter", "lat": 38.9205445, "is_reserved": 0, "lon": -76.9988445, "fusion_lon": 0.0, "is_disabled": 0, "fusion_lat": 0.0, "bike_id": "2b81d8889fad5c34ac477a69c7b4339b", "rental_uris": {"ios": "https://dc.lft.to/lastmile_qr_scan", "android": "https://dc.lft.to/lastmile_qr_scan"}}, {"name": "0011c398c48c810906666ec3827100b2", "type": "electric_scooter", "lat": 38.89832166666667, "is_reserved": 0, "lon": -76.94632283333334, "fusion_lon": 0.0, "is_disabled": 0, "fusion_lat": 0.0, "bike_id": "0011c398c48c810906666ec3827100b2", "rental_uris": {"ios": "https://dc.lft.to/lastmile_qr_scan", "android": "https://dc.lft.to/lastmile_qr_scan"}}, {"name": "5716cdd29cce8241fc4b026de6a58a37", "type": "electric_scooter", "lat": 38.929428, "is_reserved": 0, "lon": -77.0327975, "fusion_lon": 0.0, "is_disabled": 0, "fusion_lat": 0.0, "bike_id": "5716cdd29cce8241fc4b026de6a58a37", "rental_uris": {"ios": "https://dc.lft.to/lastmile_qr_scan", "android": "https://dc.lft.to/lastmile_qr_scan"}}, {"name": "e4d939e8ab3028fc1b47cdfb2710f238", "type": "electric_scooter", "lat": 38.8924105, "is_reserved": 0, "lon": -77.03176416666666, "fusion_lon": 0.0, "is_disabled": 0, "fusion_lat": 0.0, "bike_id": "e4d939e8ab3028fc1b47cdfb2710f238", "rental_uris": {"ios": "https://dc.lft.to/lastmile_qr_scan", "android": "https://dc.lft.to/lastmile_qr_scan"}}, {"name": "8e7aaf59847242987043c84b82e92d91", "type": "electric_scooter", "lat": 38.902832333333336, "is_reserved": 0, "lon": -77.036438, "fusion_lon": 0.0, "is_disabled": 0, "fusion_lat": 0.0, "bike_id": "8e7aaf59847242987043c84b82e92d91", "rental_uris": {"ios": "https://dc.lft.to/lastmile_qr_scan", "android": "https://dc.lft.to/lastmile_qr_scan"}}, {"name": "937febb5af2e593139fb98bdf60c1a09", "type": "electric_scooter", "lat": 38.93123766666667, "is_reserved": 0, "lon": -77.03600616666667, "fusion_lon": 0.0, "is_disabled": 0, "fusion_lat": 0.0, "bike_id": "937febb5af2e593139fb98bdf60c1a09", "rental_uris": {"ios": "https://dc.lft.to/lastmile_qr_scan", "android": "https://dc.lft.to/lastmile_qr_scan"}}, {"name": "6efa963685709b0706b499977547934b", "type": "electric_scooter", "lat": 38.86696383333334, "is_reserved": 0, "lon": -76.98709716666667, "fusion_lon": 0.0, "is_disabled": 0, "fusion_lat": 0.0, "bike_id": "6efa963685709b0706b499977547934b", "rental_uris": {"ios": "https://dc.lft.to/lastmile_qr_scan", "android": "https://dc.lft.to/lastmile_qr_scan"}}, {"name": "3677a0c349fdbc992115c87ac3c2bb6d", "type": "electric_scooter", "lat": 38.844292, "is_reserved": 0, "lon": -76.9977585, "fusion_lon": 0.0, "is_disabled": 0, "fusion_lat": 0.0, "bike_id": "3677a0c349fdbc992115c87ac3c2bb6d", "rental_uris": {"ios": "https://dc.lft.to/lastmile_qr_scan", "android": "https://dc.lft.to/lastmile_qr_scan"}}, {"name": "e64c58f8bd216fd5b910cfbe7a938884", "type": "electric_scooter", "lat": 38.925721833333334, "is_reserved": 0, "lon": -77.0271995, "fusion_lon": 0.0, "is_disabled": 0, "fusion_lat": 0.0, "bike_id": "e64c58f8bd216fd5b910cfbe7a938884", "rental_uris": {"ios": "https://dc.lft.to/lastmile_qr_scan", "android": "https://dc.lft.to/lastmile_qr_scan"}}, {"name": "a76f6e980f02d784157980d1dd907573", "type": "electric_scooter", "lat": 38.88397116666667, "is_reserved": 0, "lon": -76.93042666666666, "fusion_lon": 0.0, "is_disabled": 0, "fusion_lat": 0.0, "bike_id": "a76f6e980f02d784157980d1dd907573", "rental_uris": {"ios": "https://dc.lft.to/lastmile_qr_scan", "android": "https://dc.lft.to/lastmile_qr_scan"}}, {"name": "9eafd9240bc4cdcd782b0f8b25980c9e", "type": "electric_scooter", "lat": 38.932579, "is_reserved": 0, "lon": -77.04008716666667, "fusion_lon": 0.0, "is_disabled": 0, "fusion_lat": 0.0, "bike_id": "9eafd9240bc4cdcd782b0f8b25980c9e", "rental_uris": {"ios": "https://dc.lft.to/lastmile_qr_scan", "android": "https://dc.lft.to/lastmile_qr_scan"}}, {"name": "9e35019263c73893b6b3c05847a1b3f5", "type": "electric_bike", "lat": 38.97327683333334, "is_reserved": 0, "lon": -77.02149383333334, "fusion_lon": 0.0, "is_disabled": 0, "fusion_lat": 0.0, "bike_id": "9e35019263c73893b6b3c05847a1b3f5", "rental_uris": {"ios": "https://dc.lft.to/lastmile_qr_scan", "android": "https://dc.lft.to/lastmile_qr_scan"}}, {"name": "8fe2464c3957dc76ccfc3e14ab590601", "type": "electric_scooter", "lat": 38.912792833333334, "is_reserved": 0, "lon": -77.0269195, "fusion_lon": 0.0, "is_disabled": 0, "fusion_lat": 0.0, "bike_id": "8fe2464c3957dc76ccfc3e14ab590601", "rental_uris": {"ios": "https://dc.lft.to/lastmile_qr_scan", "android": "https://dc.lft.to/lastmile_qr_scan"}}, {"name": "2126c15001bcf9c45109b7f12b67a4b9", "type": "electric_scooter", "lat": 38.93233133333333, "is_reserved": 0, "lon": -77.030937, "fusion_lon": 0.0, "is_disabled": 0, "fusion_lat": 0.0, "bike_id": "2126c15001bcf9c45109b7f12b67a4b9", "rental_uris": {"ios": "https://dc.lft.to/lastmile_qr_scan", "android": "https://dc.lft.to/lastmile_qr_scan"}}, {"name": "dc53814bc208ec38497ca59b3b1ecc86", "type": "electric_scooter", "lat": 38.917011333333335, "is_reserved": 0, "lon": -77.022578, "fusion_lon": 0.0, "is_disabled": 0, "fusion_lat": 0.0, "bike_id": "dc53814bc208ec38497ca59b3b1ecc86", "rental_uris": {"ios": "https://dc.lft.to/lastmile_qr_scan", "android": "https://dc.lft.to/lastmile_qr_scan"}}, {"name": "58125f051951ad4af20daf09bf31bf4e", "type": "electric_scooter", "lat": 38.94208, "is_reserved": 0, "lon": -77.0251315, "fusion_lon": 0.0, "is_disabled": 0, "fusion_lat": 0.0, "bike_id": "58125f051951ad4af20daf09bf31bf4e", "rental_uris": {"ios": "https://dc.lft.to/lastmile_qr_scan", "android": "https://dc.lft.to/lastmile_qr_scan"}}, {"name": "5b17ed951145470b4e3bc456025facb5", "type": "electric_bike", "lat": 38.945859166666665, "is_reserved": 0, "lon": -77.0026915, "fusion_lon": 0.0, "is_disabled": 0, "fusion_lat": 0.0, "bike_id": "5b17ed951145470b4e3bc456025facb5", "rental_uris": {"ios": "https://dc.lft.to/lastmile_qr_scan", "android": "https://dc.lft.to/lastmile_qr_scan"}}, {"name": "d5f99d59d828fc119acf3b5cdb2c4832", "type": "electric_scooter", "lat": 38.88401866666667, "is_reserved": 0, "lon": -76.9952445, "fusion_lon": 0.0, "is_disabled": 0, "fusion_lat": 0.0, "bike_id": "d5f99d59d828fc119acf3b5cdb2c4832", "rental_uris": {"ios": "https://dc.lft.to/lastmile_qr_scan", "android": "https://dc.lft.to/lastmile_qr_scan"}}, {"name": "3bb8263050f80367c50109694879e3cc", "type": "electric_scooter", "lat": 38.93574133333333, "is_reserved": 0, "lon": -77.03728283333334, "fusion_lon": 0.0, "is_disabled": 0, "fusion_lat": 0.0, "bike_id": "3bb8263050f80367c50109694879e3cc", "rental_uris": {"ios": "https://dc.lft.to/lastmile_qr_scan", "android": "https://dc.lft.to/lastmile_qr_scan"}}, {"name": "c19eb04f85fa29b0e99acacbec248da3", "type": "electric_scooter", "lat": 38.928711666666665, "is_reserved": 0, "lon": -77.03748166666666, "fusion_lon": 0.0, "is_disabled": 0, "fusion_lat": 0.0, "bike_id": "c19eb04f85fa29b0e99acacbec248da3", "rental_uris": {"ios": "https://dc.lft.to/lastmile_qr_scan", "android": "https://dc.lft.to/lastmile_qr_scan"}}, {"name": "843bc7aff6f934f1fb34a4ca75c78afe", "type": "electric_scooter", "lat": 38.88744883333333, "is_reserved": 0, "lon": -77.020258, "fusion_lon": 0.0, "is_disabled": 0, "fusion_lat": 0.0, "bike_id": "843bc7aff6f934f1fb34a4ca75c78afe", "rental_uris": {"ios": "https://dc.lft.to/lastmile_qr_scan", "android": "https://dc.lft.to/lastmile_qr_scan"}}, {"name": "e926b327c2e7b76df7e8e25b18330053", "type": "electric_scooter", "lat": 38.884955, "is_reserved": 0, "lon": -77.0072705, "fusion_lon": 0.0, "is_disabled": 0, "fusion_lat": 0.0, "bike_id": "e926b327c2e7b76df7e8e25b18330053", "rental_uris": {"ios": "https://dc.lft.to/lastmile_qr_scan", "android": "https://dc.lft.to/lastmile_qr_scan"}}, {"name": "cb7a208199efd2923a77882b0e44db72", "type": "electric_scooter", "lat": 38.91180633333333, "is_reserved": 0, "lon": -77.0200035, "fusion_lon": 0.0, "is_disabled": 0, "fusion_lat": 0.0, "bike_id": "cb7a208199efd2923a77882b0e44db72", "rental_uris": {"ios": "https://dc.lft.to/lastmile_qr_scan", "android": "https://dc.lft.to/lastmile_qr_scan"}}, {"name": "0141de67bc6383eb72f26184147b42be", "type": "electric_bike", "lat": 38.943237333333336, "is_reserved": 0, "lon": -76.9617645, "fusion_lon": 0.0, "is_disabled": 0, "fusion_lat": 0.0, "bike_id": "0141de67bc6383eb72f26184147b42be", "rental_uris": {"ios": "https://dc.lft.to/lastmile_qr_scan", "android": "https://dc.lft.to/lastmile_qr_scan"}}, {"name": "6ed3af5bed8741d2c32a013ad9565a7a", "type": "electric_scooter", "lat": 38.8960805, "is_reserved": 0, "lon": -76.9997225, "fusion_lon": 0.0, "is_disabled": 0, "fusion_lat": 0.0, "bike_id": "6ed3af5bed8741d2c32a013ad9565a7a", "rental_uris": {"ios": "https://dc.lft.to/lastmile_qr_scan", "android": "https://dc.lft.to/lastmile_qr_scan"}}, {"name": "6b27080f8364f1072e9c9319b0ece022", "type": "electric_bike", "lat": 38.91262833333333, "is_reserved": 0, "lon": -77.0124945, "fusion_lon": 0.0, "is_disabled": 0, "fusion_lat": 0.0, "bike_id": "6b27080f8364f1072e9c9319b0ece022", "rental_uris": {"ios": "https://dc.lft.to/lastmile_qr_scan", "android": "https://dc.lft.to/lastmile_qr_scan"}}, {"name": "4d56afd398b9280c183794645a7bab65", "type": "electric_scooter", "lat": 38.863729166666666, "is_reserved": 0, "lon": -77.01356266666667, "fusion_lon": 0.0, "is_disabled": 0, "fusion_lat": 0.0, "bike_id": "4d56afd398b9280c183794645a7bab65", "rental_uris": {"ios": "https://dc.lft.to/lastmile_qr_scan", "android": "https://dc.lft.to/lastmile_qr_scan"}}, {"name": "aa0cb990d3796b12dfbab98dd34d31f8", "type": "electric_scooter", "lat": 38.9038675, "is_reserved": 0, "lon": -77.0184615, "fusion_lon": 0.0, "is_disabled": 0, "fusion_lat": 0.0, "bike_id": "aa0cb990d3796b12dfbab98dd34d31f8", "rental_uris": {"ios": "https://dc.lft.to/lastmile_qr_scan", "android": "https://dc.lft.to/lastmile_qr_scan"}}, {"name": "4344ed5cf8838967a842aca797b0ae5f", "type": "electric_scooter", "lat": 38.956491666666665, "is_reserved": 0, "lon": -77.03288483333333, "fusion_lon": 0.0, "is_disabled": 0, "fusion_lat": 0.0, "bike_id": "4344ed5cf8838967a842aca797b0ae5f", "rental_uris": {"ios": "https://dc.lft.to/lastmile_qr_scan", "android": "https://dc.lft.to/lastmile_qr_scan"}}, {"name": "d83ec9abde885dda79a4f0000eea7da9", "type": "electric_scooter", "lat": 38.93541716666667, "is_reserved": 0, "lon": -77.03415133333333, "fusion_lon": 0.0, "is_disabled": 0, "fusion_lat": 0.0, "bike_id": "d83ec9abde885dda79a4f0000eea7da9", "rental_uris": {"ios": "https://dc.lft.to/lastmile_qr_scan", "android": "https://dc.lft.to/lastmile_qr_scan"}}, {"name": "ff80c59530782f844cf735363028bbeb", "type": "electric_scooter", "lat": 38.957498, "is_reserved": 0, "lon": -77.02419433333333, "fusion_lon": 0.0, "is_disabled": 0, "fusion_lat": 0.0, "bike_id": "ff80c59530782f844cf735363028bbeb", "rental_uris": {"ios": "https://dc.lft.to/lastmile_qr_scan", "android": "https://dc.lft.to/lastmile_qr_scan"}}, {"name": "04ddf6d7a201ab7693809d80162b29dc", "type": "electric_bike", "lat": 38.938869, "is_reserved": 0, "lon": -76.954116, "fusion_lon": 0.0, "is_disabled": 0, "fusion_lat": 0.0, "bike_id": "04ddf6d7a201ab7693809d80162b29dc", "rental_uris": {"ios": "https://dc.lft.to/lastmile_qr_scan", "android": "https://dc.lft.to/lastmile_qr_scan"}}, {"name": "d64719fc55fd0663da2dc7c29f91d837", "type": "electric_bike", "lat": 38.924784, "is_reserved": 0, "lon": -77.07320033333333, "fusion_lon": 0.0, "is_disabled": 0, "fusion_lat": 0.0, "bike_id": "d64719fc55fd0663da2dc7c29f91d837", "rental_uris": {"ios": "https://dc.lft.to/lastmile_qr_scan", "android": "https://dc.lft.to/lastmile_qr_scan"}}, {"name": "6945b2cc9fea997d64148dfc229af694", "type": "electric_scooter", "lat": 38.865355666666666, "is_reserved": 0, "lon": -76.98705866666667, "fusion_lon": 0.0, "is_disabled": 0, "fusion_lat": 0.0, "bike_id": "6945b2cc9fea997d64148dfc229af694", "rental_uris": {"ios": "https://dc.lft.to/lastmile_qr_scan", "android": "https://dc.lft.to/lastmile_qr_scan"}}, {"name": "bdec77122491709e87a8dae064de2ece", "type": "electric_scooter", "lat": 38.91019516666667, "is_reserved": 0, "lon": -77.04402016666667, "fusion_lon": 0.0, "is_disabled": 0, "fusion_lat": 0.0, "bike_id": "bdec77122491709e87a8dae064de2ece", "rental_uris": {"ios": "https://dc.lft.to/lastmile_qr_scan", "android": "https://dc.lft.to/lastmile_qr_scan"}}, {"name": "a99421f3b1ec4f7912dc7787360a5e54", "type": "electric_scooter", "lat": 38.915536333333336, "is_reserved": 0, "lon": -77.0226715, "fusion_lon": 0.0, "is_disabled": 0, "fusion_lat": 0.0, "bike_id": "a99421f3b1ec4f7912dc7787360a5e54", "rental_uris": {"ios": "https://dc.lft.to/lastmile_qr_scan", "android": "https://dc.lft.to/lastmile_qr_scan"}}, {"name": "78e48c2713691e94e6fd50ac704baba4", "type": "electric_bike", "lat": 39.088573333333336, "is_reserved": 0, "lon": -77.17843083333334, "fusion_lon": 0.0, "is_disabled": 0, "fusion_lat": 0.0, "bike_id": "78e48c2713691e94e6fd50ac704baba4", "rental_uris": {"ios": "https://dc.lft.to/lastmile_qr_scan", "android": "https://dc.lft.to/lastmile_qr_scan"}}, {"name": "98a71b5c5927f32353816d94ec4d7606", "type": "electric_bike", "lat": 38.95085233333333, "is_reserved": 0, "lon": -77.01227616666667, "fusion_lon": 0.0, "is_disabled": 0, "fusion_lat": 0.0, "bike_id": "98a71b5c5927f32353816d94ec4d7606", "rental_uris": {"ios": "https://dc.lft.to/lastmile_qr_scan", "android": "https://dc.lft.to/lastmile_qr_scan"}}, {"name": "6d3d3c62bf57ef31d8dd33a269025219", "type": "electric_bike", "lat": 38.92858483333333, "is_reserved": 0, "lon": -77.22217466666666, "fusion_lon": 0.0, "is_disabled": 0, "fusion_lat": 0.0, "bike_id": "6d3d3c62bf57ef31d8dd33a269025219", "rental_uris": {"ios": "https://dc.lft.to/lastmile_qr_scan", "android": "https://dc.lft.to/lastmile_qr_scan"}}, {"name": "99a8e4cad29242ee770df6e57e80bf44", "type": "electric_scooter", "lat": 38.93049516666667, "is_reserved": 0, "lon": -77.0278695, "fusion_lon": 0.0, "is_disabled": 0, "fusion_lat": 0.0, "bike_id": "99a8e4cad29242ee770df6e57e80bf44", "rental_uris": {"ios": "https://dc.lft.to/lastmile_qr_scan", "android": "https://dc.lft.to/lastmile_qr_scan"}}, {"name": "9273486be585e21fcb09751719c55a94", "type": "electric_scooter", "lat": 38.901737, "is_reserved": 0, "lon": -77.00002916666666, "fusion_lon": 0.0, "is_disabled": 0, "fusion_lat": 0.0, "bike_id": "9273486be585e21fcb09751719c55a94", "rental_uris": {"ios": "https://dc.lft.to/lastmile_qr_scan", "android": "https://dc.lft.to/lastmile_qr_scan"}}, {"name": "e9c3a4e3f0b00bcb5f79f72e29d3034a", "type": "electric_scooter", "lat": 38.90551283333333, "is_reserved": 0, "lon": -77.04655066666666, "fusion_lon": 0.0, "is_disabled": 0, "fusion_lat": 0.0, "bike_id": "e9c3a4e3f0b00bcb5f79f72e29d3034a", "rental_uris": {"ios": "https://dc.lft.to/lastmile_qr_scan", "android": "https://dc.lft.to/lastmile_qr_scan"}}, {"name": "45a90b08970f50f4e4a5c61a3430bb2d", "type": "electric_scooter", "lat": 38.884895666666665, "is_reserved": 0, "lon": -77.02860216666667, "fusion_lon": 0.0, "is_disabled": 0, "fusion_lat": 0.0, "bike_id": "45a90b08970f50f4e4a5c61a3430bb2d", "rental_uris": {"ios": "https://dc.lft.to/lastmile_qr_scan", "android": "https://dc.lft.to/lastmile_qr_scan"}}, {"name": "97400eca82c815c1730e0c7fae20f51d", "type": "electric_scooter", "lat": 38.90368983333333, "is_reserved": 0, "lon": -77.044763, "fusion_lon": 0.0, "is_disabled": 0, "fusion_lat": 0.0, "bike_id": "97400eca82c815c1730e0c7fae20f51d", "rental_uris": {"ios": "https://dc.lft.to/lastmile_qr_scan", "android": "https://dc.lft.to/lastmile_qr_scan"}}, {"name": "1601a58fb329f8cfa103534119fd7836", "type": "electric_scooter", "lat": 38.94120233333334, "is_reserved": 0, "lon": -77.02662566666666, "fusion_lon": 0.0, "is_disabled": 0, "fusion_lat": 0.0, "bike_id": "1601a58fb329f8cfa103534119fd7836", "rental_uris": {"ios": "https://dc.lft.to/lastmile_qr_scan", "android": "https://dc.lft.to/lastmile_qr_scan"}}, {"name": "97d4938f5fa2b035e828bf1d4db79c5e", "type": "electric_scooter", "lat": 38.90866183333333, "is_reserved": 0, "lon": -76.98612066666666, "fusion_lon": 0.0, "is_disabled": 0, "fusion_lat": 0.0, "bike_id": "97d4938f5fa2b035e828bf1d4db79c5e", "rental_uris": {"ios": "https://dc.lft.to/lastmile_qr_scan", "android": "https://dc.lft.to/lastmile_qr_scan"}}, {"name": "0d7c54ab57cfe685d13b18ecd43c5be9", "type": "electric_scooter", "lat": 38.90038783333333, "is_reserved": 0, "lon": -76.9883535, "fusion_lon": 0.0, "is_disabled": 0, "fusion_lat": 0.0, "bike_id": "0d7c54ab57cfe685d13b18ecd43c5be9", "rental_uris": {"ios": "https://dc.lft.to/lastmile_qr_scan", "android": "https://dc.lft.to/lastmile_qr_scan"}}, {"name": "5a5b16c7b49f57e9a92ef96ccaa04ba7", "type": "electric_scooter", "lat": 38.905203, "is_reserved": 0, "lon": -77.06587216666667, "fusion_lon": 0.0, "is_disabled": 0, "fusion_lat": 0.0, "bike_id": "5a5b16c7b49f57e9a92ef96ccaa04ba7", "rental_uris": {"ios": "https://dc.lft.to/lastmile_qr_scan", "android": "https://dc.lft.to/lastmile_qr_scan"}}, {"name": "8db95b2df8d4bf20948e9a905d7d014d", "type": "electric_scooter", "lat": 38.898383, "is_reserved": 0, "lon": -77.03326683333333, "fusion_lon": 0.0, "is_disabled": 0, "fusion_lat": 0.0, "bike_id": "8db95b2df8d4bf20948e9a905d7d014d", "rental_uris": {"ios": "https://dc.lft.to/lastmile_qr_scan", "android": "https://dc.lft.to/lastmile_qr_scan"}}, {"name": "6515313d33dd668bd48ddd6ab78d5d67", "type": "electric_bike", "lat": 38.90365166666667, "is_reserved": 0, "lon": -76.983253, "fusion_lon": 0.0, "is_disabled": 0, "fusion_lat": 0.0, "bike_id": "6515313d33dd668bd48ddd6ab78d5d67", "rental_uris": {"ios": "https://dc.lft.to/lastmile_qr_scan", "android": "https://dc.lft.to/lastmile_qr_scan"}}, {"name": "2e58292196f0fa9af2b5d5f101db7048", "type": "electric_scooter", "lat": 38.863588, "is_reserved": 0, "lon": -76.99067533333333, "fusion_lon": 0.0, "is_disabled": 0, "fusion_lat": 0.0, "bike_id": "2e58292196f0fa9af2b5d5f101db7048", "rental_uris": {"ios": "https://dc.lft.to/lastmile_qr_scan", "android": "https://dc.lft.to/lastmile_qr_scan"}}, {"name": "bcc4634cf5f2df25e22dba3ac67e873f", "type": "electric_scooter", "lat": 38.903078, "is_reserved": 0, "lon": -77.0384155, "fusion_lon": 0.0, "is_disabled": 0, "fusion_lat": 0.0, "bike_id": "bcc4634cf5f2df25e22dba3ac67e873f", "rental_uris": {"ios": "https://dc.lft.to/lastmile_qr_scan", "android": "https://dc.lft.to/lastmile_qr_scan"}}, {"name": "b728a4b0263e16528272ccc14f956478", "type": "electric_scooter", "lat": 38.8841295, "is_reserved": 0, "lon": -76.97600616666666, "fusion_lon": 0.0, "is_disabled": 0, "fusion_lat": 0.0, "bike_id": "b728a4b0263e16528272ccc14f956478", "rental_uris": {"ios": "https://dc.lft.to/lastmile_qr_scan", "android": "https://dc.lft.to/lastmile_qr_scan"}}, {"name": "a43cb14c13ab06ad142a3dc3e077ccb7", "type": "electric_scooter", "lat": 38.9007995, "is_reserved": 0, "lon": -77.05073233333333, "fusion_lon": 0.0, "is_disabled": 0, "fusion_lat": 0.0, "bike_id": "a43cb14c13ab06ad142a3dc3e077ccb7", "rental_uris": {"ios": "https://dc.lft.to/lastmile_qr_scan", "android": "https://dc.lft.to/lastmile_qr_scan"}}, {"name": "45159a0afa0d8fff4bc1ee13118f03fc", "type": "electric_scooter", "lat": 38.923010833333336, "is_reserved": 0, "lon": -76.99392466666667, "fusion_lon": 0.0, "is_disabled": 0, "fusion_lat": 0.0, "bike_id": "45159a0afa0d8fff4bc1ee13118f03fc", "rental_uris": {"ios": "https://dc.lft.to/lastmile_qr_scan", "android": "https://dc.lft.to/lastmile_qr_scan"}}, {"name": "409ff2f7d5296114a6b6639e7d2764c1", "type": "electric_scooter", "lat": 38.92022733333334, "is_reserved": 0, "lon": -77.026076, "fusion_lon": 0.0, "is_disabled": 0, "fusion_lat": 0.0, "bike_id": "409ff2f7d5296114a6b6639e7d2764c1", "rental_uris": {"ios": "https://dc.lft.to/lastmile_qr_scan", "android": "https://dc.lft.to/lastmile_qr_scan"}}, {"name": "78de47f65716442bb05057db03da723a", "type": "electric_scooter", "lat": 38.94959266666667, "is_reserved": 0, "lon": -77.07933233333333, "fusion_lon": 0.0, "is_disabled": 0, "fusion_lat": 0.0, "bike_id": "78de47f65716442bb05057db03da723a", "rental_uris": {"ios": "https://dc.lft.to/lastmile_qr_scan", "android": "https://dc.lft.to/lastmile_qr_scan"}}, {"name": "d416353525ba518c3ba1def8ef0ea47d", "type": "electric_scooter", "lat": 38.969853666666666, "is_reserved": 0, "lon": -77.027172, "fusion_lon": 0.0, "is_disabled": 0, "fusion_lat": 0.0, "bike_id": "d416353525ba518c3ba1def8ef0ea47d", "rental_uris": {"ios": "https://dc.lft.to/lastmile_qr_scan", "android": "https://dc.lft.to/lastmile_qr_scan"}}, {"name": "62970142b3a9779c3eceff91e5b625db", "type": "electric_scooter", "lat": 38.92007233333333, "is_reserved": 0, "lon": -77.038843, "fusion_lon": 0.0, "is_disabled": 0, "fusion_lat": 0.0, "bike_id": "62970142b3a9779c3eceff91e5b625db", "rental_uris": {"ios": "https://dc.lft.to/lastmile_qr_scan", "android": "https://dc.lft.to/lastmile_qr_scan"}}, {"name": "9918d5c39de28b4f1d23b92e6f57805b", "type": "electric_scooter", "lat": 38.876819166666664, "is_reserved": 0, "lon": -77.00070166666667, "fusion_lon": 0.0, "is_disabled": 0, "fusion_lat": 0.0, "bike_id": "9918d5c39de28b4f1d23b92e6f57805b", "rental_uris": {"ios": "https://dc.lft.to/lastmile_qr_scan", "android": "https://dc.lft.to/lastmile_qr_scan"}}, {"name": "9951e5744a001e1466014b7f0c2d79a0", "type": "electric_scooter", "lat": 38.84293183333333, "is_reserved": 0, "lon": -76.99949533333333, "fusion_lon": 0.0, "is_disabled": 0, "fusion_lat": 0.0, "bike_id": "9951e5744a001e1466014b7f0c2d79a0", "rental_uris": {"ios": "https://dc.lft.to/lastmile_qr_scan", "android": "https://dc.lft.to/lastmile_qr_scan"}}, {"name": "46d5b4549f32b2372b944a9ca441587b", "type": "electric_scooter", "lat": 38.866962666666666, "is_reserved": 0, "lon": -76.98715183333333, "fusion_lon": 0.0, "is_disabled": 0, "fusion_lat": 0.0, "bike_id": "46d5b4549f32b2372b944a9ca441587b", "rental_uris": {"ios": "https://dc.lft.to/lastmile_qr_scan", "android": "https://dc.lft.to/lastmile_qr_scan"}}, {"name": "d1c0fd3139e4994646ea0c503ea16349", "type": "electric_bike", "lat": 38.96534533333333, "is_reserved": 0, "lon": -77.035126, "fusion_lon": 0.0, "is_disabled": 0, "fusion_lat": 0.0, "bike_id": "d1c0fd3139e4994646ea0c503ea16349", "rental_uris": {"ios": "https://dc.lft.to/lastmile_qr_scan", "android": "https://dc.lft.to/lastmile_qr_scan"}}, {"name": "f59092cd8ebabc0c89758a48d70ca573", "type": "electric_scooter", "lat": 38.90616166666667, "is_reserved": 0, "lon": -77.01284216666667, "fusion_lon": 0.0, "is_disabled": 0, "fusion_lat": 0.0, "bike_id": "f59092cd8ebabc0c89758a48d70ca573", "rental_uris": {"ios": "https://dc.lft.to/lastmile_qr_scan", "android": "https://dc.lft.to/lastmile_qr_scan"}}, {"name": "8e8d7c09753cd125a25d9c05754233b0", "type": "electric_scooter", "lat": 38.91116516666666, "is_reserved": 0, "lon": -77.03297716666667, "fusion_lon": 0.0, "is_disabled": 0, "fusion_lat": 0.0, "bike_id": "8e8d7c09753cd125a25d9c05754233b0", "rental_uris": {"ios": "https://dc.lft.to/lastmile_qr_scan", "android": "https://dc.lft.to/lastmile_qr_scan"}}, {"name": "06a40448823b0d3ff5ca3ead86310a03", "type": "electric_scooter", "lat": 38.897402666666665, "is_reserved": 0, "lon": -77.01310383333333, "fusion_lon": 0.0, "is_disabled": 0, "fusion_lat": 0.0, "bike_id": "06a40448823b0d3ff5ca3ead86310a03", "rental_uris": {"ios": "https://dc.lft.to/lastmile_qr_scan", "android": "https://dc.lft.to/lastmile_qr_scan"}}, {"name": "4ae9eee363e1fea0739d02c4260e1a8c", "type": "electric_scooter", "lat": 38.913365166666665, "is_reserved": 0, "lon": -77.03123416666666, "fusion_lon": 0.0, "is_disabled": 0, "fusion_lat": 0.0, "bike_id": "4ae9eee363e1fea0739d02c4260e1a8c", "rental_uris": {"ios": "https://dc.lft.to/lastmile_qr_scan", "android": "https://dc.lft.to/lastmile_qr_scan"}}, {"name": "7cdaa9410e7003b0ebb4d27ba526bd48", "type": "electric_scooter", "lat": 38.90955966666667, "is_reserved": 0, "lon": -76.985355, "fusion_lon": 0.0, "is_disabled": 0, "fusion_lat": 0.0, "bike_id": "7cdaa9410e7003b0ebb4d27ba526bd48", "rental_uris": {"ios": "https://dc.lft.to/lastmile_qr_scan", "android": "https://dc.lft.to/lastmile_qr_scan"}}, {"name": "e2387dfd91b5edf7386159d1f1b233ef", "type": "electric_bike", "lat": 38.867567333333334, "is_reserved": 0, "lon": -76.9453575, "fusion_lon": 0.0, "is_disabled": 0, "fusion_lat": 0.0, "bike_id": "e2387dfd91b5edf7386159d1f1b233ef", "rental_uris": {"ios": "https://dc.lft.to/lastmile_qr_scan", "android": "https://dc.lft.to/lastmile_qr_scan"}}, {"name": "a950399a0c98c0225ddd191988452c62", "type": "electric_bike", "lat": 38.86279483333333, "is_reserved": 0, "lon": -77.06356083333333, "fusion_lon": 0.0, "is_disabled": 0, "fusion_lat": 0.0, "bike_id": "a950399a0c98c0225ddd191988452c62", "rental_uris": {"ios": "https://dc.lft.to/lastmile_qr_scan", "android": "https://dc.lft.to/lastmile_qr_scan"}}, {"name": "6df8b44879566db061d6c086fe989c75", "type": "electric_scooter", "lat": 38.92951033333333, "is_reserved": 0, "lon": -77.05507266666666, "fusion_lon": 0.0, "is_disabled": 0, "fusion_lat": 0.0, "bike_id": "6df8b44879566db061d6c086fe989c75", "rental_uris": {"ios": "https://dc.lft.to/lastmile_qr_scan", "android": "https://dc.lft.to/lastmile_qr_scan"}}, {"name": "b37129a767771a6029a911a676eaff93", "type": "electric_bike", "lat": 38.87528783333333, "is_reserved": 0, "lon": -77.1990735, "fusion_lon": 0.0, "is_disabled": 0, "fusion_lat": 0.0, "bike_id": "b37129a767771a6029a911a676eaff93", "rental_uris": {"ios": "https://dc.lft.to/lastmile_qr_scan", "android": "https://dc.lft.to/lastmile_qr_scan"}}, {"name": "489e43df0aa2425eacf4b9f3ad33256d", "type": "electric_scooter", "lat": 38.902698666666666, "is_reserved": 0, "lon": -77.0177435, "fusion_lon": 0.0, "is_disabled": 0, "fusion_lat": 0.0, "bike_id": "489e43df0aa2425eacf4b9f3ad33256d", "rental_uris": {"ios": "https://dc.lft.to/lastmile_qr_scan", "android": "https://dc.lft.to/lastmile_qr_scan"}}, {"name": "7d8464b7d157eca64841da9005b4795a", "type": "electric_bike", "lat": 38.84054583333333, "is_reserved": 0, "lon": -77.06407866666666, "fusion_lon": 0.0, "is_disabled": 0, "fusion_lat": 0.0, "bike_id": "7d8464b7d157eca64841da9005b4795a", "rental_uris": {"ios": "https://dc.lft.to/lastmile_qr_scan", "android": "https://dc.lft.to/lastmile_qr_scan"}}, {"name": "6e5da3488dd9f645a20388390565ce73", "type": "electric_scooter", "lat": 38.897267, "is_reserved": 0, "lon": -77.01046716666667, "fusion_lon": 0.0, "is_disabled": 0, "fusion_lat": 0.0, "bike_id": "6e5da3488dd9f645a20388390565ce73", "rental_uris": {"ios": "https://dc.lft.to/lastmile_qr_scan", "android": "https://dc.lft.to/lastmile_qr_scan"}}, {"name": "37d3d36a35a8ab4cd142f8692bdb3251", "type": "electric_bike", "lat": 39.09459066666667, "is_reserved": 0, "lon": -77.14994416666667, "fusion_lon": 0.0, "is_disabled": 0, "fusion_lat": 0.0, "bike_id": "37d3d36a35a8ab4cd142f8692bdb3251", "rental_uris": {"ios": "https://dc.lft.to/lastmile_qr_scan", "android": "https://dc.lft.to/lastmile_qr_scan"}}, {"name": "d4be108b20ada1a9018321aa0d7449c4", "type": "electric_scooter", "lat": 38.898427166666664, "is_reserved": 0, "lon": -76.94478083333334, "fusion_lon": 0.0, "is_disabled": 0, "fusion_lat": 0.0, "bike_id": "d4be108b20ada1a9018321aa0d7449c4", "rental_uris": {"ios": "https://dc.lft.to/lastmile_qr_scan", "android": "https://dc.lft.to/lastmile_qr_scan"}}, {"name": "f62712e9ca3c467557baa6c8dfafea42", "type": "electric_bike", "lat": 38.827859, "is_reserved": 0, "lon": -77.0090765, "fusion_lon": 0.0, "is_disabled": 0, "fusion_lat": 0.0, "bike_id": "f62712e9ca3c467557baa6c8dfafea42", "rental_uris": {"ios": "https://dc.lft.to/lastmile_qr_scan", "android": "https://dc.lft.to/lastmile_qr_scan"}}, {"name": "c38f057b92c445dd87b923d5507896db", "type": "electric_scooter", "lat": 38.89494166666667, "is_reserved": 0, "lon": -77.00212366666666, "fusion_lon": 0.0, "is_disabled": 0, "fusion_lat": 0.0, "bike_id": "c38f057b92c445dd87b923d5507896db", "rental_uris": {"ios": "https://dc.lft.to/lastmile_qr_scan", "android": "https://dc.lft.to/lastmile_qr_scan"}}, {"name": "67d2e7a88afdfc98481d2156a94864b8", "type": "electric_scooter", "lat": 38.86245066666667, "is_reserved": 0, "lon": -76.99496583333334, "fusion_lon": 0.0, "is_disabled": 0, "fusion_lat": 0.0, "bike_id": "67d2e7a88afdfc98481d2156a94864b8", "rental_uris": {"ios": "https://dc.lft.to/lastmile_qr_scan", "android": "https://dc.lft.to/lastmile_qr_scan"}}, {"name": "e72e06f495c26e9e3387a9cefda49d44", "type": "electric_scooter", "lat": 38.92726183333333, "is_reserved": 0, "lon": -77.005661, "fusion_lon": 0.0, "is_disabled": 0, "fusion_lat": 0.0, "bike_id": "e72e06f495c26e9e3387a9cefda49d44", "rental_uris": {"ios": "https://dc.lft.to/lastmile_qr_scan", "android": "https://dc.lft.to/lastmile_qr_scan"}}, {"name": "a37df81a5ba2dc4e904a6ea2685b3e3b", "type": "electric_bike", "lat": 38.8767015, "is_reserved": 0, "lon": -77.014431, "fusion_lon": 0.0, "is_disabled": 0, "fusion_lat": 0.0, "bike_id": "a37df81a5ba2dc4e904a6ea2685b3e3b", "rental_uris": {"ios": "https://dc.lft.to/lastmile_qr_scan", "android": "https://dc.lft.to/lastmile_qr_scan"}}, {"name": "019bc1da8efe3b6971a3d9966e3b6bdd", "type": "electric_scooter", "lat": 38.880517833333336, "is_reserved": 0, "lon": -77.013304, "fusion_lon": 0.0, "is_disabled": 0, "fusion_lat": 0.0, "bike_id": "019bc1da8efe3b6971a3d9966e3b6bdd", "rental_uris": {"ios": "https://dc.lft.to/lastmile_qr_scan", "android": "https://dc.lft.to/lastmile_qr_scan"}}, {"name": "35f48a6941407220bc76caed471a2465", "type": "electric_bike", "lat": 38.93577616666666, "is_reserved": 0, "lon": -77.02122983333334, "fusion_lon": 0.0, "is_disabled": 0, "fusion_lat": 0.0, "bike_id": "35f48a6941407220bc76caed471a2465", "rental_uris": {"ios": "https://dc.lft.to/lastmile_qr_scan", "android": "https://dc.lft.to/lastmile_qr_scan"}},