{"data": {"bikes": [{"fusion_lat": 0.0, "bike_id": "a6542169180d11350ac7853f4cb5b151", "fusion_lon": 0.0, "lon": -77.03049016666667, "lat": 38.8842725, "is_reserved": 0, "is_disabled": 0, "rental_uris": {"android": "https://dc.lft.to/lastmile_qr_scan", "ios": "https://dc.lft.to/lastmile_qr_scan"}, "name": "a6542169180d11350ac7853f4cb5b151", "type": "electric_scooter"}, {"fusion_lat": 0.0, "bike_id": "bcc811361d4d5645776d362b7758377c", "fusion_lon": 0.0, "lon": -77.03964216666667, "lat": 38.902514, "is_reserved": 0, "is_disabled": 0, "rental_uris": {"android": "https://dc.lft.to/lastmile_qr_scan", "ios": "https://dc.lft.to/lastmile_qr_scan"}, "name": "bcc811361d4d5645776d362b7758377c", "type": "electric_scooter"}, {"fusion_lat": 0.0, "bike_id": "b3d25d1df62e3d7255b5471568e7b54e", "fusion_lon": 0.0, "lon": -77.033471, "lat": 38.924441333333334, "is_reserved": 0, "is_disabled": 0, "rental_uris": {"android": "https://dc.lft.to/lastmile_qr_scan", "ios": "https://dc.lft.to/lastmile_qr_scan"}, "name": "b3d25d1df62e3d7255b5471568e7b54e", "type": "electric_scooter"}, {"fusion_lat": 0.0, "bike_id": "b93172883318b0d644cb9d51fa546857", "fusion_lon": 0.0, "lon": -76.95748283333333, "lat": 38.8842835, "is_reserved": 0, "is_disabled": 0, "rental_uris": {"android": "https://dc.lft.to/lastmile_qr_scan", "ios": "https://dc.lft.to/lastmile_qr_scan"}, "name": "b93172883318b0d644cb9d51fa546857", "type": "electric_scooter"}, {"fusion_lat": 0.0, "bike_id": "97ae26a63188e81b56801436c481ca24", "fusion_lon": 0.0, "lon": -77.03395916666666, "lat": 38.90980366666667, "is_reserved": 0, "is_disabled": 0, "rental_uris": {"android": "https://dc.lft.to/lastmile_qr_scan", "ios": "https://dc.lft.to/lastmile_qr_scan"}, "name": "97ae26a63188e81b56801436c481ca24", "type": "electric_scooter"}, {"fusion_lat": 0.0, "bike_id": "e5e45b0057d510a150c1a2a47280f81e", "fusion_lon": 0.0, "lon": -77.03183133333333, "lat": 38.902862, "is_reserved": 0, "is_disabled": 0, "rental_uris": {"android": "https://dc.lft.to/lastmile_qr_scan", "ios": "https://dc.lft.to/lastmile_qr_scan"}, "name": "e5e45b0057d510a150c1a2a47280f81e", "type": "electric_scooter"}, {"fusion_lat": 0.0, "bike_id": "4b85e828ad8a432c4b09059f285f1589", "fusion_lon": 0.0, "lon": -77.04071716666667, "lat": 38.909642, "is_reserved": 0, "is_disabled": 0, "rental_uris": {"android": "https://dc.lft.to/lastmile_qr_scan", "ios": "https://dc.lft.to/lastmile_qr_scan"}, "name": "4b85e828ad8a432c4b09059f285f1589", "type": "electric_scooter"}, {"fusion_lat": 0.0, "bike_id": "6cd1482ad92fb1a2b90d922f146f620b", "fusion_lon": 0.0, "lon": -77.03473783333334, "lat": 38.908699, "is_reserved": 0, "is_disabled": 0, "rental_uris": {"android": "https://dc.lft.to/lastmile_qr_scan", "ios": "https://dc.lft.to/lastmile_qr_scan"}, "name": "6cd1482ad92fb1a2b90d922f146f620b", "type": "electric_scooter"}, {"fusion_lat": 0.0, "bike_id": "91406d18c6834ba547a229a5bb10b0c4", "fusion_lon": 0.0, "lon": -76.98921666666666, "lat": 38.901877666666664, "is_reserved": 0, "is_disabled": 0, "rental_uris": {"android": "https://dc.lft.to/lastmile_qr_scan", "ios": "https://dc.lft.to/lastmile_qr_scan"}, "name": "91406d18c6834ba547a229a5bb10b0c4", "type": "electric_scooter"}, {"fusion_lat": 0.0, "bike_id": "069ad9ebdbb0b080d942939b39fbe840", "fusion_lon": 0.0, "lon": -76.935489, "lat": 38.890199833333334, "is_reserved": 0, "is_disabled": 0, "rental_uris": {"android": "https://dc.lft.to/lastmile_qr_scan", "ios": "https://dc.lft.to/lastmile_qr_scan"}, "name": "069ad9ebdbb0b080d942939b39fbe840", "type": "electric_scooter"}, {"fusion_lat": 0.0, "bike_id": "0559a99422752ade96b9b0cdd0c1aa38", "fusion_lon": 0.0, "lon": -77.05034783333333, "lat": 38.90150033333333, "is_reserved": 0, "is_disabled": 0, "rental_uris": {"android": "https://dc.lft.to/lastmile_qr_scan", "ios": "https://dc.lft.to/lastmile_qr_scan"}, "name": "0559a99422752ade96b9b0cdd0c1aa38", "type": "electric_scooter"}, {"fusion_lat": 0.0, "bike_id": "fae3997a0e8e8cc6a975921b6f9f21dd", "fusion_lon": 0.0, "lon": -77.032047, "lat": 38.91249416666667, "is_reserved": 0, "is_disabled": 0, "rental_uris": {"android": "https://dc.lft.to/lastmile_qr_scan", "ios": "https://dc.lft.to/lastmile_qr_scan"}, "name": "fae3997a0e8e8cc6a975921b6f9f21dd", "type": "electric_scooter"}, {"fusion_lat": 0.0, "bike_id": "1824a82bb9d30a365da241c938fedbd0", "fusion_lon": 0.0, "lon": -76.99365933333333, "lat": 38.861473333333336, "is_reserved": 0, "is_disabled": 0, "rental_uris": {"android": "https://dc.lft.to/lastmile_qr_scan", "ios": "https://dc.lft.to/lastmile_qr_scan"}, "name": "1824a82bb9d30a365da241c938fedbd0", "type": "electric_scooter"}, {"fusion_lat": 0.0, "bike_id": "17328a6c0270d6c67cc9ce12ad55f920", "fusion_lon": 0.0, "lon": -77.03172966666666, "lat": 38.9304265, "is_reserved": 0, "is_disabled": 0, "rental_uris": {"android": "https://dc.lft.to/lastmile_qr_scan", "ios": "https://dc.lft.to/lastmile_qr_scan"}, "name": "17328a6c0270d6c67cc9ce12ad55f920", "type": "electric_scooter"}, {"fusion_lat": 0.0, "bike_id": "fd7ec88d9e9418ce6bd66e593d01d3b6", "fusion_lon": 0.0, "lon": -77.068902, "lat": 38.90398483333333, "is_reserved": 0, "is_disabled": 0, "rental_uris": {"android": "https://dc.lft.to/lastmile_qr_scan", "ios": "https://dc.lft.to/lastmile_qr_scan"}, "name": "fd7ec88d9e9418ce6bd66e593d01d3b6", "type": "electric_bike"}, {"fusion_lat": 0.0, "bike_id": "c89a6f02ae8aa17423b659aaa52b46f3", "fusion_lon": 0.0, "lon": -77.00128916666667, "lat": 38.87444466666667, "is_reserved": 0, "is_disabled": 0, "rental_uris": {"android": "https://dc.lft.to/lastmile_qr_scan", "ios": "https://dc.lft.to/lastmile_qr_scan"}, "name": "c89a6f02ae8aa17423b659aaa52b46f3", "type": "electric_scooter"}, {"fusion_lat": 0.0, "bike_id": "cd5c1f286f5dfe8a8e4112e4907a46e7", "fusion_lon": 0.0, "lon": -77.03574116666667, "lat": 38.92329866666667, "is_reserved": 0, "is_disabled": 0, "rental_uris": {"android": "https://dc.lft.to/lastmile_qr_scan", "ios": "https://dc.lft.to/lastmile_qr_scan"}, "name": "cd5c1f286f5dfe8a8e4112e4907a46e7", "type": "electric_scooter"}, {"fusion_lat": 0.0, "bike_id": "333e39b4071ec340565817e0eb1fabd2", "fusion_lon": 0.0, "lon": -77.07916783333333, "lat": 38.94640483333333, "is_reserved": 0, "is_disabled": 0, "rental_uris": {"android": "https://dc.lft.to/lastmile_qr_scan", "ios": "https://dc.lft.to/lastmile_qr_scan"}, "name": "333e39b4071ec340565817e0eb1fabd2", "type": "electric_scooter"}, {"fusion_lat": 0.0, "bike_id": "1f1fc4ee54c240939327a60295d59032", "fusion_lon": 0.0, "lon": -77.03858116666666, "lat": 38.9066025, "is_reserved": 0, "is_disabled": 0, "rental_uris": {"android": "https://dc.lft.to/lastmile_qr_scan", "ios": "https://dc.lft.to/lastmile_qr_scan"}, "name": "1f1fc4ee54c240939327a60295d59032", "type": "electric_scooter"}, {"fusion_lat": 0.0, "bike_id": "114f9ae2115f60c072affbee8480c10d", "fusion_lon": 0.0, "lon": -76.928831, "lat": 38.978401166666664, "is_reserved": 0, "is_disabled": 0, "rental_uris": {"android": "https://dc.lft.to/lastmile_qr_scan", "ios": "https://dc.lft.to/lastmile_qr_scan"}, "name": "114f9ae2115f60c072affbee8480c10d", "type": "electric_bike"}, {"fusion_lat": 0.0, "bike_id": "646bece788e668d0f7773834eb79b139", "fusion_lon": 0.0, "lon": -77.03291066666667, "lat": 38.956511166666665, "is_reserved": 0, "is_disabled": 0, "rental_uris": {"android": "https://dc.lft.to/lastmile_qr_scan", "ios": "https://dc.lft.to/lastmile_qr_scan"}, "name": "646bece788e668d0f7773834eb79b139", "type": "electric_scooter"}, {"fusion_lat": 0.0, "bike_id": "58b694a75e2a1d1284062d4620c04842", "fusion_lon": 0.0, "lon": -77.04158633333333, "lat": 38.903436, "is_reserved": 0, "is_disabled": 0, "rental_uris": {"android": "https://dc.lft.to/lastmile_qr_scan", "ios": "https://dc.lft.to/lastmile_qr_scan"}, "name": "58b694a75e2a1d1284062d4620c04842", "type": "electric_scooter"}, {"fusion_lat": 0.0, "bike_id": "2d9642b7539aa307fb80b6a4dbc05446", "fusion_lon": 0.0, "lon": -76.9300955, "lat": 38.89650566666667, "is_reserved": 0, "is_disabled": 0, "rental_uris": {"android": "https://dc.lft.to/lastmile_qr_scan", "ios": "https://dc.lft.to/lastmile_qr_scan"}, "name": "2d9642b7539aa307fb80b6a4dbc05446", "type": "electric_bike"}, {"fusion_lat": 0.0, "bike_id": "c2f4755f0387073d50fb54d33a6fe4e6", "fusion_lon": 0.0, "lon": -77.08030333333333, "lat": 38.95060766666667, "is_reserved": 0, "is_disabled": 0, "rental_uris": {"android": "https://dc.lft.to/lastmile_qr_scan", "ios": "https://dc.lft.to/lastmile_qr_scan"}, "name": "c2f4755f0387073d50fb54d33a6fe4e6", "type": "electric_scooter"}, {"fusion_lat": 0.0, "bike_id": "1821d2d60f0c8d8a25969a4873ece576", "fusion_lon": 0.0, "lon": -76.93174883333333, "lat": 38.8988465, "is_reserved": 0, "is_disabled": 0, "rental_uris": {"android": "https://dc.lft.to/lastmile_qr_scan", "ios": "https://dc.lft.to/lastmile_qr_scan"}, "name": "1821d2d60f0c8d8a25969a4873ece576", "type": "electric_scooter"}, {"fusion_lat": 0.0, "bike_id": "2646db239234c957a7e6940d67aa4e6c", "fusion_lon": 0.0, "lon": -77.02720766666667, "lat": 38.89725333333333, "is_reserved": 0, "is_disabled": 0, "rental_uris": {"android": "https://dc.lft.to/lastmile_qr_scan", "ios": "https://dc.lft.to/lastmile_qr_scan"}, "name": "2646db239234c957a7e6940d67aa4e6c", "type": "electric_scooter"}, {"fusion_lat": 0.0, "bike_id": "3c359cd925c2341c2bda58b94fcd2887", "fusion_lon": 0.0, "lon": -77.025612, "lat": 38.9386945, "is_reserved": 0, "is_disabled": 0, "rental_uris": {"android": "https://dc.lft.to/lastmile_qr_scan", "ios": "https://dc.lft.to/lastmile_qr_scan"}, "name": "3c359cd925c2341c2bda58b94fcd2887", "type": "electric_scooter"}, {"fusion_lat": 0.0, "bike_id": "d6ef699e38fd28c77507df5e0a536e97", "fusion_lon": 0.0, "lon": -76.95744116666667, "lat": 38.8842925, "is_reserved": 0, "is_disabled": 0, "rental_uris": {"android": "https://dc.lft.to/lastmile_qr_scan", "ios": "https://dc.lft.to/lastmile_qr_scan"}, "name": "d6ef699e38fd28c77507df5e0a536e97", "type": "electric_scooter"}, {"fusion_lat": 0.0, "bike_id": "b6f2e766cf5899b7499847dd0948746a", "fusion_lon": 0.0, "lon": -77.00309983333334, "lat": 38.923523, "is_reserved": 0, "is_disabled": 0, "rental_uris": {"android": "https://dc.lft.to/lastmile_qr_scan", "ios": "https://dc.lft.to/lastmile_qr_scan"}, "name": "b6f2e766cf5899b7499847dd0948746a", "type": "electric_scooter"}, {"fusion_lat": 0.0, "bike_id": "083ef94c65dd09e7a27667c1e4579f56", "fusion_lon": 0.0, "lon": -77.06888566666667, "lat": 38.9051455, "is_reserved": 0, "is_disabled": 0, "rental_uris": {"android": "https://dc.lft.to/lastmile_qr_scan", "ios": "https://dc.lft.to/lastmile_qr_scan"}, "name": "083ef94c65dd09e7a27667c1e4579f56", "type": "electric_scooter"}, {"fusion_lat": 0.0, "bike_id": "7c71ee2b66fe01f845937bce3318c1fe", "fusion_lon": 0.0, "lon": -77.0004715, "lat": 38.906963833333336, "is_reserved": 0, "is_disabled": 0, "rental_uris": {"android": "https://dc.lft.to/lastmile_qr_scan", "ios": "https://dc.lft.to/lastmile_qr_scan"}, "name": "7c71ee2b66fe01f845937bce3318c1fe", "type": "electric_scooter"}, {"fusion_lat": 0.0, "bike_id": "afb82b3891a3a27277c280837f4cc612", "fusion_lon": 0.0, "lon": -77.02428683333333, "lat": 38.8922355, "is_reserved": 0, "is_disabled": 0, "rental_uris": {"android": "https://dc.lft.to/lastmile_qr_scan", "ios": "https://dc.lft.to/lastmile_qr_scan"}, "name": "afb82b3891a3a27277c280837f4cc612", "type": "electric_scooter"}, {"fusion_lat": 0.0, "bike_id": "e7d8e7353d329f775eb94c8f73921bda", "fusion_lon": 0.0, "lon": -77.03751783333334, "lat": 38.91259633333333, "is_reserved": 0, "is_disabled": 0, "rental_uris": {"android": "https://dc.lft.to/lastmile_qr_scan", "ios": "https://dc.lft.to/lastmile_qr_scan"}, "name": "e7d8e7353d329f775eb94c8f73921bda", "type": "electric_scooter"}, {"fusion_lat": 0.0, "bike_id": "5b79085981f5229cd0467f2f422c920c", "fusion_lon": 0.0, "lon": -77.02510933333333, "lat": 38.8922945, "is_reserved": 0, "is_disabled": 0, "rental_uris": {"android": "https://dc.lft.to/lastmile_qr_scan", "ios": "https://dc.lft.to/lastmile_qr_scan"}, "name": "5b79085981f5229cd0467f2f422c920c", "type": "electric_scooter"}, {"fusion_lat": 0.0, "bike_id": "cf3e89d5fec8e35a70b036f22e247e59", "fusion_lon": 0.0, "lon": -76.99847933333334, "lat": 38.89623566666667, "is_reserved": 0, "is_disabled": 0, "rental_uris": {"android": "https://dc.lft.to/lastmile_qr_scan", "ios": "https://dc.lft.to/lastmile_qr_scan"}, "name": "cf3e89d5fec8e35a70b036f22e247e59", "type": "electric_scooter"}, {"fusion_lat": 0.0, "bike_id": "41f7a4632f5b8da5af65857e494572e6", "fusion_lon": 0.0, "lon": -77.03287233333333, "lat": 38.91703566666666, "is_reserved": 0, "is_disabled": 0, "rental_uris": {"android": "https://dc.lft.to/lastmile_qr_scan", "ios": "https://dc.lft.to/lastmile_qr_scan"}, "name": "41f7a4632f5b8da5af65857e494572e6", "type": "electric_scooter"}, {"fusion_lat": 0.0, "bike_id": "d715a3cf571a6b33bb4171e2bdfbcc37", "fusion_lon": 0.0, "lon": -77.02798766666666, "lat": 38.914403166666666, "is_reserved": 0, "is_disabled": 0, "rental_uris": {"android": "https://dc.lft.to/lastmile_qr_scan", "ios": "https://dc.lft.to/lastmile_qr_scan"}, "name": "d715a3cf571a6b33bb4171e2bdfbcc37", "type": "electric_scooter"}, {"fusion_lat": 0.0, "bike_id": "7c0ba2100707f93c08d52c9903b51b82", "fusion_lon": 0.0, "lon": -76.94633666666667, "lat": 38.89834483333333, "is_reserved": 0, "is_disabled": 0, "rental_uris": {"android": "https://dc.lft.to/lastmile_qr_scan", "ios": "https://dc.lft.to/lastmile_qr_scan"}, "name": "7c0ba2100707f93c08d52c9903b51b82", "type": "electric_scooter"}, {"fusion_lat": 0.0, "bike_id": "3ee61a3f2e7551d95fbf680f999fde05", "fusion_lon": 0.0, "lon": -77.0166345, "lat": 38.88121866666667, "is_reserved": 0, "is_disabled": 0, "rental_uris": {"android": "https://dc.lft.to/lastmile_qr_scan", "ios": "https://dc.lft.to/lastmile_qr_scan"}, "name": "3ee61a3f2e7551d95fbf680f999fde05", "type": "electric_scooter"}, {"fusion_lat": 0.0, "bike_id": "e6b6c034095cfa430e238f4d9ce9a9c6", "fusion_lon": 0.0, "lon": -77.0339435, "lat": 38.90727566666666, "is_reserved": 0, "is_disabled": 0, "rental_uris": {"android": "https://dc.lft.to/lastmile_qr_scan", "ios": "https://dc.lft.to/lastmile_qr_scan"}, "name": "e6b6c034095cfa430e238f4d9ce9a9c6", "type": "electric_scooter"}, {"fusion_lat": 0.0, "bike_id": "8612f4a70a7a3e6f95af0cc547e35630", "fusion_lon": 0.0, "lon": -77.02841783333334, "lat": 38.934205, "is_reserved": 0, "is_disabled": 0, "rental_uris": {"android": "https://dc.lft.to/lastmile_qr_scan", "ios": "https://dc.lft.to/lastmile_qr_scan"}, "name": "8612f4a70a7a3e6f95af0cc547e35630", "type": "electric_scooter"}, {"fusion_lat": 0.0, "bike_id": "702eec5a164655c2bb5546f89cd6ca21", "fusion_lon": 0.0, "lon": -77.02769766666667, "lat": 38.89201466666667, "is_reserved": 0, "is_disabled": 0, "rental_uris": {"android": "https://dc.lft.to/lastmile_qr_scan", "ios": "https://dc.lft.to/lastmile_qr_scan"}, "name": "702eec5a164655c2bb5546f89cd6ca21", "type": "electric_scooter"}, {"fusion_lat": 0.0, "bike_id": "89462eefec5252ec6bc588bfae878f01", "fusion_lon": 0.0, "lon": -77.066427, "lat": 38.90590566666667, "is_reserved": 0, "is_disabled": 0, "rental_uris": {"android": "https://dc.lft.to/lastmile_qr_scan", "ios": "https://dc.lft.to/lastmile_qr_scan"}, "name": "89462eefec5252ec6bc588bfae878f01", "type": "electric_scooter"}, {"fusion_lat": 0.0, "bike_id": "a19a0489907bc031dcc78ce85651e0dd", "fusion_lon": 0.0, "lon": -76.998339, "lat": 38.894536333333335, "is_reserved": 0, "is_disabled": 0, "rental_uris": {"android": "https://dc.lft.to/lastmile_qr_scan", "ios": "https://dc.lft.to/lastmile_qr_scan"}, "name": "a19a0489907bc031dcc78ce85651e0dd", "type": "electric_scooter"}, {"fusion_lat": 0.0, "bike_id": "2e6151cd2d8d787a309aca9b1cf4b7ce", "fusion_lon": 0.0, "lon": -77.02087583333333, "lat": 38.881848833333336, "is_reserved": 0, "is_disabled": 0, "rental_uris": {"android": "https://dc.lft.to/lastmile_qr_scan", "ios": "https://dc.lft.to/lastmile_qr_scan"}, "name": "2e6151cd2d8d787a309aca9b1cf4b7ce", "type": "electric_scooter"}, {"fusion_lat": 0.0, "bike_id": "3c816d4bae372f9bbb5d8d8659f5ecc3", "fusion_lon": 0.0, "lon": -76.98192383333334, "lat": 38.967446333333335, "is_reserved": 0, "is_disabled": 0, "rental_uris": {"android": "https://dc.lft.to/lastmile_qr_scan", "ios": "https://dc.lft.to/lastmile_qr_scan"}, "name": "3c816d4bae372f9bbb5d8d8659f5ecc3", "type": "electric_bike"}, {"fusion_lat": 0.0, "bike_id": "149fc99c96cfe32793322547ee98ffeb", "fusion_lon": 0.0, "lon": -77.02285733333333, "lat": 38.90784433333334, "is_reserved": 0, "is_disabled": 0, "rental_uris": {"android": "https://dc.lft.to/lastmile_qr_scan", "ios": "https://dc.lft.to/lastmile_qr_scan"}, "name": "149fc99c96cfe32793322547ee98ffeb", "type": "electric_scooter"}, {"fusion_lat": 0.0, "bike_id": "a70f0c63ce830813fb48298c2eac4ccd", "fusion_lon": 0.0, "lon": -77.03437116666667, "lat": 38.93312516666667, "is_reserved": 0, "is_disabled": 0, "rental_uris": {"android": "https://dc.lft.to/lastmile_qr_scan", "ios": "https://dc.lft.to/lastmile_qr_scan"}, "name": "a70f0c63ce830813fb48298c2eac4ccd", "type": "electric_scooter"}, {"fusion_lat": 0.0, "bike_id": "f9035aa3a63fca8d6088552febc98179", "fusion_lon": 0.0, "lon": -77.0376055, "lat": 38.90779766666667, "is_reserved": 0, "is_disabled": 0, "rental_uris": {"android": "https://dc.lft.to/lastmile_qr_scan", "ios": "https://dc.lft.to/lastmile_qr_scan"}, "name": "f9035aa3a63fca8d6088552febc98179", "type": "electric_scooter"}, {"fusion_lat": 0.0, "bike_id": "63b6080b5389d4e730aeaf2b9d5eea38", "fusion_lon": 0.0, "lon": -77.02870083333333, "lat": 38.916969333333334, "is_reserved": 0, "is_disabled": 0, "rental_uris": {"android": "https://dc.lft.to/lastmile_qr_scan", "ios": "https://dc.lft.to/lastmile_qr_scan"}, "name": "63b6080b5389d4e730aeaf2b9d5eea38", "type": "electric_scooter"}, {"fusion_lat": 0.0, "bike_id": "9a23c6bcadd59ae1d6fda2f98a444396", "fusion_lon": 0.0, "lon": -77.013419, "lat": 38.878160333333334, "is_reserved": 0, "is_disabled": 0, "rental_uris": {"android": "https://dc.lft.to/lastmile_qr_scan", "ios": "https://dc.lft.to/lastmile_qr_scan"}, "name": "9a23c6bcadd59ae1d6fda2f98a444396", "type": "electric_scooter"}, {"fusion_lat": 0.0, "bike_id": "8c8ff747aa7b0664d30e9cfe0fa6a8c2", "fusion_lon": 0.0, "lon": -77.022751, "lat": 38.92482833333333, "is_reserved": 0, "is_disabled": 0, "rental_uris": {"android": "https://dc.lft.to/lastmile_qr_scan", "ios": "https://dc.lft.to/lastmile_qr_scan"}, "name": "8c8ff747aa7b0664d30e9cfe0fa6a8c2", "type": "electric_scooter"}, {"fusion_lat": 0.0, "bike_id": "d891447e025a88cf118d334188791a89", "fusion_lon": 0.0, "lon": -77.0364425, "lat": 38.9028515, "is_reserved": 0, "is_disabled": 0, "rental_uris": {"android": "https://dc.lft.to/lastmile_qr_scan", "ios": "https://dc.lft.to/lastmile_qr_scan"}, "name": "d891447e025a88cf118d334188791a89", "type": "electric_scooter"}, {"fusion_lat": 0.0, "bike_id": "33a869189cea4cd1c7ab9e0fc8b0b4ee", "fusion_lon": 0.0, "lon": -77.0176315, "lat": 38.877294666666664, "is_reserved": 0, "is_disabled": 0, "rental_uris": {"android": "https://dc.lft.to/lastmile_qr_scan", "ios": "https://dc.lft.to/lastmile_qr_scan"}, "name": "33a869189cea4cd1c7ab9e0fc8b0b4ee", "type": "electric_scooter"}, {"fusion_lat": 0.0, "bike_id": "7c5fbe143db0751c1e58b147ed9b0cc6", "fusion_lon": 0.0, "lon": -77.03473733333334, "lat": 38.907264, "is_reserved": 0, "is_disabled": 0, "rental_uris": {"android": "https://dc.lft.to/lastmile_qr_scan", "ios": "https://dc.lft.to/lastmile_qr_scan"}, "name": "7c5fbe143db0751c1e58b147ed9b0cc6", "type": "electric_scooter"}, {"fusion_lat": 0.0, "bike_id": "5a1d345705eba189b8360988b305fa03", "fusion_lon": 0.0, "lon": -77.06207183333333, "lat": 38.92045783333333, "is_reserved": 0, "is_disabled": 0, "rental_uris": {"android": "https://dc.lft.to/lastmile_qr_scan", "ios": "https://dc.lft.to/lastmile_qr_scan"}, "name": "5a1d345705eba189b8360988b305fa03", "type": "electric_bike"}, {"fusion_lat": 0.0, "bike_id": "35d929899dfc75712ddd4526cd875788", "fusion_lon": 0.0, "lon": -77.02414666666667, "lat": 38.95735883333333, "is_reserved": 0, "is_disabled": 0, "rental_uris": {"android": "https://dc.lft.to/lastmile_qr_scan", "ios": "https://dc.lft.to/lastmile_qr_scan"}, "name": "35d929899dfc75712ddd4526cd875788", "type": "electric_bike"}, {"fusion_lat": 0.0, "bike_id": "a1b73afffe4fe1dbbdb856492578bbac", "fusion_lon": 0.0, "lon": -77.04172866666667, "lat": 38.92009916666667, "is_reserved": 0, "is_disabled": 0, "rental_uris": {"android": "https://dc.lft.to/lastmile_qr_scan", "ios": "https://dc.lft.to/lastmile_qr_scan"}, "name": "a1b73afffe4fe1dbbdb856492578bbac", "type": "electric_scooter"}, {"fusion_lat": 0.0, "bike_id": "f50f0677dd7e2c7221a6e3f3fba7f6c1", "fusion_lon": 0.0, "lon": -76.9852665, "lat": 38.866848166666664, "is_reserved": 0, "is_disabled": 0, "rental_uris": {"android": "https://dc.lft.to/lastmile_qr_scan", "ios": "https://dc.lft.to/lastmile_qr_scan"}, "name": "f50f0677dd7e2c7221a6e3f3fba7f6c1", "type": "electric_scooter"}, {"fusion_lat": 0.0, "bike_id": "5869cd4af6785722e22a49ef4f1a4361", "fusion_lon": 0.0, "lon": -77.01324066666666, "lat": 38.900169166666664, "is_reserved": 0, "is_disabled": 0, "rental_uris": {"android": "https://dc.lft.to/lastmile_qr_scan", "ios": "https://dc.lft.to/lastmile_qr_scan"}, "name": "5869cd4af6785722e22a49ef4f1a4361", "type": "electric_scooter"}, {"fusion_lat": 0.0, "bike_id": "f54951682ee808a33f94c4a5a905727f", "fusion_lon": 0.0, "lon": -77.03633716666667, "lat": 38.92387466666667, "is_reserved": 0, "is_disabled": 0, "rental_uris": {"android": "https://dc.lft.to/lastmile_qr_scan", "ios": "https://dc.lft.to/lastmile_qr_scan"}, "name": "f54951682ee808a33f94c4a5a905727f", "type": "electric_scooter"}, {"fusion_lat": 0.0, "bike_id": "160b66ee9e4ea83a668d2c2a67b19f42", "fusion_lon": 0.0, "lon": -77.02236033333334, "lat": 38.92243033333333, "is_reserved": 0, "is_disabled": 0, "rental_uris": {"android": "https://dc.lft.to/lastmile_qr_scan", "ios": "https://dc.lft.to/lastmile_qr_scan"}, "name": "160b66ee9e4ea83a668d2c2a67b19f42", "type": "electric_scooter"}, {"fusion_lat": 0.0, "bike_id": "a1419ff8addd43e231a7223c3c062aed", "fusion_lon": 0.0, "lon": -76.938745, "lat": 38.956320833333336, "is_reserved": 0, "is_disabled": 0, "rental_uris": {"android": "https://dc.lft.to/lastmile_qr_scan", "ios": "https://dc.lft.to/lastmile_qr_scan"}, "name": "a1419ff8addd43e231a7223c3c062aed", "type": "electric_bike"}, {"fusion_lat": 0.0, "bike_id": "0dd6f12e42e00ce08f509869e4d448b2", "fusion_lon": 0.0, "lon": -77.03754283333333, "lat": 38.92565866666666, "is_reserved": 0, "is_disabled": 0, "rental_uris": {"android": "https://dc.lft.to/lastmile_qr_scan", "ios": "https://dc.lft.to/lastmile_qr_scan"}, "name": "0dd6f12e42e00ce08f509869e4d448b2", "type": "electric_scooter"}, {"fusion_lat": 0.0, "bike_id": "8d5471bde7ad17be7eac363c5f93fc63", "fusion_lon": 0.0, "lon": -77.02513666666667, "lat": 38.8982515, "is_reserved": 0, "is_disabled": 0, "rental_uris": {"android": "https://dc.lft.to/lastmile_qr_scan", "ios": "https://dc.lft.to/lastmile_qr_scan"}, "name": "8d5471bde7ad17be7eac363c5f93fc63", "type": "electric_bike"}, {"fusion_lat": 0.0, "bike_id": "35432074448a5b2efd9deb529e8e5d03", "fusion_lon": 0.0, "lon": -77.0265645, "lat": 38.92177916666667, "is_reserved": 0, "is_disabled": 0, "rental_uris": {"android": "https://dc.lft.to/lastmile_qr_scan", "ios": "https://dc.lft.to/lastmile_qr_scan"}, "name": "35432074448a5b2efd9deb529e8e5d03", "type": "electric_scooter"}, {"fusion_lat": 0.0, "bike_id": "7ea81f1440fdf3360ef1ecb1ca374490", "fusion_lon": 0.0, "lon": -76.98523633333333, "lat": 38.86687916666666, "is_reserved": 0, "is_disabled": 0, "rental_uris": {"android": "https://dc.lft.to/lastmile_qr_scan", "ios": "https://dc.lft.to/lastmile_qr_scan"}, "name": "7ea81f1440fdf3360ef1ecb1ca374490", "type": "electric_scooter"}, {"fusion_lat": 0.0, "bike_id": "ed336421e49a4e31fc8a665489ce26f0", "fusion_lon": 0.0, "lon": -77.031041, "lat": 38.89229733333333, "is_reserved": 0, "is_disabled": 0, "rental_uris": {"android": "https://dc.lft.to/lastmile_qr_scan", "ios": "https://dc.lft.to/lastmile_qr_scan"}, "name": "ed336421e49a4e31fc8a665489ce26f0", "type": "electric_scooter"}, {"fusion_lat": 0.0, "bike_id": "cc9fbc3331cef2a3fae9bf6214b91a00", "fusion_lon": 0.0, "lon": -77.02292383333334, "lat": 38.916013666666665, "is_reserved": 0, "is_disabled": 0, "rental_uris": {"android": "https://dc.lft.to/lastmile_qr_scan", "ios": "https://dc.lft.to/lastmile_qr_scan"}, "name": "cc9fbc3331cef2a3fae9bf6214b91a00", "type": "electric_scooter"}, {"fusion_lat": 0.0, "bike_id": "4cf0064a0240d657a1b738fbc207e284", "fusion_lon": 0.0, "lon": -77.018781, "lat": 38.93772283333333, "is_reserved": 0, "is_disabled": 0, "rental_uris": {"android": "https://dc.lft.to/lastmile_qr_scan", "ios": "https://dc.lft.to/lastmile_qr_scan"}, "name": "4cf0064a0240d657a1b738fbc207e284", "type": "electric_bike"}, {"fusion_lat": 0.0, "bike_id": "f1c7bab433b13d76f4d7089932725b64", "fusion_lon": 0.0, "lon": -77.022671, "lat": 38.937723, "is_reserved": 0, "is_disabled": 0, "rental_uris": {"android": "https://dc.lft.to/lastmile_qr_scan", "ios": "https://dc.lft.to/lastmile_qr_scan"}, "name": "f1c7bab433b13d76f4d7089932725b64", "type": "electric_scooter"}, {"fusion_lat": 0.0, "bike_id": "999fc8ceb78a3dd4e2bd9ef14614036b", "fusion_lon": 0.0, "lon": -77.04629366666667, "lat": 38.915479833333336, "is_reserved": 0, "is_disabled": 0, "rental_uris": {"android": "https://dc.lft.to/lastmile_qr_scan", "ios": "https://dc.lft.to/lastmile_qr_scan"}, "name": "999fc8ceb78a3dd4e2bd9ef14614036b", "type": "electric_scooter"}, {"fusion_lat": 0.0, "bike_id": "692b0b6b24d78f76730d8ff987c6c0f8", "fusion_lon": 0.0, "lon": -77.04482916666667, "lat": 38.8922845, "is_reserved": 0, "is_disabled": 0, "rental_uris": {"android": "https://dc.lft.to/lastmile_qr_scan", "ios": "https://dc.lft.to/lastmile_qr_scan"}, "name": "692b0b6b24d78f76730d8ff987c6c0f8", "type": "electric_scooter"}, {"fusion_lat": 0.0, "bike_id": "9a74c5b3c3c9d470a4e0135a5810f6d5", "fusion_lon": 0.0, "lon": -76.93058833333333, "lat": 38.88384766666667, "is_reserved": 0, "is_disabled": 0, "rental_uris": {"android": "https://dc.lft.to/lastmile_qr_scan", "ios": "https://dc.lft.to/lastmile_qr_scan"}, "name": "9a74c5b3c3c9d470a4e0135a5810f6d5", "type": "electric_scooter"}, {"fusion_lat": 0.0, "bike_id": "e8fbe0f7e1fc92df63e7db3516cef0b7", "fusion_lon": 0.0, "lon": -77.02296866666667, "lat": 38.916173666666666, "is_reserved": 0, "is_disabled": 0, "rental_uris": {"android": "https://dc.lft.to/lastmile_qr_scan", "ios": "https://dc.lft.to/lastmile_qr_scan"}, "name": "e8fbe0f7e1fc92df63e7db3516cef0b7", "type": "electric_scooter"}, {"fusion_lat": 0.0, "bike_id": "588e16d559544040c4adbd28c3672faa", "fusion_lon": 0.0, "lon": -77.026612, "lat": 38.916977833333334, "is_reserved": 0, "is_disabled": 0, "rental_uris": {"android": "https://dc.lft.to/lastmile_qr_scan", "ios": "https://dc.lft.to/lastmile_qr_scan"}, "name": "588e16d559544040c4adbd28c3672faa", "type": "electric_scooter"}, {"fusion_lat": 0.0, "bike_id": "92d1b27137edd54e786b33ca41581ed6", "fusion_lon": 0.0, "lon": -77.0319975, "lat": 38.910385, "is_reserved": 0, "is_disabled": 0, "rental_uris": {"android": "https://dc.lft.to/lastmile_qr_scan", "ios": "https://dc.lft.to/lastmile_qr_scan"}, "name": "92d1b27137edd54e786b33ca41581ed6", "type": "electric_scooter"}, {"fusion_lat": 0.0, "bike_id": "d9a2752e2f3355134b21b6e88b868aeb", "fusion_lon": 0.0, "lon": -77.02276566666667, "lat": 38.89836283333333, "is_reserved": 0, "is_disabled": 0, "rental_uris": {"android": "https://dc.lft.to/lastmile_qr_scan", "ios": "https://dc.lft.to/lastmile_qr_scan"}, "name": "d9a2752e2f3355134b21b6e88b868aeb", "type": "electric_scooter"}, {"fusion_lat": 0.0, "bike_id": "3cfecb8fdf512224259940f333f38ec3", "fusion_lon": 0.0, "lon": -77.05405966666666, "lat": 38.95049366666667, "is_reserved": 0, "is_disabled": 0, "rental_uris": {"android": "https://dc.lft.to/lastmile_qr_scan", "ios": "https://dc.lft.to/lastmile_qr_scan"}, "name": "3cfecb8fdf512224259940f333f38ec3", "type": "electric_scooter"}, {"fusion_lat": 0.0, "bike_id": "d5fea6785ec1829e03e80f861849a06c", "fusion_lon": 0.0, "lon": -77.043522, "lat": 38.92170083333333, "is_reserved": 0, "is_disabled": 0, "rental_uris": {"android": "https://dc.lft.to/lastmile_qr_scan", "ios": "https://dc.lft.to/lastmile_qr_scan"}, "name": "d5fea6785ec1829e03e80f861849a06c", "type": "electric_scooter"}, {"fusion_lat": 0.0, "bike_id": "d46b47a859f423c619d12b6c65222a02", "fusion_lon": 0.0, "lon": -77.04311516666667, "lat": 38.922174166666665, "is_reserved": 0, "is_disabled": 0, "rental_uris": {"android": "https://dc.lft.to/lastmile_qr_scan", "ios": "https://dc.lft.to/lastmile_qr_scan"}, "name": "d46b47a859f423c619d12b6c65222a02", "type": "electric_scooter"}, {"fusion_lat": 0.0, "bike_id": "ac2e07a7f7938de4f369fc8d88f5a25b", "fusion_lon": 0.0, "lon": -77.00526916666666, "lat": 38.929767, "is_reserved": 0, "is_disabled": 0, "rental_uris": {"android": "https://dc.lft.to/lastmile_qr_scan", "ios": "https://dc.lft.to/lastmile_qr_scan"}, "name": "ac2e07a7f7938de4f369fc8d88f5a25b", "type": "electric_scooter"}, {"fusion_lat": 0.0, "bike_id": "b367390935c59055315f209c20bd129e", "fusion_lon": 0.0, "lon": -77.0469325, "lat": 38.921815333333335, "is_reserved": 0, "is_disabled": 0, "rental_uris": {"android": "https://dc.lft.to/lastmile_qr_scan", "ios": "https://dc.lft.to/lastmile_qr_scan"}, "name": "b367390935c59055315f209c20bd129e", "type": "electric_scooter"}, {"fusion_lat": 0.0, "bike_id": "27546c0d8fe85d1a0902aac5e47689a1", "fusion_lon": 0.0, "lon": -77.05202716666666, "lat": 38.924365333333334, "is_reserved": 0, "is_disabled": 0, "rental_uris": {"android": "https://dc.lft.to/lastmile_qr_scan", "ios": "https://dc.lft.to/lastmile_qr_scan"}, "name": "27546c0d8fe85d1a0902aac5e47689a1", "type": "electric_scooter"}, {"fusion_lat": 0.0, "bike_id": "3bf6cb0c1ca91a04617dd609507c65d0", "fusion_lon": 0.0, "lon": -77.04516483333333, "lat": 38.9232155, "is_reserved": 0, "is_disabled": 0, "rental_uris": {"android": "https://dc.lft.to/lastmile_qr_scan", "ios": "https://dc.lft.to/lastmile_qr_scan"}, "name": "3bf6cb0c1ca91a04617dd609507c65d0", "type": "electric_scooter"}, {"fusion_lat": 0.0, "bike_id": "1355b32e75bf2bd01b4c5cc0381842db", "fusion_lon": 0.0, "lon": -77.05889816666667, "lat": 38.9031385, "is_reserved": 0, "is_disabled": 0, "rental_uris": {"android": "https://dc.lft.to/lastmile_qr_scan", "ios": "https://dc.lft.to/lastmile_qr_scan"}, "name": "1355b32e75bf2bd01b4c5cc0381842db", "type": "electric_scooter"}, {"fusion_lat": 0.0, "bike_id": "623dfee243f8af01e297ac54f21faf98", "fusion_lon": 0.0, "lon": -77.032609, "lat": 38.93206083333333, "is_reserved": 0, "is_disabled": 0, "rental_uris": {"android": "https://dc.lft.to/lastmile_qr_scan", "ios": "https://dc.lft.to/lastmile_qr_scan"}, "name": "623dfee243f8af01e297ac54f21faf98", "type": "electric_scooter"}, {"fusion_lat": 0.0, "bike_id": "80550f78c996aee40abb7ee52ca8a5af", "fusion_lon": 0.0, "lon": -77.0209455, "lat": 38.931172333333336, "is_reserved": 0, "is_disabled": 0, "rental_uris": {"android": "https://dc.lft.to/lastmile_qr_scan", "ios": "https://dc.lft.to/lastmile_qr_scan"}, "name": "80550f78c996aee40abb7ee52ca8a5af", "type": "electric_scooter"}, {"fusion_lat": 0.0, "bike_id": "89e8853b5c24fb1d175d0b5abe1650a7", "fusion_lon": 0.0, "lon": -77.03485483333333, "lat": 38.934448333333336, "is_reserved": 0, "is_disabled": 0, "rental_uris": {"android": "https://dc.lft.to/lastmile_qr_scan", "ios": "https://dc.lft.to/lastmile_qr_scan"}, "name": "89e8853b5c24fb1d175d0b5abe1650a7", "type": "electric_scooter"}, {"fusion_lat": 0.0, "bike_id": "0b46658b881fd40d74fd913e401fa476", "fusion_lon": 0.0, "lon": -77.03648666666666, "lat": 38.923442333333334, "is_reserved": 0, "is_disabled": 0, "rental_uris": {"android": "https://dc.lft.to/lastmile_qr_scan", "ios": "https://dc.lft.to/lastmile_qr_scan"}, "name": "0b46658b881fd40d74fd913e401fa476", "type": "electric_scooter"}, {"fusion_lat": 0.0, "bike_id": "1af0ba0a45e249ef35bdefae3ed114d1", "fusion_lon": 0.0, "lon": -77.0038265, "lat": 38.83601016666667, "is_reserved": 0, "is_disabled": 0, "rental_uris": {"android": "https://dc.lft.to/lastmile_qr_scan", "ios": "https://dc.lft.to/lastmile_qr_scan"}, "name": "1af0ba0a45e249ef35bdefae3ed114d1", "type": "electric_bike"}, {"fusion_lat": 0.0, "bike_id": "fd53944375dad08c023607da7777f10a", "fusion_lon": 0.0, "lon": -77.02658333333333, "lat": 38.916939, "is_reserved": 0, "is_disabled": 0, "rental_uris": {"android": "https://dc.lft.to/lastmile_qr_scan", "ios": "https://dc.lft.to/lastmile_qr_scan"}, "name": "fd53944375dad08c023607da7777f10a", "type": "electric_scooter"}, {"fusion_lat": 0.0, "bike_id": "7be0d7f28887fa81fd4b1acd23c086ca", "fusion_lon": 0.0, "lon": -77.0469515, "lat": 38.921411666666664, "is_reserved": 0, "is_disabled": 0, "rental_uris": {"android": "https://dc.lft.to/lastmile_qr_scan", "ios": "https://dc.lft.to/lastmile_qr_scan"}, "name": "7be0d7f28887fa81fd4b1acd23c086ca", "type": "electric_scooter"}, {"fusion_lat": 0.0, "bike_id": "e392bf9c34386fa2a2c5989fc3bd0225", "fusion_lon": 0.0, "lon": -77.0373815, "lat": 38.9025715, "is_reserved": 0, "is_disabled": 0, "rental_uris": {"android": "https://dc.lft.to/lastmile_qr_scan", "ios": "https://dc.lft.to/lastmile_qr_scan"}, "name": "e392bf9c34386fa2a2c5989fc3bd0225", "type": "electric_scooter"}, {"fusion_lat": 0.0, "bike_id": "ee2c28840b5de5ea9b70978dcf393aa4", "fusion_lon": 0.0, "lon": -76.9929015, "lat": 38.898861833333335, "is_reserved": 0, "is_disabled": 0, "rental_uris": {"android": "https://dc.lft.to/lastmile_qr_scan", "ios": "https://dc.lft.to/lastmile_qr_scan"}, "name": "ee2c28840b5de5ea9b70978dcf393aa4", "type": "electric_scooter"}, {"fusion_lat": 0.0, "bike_id": "abb55353bca641d5ba0bb4302031aaa0", "fusion_lon": 0.0, "lon": -77.041514, "lat": 38.90521716666667, "is_reserved": 0, "is_disabled": 0, "rental_uris": {"android": "https://dc.lft.to/lastmile_qr_scan", "ios": "https://dc.lft.to/lastmile_qr_scan"}, "name": "abb55353bca641d5ba0bb4302031aaa0", "type": "electric_scooter"}, {"fusion_lat": 0.0, "bike_id": "7d59f4e7b0a3334afd2eae32f8670116", "fusion_lon": 0.0, "lon": -77.05545216666667, "lat": 38.93007816666667, "is_reserved": 0, "is_disabled": 0, "rental_uris": {"android": "https://dc.lft.to/lastmile_qr_scan", "ios": "https://dc.lft.to/lastmile_qr_scan"}, "name": "7d59f4e7b0a3334afd2eae32f8670116", "type": "electric_scooter"}, {"fusion_lat": 0.0, "bike_id": "ed380264548b825700856b5127588877", "fusion_lon": 0.0, "lon": -76.98595633333333, "lat": 38.866868833333335, "is_reserved": 0, "is_disabled": 0, "rental_uris": {"android": "https://dc.lft.to/lastmile_qr_scan", "ios": "https://dc.lft.to/lastmile_qr_scan"}, "name": "ed380264548b825700856b5127588877", "type": "electric_scooter"}, {"fusion_lat": 0.0, "bike_id": "a7ff6ec57f8a37794e702ed741b488d9", "fusion_lon": 0.0, "lon": -77.0386175, "lat": 38.90275416666667, "is_reserved": 0, "is_disabled": 0, "rental_uris": {"android": "https://dc.lft.to/lastmile_qr_scan", "ios": "https://dc.lft.to/lastmile_qr_scan"}, "name": "a7ff6ec57f8a37794e702ed741b488d9", "type": "electric_scooter"}, {"fusion_lat": 0.0, "bike_id": "84e88285b11967094b1c3a535492e611", "fusion_lon": 0.0, "lon": -77.04393183333333, "lat": 38.902354333333335, "is_reserved": 0, "is_disabled": 0, "rental_uris": {"android": "https://dc.lft.to/lastmile_qr_scan", "ios": "https://dc.lft.to/lastmile_qr_scan"}, "name": "84e88285b11967094b1c3a535492e611", "type": "electric_scooter"}, {"fusion_lat": 0.0, "bike_id": "e25e88fc774182e4b3dea56fa3da4183", "fusion_lon": 0.0, "lon": -77.026259, "lat": 38.962182166666665, "is_reserved": 0, "is_disabled": 0, "rental_uris": {"android": "https://dc.lft.to/lastmile_qr_scan", "ios": "https://dc.lft.to/lastmile_qr_scan"}, "name": "e25e88fc774182e4b3dea56fa3da4183", "type": "electric_bike"}, {"fusion_lat": 0.0, "bike_id": "c254c815464b4e3028be04ad7912538f", "fusion_lon": 0.0, "lon": -76.99479883333333, "lat": 38.88610516666667, "is_reserved": 0, "is_disabled": 0, "rental_uris": {"android": "https://dc.lft.to/lastmile_qr_scan", "ios": "https://dc.lft.to/lastmile_qr_scan"}, "name": "c254c815464b4e3028be04ad7912538f", "type": "electric_scooter"}, {"fusion_lat": 0.0, "bike_id": "f39906fa81edf56ede20b6fe87ce9961", "fusion_lon": 0.0, "lon": -76.98283833333333, "lat": 38.91642, "is_reserved": 0, "is_disabled": 0, "rental_uris": {"android": "https://dc.lft.to/lastmile_qr_scan", "ios": "https://dc.lft.to/lastmile_qr_scan"}, "name": "f39906fa81edf56ede20b6fe87ce9961", "type": "electric_scooter"}, {"fusion_lat": 0.0, "bike_id": "ac98aa15005cdffa454a8ee36635d0f4", "fusion_lon": 0.0, "lon": -77.05178933333333, "lat": 38.924278666666666, "is_reserved": 0, "is_disabled": 0, "rental_uris": {"android": "https://dc.lft.to/lastmile_qr_scan", "ios": "https://dc.lft.to/lastmile_qr_scan"}, "name": "ac98aa15005cdffa454a8ee36635d0f4", "type": "electric_scooter"}, {"fusion_lat": 0.0, "bike_id": "13fc94ae1cd54ce991781b80ebd6d1a8", "fusion_lon": 0.0, "lon": -77.02534316666667, "lat": 38.92748816666667, "is_reserved": 0, "is_disabled": 0, "rental_uris": {"android": "https://dc.lft.to/lastmile_qr_scan", "ios": "https://dc.lft.to/lastmile_qr_scan"}, "name": "13fc94ae1cd54ce991781b80ebd6d1a8", "type": "electric_scooter"}, {"fusion_lat": 0.0, "bike_id": "f8c29882121a449b59b2cdcb1c0d9719", "fusion_lon": 0.0, "lon": -77.01806816666667, "lat": 38.902788666666666, "is_reserved": 0, "is_disabled": 0, "rental_uris": {"android": "https://dc.lft.to/lastmile_qr_scan", "ios": "https://dc.lft.to/lastmile_qr_scan"}, "name": "f8c29882121a449b59b2cdcb1c0d9719", "type": "electric_scooter"}, {"fusion_lat": 0.0, "bike_id": "049e3255523a563d12a67dc5ec03e053", "fusion_lon": 0.0, "lon": -77.04319, "lat": 38.909525333333335, "is_reserved": 0, "is_disabled": 0, "rental_uris": {"android": "https://dc.lft.to/lastmile_qr_scan", "ios": "https://dc.lft.to/lastmile_qr_scan"}, "name": "049e3255523a563d12a67dc5ec03e053", "type": "electric_scooter"}, {"fusion_lat": 0.0, "bike_id": "fe9777942a9f462b811cf1af63dad7a9", "fusion_lon": 0.0, "lon": -77.04774166666667, "lat": 38.905135333333334, "is_reserved": 0, "is_disabled": 0, "rental_uris": {"android": "https://dc.lft.to/lastmile_qr_scan", "ios": "https://dc.lft.to/lastmile_qr_scan"}, "name": "fe9777942a9f462b811cf1af63dad7a9", "type": "electric_scooter"}, {"fusion_lat": 0.0, "bike_id": "3223c803dd0ed6e13fc8c3e0790c5e61", "fusion_lon": 0.0, "lon": -77.032621, "lat": 38.9309865, "is_reserved": 0, "is_disabled": 0, "rental_uris": {"android": "https://dc.lft.to/lastmile_qr_scan", "ios": "https://dc.lft.to/lastmile_qr_scan"}, "name": "3223c803dd0ed6e13fc8c3e0790c5e61", "type": "electric_scooter"}, {"fusion_lat": 0.0, "bike_id": "d56833604aa0456e134517d02d8d6880", "fusion_lon": 0.0, "lon": -77.01218133333333, "lat": 38.899059666666666, "is_reserved": 0, "is_disabled": 0, "rental_uris": {"android": "https://dc.lft.to/lastmile_qr_scan", "ios": "https://dc.lft.to/lastmile_qr_scan"}, "name": "d56833604aa0456e134517d02d8d6880", "type": "electric_scooter"}, {"fusion_lat": 0.0, "bike_id": "fc4baabbfb66904340317b31afcc2be1", "fusion_lon": 0.0, "lon": -76.994741, "lat": 38.862143, "is_reserved": 0, "is_disabled": 0, "rental_uris": {"android": "https://dc.lft.to/lastmile_qr_scan", "ios": "https://dc.lft.to/lastmile_qr_scan"}, "name": "fc4baabbfb66904340317b31afcc2be1", "type": "electric_scooter"}, {"fusion_lat": 0.0, "bike_id": "b4aa6199329e088a59a5139e54ff7df3", "fusion_lon": 0.0, "lon": -77.04278766666667, "lat": 38.9111475, "is_reserved": 0, "is_disabled": 0, "rental_uris": {"android": "https://dc.lft.to/lastmile_qr_scan", "ios": "https://dc.lft.to/lastmile_qr_scan"}, "name": "b4aa6199329e088a59a5139e54ff7df3", "type": "electric_scooter"}, {"fusion_lat": 0.0, "bike_id": "a66a9eb6b4afe98c31689ae1e917ccb6", "fusion_lon": 0.0, "lon": -77.018558, "lat": 38.91495066666667, "is_reserved": 0, "is_disabled": 0, "rental_uris": {"android": "https://dc.lft.to/lastmile_qr_scan", "ios": "https://dc.lft.to/lastmile_qr_scan"}, "name": "a66a9eb6b4afe98c31689ae1e917ccb6", "type": "electric_scooter"}, {"fusion_lat": 0.0, "bike_id": "3a9386ea9a9ec7f94b4e097fd8c54241", "fusion_lon": 0.0, "lon": -77.03201366666667, "lat": 38.90947383333334, "is_reserved": 0, "is_disabled": 0, "rental_uris": {"android": "https://dc.lft.to/lastmile_qr_scan", "ios": "https://dc.lft.to/lastmile_qr_scan"}, "name": "3a9386ea9a9ec7f94b4e097fd8c54241", "type": "electric_scooter"}, {"fusion_lat": 0.0, "bike_id": "a387bc85d8fd0bf4756e533150adf47b", "fusion_lon": 0.0, "lon": -77.0629965, "lat": 38.90603683333333, "is_reserved": 0, "is_disabled": 0, "rental_uris": {"android": "https://dc.lft.to/lastmile_qr_scan", "ios": "https://dc.lft.to/lastmile_qr_scan"}, "name": "a387bc85d8fd0bf4756e533150adf47b", "type": "electric_scooter"}, {"fusion_lat": 0.0, "bike_id": "0ca479af52e87780c5511d2ff03458cc", "fusion_lon": 0.0, "lon": -77.033261, "lat": 38.947155333333335, "is_reserved": 0, "is_disabled": 0, "rental_uris": {"android": "https://dc.lft.to/lastmile_qr_scan", "ios": "https://dc.lft.to/lastmile_qr_scan"}, "name": "0ca479af52e87780c5511d2ff03458cc", "type": "electric_scooter"}, {"fusion_lat": 0.0, "bike_id": "e3a09566a4a712c52ab090564f8aac6b", "fusion_lon": 0.0, "lon": -76.99867516666667, "lat": 38.900273166666665, "is_reserved": 0, "is_disabled": 0, "rental_uris": {"android": "https://dc.lft.to/lastmile_qr_scan", "ios": "https://dc.lft.to/lastmile_qr_scan"}, "name": "e3a09566a4a712c52ab090564f8aac6b", "type": "electric_scooter"}, {"fusion_lat": 0.0, "bike_id": "6204b2e3d7c488a76487b109ef9e83a8", "fusion_lon": 0.0, "lon": -76.986125, "lat": 38.938303, "is_reserved": 0, "is_disabled": 0, "rental_uris": {"android": "https://dc.lft.to/lastmile_qr_scan", "ios": "https://dc.lft.to/lastmile_qr_scan"}, "name": "6204b2e3d7c488a76487b109ef9e83a8", "type": "electric_scooter"}, {"fusion_lat": 0.0, "bike_id": "9c593ebab3c1ed4c268c97e2e2c9d7b5", "fusion_lon": 0.0, "lon": -77.03204716666667, "lat": 38.909501166666665, "is_reserved": 0, "is_disabled": 0, "rental_uris": {"android": "https://dc.lft.to/lastmile_qr_scan", "ios": "https://dc.lft.to/lastmile_qr_scan"}, "name": "9c593ebab3c1ed4c268c97e2e2c9d7b5", "type": "electric_scooter"}, {"fusion_lat": 0.0, "bike_id": "65f9fe154cd14ee114e5cb9d4882ab2c", "fusion_lon": 0.0, "lon": -76.9897615, "lat": 38.85921883333334, "is_reserved": 0, "is_disabled": 0, "rental_uris": {"android": "https://dc.lft.to/lastmile_qr_scan", "ios": "https://dc.lft.to/lastmile_qr_scan"}, "name": "65f9fe154cd14ee114e5cb9d4882ab2c", "type": "electric_scooter"}, {"fusion_lat": 0.0, "bike_id": "be0543438cfa6e04550a226a312c48e3", "fusion_lon": 0.0, "lon": -76.9852485, "lat": 38.866889, "is_reserved": 0, "is_disabled": 0, "rental_uris": {"android": "https://dc.lft.to/lastmile_qr_scan", "ios": "https://dc.lft.to/lastmile_qr_scan"}, "name": "be0543438cfa6e04550a226a312c48e3", "type": "electric_scooter"}, {"fusion_lat": 0.0, "bike_id": "7fcb56ca4a6725af086af218257418e7", "fusion_lon": 0.0, "lon": -77.0176975, "lat": 38.90361016666667, "is_reserved": 0, "is_disabled": 0, "rental_uris": {"android": "https://dc.lft.to/lastmile_qr_scan", "ios": "https://dc.lft.to/lastmile_qr_scan"}, "name": "7fcb56ca4a6725af086af218257418e7", "type": "electric_scooter"}, {"fusion_lat": 0.0, "bike_id": "4f3f920744daff344049423ca5fe4b34", "fusion_lon": 0.0, "lon": -76.98492183333333, "lat": 38.87838283333333, "is_reserved": 0, "is_disabled": 0, "rental_uris": {"android": "https://dc.lft.to/lastmile_qr_scan", "ios": "https://dc.lft.to/lastmile_qr_scan"}, "name": "4f3f920744daff344049423ca5fe4b34", "type": "electric_scooter"}, {"fusion_lat": 0.0, "bike_id": "336f4028c9bf0e3353228bf69cb799a7", "fusion_lon": 0.0, "lon": -77.03549183333334, "lat": 38.92477183333333, "is_reserved": 0, "is_disabled": 0, "rental_uris": {"android": "https://dc.lft.to/lastmile_qr_scan", "ios": "https://dc.lft.to/lastmile_qr_scan"}, "name": "336f4028c9bf0e3353228bf69cb799a7", "type": "electric_scooter"}, {"fusion_lat": 0.0, "bike_id": "b612480176fe40b73d2920610411acc2", "fusion_lon": 0.0, "lon": -77.04805566666667, "lat": 38.9021655, "is_reserved": 0, "is_disabled": 0, "rental_uris": {"android": "https://dc.lft.to/lastmile_qr_scan", "ios": "https://dc.lft.to/lastmile_qr_scan"}, "name": "b612480176fe40b73d2920610411acc2", "type": "electric_scooter"}, {"fusion_lat": 0.0, "bike_id": "478ea63f0fe263aea17770ab97242c44", "fusion_lon": 0.0, "lon": -77.03921583333333, "lat": 38.91838816666667, "is_reserved": 0, "is_disabled": 0, "rental_uris": {"android": "https://dc.lft.to/lastmile_qr_scan", "ios": "https://dc.lft.to/lastmile_qr_scan"}, "name": "478ea63f0fe263aea17770ab97242c44", "type": "electric_scooter"}, {"fusion_lat": 0.0, "bike_id": "12d8dc49f3d5629bf32b0fcc77f05dea", "fusion_lon": 0.0, "lon": -77.0450075, "lat": 38.892293333333335, "is_reserved": 0, "is_disabled": 0, "rental_uris": {"android": "https://dc.lft.to/lastmile_qr_scan", "ios": "https://dc.lft.to/lastmile_qr_scan"}, "name": "12d8dc49f3d5629bf32b0fcc77f05dea", "type": "electric_scooter"}, {"fusion_lat": 0.0, "bike_id": "902aa4d277ac31600168a3f6f342089a", "fusion_lon": 0.0, "lon": -77.022529, "lat": 38.92469883333333, "is_reserved": 0, "is_disabled": 0, "rental_uris": {"android": "https://dc.lft.to/lastmile_qr_scan", "ios": "https://dc.lft.to/lastmile_qr_scan"}, "name": "902aa4d277ac31600168a3f6f342089a", "type": "electric_scooter"}, {"fusion_lat": 0.0, "bike_id": "c327778ed2d4974cc2ed0daf48bd8542", "fusion_lon": 0.0, "lon": -76.99058716666667, "lat": 38.8637735, "is_reserved": 0, "is_disabled": 0, "rental_uris": {"android": "https://dc.lft.to/lastmile_qr_scan", "ios": "https://dc.lft.to/lastmile_qr_scan"}, "name": "c327778ed2d4974cc2ed0daf48bd8542", "type": "electric_scooter"}, {"fusion_lat": 0.0, "bike_id": "420211940a16191bb258ad33e13f65bc", "fusion_lon": 0.0, "lon": -77.0235985, "lat": 38.8922195, "is_reserved": 0, "is_disabled": 0, "rental_uris": {"android": "https://dc.lft.to/lastmile_qr_scan", "ios": "https://dc.lft.to/lastmile_qr_scan"}, "name": "420211940a16191bb258ad33e13f65bc", "type": "electric_scooter"}, {"fusion_lat": 0.0, "bike_id": "de50b645dbb66361a61308d424aa83b1", "fusion_lon": 0.0, "lon": -77.03513416666667, "lat": 38.903559, "is_reserved": 0, "is_disabled": 0, "rental_uris": {"android": "https://dc.lft.to/lastmile_qr_scan", "ios": "https://dc.lft.to/lastmile_qr_scan"}, "name": "de50b645dbb66361a61308d424aa83b1", "type": "electric_scooter"}, {"fusion_lat": 0.0, "bike_id": "a70bd020581128aafade776a238af450", "fusion_lon": 0.0, "lon": -77.00546083333333, "lat": 38.8746225, "is_reserved": 0, "is_disabled": 0, "rental_uris": {"android": "https://dc.lft.to/lastmile_qr_scan", "ios": "https://dc.lft.to/lastmile_qr_scan"}, "name": "a70bd020581128aafade776a238af450", "type": "electric_scooter"}, {"fusion_lat": 0.0, "bike_id": "c2677918367b24705c07f1f62bbee16c", "fusion_lon": 0.0, "lon": -77.05895583333333, "lat": 38.901619333333336, "is_reserved": 0, "is_disabled": 0, "rental_uris": {"android": "https://dc.lft.to/lastmile_qr_scan", "ios": "https://dc.lft.to/lastmile_qr_scan"}, "name": "c2677918367b24705c07f1f62bbee16c", "type": "electric_scooter"}, {"fusion_lat": 0.0, "bike_id": "2ab0c9374a18c678c56a1762d0ad5135", "fusion_lon": 0.0, "lon": -76.96088116666667, "lat": 38.91857, "is_reserved": 0, "is_disabled": 0, "rental_uris": {"android": "https://dc.lft.to/lastmile_qr_scan", "ios": "https://dc.lft.to/lastmile_qr_scan"}, "name": "2ab0c9374a18c678c56a1762d0ad5135", "type": "electric_scooter"}, {"fusion_lat": 0.0, "bike_id": "f4997e4d0d386af2c5addddfe53caf68", "fusion_lon": 0.0, "lon": -77.04488533333334, "lat": 38.91360183333333, "is_reserved": 0, "is_disabled": 0, "rental_uris": {"android": "https://dc.lft.to/lastmile_qr_scan", "ios": "https://dc.lft.to/lastmile_qr_scan"}, "name": "f4997e4d0d386af2c5addddfe53caf68", "type": "electric_scooter"}, {"fusion_lat": 0.0, "bike_id": "62690e55f2315e4e65ab63066f56c1ec", "fusion_lon": 0.0, "lon": -77.02100416666667, "lat": 38.897428166666664, "is_reserved": 0, "is_disabled": 0, "rental_uris": {"android": "https://dc.lft.to/lastmile_qr_scan", "ios": "https://dc.lft.to/lastmile_qr_scan"}, "name": "62690e55f2315e4e65ab63066f56c1ec", "type": "electric_scooter"}, {"fusion_lat": 0.0, "bike_id": "4048f669c3ef9528956be53a3fe488af", "fusion_lon": 0.0, "lon": -77.018882, "lat": 38.93097783333333, "is_reserved": 0, "is_disabled": 0, "rental_uris": {"android": "https://dc.lft.to/lastmile_qr_scan", "ios": "https://dc.lft.to/lastmile_qr_scan"}, "name": "4048f669c3ef9528956be53a3fe488af", "type": "electric_scooter"}, {"fusion_lat": 0.0, "bike_id": "1ece6641f5eced10998eb961528d7789", "fusion_lon": 0.0, "lon": -77.02211916666667, "lat": 38.90548116666667, "is_reserved": 0, "is_disabled": 0, "rental_uris": {"android": "https://dc.lft.to/lastmile_qr_scan", "ios": "https://dc.lft.to/lastmile_qr_scan"}, "name": "1ece6641f5eced10998eb961528d7789", "type": "electric_scooter"}, {"fusion_lat": 0.0, "bike_id": "2abf654f738708872a3416a5e445719b", "fusion_lon": 0.0, "lon": -77.02384483333333, "lat": 38.8923485, "is_reserved": 0, "is_disabled": 0, "rental_uris": {"android": "https://dc.lft.to/lastmile_qr_scan", "ios": "https://dc.lft.to/lastmile_qr_scan"}, "name": "2abf654f738708872a3416a5e445719b", "type": "electric_scooter"}, {"fusion_lat": 0.0, "bike_id": "6d891170627ae6ced1e871c93a54f162", "fusion_lon": 0.0, "lon": -76.98211916666666, "lat": 38.9081175, "is_reserved": 0, "is_disabled": 0, "rental_uris": {"android": "https://dc.lft.to/lastmile_qr_scan", "ios": "https://dc.lft.to/lastmile_qr_scan"}, "name": "6d891170627ae6ced1e871c93a54f162", "type": "electric_scooter"}, {"fusion_lat": 0.0, "bike_id": "8ac3d4112c1fae777273be9013e71002", "fusion_lon": 0.0, "lon": -76.94885233333333, "lat": 38.89512333333333, "is_reserved": 0, "is_disabled": 0, "rental_uris": {"android": "https://dc.lft.to/lastmile_qr_scan", "ios": "https://dc.lft.to/lastmile_qr_scan"}, "name": "8ac3d4112c1fae777273be9013e71002", "type": "electric_scooter"}, {"fusion_lat": 0.0, "bike_id": "c45067384616dd0412701657d6a45bbd", "fusion_lon": 0.0, "lon": -77.02781, "lat": 38.89605666666667, "is_reserved": 0, "is_disabled": 0, "rental_uris": {"android": "https://dc.lft.to/lastmile_qr_scan", "ios": "https://dc.lft.to/lastmile_qr_scan"}, "name": "c45067384616dd0412701657d6a45bbd", "type": "electric_scooter"}, {"fusion_lat": 0.0, "bike_id": "68dcc039d5ad6f84b509c2c0da7f1a72", "fusion_lon": 0.0, "lon": -77.04334483333334, "lat": 38.89223116666667, "is_reserved": 0, "is_disabled": 0, "rental_uris": {"android": "https://dc.lft.to/lastmile_qr_scan", "ios": "https://dc.lft.to/lastmile_qr_scan"}, "name": "68dcc039d5ad6f84b509c2c0da7f1a72", "type": "electric_scooter"}, {"fusion_lat": 0.0, "bike_id": "051935d44ff6197eaf7951b3fa438781", "fusion_lon": 0.0, "lon": -77.04411483333334, "lat": 38.89739516666667, "is_reserved": 0, "is_disabled": 0, "rental_uris": {"android": "https://dc.lft.to/lastmile_qr_scan", "ios": "https://dc.lft.to/lastmile_qr_scan"}, "name": "051935d44ff6197eaf7951b3fa438781", "type": "electric_scooter"}, {"fusion_lat": 0.0, "bike_id": "10a4cf3f3253c3c624553c0cbe80ba62", "fusion_lon": 0.0, "lon": -77.04502483333333, "lat": 38.89222866666667, "is_reserved": 0, "is_disabled": 0, "rental_uris": {"android": "https://dc.lft.to/lastmile_qr_scan", "ios": "https://dc.lft.to/lastmile_qr_scan"}, "name": "10a4cf3f3253c3c624553c0cbe80ba62", "type": "electric_scooter"}, {"fusion_lat": 0.0, "bike_id": "602c6de7fdbf891a3059b3d5837bccf2", "fusion_lon": 0.0, "lon": -77.02445966666667, "lat": 38.91414616666667, "is_reserved": 0, "is_disabled": 0, "rental_uris": {"android": "https://dc.lft.to/lastmile_qr_scan", "ios": "https://dc.lft.to/lastmile_qr_scan"}, "name": "602c6de7fdbf891a3059b3d5837bccf2", "type": "electric_scooter"}, {"fusion_lat": 0.0, "bike_id": "8c9c715bb59cc3df3a50b3ff110525d7", "fusion_lon": 0.0, "lon": -77.02384166666667, "lat": 38.89819333333333, "is_reserved": 0, "is_disabled": 0, "rental_uris": {"android": "https://dc.lft.to/lastmile_qr_scan", "ios": "https://dc.lft.to/lastmile_qr_scan"}, "name": "8c9c715bb59cc3df3a50b3ff110525d7", "type": "electric_scooter"}, {"fusion_lat": 0.0, "bike_id": "06942210ad11fe5a8c7c77cd7be39b72", "fusion_lon": 0.0, "lon": -77.00464116666667, "lat": 38.8766355, "is_reserved": 0, "is_disabled": 0, "rental_uris": {"android": "https://dc.lft.to/lastmile_qr_scan", "ios": "https://dc.lft.to/lastmile_qr_scan"}, "name": "06942210ad11fe5a8c7c77cd7be39b72", "type": "electric_scooter"}, {"fusion_lat": 0.0, "bike_id": "1fc83aa47216f6a2d2a4b8cf67365c1f", "fusion_lon": 0.0, "lon": -76.99060683333333, "lat": 38.86378366666667, "is_reserved": 0, "is_disabled": 0, "rental_uris": {"android": "https://dc.lft.to/lastmile_qr_scan", "ios": "https://dc.lft.to/lastmile_qr_scan"}, "name": "1fc83aa47216f6a2d2a4b8cf67365c1f", "type": "electric_scooter"}, {"fusion_lat": 0.0, "bike_id": "88f0d94ca06a5ed720ba483b4dfe11e6", "fusion_lon": 0.0, "lon": -77.1048165, "lat": 38.8560225, "is_reserved": 0, "is_disabled": 0, "rental_uris": {"android": "https://dc.lft.to/lastmile_qr_scan", "ios": "https://dc.lft.to/lastmile_qr_scan"}, "name": "88f0d94ca06a5ed720ba483b4dfe11e6", "type": "electric_bike"}, {"fusion_lat": 0.0, "bike_id": "cf7e77f3d3b0eb4bde7f9319a35470dd", "fusion_lon": 0.0, "lon": -77.03248883333333, "lat": 38.92868266666667, "is_reserved": 0, "is_disabled": 0, "rental_uris": {"android": "https://dc.lft.to/lastmile_qr_scan", "ios": "https://dc.lft.to/lastmile_qr_scan"}, "name": "cf7e77f3d3b0eb4bde7f9319a35470dd", "type": "electric_scooter"}, {"fusion_lat": 0.0, "bike_id": "59f35f4cb1495ee0fecab7008460f008", "fusion_lon": 0.0, "lon": -77.02777483333334, "lat": 38.8921985, "is_reserved": 0, "is_disabled": 0, "rental_uris": {"android": "https://dc.lft.to/lastmile_qr_scan", "ios": "https://dc.lft.to/lastmile_qr_scan"}, "name": "59f35f4cb1495ee0fecab7008460f008", "type": "electric_scooter"}, {"fusion_lat": 0.0, "bike_id": "31708d65958df6afc7cc4288a1703fa6", "fusion_lon": 0.0, "lon": -76.99496033333334, "lat": 38.899247333333335, "is_reserved": 0, "is_disabled": 0, "rental_uris": {"android": "https://dc.lft.to/lastmile_qr_scan", "ios": "https://dc.lft.to/lastmile_qr_scan"}, "name": "31708d65958df6afc7cc4288a1703fa6", "type": "electric_scooter"}, {"fusion_lat": 0.0, "bike_id": "0358f87cbeef1741732e3a89fda8663b", "fusion_lon": 0.0, "lon": -77.06171616666667, "lat": 38.90516816666667, "is_reserved": 0, "is_disabled": 0, "rental_uris": {"android": "https://dc.lft.to/lastmile_qr_scan", "ios": "https://dc.lft.to/lastmile_qr_scan"}, "name": "0358f87cbeef1741732e3a89fda8663b", "type": "electric_scooter"}, {"fusion_lat": 0.0, "bike_id": "6e5399e34391b0552207d6ebdb3ef051", "fusion_lon": 0.0, "lon": -77.01780966666666, "lat": 38.918776333333334, "is_reserved": 0, "is_disabled": 0, "rental_uris": {"android": "https://dc.lft.to/lastmile_qr_scan", "ios": "https://dc.lft.to/lastmile_qr_scan"}, "name": "6e5399e34391b0552207d6ebdb3ef051", "type": "electric_scooter"}, {"fusion_lat": 0.0, "bike_id": "8f1ec11f71b4d8e6fb0a55a7ebe78094", "fusion_lon": 0.0, "lon": -76.98582283333333, "lat": 38.908091666666664, "is_reserved": 0, "is_disabled": 0, "rental_uris": {"android": "https://dc.lft.to/lastmile_qr_scan", "ios": "https://dc.lft.to/lastmile_qr_scan"}, "name": "8f1ec11f71b4d8e6fb0a55a7ebe78094", "type": "electric_scooter"}, {"fusion_lat": 0.0, "bike_id": "208e217d1a1da367a8cd1be79e082909", "fusion_lon": 0.0, "lon": -77.04345033333334, "lat": 38.9012795, "is_reserved": 0, "is_disabled": 0, "rental_uris": {"android": "https://dc.lft.to/lastmile_qr_scan", "ios": "https://dc.lft.to/lastmile_qr_scan"}, "name": "208e217d1a1da367a8cd1be79e082909", "type": "electric_scooter"}, {"fusion_lat": 0.0, "bike_id": "11c31d2a748cd694d65c5ef78afa0199", "fusion_lon": 0.0, "lon": -77.046452, "lat": 38.91575133333333, "is_reserved": 0, "is_disabled": 0, "rental_uris": {"android": "https://dc.lft.to/lastmile_qr_scan", "ios": "https://dc.lft.to/lastmile_qr_scan"}, "name": "11c31d2a748cd694d65c5ef78afa0199", "type": "electric_scooter"}, {"fusion_lat": 0.0, "bike_id": "2031dbbf9303656a5802682a285f8bab", "fusion_lon": 0.0, "lon": -77.0341965, "lat": 38.91922066666667, "is_reserved": 0, "is_disabled": 0, "rental_uris": {"android": "https://dc.lft.to/lastmile_qr_scan", "ios": "https://dc.lft.to/lastmile_qr_scan"}, "name": "2031dbbf9303656a5802682a285f8bab", "type": "electric_scooter"}, {"fusion_lat": 0.0, "bike_id": "0945991849d77db94764462fbda39455", "fusion_lon": 0.0, "lon": -77.02426633333333, "lat": 38.89223716666667, "is_reserved": 0, "is_disabled": 0, "rental_uris": {"android": "https://dc.lft.to/lastmile_qr_scan", "ios": "https://dc.lft.to/lastmile_qr_scan"}, "name": "0945991849d77db94764462fbda39455", "type": "electric_scooter"}, {"fusion_lat": 0.0, "bike_id": "9ccfb2f70de864f31ec9fd87d8964fa9", "fusion_lon": 0.0, "lon": -77.04337616666666, "lat": 38.9221835, "is_reserved": 0, "is_disabled": 0, "rental_uris": {"android": "https://dc.lft.to/lastmile_qr_scan", "ios": "https://dc.lft.to/lastmile_qr_scan"}, "name": "9ccfb2f70de864f31ec9fd87d8964fa9", "type": "electric_scooter"}, {"fusion_lat": 0.0, "bike_id": "b0cde37be312bc993025d25e6ec7180b", "fusion_lon": 0.0, "lon": -76.93302716666666, "lat": 38.891964, "is_reserved": 0, "is_disabled": 0, "rental_uris": {"android": "https://dc.lft.to/lastmile_qr_scan", "ios": "https://dc.lft.to/lastmile_qr_scan"}, "name": "b0cde37be312bc993025d25e6ec7180b", "type": "electric_scooter"}, {"fusion_lat": 0.0, "bike_id": "978bf7d708de7449713fb3fc28faa2ed", "fusion_lon": 0.0, "lon": -76.93752583333334, "lat": 38.8903595, "is_reserved": 0, "is_disabled": 0, "rental_uris": {"android": "https://dc.lft.to/lastmile_qr_scan", "ios": "https://dc.lft.to/lastmile_qr_scan"}, "name": "978bf7d708de7449713fb3fc28faa2ed", "type": "electric_scooter"}, {"fusion_lat": 0.0, "bike_id": "b0158883ec0560fb6ea7d5dbff9b3b25", "fusion_lon": 0.0, "lon": -77.00059866666666, "lat": 38.894980333333336, "is_reserved": 0, "is_disabled": 0, "rental_uris": {"android": "https://dc.lft.to/lastmile_qr_scan", "ios": "https://dc.lft.to/lastmile_qr_scan"}, "name": "b0158883ec0560fb6ea7d5dbff9b3b25", "type": "electric_scooter"}, {"fusion_lat": 0.0, "bike_id": "13780b0b1f3d98f95c86324bd8b4cb08", "fusion_lon": 0.0, "lon": -77.0515865, "lat": 39.043106333333334, "is_reserved": 0, "is_disabled": 0, "rental_uris": {"android": "https://dc.lft.to/lastmile_qr_scan", "ios": "https://dc.lft.to/lastmile_qr_scan"}, "name": "13780b0b1f3d98f95c86324bd8b4cb08", "type": "electric_bike"}, {"fusion_lat": 0.0, "bike_id": "64f836e2f9895f4b02b047b2dacde541", "fusion_lon": 0.0, "lon": -77.04532816666666, "lat": 38.891955, "is_reserved": 0, "is_disabled": 0, "rental_uris": {"android": "https://dc.lft.to/lastmile_qr_scan", "ios": "https://dc.lft.to/lastmile_qr_scan"}, "name": "64f836e2f9895f4b02b047b2dacde541", "type": "electric_scooter"}, {"fusion_lat": 0.0, "bike_id": "7ad6d171ed2405b20585dd5a5945c2bc", "fusion_lon": 0.0, "lon": -77.04038983333334, "lat": 38.91856833333333, "is_reserved": 0, "is_disabled": 0, "rental_uris": {"android": "https://dc.lft.to/lastmile_qr_scan", "ios": "https://dc.lft.to/lastmile_qr_scan"}, "name": "7ad6d171ed2405b20585dd5a5945c2bc", "type": "electric_scooter"}, {"fusion_lat": 0.0, "bike_id": "b8709281d331bd28f3c5c469c73cc9da", "fusion_lon": 0.0, "lon": -77.01493466666666, "lat": 38.8922215, "is_reserved": 0, "is_disabled": 0, "rental_uris": {"android": "https://dc.lft.to/lastmile_qr_scan", "ios": "https://dc.lft.to/lastmile_qr_scan"}, "name": "b8709281d331bd28f3c5c469c73cc9da", "type": "electric_scooter"}, {"fusion_lat": 0.0, "bike_id": "cac5805b2bd245c02082d9bd64f37d6f", "fusion_lon": 0.0, "lon": -77.02585666666667, "lat": 38.920336, "is_reserved": 0, "is_disabled": 0, "rental_uris": {"android": "https://dc.lft.to/lastmile_qr_scan", "ios": "https://dc.lft.to/lastmile_qr_scan"}, "name": "cac5805b2bd245c02082d9bd64f37d6f", "type": "electric_scooter"}, {"fusion_lat": 0.0, "bike_id": "70378c5d53dcf2c1d769dfd7ca68f6b9", "fusion_lon": 0.0, "lon": -77.03859666666666, "lat": 38.932440166666666, "is_reserved": 0, "is_disabled": 0, "rental_uris": {"android": "https://dc.lft.to/lastmile_qr_scan", "ios": "https://dc.lft.to/lastmile_qr_scan"}, "name": "70378c5d53dcf2c1d769dfd7ca68f6b9", "type": "electric_scooter"}, {"fusion_lat": 0.0, "bike_id": "59ed5a1451d7a519523707f20213def3", "fusion_lon": 0.0, "lon": -77.056927, "lat": 38.93716766666667, "is_reserved": 0, "is_disabled": 0, "rental_uris": {"android": "https://dc.lft.to/lastmile_qr_scan", "ios": "https://dc.lft.to/lastmile_qr_scan"}, "name": "59ed5a1451d7a519523707f20213def3", "type": "electric_scooter"}, {"fusion_lat": 0.0, "bike_id": "96e6358dbde8d136c18f4c1313d9d357", "fusion_lon": 0.0, "lon": -77.025769, "lat": 38.9440965, "is_reserved": 0, "is_disabled": 0, "rental_uris": {"android": "https://dc.lft.to/lastmile_qr_scan", "ios": "https://dc.lft.to/lastmile_qr_scan"}, "name": "96e6358dbde8d136c18f4c1313d9d357", "type": "electric_scooter"}, {"fusion_lat": 0.0, "bike_id": "c5d1392f64b74c0e49171db80d254412", "fusion_lon": 0.0, "lon": -77.02953516666666, "lat": 38.91665116666667, "is_reserved": 0, "is_disabled": 0, "rental_uris": {"android": "https://dc.lft.to/lastmile_qr_scan", "ios": "https://dc.lft.to/lastmile_qr_scan"}, "name": "c5d1392f64b74c0e49171db80d254412", "type": "electric_scooter"}, {"fusion_lat": 0.0, "bike_id": "a5b0b4c7fafdfe9d0d47d8b82a89572d", "fusion_lon": 0.0, "lon": -76.93730783333334, "lat": 38.89017666666667, "is_reserved": 0, "is_disabled": 0, "rental_uris": {"android": "https://dc.lft.to/lastmile_qr_scan", "ios": "https://dc.lft.to/lastmile_qr_scan"}, "name": "a5b0b4c7fafdfe9d0d47d8b82a89572d", "type": "electric_scooter"}, {"fusion_lat": 0.0, "bike_id": "4df1761a3a992dd5c48a557b3c8339f7", "fusion_lon": 0.0, "lon": -77.03820816666666, "lat": 38.915584, "is_reserved": 0, "is_disabled": 0, "rental_uris": {"android": "https://dc.lft.to/lastmile_qr_scan", "ios": "https://dc.lft.to/lastmile_qr_scan"}, "name": "4df1761a3a992dd5c48a557b3c8339f7", "type": "electric_scooter"}, {"fusion_lat": 0.0, "bike_id": "0e9e926505f37286b1b9b9d1d6db7a5b", "fusion_lon": 0.0, "lon": -76.97305133333333, "lat": 38.916425833333335, "is_reserved": 0, "is_disabled": 0, "rental_uris": {"android": "https://dc.lft.to/lastmile_qr_scan", "ios": "https://dc.lft.to/lastmile_qr_scan"}, "name": "0e9e926505f37286b1b9b9d1d6db7a5b", "type": "electric_bike"}, {"fusion_lat": 0.0, "bike_id": "951c6d54f2c2bd993e5975d7c8392cf8", "fusion_lon": 0.0, "lon": -76.96524033333333, "lat": 38.87629866666666, "is_reserved": 0, "is_disabled": 0, "rental_uris": {"android": "https://dc.lft.to/lastmile_qr_scan", "ios": "https://dc.lft.to/lastmile_qr_scan"}, "name": "951c6d54f2c2bd993e5975d7c8392cf8", "type": "electric_scooter"}, {"fusion_lat": 0.0, "bike_id": "b98051e9cc206e47c371e63d62b372f9", "fusion_lon": 0.0, "lon": -77.08010483333334, "lat": 38.95064633333333, "is_reserved": 0, "is_disabled": 0, "rental_uris": {"android": "https://dc.lft.to/lastmile_qr_scan", "ios": "https://dc.lft.to/lastmile_qr_scan"}, "name": "b98051e9cc206e47c371e63d62b372f9", "type": "electric_scooter"}, {"fusion_lat": 0.0, "bike_id": "4d83b68553fa35f80eece12170998c00", "fusion_lon": 0.0, "lon": -77.03633933333333, "lat": 38.945006666666664, "is_reserved": 0, "is_disabled": 0, "rental_uris": {"android": "https://dc.lft.to/lastmile_qr_scan", "ios": "https://dc.lft.to/lastmile_qr_scan"}, "name": "4d83b68553fa35f80eece12170998c00", "type": "electric_scooter"}, {"fusion_lat": 0.0, "bike_id": "ae36f01106b2580c2e5ce9e9e7d64900", "fusion_lon": 0.0, "lon": -77.048752, "lat": 38.892815666666664, "is_reserved": 0, "is_disabled": 0, "rental_uris": {"android": "https://dc.lft.to/lastmile_qr_scan", "ios": "https://dc.lft.to/lastmile_qr_scan"}, "name": "ae36f01106b2580c2e5ce9e9e7d64900", "type": "electric_scooter"}, {"fusion_lat": 0.0, "bike_id": "7f9f93edb33751c27e3214b8f195dd5f", "fusion_lon": 0.0, "lon": -77.072968, "lat": 38.935456333333335, "is_reserved": 0, "is_disabled": 0, "rental_uris": {"android": "https://dc.lft.to/lastmile_qr_scan", "ios": "https://dc.lft.to/lastmile_qr_scan"}, "name": "7f9f93edb33751c27e3214b8f195dd5f", "type": "electric_scooter"}, {"fusion_lat": 0.0, "bike_id": "9f50d5e89cc6a687eceb89785a477185", "fusion_lon": 0.0, "lon": -77.05636566666666, "lat": 38.92633333333333, "is_reserved": 0, "is_disabled": 0, "rental_uris": {"android": "https://dc.lft.to/lastmile_qr_scan", "ios": "https://dc.lft.to/lastmile_qr_scan"}, "name": "9f50d5e89cc6a687eceb89785a477185", "type": "electric_scooter"}, {"fusion_lat": 0.0, "bike_id": "8e6ad92bb363e4ad96d65849333db6a1", "fusion_lon": 0.0, "lon": -77.02149533333333, "lat": 38.9260235, "is_reserved": 0, "is_disabled": 0, "rental_uris": {"android": "https://dc.lft.to/lastmile_qr_scan", "ios": "https://dc.lft.to/lastmile_qr_scan"}, "name": "8e6ad92bb363e4ad96d65849333db6a1", "type": "electric_scooter"}, {"fusion_lat": 0.0, "bike_id": "61a998402ea8ebe7da3f3ba2064a5bdf", "fusion_lon": 0.0, "lon": -77.02583966666667, "lat": 38.9203525, "is_reserved": 0, "is_disabled": 0, "rental_uris": {"android": "https://dc.lft.to/lastmile_qr_scan", "ios": "https://dc.lft.to/lastmile_qr_scan"}, "name": "61a998402ea8ebe7da3f3ba2064a5bdf", "type": "electric_scooter"}, {"fusion_lat": 0.0, "bike_id": "4d6a5a4b3dff0cd0807119057a31429a", "fusion_lon": 0.0, "lon": -77.02637033333333, "lat": 38.9169275, "is_reserved": 0, "is_disabled": 0, "rental_uris": {"android": "https://dc.lft.to/lastmile_qr_scan", "ios": "https://dc.lft.to/lastmile_qr_scan"}, "name": "4d6a5a4b3dff0cd0807119057a31429a", "type": "electric_scooter"}, {"fusion_lat": 0.0, "bike_id": "afec2568f086976686996db9db3ae6a6", "fusion_lon": 0.0, "lon": -77.03070383333333, "lat": 38.93308566666666, "is_reserved": 0, "is_disabled": 0, "rental_uris": {"android": "https://dc.lft.to/lastmile_qr_scan", "ios": "https://dc.lft.to/lastmile_qr_scan"}, "name": "afec2568f086976686996db9db3ae6a6", "type": "electric_scooter"}, {"fusion_lat": 0.0, "bike_id": "b2eed9414b3d6d7e84f3880c5a8c6530", "fusion_lon": 0.0, "lon": -77.027336, "lat": 38.93211766666667, "is_reserved": 0, "is_disabled": 0, "rental_uris": {"android": "https://dc.lft.to/lastmile_qr_scan", "ios": "https://dc.lft.to/lastmile_qr_scan"}, "name": "b2eed9414b3d6d7e84f3880c5a8c6530", "type": "electric_scooter"}, {"fusion_lat": 0.0, "bike_id": "17fb169505d2888b63171f250a4a5a90", "fusion_lon": 0.0, "lon": -77.02158383333334, "lat": 38.9268705, "is_reserved": 0, "is_disabled": 0, "rental_uris": {"android": "https://dc.lft.to/lastmile_qr_scan", "ios": "https://dc.lft.to/lastmile_qr_scan"}, "name": "17fb169505d2888b63171f250a4a5a90", "type": "electric_scooter"}, {"fusion_lat": 0.0, "bike_id": "8805ddacf5b4e832d740f2e4409996fb", "fusion_lon": 0.0, "lon": -77.02580033333334, "lat": 38.931914166666665, "is_reserved": 0, "is_disabled": 0, "rental_uris": {"android": "https://dc.lft.to/lastmile_qr_scan", "ios": "https://dc.lft.to/lastmile_qr_scan"}, "name": "8805ddacf5b4e832d740f2e4409996fb", "type": "electric_scooter"}, {"fusion_lat": 0.0, "bike_id": "1a9554ed8622d2c06b768c559632c879", "fusion_lon": 0.0, "lon": -77.03240883333333, "lat": 38.90548783333333, "is_reserved": 0, "is_disabled": 0, "rental_uris": {"android": "https://dc.lft.to/lastmile_qr_scan", "ios": "https://dc.lft.to/lastmile_qr_scan"}, "name": "1a9554ed8622d2c06b768c559632c879", "type": "electric_scooter"}, {"fusion_lat": 0.0, "bike_id": "f7642f4ccf61eb2b87e76c965fcd515a", "fusion_lon": 0.0, "lon": -77.033303, "lat": 38.909703666666665, "is_reserved": 0, "is_disabled": 0, "rental_uris": {"android": "https://dc.lft.to/lastmile_qr_scan", "ios": "https://dc.lft.to/lastmile_qr_scan"}, "name": "f7642f4ccf61eb2b87e76c965fcd515a", "type": "electric_scooter"}, {"fusion_lat": 0.0, "bike_id": "dfb7d085f5d5f37704cb8d303d9947ee", "fusion_lon": 0.0, "lon": -77.05761166666667, "lat": 38.9338645, "is_reserved": 0, "is_disabled": 0, "rental_uris": {"android": "https://dc.lft.to/lastmile_qr_scan", "ios": "https://dc.lft.to/lastmile_qr_scan"}, "name": "dfb7d085f5d5f37704cb8d303d9947ee", "type": "electric_scooter"}, {"fusion_lat": 0.0, "bike_id": "930c937d606d368b6d4592088f9afba8", "fusion_lon": 0.0, "lon": -77.02784533333333, "lat": 38.899376333333336, "is_reserved": 0, "is_disabled": 0, "rental_uris": {"android": "https://dc.lft.to/lastmile_qr_scan", "ios": "https://dc.lft.to/lastmile_qr_scan"}, "name": "930c937d606d368b6d4592088f9afba8", "type": "electric_scooter"}, {"fusion_lat": 0.0, "bike_id": "6fdc3f20a976388c348b50f6b710c710", "fusion_lon": 0.0, "lon": -77.006459, "lat": 38.87163016666667, "is_reserved": 0, "is_disabled": 0, "rental_uris": {"android": "https://dc.lft.to/lastmile_qr_scan", "ios": "https://dc.lft.to/lastmile_qr_scan"}, "name": "6fdc3f20a976388c348b50f6b710c710", "type": "electric_scooter"}, {"fusion_lat": 0.0, "bike_id": "76e907d68fcf95d17ceb7697b4f192da", "fusion_lon": 0.0, "lon": -77.02710916666666, "lat": 38.92469116666667, "is_reserved": 0, "is_disabled": 0, "rental_uris": {"android": "https://dc.lft.to/lastmile_qr_scan", "ios": "https://dc.lft.to/lastmile_qr_scan"}, "name": "76e907d68fcf95d17ceb7697b4f192da", "type": "electric_scooter"}, {"fusion_lat": 0.0, "bike_id": "8c89917147e4ff3718bab9b0428a4c32", "fusion_lon": 0.0, "lon": -77.032202, "lat": 38.8922525, "is_reserved": 0, "is_disabled": 0, "rental_uris": {"android": "https://dc.lft.to/lastmile_qr_scan", "ios": "https://dc.lft.to/lastmile_qr_scan"}, "name": "8c89917147e4ff3718bab9b0428a4c32", "type": "electric_scooter"}, {"fusion_lat": 0.0, "bike_id": "5bac18233c071ce81ec314899f87950f", "fusion_lon": 0.0, "lon": -76.98501633333333, "lat": 38.866718166666665, "is_reserved": 0, "is_disabled": 0, "rental_uris": {"android": "https://dc.lft.to/lastmile_qr_scan", "ios": "https://dc.lft.to/lastmile_qr_scan"}, "name": "5bac18233c071ce81ec314899f87950f", "type": "electric_scooter"}, {"fusion_lat": 0.0, "bike_id": "2480be191f6a551b33d5618c0d0fd435", "fusion_lon": 0.0, "lon": -77.04479816666667, "lat": 38.91030766666667, "is_reserved": 0, "is_disabled": 0, "rental_uris": {"android": "https://dc.lft.to/lastmile_qr_scan", "ios": "https://dc.lft.to/lastmile_qr_scan"}, "name": "2480be191f6a551b33d5618c0d0fd435", "type": "electric_scooter"}, {"fusion_lat": 0.0, "bike_id": "5d2ea9a0a819e12fdb4cbf6873121d60", "fusion_lon": 0.0, "lon": -76.93348416666667, "lat": 38.89908066666667, "is_reserved": 0, "is_disabled": 0, "rental_uris": {"android": "https://dc.lft.to/lastmile_qr_scan", "ios": "https://dc.lft.to/lastmile_qr_scan"}, "name": "5d2ea9a0a819e12fdb4cbf6873121d60", "type": "electric_scooter"}, {"fusion_lat": 0.0, "bike_id": "a7a0fbd1cf82fb45c22daf889c57199f", "fusion_lon": 0.0, "lon": -77.03293966666666, "lat": 38.9097515, "is_reserved": 0, "is_disabled": 0, "rental_uris": {"android": "https://dc.lft.to/lastmile_qr_scan", "ios": "https://dc.lft.to/lastmile_qr_scan"}, "name": "a7a0fbd1cf82fb45c22daf889c57199f", "type": "electric_scooter"}, {"fusion_lat": 0.0, "bike_id": "64d1da8e08de3dd5b0aecb9a48167de2", "fusion_lon": 0.0, "lon": -76.99105766666666, "lat": 38.903222166666666, "is_reserved": 0, "is_disabled": 0, "rental_uris": {"android": "https://dc.lft.to/lastmile_qr_scan", "ios": "https://dc.lft.to/lastmile_qr_scan"}, "name": "64d1da8e08de3dd5b0aecb9a48167de2", "type": "electric_scooter"}, {"fusion_lat": 0.0, "bike_id": "85e00a1a2f8d9b748f1050e62ba25585", "fusion_lon": 0.0, "lon": -77.00445466666666, "lat": 38.876574833333336, "is_reserved": 0, "is_disabled": 0, "rental_uris": {"android": "https://dc.lft.to/lastmile_qr_scan", "ios": "https://dc.lft.to/lastmile_qr_scan"}, "name": "85e00a1a2f8d9b748f1050e62ba25585", "type": "electric_scooter"}, {"fusion_lat": 0.0, "bike_id": "36ee9144e3cadb2d81cdbf99428c3401", "fusion_lon": 0.0, "lon": -77.0174575, "lat": 38.877223, "is_reserved": 0, "is_disabled": 0, "rental_uris": {"android": "https://dc.lft.to/lastmile_qr_scan", "ios": "https://dc.lft.to/lastmile_qr_scan"}, "name": "36ee9144e3cadb2d81cdbf99428c3401", "type": "electric_scooter"}, {"fusion_lat": 0.0, "bike_id": "d10bfd4043cf09849e6c55121c0cf23b", "fusion_lon": 0.0, "lon": -77.02312816666667, "lat": 38.92792166666667, "is_reserved": 0, "is_disabled": 0, "rental_uris": {"android": "https://dc.lft.to/lastmile_qr_scan", "ios": "https://dc.lft.to/lastmile_qr_scan"}, "name": "d10bfd4043cf09849e6c55121c0cf23b", "type": "electric_scooter"}, {"fusion_lat": 0.0, "bike_id": "8a019afd25136962e3351c113c25a3f3", "fusion_lon": 0.0, "lon": -77.04666866666666, "lat": 38.899191333333334, "is_reserved": 0, "is_disabled": 0, "rental_uris": {"android": "https://dc.lft.to/lastmile_qr_scan", "ios": "https://dc.lft.to/lastmile_qr_scan"}, "name": "8a019afd25136962e3351c113c25a3f3", "type": "electric_scooter"}, {"fusion_lat": 0.0, "bike_id": "1146f0fb19546ba01fc34e06887bbb28", "fusion_lon": 0.0, "lon": -77.02712333333334, "lat": 38.91671, "is_reserved": 0, "is_disabled": 0, "rental_uris": {"android": "https://dc.lft.to/lastmile_qr_scan", "ios": "https://dc.lft.to/lastmile_qr_scan"}, "name": "1146f0fb19546ba01fc34e06887bbb28", "type": "electric_scooter"}, {"fusion_lat": 0.0, "bike_id": "edccec0858b65abbd0eb2843757622d1", "fusion_lon": 0.0, "lon": -77.01722133333334, "lat": 38.884116666666664, "is_reserved": 0, "is_disabled": 0, "rental_uris": {"android": "https://dc.lft.to/lastmile_qr_scan", "ios": "https://dc.lft.to/lastmile_qr_scan"}, "name": "edccec0858b65abbd0eb2843757622d1", "type": "electric_scooter"}, {"fusion_lat": 0.0, "bike_id": "83bd3af65f7875c341b0f3a75a360ed6", "fusion_lon": 0.0, "lon": -77.02681166666666, "lat": 38.94325216666667, "is_reserved": 0, "is_disabled": 0, "rental_uris": {"android": "https://dc.lft.to/lastmile_qr_scan", "ios": "https://dc.lft.to/lastmile_qr_scan"}, "name": "83bd3af65f7875c341b0f3a75a360ed6", "type": "electric_scooter"}, {"fusion_lat": 0.0, "bike_id": "3d930fbb0aae279974f71c9c3b6bf1ba", "fusion_lon": 0.0, "lon": -76.93375383333333, "lat": 38.910298833333336, "is_reserved": 0, "is_disabled": 0, "rental_uris": {"android": "https://dc.lft.to/lastmile_qr_scan", "ios": "https://dc.lft.to/lastmile_qr_scan"}, "name": "3d930fbb0aae279974f71c9c3b6bf1ba", "type": "electric_scooter"}, {"fusion_lat": 0.0, "bike_id": "daf42896c1a7cfe61aa400a908cf80f1", "fusion_lon": 0.0, "lon": -77.03683016666666, "lat": 38.9263825, "is_reserved": 0, "is_disabled": 0, "rental_uris": {"android": "https://dc.lft.to/lastmile_qr_scan", "ios": "https://dc.lft.to/lastmile_qr_scan"}, "name": "daf42896c1a7cfe61aa400a908cf80f1", "type": "electric_scooter"}, {"fusion_lat": 0.0, "bike_id": "78917e30d32fbd32cdfb6cb158b0fc29", "fusion_lon": 0.0, "lon": -77.0383235, "lat": 38.91198883333333, "is_reserved": 0, "is_disabled": 0, "rental_uris": {"android": "https://dc.lft.to/lastmile_qr_scan", "ios": "https://dc.lft.to/lastmile_qr_scan"}, "name": "78917e30d32fbd32cdfb6cb158b0fc29", "type": "electric_scooter"}, {"fusion_lat": 0.0, "bike_id": "565f872013582be15308beb08f990da1", "fusion_lon": 0.0, "lon": -77.03824116666667, "lat": 38.910416, "is_reserved": 0, "is_disabled": 0, "rental_uris": {"android": "https://dc.lft.to/lastmile_qr_scan", "ios": "https://dc.lft.to/lastmile_qr_scan"}, "name": "565f872013582be15308beb08f990da1", "type": "electric_scooter"}, {"fusion_lat": 0.0, "bike_id": "e283c4d22acbff7ce09a53bfc15f2e9d", "fusion_lon": 0.0, "lon": -77.00361283333334, "lat": 38.899026666666664, "is_reserved": 0, "is_disabled": 0, "rental_uris": {"android": "https://dc.lft.to/lastmile_qr_scan", "ios": "https://dc.lft.to/lastmile_qr_scan"}, "name": "e283c4d22acbff7ce09a53bfc15f2e9d", "type": "electric_scooter"}, {"fusion_lat": 0.0, "bike_id": "1a6ef3c663f2ca4e810b7bfa35522590", "fusion_lon": 0.0, "lon": -76.954712, "lat": 38.886392666666666, "is_reserved": 0, "is_disabled": 0, "rental_uris": {"android": "https://dc.lft.to/lastmile_qr_scan", "ios": "https://dc.lft.to/lastmile_qr_scan"}, "name": "1a6ef3c663f2ca4e810b7bfa35522590", "type": "electric_scooter"}, {"fusion_lat": 0.0, "bike_id": "b6738ca8d54a6196f19ce8cba3295c61", "fusion_lon": 0.0, "lon": -77.05198566666667, "lat": 38.903087, "is_reserved": 0, "is_disabled": 0, "rental_uris": {"android": "https://dc.lft.to/lastmile_qr_scan", "ios": "https://dc.lft.to/lastmile_qr_scan"}, "name": "b6738ca8d54a6196f19ce8cba3295c61", "type": "electric_scooter"}, {"fusion_lat": 0.0, "bike_id": "fd23ea404f959acc3c915972e69aff36", "fusion_lon": 0.0, "lon": -77.0417395, "lat": 38.9053485, "is_reserved": 0, "is_disabled": 0, "rental_uris": {"android": "https://dc.lft.to/lastmile_qr_scan", "ios": "https://dc.lft.to/lastmile_qr_scan"}, "name": "fd23ea404f959acc3c915972e69aff36", "type": "electric_scooter"}, {"fusion_lat": 0.0, "bike_id": "30422d0b0fca269d63f0b865cc7c7ba9", "fusion_lon": 0.0, "lon": -77.05396966666666, "lat": 38.927925, "is_reserved": 0, "is_disabled": 0, "rental_uris": {"android": "https://dc.lft.to/lastmile_qr_scan", "ios": "https://dc.lft.to/lastmile_qr_scan"}, "name": "30422d0b0fca269d63f0b865cc7c7ba9", "type": "electric_scooter"}, {"fusion_lat": 0.0, "bike_id": "b94a75fad4b49c5c3d18092c4fbfe59e", "fusion_lon": 0.0, "lon": -77.04316483333334, "lat": 38.908918166666666, "is_reserved": 0, "is_disabled": 0, "rental_uris": {"android": "https://dc.lft.to/lastmile_qr_scan", "ios": "https://dc.lft.to/lastmile_qr_scan"}, "name": "b94a75fad4b49c5c3d18092c4fbfe59e", "type": "electric_scooter"}, {"fusion_lat": 0.0, "bike_id": "6d44bd0a0064a351cbd5f06758edc9c8", "fusion_lon": 0.0, "lon": -77.03325333333333, "lat": 38.903738, "is_reserved": 0, "is_disabled": 0, "rental_uris": {"android": "https://dc.lft.to/lastmile_qr_scan", "ios": "https://dc.lft.to/lastmile_qr_scan"}, "name": "6d44bd0a0064a351cbd5f06758edc9c8", "type": "electric_scooter"}, {"fusion_lat": 0.0, "bike_id": "36834c73a546609dc8015af21a32bb29", "fusion_lon": 0.0, "lon": -77.02466516666667, "lat": 38.942006166666665, "is_reserved": 0, "is_disabled": 0, "rental_uris": {"android": "https://dc.lft.to/lastmile_qr_scan", "ios": "https://dc.lft.to/lastmile_qr_scan"}, "name": "36834c73a546609dc8015af21a32bb29", "type": "electric_scooter"}, {"fusion_lat": 0.0, "bike_id": "b01998d0cdc0956ca73723f55e018bcc", "fusion_lon": 0.0, "lon": -77.02484066666666, "lat": 38.91705416666667, "is_reserved": 0, "is_disabled": 0, "rental_uris": {"android": "https://dc.lft.to/lastmile_qr_scan", "ios": "https://dc.lft.to/lastmile_qr_scan"}, "name": "b01998d0cdc0956ca73723f55e018bcc", "type": "electric_scooter"}, {"fusion_lat": 0.0, "bike_id": "a5fa7494cb196870a861488fb58a1cde", "fusion_lon": 0.0, "lon": -77.04328616666666, "lat": 38.90238183333334, "is_reserved": 0, "is_disabled": 0, "rental_uris": {"android": "https://dc.lft.to/lastmile_qr_scan", "ios": "https://dc.lft.to/lastmile_qr_scan"}, "name": "a5fa7494cb196870a861488fb58a1cde", "type": "electric_scooter"}, {"fusion_lat": 0.0, "bike_id": "b0133e5dc7eb80c3244298ef480d361f", "fusion_lon": 0.0, "lon": -77.18740283333334, "lat": 38.893519833333336, "is_reserved": 0, "is_disabled": 0, "rental_uris": {"android": "https://dc.lft.to/lastmile_qr_scan", "ios": "https://dc.lft.to/lastmile_qr_scan"}, "name": "b0133e5dc7eb80c3244298ef480d361f", "type": "electric_bike"}, {"fusion_lat": 0.0, "bike_id": "4ec33b191924da0cfebaa371479463f8", "fusion_lon": 0.0, "lon": -76.9984785, "lat": 38.962518333333335, "is_reserved": 0, "is_disabled": 0, "rental_uris": {"android": "https://dc.lft.to/lastmile_qr_scan", "ios": "https://dc.lft.to/lastmile_qr_scan"}, "name": "4ec33b191924da0cfebaa371479463f8", "type": "electric_bike"}, {"fusion_lat": 0.0, "bike_id": "39701417d3459763a061de6b80845005", "fusion_lon": 0.0, "lon": -77.05254666666667, "lat": 38.927339, "is_reserved": 0, "is_disabled": 0, "rental_uris": {"android": "https://dc.lft.to/lastmile_qr_scan", "ios": "https://dc.lft.to/lastmile_qr_scan"}, "name": "39701417d3459763a061de6b80845005", "type": "electric_scooter"}, {"fusion_lat": 0.0, "bike_id": "aa538a454b770136c62bf1872ea09c1f", "fusion_lon": 0.0, "lon": -77.06031983333334, "lat": 38.933632333333335, "is_reserved": 0, "is_disabled": 0, "rental_uris": {"android": "https://dc.lft.to/lastmile_qr_scan", "ios": "https://dc.lft.to/lastmile_qr_scan"}, "name": "aa538a454b770136c62bf1872ea09c1f", "type": "electric_scooter"}, {"fusion_lat": 0.0, "bike_id": "f91fe89630a8e03926eb6439d57d9df8", "fusion_lon": 0.0, "lon": -77.02945166666667, "lat": 38.8849395, "is_reserved": 0, "is_disabled": 0, "rental_uris": {"android": "https://dc.lft.to/lastmile_qr_scan", "ios": "https://dc.lft.to/lastmile_qr_scan"}, "name": "f91fe89630a8e03926eb6439d57d9df8", "type": "electric_scooter"}, {"fusion_lat": 0.0, "bike_id": "1129bc75648cba55da0451efd9286a30", "fusion_lon": 0.0, "lon": -77.03880866666667, "lat": 38.948729166666666, "is_reserved": 0, "is_disabled": 0, "rental_uris": {"android": "https://dc.lft.to/lastmile_qr_scan", "ios": "https://dc.lft.to/lastmile_qr_scan"}, "name": "1129bc75648cba55da0451efd9286a30", "type": "electric_scooter"}, {"fusion_lat": 0.0, "bike_id": "22348f342e1525411010aeb284f75879", "fusion_lon": 0.0, "lon": -77.05040016666666, "lat": 39.052005, "is_reserved": 0, "is_disabled": 0, "rental_uris": {"android": "https://dc.lft.to/lastmile_qr_scan", "ios": "https://dc.lft.to/lastmile_qr_scan"}, "name": "22348f342e1525411010aeb284f75879", "type": "electric_bike"}, {"fusion_lat": 0.0, "bike_id": "f96c4a3b2bd1003a601e71ac96c4b821", "fusion_lon": 0.0, "lon": -77.04644466666667, "lat": 39.055014166666666, "is_reserved": 0, "is_disabled": 0, "rental_uris": {"android": "https://dc.lft.to/lastmile_qr_scan", "ios": "https://dc.lft.to/lastmile_qr_scan"}, "name": "f96c4a3b2bd1003a601e71ac96c4b821", "type": "electric_bike"}, {"fusion_lat": 0.0, "bike_id": "d596fe448a31f8cea1f50f57ea12f060", "fusion_lon": 0.0, "lon": -76.9565095, "lat": 38.89621616666667, "is_reserved": 0, "is_disabled": 0, "rental_uris": {"android": "https://dc.lft.to/lastmile_qr_scan", "ios": "https://dc.lft.to/lastmile_qr_scan"}, "name": "d596fe448a31f8cea1f50f57ea12f060", "type": "electric_scooter"}, {"fusion_lat": 0.0, "bike_id": "401f332707565a0c46b7c4b136ac3536", "fusion_lon": 0.0, "lon": -77.05141533333334, "lat": 38.90383666666666, "is_reserved": 0, "is_disabled": 0, "rental_uris": {"android": "https://dc.lft.to/lastmile_qr_scan", "ios": "https://dc.lft.to/lastmile_qr_scan"}, "name": "401f332707565a0c46b7c4b136ac3536", "type": "electric_scooter"}, {"fusion_lat": 0.0, "bike_id": "900ea6a073737c1426308937e2642f62", "fusion_lon": 0.0, "lon": -77.03802033333334, "lat": 38.931186333333336, "is_reserved": 0, "is_disabled": 0, "rental_uris": {"android": "https://dc.lft.to/lastmile_qr_scan", "ios": "https://dc.lft.to/lastmile_qr_scan"}, "name": "900ea6a073737c1426308937e2642f62", "type": "electric_scooter"}, {"fusion_lat": 0.0, "bike_id": "179bff41228e75906c97fbe6981e6d99", "fusion_lon": 0.0, "lon": -77.00494716666667, "lat": 38.8956905, "is_reserved": 0, "is_disabled": 0, "rental_uris": {"android": "https://dc.lft.to/lastmile_qr_scan", "ios": "https://dc.lft.to/lastmile_qr_scan"}, "name": "179bff41228e75906c97fbe6981e6d99", "type": "electric_scooter"}, {"fusion_lat": 0.0, "bike_id": "15c407e70021ae64e29d6288ef58574d", "fusion_lon": 0.0, "lon": -77.04484616666667, "lat": 38.913335333333336, "is_reserved": 0, "is_disabled": 0, "rental_uris": {"android": "https://dc.lft.to/lastmile_qr_scan", "ios": "https://dc.lft.to/lastmile_qr_scan"}, "name": "15c407e70021ae64e29d6288ef58574d", "type": "electric_scooter"}, {"fusion_lat": 0.0, "bike_id": "ef07d2a7466b8a68346422ce1f67ce58", "fusion_lon": 0.0, "lon": -77.027029, "lat": 38.94989483333333, "is_reserved": 0, "is_disabled": 0, "rental_uris": {"android": "https://dc.lft.to/lastmile_qr_scan", "ios": "https://dc.lft.to/lastmile_qr_scan"}, "name": "ef07d2a7466b8a68346422ce1f67ce58", "type": "electric_scooter"}, {"fusion_lat": 0.0, "bike_id": "c5c00ff8530b9f04d57c43a0c58f5b46", "fusion_lon": 0.0, "lon": -77.03658716666666, "lat": 38.921233, "is_reserved": 0, "is_disabled": 0, "rental_uris": {"android": "https://dc.lft.to/lastmile_qr_scan", "ios": "https://dc.lft.to/lastmile_qr_scan"}, "name": "c5c00ff8530b9f04d57c43a0c58f5b46", "type": "electric_scooter"}, {"fusion_lat": 0.0, "bike_id": "279c59da149e80060108f58eea641a3b", "fusion_lon": 0.0, "lon": -77.03198316666666, "lat": 38.89777816666667, "is_reserved": 0, "is_disabled": 0, "rental_uris": {"android": "https://dc.lft.to/lastmile_qr_scan", "ios": "https://dc.lft.to/lastmile_qr_scan"}, "name": "279c59da149e80060108f58eea641a3b", "type": "electric_scooter"}, {"fusion_lat": 0.0, "bike_id": "b3c0b7164bad78a77830f07f99eabb59", "fusion_lon": 0.0, "lon": -77.12463916666667, "lat": 38.853739833333336, "is_reserved": 0, "is_disabled": 0, "rental_uris": {"android": "https://dc.lft.to/lastmile_qr_scan", "ios": "https://dc.lft.to/lastmile_qr_scan"}, "name": "b3c0b7164bad78a77830f07f99eabb59", "type": "electric_bike"}, {"fusion_lat": 0.0, "bike_id": "5c0b3b3c53e323b7324325c4aa3b8040", "fusion_lon": 0.0, "lon": -77.00750883333333, "lat": 38.89779816666667, "is_reserved": 0, "is_disabled": 0, "rental_uris": {"android": "https://dc.lft.to/lastmile_qr_scan", "ios": "https://dc.lft.to/lastmile_qr_scan"}, "name": "5c0b3b3c53e323b7324325c4aa3b8040", "type": "electric_bike"}, {"fusion_lat": 0.0, "bike_id": "7c923d6a8be3631a913bc01b7a201cf3", "fusion_lon": 0.0, "lon": -77.04697233333333, "lat": 38.90222683333333, "is_reserved": 0, "is_disabled": 0, "rental_uris": {"android": "https://dc.lft.to/lastmile_qr_scan", "ios": "https://dc.lft.to/lastmile_qr_scan"}, "name": "7c923d6a8be3631a913bc01b7a201cf3", "type": "electric_scooter"}, {"fusion_lat": 0.0, "bike_id": "34101e7c426fd0bd0571a7f2d7d2790a", "fusion_lon": 0.0, "lon": -76.992651, "lat": 38.8602705, "is_reserved": 0, "is_disabled": 0, "rental_uris": {"android": "https://dc.lft.to/lastmile_qr_scan", "ios": "https://dc.lft.to/lastmile_qr_scan"}, "name": "34101e7c426fd0bd0571a7f2d7d2790a", "type": "electric_scooter"}, {"fusion_lat": 0.0, "bike_id": "c13fa4686da789dd5dc72826a997771b", "fusion_lon": 0.0, "lon": -76.97206166666666, "lat": 38.892861333333336, "is_reserved": 0, "is_disabled": 0, "rental_uris": {"android": "https://dc.lft.to/lastmile_qr_scan", "ios": "https://dc.lft.to/lastmile_qr_scan"}, "name": "c13fa4686da789dd5dc72826a997771b", "type": "electric_bike"}, {"fusion_lat": 0.0, "bike_id": "edeee2936b7e279ae291134f4addc8f8", "fusion_lon": 0.0, "lon": -77.0557355, "lat": 38.93055116666667, "is_reserved": 0, "is_disabled": 0, "rental_uris": {"android": "https://dc.lft.to/lastmile_qr_scan", "ios": "https://dc.lft.to/lastmile_qr_scan"}, "name": "edeee2936b7e279ae291134f4addc8f8", "type": "electric_scooter"}, {"fusion_lat": 0.0, "bike_id": "4518270e949a048a49e6b9ce5bf1f887", "fusion_lon": 0.0, "lon": -77.05020183333333, "lat": 38.905156, "is_reserved": 0, "is_disabled": 0, "rental_uris": {"android": "https://dc.lft.to/lastmile_qr_scan", "ios": "https://dc.lft.to/lastmile_qr_scan"}, "name": "4518270e949a048a49e6b9ce5bf1f887", "type": "electric_scooter"}, {"fusion_lat": 0.0, "bike_id": "19526edf1465e80bad8240b7661b770b", "fusion_lon": 0.0, "lon": -77.02373316666667, "lat": 38.917835333333336, "is_reserved": 0, "is_disabled": 0, "rental_uris": {"android": "https://dc.lft.to/lastmile_qr_scan", "ios": "https://dc.lft.to/lastmile_qr_scan"}, "name": "19526edf1465e80bad8240b7661b770b", "type": "electric_scooter"}, {"fusion_lat": 0.0, "bike_id": "f04ee689ba53426c38f19a87ce04c26e", "fusion_lon": 0.0, "lon": -77.02669066666667, "lat": 38.98198566666667, "is_reserved": 0, "is_disabled": 0, "rental_uris": {"android": "https://dc.lft.to/lastmile_qr_scan", "ios": "https://dc.lft.to/lastmile_qr_scan"}, "name": "f04ee689ba53426c38f19a87ce04c26e", "type": "electric_scooter"}, {"fusion_lat": 0.0, "bike_id": "116d498d0bdd3b827bfbb6d1506f1868", "fusion_lon": 0.0, "lon": -77.139273, "lat": 38.87297733333333, "is_reserved": 0, "is_disabled": 0, "rental_uris": {"android": "https://dc.lft.to/lastmile_qr_scan", "ios": "https://dc.lft.to/lastmile_qr_scan"}, "name": "116d498d0bdd3b827bfbb6d1506f1868", "type": "electric_bike"}, {"fusion_lat": 0.0, "bike_id": "9924ad0316a09f98e7aec3f07753e582", "fusion_lon": 0.0, "lon": -76.991269, "lat": 38.901393, "is_reserved": 0, "is_disabled": 0, "rental_uris": {"android": "https://dc.lft.to/lastmile_qr_scan", "ios": "https://dc.lft.to/lastmile_qr_scan"}, "name": "9924ad0316a09f98e7aec3f07753e582", "type": "electric_scooter"}, {"fusion_lat": 0.0, "bike_id": "fb3f15e5fda164fe037e871f8f5abc29", "fusion_lon": 0.0, "lon": -77.04496033333334, "lat": 38.9005475, "is_reserved": 0, "is_disabled": 0, "rental_uris": {"android": "https://dc.lft.to/lastmile_qr_scan", "ios": "https://dc.lft.to/lastmile_qr_scan"}, "name": "fb3f15e5fda164fe037e871f8f5abc29", "type": "electric_scooter"}, {"fusion_lat": 0.0, "bike_id": "d40c1b61d4e7626ad31c1192648a8271", "fusion_lon": 0.0, "lon": -77.03714233333334, "lat": 38.91483816666667, "is_reserved": 0, "is_disabled": 0, "rental_uris": {"android": "https://dc.lft.to/lastmile_qr_scan", "ios": "https://dc.lft.to/lastmile_qr_scan"}, "name": "d40c1b61d4e7626ad31c1192648a8271", "type": "electric_scooter"}, {"fusion_lat": 0.0, "bike_id": "ff957aeb52d1b5507f3b3df06b1c2581", "fusion_lon": 0.0, "lon": -77.0494385, "lat": 38.90082683333333, "is_reserved": 0, "is_disabled": 0, "rental_uris": {"android": "https://dc.lft.to/lastmile_qr_scan", "ios": "https://dc.lft.to/lastmile_qr_scan"}, "name": "ff957aeb52d1b5507f3b3df06b1c2581", "type": "electric_scooter"}, {"fusion_lat": 0.0, "bike_id": "a1612e009b47dc0f68ac5988b8f3eb2c", "fusion_lon": 0.0, "lon": -77.02805583333334, "lat": 38.89567016666667, "is_reserved": 0, "is_disabled": 0, "rental_uris": {"android": "https://dc.lft.to/lastmile_qr_scan", "ios": "https://dc.lft.to/lastmile_qr_scan"}, "name": "a1612e009b47dc0f68ac5988b8f3eb2c", "type": "electric_scooter"}, {"fusion_lat": 0.0, "bike_id": "acdfbb6a30733fd63cb80ce11b5914b3", "fusion_lon": 0.0, "lon": -77.0326375, "lat": 38.932667333333335, "is_reserved": 0, "is_disabled": 0, "rental_uris": {"android": "https://dc.lft.to/lastmile_qr_scan", "ios": "https://dc.lft.to/lastmile_qr_scan"}, "name": "acdfbb6a30733fd63cb80ce11b5914b3", "type": "electric_scooter"}, {"fusion_lat": 0.0, "bike_id": "caadd9902d7b0a5985818ba2d268dc33", "fusion_lon": 0.0, "lon": -76.93534533333333, "lat": 38.8968215, "is_reserved": 0, "is_disabled": 0, "rental_uris": {"android": "https://dc.lft.to/lastmile_qr_scan", "ios": "https://dc.lft.to/lastmile_qr_scan"}, "name": "caadd9902d7b0a5985818ba2d268dc33", "type": "electric_scooter"}, {"fusion_lat": 0.0, "bike_id": "d3f9d416eb6f2fe31e8654ae85fe3bf8", "fusion_lon": 0.0, "lon": -76.99732333333333, "lat": 39.0423755, "is_reserved": 0, "is_disabled": 0, "rental_uris": {"android": "https://dc.lft.to/lastmile_qr_scan", "ios": "https://dc.lft.to/lastmile_qr_scan"}, "name": "d3f9d416eb6f2fe31e8654ae85fe3bf8", "type": "electric_bike"}, {"fusion_lat": 0.0, "bike_id": "c5361f11cdec82dbea4f7fd1bfe5b583", "fusion_lon": 0.0, "lon": -77.034451, "lat": 38.907344, "is_reserved": 0, "is_disabled": 0, "rental_uris": {"android": "https://dc.lft.to/lastmile_qr_scan", "ios": "https://dc.lft.to/lastmile_qr_scan"}, "name": "c5361f11cdec82dbea4f7fd1bfe5b583", "type": "electric_scooter"}, {"fusion_lat": 0.0, "bike_id": "f1ab394c0d325c9a6dd14cec803cc82c", "fusion_lon": 0.0, "lon": -77.0195235, "lat": 38.923275, "is_reserved": 0, "is_disabled": 0, "rental_uris": {"android": "https://dc.lft.to/lastmile_qr_scan", "ios": "https://dc.lft.to/lastmile_qr_scan"}, "name": "f1ab394c0d325c9a6dd14cec803cc82c", "type": "electric_scooter"}, {"fusion_lat": 0.0, "bike_id": "210caae5b1b95b3b1180f364d34bda59", "fusion_lon": 0.0, "lon": -77.0398755, "lat": 38.908526333333334, "is_reserved": 0, "is_disabled": 0, "rental_uris": {"android": "https://dc.lft.to/lastmile_qr_scan", "ios": "https://dc.lft.to/lastmile_qr_scan"}, "name": "210caae5b1b95b3b1180f364d34bda59", "type": "electric_scooter"}, {"fusion_lat": 0.0, "bike_id": "54b5e75b494786130f592a628f596191", "fusion_lon": 0.0, "lon": -77.04157533333333, "lat": 38.908392666666664, "is_reserved": 0, "is_disabled": 0, "rental_uris": {"android": "https://dc.lft.to/lastmile_qr_scan", "ios": "https://dc.lft.to/lastmile_qr_scan"}, "name": "54b5e75b494786130f592a628f596191", "type": "electric_scooter"}, {"fusion_lat": 0.0, "bike_id": "8f6d6b7c920e58d124e6793d327a56c9", "fusion_lon": 0.0, "lon": -77.03738783333333, "lat": 38.905619, "is_reserved": 0, "is_disabled": 0, "rental_uris": {"android": "https://dc.lft.to/lastmile_qr_scan", "ios": "https://dc.lft.to/lastmile_qr_scan"}, "name": "8f6d6b7c920e58d124e6793d327a56c9", "type": "electric_scooter"}, {"fusion_lat": 0.0, "bike_id": "51a00a6956b5135bf1ba43efe96961ad", "fusion_lon": 0.0, "lon": -77.00697316666667, "lat": 38.90920216666667, "is_reserved": 0, "is_disabled": 0, "rental_uris": {"android": "https://dc.lft.to/lastmile_qr_scan", "ios": "https://dc.lft.to/lastmile_qr_scan"}, "name": "51a00a6956b5135bf1ba43efe96961ad", "type": "electric_scooter"}, {"fusion_lat": 0.0, "bike_id": "2e9a540be011a498db9701675cc8c4d7", "fusion_lon": 0.0, "lon": -77.04354883333333, "lat": 38.91045916666667, "is_reserved": 0, "is_disabled": 0, "rental_uris": {"android": "https://dc.lft.to/lastmile_qr_scan", "ios": "https://dc.lft.to/lastmile_qr_scan"}, "name": "2e9a540be011a498db9701675cc8c4d7", "type": "electric_scooter"}, {"fusion_lat": 0.0, "bike_id": "bc6cb91c919674904515aee047966a5e", "fusion_lon": 0.0, "lon": -77.02397333333333, "lat": 38.882826333333334, "is_reserved": 0, "is_disabled": 0, "rental_uris": {"android": "https://dc.lft.to/lastmile_qr_scan", "ios": "https://dc.lft.to/lastmile_qr_scan"}, "name": "bc6cb91c919674904515aee047966a5e", "type": "electric_scooter"}, {"fusion_lat": 0.0, "bike_id": "1a27250e8d4dbb0f82d2d328ea696e98", "fusion_lon": 0.0, "lon": -77.023828, "lat": 38.90802716666666, "is_reserved": 0, "is_disabled": 0, "rental_uris": {"android": "https://dc.lft.to/lastmile_qr_scan", "ios": "https://dc.lft.to/lastmile_qr_scan"}, "name": "1a27250e8d4dbb0f82d2d328ea696e98", "type": "electric_scooter"}, {"fusion_lat": 0.0, "bike_id": "bed18a74c6e39c382d14094ff15433a7", "fusion_lon": 0.0, "lon": -77.011748, "lat": 38.896862166666665, "is_reserved": 0, "is_disabled": 0, "rental_uris": {"android": "https://dc.lft.to/lastmile_qr_scan", "ios": "https://dc.lft.to/lastmile_qr_scan"}, "name": "bed18a74c6e39c382d14094ff15433a7", "type": "electric_scooter"}, {"fusion_lat": 0.0, "bike_id": "58d2c4d26b2b5d91b2ac24ef6f933c79", "fusion_lon": 0.0, "lon": -77.02818566666667, "lat": 38.950888166666665, "is_reserved": 0, "is_disabled": 0, "rental_uris": {"android": "https://dc.lft.to/lastmile_qr_scan", "ios": "https://dc.lft.to/lastmile_qr_scan"}, "name": "58d2c4d26b2b5d91b2ac24ef6f933c79", "type": "electric_scooter"}, {"fusion_lat": 0.0, "bike_id": "6366234099fc5a71e319d4278bf18b85", "fusion_lon": 0.0, "lon": -77.00363983333334, "lat": 38.911015166666665, "is_reserved": 0, "is_disabled": 0, "rental_uris": {"android": "https://dc.lft.to/lastmile_qr_scan", "ios": "https://dc.lft.to/lastmile_qr_scan"}, "name": "6366234099fc5a71e319d4278bf18b85", "type": "electric_scooter"}, {"fusion_lat": 0.0, "bike_id": "8177f215479693216ff1ccfa21674805", "fusion_lon": 0.0, "lon": -76.94982, "lat": 38.8937175, "is_reserved": 0, "is_disabled": 0, "rental_uris": {"android": "https://dc.lft.to/lastmile_qr_scan", "ios": "https://dc.lft.to/lastmile_qr_scan"}, "name": "8177f215479693216ff1ccfa21674805", "type": "electric_scooter"}, {"fusion_lat": 0.0, "bike_id": "fcbc18ea96026064b256445bc8f81def", "fusion_lon": 0.0, "lon": -76.99128833333333, "lat": 38.864165, "is_reserved": 0, "is_disabled": 0, "rental_uris": {"android": "https://dc.lft.to/lastmile_qr_scan", "ios": "https://dc.lft.to/lastmile_qr_scan"}, "name": "fcbc18ea96026064b256445bc8f81def", "type": "electric_scooter"}, {"fusion_lat": 0.0, "bike_id": "bc422108392cab6c2b5d2dce65fef471", "fusion_lon": 0.0, "lon": -77.03219083333333, "lat": 38.892222833333335, "is_reserved": 0, "is_disabled": 0, "rental_uris": {"android": "https://dc.lft.to/lastmile_qr_scan", "ios": "https://dc.lft.to/lastmile_qr_scan"}, "name": "bc422108392cab6c2b5d2dce65fef471", "type": "electric_scooter"}, {"fusion_lat": 0.0, "bike_id": "5df4a49e0f36d56784c64579785c70c3", "fusion_lon": 0.0, "lon": -76.96909066666667, "lat": 38.8461295, "is_reserved": 0, "is_disabled": 0, "rental_uris": {"android": "https://dc.lft.to/lastmile_qr_scan", "ios": "https://dc.lft.to/lastmile_qr_scan"}, "name": "5df4a49e0f36d56784c64579785c70c3", "type": "electric_bike"}, {"fusion_lat": 0.0, "bike_id": "21847038030b3e9b28e36edad4ff3481", "fusion_lon": 0.0, "lon": -77.04202933333333, "lat": 38.905212166666665, "is_reserved": 0, "is_disabled": 0, "rental_uris": {"android": "https://dc.lft.to/lastmile_qr_scan", "ios": "https://dc.lft.to/lastmile_qr_scan"}, "name": "21847038030b3e9b28e36edad4ff3481", "type": "electric_scooter"}, {"fusion_lat": 0.0, "bike_id": "ea2bc16712b939b99517dbad35124cdb", "fusion_lon": 0.0, "lon": -77.115916, "lat": 39.07496966666667, "is_reserved": 0, "is_disabled": 0, "rental_uris": {"android": "https://dc.lft.to/lastmile_qr_scan", "ios": "https://dc.lft.to/lastmile_qr_scan"}, "name": "ea2bc16712b939b99517dbad35124cdb", "type": "electric_bike"}, {"fusion_lat": 0.0, "bike_id": "25ea2f8af394c97d531bcd4da3fd99b7", "fusion_lon": 0.0, "lon": -76.99535333333333, "lat": 38.926676666666665, "is_reserved": 0, "is_disabled": 0, "rental_uris": {"android": "https://dc.lft.to/lastmile_qr_scan", "ios": "https://dc.lft.to/lastmile_qr_scan"}, "name": "25ea2f8af394c97d531bcd4da3fd99b7", "type": "electric_scooter"}, {"fusion_lat": 0.0, "bike_id": "c07285f189bc44e4c35699064a40e381", "fusion_lon": 0.0, "lon": -77.00054266666666, "lat": 38.90143916666667, "is_reserved": 0, "is_disabled": 0, "rental_uris": {"android": "https://dc.lft.to/lastmile_qr_scan", "ios": "https://dc.lft.to/lastmile_qr_scan"}, "name": "c07285f189bc44e4c35699064a40e381", "type": "electric_bike"}, {"fusion_lat": 0.0, "bike_id": "003233578cec5d8298a81f3b4401835a", "fusion_lon": 0.0, "lon": -77.03962266666667, "lat": 38.900165, "is_reserved": 0, "is_disabled": 0, "rental_uris": {"android": "https://dc.lft.to/lastmile_qr_scan", "ios": "https://dc.lft.to/lastmile_qr_scan"}, "name": "003233578cec5d8298a81f3b4401835a", "type": "electric_scooter"}, {"fusion_lat": 0.0, "bike_id": "a7741b031e25a7eb1e6c7d3477bcd2bf", "fusion_lon": 0.0, "lon": -77.01737433333334, "lat": 38.887465, "is_reserved": 0, "is_disabled": 0, "rental_uris": {"android": "https://dc.lft.to/lastmile_qr_scan", "ios": "https://dc.lft.to/lastmile_qr_scan"}, "name": "a7741b031e25a7eb1e6c7d3477bcd2bf", "type": "electric_scooter"}, {"fusion_lat": 0.0, "bike_id": "df7cf8bfa1790c4cf3dad433add66650", "fusion_lon": 0.0, "lon": -77.0270885, "lat": 38.9203045, "is_reserved": 0, "is_disabled": 0, "rental_uris": {"android": "https://dc.lft.to/lastmile_qr_scan", "ios": "https://dc.lft.to/lastmile_qr_scan"}, "name": "df7cf8bfa1790c4cf3dad433add66650", "type": "electric_scooter"}, {"fusion_lat": 0.0, "bike_id": "f6193a2feeda06d6d83be0637da334f1", "fusion_lon": 0.0, "lon": -77.02392216666667, "lat": 38.89983083333333, "is_reserved": 0, "is_disabled": 0, "rental_uris": {"android": "https://dc.lft.to/lastmile_qr_scan", "ios": "https://dc.lft.to/lastmile_qr_scan"}, "name": "f6193a2feeda06d6d83be0637da334f1", "type": "electric_scooter"}, {"fusion_lat": 0.0, "bike_id": "c361d2efe16234de829fa97a0a7a649e", "fusion_lon": 0.0, "lon": -77.041421, "lat": 38.934735333333336, "is_reserved": 0, "is_disabled": 0, "rental_uris": {"android": "https://dc.lft.to/lastmile_qr_scan", "ios": "https://dc.lft.to/lastmile_qr_scan"}, "name": "c361d2efe16234de829fa97a0a7a649e", "type": "electric_bike"}, {"fusion_lat": 0.0, "bike_id": "44602a840de72a4c6390f796d1f9d4be", "fusion_lon": 0.0, "lon": -77.03120283333334, "lat": 38.912632333333335, "is_reserved": 0, "is_disabled": 0, "rental_uris": {"android": "https://dc.lft.to/lastmile_qr_scan", "ios": "https://dc.lft.to/lastmile_qr_scan"}, "name": "44602a840de72a4c6390f796d1f9d4be", "type": "electric_scooter"},