{"data": {"bikes": [{"bike_id": "b713361d2e4c0cdcde45797682ef731b", "is_reserved": 0, "fusion_lon": 0.0, "lat": 38.92257883333333, "is_disabled": 0, "name": "b713361d2e4c0cdcde45797682ef731b", "fusion_lat": 0.0, "rental_uris": {"ios": "https://dc.lft.to/lastmile_qr_scan", "android": "https://dc.lft.to/lastmile_qr_scan"}, "lon": -77.0413955, "type": "electric_scooter"}, {"bike_id": "d7ec7acfb2553efd9ced532901700b3e", "is_reserved": 0, "fusion_lon": 0.0, "lat": 38.918031166666665, "is_disabled": 0, "name": "d7ec7acfb2553efd9ced532901700b3e", "fusion_lat": 0.0, "rental_uris": {"ios": "https://dc.lft.to/lastmile_qr_scan", "android": "https://dc.lft.to/lastmile_qr_scan"}, "lon": -77.03434, "type": "electric_scooter"}, {"bike_id": "210406dc730963df1494d8f1ab4ce981", "is_reserved": 0, "fusion_lon": 0.0, "lat": 38.853181666666664, "is_disabled": 0, "name": "210406dc730963df1494d8f1ab4ce981", "fusion_lat": 0.0, "rental_uris": {"ios": "https://dc.lft.to/lastmile_qr_scan", "android": "https://dc.lft.to/lastmile_qr_scan"}, "lon": -76.98003583333333, "type": "electric_scooter"}, {"bike_id": "837ea0ab218f108fc40f2e960458db18", "is_reserved": 0, "fusion_lon": 0.0, "lat": 38.899075, "is_disabled": 0, "name": "837ea0ab218f108fc40f2e960458db18", "fusion_lat": 0.0, "rental_uris": {"ios": "https://dc.lft.to/lastmile_qr_scan", "android": "https://dc.lft.to/lastmile_qr_scan"}, "lon": -77.003515, "type": "electric_scooter"}, {"bike_id": "823d806dd95a0cb76516b575183e14a6", "is_reserved": 0, "fusion_lon": 0.0, "lat": 38.9404655, "is_disabled": 0, "name": "823d806dd95a0cb76516b575183e14a6", "fusion_lat": 0.0, "rental_uris": {"ios": "https://dc.lft.to/lastmile_qr_scan", "android": "https://dc.lft.to/lastmile_qr_scan"}, "lon": -77.0297995, "type": "electric_scooter"}, {"bike_id": "7c5fc202e9f371e3fb88b075c33d7110", "is_reserved": 0, "fusion_lon": 0.0, "lat": 38.90803833333333, "is_disabled": 0, "name": "7c5fc202e9f371e3fb88b075c33d7110", "fusion_lat": 0.0, "rental_uris": {"ios": "https://dc.lft.to/lastmile_qr_scan", "android": "https://dc.lft.to/lastmile_qr_scan"}, "lon": -77.03466616666667, "type": "electric_scooter"}, {"bike_id": "437f2886b938f8f9274efc466961a43f", "is_reserved": 0, "fusion_lon": 0.0, "lat": 38.93392883333333, "is_disabled": 0, "name": "437f2886b938f8f9274efc466961a43f", "fusion_lat": 0.0, "rental_uris": {"ios": "https://dc.lft.to/lastmile_qr_scan", "android": "https://dc.lft.to/lastmile_qr_scan"}, "lon": -77.020656, "type": "electric_scooter"}, {"bike_id": "85605a8907df4b9afab44ae460a22a50", "is_reserved": 0, "fusion_lon": 0.0, "lat": 38.90890683333333, "is_disabled": 0, "name": "85605a8907df4b9afab44ae460a22a50", "fusion_lat": 0.0, "rental_uris": {"ios": "https://dc.lft.to/lastmile_qr_scan", "android": "https://dc.lft.to/lastmile_qr_scan"}, "lon": -77.04304683333334, "type": "electric_scooter"}, {"bike_id": "e8b03c0e9f08bbd74233aea8517c9ba3", "is_reserved": 0, "fusion_lon": 0.0, "lat": 38.8922875, "is_disabled": 0, "name": "e8b03c0e9f08bbd74233aea8517c9ba3", "fusion_lat": 0.0, "rental_uris": {"ios": "https://dc.lft.to/lastmile_qr_scan", "android": "https://dc.lft.to/lastmile_qr_scan"}, "lon": -77.02177533333334, "type": "electric_scooter"}, {"bike_id": "202d3abaa37baa6a1c321993c61499b0", "is_reserved": 0, "fusion_lon": 0.0, "lat": 38.9617375, "is_disabled": 0, "name": "202d3abaa37baa6a1c321993c61499b0", "fusion_lat": 0.0, "rental_uris": {"ios": "https://dc.lft.to/lastmile_qr_scan", "android": "https://dc.lft.to/lastmile_qr_scan"}, "lon": -77.08638916666666, "type": "electric_bike"}, {"bike_id": "e461a5954aafe7daee6d8087088e21b9", "is_reserved": 0, "fusion_lon": 0.0, "lat": 38.952767, "is_disabled": 0, "name": "e461a5954aafe7daee6d8087088e21b9", "fusion_lat": 0.0, "rental_uris": {"ios": "https://dc.lft.to/lastmile_qr_scan", "android": "https://dc.lft.to/lastmile_qr_scan"}, "lon": -77.007889, "type": "electric_scooter"}, {"bike_id": "5c6815695ce3e517b9f066f5d22e3551", "is_reserved": 0, "fusion_lon": 0.0, "lat": 38.911064333333336, "is_disabled": 0, "name": "5c6815695ce3e517b9f066f5d22e3551", "fusion_lat": 0.0, "rental_uris": {"ios": "https://dc.lft.to/lastmile_qr_scan", "android": "https://dc.lft.to/lastmile_qr_scan"}, "lon": -77.0362555, "type": "electric_scooter"}, {"bike_id": "645a72aeb678314c4b61be7b684db234", "is_reserved": 0, "fusion_lon": 0.0, "lat": 38.896078333333335, "is_disabled": 0, "name": "645a72aeb678314c4b61be7b684db234", "fusion_lat": 0.0, "rental_uris": {"ios": "https://dc.lft.to/lastmile_qr_scan", "android": "https://dc.lft.to/lastmile_qr_scan"}, "lon": -77.04241883333333, "type": "electric_scooter"}, {"bike_id": "fc2b3b4b4d15438e5e340270a0d0f5b9", "is_reserved": 0, "fusion_lon": 0.0, "lat": 38.882099, "is_disabled": 0, "name": "fc2b3b4b4d15438e5e340270a0d0f5b9", "fusion_lat": 0.0, "rental_uris": {"ios": "https://dc.lft.to/lastmile_qr_scan", "android": "https://dc.lft.to/lastmile_qr_scan"}, "lon": -76.927008, "type": "electric_scooter"}, {"bike_id": "37e30b575d7d58275c9df5a4fc754619", "is_reserved": 0, "fusion_lon": 0.0, "lat": 38.90850833333333, "is_disabled": 0, "name": "37e30b575d7d58275c9df5a4fc754619", "fusion_lat": 0.0, "rental_uris": {"ios": "https://dc.lft.to/lastmile_qr_scan", "android": "https://dc.lft.to/lastmile_qr_scan"}, "lon": -77.01185116666667, "type": "electric_scooter"}, {"bike_id": "05aa3a16bea171297b0eef37b21ddce7", "is_reserved": 0, "fusion_lon": 0.0, "lat": 38.89608233333333, "is_disabled": 0, "name": "05aa3a16bea171297b0eef37b21ddce7", "fusion_lat": 0.0, "rental_uris": {"ios": "https://dc.lft.to/lastmile_qr_scan", "android": "https://dc.lft.to/lastmile_qr_scan"}, "lon": -77.009222, "type": "electric_scooter"}, {"bike_id": "31eaccbf04a2730fc0186abed0fa47ce", "is_reserved": 0, "fusion_lon": 0.0, "lat": 38.93326533333333, "is_disabled": 0, "name": "31eaccbf04a2730fc0186abed0fa47ce", "fusion_lat": 0.0, "rental_uris": {"ios": "https://dc.lft.to/lastmile_qr_scan", "android": "https://dc.lft.to/lastmile_qr_scan"}, "lon": -77.0326995, "type": "electric_scooter"}, {"bike_id": "1730eb7b536af5fdbe5dde30c87645a8", "is_reserved": 0, "fusion_lon": 0.0, "lat": 38.90158816666667, "is_disabled": 0, "name": "1730eb7b536af5fdbe5dde30c87645a8", "fusion_lat": 0.0, "rental_uris": {"ios": "https://dc.lft.to/lastmile_qr_scan", "android": "https://dc.lft.to/lastmile_qr_scan"}, "lon": -77.04230666666666, "type": "electric_scooter"}, {"bike_id": "573de90b3dd701a5e59063613831e0ec", "is_reserved": 0, "fusion_lon": 0.0, "lat": 38.92209016666666, "is_disabled": 0, "name": "573de90b3dd701a5e59063613831e0ec", "fusion_lat": 0.0, "rental_uris": {"ios": "https://dc.lft.to/lastmile_qr_scan", "android": "https://dc.lft.to/lastmile_qr_scan"}, "lon": -77.03657783333334, "type": "electric_scooter"}, {"bike_id": "4e555eaee47203d0f6e002c3c593bb16", "is_reserved": 0, "fusion_lon": 0.0, "lat": 38.90688883333333, "is_disabled": 0, "name": "4e555eaee47203d0f6e002c3c593bb16", "fusion_lat": 0.0, "rental_uris": {"ios": "https://dc.lft.to/lastmile_qr_scan", "android": "https://dc.lft.to/lastmile_qr_scan"}, "lon": -77.0753115, "type": "electric_scooter"}, {"bike_id": "8c173cf1e431606dc9b0a5dd19f81f20", "is_reserved": 0, "fusion_lon": 0.0, "lat": 38.9168505, "is_disabled": 0, "name": "8c173cf1e431606dc9b0a5dd19f81f20", "fusion_lat": 0.0, "rental_uris": {"ios": "https://dc.lft.to/lastmile_qr_scan", "android": "https://dc.lft.to/lastmile_qr_scan"}, "lon": -77.02961833333333, "type": "electric_scooter"}, {"bike_id": "2990b675074f0efbf2217b70e84dfee5", "is_reserved": 0, "fusion_lon": 0.0, "lat": 39.05200133333334, "is_disabled": 0, "name": "2990b675074f0efbf2217b70e84dfee5", "fusion_lat": 0.0, "rental_uris": {"ios": "https://dc.lft.to/lastmile_qr_scan", "android": "https://dc.lft.to/lastmile_qr_scan"}, "lon": -77.10913433333333, "type": "electric_bike"}, {"bike_id": "32889ca8b87c4e283cfdeade21e5f17a", "is_reserved": 0, "fusion_lon": 0.0, "lat": 38.91550066666667, "is_disabled": 0, "name": "32889ca8b87c4e283cfdeade21e5f17a", "fusion_lat": 0.0, "rental_uris": {"ios": "https://dc.lft.to/lastmile_qr_scan", "android": "https://dc.lft.to/lastmile_qr_scan"}, "lon": -77.03933133333334, "type": "electric_scooter"}, {"bike_id": "a9e79ba9a558f83a137956b54aac3784", "is_reserved": 0, "fusion_lon": 0.0, "lat": 38.934254333333335, "is_disabled": 0, "name": "a9e79ba9a558f83a137956b54aac3784", "fusion_lat": 0.0, "rental_uris": {"ios": "https://dc.lft.to/lastmile_qr_scan", "android": "https://dc.lft.to/lastmile_qr_scan"}, "lon": -77.0431385, "type": "electric_scooter"}, {"bike_id": "51cec4e1fe10b654ad8dbc59856e8649", "is_reserved": 0, "fusion_lon": 0.0, "lat": 38.89835083333333, "is_disabled": 0, "name": "51cec4e1fe10b654ad8dbc59856e8649", "fusion_lat": 0.0, "rental_uris": {"ios": "https://dc.lft.to/lastmile_qr_scan", "android": "https://dc.lft.to/lastmile_qr_scan"}, "lon": -76.94633916666666, "type": "electric_scooter"}, {"bike_id": "e311eda2268aef79c1f952b1d05d3bca", "is_reserved": 0, "fusion_lon": 0.0, "lat": 38.899698, "is_disabled": 0, "name": "e311eda2268aef79c1f952b1d05d3bca", "fusion_lat": 0.0, "rental_uris": {"ios": "https://dc.lft.to/lastmile_qr_scan", "android": "https://dc.lft.to/lastmile_qr_scan"}, "lon": -77.03920733333334, "type": "electric_bike"}, {"bike_id": "28769e769230d8a4c113a2d8c868a413", "is_reserved": 0, "fusion_lon": 0.0, "lat": 38.903821, "is_disabled": 0, "name": "28769e769230d8a4c113a2d8c868a413", "fusion_lat": 0.0, "rental_uris": {"ios": "https://dc.lft.to/lastmile_qr_scan", "android": "https://dc.lft.to/lastmile_qr_scan"}, "lon": -77.04194416666667, "type": "electric_scooter"}, {"bike_id": "45bcf0139a3b691739f374bc9ff38565", "is_reserved": 0, "fusion_lon": 0.0, "lat": 38.896285166666665, "is_disabled": 0, "name": "45bcf0139a3b691739f374bc9ff38565", "fusion_lat": 0.0, "rental_uris": {"ios": "https://dc.lft.to/lastmile_qr_scan", "android": "https://dc.lft.to/lastmile_qr_scan"}, "lon": -76.98500083333333, "type": "electric_scooter"}, {"bike_id": "8d73e4da1c5767da58a8bb78653b777d", "is_reserved": 0, "fusion_lon": 0.0, "lat": 38.902334833333335, "is_disabled": 0, "name": "8d73e4da1c5767da58a8bb78653b777d", "fusion_lat": 0.0, "rental_uris": {"ios": "https://dc.lft.to/lastmile_qr_scan", "android": "https://dc.lft.to/lastmile_qr_scan"}, "lon": -77.02685216666667, "type": "electric_scooter"}, {"bike_id": "b43db806abb00382610a02abe6040d85", "is_reserved": 0, "fusion_lon": 0.0, "lat": 38.844256, "is_disabled": 0, "name": "b43db806abb00382610a02abe6040d85", "fusion_lat": 0.0, "rental_uris": {"ios": "https://dc.lft.to/lastmile_qr_scan", "android": "https://dc.lft.to/lastmile_qr_scan"}, "lon": -76.997795, "type": "electric_scooter"}, {"bike_id": "80a153e7d7f6f4c8be390743aca5a392", "is_reserved": 0, "fusion_lon": 0.0, "lat": 38.8766445, "is_disabled": 0, "name": "80a153e7d7f6f4c8be390743aca5a392", "fusion_lat": 0.0, "rental_uris": {"ios": "https://dc.lft.to/lastmile_qr_scan", "android": "https://dc.lft.to/lastmile_qr_scan"}, "lon": -77.0006385, "type": "electric_scooter"}, {"bike_id": "ed023c8265bad3bd9a73fa09684340c3", "is_reserved": 0, "fusion_lon": 0.0, "lat": 38.903747333333335, "is_disabled": 0, "name": "ed023c8265bad3bd9a73fa09684340c3", "fusion_lat": 0.0, "rental_uris": {"ios": "https://dc.lft.to/lastmile_qr_scan", "android": "https://dc.lft.to/lastmile_qr_scan"}, "lon": -77.04371683333333, "type": "electric_scooter"}, {"bike_id": "ca89db831d44d1555ee2591c3057ac6d", "is_reserved": 0, "fusion_lon": 0.0, "lat": 38.89718533333333, "is_disabled": 0, "name": "ca89db831d44d1555ee2591c3057ac6d", "fusion_lat": 0.0, "rental_uris": {"ios": "https://dc.lft.to/lastmile_qr_scan", "android": "https://dc.lft.to/lastmile_qr_scan"}, "lon": -77.02730833333334, "type": "electric_scooter"}, {"bike_id": "4602912eab6b661549441f1f79b26320", "is_reserved": 0, "fusion_lon": 0.0, "lat": 38.895429, "is_disabled": 0, "name": "4602912eab6b661549441f1f79b26320", "fusion_lat": 0.0, "rental_uris": {"ios": "https://dc.lft.to/lastmile_qr_scan", "android": "https://dc.lft.to/lastmile_qr_scan"}, "lon": -77.01884133333333, "type": "electric_scooter"}, {"bike_id": "ce99debc0a270ffe66a6dd4c05ad5b15", "is_reserved": 0, "fusion_lon": 0.0, "lat": 38.9056975, "is_disabled": 0, "name": "ce99debc0a270ffe66a6dd4c05ad5b15", "fusion_lat": 0.0, "rental_uris": {"ios": "https://dc.lft.to/lastmile_qr_scan", "android": "https://dc.lft.to/lastmile_qr_scan"}, "lon": -77.03623883333333, "type": "electric_scooter"}, {"bike_id": "6e6e9082dd28c6af4ea9e7cd92ad0e28", "is_reserved": 0, "fusion_lon": 0.0, "lat": 38.911961833333336, "is_disabled": 0, "name": "6e6e9082dd28c6af4ea9e7cd92ad0e28", "fusion_lat": 0.0, "rental_uris": {"ios": "https://dc.lft.to/lastmile_qr_scan", "android": "https://dc.lft.to/lastmile_qr_scan"}, "lon": -77.06097683333333, "type": "electric_scooter"}, {"bike_id": "a6b1b1356d75c4224883068f38655a0e", "is_reserved": 0, "fusion_lon": 0.0, "lat": 38.928407666666665, "is_disabled": 0, "name": "a6b1b1356d75c4224883068f38655a0e", "fusion_lat": 0.0, "rental_uris": {"ios": "https://dc.lft.to/lastmile_qr_scan", "android": "https://dc.lft.to/lastmile_qr_scan"}, "lon": -77.01366666666667, "type": "electric_scooter"}, {"bike_id": "40bc28ffdb84acc6d84da2494338a613", "is_reserved": 0, "fusion_lon": 0.0, "lat": 38.959571833333335, "is_disabled": 0, "name": "40bc28ffdb84acc6d84da2494338a613", "fusion_lat": 0.0, "rental_uris": {"ios": "https://dc.lft.to/lastmile_qr_scan", "android": "https://dc.lft.to/lastmile_qr_scan"}, "lon": -77.10092466666667, "type": "electric_bike"}, {"bike_id": "12d8b2ddf65630bdf625f0e90b7a44f8", "is_reserved": 0, "fusion_lon": 0.0, "lat": 38.91197233333333, "is_disabled": 0, "name": "12d8b2ddf65630bdf625f0e90b7a44f8", "fusion_lat": 0.0, "rental_uris": {"ios": "https://dc.lft.to/lastmile_qr_scan", "android": "https://dc.lft.to/lastmile_qr_scan"}, "lon": -77.0732085, "type": "electric_scooter"}, {"bike_id": "8c401f87597f16ae09bf050d5c2f7b07", "is_reserved": 0, "fusion_lon": 0.0, "lat": 38.92475666666667, "is_disabled": 0, "name": "8c401f87597f16ae09bf050d5c2f7b07", "fusion_lat": 0.0, "rental_uris": {"ios": "https://dc.lft.to/lastmile_qr_scan", "android": "https://dc.lft.to/lastmile_qr_scan"}, "lon": -77.03914116666667, "type": "electric_scooter"}, {"bike_id": "c916e5846268991cc6adac9fc3014ceb", "is_reserved": 0, "fusion_lon": 0.0, "lat": 38.90064, "is_disabled": 0, "name": "c916e5846268991cc6adac9fc3014ceb", "fusion_lat": 0.0, "rental_uris": {"ios": "https://dc.lft.to/lastmile_qr_scan", "android": "https://dc.lft.to/lastmile_qr_scan"}, "lon": -77.04567216666666, "type": "electric_bike"}, {"bike_id": "7fa427629ffab9db0fd6998904b53bfb", "is_reserved": 0, "fusion_lon": 0.0, "lat": 38.884950333333336, "is_disabled": 0, "name": "7fa427629ffab9db0fd6998904b53bfb", "fusion_lat": 0.0, "rental_uris": {"ios": "https://dc.lft.to/lastmile_qr_scan", "android": "https://dc.lft.to/lastmile_qr_scan"}, "lon": -77.0072965, "type": "electric_scooter"}, {"bike_id": "62b297b3a02f6a7b2732d7045f8928ee", "is_reserved": 0, "fusion_lon": 0.0, "lat": 38.91950466666667, "is_disabled": 0, "name": "62b297b3a02f6a7b2732d7045f8928ee", "fusion_lat": 0.0, "rental_uris": {"ios": "https://dc.lft.to/lastmile_qr_scan", "android": "https://dc.lft.to/lastmile_qr_scan"}, "lon": -77.02505083333334, "type": "electric_scooter"}, {"bike_id": "59e578afcdc7093db10282ac62f87e47", "is_reserved": 0, "fusion_lon": 0.0, "lat": 38.90464266666667, "is_disabled": 0, "name": "59e578afcdc7093db10282ac62f87e47", "fusion_lat": 0.0, "rental_uris": {"ios": "https://dc.lft.to/lastmile_qr_scan", "android": "https://dc.lft.to/lastmile_qr_scan"}, "lon": -77.03949466666667, "type": "electric_scooter"}, {"bike_id": "7a85e7b86be8b5d19f2be280f581ca16", "is_reserved": 0, "fusion_lon": 0.0, "lat": 38.902604, "is_disabled": 0, "name": "7a85e7b86be8b5d19f2be280f581ca16", "fusion_lat": 0.0, "rental_uris": {"ios": "https://dc.lft.to/lastmile_qr_scan", "android": "https://dc.lft.to/lastmile_qr_scan"}, "lon": -77.0334155, "type": "electric_scooter"}, {"bike_id": "522f70de1454621e325df0d062770161", "is_reserved": 0, "fusion_lon": 0.0, "lat": 38.86734033333333, "is_disabled": 0, "name": "522f70de1454621e325df0d062770161", "fusion_lat": 0.0, "rental_uris": {"ios": "https://dc.lft.to/lastmile_qr_scan", "android": "https://dc.lft.to/lastmile_qr_scan"}, "lon": -77.01377266666667, "type": "electric_scooter"}, {"bike_id": "d22faf663ac0789b5782940895b4de8f", "is_reserved": 0, "fusion_lon": 0.0, "lat": 38.93184133333333, "is_disabled": 0, "name": "d22faf663ac0789b5782940895b4de8f", "fusion_lat": 0.0, "rental_uris": {"ios": "https://dc.lft.to/lastmile_qr_scan", "android": "https://dc.lft.to/lastmile_qr_scan"}, "lon": -77.03857233333333, "type": "electric_scooter"}, {"bike_id": "1f1cdb700223b5144e0e5f42db2645d6", "is_reserved": 0, "fusion_lon": 0.0, "lat": 38.9241985, "is_disabled": 0, "name": "1f1cdb700223b5144e0e5f42db2645d6", "fusion_lat": 0.0, "rental_uris": {"ios": "https://dc.lft.to/lastmile_qr_scan", "android": "https://dc.lft.to/lastmile_qr_scan"}, "lon": -77.03652383333333, "type": "electric_scooter"}, {"bike_id": "21b8dc4253d20656bdff03167790b13a", "is_reserved": 0, "fusion_lon": 0.0, "lat": 38.9173255, "is_disabled": 0, "name": "21b8dc4253d20656bdff03167790b13a", "fusion_lat": 0.0, "rental_uris": {"ios": "https://dc.lft.to/lastmile_qr_scan", "android": "https://dc.lft.to/lastmile_qr_scan"}, "lon": -77.02300533333333, "type": "electric_scooter"}, {"bike_id": "c803ceebcb6561cbba59b73b84e1ea79", "is_reserved": 0, "fusion_lon": 0.0, "lat": 38.89831266666667, "is_disabled": 0, "name": "c803ceebcb6561cbba59b73b84e1ea79", "fusion_lat": 0.0, "rental_uris": {"ios": "https://dc.lft.to/lastmile_qr_scan", "android": "https://dc.lft.to/lastmile_qr_scan"}, "lon": -76.94637116666667, "type": "electric_scooter"}, {"bike_id": "0ca87472acfdd69757a42216dea4d7ff", "is_reserved": 0, "fusion_lon": 0.0, "lat": 38.91668266666667, "is_disabled": 0, "name": "0ca87472acfdd69757a42216dea4d7ff", "fusion_lat": 0.0, "rental_uris": {"ios": "https://dc.lft.to/lastmile_qr_scan", "android": "https://dc.lft.to/lastmile_qr_scan"}, "lon": -77.02292833333334, "type": "electric_scooter"}, {"bike_id": "44ca772b208e09db6eddfe5274b4d3bb", "is_reserved": 0, "fusion_lon": 0.0, "lat": 38.89875583333333, "is_disabled": 0, "name": "44ca772b208e09db6eddfe5274b4d3bb", "fusion_lat": 0.0, "rental_uris": {"ios": "https://dc.lft.to/lastmile_qr_scan", "android": "https://dc.lft.to/lastmile_qr_scan"}, "lon": -76.93185416666667, "type": "electric_scooter"}, {"bike_id": "5f7056520b81e38193cfe61157d86d58", "is_reserved": 0, "fusion_lon": 0.0, "lat": 38.92016066666667, "is_disabled": 0, "name": "5f7056520b81e38193cfe61157d86d58", "fusion_lat": 0.0, "rental_uris": {"ios": "https://dc.lft.to/lastmile_qr_scan", "android": "https://dc.lft.to/lastmile_qr_scan"}, "lon": -77.03774316666667, "type": "electric_scooter"}, {"bike_id": "43b927ec3ab18b47c56d163870c5e076", "is_reserved": 0, "fusion_lon": 0.0, "lat": 38.93959666666667, "is_disabled": 0, "name": "43b927ec3ab18b47c56d163870c5e076", "fusion_lat": 0.0, "rental_uris": {"ios": "https://dc.lft.to/lastmile_qr_scan", "android": "https://dc.lft.to/lastmile_qr_scan"}, "lon": -77.36086433333334, "type": "electric_bike"}, {"bike_id": "53316cfd403eea816c58984e317093a8", "is_reserved": 0, "fusion_lon": 0.0, "lat": 38.903746, "is_disabled": 0, "name": "53316cfd403eea816c58984e317093a8", "fusion_lat": 0.0, "rental_uris": {"ios": "https://dc.lft.to/lastmile_qr_scan", "android": "https://dc.lft.to/lastmile_qr_scan"}, "lon": -77.02747683333334, "type": "electric_scooter"}, {"bike_id": "a8c01ae64c6d3fe3421ca7f69240b8f6", "is_reserved": 0, "fusion_lon": 0.0, "lat": 38.8992675, "is_disabled": 0, "name": "a8c01ae64c6d3fe3421ca7f69240b8f6", "fusion_lat": 0.0, "rental_uris": {"ios": "https://dc.lft.to/lastmile_qr_scan", "android": "https://dc.lft.to/lastmile_qr_scan"}, "lon": -77.003559, "type": "electric_scooter"}, {"bike_id": "db282418f6c062005523a4348d23b91c", "is_reserved": 0, "fusion_lon": 0.0, "lat": 38.9274785, "is_disabled": 0, "name": "db282418f6c062005523a4348d23b91c", "fusion_lat": 0.0, "rental_uris": {"ios": "https://dc.lft.to/lastmile_qr_scan", "android": "https://dc.lft.to/lastmile_qr_scan"}, "lon": -77.0248275, "type": "electric_scooter"}, {"bike_id": "3d46971a49e05b54126c091ed524e308", "is_reserved": 0, "fusion_lon": 0.0, "lat": 38.952897666666665, "is_disabled": 0, "name": "3d46971a49e05b54126c091ed524e308", "fusion_lat": 0.0, "rental_uris": {"ios": "https://dc.lft.to/lastmile_qr_scan", "android": "https://dc.lft.to/lastmile_qr_scan"}, "lon": -76.94597266666666, "type": "electric_bike"}, {"bike_id": "3d9e9588e92d9e532da4693183e2909c", "is_reserved": 0, "fusion_lon": 0.0, "lat": 38.8971835, "is_disabled": 0, "name": "3d9e9588e92d9e532da4693183e2909c", "fusion_lat": 0.0, "rental_uris": {"ios": "https://dc.lft.to/lastmile_qr_scan", "android": "https://dc.lft.to/lastmile_qr_scan"}, "lon": -77.027317, "type": "electric_scooter"}, {"bike_id": "45876ee166cff682d3efb50951a219e2", "is_reserved": 0, "fusion_lon": 0.0, "lat": 38.9027925, "is_disabled": 0, "name": "45876ee166cff682d3efb50951a219e2", "fusion_lat": 0.0, "rental_uris": {"ios": "https://dc.lft.to/lastmile_qr_scan", "android": "https://dc.lft.to/lastmile_qr_scan"}, "lon": -77.03854483333333, "type": "electric_scooter"}, {"bike_id": "4ae78de57b18bba9b254be6b7745fd24", "is_reserved": 0, "fusion_lon": 0.0, "lat": 38.94016833333333, "is_disabled": 0, "name": "4ae78de57b18bba9b254be6b7745fd24", "fusion_lat": 0.0, "rental_uris": {"ios": "https://dc.lft.to/lastmile_qr_scan", "android": "https://dc.lft.to/lastmile_qr_scan"}, "lon": -77.0717205, "type": "electric_scooter"}, {"bike_id": "3f2a5ef322bd205465ab71c41683e7f8", "is_reserved": 0, "fusion_lon": 0.0, "lat": 38.902415166666664, "is_disabled": 0, "name": "3f2a5ef322bd205465ab71c41683e7f8", "fusion_lat": 0.0, "rental_uris": {"ios": "https://dc.lft.to/lastmile_qr_scan", "android": "https://dc.lft.to/lastmile_qr_scan"}, "lon": -77.04652, "type": "electric_scooter"}, {"bike_id": "e535ec5a5a40bcf2d3158434efb91b6d", "is_reserved": 0, "fusion_lon": 0.0, "lat": 38.89826033333333, "is_disabled": 0, "name": "e535ec5a5a40bcf2d3158434efb91b6d", "fusion_lat": 0.0, "rental_uris": {"ios": "https://dc.lft.to/lastmile_qr_scan", "android": "https://dc.lft.to/lastmile_qr_scan"}, "lon": -77.03346066666667, "type": "electric_scooter"}, {"bike_id": "4962f287574d846b23ba124ca3d2adf0", "is_reserved": 0, "fusion_lon": 0.0, "lat": 38.928883, "is_disabled": 0, "name": "4962f287574d846b23ba124ca3d2adf0", "fusion_lat": 0.0, "rental_uris": {"ios": "https://dc.lft.to/lastmile_qr_scan", "android": "https://dc.lft.to/lastmile_qr_scan"}, "lon": -77.03311233333334, "type": "electric_scooter"}, {"bike_id": "92a2278cc81457664d87f1aadbcc3a9e", "is_reserved": 0, "fusion_lon": 0.0, "lat": 38.9034735, "is_disabled": 0, "name": "92a2278cc81457664d87f1aadbcc3a9e", "fusion_lat": 0.0, "rental_uris": {"ios": "https://dc.lft.to/lastmile_qr_scan", "android": "https://dc.lft.to/lastmile_qr_scan"}, "lon": -77.04533233333333, "type": "electric_scooter"}, {"bike_id": "72b09065b68b404f27bff75cdb15dd1a", "is_reserved": 0, "fusion_lon": 0.0, "lat": 38.92066833333333, "is_disabled": 0, "name": "72b09065b68b404f27bff75cdb15dd1a", "fusion_lat": 0.0, "rental_uris": {"ios": "https://dc.lft.to/lastmile_qr_scan", "android": "https://dc.lft.to/lastmile_qr_scan"}, "lon": -77.04378816666667, "type": "electric_scooter"}, {"bike_id": "bc1513469155860d239f791f72e090b1", "is_reserved": 0, "fusion_lon": 0.0, "lat": 38.95105316666667, "is_disabled": 0, "name": "bc1513469155860d239f791f72e090b1", "fusion_lat": 0.0, "rental_uris": {"ios": "https://dc.lft.to/lastmile_qr_scan", "android": "https://dc.lft.to/lastmile_qr_scan"}, "lon": -77.015786, "type": "electric_scooter"}, {"bike_id": "71d99b273ccef5849ac3f13b61344971", "is_reserved": 0, "fusion_lon": 0.0, "lat": 38.89791866666667, "is_disabled": 0, "name": "71d99b273ccef5849ac3f13b61344971", "fusion_lat": 0.0, "rental_uris": {"ios": "https://dc.lft.to/lastmile_qr_scan", "android": "https://dc.lft.to/lastmile_qr_scan"}, "lon": -77.00595383333334, "type": "electric_bike"}, {"bike_id": "8b4ec5cfcfd7437fed850b217e102949", "is_reserved": 0, "fusion_lon": 0.0, "lat": 38.90960333333334, "is_disabled": 0, "name": "8b4ec5cfcfd7437fed850b217e102949", "fusion_lat": 0.0, "rental_uris": {"ios": "https://dc.lft.to/lastmile_qr_scan", "android": "https://dc.lft.to/lastmile_qr_scan"}, "lon": -77.03768316666667, "type": "electric_scooter"}, {"bike_id": "2ca61b62012d3042fe3127343974d0ca", "is_reserved": 0, "fusion_lon": 0.0, "lat": 38.850641333333336, "is_disabled": 0, "name": "2ca61b62012d3042fe3127343974d0ca", "fusion_lat": 0.0, "rental_uris": {"ios": "https://dc.lft.to/lastmile_qr_scan", "android": "https://dc.lft.to/lastmile_qr_scan"}, "lon": -76.973303, "type": "electric_bike"}, {"bike_id": "4ec4cabd3e91a25e40474d092b8c1a5c", "is_reserved": 0, "fusion_lon": 0.0, "lat": 38.89627266666667, "is_disabled": 0, "name": "4ec4cabd3e91a25e40474d092b8c1a5c", "fusion_lat": 0.0, "rental_uris": {"ios": "https://dc.lft.to/lastmile_qr_scan", "android": "https://dc.lft.to/lastmile_qr_scan"}, "lon": -77.04504333333334, "type": "electric_scooter"}, {"bike_id": "bf00c06b1a4e7ee872958beafecd30f4", "is_reserved": 0, "fusion_lon": 0.0, "lat": 38.877017333333335, "is_disabled": 0, "name": "bf00c06b1a4e7ee872958beafecd30f4", "fusion_lat": 0.0, "rental_uris": {"ios": "https://dc.lft.to/lastmile_qr_scan", "android": "https://dc.lft.to/lastmile_qr_scan"}, "lon": -77.01730616666667, "type": "electric_scooter"}, {"bike_id": "cdab9e72fd6f053fffb2c3d2a559fe97", "is_reserved": 0, "fusion_lon": 0.0, "lat": 38.883735, "is_disabled": 0, "name": "cdab9e72fd6f053fffb2c3d2a559fe97", "fusion_lat": 0.0, "rental_uris": {"ios": "https://dc.lft.to/lastmile_qr_scan", "android": "https://dc.lft.to/lastmile_qr_scan"}, "lon": -76.995272, "type": "electric_scooter"}, {"bike_id": "e1c67e0ae83c4533235aea70ecc5abe5", "is_reserved": 0, "fusion_lon": 0.0, "lat": 38.93536483333333, "is_disabled": 0, "name": "e1c67e0ae83c4533235aea70ecc5abe5", "fusion_lat": 0.0, "rental_uris": {"ios": "https://dc.lft.to/lastmile_qr_scan", "android": "https://dc.lft.to/lastmile_qr_scan"}, "lon": -77.023535, "type": "electric_scooter"}, {"bike_id": "80d74c13f365765869b32f25eb945f10", "is_reserved": 0, "fusion_lon": 0.0, "lat": 38.91254816666667, "is_disabled": 0, "name": "80d74c13f365765869b32f25eb945f10", "fusion_lat": 0.0, "rental_uris": {"ios": "https://dc.lft.to/lastmile_qr_scan", "android": "https://dc.lft.to/lastmile_qr_scan"}, "lon": -77.01201133333333, "type": "electric_scooter"}, {"bike_id": "5032f7dbd0bd9852b484460e57fdb85d", "is_reserved": 0, "fusion_lon": 0.0, "lat": 38.9538245, "is_disabled": 0, "name": "5032f7dbd0bd9852b484460e57fdb85d", "fusion_lat": 0.0, "rental_uris": {"ios": "https://dc.lft.to/lastmile_qr_scan", "android": "https://dc.lft.to/lastmile_qr_scan"}, "lon": -76.99920933333334, "type": "electric_scooter"}, {"bike_id": "693fa254b729ab57670b533b867037c7", "is_reserved": 0, "fusion_lon": 0.0, "lat": 38.896105166666665, "is_disabled": 0, "name": "693fa254b729ab57670b533b867037c7", "fusion_lat": 0.0, "rental_uris": {"ios": "https://dc.lft.to/lastmile_qr_scan", "android": "https://dc.lft.to/lastmile_qr_scan"}, "lon": -77.0454615, "type": "electric_scooter"}, {"bike_id": "9fa93ddd2cc279a81d5fcb4a19562bbc", "is_reserved": 0, "fusion_lon": 0.0, "lat": 38.89617033333333, "is_disabled": 0, "name": "9fa93ddd2cc279a81d5fcb4a19562bbc", "fusion_lat": 0.0, "rental_uris": {"ios": "https://dc.lft.to/lastmile_qr_scan", "android": "https://dc.lft.to/lastmile_qr_scan"}, "lon": -76.9856725, "type": "electric_scooter"}, {"bike_id": "c3c5ff9e21bb0a6a63783b07fb18140e", "is_reserved": 0, "fusion_lon": 0.0, "lat": 38.884931, "is_disabled": 0, "name": "c3c5ff9e21bb0a6a63783b07fb18140e", "fusion_lat": 0.0, "rental_uris": {"ios": "https://dc.lft.to/lastmile_qr_scan", "android": "https://dc.lft.to/lastmile_qr_scan"}, "lon": -77.00729033333333, "type": "electric_scooter"}, {"bike_id": "15a9e68aad2dae73cd101c8cbcc8c519", "is_reserved": 0, "fusion_lon": 0.0, "lat": 38.8874925, "is_disabled": 0, "name": "15a9e68aad2dae73cd101c8cbcc8c519", "fusion_lat": 0.0, "rental_uris": {"ios": "https://dc.lft.to/lastmile_qr_scan", "android": "https://dc.lft.to/lastmile_qr_scan"}, "lon": -77.0202505, "type": "electric_scooter"}, {"bike_id": "b69aca3f2b2a8009b71b931522173508", "is_reserved": 0, "fusion_lon": 0.0, "lat": 38.88233733333333, "is_disabled": 0, "name": "b69aca3f2b2a8009b71b931522173508", "fusion_lat": 0.0, "rental_uris": {"ios": "https://dc.lft.to/lastmile_qr_scan", "android": "https://dc.lft.to/lastmile_qr_scan"}, "lon": -76.99086166666666, "type": "electric_scooter"}, {"bike_id": "57c75e05b6f4542e3d19af5d682e8837", "is_reserved": 0, "fusion_lon": 0.0, "lat": 38.91986966666666, "is_disabled": 0, "name": "57c75e05b6f4542e3d19af5d682e8837", "fusion_lat": 0.0, "rental_uris": {"ios": "https://dc.lft.to/lastmile_qr_scan", "android": "https://dc.lft.to/lastmile_qr_scan"}, "lon": -76.97310183333333, "type": "electric_scooter"}, {"bike_id": "f1e86a8e8cbe5f7cc03bc1737c550061", "is_reserved": 0, "fusion_lon": 0.0, "lat": 38.88767566666667, "is_disabled": 0, "name": "f1e86a8e8cbe5f7cc03bc1737c550061", "fusion_lat": 0.0, "rental_uris": {"ios": "https://dc.lft.to/lastmile_qr_scan", "android": "https://dc.lft.to/lastmile_qr_scan"}, "lon": -77.03139016666667, "type": "electric_scooter"}, {"bike_id": "63db7729c7bd23a1560463cab3bd3355", "is_reserved": 0, "fusion_lon": 0.0, "lat": 38.9026695, "is_disabled": 0, "name": "63db7729c7bd23a1560463cab3bd3355", "fusion_lat": 0.0, "rental_uris": {"ios": "https://dc.lft.to/lastmile_qr_scan", "android": "https://dc.lft.to/lastmile_qr_scan"}, "lon": -77.02801233333334, "type": "electric_scooter"}, {"bike_id": "599ff65b8609de46c3c8d0af27702764", "is_reserved": 0, "fusion_lon": 0.0, "lat": 38.922759166666665, "is_disabled": 0, "name": "599ff65b8609de46c3c8d0af27702764", "fusion_lat": 0.0, "rental_uris": {"ios": "https://dc.lft.to/lastmile_qr_scan", "android": "https://dc.lft.to/lastmile_qr_scan"}, "lon": -77.04123733333333, "type": "electric_scooter"}, {"bike_id": "a500bd344e57e27c96e14ff69af841b2", "is_reserved": 0, "fusion_lon": 0.0, "lat": 38.902192, "is_disabled": 0, "name": "a500bd344e57e27c96e14ff69af841b2", "fusion_lat": 0.0, "rental_uris": {"ios": "https://dc.lft.to/lastmile_qr_scan", "android": "https://dc.lft.to/lastmile_qr_scan"}, "lon": -76.95053983333334, "type": "electric_bike"}, {"bike_id": "68d61c38892e81d9abf2413760954bdf", "is_reserved": 0, "fusion_lon": 0.0, "lat": 38.90589516666667, "is_disabled": 0, "name": "68d61c38892e81d9abf2413760954bdf", "fusion_lat": 0.0, "rental_uris": {"ios": "https://dc.lft.to/lastmile_qr_scan", "android": "https://dc.lft.to/lastmile_qr_scan"}, "lon": -77.05107766666667, "type": "electric_scooter"}, {"bike_id": "1776591093693f0458bd42908c017571", "is_reserved": 0, "fusion_lon": 0.0, "lat": 38.887416, "is_disabled": 0, "name": "1776591093693f0458bd42908c017571", "fusion_lat": 0.0, "rental_uris": {"ios": "https://dc.lft.to/lastmile_qr_scan", "android": "https://dc.lft.to/lastmile_qr_scan"}, "lon": -77.031768, "type": "electric_scooter"}, {"bike_id": "a67ee41d58e25664b51873cc3c4882df", "is_reserved": 0, "fusion_lon": 0.0, "lat": 38.89558483333333, "is_disabled": 0, "name": "a67ee41d58e25664b51873cc3c4882df", "fusion_lat": 0.0, "rental_uris": {"ios": "https://dc.lft.to/lastmile_qr_scan", "android": "https://dc.lft.to/lastmile_qr_scan"}, "lon": -77.12731183333334, "type": "electric_bike"}, {"bike_id": "4ae1450f685191eaa7bbb0df33821609", "is_reserved": 0, "fusion_lon": 0.0, "lat": 38.898317, "is_disabled": 0, "name": "4ae1450f685191eaa7bbb0df33821609", "fusion_lat": 0.0, "rental_uris": {"ios": "https://dc.lft.to/lastmile_qr_scan", "android": "https://dc.lft.to/lastmile_qr_scan"}, "lon": -77.05032566666667, "type": "electric_scooter"}, {"bike_id": "49835af1f57aadea57a31551f96eca7b", "is_reserved": 0, "fusion_lon": 0.0, "lat": 38.90118233333333, "is_disabled": 0, "name": "49835af1f57aadea57a31551f96eca7b", "fusion_lat": 0.0, "rental_uris": {"ios": "https://dc.lft.to/lastmile_qr_scan", "android": "https://dc.lft.to/lastmile_qr_scan"}, "lon": -77.04303083333333, "type": "electric_scooter"}, {"bike_id": "ab0af974f9e97a40cfde66cd46fcd4ad", "is_reserved": 0, "fusion_lon": 0.0, "lat": 38.917596333333336, "is_disabled": 0, "name": "ab0af974f9e97a40cfde66cd46fcd4ad", "fusion_lat": 0.0, "rental_uris": {"ios": "https://dc.lft.to/lastmile_qr_scan", "android": "https://dc.lft.to/lastmile_qr_scan"}, "lon": -77.01604933333333, "type": "electric_scooter"}, {"bike_id": "6e43b2bb48aa42ac31dee0eff6dcc751", "is_reserved": 0, "fusion_lon": 0.0, "lat": 38.861597, "is_disabled": 0, "name": "6e43b2bb48aa42ac31dee0eff6dcc751", "fusion_lat": 0.0, "rental_uris": {"ios": "https://dc.lft.to/lastmile_qr_scan", "android": "https://dc.lft.to/lastmile_qr_scan"}, "lon": -77.1309415, "type": "electric_bike"}, {"bike_id": "0a14ad541a0ce74dbaf74bcebb86a42a", "is_reserved": 0, "fusion_lon": 0.0, "lat": 38.89619066666667, "is_disabled": 0, "name": "0a14ad541a0ce74dbaf74bcebb86a42a", "fusion_lat": 0.0, "rental_uris": {"ios": "https://dc.lft.to/lastmile_qr_scan", "android": "https://dc.lft.to/lastmile_qr_scan"}, "lon": -76.995705, "type": "electric_scooter"}, {"bike_id": "e65fc59b463840d23a12d5d754e11fc8", "is_reserved": 0, "fusion_lon": 0.0, "lat": 38.895413166666664, "is_disabled": 0, "name": "e65fc59b463840d23a12d5d754e11fc8", "fusion_lat": 0.0, "rental_uris": {"ios": "https://dc.lft.to/lastmile_qr_scan", "android": "https://dc.lft.to/lastmile_qr_scan"}, "lon": -76.98077766666667, "type": "electric_scooter"}, {"bike_id": "764e1f915685d443f693dbd858cb67c0", "is_reserved": 0, "fusion_lon": 0.0, "lat": 38.967584333333335, "is_disabled": 0, "name": "764e1f915685d443f693dbd858cb67c0", "fusion_lat": 0.0, "rental_uris": {"ios": "https://dc.lft.to/lastmile_qr_scan", "android": "https://dc.lft.to/lastmile_qr_scan"}, "lon": -77.091693, "type": "electric_bike"}, {"bike_id": "cd239740e5626ac4f7503c5a0c3f9825", "is_reserved": 0, "fusion_lon": 0.0, "lat": 38.89223033333333, "is_disabled": 0, "name": "cd239740e5626ac4f7503c5a0c3f9825", "fusion_lat": 0.0, "rental_uris": {"ios": "https://dc.lft.to/lastmile_qr_scan", "android": "https://dc.lft.to/lastmile_qr_scan"}, "lon": -77.03340616666667, "type": "electric_scooter"}, {"bike_id": "35eeb80abbf9254ce456de4c2d0ffadb", "is_reserved": 0, "fusion_lon": 0.0, "lat": 38.90639733333333, "is_disabled": 0, "name": "35eeb80abbf9254ce456de4c2d0ffadb", "fusion_lat": 0.0, "rental_uris": {"ios": "https://dc.lft.to/lastmile_qr_scan", "android": "https://dc.lft.to/lastmile_qr_scan"}, "lon": -77.03867016666666, "type": "electric_scooter"}, {"bike_id": "575c6c6beb0daece5641d7c264cc04bd", "is_reserved": 0, "fusion_lon": 0.0, "lat": 38.915726166666666, "is_disabled": 0, "name": "575c6c6beb0daece5641d7c264cc04bd", "fusion_lat": 0.0, "rental_uris": {"ios": "https://dc.lft.to/lastmile_qr_scan", "android": "https://dc.lft.to/lastmile_qr_scan"}, "lon": -77.03185833333333, "type": "electric_scooter"}, {"bike_id": "7d9bd779bca04a9aab837a029ef7a3f9", "is_reserved": 0, "fusion_lon": 0.0, "lat": 38.9264165, "is_disabled": 0, "name": "7d9bd779bca04a9aab837a029ef7a3f9", "fusion_lat": 0.0, "rental_uris": {"ios": "https://dc.lft.to/lastmile_qr_scan", "android": "https://dc.lft.to/lastmile_qr_scan"}, "lon": -77.021506, "type": "electric_scooter"}, {"bike_id": "9dbc440600068b59b719bf7739a2c3db", "is_reserved": 0, "fusion_lon": 0.0, "lat": 38.90315533333333, "is_disabled": 0, "name": "9dbc440600068b59b719bf7739a2c3db", "fusion_lat": 0.0, "rental_uris": {"ios": "https://dc.lft.to/lastmile_qr_scan", "android": "https://dc.lft.to/lastmile_qr_scan"}, "lon": -77.02572933333333, "type": "electric_scooter"}, {"bike_id": "9304982efc73a782583624c725a56816", "is_reserved": 0, "fusion_lon": 0.0, "lat": 38.9133605, "is_disabled": 0, "name": "9304982efc73a782583624c725a56816", "fusion_lat": 0.0, "rental_uris": {"ios": "https://dc.lft.to/lastmile_qr_scan", "android": "https://dc.lft.to/lastmile_qr_scan"}, "lon": -77.03443583333333, "type": "electric_scooter"}, {"bike_id": "c5bb476c948091f6c59addff05ac0e4b", "is_reserved": 0, "fusion_lon": 0.0, "lat": 38.90427283333333, "is_disabled": 0, "name": "c5bb476c948091f6c59addff05ac0e4b", "fusion_lat": 0.0, "rental_uris": {"ios": "https://dc.lft.to/lastmile_qr_scan", "android": "https://dc.lft.to/lastmile_qr_scan"}, "lon": -77.02951083333333, "type": "electric_scooter"}, {"bike_id": "3b2f8b8c7b9d45b2619d67dc79ad604c", "is_reserved": 0, "fusion_lon": 0.0, "lat": 38.901164666666666, "is_disabled": 0, "name": "3b2f8b8c7b9d45b2619d67dc79ad604c", "fusion_lat": 0.0, "rental_uris": {"ios": "https://dc.lft.to/lastmile_qr_scan", "android": "https://dc.lft.to/lastmile_qr_scan"}, "lon": -77.043536, "type": "electric_scooter"}, {"bike_id": "5e51c86efb7997694bdd2c563c8b6655", "is_reserved": 0, "fusion_lon": 0.0, "lat": 38.90183, "is_disabled": 0, "name": "5e51c86efb7997694bdd2c563c8b6655", "fusion_lat": 0.0, "rental_uris": {"ios": "https://dc.lft.to/lastmile_qr_scan", "android": "https://dc.lft.to/lastmile_qr_scan"}, "lon": -76.92995983333333, "type": "electric_scooter"}, {"bike_id": "a4c4a955305ce57c51cf231f37f559d9", "is_reserved": 0, "fusion_lon": 0.0, "lat": 38.88372866666667, "is_disabled": 0, "name": "a4c4a955305ce57c51cf231f37f559d9", "fusion_lat": 0.0, "rental_uris": {"ios": "https://dc.lft.to/lastmile_qr_scan", "android": "https://dc.lft.to/lastmile_qr_scan"}, "lon": -76.99562583333334, "type": "electric_scooter"}, {"bike_id": "aaa313ef9729b5cdfa7be1fa36aef8a8", "is_reserved": 0, "fusion_lon": 0.0, "lat": 38.9138475, "is_disabled": 0, "name": "aaa313ef9729b5cdfa7be1fa36aef8a8", "fusion_lat": 0.0, "rental_uris": {"ios": "https://dc.lft.to/lastmile_qr_scan", "android": "https://dc.lft.to/lastmile_qr_scan"}, "lon": -77.044715, "type": "electric_scooter"}, {"bike_id": "879f1768c99c5901d558eb5daf1b7106", "is_reserved": 0, "fusion_lon": 0.0, "lat": 38.88133766666667, "is_disabled": 0, "name": "879f1768c99c5901d558eb5daf1b7106", "fusion_lat": 0.0, "rental_uris": {"ios": "https://dc.lft.to/lastmile_qr_scan", "android": "https://dc.lft.to/lastmile_qr_scan"}, "lon": -77.02705833333333, "type": "electric_bike"}, {"bike_id": "d3ae562fedf45cf6fe6293bf02c1b56b", "is_reserved": 0, "fusion_lon": 0.0, "lat": 38.913320666666664, "is_disabled": 0, "name": "d3ae562fedf45cf6fe6293bf02c1b56b", "fusion_lat": 0.0, "rental_uris": {"ios": "https://dc.lft.to/lastmile_qr_scan", "android": "https://dc.lft.to/lastmile_qr_scan"}, "lon": -77.04836933333333, "type": "electric_scooter"}, {"bike_id": "493cb8e6b8053cecce0c5add6089ccd8", "is_reserved": 0, "fusion_lon": 0.0, "lat": 38.88405233333334, "is_disabled": 0, "name": "493cb8e6b8053cecce0c5add6089ccd8", "fusion_lat": 0.0, "rental_uris": {"ios": "https://dc.lft.to/lastmile_qr_scan", "android": "https://dc.lft.to/lastmile_qr_scan"}, "lon": -77.0261255, "type": "electric_scooter"}, {"bike_id": "5d67cf70d6d5bdd5ee717735ef58ee69", "is_reserved": 0, "fusion_lon": 0.0, "lat": 38.93528833333333, "is_disabled": 0, "name": "5d67cf70d6d5bdd5ee717735ef58ee69", "fusion_lat": 0.0, "rental_uris": {"ios": "https://dc.lft.to/lastmile_qr_scan", "android": "https://dc.lft.to/lastmile_qr_scan"}, "lon": -77.02343433333333, "type": "electric_scooter"}, {"bike_id": "77a1b235eea99e879575d3d941b2c51c", "is_reserved": 0, "fusion_lon": 0.0, "lat": 38.9056965, "is_disabled": 0, "name": "77a1b235eea99e879575d3d941b2c51c", "fusion_lat": 0.0, "rental_uris": {"ios": "https://dc.lft.to/lastmile_qr_scan", "android": "https://dc.lft.to/lastmile_qr_scan"}, "lon": -77.03829083333333, "type": "electric_scooter"}, {"bike_id": "0e13b5bae63ff80155322dfcd118c706", "is_reserved": 0, "fusion_lon": 0.0, "lat": 38.902446, "is_disabled": 0, "name": "0e13b5bae63ff80155322dfcd118c706", "fusion_lat": 0.0, "rental_uris": {"ios": "https://dc.lft.to/lastmile_qr_scan", "android": "https://dc.lft.to/lastmile_qr_scan"}, "lon": -77.05032266666667, "type": "electric_bike"}, {"bike_id": "87ea40ebf160b00f2db08f42c626b7e7", "is_reserved": 0, "fusion_lon": 0.0, "lat": 38.905364, "is_disabled": 0, "name": "87ea40ebf160b00f2db08f42c626b7e7", "fusion_lat": 0.0, "rental_uris": {"ios": "https://dc.lft.to/lastmile_qr_scan", "android": "https://dc.lft.to/lastmile_qr_scan"}, "lon": -77.05027416666667, "type": "electric_scooter"}, {"bike_id": "764454c313a03233d242adc82681292d", "is_reserved": 0, "fusion_lon": 0.0, "lat": 38.9181285, "is_disabled": 0, "name": "764454c313a03233d242adc82681292d", "fusion_lat": 0.0, "rental_uris": {"ios": "https://dc.lft.to/lastmile_qr_scan", "android": "https://dc.lft.to/lastmile_qr_scan"}, "lon": -77.02474166666667, "type": "electric_scooter"}, {"bike_id": "1440f88271d410baf336aa6e541a73b2", "is_reserved": 0, "fusion_lon": 0.0, "lat": 38.8661745, "is_disabled": 0, "name": "1440f88271d410baf336aa6e541a73b2", "fusion_lat": 0.0, "rental_uris": {"ios": "https://dc.lft.to/lastmile_qr_scan", "android": "https://dc.lft.to/lastmile_qr_scan"}, "lon": -76.98663683333334, "type": "electric_scooter"}, {"bike_id": "e182925ffc7814d01bfb108a93db21e2", "is_reserved": 0, "fusion_lon": 0.0, "lat": 38.90152283333333, "is_disabled": 0, "name": "e182925ffc7814d01bfb108a93db21e2", "fusion_lat": 0.0, "rental_uris": {"ios": "https://dc.lft.to/lastmile_qr_scan", "android": "https://dc.lft.to/lastmile_qr_scan"}, "lon": -77.02717633333333, "type": "electric_scooter"}, {"bike_id": "0652b66f65ac62c1a3cec4a088cf3f8b", "is_reserved": 0, "fusion_lon": 0.0, "lat": 38.9086425, "is_disabled": 0, "name": "0652b66f65ac62c1a3cec4a088cf3f8b", "fusion_lat": 0.0, "rental_uris": {"ios": "https://dc.lft.to/lastmile_qr_scan", "android": "https://dc.lft.to/lastmile_qr_scan"}, "lon": -77.0254125, "type": "electric_scooter"}, {"bike_id": "881ea219cd9aa1e174071fb689c1444f", "is_reserved": 0, "fusion_lon": 0.0, "lat": 38.90276466666667, "is_disabled": 0, "name": "881ea219cd9aa1e174071fb689c1444f", "fusion_lat": 0.0, "rental_uris": {"ios": "https://dc.lft.to/lastmile_qr_scan", "android": "https://dc.lft.to/lastmile_qr_scan"}, "lon": -77.06182683333333, "type": "electric_scooter"}, {"bike_id": "61329c79ba555ba8b80ce836ffd340d8", "is_reserved": 0, "fusion_lon": 0.0, "lat": 38.902545, "is_disabled": 0, "name": "61329c79ba555ba8b80ce836ffd340d8", "fusion_lat": 0.0, "rental_uris": {"ios": "https://dc.lft.to/lastmile_qr_scan", "android": "https://dc.lft.to/lastmile_qr_scan"}, "lon": -77.03965466666666, "type": "electric_scooter"}, {"bike_id": "a99246af50368d938141a736b9810534", "is_reserved": 0, "fusion_lon": 0.0, "lat": 38.9147945, "is_disabled": 0, "name": "a99246af50368d938141a736b9810534", "fusion_lat": 0.0, "rental_uris": {"ios": "https://dc.lft.to/lastmile_qr_scan", "android": "https://dc.lft.to/lastmile_qr_scan"}, "lon": -77.03206783333333, "type": "electric_scooter"}, {"bike_id": "c2e493dcedfabbcfdb72688210181d9e", "is_reserved": 0, "fusion_lon": 0.0, "lat": 38.9027905, "is_disabled": 0, "name": "c2e493dcedfabbcfdb72688210181d9e", "fusion_lat": 0.0, "rental_uris": {"ios": "https://dc.lft.to/lastmile_qr_scan", "android": "https://dc.lft.to/lastmile_qr_scan"}, "lon": -77.03854266666667, "type": "electric_scooter"}, {"bike_id": "ba41815aff9ef7036bd154ed99bec14f", "is_reserved": 0, "fusion_lon": 0.0, "lat": 38.90379333333333, "is_disabled": 0, "name": "ba41815aff9ef7036bd154ed99bec14f", "fusion_lat": 0.0, "rental_uris": {"ios": "https://dc.lft.to/lastmile_qr_scan", "android": "https://dc.lft.to/lastmile_qr_scan"}, "lon": -77.045217, "type": "electric_scooter"}, {"bike_id": "78a0736d68c6b5ec72dd4de7217282d8", "is_reserved": 0, "fusion_lon": 0.0, "lat": 38.890057, "is_disabled": 0, "name": "78a0736d68c6b5ec72dd4de7217282d8", "fusion_lat": 0.0, "rental_uris": {"ios": "https://dc.lft.to/lastmile_qr_scan", "android": "https://dc.lft.to/lastmile_qr_scan"}, "lon": -76.9374345, "type": "electric_scooter"}, {"bike_id": "c235e430ef334998aa9f2dfe703c7d81", "is_reserved": 0, "fusion_lon": 0.0, "lat": 38.84585, "is_disabled": 0, "name": "c235e430ef334998aa9f2dfe703c7d81", "fusion_lat": 0.0, "rental_uris": {"ios": "https://dc.lft.to/lastmile_qr_scan", "android": "https://dc.lft.to/lastmile_qr_scan"}, "lon": -76.98166016666667, "type": "electric_scooter"}, {"bike_id": "3248570dd5948825dabc612f58473e1e", "is_reserved": 0, "fusion_lon": 0.0, "lat": 38.935115, "is_disabled": 0, "name": "3248570dd5948825dabc612f58473e1e", "fusion_lat": 0.0, "rental_uris": {"ios": "https://dc.lft.to/lastmile_qr_scan", "android": "https://dc.lft.to/lastmile_qr_scan"}, "lon": -77.03298833333334, "type": "electric_scooter"}, {"bike_id": "1182718d9faa6ede1b416a50c1440cf5", "is_reserved": 0, "fusion_lon": 0.0, "lat": 38.919951833333336, "is_disabled": 0, "name": "1182718d9faa6ede1b416a50c1440cf5", "fusion_lat": 0.0, "rental_uris": {"ios": "https://dc.lft.to/lastmile_qr_scan", "android": "https://dc.lft.to/lastmile_qr_scan"}, "lon": -77.03232233333334, "type": "electric_scooter"}, {"bike_id": "148b3cbf513bdd07776a0ba11d19201d", "is_reserved": 0, "fusion_lon": 0.0, "lat": 38.923995, "is_disabled": 0, "name": "148b3cbf513bdd07776a0ba11d19201d", "fusion_lat": 0.0, "rental_uris": {"ios": "https://dc.lft.to/lastmile_qr_scan", "android": "https://dc.lft.to/lastmile_qr_scan"}, "lon": -77.0195855, "type": "electric_scooter"}, {"bike_id": "fcdc3ee57ec00520899040a7a1538182", "is_reserved": 0, "fusion_lon": 0.0, "lat": 38.886722666666664, "is_disabled": 0, "name": "fcdc3ee57ec00520899040a7a1538182", "fusion_lat": 0.0, "rental_uris": {"ios": "https://dc.lft.to/lastmile_qr_scan", "android": "https://dc.lft.to/lastmile_qr_scan"}, "lon": -77.01367083333334, "type": "electric_scooter"}, {"bike_id": "1d6284d56eb76336d9a0bf07d6d045fc", "is_reserved": 0, "fusion_lon": 0.0, "lat": 38.915584, "is_disabled": 0, "name": "1d6284d56eb76336d9a0bf07d6d045fc", "fusion_lat": 0.0, "rental_uris": {"ios": "https://dc.lft.to/lastmile_qr_scan", "android": "https://dc.lft.to/lastmile_qr_scan"}, "lon": -77.033702, "type": "electric_scooter"}, {"bike_id": "65dffa310eca64d99b1c2a500ab3a08e", "is_reserved": 0, "fusion_lon": 0.0, "lat": 38.9065695, "is_disabled": 0, "name": "65dffa310eca64d99b1c2a500ab3a08e", "fusion_lat": 0.0, "rental_uris": {"ios": "https://dc.lft.to/lastmile_qr_scan", "android": "https://dc.lft.to/lastmile_qr_scan"}, "lon": -77.01054666666667, "type": "electric_scooter"}, {"bike_id": "aa0555d8ac378488c718168f35ede841", "is_reserved": 0, "fusion_lon": 0.0, "lat": 38.89221283333333, "is_disabled": 0, "name": "aa0555d8ac378488c718168f35ede841", "fusion_lat": 0.0, "rental_uris": {"ios": "https://dc.lft.to/lastmile_qr_scan", "android": "https://dc.lft.to/lastmile_qr_scan"}, "lon": -77.03219483333334, "type": "electric_scooter"}, {"bike_id": "5cf6b04d02a967da7fc314b111ccd882", "is_reserved": 0, "fusion_lon": 0.0, "lat": 38.90436833333333, "is_disabled": 0, "name": "5cf6b04d02a967da7fc314b111ccd882", "fusion_lat": 0.0, "rental_uris": {"ios": "https://dc.lft.to/lastmile_qr_scan", "android": "https://dc.lft.to/lastmile_qr_scan"}, "lon": -77.04356366666667, "type": "electric_scooter"}, {"bike_id": "dad5cfba27ef432d97fc24474f57f385", "is_reserved": 0, "fusion_lon": 0.0, "lat": 38.89221766666667, "is_disabled": 0, "name": "dad5cfba27ef432d97fc24474f57f385", "fusion_lat": 0.0, "rental_uris": {"ios": "https://dc.lft.to/lastmile_qr_scan", "android": "https://dc.lft.to/lastmile_qr_scan"}, "lon": -77.04504316666667, "type": "electric_scooter"}, {"bike_id": "00da50a87c60557c612542172ccfb404", "is_reserved": 0, "fusion_lon": 0.0, "lat": 38.903041, "is_disabled": 0, "name": "00da50a87c60557c612542172ccfb404", "fusion_lat": 0.0, "rental_uris": {"ios": "https://dc.lft.to/lastmile_qr_scan", "android": "https://dc.lft.to/lastmile_qr_scan"}, "lon": -76.99856233333334, "type": "electric_scooter"}, {"bike_id": "c281e2829e904056d03793f22be23235", "is_reserved": 0, "fusion_lon": 0.0, "lat": 38.8937555, "is_disabled": 0, "name": "c281e2829e904056d03793f22be23235", "fusion_lat": 0.0, "rental_uris": {"ios": "https://dc.lft.to/lastmile_qr_scan", "android": "https://dc.lft.to/lastmile_qr_scan"}, "lon": -76.94964766666666, "type": "electric_scooter"}, {"bike_id": "3e62fa940e27408aaaee56ab116f4d74", "is_reserved": 0, "fusion_lon": 0.0, "lat": 38.878353833333335, "is_disabled": 0, "name": "3e62fa940e27408aaaee56ab116f4d74", "fusion_lat": 0.0, "rental_uris": {"ios": "https://dc.lft.to/lastmile_qr_scan", "android": "https://dc.lft.to/lastmile_qr_scan"}, "lon": -76.99039433333333, "type": "electric_scooter"}, {"bike_id": "c58d51bf19de375314f2d9a86abc9582", "is_reserved": 0, "fusion_lon": 0.0, "lat": 38.904482333333334, "is_disabled": 0, "name": "c58d51bf19de375314f2d9a86abc9582", "fusion_lat": 0.0, "rental_uris": {"ios": "https://dc.lft.to/lastmile_qr_scan", "android": "https://dc.lft.to/lastmile_qr_scan"}, "lon": -76.99620583333333, "type": "electric_scooter"}, {"bike_id": "38b56e98ee32ed92c24fa6a47f52b6d0", "is_reserved": 0, "fusion_lon": 0.0, "lat": 38.8762895, "is_disabled": 0, "name": "38b56e98ee32ed92c24fa6a47f52b6d0", "fusion_lat": 0.0, "rental_uris": {"ios": "https://dc.lft.to/lastmile_qr_scan", "android": "https://dc.lft.to/lastmile_qr_scan"}, "lon": -76.965255, "type": "electric_scooter"}, {"bike_id": "57ac1a911ebe4fc30a427b5b10978f9b", "is_reserved": 0, "fusion_lon": 0.0, "lat": 38.907773666666664, "is_disabled": 0, "name": "57ac1a911ebe4fc30a427b5b10978f9b", "fusion_lat": 0.0, "rental_uris": {"ios": "https://dc.lft.to/lastmile_qr_scan", "android": "https://dc.lft.to/lastmile_qr_scan"}, "lon": -77.06928033333334, "type": "electric_scooter"}, {"bike_id": "bb73ce53a3dc357ac578f4d3d17bba06", "is_reserved": 0, "fusion_lon": 0.0, "lat": 38.9226125, "is_disabled": 0, "name": "bb73ce53a3dc357ac578f4d3d17bba06", "fusion_lat": 0.0, "rental_uris": {"ios": "https://dc.lft.to/lastmile_qr_scan", "android": "https://dc.lft.to/lastmile_qr_scan"}, "lon": -77.01828516666667, "type": "electric_scooter"}, {"bike_id": "d31f6f42f5d971db913c776f8c31decf", "is_reserved": 0, "fusion_lon": 0.0, "lat": 38.902723, "is_disabled": 0, "name": "d31f6f42f5d971db913c776f8c31decf", "fusion_lat": 0.0, "rental_uris": {"ios": "https://dc.lft.to/lastmile_qr_scan", "android": "https://dc.lft.to/lastmile_qr_scan"}, "lon": -77.03362266666667, "type": "electric_scooter"}, {"bike_id": "7677f5b44fc5bdb6f3613ef17cc2a657", "is_reserved": 0, "fusion_lon": 0.0, "lat": 38.84292333333333, "is_disabled": 0, "name": "7677f5b44fc5bdb6f3613ef17cc2a657", "fusion_lat": 0.0, "rental_uris": {"ios": "https://dc.lft.to/lastmile_qr_scan", "android": "https://dc.lft.to/lastmile_qr_scan"}, "lon": -76.9995115, "type": "electric_scooter"}, {"bike_id": "35c473904ff03e15c4dd6ac95c9df96c", "is_reserved": 0, "fusion_lon": 0.0, "lat": 38.92303483333333, "is_disabled": 0, "name": "35c473904ff03e15c4dd6ac95c9df96c", "fusion_lat": 0.0, "rental_uris": {"ios": "https://dc.lft.to/lastmile_qr_scan", "android": "https://dc.lft.to/lastmile_qr_scan"}, "lon": -77.041529, "type": "electric_scooter"}, {"bike_id": "abe2f5cfecf7264df7be2bb48596e71d", "is_reserved": 0, "fusion_lon": 0.0, "lat": 38.911948333333335, "is_disabled": 0, "name": "abe2f5cfecf7264df7be2bb48596e71d", "fusion_lat": 0.0, "rental_uris": {"ios": "https://dc.lft.to/lastmile_qr_scan", "android": "https://dc.lft.to/lastmile_qr_scan"}, "lon": -77.01607133333333, "type": "electric_scooter"}, {"bike_id": "dc89c5331789b15bc09d47c5195a61a5", "is_reserved": 0, "fusion_lon": 0.0, "lat": 38.94176216666666, "is_disabled": 0, "name": "dc89c5331789b15bc09d47c5195a61a5", "fusion_lat": 0.0, "rental_uris": {"ios": "https://dc.lft.to/lastmile_qr_scan", "android": "https://dc.lft.to/lastmile_qr_scan"}, "lon": -77.02499833333333, "type": "electric_scooter"}, {"bike_id": "9dd35dd35d695234e855e2759868bff8", "is_reserved": 0, "fusion_lon": 0.0, "lat": 38.903139833333334, "is_disabled": 0, "name": "9dd35dd35d695234e855e2759868bff8", "fusion_lat": 0.0, "rental_uris": {"ios": "https://dc.lft.to/lastmile_qr_scan", "android": "https://dc.lft.to/lastmile_qr_scan"}, "lon": -77.043494, "type": "electric_scooter"}, {"bike_id": "2c57c927add24d1e362bd7b1bde1826d", "is_reserved": 0, "fusion_lon": 0.0, "lat": 38.86164433333333, "is_disabled": 0, "name": "2c57c927add24d1e362bd7b1bde1826d", "fusion_lat": 0.0, "rental_uris": {"ios": "https://dc.lft.to/lastmile_qr_scan", "android": "https://dc.lft.to/lastmile_qr_scan"}, "lon": -76.950662, "type": "electric_bike"}, {"bike_id": "29282cdb6ba7cd9e9e11b8394b4c6054", "is_reserved": 0, "fusion_lon": 0.0, "lat": 38.90143966666667, "is_disabled": 0, "name": "29282cdb6ba7cd9e9e11b8394b4c6054", "fusion_lat": 0.0, "rental_uris": {"ios": "https://dc.lft.to/lastmile_qr_scan", "android": "https://dc.lft.to/lastmile_qr_scan"}, "lon": -77.04462466666666, "type": "electric_scooter"}, {"bike_id": "f181a1d23bda7c24c1ad50f152afcc9e", "is_reserved": 0, "fusion_lon": 0.0, "lat": 38.895597, "is_disabled": 0, "name": "f181a1d23bda7c24c1ad50f152afcc9e", "fusion_lat": 0.0, "rental_uris": {"ios": "https://dc.lft.to/lastmile_qr_scan", "android": "https://dc.lft.to/lastmile_qr_scan"}, "lon": -77.04676916666666, "type": "electric_scooter"}, {"bike_id": "1034a18acd82829969026d38b83ec61e", "is_reserved": 0, "fusion_lon": 0.0, "lat": 38.9199285, "is_disabled": 0, "name": "1034a18acd82829969026d38b83ec61e", "fusion_lat": 0.0, "rental_uris": {"ios": "https://dc.lft.to/lastmile_qr_scan", "android": "https://dc.lft.to/lastmile_qr_scan"}, "lon": -77.032286, "type": "electric_scooter"}, {"bike_id": "6d3d1879be79aa20180fc370e36771f5", "is_reserved": 0, "fusion_lon": 0.0, "lat": 38.92849066666667, "is_disabled": 0, "name": "6d3d1879be79aa20180fc370e36771f5", "fusion_lat": 0.0, "rental_uris": {"ios": "https://dc.lft.to/lastmile_qr_scan", "android": "https://dc.lft.to/lastmile_qr_scan"}, "lon": -77.05435183333333, "type": "electric_scooter"}, {"bike_id": "e4f984cce19a1160c72fd43d7b3a2862", "is_reserved": 0, "fusion_lon": 0.0, "lat": 38.904531166666665, "is_disabled": 0, "name": "e4f984cce19a1160c72fd43d7b3a2862", "fusion_lat": 0.0, "rental_uris": {"ios": "https://dc.lft.to/lastmile_qr_scan", "android": "https://dc.lft.to/lastmile_qr_scan"}, "lon": -77.05332883333334, "type": "electric_scooter"}, {"bike_id": "188112e95a5751f0e377994cba1bdc20", "is_reserved": 0, "fusion_lon": 0.0, "lat": 38.92338083333333, "is_disabled": 0, "name": "188112e95a5751f0e377994cba1bdc20", "fusion_lat": 0.0, "rental_uris": {"ios": "https://dc.lft.to/lastmile_qr_scan", "android": "https://dc.lft.to/lastmile_qr_scan"}, "lon": -77.041377, "type": "electric_scooter"}, {"bike_id": "451459af6cdbca7e325cc45eae7e0cd5", "is_reserved": 0, "fusion_lon": 0.0, "lat": 38.896071166666665, "is_disabled": 0, "name": "451459af6cdbca7e325cc45eae7e0cd5", "fusion_lat": 0.0, "rental_uris": {"ios": "https://dc.lft.to/lastmile_qr_scan", "android": "https://dc.lft.to/lastmile_qr_scan"}, "lon": -77.04592016666666, "type": "electric_scooter"}, {"bike_id": "5257a6837346f7593a07030364c424c0", "is_reserved": 0, "fusion_lon": 0.0, "lat": 38.92316, "is_disabled": 0, "name": "5257a6837346f7593a07030364c424c0", "fusion_lat": 0.0, "rental_uris": {"ios": "https://dc.lft.to/lastmile_qr_scan", "android": "https://dc.lft.to/lastmile_qr_scan"}, "lon": -77.04484983333333, "type": "electric_scooter"}, {"bike_id": "01d72d6456eacd15c2ea2063bdf1f882", "is_reserved": 0, "fusion_lon": 0.0, "lat": 38.92338733333333, "is_disabled": 0, "name": "01d72d6456eacd15c2ea2063bdf1f882", "fusion_lat": 0.0, "rental_uris": {"ios": "https://dc.lft.to/lastmile_qr_scan", "android": "https://dc.lft.to/lastmile_qr_scan"}, "lon": -77.03892516666667, "type": "electric_scooter"}, {"bike_id": "fcdaec69e6e7a70240b65d6404384b18", "is_reserved": 0, "fusion_lon": 0.0, "lat": 38.928945, "is_disabled": 0, "name": "fcdaec69e6e7a70240b65d6404384b18", "fusion_lat": 0.0, "rental_uris": {"ios": "https://dc.lft.to/lastmile_qr_scan", "android": "https://dc.lft.to/lastmile_qr_scan"}, "lon": -77.03170433333334, "type": "electric_scooter"}, {"bike_id": "bce4575a984b99103854bd7029a2accc", "is_reserved": 0, "fusion_lon": 0.0, "lat": 38.895616833333335, "is_disabled": 0, "name": "bce4575a984b99103854bd7029a2accc", "fusion_lat": 0.0, "rental_uris": {"ios": "https://dc.lft.to/lastmile_qr_scan", "android": "https://dc.lft.to/lastmile_qr_scan"}, "lon": -77.04676083333334, "type": "electric_scooter"}, {"bike_id": "e28f075f91a144270bdc7b4a89b2651e", "is_reserved": 0, "fusion_lon": 0.0, "lat": 38.89216733333333, "is_disabled": 0, "name": "e28f075f91a144270bdc7b4a89b2651e", "fusion_lat": 0.0, "rental_uris": {"ios": "https://dc.lft.to/lastmile_qr_scan", "android": "https://dc.lft.to/lastmile_qr_scan"}, "lon": -77.04363783333334, "type": "electric_scooter"}, {"bike_id": "c2532ee40dd0e9c0f60b400886cf9edf", "is_reserved": 0, "fusion_lon": 0.0, "lat": 38.893679166666665, "is_disabled": 0, "name": "c2532ee40dd0e9c0f60b400886cf9edf", "fusion_lat": 0.0, "rental_uris": {"ios": "https://dc.lft.to/lastmile_qr_scan", "android": "https://dc.lft.to/lastmile_qr_scan"}, "lon": -76.9496285, "type": "electric_scooter"}, {"bike_id": "90df6253ef9bf5f8c2c7c3a52b2c1db1", "is_reserved": 0, "fusion_lon": 0.0, "lat": 38.89221533333333, "is_disabled": 0, "name": "90df6253ef9bf5f8c2c7c3a52b2c1db1", "fusion_lat": 0.0, "rental_uris": {"ios": "https://dc.lft.to/lastmile_qr_scan", "android": "https://dc.lft.to/lastmile_qr_scan"}, "lon": -77.04192333333333, "type": "electric_scooter"}, {"bike_id": "a92c8f792fe1f1301a56078487664876", "is_reserved": 0, "fusion_lon": 0.0, "lat": 38.93427166666667, "is_disabled": 0, "name": "a92c8f792fe1f1301a56078487664876", "fusion_lat": 0.0, "rental_uris": {"ios": "https://dc.lft.to/lastmile_qr_scan", "android": "https://dc.lft.to/lastmile_qr_scan"}, "lon": -77.04311033333333, "type": "electric_scooter"}, {"bike_id": "672d100c33ae80da4d629d9a7a00e120", "is_reserved": 0, "fusion_lon": 0.0, "lat": 38.898171, "is_disabled": 0, "name": "672d100c33ae80da4d629d9a7a00e120", "fusion_lat": 0.0, "rental_uris": {"ios": "https://dc.lft.to/lastmile_qr_scan", "android": "https://dc.lft.to/lastmile_qr_scan"}, "lon": -77.0331085, "type": "electric_scooter"}, {"bike_id": "57ff6cfcd733cf151d7d95770b2e3e93", "is_reserved": 0, "fusion_lon": 0.0, "lat": 38.8962295, "is_disabled": 0, "name": "57ff6cfcd733cf151d7d95770b2e3e93", "fusion_lat": 0.0, "rental_uris": {"ios": "https://dc.lft.to/lastmile_qr_scan", "android": "https://dc.lft.to/lastmile_qr_scan"}, "lon": -76.9985445, "type": "electric_scooter"}, {"bike_id": "2e197fe7ead13bd1177e97bb08bb734d", "is_reserved": 0, "fusion_lon": 0.0, "lat": 38.9125455, "is_disabled": 0, "name": "2e197fe7ead13bd1177e97bb08bb734d", "fusion_lat": 0.0, "rental_uris": {"ios": "https://dc.lft.to/lastmile_qr_scan", "android": "https://dc.lft.to/lastmile_qr_scan"}, "lon": -77.032392, "type": "electric_scooter"}, {"bike_id": "0d5821b8ad4cde3e9772b38924aca380", "is_reserved": 0, "fusion_lon": 0.0, "lat": 38.897443333333335, "is_disabled": 0, "name": "0d5821b8ad4cde3e9772b38924aca380", "fusion_lat": 0.0, "rental_uris": {"ios": "https://dc.lft.to/lastmile_qr_scan", "android": "https://dc.lft.to/lastmile_qr_scan"}, "lon": -77.00867416666667, "type": "electric_scooter"}, {"bike_id": "3d6314b3e54326a8e5dd3aed9f346a28", "is_reserved": 0, "fusion_lon": 0.0, "lat": 38.9189805, "is_disabled": 0, "name": "3d6314b3e54326a8e5dd3aed9f346a28", "fusion_lat": 0.0, "rental_uris": {"ios": "https://dc.lft.to/lastmile_qr_scan", "android": "https://dc.lft.to/lastmile_qr_scan"}, "lon": -77.01973, "type": "electric_scooter"}, {"bike_id": "f509112ef7a958cfeb88dd1e83ce4e4f", "is_reserved": 0, "fusion_lon": 0.0, "lat": 38.891948, "is_disabled": 0, "name": "f509112ef7a958cfeb88dd1e83ce4e4f", "fusion_lat": 0.0, "rental_uris": {"ios": "https://dc.lft.to/lastmile_qr_scan", "android": "https://dc.lft.to/lastmile_qr_scan"}, "lon": -77.02978766666666, "type": "electric_scooter"}, {"bike_id": "8dfa48caaa12239d1992e3329f23bfb6", "is_reserved": 0, "fusion_lon": 0.0, "lat": 38.89499033333333, "is_disabled": 0, "name": "8dfa48caaa12239d1992e3329f23bfb6", "fusion_lat": 0.0, "rental_uris": {"ios": "https://dc.lft.to/lastmile_qr_scan", "android": "https://dc.lft.to/lastmile_qr_scan"}, "lon": -77.02284916666666, "type": "electric_scooter"}, {"bike_id": "90e3a2d8b070a720bf48098ad5c4625c", "is_reserved": 0, "fusion_lon": 0.0, "lat": 38.86906716666667, "is_disabled": 0, "name": "90e3a2d8b070a720bf48098ad5c4625c", "fusion_lat": 0.0, "rental_uris": {"ios": "https://dc.lft.to/lastmile_qr_scan", "android": "https://dc.lft.to/lastmile_qr_scan"}, "lon": -77.131805, "type": "electric_bike"}, {"bike_id": "6a62d4807d35c871fb61b356cad0633f", "is_reserved": 0, "fusion_lon": 0.0, "lat": 38.905601833333336, "is_disabled": 0, "name": "6a62d4807d35c871fb61b356cad0633f", "fusion_lat": 0.0, "rental_uris": {"ios": "https://dc.lft.to/lastmile_qr_scan", "android": "https://dc.lft.to/lastmile_qr_scan"}, "lon": -77.03815733333333, "type": "electric_scooter"}, {"bike_id": "bfb67727e7b330406619b48ca2a493fe", "is_reserved": 0, "fusion_lon": 0.0, "lat": 38.92851816666666, "is_disabled": 0, "name": "bfb67727e7b330406619b48ca2a493fe", "fusion_lat": 0.0, "rental_uris": {"ios": "https://dc.lft.to/lastmile_qr_scan", "android": "https://dc.lft.to/lastmile_qr_scan"}, "lon": -77.0542795, "type": "electric_scooter"}, {"bike_id": "0f234bfc7f20fba3d9476490683e17a3", "is_reserved": 0, "fusion_lon": 0.0, "lat": 38.910504333333336, "is_disabled": 0, "name": "0f234bfc7f20fba3d9476490683e17a3", "fusion_lat": 0.0, "rental_uris": {"ios": "https://dc.lft.to/lastmile_qr_scan", "android": "https://dc.lft.to/lastmile_qr_scan"}, "lon": -77.05400033333333, "type": "electric_scooter"}, {"bike_id": "f4a8855bba26561ffc6e5cde8daa7e69", "is_reserved": 0, "fusion_lon": 0.0, "lat": 38.90277316666667, "is_disabled": 0, "name": "f4a8855bba26561ffc6e5cde8daa7e69", "fusion_lat": 0.0, "rental_uris": {"ios": "https://dc.lft.to/lastmile_qr_scan", "android": "https://dc.lft.to/lastmile_qr_scan"}, "lon": -77.05918816666667, "type": "electric_scooter"}, {"bike_id": "214055a26b7f09e519161ad33296af96", "is_reserved": 0, "fusion_lon": 0.0, "lat": 38.927816666666665, "is_disabled": 0, "name": "214055a26b7f09e519161ad33296af96", "fusion_lat": 0.0, "rental_uris": {"ios": "https://dc.lft.to/lastmile_qr_scan", "android": "https://dc.lft.to/lastmile_qr_scan"}, "lon": -77.031977, "type": "electric_scooter"}, {"bike_id": "9f3c9253fe16e5f4f2e8135383058cee", "is_reserved": 0, "fusion_lon": 0.0, "lat": 38.869589166666664, "is_disabled": 0, "name": "9f3c9253fe16e5f4f2e8135383058cee", "fusion_lat": 0.0, "rental_uris": {"ios": "https://dc.lft.to/lastmile_qr_scan", "android": "https://dc.lft.to/lastmile_qr_scan"}, "lon": -77.01373633333333, "type": "electric_scooter"}, {"bike_id": "5e4a6849b392463d73ebd2e3cc7f16a6", "is_reserved": 0, "fusion_lon": 0.0, "lat": 38.893026166666665, "is_disabled": 0, "name": "5e4a6849b392463d73ebd2e3cc7f16a6", "fusion_lat": 0.0, "rental_uris": {"ios": "https://dc.lft.to/lastmile_qr_scan", "android": "https://dc.lft.to/lastmile_qr_scan"}, "lon": -77.012388, "type": "electric_scooter"}, {"bike_id": "965cede974ac7e933fa7f10aad3e16b8", "is_reserved": 0, "fusion_lon": 0.0, "lat": 38.90458, "is_disabled": 0, "name": "965cede974ac7e933fa7f10aad3e16b8", "fusion_lat": 0.0, "rental_uris": {"ios": "https://dc.lft.to/lastmile_qr_scan", "android": "https://dc.lft.to/lastmile_qr_scan"}, "lon": -76.99505983333333, "type": "electric_scooter"}, {"bike_id": "d34a6ad050a05d814c7883adcb52f187", "is_reserved": 0, "fusion_lon": 0.0, "lat": 38.89607683333333, "is_disabled": 0, "name": "d34a6ad050a05d814c7883adcb52f187", "fusion_lat": 0.0, "rental_uris": {"ios": "https://dc.lft.to/lastmile_qr_scan", "android": "https://dc.lft.to/lastmile_qr_scan"}, "lon": -77.04503183333334, "type": "electric_scooter"}, {"bike_id": "2e4a4c020f06b2dff038daf87c3e469a", "is_reserved": 0, "fusion_lon": 0.0, "lat": 38.96820733333333, "is_disabled": 0, "name": "2e4a4c020f06b2dff038daf87c3e469a", "fusion_lat": 0.0, "rental_uris": {"ios": "https://dc.lft.to/lastmile_qr_scan", "android": "https://dc.lft.to/lastmile_qr_scan"}, "lon": -77.017905, "type": "electric_scooter"}, {"bike_id": "b986b767aa4b52c8ffd97267848d47cf", "is_reserved": 0, "fusion_lon": 0.0, "lat": 38.905280166666664, "is_disabled": 0, "name": "b986b767aa4b52c8ffd97267848d47cf", "fusion_lat": 0.0, "rental_uris": {"ios": "https://dc.lft.to/lastmile_qr_scan", "android": "https://dc.lft.to/lastmile_qr_scan"}, "lon": -77.05032283333334, "type": "electric_scooter"}, {"bike_id": "b75fee50053e7cd4da9d9fa93f3f594d", "is_reserved": 0, "fusion_lon": 0.0, "lat": 38.9261145, "is_disabled": 0, "name": "b75fee50053e7cd4da9d9fa93f3f594d", "fusion_lat": 0.0, "rental_uris": {"ios": "https://dc.lft.to/lastmile_qr_scan", "android": "https://dc.lft.to/lastmile_qr_scan"}, "lon": -77.03960866666667, "type": "electric_scooter"}, {"bike_id": "c3cf217d10423f48c8c4d95f3e8c3530", "is_reserved": 0, "fusion_lon": 0.0, "lat": 38.90510716666667, "is_disabled": 0, "name": "c3cf217d10423f48c8c4d95f3e8c3530", "fusion_lat": 0.0, "rental_uris": {"ios": "https://dc.lft.to/lastmile_qr_scan", "android": "https://dc.lft.to/lastmile_qr_scan"}, "lon": -77.06016883333334, "type": "electric_bike"}, {"bike_id": "7b2a89bcfbb6b91ddb7caa50fec2a2d8", "is_reserved": 0, "fusion_lon": 0.0, "lat": 38.9274945, "is_disabled": 0, "name": "7b2a89bcfbb6b91ddb7caa50fec2a2d8", "fusion_lat": 0.0, "rental_uris": {"ios": "https://dc.lft.to/lastmile_qr_scan", "android": "https://dc.lft.to/lastmile_qr_scan"}, "lon": -77.05389333333333, "type": "electric_scooter"}, {"bike_id": "64a07aadd50ed9fef4f2dfce5367fea2", "is_reserved": 0, "fusion_lon": 0.0, "lat": 38.93948116666667, "is_disabled": 0, "name": "64a07aadd50ed9fef4f2dfce5367fea2", "fusion_lat": 0.0, "rental_uris": {"ios": "https://dc.lft.to/lastmile_qr_scan", "android": "https://dc.lft.to/lastmile_qr_scan"}, "lon": -77.03261233333333, "type": "electric_scooter"}, {"bike_id": "d4d9f513eaa690c94fc1ff481df14684", "is_reserved": 0, "fusion_lon": 0.0, "lat": 38.8655855, "is_disabled": 0, "name": "d4d9f513eaa690c94fc1ff481df14684", "fusion_lat": 0.0, "rental_uris": {"ios": "https://dc.lft.to/lastmile_qr_scan", "android": "https://dc.lft.to/lastmile_qr_scan"}, "lon": -76.98951333333333, "type": "electric_scooter"}, {"bike_id": "15459619b08fb8ce572c69131d8fd4c5", "is_reserved": 0, "fusion_lon": 0.0, "lat": 38.923727166666666, "is_disabled": 0, "name": "15459619b08fb8ce572c69131d8fd4c5", "fusion_lat": 0.0, "rental_uris": {"ios": "https://dc.lft.to/lastmile_qr_scan", "android": "https://dc.lft.to/lastmile_qr_scan"}, "lon": -77.01913983333333, "type": "electric_scooter"}, {"bike_id": "156d7857ec987205a048ddb857239e58", "is_reserved": 0, "fusion_lon": 0.0, "lat": 38.85222516666666, "is_disabled": 0, "name": "156d7857ec987205a048ddb857239e58", "fusion_lat": 0.0, "rental_uris": {"ios": "https://dc.lft.to/lastmile_qr_scan", "android": "https://dc.lft.to/lastmile_qr_scan"}, "lon": -77.12961683333333, "type": "electric_bike"}, {"bike_id": "a799665dee7a4f72aed5d79ea9167aaa", "is_reserved": 0, "fusion_lon": 0.0, "lat": 38.9234005, "is_disabled": 0, "name": "a799665dee7a4f72aed5d79ea9167aaa", "fusion_lat": 0.0, "rental_uris": {"ios": "https://dc.lft.to/lastmile_qr_scan", "android": "https://dc.lft.to/lastmile_qr_scan"}, "lon": -77.01908283333333, "type": "electric_scooter"}, {"bike_id": "b48f497ca8146dbadef7543dea3d3e21", "is_reserved": 0, "fusion_lon": 0.0, "lat": 38.90361216666667, "is_disabled": 0, "name": "b48f497ca8146dbadef7543dea3d3e21", "fusion_lat": 0.0, "rental_uris": {"ios": "https://dc.lft.to/lastmile_qr_scan", "android": "https://dc.lft.to/lastmile_qr_scan"}, "lon": -77.0443545, "type": "electric_scooter"}, {"bike_id": "4f14a30d346306fc94f8e6ddfff1bb03", "is_reserved": 0, "fusion_lon": 0.0, "lat": 38.90053366666667, "is_disabled": 0, "name": "4f14a30d346306fc94f8e6ddfff1bb03", "fusion_lat": 0.0, "rental_uris": {"ios": "https://dc.lft.to/lastmile_qr_scan", "android": "https://dc.lft.to/lastmile_qr_scan"}, "lon": -77.00756733333333, "type": "electric_scooter"}, {"bike_id": "a57836dcb6031303f6263d9961c8f762", "is_reserved": 0, "fusion_lon": 0.0, "lat": 38.80692116666667, "is_disabled": 0, "name": "a57836dcb6031303f6263d9961c8f762", "fusion_lat": 0.0, "rental_uris": {"ios": "https://dc.lft.to/lastmile_qr_scan", "android": "https://dc.lft.to/lastmile_qr_scan"}, "lon": -77.059758, "type": "electric_bike"}, {"bike_id": "7397e4fd0f33cfec48f2e696314e0129", "is_reserved": 0, "fusion_lon": 0.0, "lat": 38.86594133333333, "is_disabled": 0, "name": "7397e4fd0f33cfec48f2e696314e0129", "fusion_lat": 0.0, "rental_uris": {"ios": "https://dc.lft.to/lastmile_qr_scan", "android": "https://dc.lft.to/lastmile_qr_scan"}, "lon": -76.93230683333333, "type": "electric_bike"}, {"bike_id": "29f9572b0517bfb20f74b328a0c5839a", "is_reserved": 0, "fusion_lon": 0.0, "lat": 38.93952433333333, "is_disabled": 0, "name": "29f9572b0517bfb20f74b328a0c5839a", "fusion_lat": 0.0, "rental_uris": {"ios": "https://dc.lft.to/lastmile_qr_scan", "android": "https://dc.lft.to/lastmile_qr_scan"}, "lon": -77.03258733333334, "type": "electric_scooter"}, {"bike_id": "74229ff41757033fededa2173f78495b", "is_reserved": 0, "fusion_lon": 0.0, "lat": 38.90431233333334, "is_disabled": 0, "name": "74229ff41757033fededa2173f78495b", "fusion_lat": 0.0, "rental_uris": {"ios": "https://dc.lft.to/lastmile_qr_scan", "android": "https://dc.lft.to/lastmile_qr_scan"}, "lon": -77.03466083333333, "type": "electric_scooter"}, {"bike_id": "3ea36b9b34b8f0ff742185352fec0d73", "is_reserved": 0, "fusion_lon": 0.0, "lat": 38.89230116666667, "is_disabled": 0, "name": "3ea36b9b34b8f0ff742185352fec0d73", "fusion_lat": 0.0, "rental_uris": {"ios": "https://dc.lft.to/lastmile_qr_scan", "android": "https://dc.lft.to/lastmile_qr_scan"}, "lon": -77.025805, "type": "electric_scooter"}, {"bike_id": "e15f27c6dd315158bbfbfd88925ee84b", "is_reserved": 0, "fusion_lon": 0.0, "lat": 38.932281, "is_disabled": 0, "name": "e15f27c6dd315158bbfbfd88925ee84b", "fusion_lat": 0.0, "rental_uris": {"ios": "https://dc.lft.to/lastmile_qr_scan", "android": "https://dc.lft.to/lastmile_qr_scan"}, "lon": -77.02828, "type": "electric_scooter"}, {"bike_id": "03540595fef4ae1e1b6e03a542d89f24", "is_reserved": 0, "fusion_lon": 0.0, "lat": 38.98594683333334, "is_disabled": 0, "name": "03540595fef4ae1e1b6e03a542d89f24", "fusion_lat": 0.0, "rental_uris": {"ios": "https://dc.lft.to/lastmile_qr_scan", "android": "https://dc.lft.to/lastmile_qr_scan"}, "lon": -77.03748633333333, "type": "electric_bike"}, {"bike_id": "dd20b47ac2cf7856c5145ac349af790c", "is_reserved": 0, "fusion_lon": 0.0, "lat": 38.984629, "is_disabled": 0, "name": "dd20b47ac2cf7856c5145ac349af790c", "fusion_lat": 0.0, "rental_uris": {"ios": "https://dc.lft.to/lastmile_qr_scan", "android": "https://dc.lft.to/lastmile_qr_scan"}, "lon": -76.95524433333334, "type": "electric_bike"}, {"bike_id": "77638816ed84f1e654cdde9ad79cea73", "is_reserved": 0, "fusion_lon": 0.0, "lat": 38.892244, "is_disabled": 0, "name": "77638816ed84f1e654cdde9ad79cea73", "fusion_lat": 0.0, "rental_uris": {"ios": "https://dc.lft.to/lastmile_qr_scan", "android": "https://dc.lft.to/lastmile_qr_scan"}, "lon": -77.02840916666666, "type": "electric_scooter"}, {"bike_id": "b61406c98fe948705e1162fca7032ab9", "is_reserved": 0, "fusion_lon": 0.0, "lat": 38.90269883333333, "is_disabled": 0, "name": "b61406c98fe948705e1162fca7032ab9", "fusion_lat": 0.0, "rental_uris": {"ios": "https://dc.lft.to/lastmile_qr_scan", "android": "https://dc.lft.to/lastmile_qr_scan"}, "lon": -77.04074533333333, "type": "electric_scooter"}, {"bike_id": "7b45952ace553fb83536015fdea1769f", "is_reserved": 0, "fusion_lon": 0.0, "lat": 38.90980583333333, "is_disabled": 0, "name": "7b45952ace553fb83536015fdea1769f", "fusion_lat": 0.0, "rental_uris": {"ios": "https://dc.lft.to/lastmile_qr_scan", "android": "https://dc.lft.to/lastmile_qr_scan"}, "lon": -77.06716216666666, "type": "electric_scooter"}, {"bike_id": "ed93e19a0a44372b1997eb6371b93968", "is_reserved": 0, "fusion_lon": 0.0, "lat": 38.931158, "is_disabled": 0, "name": "ed93e19a0a44372b1997eb6371b93968", "fusion_lat": 0.0, "rental_uris": {"ios": "https://dc.lft.to/lastmile_qr_scan", "android": "https://dc.lft.to/lastmile_qr_scan"}, "lon": -77.020966, "type": "electric_scooter"}, {"bike_id": "228f532c9ebb3ada9e7bd67d39d65bdc", "is_reserved": 0, "fusion_lon": 0.0, "lat": 38.908911333333336, "is_disabled": 0, "name": "228f532c9ebb3ada9e7bd67d39d65bdc", "fusion_lat": 0.0, "rental_uris": {"ios": "https://dc.lft.to/lastmile_qr_scan", "android": "https://dc.lft.to/lastmile_qr_scan"}, "lon": -77.04337816666667, "type": "electric_scooter"}, {"bike_id": "dcc5ba48eee14759db70c65c932338e5", "is_reserved": 0, "fusion_lon": 0.0, "lat": 38.8963105, "is_disabled": 0, "name": "dcc5ba48eee14759db70c65c932338e5", "fusion_lat": 0.0, "rental_uris": {"ios": "https://dc.lft.to/lastmile_qr_scan", "android": "https://dc.lft.to/lastmile_qr_scan"}, "lon": -77.02984016666667, "type": "electric_scooter"}, {"bike_id": "2c4b1505e3b65799a2fa1bf6f02403dc", "is_reserved": 0, "fusion_lon": 0.0, "lat": 38.863625666666664, "is_disabled": 0, "name": "2c4b1505e3b65799a2fa1bf6f02403dc", "fusion_lat": 0.0, "rental_uris": {"ios": "https://dc.lft.to/lastmile_qr_scan", "android": "https://dc.lft.to/lastmile_qr_scan"}, "lon": -76.99039483333334, "type": "electric_scooter"}, {"bike_id": "2994156c91ddce83a9be1bd61abe3ebe", "is_reserved": 0, "fusion_lon": 0.0, "lat": 38.937093, "is_disabled": 0, "name": "2994156c91ddce83a9be1bd61abe3ebe", "fusion_lat": 0.0, "rental_uris": {"ios": "https://dc.lft.to/lastmile_qr_scan", "android": "https://dc.lft.to/lastmile_qr_scan"}, "lon": -77.02397933333333, "type": "electric_scooter"}, {"bike_id": "d41eaf57f07c4dc8e559eaddb9984d4d", "is_reserved": 0, "fusion_lon": 0.0, "lat": 38.943222166666665, "is_disabled": 0, "name": "d41eaf57f07c4dc8e559eaddb9984d4d", "fusion_lat": 0.0, "rental_uris": {"ios": "https://dc.lft.to/lastmile_qr_scan", "android": "https://dc.lft.to/lastmile_qr_scan"}, "lon": -77.07385366666666, "type": "electric_scooter"}, {"bike_id": "bb21b102992e18c7ecddd28933323383", "is_reserved": 0, "fusion_lon": 0.0, "lat": 38.946122333333335, "is_disabled": 0, "name": "bb21b102992e18c7ecddd28933323383", "fusion_lat": 0.0, "rental_uris": {"ios": "https://dc.lft.to/lastmile_qr_scan", "android": "https://dc.lft.to/lastmile_qr_scan"}, "lon": -77.03508966666666, "type": "electric_scooter"}, {"bike_id": "21cf11c44e4c9e4805a15c542fd2fb91", "is_reserved": 0, "fusion_lon": 0.0, "lat": 38.902765, "is_disabled": 0, "name": "21cf11c44e4c9e4805a15c542fd2fb91", "fusion_lat": 0.0, "rental_uris": {"ios": "https://dc.lft.to/lastmile_qr_scan", "android": "https://dc.lft.to/lastmile_qr_scan"}, "lon": -77.038706, "type": "electric_scooter"}, {"bike_id": "73812bd620e917fdc97197ac1d1ccac0", "is_reserved": 0, "fusion_lon": 0.0, "lat": 38.899114833333336, "is_disabled": 0, "name": "73812bd620e917fdc97197ac1d1ccac0", "fusion_lat": 0.0, "rental_uris": {"ios": "https://dc.lft.to/lastmile_qr_scan", "android": "https://dc.lft.to/lastmile_qr_scan"}, "lon": -77.05437266666667, "type": "electric_scooter"}, {"bike_id": "e40d7f4059c92ddea9a30e986f5d8f2b", "is_reserved": 0, "fusion_lon": 0.0, "lat": 38.9188115, "is_disabled": 0, "name": "e40d7f4059c92ddea9a30e986f5d8f2b", "fusion_lat": 0.0, "rental_uris": {"ios": "https://dc.lft.to/lastmile_qr_scan", "android": "https://dc.lft.to/lastmile_qr_scan"}, "lon": -76.97135983333334, "type": "electric_scooter"}, {"bike_id": "8e37a133f4216b26f30d7e9b73a0dda2", "is_reserved": 0, "fusion_lon": 0.0, "lat": 38.91615983333333, "is_disabled": 0, "name": "8e37a133f4216b26f30d7e9b73a0dda2", "fusion_lat": 0.0, "rental_uris": {"ios": "https://dc.lft.to/lastmile_qr_scan", "android": "https://dc.lft.to/lastmile_qr_scan"}, "lon": -77.03641983333333, "type": "electric_scooter"}, {"bike_id": "c4c4776030fa339295b2a7ff73942230", "is_reserved": 0, "fusion_lon": 0.0, "lat": 38.883225333333336, "is_disabled": 0, "name": "c4c4776030fa339295b2a7ff73942230", "fusion_lat": 0.0, "rental_uris": {"ios": "https://dc.lft.to/lastmile_qr_scan", "android": "https://dc.lft.to/lastmile_qr_scan"}, "lon": -77.01761783333333, "type": "electric_scooter"}, {"bike_id": "ef244cf81a3ea11f700dff337fdc8c44", "is_reserved": 0, "fusion_lon": 0.0, "lat": 38.846073833333335, "is_disabled": 0, "name": "ef244cf81a3ea11f700dff337fdc8c44", "fusion_lat": 0.0, "rental_uris": {"ios": "https://dc.lft.to/lastmile_qr_scan", "android": "https://dc.lft.to/lastmile_qr_scan"}, "lon": -76.97819116666666, "type": "electric_bike"}, {"bike_id": "7d0df53ee75361a60a12608a924a5608", "is_reserved": 0, "fusion_lon": 0.0, "lat": 39.05811666666666, "is_disabled": 0, "name": "7d0df53ee75361a60a12608a924a5608", "fusion_lat": 0.0, "rental_uris": {"ios": "https://dc.lft.to/lastmile_qr_scan", "android": "https://dc.lft.to/lastmile_qr_scan"}, "lon": -77.12625433333334, "type": "electric_bike"}, {"bike_id": "80c3a95c21256f3d8dcee9d3c97d348b", "is_reserved": 0, "fusion_lon": 0.0, "lat": 38.914882, "is_disabled": 0, "name": "80c3a95c21256f3d8dcee9d3c97d348b", "fusion_lat": 0.0, "rental_uris": {"ios": "https://dc.lft.to/lastmile_qr_scan", "android": "https://dc.lft.to/lastmile_qr_scan"}, "lon": -76.9857735, "type": "electric_scooter"}, {"bike_id": "3a404c782f4b6b137dd1b095dc48bcc8", "is_reserved": 0, "fusion_lon": 0.0, "lat": 38.909127, "is_disabled": 0, "name": "3a404c782f4b6b137dd1b095dc48bcc8", "fusion_lat": 0.0, "rental_uris": {"ios": "https://dc.lft.to/lastmile_qr_scan", "android": "https://dc.lft.to/lastmile_qr_scan"}, "lon": -76.99972416666667, "type": "electric_scooter"}, {"bike_id": "eca858d3055caaec2e41019c909298e5", "is_reserved": 0, "fusion_lon": 0.0, "lat": 38.910485, "is_disabled": 0, "name": "eca858d3055caaec2e41019c909298e5", "fusion_lat": 0.0, "rental_uris": {"ios": "https://dc.lft.to/lastmile_qr_scan", "android": "https://dc.lft.to/lastmile_qr_scan"}, "lon": -77.0151145, "type": "electric_scooter"}, {"bike_id": "518c6c61bd08513b2beb02e52659b9f7", "is_reserved": 0, "fusion_lon": 0.0, "lat": 38.953572333333334, "is_disabled": 0, "name": "518c6c61bd08513b2beb02e52659b9f7", "fusion_lat": 0.0, "rental_uris": {"ios": "https://dc.lft.to/lastmile_qr_scan", "android": "https://dc.lft.to/lastmile_qr_scan"}, "lon": -76.9809375, "type": "electric_bike"}, {"bike_id": "167c35fcea20d3f5de26234a3c9a575b", "is_reserved": 0, "fusion_lon": 0.0, "lat": 38.9019845, "is_disabled": 0, "name": "167c35fcea20d3f5de26234a3c9a575b", "fusion_lat": 0.0, "rental_uris": {"ios": "https://dc.lft.to/lastmile_qr_scan", "android": "https://dc.lft.to/lastmile_qr_scan"}, "lon": -77.06121816666666, "type": "electric_scooter"}, {"bike_id": "9efff3e7d99539af162cb23da2107b3b", "is_reserved": 0, "fusion_lon": 0.0, "lat": 38.89614866666667, "is_disabled": 0, "name": "9efff3e7d99539af162cb23da2107b3b", "fusion_lat": 0.0, "rental_uris": {"ios": "https://dc.lft.to/lastmile_qr_scan", "android": "https://dc.lft.to/lastmile_qr_scan"}, "lon": -77.011316, "type": "electric_scooter"}, {"bike_id": "9c99f5eedccb5608e7ebdbfd9a0c8ceb", "is_reserved": 0, "fusion_lon": 0.0, "lat": 38.846105333333334, "is_disabled": 0, "name": "9c99f5eedccb5608e7ebdbfd9a0c8ceb", "fusion_lat": 0.0, "rental_uris": {"ios": "https://dc.lft.to/lastmile_qr_scan", "android": "https://dc.lft.to/lastmile_qr_scan"}, "lon": -76.96910033333333, "type": "electric_bike"}, {"bike_id": "7d91a086e91ae34e6fccb0fb1968d515", "is_reserved": 0, "fusion_lon": 0.0, "lat": 38.9250105, "is_disabled": 0, "name": "7d91a086e91ae34e6fccb0fb1968d515", "fusion_lat": 0.0, "rental_uris": {"ios": "https://dc.lft.to/lastmile_qr_scan", "android": "https://dc.lft.to/lastmile_qr_scan"}, "lon": -77.0217675, "type": "electric_scooter"}, {"bike_id": "1c708e5d7d8658c251c7eb676477e3ec", "is_reserved": 0, "fusion_lon": 0.0, "lat": 38.8955465, "is_disabled": 0, "name": "1c708e5d7d8658c251c7eb676477e3ec", "fusion_lat": 0.0, "rental_uris": {"ios": "https://dc.lft.to/lastmile_qr_scan", "android": "https://dc.lft.to/lastmile_qr_scan"}, "lon": -76.9304595, "type": "electric_scooter"}, {"bike_id": "256161030e016a527beba4f33ff407eb", "is_reserved": 0, "fusion_lon": 0.0, "lat": 38.91159366666667, "is_disabled": 0, "name": "256161030e016a527beba4f33ff407eb", "fusion_lat": 0.0, "rental_uris": {"ios": "https://dc.lft.to/lastmile_qr_scan", "android": "https://dc.lft.to/lastmile_qr_scan"}, "lon": -76.9866045, "type": "electric_scooter"}, {"bike_id": "8d90c5b099c512dc5bce3912932d17b7", "is_reserved": 0, "fusion_lon": 0.0, "lat": 38.92709033333333, "is_disabled": 0, "name": "8d90c5b099c512dc5bce3912932d17b7", "fusion_lat": 0.0, "rental_uris": {"ios": "https://dc.lft.to/lastmile_qr_scan", "android": "https://dc.lft.to/lastmile_qr_scan"}, "lon": -77.0404585, "type": "electric_scooter"}, {"bike_id": "ec326e8f653e61edd10628b9c9ce5e52", "is_reserved": 0, "fusion_lon": 0.0, "lat": 38.8919515, "is_disabled": 0, "name": "ec326e8f653e61edd10628b9c9ce5e52", "fusion_lat": 0.0, "rental_uris": {"ios": "https://dc.lft.to/lastmile_qr_scan", "android": "https://dc.lft.to/lastmile_qr_scan"}, "lon": -77.02242266666667, "type": "electric_scooter"}, {"bike_id": "82992a4ebc3673112359a614a07aaf90", "is_reserved": 0, "fusion_lon": 0.0, "lat": 38.92269433333333, "is_disabled": 0, "name": "82992a4ebc3673112359a614a07aaf90", "fusion_lat": 0.0, "rental_uris": {"ios": "https://dc.lft.to/lastmile_qr_scan", "android": "https://dc.lft.to/lastmile_qr_scan"}, "lon": -77.01821283333334, "type": "electric_scooter"}, {"bike_id": "584905a8603ccc9774dcf060e27249a3", "is_reserved": 0, "fusion_lon": 0.0, "lat": 38.90531633333333, "is_disabled": 0, "name": "584905a8603ccc9774dcf060e27249a3", "fusion_lat": 0.0, "rental_uris": {"ios": "https://dc.lft.to/lastmile_qr_scan", "android": "https://dc.lft.to/lastmile_qr_scan"}, "lon": -77.06522833333334, "type": "electric_scooter"}, {"bike_id": "59180bfa0f6c37aea7bdf3aaefc89872", "is_reserved": 0, "fusion_lon": 0.0, "lat": 38.89221783333333, "is_disabled": 0, "name": "59180bfa0f6c37aea7bdf3aaefc89872", "fusion_lat": 0.0, "rental_uris": {"ios": "https://dc.lft.to/lastmile_qr_scan", "android": "https://dc.lft.to/lastmile_qr_scan"}, "lon": -77.04868716666667, "type": "electric_scooter"}, {"bike_id": "d1f0a2a7d5615b5887ec2cf231c9c303", "is_reserved": 0, "fusion_lon": 0.0, "lat": 38.90129366666667, "is_disabled": 0, "name": "d1f0a2a7d5615b5887ec2cf231c9c303", "fusion_lat": 0.0, "rental_uris": {"ios": "https://dc.lft.to/lastmile_qr_scan", "android": "https://dc.lft.to/lastmile_qr_scan"}, "lon": -76.99708816666667, "type": "electric_scooter"}, {"bike_id": "2244b9bcdf5b30bcc8b25ff55914045f", "is_reserved": 0, "fusion_lon": 0.0, "lat": 38.93191266666667, "is_disabled": 0, "name": "2244b9bcdf5b30bcc8b25ff55914045f", "fusion_lat": 0.0, "rental_uris": {"ios": "https://dc.lft.to/lastmile_qr_scan", "android": "https://dc.lft.to/lastmile_qr_scan"}, "lon": -77.02506983333333, "type": "electric_scooter"}, {"bike_id": "ffb22de937b727c13c5f8981e96e7149", "is_reserved": 0, "fusion_lon": 0.0, "lat": 38.86506966666666, "is_disabled": 0, "name": "ffb22de937b727c13c5f8981e96e7149", "fusion_lat": 0.0, "rental_uris": {"ios": "https://dc.lft.to/lastmile_qr_scan", "android": "https://dc.lft.to/lastmile_qr_scan"}, "lon": -76.98976066666667, "type": "electric_scooter"}, {"bike_id": "669227d6a6e6d8f6950c4bd010b9b21b", "is_reserved": 0, "fusion_lon": 0.0, "lat": 38.88371883333333, "is_disabled": 0, "name": "669227d6a6e6d8f6950c4bd010b9b21b", "fusion_lat": 0.0, "rental_uris": {"ios": "https://dc.lft.to/lastmile_qr_scan", "android": "https://dc.lft.to/lastmile_qr_scan"}, "lon": -76.99528466666666, "type": "electric_scooter"}, {"bike_id": "1d25572c3a3fb98cec1ce7316b216232", "is_reserved": 0, "fusion_lon": 0.0, "lat": 38.944146333333336, "is_disabled": 0, "name": "1d25572c3a3fb98cec1ce7316b216232", "fusion_lat": 0.0, "rental_uris": {"ios": "https://dc.lft.to/lastmile_qr_scan", "android": "https://dc.lft.to/lastmile_qr_scan"}, "lon": -77.055144, "type": "electric_scooter"}, {"bike_id": "68e3a304d9dd7cf3cb8a1ae3da4763ff", "is_reserved": 0, "fusion_lon": 0.0, "lat": 38.90685083333334, "is_disabled": 0, "name": "68e3a304d9dd7cf3cb8a1ae3da4763ff", "fusion_lat": 0.0, "rental_uris": {"ios": "https://dc.lft.to/lastmile_qr_scan", "android": "https://dc.lft.to/lastmile_qr_scan"}, "lon": -76.95186416666667, "type": "electric_bike"}, {"bike_id": "62dfb4a049807a01f6f039e37b7ea5ea", "is_reserved": 0, "fusion_lon": 0.0, "lat": 38.90145716666667, "is_disabled": 0, "name": "62dfb4a049807a01f6f039e37b7ea5ea", "fusion_lat": 0.0, "rental_uris": {"ios": "https://dc.lft.to/lastmile_qr_scan", "android": "https://dc.lft.to/lastmile_qr_scan"}, "lon": -77.033131, "type": "electric_scooter"}, {"bike_id": "d551b74b8bd77975a5304d79d11b817a", "is_reserved": 0, "fusion_lon": 0.0, "lat": 38.931997833333334, "is_disabled": 0, "name": "d551b74b8bd77975a5304d79d11b817a", "fusion_lat": 0.0, "rental_uris": {"ios": "https://dc.lft.to/lastmile_qr_scan", "android": "https://dc.lft.to/lastmile_qr_scan"}, "lon": -77.03876866666667, "type": "electric_scooter"}, {"bike_id": "fc90c77ce4b3c817ef11f7e1a8a1e72c", "is_reserved": 0, "fusion_lon": 0.0, "lat": 38.929580666666666, "is_disabled": 0, "name": "fc90c77ce4b3c817ef11f7e1a8a1e72c", "fusion_lat": 0.0, "rental_uris": {"ios": "https://dc.lft.to/lastmile_qr_scan", "android": "https://dc.lft.to/lastmile_qr_scan"}, "lon": -77.05517666666667, "type": "electric_scooter"}, {"bike_id": "8ce3e68a82180dd08425e787e5ed8cb8", "is_reserved": 0, "fusion_lon": 0.0, "lat": 38.91036866666666, "is_disabled": 0, "name": "8ce3e68a82180dd08425e787e5ed8cb8", "fusion_lat": 0.0, "rental_uris": {"ios": "https://dc.lft.to/lastmile_qr_scan", "android": "https://dc.lft.to/lastmile_qr_scan"}, "lon": -77.04265816666667, "type": "electric_scooter"}, {"bike_id": "6847c0c9db5e3114739dd7a3c78953b0", "is_reserved": 0, "fusion_lon": 0.0, "lat": 38.958799666666664, "is_disabled": 0, "name": "6847c0c9db5e3114739dd7a3c78953b0", "fusion_lat": 0.0, "rental_uris": {"ios": "https://dc.lft.to/lastmile_qr_scan", "android": "https://dc.lft.to/lastmile_qr_scan"}, "lon": -77.01035166666666, "type": "electric_bike"}, {"bike_id": "b8d4f0ec068610c8c2d321abf6a585dc", "is_reserved": 0, "fusion_lon": 0.0, "lat": 38.901046666666666, "is_disabled": 0, "name": "b8d4f0ec068610c8c2d321abf6a585dc", "fusion_lat": 0.0, "rental_uris": {"ios": "https://dc.lft.to/lastmile_qr_scan", "android": "https://dc.lft.to/lastmile_qr_scan"}, "lon": -77.04871666666666, "type": "electric_bike"}, {"bike_id": "aafca591b55d414e0c016cfe9c0bde35", "is_reserved": 0, "fusion_lon": 0.0, "lat": 38.866168333333334, "is_disabled": 0, "name": "aafca591b55d414e0c016cfe9c0bde35", "fusion_lat": 0.0, "rental_uris": {"ios": "https://dc.lft.to/lastmile_qr_scan", "android": "https://dc.lft.to/lastmile_qr_scan"}, "lon": -76.98649883333333, "type": "electric_scooter"}, {"bike_id": "fda8d4be782a489b3ee7091f20f5ad15", "is_reserved": 0, "fusion_lon": 0.0, "lat": 38.90475333333333, "is_disabled": 0, "name": "fda8d4be782a489b3ee7091f20f5ad15", "fusion_lat": 0.0, "rental_uris": {"ios": "https://dc.lft.to/lastmile_qr_scan", "android": "https://dc.lft.to/lastmile_qr_scan"}, "lon": -77.03253683333334, "type": "electric_scooter"}, {"bike_id": "1d811faccccbc15c6e29b254c7f78235", "is_reserved": 0, "fusion_lon": 0.0, "lat": 38.844252, "is_disabled": 0, "name": "1d811faccccbc15c6e29b254c7f78235", "fusion_lat": 0.0, "rental_uris": {"ios": "https://dc.lft.to/lastmile_qr_scan", "android": "https://dc.lft.to/lastmile_qr_scan"}, "lon": -76.99777866666666, "type": "electric_scooter"}, {"bike_id": "cc112d5ac34e38c81fb9fa9c67d19d01", "is_reserved": 0, "fusion_lon": 0.0, "lat": 38.80226066666667, "is_disabled": 0, "name": "cc112d5ac34e38c81fb9fa9c67d19d01", "fusion_lat": 0.0, "rental_uris": {"ios": "https://dc.lft.to/lastmile_qr_scan", "android": "https://dc.lft.to/lastmile_qr_scan"}, "lon": -77.0791485, "type": "electric_bike"}, {"bike_id": "95b3a1adc1d874ba2c0054cf741d1e0e", "is_reserved": 0, "fusion_lon": 0.0, "lat": 38.89502316666667, "is_disabled": 0, "name": "95b3a1adc1d874ba2c0054cf741d1e0e", "fusion_lat": 0.0, "rental_uris": {"ios": "https://dc.lft.to/lastmile_qr_scan", "android": "https://dc.lft.to/lastmile_qr_scan"}, "lon": -77.02272916666666, "type": "electric_scooter"}, {"bike_id": "98348bf556733af5e1bf5181b648a1d9", "is_reserved": 0, "fusion_lon": 0.0, "lat": 38.85808266666667, "is_disabled": 0, "name": "98348bf556733af5e1bf5181b648a1d9", "fusion_lat": 0.0, "rental_uris": {"ios": "https://dc.lft.to/lastmile_qr_scan", "android": "https://dc.lft.to/lastmile_qr_scan"}, "lon": -76.98654116666667, "type": "electric_scooter"}, {"bike_id": "351676801a32752ee70638246a5aa814", "is_reserved": 0, "fusion_lon": 0.0, "lat": 38.90956833333333, "is_disabled": 0, "name": "351676801a32752ee70638246a5aa814", "fusion_lat": 0.0, "rental_uris": {"ios": "https://dc.lft.to/lastmile_qr_scan", "android": "https://dc.lft.to/lastmile_qr_scan"}, "lon": -77.04233983333333, "type": "electric_scooter"}, {"bike_id": "9ce2ca24652cb30a1d89ed789b3ada61", "is_reserved": 0, "fusion_lon": 0.0, "lat": 38.90863516666667, "is_disabled": 0, "name": "9ce2ca24652cb30a1d89ed789b3ada61", "fusion_lat": 0.0, "rental_uris": {"ios": "https://dc.lft.to/lastmile_qr_scan", "android": "https://dc.lft.to/lastmile_qr_scan"}, "lon": -77.085945, "type": "electric_scooter"}, {"bike_id": "6f47a4a49e18f1e3b9387c75088bee42", "is_reserved": 0, "fusion_lon": 0.0, "lat": 38.916218666666666, "is_disabled": 0, "name": "6f47a4a49e18f1e3b9387c75088bee42", "fusion_lat": 0.0, "rental_uris": {"ios": "https://dc.lft.to/lastmile_qr_scan", "android": "https://dc.lft.to/lastmile_qr_scan"}, "lon": -77.03204, "type": "electric_scooter"}, {"bike_id": "a480ff35ee4bce41f2618212f6fd6ead", "is_reserved": 0, "fusion_lon": 0.0, "lat": 38.8901505, "is_disabled": 0, "name": "a480ff35ee4bce41f2618212f6fd6ead", "fusion_lat": 0.0, "rental_uris": {"ios": "https://dc.lft.to/lastmile_qr_scan", "android": "https://dc.lft.to/lastmile_qr_scan"}, "lon": -76.93729383333333, "type": "electric_scooter"}, {"bike_id": "2812df674fd5e6486fc86e206c08d8b2", "is_reserved": 0, "fusion_lon": 0.0, "lat": 38.90524666666666, "is_disabled": 0, "name": "2812df674fd5e6486fc86e206c08d8b2", "fusion_lat": 0.0, "rental_uris": {"ios": "https://dc.lft.to/lastmile_qr_scan", "android": "https://dc.lft.to/lastmile_qr_scan"}, "lon": -77.0515495, "type": "electric_scooter"}, {"bike_id": "09051823eb3c4022b176367afb84be80", "is_reserved": 0, "fusion_lon": 0.0, "lat": 38.90198516666667, "is_disabled": 0, "name": "09051823eb3c4022b176367afb84be80", "fusion_lat": 0.0, "rental_uris": {"ios": "https://dc.lft.to/lastmile_qr_scan", "android": "https://dc.lft.to/lastmile_qr_scan"}, "lon": -76.9418595, "type": "electric_scooter"}, {"bike_id": "dbdc5b6bd864f9e838a34bc789ca8d70", "is_reserved": 0, "fusion_lon": 0.0, "lat": 38.899500333333336, "is_disabled": 0, "name": "dbdc5b6bd864f9e838a34bc789ca8d70", "fusion_lat": 0.0, "rental_uris": {"ios": "https://dc.lft.to/lastmile_qr_scan", "android": "https://dc.lft.to/lastmile_qr_scan"}, "lon": -77.05058166666667, "type": "electric_scooter"}, {"bike_id": "f0dffb604e35ad111e309eacff716bc6", "is_reserved": 0, "fusion_lon": 0.0, "lat": 38.941818166666664, "is_disabled": 0, "name": "f0dffb604e35ad111e309eacff716bc6", "fusion_lat": 0.0, "rental_uris": {"ios": "https://dc.lft.to/lastmile_qr_scan", "android": "https://dc.lft.to/lastmile_qr_scan"}, "lon": -77.0309075, "type": "electric_scooter"}, {"bike_id": "67aff3a093621c850d276df7cf3e56f8", "is_reserved": 0, "fusion_lon": 0.0, "lat": 38.9111765, "is_disabled": 0, "name": "67aff3a093621c850d276df7cf3e56f8", "fusion_lat": 0.0, "rental_uris": {"ios": "https://dc.lft.to/lastmile_qr_scan", "android": "https://dc.lft.to/lastmile_qr_scan"}, "lon": -77.00247583333334, "type": "electric_scooter"}, {"bike_id": "1d7cc39d1af4cc4faa0ad3938d9d2ec1", "is_reserved": 0, "fusion_lon": 0.0, "lat": 38.871852, "is_disabled": 0, "name": "1d7cc39d1af4cc4faa0ad3938d9d2ec1", "fusion_lat": 0.0, "rental_uris": {"ios": "https://dc.lft.to/lastmile_qr_scan", "android": "https://dc.lft.to/lastmile_qr_scan"}, "lon": -77.01218983333334, "type": "electric_scooter"}, {"bike_id": "639e5bf56bd61b7390bbaaa7de68acc8", "is_reserved": 0, "fusion_lon": 0.0, "lat": 38.89908466666667, "is_disabled": 0, "name": "639e5bf56bd61b7390bbaaa7de68acc8", "fusion_lat": 0.0, "rental_uris": {"ios": "https://dc.lft.to/lastmile_qr_scan", "android": "https://dc.lft.to/lastmile_qr_scan"}, "lon": -76.9335285, "type": "electric_scooter"}, {"bike_id": "20bbb5ce8ed7e452dc6cfc314c1ce589", "is_reserved": 0, "fusion_lon": 0.0, "lat": 38.90795966666667, "is_disabled": 0, "name": "20bbb5ce8ed7e452dc6cfc314c1ce589", "fusion_lat": 0.0, "rental_uris": {"ios": "https://dc.lft.to/lastmile_qr_scan", "android": "https://dc.lft.to/lastmile_qr_scan"}, "lon": -76.99699116666666, "type": "electric_scooter"}, {"bike_id": "954c1ab69921ece04bbcf8f62f6bfee8", "is_reserved": 0, "fusion_lon": 0.0, "lat": 38.924436, "is_disabled": 0, "name": "954c1ab69921ece04bbcf8f62f6bfee8", "fusion_lat": 0.0, "rental_uris": {"ios": "https://dc.lft.to/lastmile_qr_scan", "android": "https://dc.lft.to/lastmile_qr_scan"}, "lon": -77.04113483333333, "type": "electric_scooter"}, {"bike_id": "18781b5162bd4212fb35a5287f163b91", "is_reserved": 0, "fusion_lon": 0.0, "lat": 38.917139, "is_disabled": 0, "name": "18781b5162bd4212fb35a5287f163b91", "fusion_lat": 0.0, "rental_uris": {"ios": "https://dc.lft.to/lastmile_qr_scan", "android": "https://dc.lft.to/lastmile_qr_scan"}, "lon": -77.02392816666666, "type": "electric_scooter"}, {"bike_id": "98130c329cea79a33911ad78c917aad3", "is_reserved": 0, "fusion_lon": 0.0, "lat": 38.944173, "is_disabled": 0, "name": "98130c329cea79a33911ad78c917aad3", "fusion_lat": 0.0, "rental_uris": {"ios": "https://dc.lft.to/lastmile_qr_scan", "android": "https://dc.lft.to/lastmile_qr_scan"}, "lon": -77.06322566666667, "type": "electric_scooter"}, {"bike_id": "fc1f780d396706099fd1c6d50110ebf8", "is_reserved": 0, "fusion_lon": 0.0, "lat": 38.930114333333336, "is_disabled": 0, "name": "fc1f780d396706099fd1c6d50110ebf8", "fusion_lat": 0.0, "rental_uris": {"ios": "https://dc.lft.to/lastmile_qr_scan", "android": "https://dc.lft.to/lastmile_qr_scan"}, "lon": -77.03777633333333, "type": "electric_scooter"}, {"bike_id": "a49514e310f2b17645520976154c8d18", "is_reserved": 0, "fusion_lon": 0.0, "lat": 38.90487566666667, "is_disabled": 0, "name": "a49514e310f2b17645520976154c8d18", "fusion_lat": 0.0, "rental_uris": {"ios": "https://dc.lft.to/lastmile_qr_scan", "android": "https://dc.lft.to/lastmile_qr_scan"}, "lon": -77.02197966666667, "type": "electric_scooter"}, {"bike_id": "d0ef093db9c621d2f2c945be6dea1d9d", "is_reserved": 0, "fusion_lon": 0.0, "lat": 39.0305035, "is_disabled": 0, "name": "d0ef093db9c621d2f2c945be6dea1d9d", "fusion_lat": 0.0, "rental_uris": {"ios": "https://dc.lft.to/lastmile_qr_scan", "android": "https://dc.lft.to/lastmile_qr_scan"}, "lon": -77.09483933333334, "type": "electric_bike"}, {"bike_id": "1990f19a7f85158224079adca6f7b477", "is_reserved": 0, "fusion_lon": 0.0, "lat": 38.88706783333333, "is_disabled": 0, "name": "1990f19a7f85158224079adca6f7b477", "fusion_lat": 0.0, "rental_uris": {"ios": "https://dc.lft.to/lastmile_qr_scan", "android": "https://dc.lft.to/lastmile_qr_scan"}, "lon": -77.0015435, "type": "electric_scooter"}, {"bike_id": "63ecc154e9674863b45112adfbac0904", "is_reserved": 0, "fusion_lon": 0.0, "lat": 38.908303, "is_disabled": 0, "name": "63ecc154e9674863b45112adfbac0904", "fusion_lat": 0.0, "rental_uris": {"ios": "https://dc.lft.to/lastmile_qr_scan", "android": "https://dc.lft.to/lastmile_qr_scan"}, "lon": -76.99698766666667, "type": "electric_scooter"}, {"bike_id": "b0f3e1f7c60de4ed30c19b878696913a", "is_reserved": 0, "fusion_lon": 0.0, "lat": 38.892258, "is_disabled": 0, "name": "b0f3e1f7c60de4ed30c19b878696913a", "fusion_lat": 0.0, "rental_uris": {"ios": "https://dc.lft.to/lastmile_qr_scan", "android": "https://dc.lft.to/lastmile_qr_scan"}, "lon": -77.00301066666667, "type": "electric_scooter"}, {"bike_id": "e285fdd99b3c0f33188de8576a323e7c", "is_reserved": 0, "fusion_lon": 0.0, "lat": 38.91778933333333, "is_disabled": 0, "name": "e285fdd99b3c0f33188de8576a323e7c", "fusion_lat": 0.0, "rental_uris": {"ios": "https://dc.lft.to/lastmile_qr_scan", "android": "https://dc.lft.to/lastmile_qr_scan"}, "lon": -76.973379, "type": "electric_scooter"}, {"bike_id": "b650a1f88fece3ac3cf96b89790b4256", "is_reserved": 0, "fusion_lon": 0.0, "lat": 38.915510166666664, "is_disabled": 0, "name": "b650a1f88fece3ac3cf96b89790b4256", "fusion_lat": 0.0, "rental_uris": {"ios": "https://dc.lft.to/lastmile_qr_scan", "android": "https://dc.lft.to/lastmile_qr_scan"}, "lon": -77.035121, "type": "electric_scooter"}, {"bike_id": "2976ee2408a5cca39c35a0eead9ae4c7", "is_reserved": 0, "fusion_lon": 0.0, "lat": 38.9051635, "is_disabled": 0, "name": "2976ee2408a5cca39c35a0eead9ae4c7", "fusion_lat": 0.0, "rental_uris": {"ios": "https://dc.lft.to/lastmile_qr_scan", "android": "https://dc.lft.to/lastmile_qr_scan"}, "lon": -77.0652655, "type": "electric_scooter"}, {"bike_id": "58395aa21436e7d28dfdbfeb3af25d7f", "is_reserved": 0, "fusion_lon": 0.0, "lat": 38.889677666666664, "is_disabled": 0, "name": "58395aa21436e7d28dfdbfeb3af25d7f", "fusion_lat": 0.0, "rental_uris": {"ios": "https://dc.lft.to/lastmile_qr_scan", "android": "https://dc.lft.to/lastmile_qr_scan"}, "lon": -76.98034816666667, "type": "electric_scooter"}, {"bike_id": "900e7019ba8b279bdac98f042b6d424f", "is_reserved": 0, "fusion_lon": 0.0, "lat": 38.918166, "is_disabled": 0, "name": "900e7019ba8b279bdac98f042b6d424f", "fusion_lat": 0.0, "rental_uris": {"ios": "https://dc.lft.to/lastmile_qr_scan", "android": "https://dc.lft.to/lastmile_qr_scan"}, "lon": -77.02475766666667, "type": "electric_scooter"}, {"bike_id": "021efd5c9344d0939381204635566b52", "is_reserved": 0, "fusion_lon": 0.0, "lat": 38.93347083333333, "is_disabled": 0, "name": "021efd5c9344d0939381204635566b52", "fusion_lat": 0.0, "rental_uris": {"ios": "https://dc.lft.to/lastmile_qr_scan", "android": "https://dc.lft.to/lastmile_qr_scan"}, "lon": -77.05712216666667, "type": "electric_scooter"}, {"bike_id": "cdcc7b9d659a0f9c2268390438feadd6", "is_reserved": 0, "fusion_lon": 0.0, "lat": 38.89982416666667, "is_disabled": 0, "name": "cdcc7b9d659a0f9c2268390438feadd6", "fusion_lat": 0.0, "rental_uris": {"ios": "https://dc.lft.to/lastmile_qr_scan", "android": "https://dc.lft.to/lastmile_qr_scan"}, "lon": -77.0093255, "type": "electric_scooter"}, {"bike_id": "2447b5ea7d3f332adb359afddbeec379", "is_reserved": 0, "fusion_lon": 0.0, "lat": 38.8982805, "is_disabled": 0, "name": "2447b5ea7d3f332adb359afddbeec379", "fusion_lat": 0.0, "rental_uris": {"ios": "https://dc.lft.to/lastmile_qr_scan", "android": "https://dc.lft.to/lastmile_qr_scan"}, "lon": -76.98026, "type": "electric_scooter"}, {"bike_id": "5c8334f45e67dd4758e82eccff80b895", "is_reserved": 0, "fusion_lon": 0.0, "lat": 38.92309633333333, "is_disabled": 0, "name": "5c8334f45e67dd4758e82eccff80b895", "fusion_lat": 0.0, "rental_uris": {"ios": "https://dc.lft.to/lastmile_qr_scan", "android": "https://dc.lft.to/lastmile_qr_scan"}, "lon": -77.02115183333333, "type": "electric_scooter"}, {"bike_id": "de6926555eb040ceda5cc0a790511821", "is_reserved": 0, "fusion_lon": 0.0, "lat": 38.82085566666667, "is_disabled": 0, "name": "de6926555eb040ceda5cc0a790511821", "fusion_lat": 0.0, "rental_uris": {"ios": "https://dc.lft.to/lastmile_qr_scan", "android": "https://dc.lft.to/lastmile_qr_scan"}, "lon": -77.05365116666667, "type": "electric_bike"}, {"bike_id": "71dcaeb313a5d338f3b1b314715ea89a", "is_reserved": 0, "fusion_lon": 0.0, "lat": 38.9219105, "is_disabled": 0, "name": "71dcaeb313a5d338f3b1b314715ea89a", "fusion_lat": 0.0, "rental_uris": {"ios": "https://dc.lft.to/lastmile_qr_scan", "android": "https://dc.lft.to/lastmile_qr_scan"}, "lon": -77.04253883333334, "type": "electric_scooter"},