{"data": {"bikes": [{"bike_id": "afe9ee89ad53f6e03b02fd1cf22db1b3", "name": "afe9ee89ad53f6e03b02fd1cf22db1b3", "lat": 38.92131766666667, "fusion_lat": 0.0, "type": "electric_scooter", "lon": -77.0366795, "is_disabled": 0, "fusion_lon": 0.0, "rental_uris": {"android": "https://dc.lft.to/lastmile_qr_scan", "ios": "https://dc.lft.to/lastmile_qr_scan"}, "is_reserved": 0}, {"bike_id": "4406d401be2877d61d0a3c6e796ea807", "name": "4406d401be2877d61d0a3c6e796ea807", "lat": 38.90409833333333, "fusion_lat": 0.0, "type": "electric_scooter", "lon": -76.973307, "is_disabled": 0, "fusion_lon": 0.0, "rental_uris": {"android": "https://dc.lft.to/lastmile_qr_scan", "ios": "https://dc.lft.to/lastmile_qr_scan"}, "is_reserved": 0}, {"bike_id": "9fd7cb7aba8b352f6c812a6be140a658", "name": "9fd7cb7aba8b352f6c812a6be140a658", "lat": 38.9207865, "fusion_lat": 0.0, "type": "electric_scooter", "lon": -77.03562933333333, "is_disabled": 0, "fusion_lon": 0.0, "rental_uris": {"android": "https://dc.lft.to/lastmile_qr_scan", "ios": "https://dc.lft.to/lastmile_qr_scan"}, "is_reserved": 0}, {"bike_id": "4132177bc92c02f95f12ef2f64150b82", "name": "4132177bc92c02f95f12ef2f64150b82", "lat": 38.910557, "fusion_lat": 0.0, "type": "electric_scooter", "lon": -77.04108883333333, "is_disabled": 0, "fusion_lon": 0.0, "rental_uris": {"android": "https://dc.lft.to/lastmile_qr_scan", "ios": "https://dc.lft.to/lastmile_qr_scan"}, "is_reserved": 0}, {"bike_id": "87c355e01a23c59ba2abe51fec56e05f", "name": "87c355e01a23c59ba2abe51fec56e05f", "lat": 38.916024666666665, "fusion_lat": 0.0, "type": "electric_scooter", "lon": -77.04498233333334, "is_disabled": 0, "fusion_lon": 0.0, "rental_uris": {"android": "https://dc.lft.to/lastmile_qr_scan", "ios": "https://dc.lft.to/lastmile_qr_scan"}, "is_reserved": 0}, {"bike_id": "795a81ea00accb75dfa0b3400d9ac9be", "name": "795a81ea00accb75dfa0b3400d9ac9be", "lat": 38.87658316666667, "fusion_lat": 0.0, "type": "electric_scooter", "lon": -76.99324849999999, "is_disabled": 0, "fusion_lon": 0.0, "rental_uris": {"android": "https://dc.lft.to/lastmile_qr_scan", "ios": "https://dc.lft.to/lastmile_qr_scan"}, "is_reserved": 0}, {"bike_id": "c247ae22e8f74e9b99e36f1f6e489bc3", "name": "c247ae22e8f74e9b99e36f1f6e489bc3", "lat": 38.91152016666667, "fusion_lat": 0.0, "type": "electric_scooter", "lon": -77.02289683333333, "is_disabled": 0, "fusion_lon": 0.0, "rental_uris": {"android": "https://dc.lft.to/lastmile_qr_scan", "ios": "https://dc.lft.to/lastmile_qr_scan"}, "is_reserved": 0}, {"bike_id": "cccd2081f4312b4e7c31aff200837af4", "name": "cccd2081f4312b4e7c31aff200837af4", "lat": 38.9304495, "fusion_lat": 0.0, "type": "electric_scooter", "lon": -76.9583655, "is_disabled": 0, "fusion_lon": 0.0, "rental_uris": {"android": "https://dc.lft.to/lastmile_qr_scan", "ios": "https://dc.lft.to/lastmile_qr_scan"}, "is_reserved": 0}, {"bike_id": "63e381b51a8d7f71a543bcd39e27204c", "name": "63e381b51a8d7f71a543bcd39e27204c", "lat": 38.904002166666665, "fusion_lat": 0.0, "type": "electric_scooter", "lon": -77.02500766666667, "is_disabled": 0, "fusion_lon": 0.0, "rental_uris": {"android": "https://dc.lft.to/lastmile_qr_scan", "ios": "https://dc.lft.to/lastmile_qr_scan"}, "is_reserved": 0}, {"bike_id": "36cba348ca8616878a6443bfcefda504", "name": "36cba348ca8616878a6443bfcefda504", "lat": 38.835378, "fusion_lat": 0.0, "type": "electric_bike", "lon": -77.007509, "is_disabled": 0, "fusion_lon": 0.0, "rental_uris": {"android": "https://dc.lft.to/lastmile_qr_scan", "ios": "https://dc.lft.to/lastmile_qr_scan"}, "is_reserved": 0}, {"bike_id": "59623bcf571ae40a1508e9d0b3cc7806", "name": "59623bcf571ae40a1508e9d0b3cc7806", "lat": 38.91981366666667, "fusion_lat": 0.0, "type": "electric_scooter", "lon": -77.033088, "is_disabled": 0, "fusion_lon": 0.0, "rental_uris": {"android": "https://dc.lft.to/lastmile_qr_scan", "ios": "https://dc.lft.to/lastmile_qr_scan"}, "is_reserved": 0}, {"bike_id": "2e18c2c7dcb0673baaf8f8d65b22ab2d", "name": "2e18c2c7dcb0673baaf8f8d65b22ab2d", "lat": 38.920003666666666, "fusion_lat": 0.0, "type": "electric_scooter", "lon": -77.03151866666667, "is_disabled": 0, "fusion_lon": 0.0, "rental_uris": {"android": "https://dc.lft.to/lastmile_qr_scan", "ios": "https://dc.lft.to/lastmile_qr_scan"}, "is_reserved": 0}, {"bike_id": "64ec200fd062b734a880934ba4b954f0", "name": "64ec200fd062b734a880934ba4b954f0", "lat": 38.905265166666666, "fusion_lat": 0.0, "type": "electric_scooter", "lon": -77.04145116666666, "is_disabled": 0, "fusion_lon": 0.0, "rental_uris": {"android": "https://dc.lft.to/lastmile_qr_scan", "ios": "https://dc.lft.to/lastmile_qr_scan"}, "is_reserved": 0}, {"bike_id": "96ee486d6a6166840d5f563f4e7b744e", "name": "96ee486d6a6166840d5f563f4e7b744e", "lat": 38.900313, "fusion_lat": 0.0, "type": "electric_scooter", "lon": -77.002159, "is_disabled": 0, "fusion_lon": 0.0, "rental_uris": {"android": "https://dc.lft.to/lastmile_qr_scan", "ios": "https://dc.lft.to/lastmile_qr_scan"}, "is_reserved": 0}, {"bike_id": "23e6fedb68d26ef0eff6de3e3cc8022b", "name": "23e6fedb68d26ef0eff6de3e3cc8022b", "lat": 38.906414166666664, "fusion_lat": 0.0, "type": "electric_scooter", "lon": -77.0532845, "is_disabled": 0, "fusion_lon": 0.0, "rental_uris": {"android": "https://dc.lft.to/lastmile_qr_scan", "ios": "https://dc.lft.to/lastmile_qr_scan"}, "is_reserved": 0}, {"bike_id": "b5bd6421d022a9b5e95055da08078404", "name": "b5bd6421d022a9b5e95055da08078404", "lat": 39.010733333333334, "fusion_lat": 0.0, "type": "electric_bike", "lon": -76.910643, "is_disabled": 0, "fusion_lon": 0.0, "rental_uris": {"android": "https://dc.lft.to/lastmile_qr_scan", "ios": "https://dc.lft.to/lastmile_qr_scan"}, "is_reserved": 0}, {"bike_id": "d64361f23c3efb11bb23ca8f0cb05464", "name": "d64361f23c3efb11bb23ca8f0cb05464", "lat": 38.90237666666667, "fusion_lat": 0.0, "type": "electric_scooter", "lon": -77.0268765, "is_disabled": 0, "fusion_lon": 0.0, "rental_uris": {"android": "https://dc.lft.to/lastmile_qr_scan", "ios": "https://dc.lft.to/lastmile_qr_scan"}, "is_reserved": 0}, {"bike_id": "c1ec4a23402330de8ba0ed46b1de989e", "name": "c1ec4a23402330de8ba0ed46b1de989e", "lat": 38.882848333333335, "fusion_lat": 0.0, "type": "electric_bike", "lon": -76.9323395, "is_disabled": 0, "fusion_lon": 0.0, "rental_uris": {"android": "https://dc.lft.to/lastmile_qr_scan", "ios": "https://dc.lft.to/lastmile_qr_scan"}, "is_reserved": 0}, {"bike_id": "71903fde7a382cf593dd2ad0e01588a0", "name": "71903fde7a382cf593dd2ad0e01588a0", "lat": 38.9460595, "fusion_lat": 0.0, "type": "electric_scooter", "lon": -77.0306045, "is_disabled": 0, "fusion_lon": 0.0, "rental_uris": {"android": "https://dc.lft.to/lastmile_qr_scan", "ios": "https://dc.lft.to/lastmile_qr_scan"}, "is_reserved": 0}, {"bike_id": "3a8a26831334c4b92f605b41b929f967", "name": "3a8a26831334c4b92f605b41b929f967", "lat": 38.90242683333334, "fusion_lat": 0.0, "type": "electric_scooter", "lon": -77.01751883333333, "is_disabled": 0, "fusion_lon": 0.0, "rental_uris": {"android": "https://dc.lft.to/lastmile_qr_scan", "ios": "https://dc.lft.to/lastmile_qr_scan"}, "is_reserved": 0}, {"bike_id": "c252a1b326fdbabe3cf0faea06b842da", "name": "c252a1b326fdbabe3cf0faea06b842da", "lat": 38.92413033333333, "fusion_lat": 0.0, "type": "electric_scooter", "lon": -77.019512, "is_disabled": 0, "fusion_lon": 0.0, "rental_uris": {"android": "https://dc.lft.to/lastmile_qr_scan", "ios": "https://dc.lft.to/lastmile_qr_scan"}, "is_reserved": 0}, {"bike_id": "c2760a85b3565741028f63a678becf68", "name": "c2760a85b3565741028f63a678becf68", "lat": 38.90136566666666, "fusion_lat": 0.0, "type": "electric_scooter", "lon": -77.0257285, "is_disabled": 0, "fusion_lon": 0.0, "rental_uris": {"android": "https://dc.lft.to/lastmile_qr_scan", "ios": "https://dc.lft.to/lastmile_qr_scan"}, "is_reserved": 0}, {"bike_id": "6d484a66039a40ae5c1d37462cc3bbed", "name": "6d484a66039a40ae5c1d37462cc3bbed", "lat": 38.8940835, "fusion_lat": 0.0, "type": "electric_scooter", "lon": -77.02332816666667, "is_disabled": 0, "fusion_lon": 0.0, "rental_uris": {"android": "https://dc.lft.to/lastmile_qr_scan", "ios": "https://dc.lft.to/lastmile_qr_scan"}, "is_reserved": 0}, {"bike_id": "a83bf2fc4a32450524370aa4cf130182", "name": "a83bf2fc4a32450524370aa4cf130182", "lat": 38.892303166666665, "fusion_lat": 0.0, "type": "electric_scooter", "lon": -77.0447765, "is_disabled": 0, "fusion_lon": 0.0, "rental_uris": {"android": "https://dc.lft.to/lastmile_qr_scan", "ios": "https://dc.lft.to/lastmile_qr_scan"}, "is_reserved": 0}, {"bike_id": "baa792f8669251425d9affe79f0553d4", "name": "baa792f8669251425d9affe79f0553d4", "lat": 38.92851266666667, "fusion_lat": 0.0, "type": "electric_scooter", "lon": -77.03737216666667, "is_disabled": 0, "fusion_lon": 0.0, "rental_uris": {"android": "https://dc.lft.to/lastmile_qr_scan", "ios": "https://dc.lft.to/lastmile_qr_scan"}, "is_reserved": 0}, {"bike_id": "f5134449ded0d73f21d0508b44c14e0e", "name": "f5134449ded0d73f21d0508b44c14e0e", "lat": 38.90825866666667, "fusion_lat": 0.0, "type": "electric_scooter", "lon": -76.98721283333333, "is_disabled": 0, "fusion_lon": 0.0, "rental_uris": {"android": "https://dc.lft.to/lastmile_qr_scan", "ios": "https://dc.lft.to/lastmile_qr_scan"}, "is_reserved": 0}, {"bike_id": "b2f03a4a7fd9202bddd22c4d9f20e7ce", "name": "b2f03a4a7fd9202bddd22c4d9f20e7ce", "lat": 38.8861005, "fusion_lat": 0.0, "type": "electric_scooter", "lon": -77.00403433333334, "is_disabled": 0, "fusion_lon": 0.0, "rental_uris": {"android": "https://dc.lft.to/lastmile_qr_scan", "ios": "https://dc.lft.to/lastmile_qr_scan"}, "is_reserved": 0}, {"bike_id": "53ecf4df0b44fc9187d86df4ee597ac5", "name": "53ecf4df0b44fc9187d86df4ee597ac5", "lat": 38.90830716666667, "fusion_lat": 0.0, "type": "electric_scooter", "lon": -76.997013, "is_disabled": 0, "fusion_lon": 0.0, "rental_uris": {"android": "https://dc.lft.to/lastmile_qr_scan", "ios": "https://dc.lft.to/lastmile_qr_scan"}, "is_reserved": 0}, {"bike_id": "eb529b3cebc3791f8f4eab7dd1bc2cdb", "name": "eb529b3cebc3791f8f4eab7dd1bc2cdb", "lat": 38.91784966666667, "fusion_lat": 0.0, "type": "electric_scooter", "lon": -77.03439783333333, "is_disabled": 0, "fusion_lon": 0.0, "rental_uris": {"android": "https://dc.lft.to/lastmile_qr_scan", "ios": "https://dc.lft.to/lastmile_qr_scan"}, "is_reserved": 0}, {"bike_id": "e7deaf5daf4a3910fbee682d5f9b1eba", "name": "e7deaf5daf4a3910fbee682d5f9b1eba", "lat": 38.8037745, "fusion_lat": 0.0, "type": "electric_bike", "lon": -76.98819566666667, "is_disabled": 0, "fusion_lon": 0.0, "rental_uris": {"android": "https://dc.lft.to/lastmile_qr_scan", "ios": "https://dc.lft.to/lastmile_qr_scan"}, "is_reserved": 0}, {"bike_id": "cb7a57e9004f21615abc10c248b9c82f", "name": "cb7a57e9004f21615abc10c248b9c82f", "lat": 38.86658833333333, "fusion_lat": 0.0, "type": "electric_scooter", "lon": -76.97910966666667, "is_disabled": 0, "fusion_lon": 0.0, "rental_uris": {"android": "https://dc.lft.to/lastmile_qr_scan", "ios": "https://dc.lft.to/lastmile_qr_scan"}, "is_reserved": 0}, {"bike_id": "8029672f03a5f10c191b52116cacbd7b", "name": "8029672f03a5f10c191b52116cacbd7b", "lat": 38.8950405, "fusion_lat": 0.0, "type": "electric_scooter", "lon": -76.934792, "is_disabled": 0, "fusion_lon": 0.0, "rental_uris": {"android": "https://dc.lft.to/lastmile_qr_scan", "ios": "https://dc.lft.to/lastmile_qr_scan"}, "is_reserved": 0}, {"bike_id": "8207757e41721fb727da190571a7e527", "name": "8207757e41721fb727da190571a7e527", "lat": 38.9132135, "fusion_lat": 0.0, "type": "electric_scooter", "lon": -77.01661, "is_disabled": 0, "fusion_lon": 0.0, "rental_uris": {"android": "https://dc.lft.to/lastmile_qr_scan", "ios": "https://dc.lft.to/lastmile_qr_scan"}, "is_reserved": 0}, {"bike_id": "4d3d2df33bcc52a5c1d4cbf2fd5b7e5c", "name": "4d3d2df33bcc52a5c1d4cbf2fd5b7e5c", "lat": 38.930915666666664, "fusion_lat": 0.0, "type": "electric_scooter", "lon": -77.03274733333333, "is_disabled": 0, "fusion_lon": 0.0, "rental_uris": {"android": "https://dc.lft.to/lastmile_qr_scan", "ios": "https://dc.lft.to/lastmile_qr_scan"}, "is_reserved": 0}, {"bike_id": "70226e9a66865df300546fdb3bb22002", "name": "70226e9a66865df300546fdb3bb22002", "lat": 38.89361983333333, "fusion_lat": 0.0, "type": "electric_scooter", "lon": -76.93596183333334, "is_disabled": 0, "fusion_lon": 0.0, "rental_uris": {"android": "https://dc.lft.to/lastmile_qr_scan", "ios": "https://dc.lft.to/lastmile_qr_scan"}, "is_reserved": 0}, {"bike_id": "cbb7cc503badeb31155217a15f421c83", "name": "cbb7cc503badeb31155217a15f421c83", "lat": 38.895336666666665, "fusion_lat": 0.0, "type": "electric_scooter", "lon": -76.94892466666667, "is_disabled": 0, "fusion_lon": 0.0, "rental_uris": {"android": "https://dc.lft.to/lastmile_qr_scan", "ios": "https://dc.lft.to/lastmile_qr_scan"}, "is_reserved": 0}, {"bike_id": "6a388859f6ceddca823ad7db9dbd1c1a", "name": "6a388859f6ceddca823ad7db9dbd1c1a", "lat": 38.900472666666666, "fusion_lat": 0.0, "type": "electric_scooter", "lon": -77.0514755, "is_disabled": 0, "fusion_lon": 0.0, "rental_uris": {"android": "https://dc.lft.to/lastmile_qr_scan", "ios": "https://dc.lft.to/lastmile_qr_scan"}, "is_reserved": 0}, {"bike_id": "c6d862123d5398b9afe0c283282de9a0", "name": "c6d862123d5398b9afe0c283282de9a0", "lat": 38.892237333333334, "fusion_lat": 0.0, "type": "electric_scooter", "lon": -77.04087333333334, "is_disabled": 0, "fusion_lon": 0.0, "rental_uris": {"android": "https://dc.lft.to/lastmile_qr_scan", "ios": "https://dc.lft.to/lastmile_qr_scan"}, "is_reserved": 0}, {"bike_id": "81e7892c5b1fec5b2f7ca6df61a2a94a", "name": "81e7892c5b1fec5b2f7ca6df61a2a94a", "lat": 38.9050665, "fusion_lat": 0.0, "type": "electric_scooter", "lon": -77.03660966666666, "is_disabled": 0, "fusion_lon": 0.0, "rental_uris": {"android": "https://dc.lft.to/lastmile_qr_scan", "ios": "https://dc.lft.to/lastmile_qr_scan"}, "is_reserved": 0}, {"bike_id": "3872a1ec9bf91ba27fa3b557f7087d3c", "name": "3872a1ec9bf91ba27fa3b557f7087d3c", "lat": 38.922406333333335, "fusion_lat": 0.0, "type": "electric_scooter", "lon": -77.03662816666667, "is_disabled": 0, "fusion_lon": 0.0, "rental_uris": {"android": "https://dc.lft.to/lastmile_qr_scan", "ios": "https://dc.lft.to/lastmile_qr_scan"}, "is_reserved": 0}, {"bike_id": "201acded37f7cbfdc70dabf60ac5e350", "name": "201acded37f7cbfdc70dabf60ac5e350", "lat": 38.903831, "fusion_lat": 0.0, "type": "electric_scooter", "lon": -77.01857316666667, "is_disabled": 0, "fusion_lon": 0.0, "rental_uris": {"android": "https://dc.lft.to/lastmile_qr_scan", "ios": "https://dc.lft.to/lastmile_qr_scan"}, "is_reserved": 0}, {"bike_id": "052a51b7b807646cb413f70b33fd0286", "name": "052a51b7b807646cb413f70b33fd0286", "lat": 38.90191133333333, "fusion_lat": 0.0, "type": "electric_scooter", "lon": -77.0509295, "is_disabled": 0, "fusion_lon": 0.0, "rental_uris": {"android": "https://dc.lft.to/lastmile_qr_scan", "ios": "https://dc.lft.to/lastmile_qr_scan"}, "is_reserved": 0}, {"bike_id": "d593a46c2c5906c4a09549b8c83fd916", "name": "d593a46c2c5906c4a09549b8c83fd916", "lat": 38.92789033333333, "fusion_lat": 0.0, "type": "electric_scooter", "lon": -77.0308155, "is_disabled": 0, "fusion_lon": 0.0, "rental_uris": {"android": "https://dc.lft.to/lastmile_qr_scan", "ios": "https://dc.lft.to/lastmile_qr_scan"}, "is_reserved": 0}, {"bike_id": "a95b8eb2c326504ba0d0d412e50b0e6d", "name": "a95b8eb2c326504ba0d0d412e50b0e6d", "lat": 38.872846333333335, "fusion_lat": 0.0, "type": "electric_scooter", "lon": -77.00988566666666, "is_disabled": 0, "fusion_lon": 0.0, "rental_uris": {"android": "https://dc.lft.to/lastmile_qr_scan", "ios": "https://dc.lft.to/lastmile_qr_scan"}, "is_reserved": 0}, {"bike_id": "51f8d650dbb0ddf633fbf3d153ded20d", "name": "51f8d650dbb0ddf633fbf3d153ded20d", "lat": 38.902761166666664, "fusion_lat": 0.0, "type": "electric_scooter", "lon": -77.045915, "is_disabled": 0, "fusion_lon": 0.0, "rental_uris": {"android": "https://dc.lft.to/lastmile_qr_scan", "ios": "https://dc.lft.to/lastmile_qr_scan"}, "is_reserved": 0}, {"bike_id": "6040e99b1e45fae46ac20818cba75662", "name": "6040e99b1e45fae46ac20818cba75662", "lat": 38.9168885, "fusion_lat": 0.0, "type": "electric_scooter", "lon": -77.052984, "is_disabled": 0, "fusion_lon": 0.0, "rental_uris": {"android": "https://dc.lft.to/lastmile_qr_scan", "ios": "https://dc.lft.to/lastmile_qr_scan"}, "is_reserved": 0}, {"bike_id": "c016cc0cfdb8ba105bbeb5a61763f872", "name": "c016cc0cfdb8ba105bbeb5a61763f872", "lat": 38.897409333333336, "fusion_lat": 0.0, "type": "electric_scooter", "lon": -77.03367416666667, "is_disabled": 0, "fusion_lon": 0.0, "rental_uris": {"android": "https://dc.lft.to/lastmile_qr_scan", "ios": "https://dc.lft.to/lastmile_qr_scan"}, "is_reserved": 0}, {"bike_id": "738c4317a4b64b91830f64edb912610f", "name": "738c4317a4b64b91830f64edb912610f", "lat": 38.90903083333333, "fusion_lat": 0.0, "type": "electric_scooter", "lon": -77.04421466666666, "is_disabled": 0, "fusion_lon": 0.0, "rental_uris": {"android": "https://dc.lft.to/lastmile_qr_scan", "ios": "https://dc.lft.to/lastmile_qr_scan"}, "is_reserved": 0}, {"bike_id": "59e2f0c7c78338d3a4588428d7cd2598", "name": "59e2f0c7c78338d3a4588428d7cd2598", "lat": 38.887538166666666, "fusion_lat": 0.0, "type": "electric_bike", "lon": -77.08922566666666, "is_disabled": 0, "fusion_lon": 0.0, "rental_uris": {"android": "https://dc.lft.to/lastmile_qr_scan", "ios": "https://dc.lft.to/lastmile_qr_scan"}, "is_reserved": 0}, {"bike_id": "762ddb099dd5b6cc5cede8e51ab5f62b", "name": "762ddb099dd5b6cc5cede8e51ab5f62b", "lat": 38.922196666666665, "fusion_lat": 0.0, "type": "electric_scooter", "lon": -77.0433055, "is_disabled": 0, "fusion_lon": 0.0, "rental_uris": {"android": "https://dc.lft.to/lastmile_qr_scan", "ios": "https://dc.lft.to/lastmile_qr_scan"}, "is_reserved": 0}, {"bike_id": "1aa227bc4458a6c56617b066201bde75", "name": "1aa227bc4458a6c56617b066201bde75", "lat": 38.91635983333333, "fusion_lat": 0.0, "type": "electric_scooter", "lon": -77.02101133333333, "is_disabled": 0, "fusion_lon": 0.0, "rental_uris": {"android": "https://dc.lft.to/lastmile_qr_scan", "ios": "https://dc.lft.to/lastmile_qr_scan"}, "is_reserved": 0}, {"bike_id": "1ca50b6f3703e26ea52c293cd099736f", "name": "1ca50b6f3703e26ea52c293cd099736f", "lat": 38.918166666666664, "fusion_lat": 0.0, "type": "electric_scooter", "lon": -77.0282105, "is_disabled": 0, "fusion_lon": 0.0, "rental_uris": {"android": "https://dc.lft.to/lastmile_qr_scan", "ios": "https://dc.lft.to/lastmile_qr_scan"}, "is_reserved": 0}, {"bike_id": "6642ebb981d14063cf4c4ed0c168cf5b", "name": "6642ebb981d14063cf4c4ed0c168cf5b", "lat": 38.92601283333333, "fusion_lat": 0.0, "type": "electric_scooter", "lon": -77.02157, "is_disabled": 0, "fusion_lon": 0.0, "rental_uris": {"android": "https://dc.lft.to/lastmile_qr_scan", "ios": "https://dc.lft.to/lastmile_qr_scan"}, "is_reserved": 0}, {"bike_id": "7ed80cc9f2c51d8295bc0753b42e5d72", "name": "7ed80cc9f2c51d8295bc0753b42e5d72", "lat": 38.924039666666665, "fusion_lat": 0.0, "type": "electric_scooter", "lon": -77.05173383333333, "is_disabled": 0, "fusion_lon": 0.0, "rental_uris": {"android": "https://dc.lft.to/lastmile_qr_scan", "ios": "https://dc.lft.to/lastmile_qr_scan"}, "is_reserved": 0}, {"bike_id": "f03ade9fe984ee6628ba031f256f14ec", "name": "f03ade9fe984ee6628ba031f256f14ec", "lat": 38.93101683333333, "fusion_lat": 0.0, "type": "electric_scooter", "lon": -77.03509633333333, "is_disabled": 0, "fusion_lon": 0.0, "rental_uris": {"android": "https://dc.lft.to/lastmile_qr_scan", "ios": "https://dc.lft.to/lastmile_qr_scan"}, "is_reserved": 0}, {"bike_id": "e581e3c7db3c9a4ab1c2886feccfc19b", "name": "e581e3c7db3c9a4ab1c2886feccfc19b", "lat": 38.8941815, "fusion_lat": 0.0, "type": "electric_scooter", "lon": -76.99769216666667, "is_disabled": 0, "fusion_lon": 0.0, "rental_uris": {"android": "https://dc.lft.to/lastmile_qr_scan", "ios": "https://dc.lft.to/lastmile_qr_scan"}, "is_reserved": 0}, {"bike_id": "f0052945f6b970f2425970aa5ff4ef69", "name": "f0052945f6b970f2425970aa5ff4ef69", "lat": 38.927994166666664, "fusion_lat": 0.0, "type": "electric_scooter", "lon": -77.01415316666667, "is_disabled": 0, "fusion_lon": 0.0, "rental_uris": {"android": "https://dc.lft.to/lastmile_qr_scan", "ios": "https://dc.lft.to/lastmile_qr_scan"}, "is_reserved": 0}, {"bike_id": "726eed6848dac3dba13c1e7f54ad6ec8", "name": "726eed6848dac3dba13c1e7f54ad6ec8", "lat": 38.863472, "fusion_lat": 0.0, "type": "electric_scooter", "lon": -76.98706866666667, "is_disabled": 0, "fusion_lon": 0.0, "rental_uris": {"android": "https://dc.lft.to/lastmile_qr_scan", "ios": "https://dc.lft.to/lastmile_qr_scan"}, "is_reserved": 0}, {"bike_id": "a150537a9729c25cf8bdc043896ac940", "name": "a150537a9729c25cf8bdc043896ac940", "lat": 38.897126166666666, "fusion_lat": 0.0, "type": "electric_scooter", "lon": -77.00798966666666, "is_disabled": 0, "fusion_lon": 0.0, "rental_uris": {"android": "https://dc.lft.to/lastmile_qr_scan", "ios": "https://dc.lft.to/lastmile_qr_scan"}, "is_reserved": 0}, {"bike_id": "00df6484d9c28dcbb9f6935f6dfe4cf9", "name": "00df6484d9c28dcbb9f6935f6dfe4cf9", "lat": 38.905188833333334, "fusion_lat": 0.0, "type": "electric_scooter", "lon": -77.06241216666666, "is_disabled": 0, "fusion_lon": 0.0, "rental_uris": {"android": "https://dc.lft.to/lastmile_qr_scan", "ios": "https://dc.lft.to/lastmile_qr_scan"}, "is_reserved": 0}, {"bike_id": "c1dd9146de48836fbb716a5efb860d9e", "name": "c1dd9146de48836fbb716a5efb860d9e", "lat": 38.889288666666666, "fusion_lat": 0.0, "type": "electric_bike", "lon": -76.91326566666666, "is_disabled": 0, "fusion_lon": 0.0, "rental_uris": {"android": "https://dc.lft.to/lastmile_qr_scan", "ios": "https://dc.lft.to/lastmile_qr_scan"}, "is_reserved": 0}, {"bike_id": "ec614547efb4ffc35cf64754b6eb67f3", "name": "ec614547efb4ffc35cf64754b6eb67f3", "lat": 38.899749666666665, "fusion_lat": 0.0, "type": "electric_scooter", "lon": -77.0308575, "is_disabled": 0, "fusion_lon": 0.0, "rental_uris": {"android": "https://dc.lft.to/lastmile_qr_scan", "ios": "https://dc.lft.to/lastmile_qr_scan"}, "is_reserved": 0}, {"bike_id": "3a8309c9e28d323f2f7febc521240f61", "name": "3a8309c9e28d323f2f7febc521240f61", "lat": 38.954617666666664, "fusion_lat": 0.0, "type": "electric_scooter", "lon": -77.0776775, "is_disabled": 0, "fusion_lon": 0.0, "rental_uris": {"android": "https://dc.lft.to/lastmile_qr_scan", "ios": "https://dc.lft.to/lastmile_qr_scan"}, "is_reserved": 0}, {"bike_id": "34adc77f901f87431d031d9631cf9b62", "name": "34adc77f901f87431d031d9631cf9b62", "lat": 38.997226166666664, "fusion_lat": 0.0, "type": "electric_bike", "lon": -77.02736666666667, "is_disabled": 0, "fusion_lon": 0.0, "rental_uris": {"android": "https://dc.lft.to/lastmile_qr_scan", "ios": "https://dc.lft.to/lastmile_qr_scan"}, "is_reserved": 0}, {"bike_id": "f854304a3b983241185c43446352fcbd", "name": "f854304a3b983241185c43446352fcbd", "lat": 38.89445666666667, "fusion_lat": 0.0, "type": "electric_scooter", "lon": -77.02044783333334, "is_disabled": 0, "fusion_lon": 0.0, "rental_uris": {"android": "https://dc.lft.to/lastmile_qr_scan", "ios": "https://dc.lft.to/lastmile_qr_scan"}, "is_reserved": 0}, {"bike_id": "38c6ffd62cad706b2464e83d8cd95724", "name": "38c6ffd62cad706b2464e83d8cd95724", "lat": 38.904963, "fusion_lat": 0.0, "type": "electric_scooter", "lon": -77.02951883333333, "is_disabled": 0, "fusion_lon": 0.0, "rental_uris": {"android": "https://dc.lft.to/lastmile_qr_scan", "ios": "https://dc.lft.to/lastmile_qr_scan"}, "is_reserved": 0}, {"bike_id": "1a7210d31dcdc9dee805b06220db9325", "name": "1a7210d31dcdc9dee805b06220db9325", "lat": 38.91559, "fusion_lat": 0.0, "type": "electric_scooter", "lon": -77.03249933333333, "is_disabled": 0, "fusion_lon": 0.0, "rental_uris": {"android": "https://dc.lft.to/lastmile_qr_scan", "ios": "https://dc.lft.to/lastmile_qr_scan"}, "is_reserved": 0}, {"bike_id": "552c4f0fa15fd81839a1b5a70227df2c", "name": "552c4f0fa15fd81839a1b5a70227df2c", "lat": 38.916940333333336, "fusion_lat": 0.0, "type": "electric_scooter", "lon": -77.0381985, "is_disabled": 0, "fusion_lon": 0.0, "rental_uris": {"android": "https://dc.lft.to/lastmile_qr_scan", "ios": "https://dc.lft.to/lastmile_qr_scan"}, "is_reserved": 0}, {"bike_id": "31b9cd2e4e002f7f5f1d2aaf5fca9a10", "name": "31b9cd2e4e002f7f5f1d2aaf5fca9a10", "lat": 38.9223765, "fusion_lat": 0.0, "type": "electric_scooter", "lon": -77.03663766666666, "is_disabled": 0, "fusion_lon": 0.0, "rental_uris": {"android": "https://dc.lft.to/lastmile_qr_scan", "ios": "https://dc.lft.to/lastmile_qr_scan"}, "is_reserved": 0}, {"bike_id": "464d51d1f8135c7e3edb4ee23195ab2b", "name": "464d51d1f8135c7e3edb4ee23195ab2b", "lat": 38.96213616666667, "fusion_lat": 0.0, "type": "electric_bike", "lon": -77.0738295, "is_disabled": 0, "fusion_lon": 0.0, "rental_uris": {"android": "https://dc.lft.to/lastmile_qr_scan", "ios": "https://dc.lft.to/lastmile_qr_scan"}, "is_reserved": 0}, {"bike_id": "aa2ecef0be6bd269c46b0ab7835b844d", "name": "aa2ecef0be6bd269c46b0ab7835b844d", "lat": 38.899161166666666, "fusion_lat": 0.0, "type": "electric_scooter", "lon": -76.9337285, "is_disabled": 0, "fusion_lon": 0.0, "rental_uris": {"android": "https://dc.lft.to/lastmile_qr_scan", "ios": "https://dc.lft.to/lastmile_qr_scan"}, "is_reserved": 0}, {"bike_id": "4b0663f85d22ca93f528cf30402d0ee7", "name": "4b0663f85d22ca93f528cf30402d0ee7", "lat": 38.90569816666667, "fusion_lat": 0.0, "type": "electric_scooter", "lon": -77.04243316666667, "is_disabled": 0, "fusion_lon": 0.0, "rental_uris": {"android": "https://dc.lft.to/lastmile_qr_scan", "ios": "https://dc.lft.to/lastmile_qr_scan"}, "is_reserved": 0}, {"bike_id": "eb57c519a7ea704ef9b45aa9efe6887f", "name": "eb57c519a7ea704ef9b45aa9efe6887f", "lat": 38.917181666666664, "fusion_lat": 0.0, "type": "electric_scooter", "lon": -77.02976766666667, "is_disabled": 0, "fusion_lon": 0.0, "rental_uris": {"android": "https://dc.lft.to/lastmile_qr_scan", "ios": "https://dc.lft.to/lastmile_qr_scan"}, "is_reserved": 0}, {"bike_id": "9e79174b39f54f67585ee72940325bab", "name": "9e79174b39f54f67585ee72940325bab", "lat": 38.874967, "fusion_lat": 0.0, "type": "electric_scooter", "lon": -76.9997075, "is_disabled": 0, "fusion_lon": 0.0, "rental_uris": {"android": "https://dc.lft.to/lastmile_qr_scan", "ios": "https://dc.lft.to/lastmile_qr_scan"}, "is_reserved": 0}, {"bike_id": "e3912cf1b0edd04c70becdde915a82f9", "name": "e3912cf1b0edd04c70becdde915a82f9", "lat": 38.89830383333333, "fusion_lat": 0.0, "type": "electric_scooter", "lon": -77.04609416666666, "is_disabled": 0, "fusion_lon": 0.0, "rental_uris": {"android": "https://dc.lft.to/lastmile_qr_scan", "ios": "https://dc.lft.to/lastmile_qr_scan"}, "is_reserved": 0}, {"bike_id": "5a43b0274e6f5844df632e02b69816ef", "name": "5a43b0274e6f5844df632e02b69816ef", "lat": 38.894681166666665, "fusion_lat": 0.0, "type": "electric_scooter", "lon": -77.04658716666667, "is_disabled": 0, "fusion_lon": 0.0, "rental_uris": {"android": "https://dc.lft.to/lastmile_qr_scan", "ios": "https://dc.lft.to/lastmile_qr_scan"}, "is_reserved": 0}, {"bike_id": "edfa601dee920c2f9b34d5966ce7529d", "name": "edfa601dee920c2f9b34d5966ce7529d", "lat": 38.930594166666666, "fusion_lat": 0.0, "type": "electric_scooter", "lon": -77.039437, "is_disabled": 0, "fusion_lon": 0.0, "rental_uris": {"android": "https://dc.lft.to/lastmile_qr_scan", "ios": "https://dc.lft.to/lastmile_qr_scan"}, "is_reserved": 0}, {"bike_id": "cc7fe3ef53770dcf2dab851caa1a7106", "name": "cc7fe3ef53770dcf2dab851caa1a7106", "lat": 38.91616233333333, "fusion_lat": 0.0, "type": "electric_scooter", "lon": -77.03179616666667, "is_disabled": 0, "fusion_lon": 0.0, "rental_uris": {"android": "https://dc.lft.to/lastmile_qr_scan", "ios": "https://dc.lft.to/lastmile_qr_scan"}, "is_reserved": 0}, {"bike_id": "6646cc0106cf990138a7841fd18a75cd", "name": "6646cc0106cf990138a7841fd18a75cd", "lat": 38.9011555, "fusion_lat": 0.0, "type": "electric_scooter", "lon": -77.04628033333333, "is_disabled": 0, "fusion_lon": 0.0, "rental_uris": {"android": "https://dc.lft.to/lastmile_qr_scan", "ios": "https://dc.lft.to/lastmile_qr_scan"}, "is_reserved": 0}, {"bike_id": "6ea5df53b8d2f8a19b511ef8f3983329", "name": "6ea5df53b8d2f8a19b511ef8f3983329", "lat": 38.92141183333333, "fusion_lat": 0.0, "type": "electric_scooter", "lon": -77.017973, "is_disabled": 0, "fusion_lon": 0.0, "rental_uris": {"android": "https://dc.lft.to/lastmile_qr_scan", "ios": "https://dc.lft.to/lastmile_qr_scan"}, "is_reserved": 0}, {"bike_id": "30ac425bf5cd5adc56e1107de831078f", "name": "30ac425bf5cd5adc56e1107de831078f", "lat": 38.94508033333334, "fusion_lat": 0.0, "type": "electric_scooter", "lon": -77.03358016666667, "is_disabled": 0, "fusion_lon": 0.0, "rental_uris": {"android": "https://dc.lft.to/lastmile_qr_scan", "ios": "https://dc.lft.to/lastmile_qr_scan"}, "is_reserved": 0}, {"bike_id": "dbbbaad3e1487d875dc9b38afb94d49a", "name": "dbbbaad3e1487d875dc9b38afb94d49a", "lat": 38.905234, "fusion_lat": 0.0, "type": "electric_scooter", "lon": -77.043605, "is_disabled": 0, "fusion_lon": 0.0, "rental_uris": {"android": "https://dc.lft.to/lastmile_qr_scan", "ios": "https://dc.lft.to/lastmile_qr_scan"}, "is_reserved": 0}, {"bike_id": "e063ba396779c63158de1227e7678eb8", "name": "e063ba396779c63158de1227e7678eb8", "lat": 38.90496433333333, "fusion_lat": 0.0, "type": "electric_scooter", "lon": -77.05693016666666, "is_disabled": 0, "fusion_lon": 0.0, "rental_uris": {"android": "https://dc.lft.to/lastmile_qr_scan", "ios": "https://dc.lft.to/lastmile_qr_scan"}, "is_reserved": 0}, {"bike_id": "f857022a91b43d3f7c92f87d80be2f4e", "name": "f857022a91b43d3f7c92f87d80be2f4e", "lat": 38.89042116666667, "fusion_lat": 0.0, "type": "electric_scooter", "lon": -76.937569, "is_disabled": 0, "fusion_lon": 0.0, "rental_uris": {"android": "https://dc.lft.to/lastmile_qr_scan", "ios": "https://dc.lft.to/lastmile_qr_scan"}, "is_reserved": 0}, {"bike_id": "d25e961f73bf141126bdeb4d3e27258a", "name": "d25e961f73bf141126bdeb4d3e27258a", "lat": 38.94643416666667, "fusion_lat": 0.0, "type": "electric_scooter", "lon": -77.06486583333333, "is_disabled": 0, "fusion_lon": 0.0, "rental_uris": {"android": "https://dc.lft.to/lastmile_qr_scan", "ios": "https://dc.lft.to/lastmile_qr_scan"}, "is_reserved": 0}, {"bike_id": "33ad3651c4a129029ca3846ee8c579f7", "name": "33ad3651c4a129029ca3846ee8c579f7", "lat": 38.921310166666665, "fusion_lat": 0.0, "type": "electric_scooter", "lon": -77.01801983333333, "is_disabled": 0, "fusion_lon": 0.0, "rental_uris": {"android": "https://dc.lft.to/lastmile_qr_scan", "ios": "https://dc.lft.to/lastmile_qr_scan"}, "is_reserved": 0}, {"bike_id": "189c9134a5f35275d1deb49f6edec68e", "name": "189c9134a5f35275d1deb49f6edec68e", "lat": 38.92094933333333, "fusion_lat": 0.0, "type": "electric_scooter", "lon": -77.02557733333333, "is_disabled": 0, "fusion_lon": 0.0, "rental_uris": {"android": "https://dc.lft.to/lastmile_qr_scan", "ios": "https://dc.lft.to/lastmile_qr_scan"}, "is_reserved": 0}, {"bike_id": "c12d3b66bf6033829cc1b4f74fb0c093", "name": "c12d3b66bf6033829cc1b4f74fb0c093", "lat": 38.939637833333336, "fusion_lat": 0.0, "type": "electric_scooter", "lon": -77.03279283333333, "is_disabled": 0, "fusion_lon": 0.0, "rental_uris": {"android": "https://dc.lft.to/lastmile_qr_scan", "ios": "https://dc.lft.to/lastmile_qr_scan"}, "is_reserved": 0}, {"bike_id": "3684d781d4d8403fedf514347bf16f4f", "name": "3684d781d4d8403fedf514347bf16f4f", "lat": 38.93746483333334, "fusion_lat": 0.0, "type": "electric_scooter", "lon": -77.0244425, "is_disabled": 0, "fusion_lon": 0.0, "rental_uris": {"android": "https://dc.lft.to/lastmile_qr_scan", "ios": "https://dc.lft.to/lastmile_qr_scan"}, "is_reserved": 0}, {"bike_id": "cbf4de0063f93e8bacbb0fe929ef1e97", "name": "cbf4de0063f93e8bacbb0fe929ef1e97", "lat": 38.8968345, "fusion_lat": 0.0, "type": "electric_scooter", "lon": -77.0335485, "is_disabled": 0, "fusion_lon": 0.0, "rental_uris": {"android": "https://dc.lft.to/lastmile_qr_scan", "ios": "https://dc.lft.to/lastmile_qr_scan"}, "is_reserved": 0}, {"bike_id": "3e6b6667577c2ba2b934af1187f7636e", "name": "3e6b6667577c2ba2b934af1187f7636e", "lat": 38.9263505, "fusion_lat": 0.0, "type": "electric_scooter", "lon": -77.02512933333334, "is_disabled": 0, "fusion_lon": 0.0, "rental_uris": {"android": "https://dc.lft.to/lastmile_qr_scan", "ios": "https://dc.lft.to/lastmile_qr_scan"}, "is_reserved": 0}, {"bike_id": "814085d4d5ad5154596766cc5f2beafe", "name": "814085d4d5ad5154596766cc5f2beafe", "lat": 38.90661016666667, "fusion_lat": 0.0, "type": "electric_scooter", "lon": -77.02811683333333, "is_disabled": 0, "fusion_lon": 0.0, "rental_uris": {"android": "https://dc.lft.to/lastmile_qr_scan", "ios": "https://dc.lft.to/lastmile_qr_scan"}, "is_reserved": 0}, {"bike_id": "fb1afc5dfab516f822747bed8c60b1c3", "name": "fb1afc5dfab516f822747bed8c60b1c3", "lat": 38.9274335, "fusion_lat": 0.0, "type": "electric_scooter", "lon": -77.03563616666666, "is_disabled": 0, "fusion_lon": 0.0, "rental_uris": {"android": "https://dc.lft.to/lastmile_qr_scan", "ios": "https://dc.lft.to/lastmile_qr_scan"}, "is_reserved": 0}, {"bike_id": "323cd259eadcaa9a0cb36603e5af5a89", "name": "323cd259eadcaa9a0cb36603e5af5a89", "lat": 39.074638666666665, "fusion_lat": 0.0, "type": "electric_bike", "lon": -77.11511466666667, "is_disabled": 0, "fusion_lon": 0.0, "rental_uris": {"android": "https://dc.lft.to/lastmile_qr_scan", "ios": "https://dc.lft.to/lastmile_qr_scan"}, "is_reserved": 0}, {"bike_id": "e8036708abfdc68a5448e0a890d686d9", "name": "e8036708abfdc68a5448e0a890d686d9", "lat": 38.915515, "fusion_lat": 0.0, "type": "electric_scooter", "lon": -77.014137, "is_disabled": 0, "fusion_lon": 0.0, "rental_uris": {"android": "https://dc.lft.to/lastmile_qr_scan", "ios": "https://dc.lft.to/lastmile_qr_scan"}, "is_reserved": 0}, {"bike_id": "bc1a4b66c7716b19e79e997aada4334a", "name": "bc1a4b66c7716b19e79e997aada4334a", "lat": 38.921301, "fusion_lat": 0.0, "type": "electric_scooter", "lon": -77.01802616666667, "is_disabled": 0, "fusion_lon": 0.0, "rental_uris": {"android": "https://dc.lft.to/lastmile_qr_scan", "ios": "https://dc.lft.to/lastmile_qr_scan"}, "is_reserved": 0}, {"bike_id": "385913acc5e57572ce4a1af3e492ed4b", "name": "385913acc5e57572ce4a1af3e492ed4b", "lat": 38.88440283333333, "fusion_lat": 0.0, "type": "electric_scooter", "lon": -77.0034535, "is_disabled": 0, "fusion_lon": 0.0, "rental_uris": {"android": "https://dc.lft.to/lastmile_qr_scan", "ios": "https://dc.lft.to/lastmile_qr_scan"}, "is_reserved": 0}, {"bike_id": "73be9fdf114defa091c6c92b01ece1bc", "name": "73be9fdf114defa091c6c92b01ece1bc", "lat": 38.98428766666667, "fusion_lat": 0.0, "type": "electric_scooter", "lon": -77.0267395, "is_disabled": 0, "fusion_lon": 0.0, "rental_uris": {"android": "https://dc.lft.to/lastmile_qr_scan", "ios": "https://dc.lft.to/lastmile_qr_scan"}, "is_reserved": 0}, {"bike_id": "7262b88f00845b1d530affe4e07fbe3d", "name": "7262b88f00845b1d530affe4e07fbe3d", "lat": 38.88876066666667, "fusion_lat": 0.0, "type": "electric_scooter", "lon": -76.99035516666666, "is_disabled": 0, "fusion_lon": 0.0, "rental_uris": {"android": "https://dc.lft.to/lastmile_qr_scan", "ios": "https://dc.lft.to/lastmile_qr_scan"}, "is_reserved": 0}, {"bike_id": "9680c9ae34e814955d415730582ee263", "name": "9680c9ae34e814955d415730582ee263", "lat": 38.9077085, "fusion_lat": 0.0, "type": "electric_scooter", "lon": -77.0435335, "is_disabled": 0, "fusion_lon": 0.0, "rental_uris": {"android": "https://dc.lft.to/lastmile_qr_scan", "ios": "https://dc.lft.to/lastmile_qr_scan"}, "is_reserved": 0}, {"bike_id": "76993eb950746ea865109a6c0c5b1835", "name": "76993eb950746ea865109a6c0c5b1835", "lat": 38.91578616666666, "fusion_lat": 0.0, "type": "electric_scooter", "lon": -77.012445, "is_disabled": 0, "fusion_lon": 0.0, "rental_uris": {"android": "https://dc.lft.to/lastmile_qr_scan", "ios": "https://dc.lft.to/lastmile_qr_scan"}, "is_reserved": 0}, {"bike_id": "f36ed24992410b6fa8331a4d4b3cf3b2", "name": "f36ed24992410b6fa8331a4d4b3cf3b2", "lat": 38.91377416666667, "fusion_lat": 0.0, "type": "electric_scooter", "lon": -76.98418916666667, "is_disabled": 0, "fusion_lon": 0.0, "rental_uris": {"android": "https://dc.lft.to/lastmile_qr_scan", "ios": "https://dc.lft.to/lastmile_qr_scan"}, "is_reserved": 0}, {"bike_id": "710b09c0c16ff3150037268eadb8afc4", "name": "710b09c0c16ff3150037268eadb8afc4", "lat": 38.897250166666666, "fusion_lat": 0.0, "type": "electric_bike", "lon": -77.019278, "is_disabled": 0, "fusion_lon": 0.0, "rental_uris": {"android": "https://dc.lft.to/lastmile_qr_scan", "ios": "https://dc.lft.to/lastmile_qr_scan"}, "is_reserved": 0}, {"bike_id": "2000c0b81ab101d3b4910c2afb0c69d9", "name": "2000c0b81ab101d3b4910c2afb0c69d9", "lat": 38.918484666666664, "fusion_lat": 0.0, "type": "electric_scooter", "lon": -77.031853, "is_disabled": 0, "fusion_lon": 0.0, "rental_uris": {"android": "https://dc.lft.to/lastmile_qr_scan", "ios": "https://dc.lft.to/lastmile_qr_scan"}, "is_reserved": 0}, {"bike_id": "c616378809ed43450526c1f518f027a3", "name": "c616378809ed43450526c1f518f027a3", "lat": 39.0355925, "fusion_lat": 0.0, "type": "electric_bike", "lon": -77.03915783333333, "is_disabled": 0, "fusion_lon": 0.0, "rental_uris": {"android": "https://dc.lft.to/lastmile_qr_scan", "ios": "https://dc.lft.to/lastmile_qr_scan"}, "is_reserved": 0}, {"bike_id": "69d54efc4aa3a92a6bdeba72e2e86528", "name": "69d54efc4aa3a92a6bdeba72e2e86528", "lat": 38.921400166666665, "fusion_lat": 0.0, "type": "electric_scooter", "lon": -77.01900583333334, "is_disabled": 0, "fusion_lon": 0.0, "rental_uris": {"android": "https://dc.lft.to/lastmile_qr_scan", "ios": "https://dc.lft.to/lastmile_qr_scan"}, "is_reserved": 0}, {"bike_id": "1593eef3a56a84b803dcc3aba3591db7", "name": "1593eef3a56a84b803dcc3aba3591db7", "lat": 38.919929, "fusion_lat": 0.0, "type": "electric_scooter", "lon": -77.0320615, "is_disabled": 0, "fusion_lon": 0.0, "rental_uris": {"android": "https://dc.lft.to/lastmile_qr_scan", "ios": "https://dc.lft.to/lastmile_qr_scan"}, "is_reserved": 0}, {"bike_id": "78bbb6c7472fb51324c3d976c8dc5358", "name": "78bbb6c7472fb51324c3d976c8dc5358", "lat": 38.907204166666666, "fusion_lat": 0.0, "type": "electric_scooter", "lon": -77.008031, "is_disabled": 0, "fusion_lon": 0.0, "rental_uris": {"android": "https://dc.lft.to/lastmile_qr_scan", "ios": "https://dc.lft.to/lastmile_qr_scan"}, "is_reserved": 0}, {"bike_id": "5ad819f13d02859978387fdb41f88199", "name": "5ad819f13d02859978387fdb41f88199", "lat": 38.90053566666667, "fusion_lat": 0.0, "type": "electric_scooter", "lon": -77.03379616666666, "is_disabled": 0, "fusion_lon": 0.0, "rental_uris": {"android": "https://dc.lft.to/lastmile_qr_scan", "ios": "https://dc.lft.to/lastmile_qr_scan"}, "is_reserved": 0}, {"bike_id": "10c5ab62093865436a7bbfb8eac64f26", "name": "10c5ab62093865436a7bbfb8eac64f26", "lat": 38.92570633333333, "fusion_lat": 0.0, "type": "electric_scooter", "lon": -76.9950375, "is_disabled": 0, "fusion_lon": 0.0, "rental_uris": {"android": "https://dc.lft.to/lastmile_qr_scan", "ios": "https://dc.lft.to/lastmile_qr_scan"}, "is_reserved": 0}, {"bike_id": "77d65cee1bb639a9bee0946d2b4dbd8e", "name": "77d65cee1bb639a9bee0946d2b4dbd8e", "lat": 38.8861715, "fusion_lat": 0.0, "type": "electric_bike", "lon": -77.10252083333333, "is_disabled": 0, "fusion_lon": 0.0, "rental_uris": {"android": "https://dc.lft.to/lastmile_qr_scan", "ios": "https://dc.lft.to/lastmile_qr_scan"}, "is_reserved": 0}, {"bike_id": "1d75cdb08b0948ebf6e5dec0d74b61a3", "name": "1d75cdb08b0948ebf6e5dec0d74b61a3", "lat": 38.907728666666664, "fusion_lat": 0.0, "type": "electric_scooter", "lon": -77.06923733333333, "is_disabled": 0, "fusion_lon": 0.0, "rental_uris": {"android": "https://dc.lft.to/lastmile_qr_scan", "ios": "https://dc.lft.to/lastmile_qr_scan"}, "is_reserved": 0}, {"bike_id": "c05c88f85f7208b833fc4653fbaa6858", "name": "c05c88f85f7208b833fc4653fbaa6858", "lat": 38.88527283333333, "fusion_lat": 0.0, "type": "electric_scooter", "lon": -76.98543833333333, "is_disabled": 0, "fusion_lon": 0.0, "rental_uris": {"android": "https://dc.lft.to/lastmile_qr_scan", "ios": "https://dc.lft.to/lastmile_qr_scan"}, "is_reserved": 0}, {"bike_id": "d1a240127542bee9202fca0e205ee5e0", "name": "d1a240127542bee9202fca0e205ee5e0", "lat": 38.8932445, "fusion_lat": 0.0, "type": "electric_scooter", "lon": -77.031947, "is_disabled": 0, "fusion_lon": 0.0, "rental_uris": {"android": "https://dc.lft.to/lastmile_qr_scan", "ios": "https://dc.lft.to/lastmile_qr_scan"}, "is_reserved": 0}, {"bike_id": "ca16f2e6cc2818dfff7282f23dca5d73", "name": "ca16f2e6cc2818dfff7282f23dca5d73", "lat": 38.90042166666667, "fusion_lat": 0.0, "type": "electric_scooter", "lon": -76.99836533333334, "is_disabled": 0, "fusion_lon": 0.0, "rental_uris": {"android": "https://dc.lft.to/lastmile_qr_scan", "ios": "https://dc.lft.to/lastmile_qr_scan"}, "is_reserved": 0}, {"bike_id": "dc9f34fa678fff345d29c08209645279", "name": "dc9f34fa678fff345d29c08209645279", "lat": 38.94559616666667, "fusion_lat": 0.0, "type": "electric_bike", "lon": -76.9584095, "is_disabled": 0, "fusion_lon": 0.0, "rental_uris": {"android": "https://dc.lft.to/lastmile_qr_scan", "ios": "https://dc.lft.to/lastmile_qr_scan"}, "is_reserved": 0}, {"bike_id": "7b85ff037837319868041bf88c508ce7", "name": "7b85ff037837319868041bf88c508ce7", "lat": 38.960105166666665, "fusion_lat": 0.0, "type": "electric_bike", "lon": -77.00288016666667, "is_disabled": 0, "fusion_lon": 0.0, "rental_uris": {"android": "https://dc.lft.to/lastmile_qr_scan", "ios": "https://dc.lft.to/lastmile_qr_scan"}, "is_reserved": 0}, {"bike_id": "304e6751317e0a6dc729394c2c629c38", "name": "304e6751317e0a6dc729394c2c629c38", "lat": 38.875711, "fusion_lat": 0.0, "type": "electric_scooter", "lon": -77.00574766666666, "is_disabled": 0, "fusion_lon": 0.0, "rental_uris": {"android": "https://dc.lft.to/lastmile_qr_scan", "ios": "https://dc.lft.to/lastmile_qr_scan"}, "is_reserved": 0}, {"bike_id": "8bdf48c7b0e87a51e1a76ddd401481b4", "name": "8bdf48c7b0e87a51e1a76ddd401481b4", "lat": 38.93067083333333, "fusion_lat": 0.0, "type": "electric_scooter", "lon": -77.03657333333334, "is_disabled": 0, "fusion_lon": 0.0, "rental_uris": {"android": "https://dc.lft.to/lastmile_qr_scan", "ios": "https://dc.lft.to/lastmile_qr_scan"}, "is_reserved": 0}, {"bike_id": "ce3c803c80e0caa45b7142233c0a17f8", "name": "ce3c803c80e0caa45b7142233c0a17f8", "lat": 38.8977565, "fusion_lat": 0.0, "type": "electric_scooter", "lon": -77.03207033333334, "is_disabled": 0, "fusion_lon": 0.0, "rental_uris": {"android": "https://dc.lft.to/lastmile_qr_scan", "ios": "https://dc.lft.to/lastmile_qr_scan"}, "is_reserved": 0}, {"bike_id": "af5b7b6720e7c6ea4febde86efc2bab5", "name": "af5b7b6720e7c6ea4febde86efc2bab5", "lat": 38.90382266666667, "fusion_lat": 0.0, "type": "electric_scooter", "lon": -77.04742566666667, "is_disabled": 0, "fusion_lon": 0.0, "rental_uris": {"android": "https://dc.lft.to/lastmile_qr_scan", "ios": "https://dc.lft.to/lastmile_qr_scan"}, "is_reserved": 0}, {"bike_id": "0007b799266faf3fd8fe1fbc8811c7ea", "name": "0007b799266faf3fd8fe1fbc8811c7ea", "lat": 38.906936, "fusion_lat": 0.0, "type": "electric_scooter", "lon": -77.03622516666667, "is_disabled": 0, "fusion_lon": 0.0, "rental_uris": {"android": "https://dc.lft.to/lastmile_qr_scan", "ios": "https://dc.lft.to/lastmile_qr_scan"}, "is_reserved": 0}, {"bike_id": "2b239c52349de68b5e1a78eb4e79cd33", "name": "2b239c52349de68b5e1a78eb4e79cd33", "lat": 38.894806833333334, "fusion_lat": 0.0, "type": "electric_scooter", "lon": -76.99573966666667, "is_disabled": 0, "fusion_lon": 0.0, "rental_uris": {"android": "https://dc.lft.to/lastmile_qr_scan", "ios": "https://dc.lft.to/lastmile_qr_scan"}, "is_reserved": 0}, {"bike_id": "9f91c421b43930fcc2e4bdab19255f8f", "name": "9f91c421b43930fcc2e4bdab19255f8f", "lat": 38.89882716666666, "fusion_lat": 0.0, "type": "electric_scooter", "lon": -77.0217145, "is_disabled": 0, "fusion_lon": 0.0, "rental_uris": {"android": "https://dc.lft.to/lastmile_qr_scan", "ios": "https://dc.lft.to/lastmile_qr_scan"}, "is_reserved": 0}, {"bike_id": "9b259749e5dd5696c38b51b93ded31a1", "name": "9b259749e5dd5696c38b51b93ded31a1", "lat": 38.881193833333334, "fusion_lat": 0.0, "type": "electric_scooter", "lon": -77.00101816666667, "is_disabled": 0, "fusion_lon": 0.0, "rental_uris": {"android": "https://dc.lft.to/lastmile_qr_scan", "ios": "https://dc.lft.to/lastmile_qr_scan"}, "is_reserved": 0}, {"bike_id": "38a582dc9a5ed8f9497fe1228c90a18f", "name": "38a582dc9a5ed8f9497fe1228c90a18f", "lat": 38.893524166666666, "fusion_lat": 0.0, "type": "electric_scooter", "lon": -77.01745216666667, "is_disabled": 0, "fusion_lon": 0.0, "rental_uris": {"android": "https://dc.lft.to/lastmile_qr_scan", "ios": "https://dc.lft.to/lastmile_qr_scan"}, "is_reserved": 0}, {"bike_id": "b5ee7b8e70b530ee8bbf11b924d63edb", "name": "b5ee7b8e70b530ee8bbf11b924d63edb", "lat": 38.92169083333334, "fusion_lat": 0.0, "type": "electric_scooter", "lon": -77.038329, "is_disabled": 0, "fusion_lon": 0.0, "rental_uris": {"android": "https://dc.lft.to/lastmile_qr_scan", "ios": "https://dc.lft.to/lastmile_qr_scan"}, "is_reserved": 0}, {"bike_id": "3c4ecc67ee1a2f2d07d4d27d68bc1bad", "name": "3c4ecc67ee1a2f2d07d4d27d68bc1bad", "lat": 38.8996275, "fusion_lat": 0.0, "type": "electric_bike", "lon": -76.986769, "is_disabled": 0, "fusion_lon": 0.0, "rental_uris": {"android": "https://dc.lft.to/lastmile_qr_scan", "ios": "https://dc.lft.to/lastmile_qr_scan"}, "is_reserved": 0}, {"bike_id": "038f67736f2fb7bc3773079219750ee7", "name": "038f67736f2fb7bc3773079219750ee7", "lat": 38.9217315, "fusion_lat": 0.0, "type": "electric_scooter", "lon": -77.02662783333334, "is_disabled": 0, "fusion_lon": 0.0, "rental_uris": {"android": "https://dc.lft.to/lastmile_qr_scan", "ios": "https://dc.lft.to/lastmile_qr_scan"}, "is_reserved": 0}, {"bike_id": "09b938c4f8dbd8d9d242428319c0b56d", "name": "09b938c4f8dbd8d9d242428319c0b56d", "lat": 38.9355735, "fusion_lat": 0.0, "type": "electric_bike", "lon": -77.0370125, "is_disabled": 0, "fusion_lon": 0.0, "rental_uris": {"android": "https://dc.lft.to/lastmile_qr_scan", "ios": "https://dc.lft.to/lastmile_qr_scan"}, "is_reserved": 0}, {"bike_id": "22af399919b1930288c6550e839c6f0a", "name": "22af399919b1930288c6550e839c6f0a", "lat": 38.864863666666665, "fusion_lat": 0.0, "type": "electric_scooter", "lon": -76.97749716666667, "is_disabled": 0, "fusion_lon": 0.0, "rental_uris": {"android": "https://dc.lft.to/lastmile_qr_scan", "ios": "https://dc.lft.to/lastmile_qr_scan"}, "is_reserved": 0}, {"bike_id": "dc54457fbfd1bfa51bdbd45c52fd4d75", "name": "dc54457fbfd1bfa51bdbd45c52fd4d75", "lat": 38.918716833333335, "fusion_lat": 0.0, "type": "electric_scooter", "lon": -77.03503583333334, "is_disabled": 0, "fusion_lon": 0.0, "rental_uris": {"android": "https://dc.lft.to/lastmile_qr_scan", "ios": "https://dc.lft.to/lastmile_qr_scan"}, "is_reserved": 0}, {"bike_id": "6c3f774b65257ca8e0c26628c2634632", "name": "6c3f774b65257ca8e0c26628c2634632", "lat": 38.9246135, "fusion_lat": 0.0, "type": "electric_scooter", "lon": -77.022773, "is_disabled": 0, "fusion_lon": 0.0, "rental_uris": {"android": "https://dc.lft.to/lastmile_qr_scan", "ios": "https://dc.lft.to/lastmile_qr_scan"}, "is_reserved": 0}, {"bike_id": "c6517632cb90b0198db96fa9af72af27", "name": "c6517632cb90b0198db96fa9af72af27", "lat": 38.91675, "fusion_lat": 0.0, "type": "electric_scooter", "lon": -77.02974733333333, "is_disabled": 0, "fusion_lon": 0.0, "rental_uris": {"android": "https://dc.lft.to/lastmile_qr_scan", "ios": "https://dc.lft.to/lastmile_qr_scan"}, "is_reserved": 0}, {"bike_id": "651cc3b9d052122a7244bc50c1921f0c", "name": "651cc3b9d052122a7244bc50c1921f0c", "lat": 38.898077, "fusion_lat": 0.0, "type": "electric_scooter", "lon": -77.04891566666667, "is_disabled": 0, "fusion_lon": 0.0, "rental_uris": {"android": "https://dc.lft.to/lastmile_qr_scan", "ios": "https://dc.lft.to/lastmile_qr_scan"}, "is_reserved": 0}, {"bike_id": "531d3ef9f51509ecc00d6f30fde6b710", "name": "531d3ef9f51509ecc00d6f30fde6b710", "lat": 38.85781266666667, "fusion_lat": 0.0, "type": "electric_bike", "lon": -76.98764833333334, "is_disabled": 0, "fusion_lon": 0.0, "rental_uris": {"android": "https://dc.lft.to/lastmile_qr_scan", "ios": "https://dc.lft.to/lastmile_qr_scan"}, "is_reserved": 0}, {"bike_id": "fa8f2d50d6a91f2c83280aba0dd54268", "name": "fa8f2d50d6a91f2c83280aba0dd54268", "lat": 38.9300245, "fusion_lat": 0.0, "type": "electric_scooter", "lon": -77.032838, "is_disabled": 0, "fusion_lon": 0.0, "rental_uris": {"android": "https://dc.lft.to/lastmile_qr_scan", "ios": "https://dc.lft.to/lastmile_qr_scan"}, "is_reserved": 0}, {"bike_id": "0d19243283d27fd7c36ac0b86e38fcac", "name": "0d19243283d27fd7c36ac0b86e38fcac", "lat": 38.999998166666664, "fusion_lat": 0.0, "type": "electric_bike", "lon": -76.9180585, "is_disabled": 0, "fusion_lon": 0.0, "rental_uris": {"android": "https://dc.lft.to/lastmile_qr_scan", "ios": "https://dc.lft.to/lastmile_qr_scan"}, "is_reserved": 0}, {"bike_id": "3a821cc7421a1df181aefd8e7f806600", "name": "3a821cc7421a1df181aefd8e7f806600", "lat": 39.010955833333334, "fusion_lat": 0.0, "type": "electric_bike", "lon": -77.04956783333333, "is_disabled": 0, "fusion_lon": 0.0, "rental_uris": {"android": "https://dc.lft.to/lastmile_qr_scan", "ios": "https://dc.lft.to/lastmile_qr_scan"}, "is_reserved": 0}, {"bike_id": "9ba5499e0079cad0bd357cb46db91f46", "name": "9ba5499e0079cad0bd357cb46db91f46", "lat": 38.86283933333333, "fusion_lat": 0.0, "type": "electric_bike", "lon": -76.980085, "is_disabled": 0, "fusion_lon": 0.0, "rental_uris": {"android": "https://dc.lft.to/lastmile_qr_scan", "ios": "https://dc.lft.to/lastmile_qr_scan"}, "is_reserved": 0}, {"bike_id": "d2023efaa665caeb816a2afa1694352a", "name": "d2023efaa665caeb816a2afa1694352a", "lat": 38.924347, "fusion_lat": 0.0, "type": "electric_scooter", "lon": -76.996691, "is_disabled": 0, "fusion_lon": 0.0, "rental_uris": {"android": "https://dc.lft.to/lastmile_qr_scan", "ios": "https://dc.lft.to/lastmile_qr_scan"}, "is_reserved": 0}, {"bike_id": "225747c94beaa13626c1f50967eff70c", "name": "225747c94beaa13626c1f50967eff70c", "lat": 38.88501333333333, "fusion_lat": 0.0, "type": "electric_scooter", "lon": -77.002222, "is_disabled": 0, "fusion_lon": 0.0, "rental_uris": {"android": "https://dc.lft.to/lastmile_qr_scan", "ios": "https://dc.lft.to/lastmile_qr_scan"}, "is_reserved": 0}, {"bike_id": "0b1680c0281cc83aed62190b9711b01d", "name": "0b1680c0281cc83aed62190b9711b01d", "lat": 38.895327, "fusion_lat": 0.0, "type": "electric_scooter", "lon": -77.011337, "is_disabled": 0, "fusion_lon": 0.0, "rental_uris": {"android": "https://dc.lft.to/lastmile_qr_scan", "ios": "https://dc.lft.to/lastmile_qr_scan"}, "is_reserved": 0}, {"bike_id": "b6cbfecdf12fdb674b29307f67a1987c", "name": "b6cbfecdf12fdb674b29307f67a1987c", "lat": 38.89397066666667, "fusion_lat": 0.0, "type": "electric_bike", "lon": -76.86844683333334, "is_disabled": 0, "fusion_lon": 0.0, "rental_uris": {"android": "https://dc.lft.to/lastmile_qr_scan", "ios": "https://dc.lft.to/lastmile_qr_scan"}, "is_reserved": 0}, {"bike_id": "4635e5edb49d37de7e8b1864bbac1684", "name": "4635e5edb49d37de7e8b1864bbac1684", "lat": 38.905739, "fusion_lat": 0.0, "type": "electric_scooter", "lon": -76.984131, "is_disabled": 0, "fusion_lon": 0.0, "rental_uris": {"android": "https://dc.lft.to/lastmile_qr_scan", "ios": "https://dc.lft.to/lastmile_qr_scan"}, "is_reserved": 0}, {"bike_id": "26f03b9b8709f49a25c03684a7502d01", "name": "26f03b9b8709f49a25c03684a7502d01", "lat": 38.95759616666667, "fusion_lat": 0.0, "type": "electric_scooter", "lon": -77.0149525, "is_disabled": 0, "fusion_lon": 0.0, "rental_uris": {"android": "https://dc.lft.to/lastmile_qr_scan", "ios": "https://dc.lft.to/lastmile_qr_scan"}, "is_reserved": 0}, {"bike_id": "72893d3ba49627f32b26f71548075cca", "name": "72893d3ba49627f32b26f71548075cca", "lat": 38.9248265, "fusion_lat": 0.0, "type": "electric_scooter", "lon": -77.0304775, "is_disabled": 0, "fusion_lon": 0.0, "rental_uris": {"android": "https://dc.lft.to/lastmile_qr_scan", "ios": "https://dc.lft.to/lastmile_qr_scan"}, "is_reserved": 0}, {"bike_id": "ec69ab7234674be29cb7d69cf3754de6", "name": "ec69ab7234674be29cb7d69cf3754de6", "lat": 38.9204335, "fusion_lat": 0.0, "type": "electric_scooter", "lon": -77.041896, "is_disabled": 0, "fusion_lon": 0.0, "rental_uris": {"android": "https://dc.lft.to/lastmile_qr_scan", "ios": "https://dc.lft.to/lastmile_qr_scan"}, "is_reserved": 0}, {"bike_id": "87c3f14ee147b6bacce587411a7ee4ea", "name": "87c3f14ee147b6bacce587411a7ee4ea", "lat": 38.91749866666667, "fusion_lat": 0.0, "type": "electric_scooter", "lon": -77.0386075, "is_disabled": 0, "fusion_lon": 0.0, "rental_uris": {"android": "https://dc.lft.to/lastmile_qr_scan", "ios": "https://dc.lft.to/lastmile_qr_scan"}, "is_reserved": 0}, {"bike_id": "902169809a7f918d5b2101b4b5d3067e", "name": "902169809a7f918d5b2101b4b5d3067e", "lat": 38.90141916666666, "fusion_lat": 0.0, "type": "electric_scooter", "lon": -77.044409, "is_disabled": 0, "fusion_lon": 0.0, "rental_uris": {"android": "https://dc.lft.to/lastmile_qr_scan", "ios": "https://dc.lft.to/lastmile_qr_scan"}, "is_reserved": 0}, {"bike_id": "65bef36557e95f6a01b97cb2729cafc9", "name": "65bef36557e95f6a01b97cb2729cafc9", "lat": 38.89453983333333, "fusion_lat": 0.0, "type": "electric_bike", "lon": -77.19134083333333, "is_disabled": 0, "fusion_lon": 0.0, "rental_uris": {"android": "https://dc.lft.to/lastmile_qr_scan", "ios": "https://dc.lft.to/lastmile_qr_scan"}, "is_reserved": 0}, {"bike_id": "9fe1b37488e51ffdfc79ed36f67d035f", "name": "9fe1b37488e51ffdfc79ed36f67d035f", "lat": 38.92542566666667, "fusion_lat": 0.0, "type": "electric_scooter", "lon": -77.03402983333334, "is_disabled": 0, "fusion_lon": 0.0, "rental_uris": {"android": "https://dc.lft.to/lastmile_qr_scan", "ios": "https://dc.lft.to/lastmile_qr_scan"}, "is_reserved": 0}, {"bike_id": "c533a26e576de9480e6e4a2f789caa8d", "name": "c533a26e576de9480e6e4a2f789caa8d", "lat": 38.898073833333335, "fusion_lat": 0.0, "type": "electric_scooter", "lon": -77.033537, "is_disabled": 0, "fusion_lon": 0.0, "rental_uris": {"android": "https://dc.lft.to/lastmile_qr_scan", "ios": "https://dc.lft.to/lastmile_qr_scan"}, "is_reserved": 0}, {"bike_id": "9860cfa4ea68d226b2fadb56ee637965", "name": "9860cfa4ea68d226b2fadb56ee637965", "lat": 38.896875, "fusion_lat": 0.0, "type": "electric_scooter", "lon": -76.94731266666666, "is_disabled": 0, "fusion_lon": 0.0, "rental_uris": {"android": "https://dc.lft.to/lastmile_qr_scan", "ios": "https://dc.lft.to/lastmile_qr_scan"}, "is_reserved": 0}, {"bike_id": "e4960016860c9833030f2e740046735d", "name": "e4960016860c9833030f2e740046735d", "lat": 38.93598983333333, "fusion_lat": 0.0, "type": "electric_scooter", "lon": -77.0365715, "is_disabled": 0, "fusion_lon": 0.0, "rental_uris": {"android": "https://dc.lft.to/lastmile_qr_scan", "ios": "https://dc.lft.to/lastmile_qr_scan"}, "is_reserved": 0}, {"bike_id": "c577e125106b58b565bfd40bd0863ff1", "name": "c577e125106b58b565bfd40bd0863ff1", "lat": 38.88378766666666, "fusion_lat": 0.0, "type": "electric_scooter", "lon": -76.9303625, "is_disabled": 0, "fusion_lon": 0.0, "rental_uris": {"android": "https://dc.lft.to/lastmile_qr_scan", "ios": "https://dc.lft.to/lastmile_qr_scan"}, "is_reserved": 0}, {"bike_id": "36f5f8da57ff53ceadbee9b93e6093c2", "name": "36f5f8da57ff53ceadbee9b93e6093c2", "lat": 38.932628666666666, "fusion_lat": 0.0, "type": "electric_scooter", "lon": -77.03204983333333, "is_disabled": 0, "fusion_lon": 0.0, "rental_uris": {"android": "https://dc.lft.to/lastmile_qr_scan", "ios": "https://dc.lft.to/lastmile_qr_scan"}, "is_reserved": 0}, {"bike_id": "1131cdf23b473885b0d66b21b4976a61", "name": "1131cdf23b473885b0d66b21b4976a61", "lat": 38.904028333333336, "fusion_lat": 0.0, "type": "electric_scooter", "lon": -77.017932, "is_disabled": 0, "fusion_lon": 0.0, "rental_uris": {"android": "https://dc.lft.to/lastmile_qr_scan", "ios": "https://dc.lft.to/lastmile_qr_scan"}, "is_reserved": 0}, {"bike_id": "16afe3a5930093bd68b2503565456c34", "name": "16afe3a5930093bd68b2503565456c34", "lat": 38.9180735, "fusion_lat": 0.0, "type": "electric_scooter", "lon": -77.03302683333334, "is_disabled": 0, "fusion_lon": 0.0, "rental_uris": {"android": "https://dc.lft.to/lastmile_qr_scan", "ios": "https://dc.lft.to/lastmile_qr_scan"}, "is_reserved": 0}, {"bike_id": "7fee61a4a35bdf5520d16a1658eb2884", "name": "7fee61a4a35bdf5520d16a1658eb2884", "lat": 38.9135385, "fusion_lat": 0.0, "type": "electric_scooter", "lon": -77.03355483333333, "is_disabled": 0, "fusion_lon": 0.0, "rental_uris": {"android": "https://dc.lft.to/lastmile_qr_scan", "ios": "https://dc.lft.to/lastmile_qr_scan"}, "is_reserved": 0}, {"bike_id": "40c9446407e290380d9552158afb855a", "name": "40c9446407e290380d9552158afb855a", "lat": 38.892942, "fusion_lat": 0.0, "type": "electric_scooter", "lon": -77.03958433333334, "is_disabled": 0, "fusion_lon": 0.0, "rental_uris": {"android": "https://dc.lft.to/lastmile_qr_scan", "ios": "https://dc.lft.to/lastmile_qr_scan"}, "is_reserved": 0}, {"bike_id": "275c3b68d68ac0ee9cadc8720e69db7d", "name": "275c3b68d68ac0ee9cadc8720e69db7d", "lat": 38.929409666666665, "fusion_lat": 0.0, "type": "electric_scooter", "lon": -77.004072, "is_disabled": 0, "fusion_lon": 0.0, "rental_uris": {"android": "https://dc.lft.to/lastmile_qr_scan", "ios": "https://dc.lft.to/lastmile_qr_scan"}, "is_reserved": 0}, {"bike_id": "87f14179479439431bd366c937f5233d", "name": "87f14179479439431bd366c937f5233d", "lat": 38.90760816666667, "fusion_lat": 0.0, "type": "electric_scooter", "lon": -77.04347966666667, "is_disabled": 0, "fusion_lon": 0.0, "rental_uris": {"android": "https://dc.lft.to/lastmile_qr_scan", "ios": "https://dc.lft.to/lastmile_qr_scan"}, "is_reserved": 0}, {"bike_id": "ef3de6d69f1e27cab4c29b5c99f4bc53", "name": "ef3de6d69f1e27cab4c29b5c99f4bc53", "lat": 38.90273333333333, "fusion_lat": 0.0, "type": "electric_scooter", "lon": -77.01830516666666, "is_disabled": 0, "fusion_lon": 0.0, "rental_uris": {"android": "https://dc.lft.to/lastmile_qr_scan", "ios": "https://dc.lft.to/lastmile_qr_scan"}, "is_reserved": 0}, {"bike_id": "fb34144c74e7e85d729790104455afae", "name": "fb34144c74e7e85d729790104455afae", "lat": 38.87832683333333, "fusion_lat": 0.0, "type": "electric_scooter", "lon": -77.02280733333333, "is_disabled": 0, "fusion_lon": 0.0, "rental_uris": {"android": "https://dc.lft.to/lastmile_qr_scan", "ios": "https://dc.lft.to/lastmile_qr_scan"}, "is_reserved": 0}, {"bike_id": "b6f92ab1a9a4e80efc7109872b5e1800", "name": "b6f92ab1a9a4e80efc7109872b5e1800", "lat": 38.90474183333333, "fusion_lat": 0.0, "type": "electric_scooter", "lon": -77.03564033333333, "is_disabled": 0, "fusion_lon": 0.0, "rental_uris": {"android": "https://dc.lft.to/lastmile_qr_scan", "ios": "https://dc.lft.to/lastmile_qr_scan"}, "is_reserved": 0}, {"bike_id": "334ecf007d07b986232e12c844e2c640", "name": "334ecf007d07b986232e12c844e2c640", "lat": 38.913300666666665, "fusion_lat": 0.0, "type": "electric_scooter", "lon": -77.011547, "is_disabled": 0, "fusion_lon": 0.0, "rental_uris": {"android": "https://dc.lft.to/lastmile_qr_scan", "ios": "https://dc.lft.to/lastmile_qr_scan"}, "is_reserved": 0}, {"bike_id": "bf59c1e9d77917ab411d29a9e6049f04", "name": "bf59c1e9d77917ab411d29a9e6049f04", "lat": 38.91699333333333, "fusion_lat": 0.0, "type": "electric_scooter", "lon": -77.02392066666667, "is_disabled": 0, "fusion_lon": 0.0, "rental_uris": {"android": "https://dc.lft.to/lastmile_qr_scan", "ios": "https://dc.lft.to/lastmile_qr_scan"}, "is_reserved": 0}, {"bike_id": "c7a47754dcb7b3ab0a1238ba0703ac68", "name": "c7a47754dcb7b3ab0a1238ba0703ac68", "lat": 38.9376325, "fusion_lat": 0.0, "type": "electric_scooter", "lon": -77.02407316666667, "is_disabled": 0, "fusion_lon": 0.0, "rental_uris": {"android": "https://dc.lft.to/lastmile_qr_scan", "ios": "https://dc.lft.to/lastmile_qr_scan"}, "is_reserved": 0}, {"bike_id": "982007070f489a5f4303449f3d7e0c7c", "name": "982007070f489a5f4303449f3d7e0c7c", "lat": 38.9953885, "fusion_lat": 0.0, "type": "electric_bike", "lon": -77.074592, "is_disabled": 0, "fusion_lon": 0.0, "rental_uris": {"android": "https://dc.lft.to/lastmile_qr_scan", "ios": "https://dc.lft.to/lastmile_qr_scan"}, "is_reserved": 0}, {"bike_id": "f0719326ef28335e6d2d2242679afa10", "name": "f0719326ef28335e6d2d2242679afa10", "lat": 38.96646783333333, "fusion_lat": 0.0, "type": "electric_scooter", "lon": -77.00891483333334, "is_disabled": 0, "fusion_lon": 0.0, "rental_uris": {"android": "https://dc.lft.to/lastmile_qr_scan", "ios": "https://dc.lft.to/lastmile_qr_scan"}, "is_reserved": 0}, {"bike_id": "d01a19771e767655134bbe8ffd00f3cf", "name": "d01a19771e767655134bbe8ffd00f3cf", "lat": 38.899976, "fusion_lat": 0.0, "type": "electric_scooter", "lon": -76.99946333333334, "is_disabled": 0, "fusion_lon": 0.0, "rental_uris": {"android": "https://dc.lft.to/lastmile_qr_scan", "ios": "https://dc.lft.to/lastmile_qr_scan"}, "is_reserved": 0}, {"bike_id": "e1ce87b63dd63c8383072ca679132fa8", "name": "e1ce87b63dd63c8383072ca679132fa8", "lat": 38.91865, "fusion_lat": 0.0, "type": "electric_scooter", "lon": -77.0136275, "is_disabled": 0, "fusion_lon": 0.0, "rental_uris": {"android": "https://dc.lft.to/lastmile_qr_scan", "ios": "https://dc.lft.to/lastmile_qr_scan"}, "is_reserved": 0}, {"bike_id": "f449a5fa665a9790c19b53837d61a374", "name": "f449a5fa665a9790c19b53837d61a374", "lat": 38.893195666666664, "fusion_lat": 0.0, "type": "electric_scooter", "lon": -77.03214383333334, "is_disabled": 0, "fusion_lon": 0.0, "rental_uris": {"android": "https://dc.lft.to/lastmile_qr_scan", "ios": "https://dc.lft.to/lastmile_qr_scan"}, "is_reserved": 0}, {"bike_id": "579c7ad71152fe8763c25fdc53a14a1b", "name": "579c7ad71152fe8763c25fdc53a14a1b", "lat": 38.9261005, "fusion_lat": 0.0, "type": "electric_scooter", "lon": -77.02160866666667, "is_disabled": 0, "fusion_lon": 0.0, "rental_uris": {"android": "https://dc.lft.to/lastmile_qr_scan", "ios": "https://dc.lft.to/lastmile_qr_scan"}, "is_reserved": 0}, {"bike_id": "0396bb3f5963d8d7dcca7f3830d46f39", "name": "0396bb3f5963d8d7dcca7f3830d46f39", "lat": 38.95250466666667, "fusion_lat": 0.0, "type": "electric_scooter", "lon": -77.02395383333334, "is_disabled": 0, "fusion_lon": 0.0, "rental_uris": {"android": "https://dc.lft.to/lastmile_qr_scan", "ios": "https://dc.lft.to/lastmile_qr_scan"}, "is_reserved": 0}, {"bike_id": "93d40664bba6659cae53f8c62302a562", "name": "93d40664bba6659cae53f8c62302a562", "lat": 38.919965833333336, "fusion_lat": 0.0, "type": "electric_scooter", "lon": -77.02175133333333, "is_disabled": 0, "fusion_lon": 0.0, "rental_uris": {"android": "https://dc.lft.to/lastmile_qr_scan", "ios": "https://dc.lft.to/lastmile_qr_scan"}, "is_reserved": 0}, {"bike_id": "04074e3c00da7da6b08d1f843e58b0e4", "name": "04074e3c00da7da6b08d1f843e58b0e4", "lat": 38.90834383333333, "fusion_lat": 0.0, "type": "electric_scooter", "lon": -77.04346, "is_disabled": 0, "fusion_lon": 0.0, "rental_uris": {"android": "https://dc.lft.to/lastmile_qr_scan", "ios": "https://dc.lft.to/lastmile_qr_scan"}, "is_reserved": 0}, {"bike_id": "f3f238fccb60a557c4dbea406aa9f1ea", "name": "f3f238fccb60a557c4dbea406aa9f1ea", "lat": 38.927598333333336, "fusion_lat": 0.0, "type": "electric_scooter", "lon": -77.0527325, "is_disabled": 0, "fusion_lon": 0.0, "rental_uris": {"android": "https://dc.lft.to/lastmile_qr_scan", "ios": "https://dc.lft.to/lastmile_qr_scan"}, "is_reserved": 0}, {"bike_id": "4de3b4298646ace703e6f098fd39d3aa", "name": "4de3b4298646ace703e6f098fd39d3aa", "lat": 38.886699666666665, "fusion_lat": 0.0, "type": "electric_scooter", "lon": -77.001951, "is_disabled": 0, "fusion_lon": 0.0, "rental_uris": {"android": "https://dc.lft.to/lastmile_qr_scan", "ios": "https://dc.lft.to/lastmile_qr_scan"}, "is_reserved": 0}, {"bike_id": "5ad991d784e6760f57b9bc04b20105f2", "name": "5ad991d784e6760f57b9bc04b20105f2", "lat": 38.88528083333333, "fusion_lat": 0.0, "type": "electric_scooter", "lon": -76.98054233333333, "is_disabled": 0, "fusion_lon": 0.0, "rental_uris": {"android": "https://dc.lft.to/lastmile_qr_scan", "ios": "https://dc.lft.to/lastmile_qr_scan"}, "is_reserved": 0}, {"bike_id": "9517e94eb559a15da34f4db30da55401", "name": "9517e94eb559a15da34f4db30da55401", "lat": 38.86712, "fusion_lat": 0.0, "type": "electric_scooter", "lon": -76.98068966666666, "is_disabled": 0, "fusion_lon": 0.0, "rental_uris": {"android": "https://dc.lft.to/lastmile_qr_scan", "ios": "https://dc.lft.to/lastmile_qr_scan"}, "is_reserved": 0}, {"bike_id": "0aa481a4bc014028e2f5186d20cca53b", "name": "0aa481a4bc014028e2f5186d20cca53b", "lat": 38.936575, "fusion_lat": 0.0, "type": "electric_scooter", "lon": -77.02131166666666, "is_disabled": 0, "fusion_lon": 0.0, "rental_uris": {"android": "https://dc.lft.to/lastmile_qr_scan", "ios": "https://dc.lft.to/lastmile_qr_scan"}, "is_reserved": 0}, {"bike_id": "d96624e20dea71f1bb39a56df59bd588", "name": "d96624e20dea71f1bb39a56df59bd588", "lat": 38.89630983333333, "fusion_lat": 0.0, "type": "electric_scooter", "lon": -77.04014433333333, "is_disabled": 0, "fusion_lon": 0.0, "rental_uris": {"android": "https://dc.lft.to/lastmile_qr_scan", "ios": "https://dc.lft.to/lastmile_qr_scan"}, "is_reserved": 0}, {"bike_id": "825bf81a38fc9241437240b3f039b38b", "name": "825bf81a38fc9241437240b3f039b38b", "lat": 38.90190616666667, "fusion_lat": 0.0, "type": "electric_scooter", "lon": -77.02082033333333, "is_disabled": 0, "fusion_lon": 0.0, "rental_uris": {"android": "https://dc.lft.to/lastmile_qr_scan", "ios": "https://dc.lft.to/lastmile_qr_scan"}, "is_reserved": 0}, {"bike_id": "c69f9003dab2df3054e8fc741c1358aa", "name": "c69f9003dab2df3054e8fc741c1358aa", "lat": 38.865708166666664, "fusion_lat": 0.0, "type": "electric_scooter", "lon": -76.99031816666667, "is_disabled": 0, "fusion_lon": 0.0, "rental_uris": {"android": "https://dc.lft.to/lastmile_qr_scan", "ios": "https://dc.lft.to/lastmile_qr_scan"}, "is_reserved": 0}, {"bike_id": "ad565a960dce8490d6aeb5a6e0568bcd", "name": "ad565a960dce8490d6aeb5a6e0568bcd", "lat": 38.900321, "fusion_lat": 0.0, "type": "electric_scooter", "lon": -76.98829666666667, "is_disabled": 0, "fusion_lon": 0.0, "rental_uris": {"android": "https://dc.lft.to/lastmile_qr_scan", "ios": "https://dc.lft.to/lastmile_qr_scan"}, "is_reserved": 0}, {"bike_id": "49fff30d4a633ae10c45ee0c24639bad", "name": "49fff30d4a633ae10c45ee0c24639bad", "lat": 38.91280283333333, "fusion_lat": 0.0, "type": "electric_scooter", "lon": -77.03861466666666, "is_disabled": 0, "fusion_lon": 0.0, "rental_uris": {"android": "https://dc.lft.to/lastmile_qr_scan", "ios": "https://dc.lft.to/lastmile_qr_scan"}, "is_reserved": 0}, {"bike_id": "c2f1029f677b8fd76c969ff343e13439", "name": "c2f1029f677b8fd76c969ff343e13439", "lat": 38.876531, "fusion_lat": 0.0, "type": "electric_scooter", "lon": -77.02075083333334, "is_disabled": 0, "fusion_lon": 0.0, "rental_uris": {"android": "https://dc.lft.to/lastmile_qr_scan", "ios": "https://dc.lft.to/lastmile_qr_scan"}, "is_reserved": 0}, {"bike_id": "367cffc690b2af261a1cf604db725a4c", "name": "367cffc690b2af261a1cf604db725a4c", "lat": 38.9080905, "fusion_lat": 0.0, "type": "electric_scooter", "lon": -77.03833166666666, "is_disabled": 0, "fusion_lon": 0.0, "rental_uris": {"android": "https://dc.lft.to/lastmile_qr_scan", "ios": "https://dc.lft.to/lastmile_qr_scan"}, "is_reserved": 0}, {"bike_id": "c44b82105074359ece282a61af44642a", "name": "c44b82105074359ece282a61af44642a", "lat": 38.91656183333333, "fusion_lat": 0.0, "type": "electric_scooter", "lon": -77.0247275, "is_disabled": 0, "fusion_lon": 0.0, "rental_uris": {"android": "https://dc.lft.to/lastmile_qr_scan", "ios": "https://dc.lft.to/lastmile_qr_scan"}, "is_reserved": 0}, {"bike_id": "e74fe596728547e70ee847058a1f3e8b", "name": "e74fe596728547e70ee847058a1f3e8b", "lat": 38.947149333333336, "fusion_lat": 0.0, "type": "electric_scooter", "lon": -77.041525, "is_disabled": 0, "fusion_lon": 0.0, "rental_uris": {"android": "https://dc.lft.to/lastmile_qr_scan", "ios": "https://dc.lft.to/lastmile_qr_scan"}, "is_reserved": 0}, {"bike_id": "841bbb168c6883f387a32de73e0a501b", "name": "841bbb168c6883f387a32de73e0a501b", "lat": 38.854308833333334, "fusion_lat": 0.0, "type": "electric_bike", "lon": -77.0832045, "is_disabled": 0, "fusion_lon": 0.0, "rental_uris": {"android": "https://dc.lft.to/lastmile_qr_scan", "ios": "https://dc.lft.to/lastmile_qr_scan"}, "is_reserved": 0}, {"bike_id": "c32d1e30f2c2e2c185a76cb89c7112f4", "name": "c32d1e30f2c2e2c185a76cb89c7112f4", "lat": 38.8935555, "fusion_lat": 0.0, "type": "electric_scooter", "lon": -77.00333766666667, "is_disabled": 0, "fusion_lon": 0.0, "rental_uris": {"android": "https://dc.lft.to/lastmile_qr_scan", "ios": "https://dc.lft.to/lastmile_qr_scan"}, "is_reserved": 0}, {"bike_id": "cafd4033e17eb896a9e497161259c08b", "name": "cafd4033e17eb896a9e497161259c08b", "lat": 38.937533, "fusion_lat": 0.0, "type": "electric_scooter", "lon": -77.0325025, "is_disabled": 0, "fusion_lon": 0.0, "rental_uris": {"android": "https://dc.lft.to/lastmile_qr_scan", "ios": "https://dc.lft.to/lastmile_qr_scan"}, "is_reserved": 0}, {"bike_id": "067804c5318e1e38f0e88af3ef6fbb16", "name": "067804c5318e1e38f0e88af3ef6fbb16", "lat": 38.916863666666664, "fusion_lat": 0.0, "type": "electric_scooter", "lon": -77.026011, "is_disabled": 0, "fusion_lon": 0.0, "rental_uris": {"android": "https://dc.lft.to/lastmile_qr_scan", "ios": "https://dc.lft.to/lastmile_qr_scan"}, "is_reserved": 0}, {"bike_id": "0db3857e8ec4c08dbc38cb7402718693", "name": "0db3857e8ec4c08dbc38cb7402718693", "lat": 38.9207285, "fusion_lat": 0.0, "type": "electric_scooter", "lon": -77.02519916666667, "is_disabled": 0, "fusion_lon": 0.0, "rental_uris": {"android": "https://dc.lft.to/lastmile_qr_scan", "ios": "https://dc.lft.to/lastmile_qr_scan"}, "is_reserved": 0}, {"bike_id": "4c6edeb6e09b21e8e98576c1af8c2550", "name": "4c6edeb6e09b21e8e98576c1af8c2550", "lat": 38.918579666666666, "fusion_lat": 0.0, "type": "electric_scooter", "lon": -77.04174983333333, "is_disabled": 0, "fusion_lon": 0.0, "rental_uris": {"android": "https://dc.lft.to/lastmile_qr_scan", "ios": "https://dc.lft.to/lastmile_qr_scan"}, "is_reserved": 0}, {"bike_id": "ef2f2e57fc0b74b9351d77f022b4e537", "name": "ef2f2e57fc0b74b9351d77f022b4e537", "lat": 38.925149, "fusion_lat": 0.0, "type": "electric_scooter", "lon": -77.05063366666667, "is_disabled": 0, "fusion_lon": 0.0, "rental_uris": {"android": "https://dc.lft.to/lastmile_qr_scan", "ios": "https://dc.lft.to/lastmile_qr_scan"}, "is_reserved": 0}, {"bike_id": "6add6fa67eff789cf3782d890e29c0ae", "name": "6add6fa67eff789cf3782d890e29c0ae", "lat": 38.93273, "fusion_lat": 0.0, "type": "electric_scooter", "lon": -77.028319, "is_disabled": 0, "fusion_lon": 0.0, "rental_uris": {"android": "https://dc.lft.to/lastmile_qr_scan", "ios": "https://dc.lft.to/lastmile_qr_scan"}, "is_reserved": 0}, {"bike_id": "f93e676cdb9e11bc95f00b0ef5241fbe", "name": "f93e676cdb9e11bc95f00b0ef5241fbe", "lat": 38.9163115, "fusion_lat": 0.0, "type": "electric_scooter", "lon": -77.0320635, "is_disabled": 0, "fusion_lon": 0.0, "rental_uris": {"android": "https://dc.lft.to/lastmile_qr_scan", "ios": "https://dc.lft.to/lastmile_qr_scan"}, "is_reserved": 0}, {"bike_id": "078222e7341e5674d5f0550233b96102", "name": "078222e7341e5674d5f0550233b96102", "lat": 38.8663065, "fusion_lat": 0.0, "type": "electric_scooter", "lon": -76.98287766666667, "is_disabled": 0, "fusion_lon": 0.0, "rental_uris": {"android": "https://dc.lft.to/lastmile_qr_scan", "ios": "https://dc.lft.to/lastmile_qr_scan"}, "is_reserved": 0}, {"bike_id": "75139b9d78e8833bbc6e5bc3834e044d", "name": "75139b9d78e8833bbc6e5bc3834e044d", "lat": 38.89179766666667, "fusion_lat": 0.0, "type": "electric_scooter", "lon": -76.9994455, "is_disabled": 0, "fusion_lon": 0.0, "rental_uris": {"android": "https://dc.lft.to/lastmile_qr_scan", "ios": "https://dc.lft.to/lastmile_qr_scan"}, "is_reserved": 0}, {"bike_id": "990bcdc1e2a9415458c7c5d2a24ae01a", "name": "990bcdc1e2a9415458c7c5d2a24ae01a", "lat": 38.89935916666667, "fusion_lat": 0.0, "type": "electric_scooter", "lon": -76.977036, "is_disabled": 0, "fusion_lon": 0.0, "rental_uris": {"android": "https://dc.lft.to/lastmile_qr_scan", "ios": "https://dc.lft.to/lastmile_qr_scan"}, "is_reserved": 0}, {"bike_id": "c20b16170ef13323123d70203bda61de", "name": "c20b16170ef13323123d70203bda61de", "lat": 38.898569333333334, "fusion_lat": 0.0, "type": "electric_scooter", "lon": -77.04886716666667, "is_disabled": 0, "fusion_lon": 0.0, "rental_uris": {"android": "https://dc.lft.to/lastmile_qr_scan", "ios": "https://dc.lft.to/lastmile_qr_scan"}, "is_reserved": 0}, {"bike_id": "46796328176df5f34348f9b9fce533e6", "name": "46796328176df5f34348f9b9fce533e6", "lat": 38.92025366666667, "fusion_lat": 0.0, "type": "electric_scooter", "lon": -77.01787916666666, "is_disabled": 0, "fusion_lon": 0.0, "rental_uris": {"android": "https://dc.lft.to/lastmile_qr_scan", "ios": "https://dc.lft.to/lastmile_qr_scan"}, "is_reserved": 0}, {"bike_id": "3f2e2802fbe616b07b21a695aada8be7", "name": "3f2e2802fbe616b07b21a695aada8be7", "lat": 38.92021716666667, "fusion_lat": 0.0, "type": "electric_scooter", "lon": -77.03112683333333, "is_disabled": 0, "fusion_lon": 0.0, "rental_uris": {"android": "https://dc.lft.to/lastmile_qr_scan", "ios": "https://dc.lft.to/lastmile_qr_scan"}, "is_reserved": 0}, {"bike_id": "d996738022d5f8602a37d446e8785155", "name": "d996738022d5f8602a37d446e8785155", "lat": 38.91909783333333, "fusion_lat": 0.0, "type": "electric_scooter", "lon": -77.03343333333333, "is_disabled": 0, "fusion_lon": 0.0, "rental_uris": {"android": "https://dc.lft.to/lastmile_qr_scan", "ios": "https://dc.lft.to/lastmile_qr_scan"}, "is_reserved": 0}, {"bike_id": "bbf0fa1b5095b570331f482495a06eae", "name": "bbf0fa1b5095b570331f482495a06eae", "lat": 38.86372766666667, "fusion_lat": 0.0, "type": "electric_scooter", "lon": -76.9905625, "is_disabled": 0, "fusion_lon": 0.0, "rental_uris": {"android": "https://dc.lft.to/lastmile_qr_scan", "ios": "https://dc.lft.to/lastmile_qr_scan"}, "is_reserved": 0}, {"bike_id": "6eff36058e1aeba15bb698edc50bcb14", "name": "6eff36058e1aeba15bb698edc50bcb14", "lat": 38.91996316666667, "fusion_lat": 0.0, "type": "electric_scooter", "lon": -77.07139583333333, "is_disabled": 0, "fusion_lon": 0.0, "rental_uris": {"android": "https://dc.lft.to/lastmile_qr_scan", "ios": "https://dc.lft.to/lastmile_qr_scan"}, "is_reserved": 0}, {"bike_id": "e95a42ebe9694165f07a0ede508d19a9", "name": "e95a42ebe9694165f07a0ede508d19a9", "lat": 38.995166, "fusion_lat": 0.0, "type": "electric_bike", "lon": -77.03782366666667, "is_disabled": 0, "fusion_lon": 0.0, "rental_uris": {"android": "https://dc.lft.to/lastmile_qr_scan", "ios": "https://dc.lft.to/lastmile_qr_scan"}, "is_reserved": 0}, {"bike_id": "080605e5b44ebf325aa6f30e1f76a1b1", "name": "080605e5b44ebf325aa6f30e1f76a1b1", "lat": 38.91442, "fusion_lat": 0.0, "type": "electric_scooter", "lon": -77.03214383333334, "is_disabled": 0, "fusion_lon": 0.0, "rental_uris": {"android": "https://dc.lft.to/lastmile_qr_scan", "ios": "https://dc.lft.to/lastmile_qr_scan"}, "is_reserved": 0}, {"bike_id": "7d340c411c6d075d08ed7af9ba1d3ec1", "name": "7d340c411c6d075d08ed7af9ba1d3ec1", "lat": 38.94663083333333, "fusion_lat": 0.0, "type": "electric_bike", "lon": -76.99336983333333, "is_disabled": 0, "fusion_lon": 0.0, "rental_uris": {"android": "https://dc.lft.to/lastmile_qr_scan", "ios": "https://dc.lft.to/lastmile_qr_scan"}, "is_reserved": 0}, {"bike_id": "99048efa1edea182740769dd1db38042", "name": "99048efa1edea182740769dd1db38042", "lat": 38.9179525, "fusion_lat": 0.0, "type": "electric_scooter", "lon": -77.03455233333334, "is_disabled": 0, "fusion_lon": 0.0, "rental_uris": {"android": "https://dc.lft.to/lastmile_qr_scan", "ios": "https://dc.lft.to/lastmile_qr_scan"}, "is_reserved": 0}, {"bike_id": "20155e173bfc9828e50bd6d56815c7be", "name": "20155e173bfc9828e50bd6d56815c7be", "lat": 38.9200915, "fusion_lat": 0.0, "type": "electric_scooter", "lon": -77.0315185, "is_disabled": 0, "fusion_lon": 0.0, "rental_uris": {"android": "https://dc.lft.to/lastmile_qr_scan", "ios": "https://dc.lft.to/lastmile_qr_scan"}, "is_reserved": 0}, {"bike_id": "969ef53f8435408071d1e4a1f63110bb", "name": "969ef53f8435408071d1e4a1f63110bb", "lat": 38.9051775, "fusion_lat": 0.0, "type": "electric_scooter", "lon": -77.01905483333333, "is_disabled": 0, "fusion_lon": 0.0, "rental_uris": {"android": "https://dc.lft.to/lastmile_qr_scan", "ios": "https://dc.lft.to/lastmile_qr_scan"}, "is_reserved": 0}, {"bike_id": "1f30ddbc40829beac84886fe2dd78b2a", "name": "1f30ddbc40829beac84886fe2dd78b2a", "lat": 38.886023333333334, "fusion_lat": 0.0, "type": "electric_bike", "lon": -77.14232633333333, "is_disabled": 0, "fusion_lon": 0.0, "rental_uris": {"android": "https://dc.lft.to/lastmile_qr_scan", "ios": "https://dc.lft.to/lastmile_qr_scan"}, "is_reserved": 0}, {"bike_id": "11501a3143343253c9008205907c298d", "name": "11501a3143343253c9008205907c298d", "lat": 38.9127195, "fusion_lat": 0.0, "type": "electric_scooter", "lon": -77.0238785, "is_disabled": 0, "fusion_lon": 0.0, "rental_uris": {"android": "https://dc.lft.to/lastmile_qr_scan", "ios": "https://dc.lft.to/lastmile_qr_scan"}, "is_reserved": 0}, {"bike_id": "be76bc2426efa84380e5639fa3c29bfa", "name": "be76bc2426efa84380e5639fa3c29bfa", "lat": 38.89679683333333, "fusion_lat": 0.0, "type": "electric_scooter", "lon": -77.005159, "is_disabled": 0, "fusion_lon": 0.0, "rental_uris": {"android": "https://dc.lft.to/lastmile_qr_scan", "ios": "https://dc.lft.to/lastmile_qr_scan"}, "is_reserved": 0}, {"bike_id": "de4927e2196ce3632935e3bdeaac37df", "name": "de4927e2196ce3632935e3bdeaac37df", "lat": 38.911967, "fusion_lat": 0.0, "type": "electric_scooter", "lon": -77.03867516666666, "is_disabled": 0, "fusion_lon": 0.0, "rental_uris": {"android": "https://dc.lft.to/lastmile_qr_scan", "ios": "https://dc.lft.to/lastmile_qr_scan"}, "is_reserved": 0}, {"bike_id": "a2d57ae5fdae0a7809e9089af3521049", "name": "a2d57ae5fdae0a7809e9089af3521049", "lat": 38.89988016666667, "fusion_lat": 0.0, "type": "electric_scooter", "lon": -77.0240435, "is_disabled": 0, "fusion_lon": 0.0, "rental_uris": {"android": "https://dc.lft.to/lastmile_qr_scan", "ios": "https://dc.lft.to/lastmile_qr_scan"}, "is_reserved": 0}, {"bike_id": "6a0867756c589a493e0fdaa64be1cec0", "name": "6a0867756c589a493e0fdaa64be1cec0", "lat": 38.914760666666666, "fusion_lat": 0.0, "type": "electric_scooter", "lon": -77.00218866666667, "is_disabled": 0, "fusion_lon": 0.0, "rental_uris": {"android": "https://dc.lft.to/lastmile_qr_scan", "ios": "https://dc.lft.to/lastmile_qr_scan"}, "is_reserved": 0}, {"bike_id": "6f557990ccd5b1e04f26f1230c58db9a", "name": "6f557990ccd5b1e04f26f1230c58db9a", "lat": 38.906490833333336, "fusion_lat": 0.0, "type": "electric_scooter", "lon": -77.02949683333334, "is_disabled": 0, "fusion_lon": 0.0, "rental_uris": {"android": "https://dc.lft.to/lastmile_qr_scan", "ios": "https://dc.lft.to/lastmile_qr_scan"}, "is_reserved": 0}, {"bike_id": "4e055a6dd0896e15c60731087a6713d9", "name": "4e055a6dd0896e15c60731087a6713d9", "lat": 38.8850435, "fusion_lat": 0.0, "type": "electric_scooter", "lon": -77.0111685, "is_disabled": 0, "fusion_lon": 0.0, "rental_uris": {"android": "https://dc.lft.to/lastmile_qr_scan", "ios": "https://dc.lft.to/lastmile_qr_scan"}, "is_reserved": 0}, {"bike_id": "3a0da7499e413a9d70872e52e5b25495", "name": "3a0da7499e413a9d70872e52e5b25495", "lat": 38.898652, "fusion_lat": 0.0, "type": "electric_scooter", "lon": -77.0297735, "is_disabled": 0, "fusion_lon": 0.0, "rental_uris": {"android": "https://dc.lft.to/lastmile_qr_scan", "ios": "https://dc.lft.to/lastmile_qr_scan"}, "is_reserved": 0}, {"bike_id": "924064f73cb3573b19bedc812ad3e79e", "name": "924064f73cb3573b19bedc812ad3e79e", "lat": 38.9141495, "fusion_lat": 0.0, "type": "electric_scooter", "lon": -77.0190775, "is_disabled": 0, "fusion_lon": 0.0, "rental_uris": {"android": "https://dc.lft.to/lastmile_qr_scan", "ios": "https://dc.lft.to/lastmile_qr_scan"}, "is_reserved": 0}, {"bike_id": "1922df6d572ead46cf7f0a9703c05c33", "name": "1922df6d572ead46cf7f0a9703c05c33", "lat": 38.910978166666666, "fusion_lat": 0.0, "type": "electric_scooter", "lon": -77.07342233333334, "is_disabled": 0, "fusion_lon": 0.0, "rental_uris": {"android": "https://dc.lft.to/lastmile_qr_scan", "ios": "https://dc.lft.to/lastmile_qr_scan"}, "is_reserved": 0}, {"bike_id": "713b3d73f5ba892253afa2ec564286cb", "name": "713b3d73f5ba892253afa2ec564286cb", "lat": 38.898012, "fusion_lat": 0.0, "type": "electric_scooter", "lon": -77.04614566666666, "is_disabled": 0, "fusion_lon": 0.0, "rental_uris": {"android": "https://dc.lft.to/lastmile_qr_scan", "ios": "https://dc.lft.to/lastmile_qr_scan"}, "is_reserved": 0}, {"bike_id": "9f380169ee0a5854a721c35841780e03", "name": "9f380169ee0a5854a721c35841780e03", "lat": 38.8829695, "fusion_lat": 0.0, "type": "electric_scooter", "lon": -76.94853816666667, "is_disabled": 0, "fusion_lon": 0.0, "rental_uris": {"android": "https://dc.lft.to/lastmile_qr_scan", "ios": "https://dc.lft.to/lastmile_qr_scan"}, "is_reserved": 0}, {"bike_id": "57af24309646b4498a54631f974c8969", "name": "57af24309646b4498a54631f974c8969", "lat": 38.93463933333334, "fusion_lat": 0.0, "type": "electric_scooter", "lon": -77.04134416666666, "is_disabled": 0, "fusion_lon": 0.0, "rental_uris": {"android": "https://dc.lft.to/lastmile_qr_scan", "ios": "https://dc.lft.to/lastmile_qr_scan"}, "is_reserved": 0}, {"bike_id": "78b2662e854182494e96679d7a0e2355", "name": "78b2662e854182494e96679d7a0e2355", "lat": 38.871810833333335, "fusion_lat": 0.0, "type": "electric_scooter", "lon": -77.00610933333333, "is_disabled": 0, "fusion_lon": 0.0, "rental_uris": {"android": "https://dc.lft.to/lastmile_qr_scan", "ios": "https://dc.lft.to/lastmile_qr_scan"}, "is_reserved": 0}, {"bike_id": "8c6e254729a21934d302d38341689dfd", "name": "8c6e254729a21934d302d38341689dfd", "lat": 38.912358833333336, "fusion_lat": 0.0, "type": "electric_scooter", "lon": -77.041839, "is_disabled": 0, "fusion_lon": 0.0, "rental_uris": {"android": "https://dc.lft.to/lastmile_qr_scan", "ios": "https://dc.lft.to/lastmile_qr_scan"}, "is_reserved": 0}, {"bike_id": "e533f77285f7cf0df25b936b0c6e588c", "name": "e533f77285f7cf0df25b936b0c6e588c", "lat": 38.901109166666664, "fusion_lat": 0.0, "type": "electric_scooter", "lon": -76.9800165, "is_disabled": 0, "fusion_lon": 0.0, "rental_uris": {"android": "https://dc.lft.to/lastmile_qr_scan", "ios": "https://dc.lft.to/lastmile_qr_scan"}, "is_reserved": 0}, {"bike_id": "c777317b49d9e5e78aa560be791cf679", "name": "c777317b49d9e5e78aa560be791cf679", "lat": 38.91318866666667, "fusion_lat": 0.0, "type": "electric_scooter", "lon": -77.03191516666666, "is_disabled": 0, "fusion_lon": 0.0, "rental_uris": {"android": "https://dc.lft.to/lastmile_qr_scan", "ios": "https://dc.lft.to/lastmile_qr_scan"}, "is_reserved": 0}, {"bike_id": "6a3e79db1d119b402c4fb4e7950983a6", "name": "6a3e79db1d119b402c4fb4e7950983a6", "lat": 38.90252183333333, "fusion_lat": 0.0, "type": "electric_scooter", "lon": -77.00216916666666, "is_disabled": 0, "fusion_lon": 0.0, "rental_uris": {"android": "https://dc.lft.to/lastmile_qr_scan", "ios": "https://dc.lft.to/lastmile_qr_scan"}, "is_reserved": 0}, {"bike_id": "f54128f747d0ce7017079396c51fbe3f", "name": "f54128f747d0ce7017079396c51fbe3f", "lat": 38.96615416666667, "fusion_lat": 0.0, "type": "electric_bike", "lon": -77.03439683333333, "is_disabled": 0, "fusion_lon": 0.0, "rental_uris": {"android": "https://dc.lft.to/lastmile_qr_scan", "ios": "https://dc.lft.to/lastmile_qr_scan"}, "is_reserved": 0}, {"bike_id": "d149b975eefd3211b7d6f2d259d801ef", "name": "d149b975eefd3211b7d6f2d259d801ef", "lat": 38.922314666666665, "fusion_lat": 0.0, "type": "electric_scooter", "lon": -77.0232955, "is_disabled": 0, "fusion_lon": 0.0, "rental_uris": {"android": "https://dc.lft.to/lastmile_qr_scan", "ios": "https://dc.lft.to/lastmile_qr_scan"}, "is_reserved": 0}, {"bike_id": "a5ae26f835d8588f64c48d1ef4e4f76c", "name": "a5ae26f835d8588f64c48d1ef4e4f76c", "lat": 38.912962666666665, "fusion_lat": 0.0, "type": "electric_scooter", "lon": -77.03207383333333, "is_disabled": 0, "fusion_lon": 0.0, "rental_uris": {"android": "https://dc.lft.to/lastmile_qr_scan", "ios": "https://dc.lft.to/lastmile_qr_scan"}, "is_reserved": 0}, {"bike_id": "2edda6ff70ebbca4d3d70a619a1e52cb", "name": "2edda6ff70ebbca4d3d70a619a1e52cb", "lat": 38.907791833333334, "fusion_lat": 0.0, "type": "electric_scooter", "lon": -77.037597, "is_disabled": 0, "fusion_lon": 0.0, "rental_uris": {"android": "https://dc.lft.to/lastmile_qr_scan", "ios": "https://dc.lft.to/lastmile_qr_scan"}, "is_reserved": 0}, {"bike_id": "5555ed185f5dcac8b04627ca39b8e653", "name": "5555ed185f5dcac8b04627ca39b8e653", "lat": 38.806357166666665, "fusion_lat": 0.0, "type": "electric_bike", "lon": -77.062535, "is_disabled": 0, "fusion_lon": 0.0, "rental_uris": {"android": "https://dc.lft.to/lastmile_qr_scan", "ios": "https://dc.lft.to/lastmile_qr_scan"}, "is_reserved": 0}, {"bike_id": "aead1717ffd2ed614f458bee2a4901e9", "name": "aead1717ffd2ed614f458bee2a4901e9", "lat": 38.93086183333333, "fusion_lat": 0.0, "type": "electric_scooter", "lon": -77.0376805, "is_disabled": 0, "fusion_lon": 0.0, "rental_uris": {"android": "https://dc.lft.to/lastmile_qr_scan", "ios": "https://dc.lft.to/lastmile_qr_scan"}, "is_reserved": 0}, {"bike_id": "5ff884112bc9027f9ec37901c72d5096", "name": "5ff884112bc9027f9ec37901c72d5096", "lat": 38.9467245, "fusion_lat": 0.0, "type": "electric_bike", "lon": -76.99334016666667, "is_disabled": 0, "fusion_lon": 0.0, "rental_uris": {"android": "https://dc.lft.to/lastmile_qr_scan", "ios": "https://dc.lft.to/lastmile_qr_scan"}, "is_reserved": 0}, {"bike_id": "8749984e5dda58bc5cab3b8788463689", "name": "8749984e5dda58bc5cab3b8788463689", "lat": 38.9186795, "fusion_lat": 0.0, "type": "electric_scooter", "lon": -77.0352605, "is_disabled": 0, "fusion_lon": 0.0, "rental_uris": {"android": "https://dc.lft.to/lastmile_qr_scan", "ios": "https://dc.lft.to/lastmile_qr_scan"}, "is_reserved": 0}, {"bike_id": "cd48a7958eb9c7d6f26ede08a7bed7af", "name": "cd48a7958eb9c7d6f26ede08a7bed7af", "lat": 38.908148, "fusion_lat": 0.0, "type": "electric_scooter", "lon": -77.04291583333334, "is_disabled": 0, "fusion_lon": 0.0, "rental_uris": {"android": "https://dc.lft.to/lastmile_qr_scan", "ios": "https://dc.lft.to/lastmile_qr_scan"}, "is_reserved": 0}, {"bike_id": "928bb3bafd4019a0de51ea9b076704bc", "name": "928bb3bafd4019a0de51ea9b076704bc", "lat": 38.91579566666667, "fusion_lat": 0.0, "type": "electric_scooter", "lon": -77.0123265, "is_disabled": 0, "fusion_lon": 0.0, "rental_uris": {"android": "https://dc.lft.to/lastmile_qr_scan", "ios": "https://dc.lft.to/lastmile_qr_scan"}, "is_reserved": 0}, {"bike_id": "6588b1375233c0bbd3d2f5e431a48e7f", "name": "6588b1375233c0bbd3d2f5e431a48e7f", "lat": 38.896166, "fusion_lat": 0.0, "type": "electric_scooter", "lon": -77.02603833333333, "is_disabled": 0, "fusion_lon": 0.0, "rental_uris": {"android": "https://dc.lft.to/lastmile_qr_scan", "ios": "https://dc.lft.to/lastmile_qr_scan"}, "is_reserved": 0}, {"bike_id": "c4f48e66088b96a2a0958e5548c3cfaf", "name": "c4f48e66088b96a2a0958e5548c3cfaf", "lat": 38.92864483333334, "fusion_lat": 0.0, "type": "electric_scooter", "lon": -77.02710516666667, "is_disabled": 0, "fusion_lon": 0.0, "rental_uris": {"android": "https://dc.lft.to/lastmile_qr_scan", "ios": "https://dc.lft.to/lastmile_qr_scan"}, "is_reserved": 0}, {"bike_id": "6149cf68e55cb1d11b48b288d6154378", "name": "6149cf68e55cb1d11b48b288d6154378", "lat": 38.91934933333334, "fusion_lat": 0.0, "type": "electric_scooter", "lon": -76.99238983333333, "is_disabled": 0, "fusion_lon": 0.0, "rental_uris": {"android": "https://dc.lft.to/lastmile_qr_scan", "ios": "https://dc.lft.to/lastmile_qr_scan"}, "is_reserved": 0}, {"bike_id": "2812412e2aeebb8cc2b694b4f38d79d1", "name": "2812412e2aeebb8cc2b694b4f38d79d1", "lat": 38.916942666666664, "fusion_lat": 0.0, "type": "electric_scooter", "lon": -77.03774216666666, "is_disabled": 0, "fusion_lon": 0.0, "rental_uris": {"android": "https://dc.lft.to/lastmile_qr_scan", "ios": "https://dc.lft.to/lastmile_qr_scan"}, "is_reserved": 0}, {"bike_id": "61ee5c9eb95f773e1b20551606364dab", "name": "61ee5c9eb95f773e1b20551606364dab", "lat": 38.950626, "fusion_lat": 0.0, "type": "electric_scooter", "lon": -77.0697135, "is_disabled": 0, "fusion_lon": 0.0, "rental_uris": {"android": "https://dc.lft.to/lastmile_qr_scan", "ios": "https://dc.lft.to/lastmile_qr_scan"}, "is_reserved": 0}, {"bike_id": "96d74273caced3f4291062ee33b02815", "name": "96d74273caced3f4291062ee33b02815", "lat": 38.8671595, "fusion_lat": 0.0, "type": "electric_scooter", "lon": -77.01238, "is_disabled": 0, "fusion_lon": 0.0, "rental_uris": {"android": "https://dc.lft.to/lastmile_qr_scan", "ios": "https://dc.lft.to/lastmile_qr_scan"}, "is_reserved": 0}, {"bike_id": "195bd861109f8d59421a8293131e5729", "name": "195bd861109f8d59421a8293131e5729", "lat": 38.90554983333333, "fusion_lat": 0.0, "type": "electric_scooter", "lon": -77.03965616666666, "is_disabled": 0, "fusion_lon": 0.0, "rental_uris": {"android": "https://dc.lft.to/lastmile_qr_scan", "ios": "https://dc.lft.to/lastmile_qr_scan"}, "is_reserved": 0}, {"bike_id": "f161db4536d4f1e181d2beede1581dce", "name": "f161db4536d4f1e181d2beede1581dce", "lat": 38.88620816666667, "fusion_lat": 0.0, "type": "electric_scooter", "lon": -77.0335845, "is_disabled": 0, "fusion_lon": 0.0, "rental_uris": {"android": "https://dc.lft.to/lastmile_qr_scan", "ios": "https://dc.lft.to/lastmile_qr_scan"}, "is_reserved": 0}, {"bike_id": "438cf977378641652826046dcfc86e66", "name": "438cf977378641652826046dcfc86e66", "lat": 38.91687983333333, "fusion_lat": 0.0, "type": "electric_scooter", "lon": -77.02603683333334, "is_disabled": 0, "fusion_lon": 0.0, "rental_uris": {"android": "https://dc.lft.to/lastmile_qr_scan", "ios": "https://dc.lft.to/lastmile_qr_scan"}, "is_reserved": 0}, {"bike_id": "2c78a616a88fa379f83f28965c74693a", "name": "2c78a616a88fa379f83f28965c74693a", "lat": 38.912935, "fusion_lat": 0.0, "type": "electric_scooter", "lon": -76.98545383333334, "is_disabled": 0, "fusion_lon": 0.0, "rental_uris": {"android": "https://dc.lft.to/lastmile_qr_scan", "ios": "https://dc.lft.to/lastmile_qr_scan"}, "is_reserved": 0}, {"bike_id": "1cc206bbf66662e66157494bc452772c", "name": "1cc206bbf66662e66157494bc452772c", "lat": 38.92465266666667, "fusion_lat": 0.0, "type": "electric_scooter", "lon": -77.02266133333333, "is_disabled": 0, "fusion_lon": 0.0, "rental_uris": {"android": "https://dc.lft.to/lastmile_qr_scan", "ios": "https://dc.lft.to/lastmile_qr_scan"}, "is_reserved": 0}, {"bike_id": "f56c45f4ff8284bba2843c51c0bd54bb", "name": "f56c45f4ff8284bba2843c51c0bd54bb", "lat": 38.893552166666666, "fusion_lat": 0.0, "type": "electric_scooter", "lon": -77.0033185, "is_disabled": 0, "fusion_lon": 0.0, "rental_uris": {"android": "https://dc.lft.to/lastmile_qr_scan", "ios": "https://dc.lft.to/lastmile_qr_scan"}, "is_reserved": 0}, {"bike_id": "fafec4b4a8ea55dd399d9e6252f1c283", "name": "fafec4b4a8ea55dd399d9e6252f1c283", "lat": 38.922614333333335, "fusion_lat": 0.0, "type": "electric_scooter", "lon": -77.04293583333333, "is_disabled": 0, "fusion_lon": 0.0, "rental_uris": {"android": "https://dc.lft.to/lastmile_qr_scan", "ios": "https://dc.lft.to/lastmile_qr_scan"}, "is_reserved": 0}, {"bike_id": "119f85210ec913da968284a4dbb01ec8", "name": "119f85210ec913da968284a4dbb01ec8", "lat": 38.922079, "fusion_lat": 0.0, "type": "electric_scooter", "lon": -77.0202965, "is_disabled": 0, "fusion_lon": 0.0, "rental_uris": {"android": "https://dc.lft.to/lastmile_qr_scan", "ios": "https://dc.lft.to/lastmile_qr_scan"}, "is_reserved": 0}, {"bike_id": "5be3359c225018568cd18e63a9ea1764", "name": "5be3359c225018568cd18e63a9ea1764", "lat": 38.910137666666664, "fusion_lat": 0.0, "type": "electric_scooter", "lon": -76.99377283333334, "is_disabled": 0, "fusion_lon": 0.0, "rental_uris": {"android": "https://dc.lft.to/lastmile_qr_scan", "ios": "https://dc.lft.to/lastmile_qr_scan"}, "is_reserved": 0}, {"bike_id": "9812b3d04ced548eb9c03d81b9e48d82", "name": "9812b3d04ced548eb9c03d81b9e48d82", "lat": 38.89565183333333, "fusion_lat": 0.0, "type": "electric_scooter", "lon": -77.02980866666667, "is_disabled": 0, "fusion_lon": 0.0, "rental_uris": {"android": "https://dc.lft.to/lastmile_qr_scan", "ios": "https://dc.lft.to/lastmile_qr_scan"}, "is_reserved": 0}, {"bike_id": "1b20a6aa07064f7f063f9be3d94fa803", "name": "1b20a6aa07064f7f063f9be3d94fa803", "lat": 38.92025233333333, "fusion_lat": 0.0, "type": "electric_scooter", "lon": -77.0309265, "is_disabled": 0, "fusion_lon": 0.0, "rental_uris": {"android": "https://dc.lft.to/lastmile_qr_scan", "ios": "https://dc.lft.to/lastmile_qr_scan"}, "is_reserved": 0}, {"bike_id": "3110477f858696a8ac7506a6e62a3c8d", "name": "3110477f858696a8ac7506a6e62a3c8d", "lat": 38.9241265, "fusion_lat": 0.0, "type": "electric_scooter", "lon": -77.02006266666666, "is_disabled": 0, "fusion_lon": 0.0, "rental_uris": {"android": "https://dc.lft.to/lastmile_qr_scan", "ios": "https://dc.lft.to/lastmile_qr_scan"}, "is_reserved": 0}, {"bike_id": "3418ad7b275e4e66f3099ef955b818bb", "name": "3418ad7b275e4e66f3099ef955b818bb", "lat": 38.908624833333334, "fusion_lat": 0.0, "type": "electric_scooter", "lon": -77.00366716666667, "is_disabled": 0, "fusion_lon": 0.0, "rental_uris": {"android": "https://dc.lft.to/lastmile_qr_scan", "ios": "https://dc.lft.to/lastmile_qr_scan"}, "is_reserved": 0}, {"bike_id": "d290c1951885baa64e650222952046bc", "name": "d290c1951885baa64e650222952046bc", "lat": 38.923833, "fusion_lat": 0.0, "type": "electric_scooter", "lon": -77.03658433333334, "is_disabled": 0, "fusion_lon": 0.0, "rental_uris": {"android": "https://dc.lft.to/lastmile_qr_scan", "ios": "https://dc.lft.to/lastmile_qr_scan"}, "is_reserved": 0}, {"bike_id": "11f37b31a4e773f23efed51c9192aca9", "name": "11f37b31a4e773f23efed51c9192aca9", "lat": 38.929138333333334, "fusion_lat": 0.0, "type": "electric_scooter", "lon": -76.9981195, "is_disabled": 0, "fusion_lon": 0.0, "rental_uris": {"android": "https://dc.lft.to/lastmile_qr_scan", "ios": "https://dc.lft.to/lastmile_qr_scan"}, "is_reserved": 0}, {"bike_id": "e43f217b0e2bb4895274ff9de22d2d1c", "name": "e43f217b0e2bb4895274ff9de22d2d1c", "lat": 38.918177, "fusion_lat": 0.0, "type": "electric_scooter", "lon": -77.03160683333333, "is_disabled": 0, "fusion_lon": 0.0, "rental_uris": {"android": "https://dc.lft.to/lastmile_qr_scan", "ios": "https://dc.lft.to/lastmile_qr_scan"}, "is_reserved": 0}, {"bike_id": "a4acacf330ce7ad9701f4d0743d9c723", "name": "a4acacf330ce7ad9701f4d0743d9c723", "lat": 38.9042405, "fusion_lat": 0.0, "type": "electric_scooter", "lon": -77.02585483333333, "is_disabled": 0, "fusion_lon": 0.0, "rental_uris": {"android": "https://dc.lft.to/lastmile_qr_scan", "ios": "https://dc.lft.to/lastmile_qr_scan"}, "is_reserved": 0}, {"bike_id": "715899c2281a4b219a448c0a33c3794f", "name": "715899c2281a4b219a448c0a33c3794f", "lat": 38.91797833333333, "fusion_lat": 0.0, "type": "electric_scooter", "lon": -77.03444616666667, "is_disabled": 0, "fusion_lon": 0.0, "rental_uris": {"android": "https://dc.lft.to/lastmile_qr_scan", "ios": "https://dc.lft.to/lastmile_qr_scan"}, "is_reserved": 0}, {"bike_id": "f44b7aa8f6fdb9de9d6b892cb4a96e4e", "name": "f44b7aa8f6fdb9de9d6b892cb4a96e4e", "lat": 38.91441583333334, "fusion_lat": 0.0, "type": "electric_scooter", "lon": -77.0221185, "is_disabled": 0, "fusion_lon": 0.0, "rental_uris": {"android": "https://dc.lft.to/lastmile_qr_scan", "ios": "https://dc.lft.to/lastmile_qr_scan"}, "is_reserved": 0}, {"bike_id": "f8a5731056b254c80f89aabc064d1286", "name": "f8a5731056b254c80f89aabc064d1286", "lat": 38.919182166666666, "fusion_lat": 0.0, "type": "electric_scooter", "lon": -77.04211283333333, "is_disabled": 0, "fusion_lon": 0.0, "rental_uris": {"android": "https://dc.lft.to/lastmile_qr_scan", "ios": "https://dc.lft.to/lastmile_qr_scan"}, "is_reserved": 0}, {"bike_id": "6c6384f87d4672ac588146cb1908e5c7", "name": "6c6384f87d4672ac588146cb1908e5c7", "lat": 38.87158766666667, "fusion_lat": 0.0, "type": "electric_scooter", "lon": -77.0135305, "is_disabled": 0, "fusion_lon": 0.0, "rental_uris": {"android": "https://dc.lft.to/lastmile_qr_scan", "ios": "https://dc.lft.to/lastmile_qr_scan"}, "is_reserved": 0}, {"bike_id": "ab2c00be89dae9b09e35b37aa273eb86", "name": "ab2c00be89dae9b09e35b37aa273eb86", "lat": 38.906674, "fusion_lat": 0.0, "type": "electric_scooter", "lon": -76.98026333333334, "is_disabled": 0, "fusion_lon": 0.0, "rental_uris": {"android": "https://dc.lft.to/lastmile_qr_scan", "ios": "https://dc.lft.to/lastmile_qr_scan"}, "is_reserved": 0}, {"bike_id": "665acd32eed74874394db64275eb7263", "name": "665acd32eed74874394db64275eb7263", "lat": 38.91852816666667, "fusion_lat": 0.0, "type": "electric_scooter", "lon": -77.040401, "is_disabled": 0, "fusion_lon": 0.0, "rental_uris": {"android": "https://dc.lft.to/lastmile_qr_scan", "ios": "https://dc.lft.to/lastmile_qr_scan"}, "is_reserved": 0}, {"bike_id": "d653886ece505e05e822cbe3e50f84aa", "name": "d653886ece505e05e822cbe3e50f84aa", "lat": 38.91379966666667, "fusion_lat": 0.0, "type": "electric_scooter", "lon": -77.03214516666667, "is_disabled": 0, "fusion_lon": 0.0, "rental_uris": {"android": "https://dc.lft.to/lastmile_qr_scan", "ios": "https://dc.lft.to/lastmile_qr_scan"}, "is_reserved": 0}, {"bike_id": "26b9c1d49ef64c64d84f4a453b17527a", "name": "26b9c1d49ef64c64d84f4a453b17527a", "lat": 38.9112225, "fusion_lat": 0.0, "type": "electric_scooter", "lon": -77.0219645, "is_disabled": 0, "fusion_lon": 0.0, "rental_uris": {"android": "https://dc.lft.to/lastmile_qr_scan", "ios": "https://dc.lft.to/lastmile_qr_scan"}, "is_reserved": 0}, {"bike_id": "52246ef6b98878ee3b2a4c7738e867d7", "name": "52246ef6b98878ee3b2a4c7738e867d7", "lat": 38.924183666666664, "fusion_lat": 0.0, "type": "electric_scooter", "lon": -77.04553666666666, "is_disabled": 0, "fusion_lon": 0.0, "rental_uris": {"android": "https://dc.lft.to/lastmile_qr_scan", "ios": "https://dc.lft.to/lastmile_qr_scan"}, "is_reserved": 0}, {"bike_id": "f8a3b04dd12776c201028d69d494dbdd", "name": "f8a3b04dd12776c201028d69d494dbdd", "lat": 38.90030683333333, "fusion_lat": 0.0, "type": "electric_scooter", "lon": -77.024182, "is_disabled": 0, "fusion_lon": 0.0, "rental_uris": {"android": "https://dc.lft.to/lastmile_qr_scan", "ios": "https://dc.lft.to/lastmile_qr_scan"}, "is_reserved": 0}, {"bike_id": "cb2121d0303001ec37be69da466323c1", "name": "cb2121d0303001ec37be69da466323c1", "lat": 38.92033933333333, "fusion_lat": 0.0, "type": "electric_scooter", "lon": -77.025969, "is_disabled": 0, "fusion_lon": 0.0, "rental_uris": {"android": "https://dc.lft.to/lastmile_qr_scan", "ios": "https://dc.lft.to/lastmile_qr_scan"}, "is_reserved": 0}, {"bike_id": "cbf0268e8ef203c360e26147923f1c23", "name": "cbf0268e8ef203c360e26147923f1c23", "lat": 38.898502, "fusion_lat": 0.0, "type": "electric_scooter", "lon": -76.92754733333334, "is_disabled": 0, "fusion_lon": 0.0, "rental_uris": {"android": "https://dc.lft.to/lastmile_qr_scan", "ios": "https://dc.lft.to/lastmile_qr_scan"}, "is_reserved": 0}, {"bike_id": "e01da4b5a3b591b342d67f2f689fdba9", "name": "e01da4b5a3b591b342d67f2f689fdba9", "lat": 38.881234, "fusion_lat": 0.0, "type": "electric_bike", "lon": -76.997992, "is_disabled": 0, "fusion_lon": 0.0, "rental_uris": {"android": "https://dc.lft.to/lastmile_qr_scan", "ios": "https://dc.lft.to/lastmile_qr_scan"}, "is_reserved": 0}, {"bike_id": "109127ed1e96e7e807e168eff18cf4cb", "name": "109127ed1e96e7e807e168eff18cf4cb", "lat": 38.93691233333333, "fusion_lat": 0.0, "type": "electric_scooter", "lon": -77.02720316666667, "is_disabled": 0, "fusion_lon": 0.0, "rental_uris": {"android": "https://dc.lft.to/lastmile_qr_scan", "ios": "https://dc.lft.to/lastmile_qr_scan"}, "is_reserved": 0}, {"bike_id": "aec2df35b2b9aa372813755721c31433", "name": "aec2df35b2b9aa372813755721c31433", "lat": 38.886032166666666, "fusion_lat": 0.0, "type": "electric_scooter", "lon": -77.0451235, "is_disabled": 0, "fusion_lon": 0.0, "rental_uris": {"android": "https://dc.lft.to/lastmile_qr_scan", "ios": "https://dc.lft.to/lastmile_qr_scan"},