{"data": {"bikes": [{"is_disabled": 0, "is_reserved": 0, "fusion_lat": 0.0, "lat": 38.924451833333336, "fusion_lon": 0.0, "rental_uris": {"ios": "https://dc.lft.to/lastmile_qr_scan", "android": "https://dc.lft.to/lastmile_qr_scan"}, "lon": -77.02035883333333, "bike_id": "255bce577693741bd6145272479eb7ac", "type": "electric_scooter", "name": "255bce577693741bd6145272479eb7ac"}, {"is_disabled": 0, "is_reserved": 0, "fusion_lat": 0.0, "lat": 38.891950333333334, "fusion_lon": 0.0, "rental_uris": {"ios": "https://dc.lft.to/lastmile_qr_scan", "android": "https://dc.lft.to/lastmile_qr_scan"}, "lon": -76.9985375, "bike_id": "27645dc810d8259298b8deb865f4c146", "type": "electric_scooter", "name": "27645dc810d8259298b8deb865f4c146"}, {"is_disabled": 0, "is_reserved": 0, "fusion_lat": 0.0, "lat": 38.921839166666665, "fusion_lon": 0.0, "rental_uris": {"ios": "https://dc.lft.to/lastmile_qr_scan", "android": "https://dc.lft.to/lastmile_qr_scan"}, "lon": -76.99854583333334, "bike_id": "35626c87e08fcbdd23c3e3fe6c37b0bd", "type": "electric_scooter", "name": "35626c87e08fcbdd23c3e3fe6c37b0bd"}, {"is_disabled": 0, "is_reserved": 0, "fusion_lat": 0.0, "lat": 38.80726083333333, "fusion_lon": 0.0, "rental_uris": {"ios": "https://dc.lft.to/lastmile_qr_scan", "android": "https://dc.lft.to/lastmile_qr_scan"}, "lon": -76.99262333333333, "bike_id": "81c2e606b53df78a20e358e765c9cf55", "type": "electric_bike", "name": "81c2e606b53df78a20e358e765c9cf55"}, {"is_disabled": 0, "is_reserved": 0, "fusion_lat": 0.0, "lat": 38.891991166666664, "fusion_lon": 0.0, "rental_uris": {"ios": "https://dc.lft.to/lastmile_qr_scan", "android": "https://dc.lft.to/lastmile_qr_scan"}, "lon": -77.00295866666667, "bike_id": "d0b454882583b3eac17ed0d40d60e03f", "type": "electric_scooter", "name": "d0b454882583b3eac17ed0d40d60e03f"}, {"is_disabled": 0, "is_reserved": 0, "fusion_lat": 0.0, "lat": 38.933506333333334, "fusion_lon": 0.0, "rental_uris": {"ios": "https://dc.lft.to/lastmile_qr_scan", "android": "https://dc.lft.to/lastmile_qr_scan"}, "lon": -77.02563383333333, "bike_id": "be72f9b7caf5b868f945b0690e0018a0", "type": "electric_scooter", "name": "be72f9b7caf5b868f945b0690e0018a0"}, {"is_disabled": 0, "is_reserved": 0, "fusion_lat": 0.0, "lat": 38.96221116666667, "fusion_lon": 0.0, "rental_uris": {"ios": "https://dc.lft.to/lastmile_qr_scan", "android": "https://dc.lft.to/lastmile_qr_scan"}, "lon": -77.02626883333333, "bike_id": "febe43f1fde104963a11a5f8558f901d", "type": "electric_bike", "name": "febe43f1fde104963a11a5f8558f901d"}, {"is_disabled": 0, "is_reserved": 0, "fusion_lat": 0.0, "lat": 38.90559533333333, "fusion_lon": 0.0, "rental_uris": {"ios": "https://dc.lft.to/lastmile_qr_scan", "android": "https://dc.lft.to/lastmile_qr_scan"}, "lon": -77.02017783333334, "bike_id": "b97cb0c2e29465e6c41906129f7a457a", "type": "electric_scooter", "name": "b97cb0c2e29465e6c41906129f7a457a"}, {"is_disabled": 0, "is_reserved": 0, "fusion_lat": 0.0, "lat": 38.89472216666667, "fusion_lon": 0.0, "rental_uris": {"ios": "https://dc.lft.to/lastmile_qr_scan", "android": "https://dc.lft.to/lastmile_qr_scan"}, "lon": -77.010967, "bike_id": "49d27c211e4465bc98a829ec0dd03b90", "type": "electric_scooter", "name": "49d27c211e4465bc98a829ec0dd03b90"}, {"is_disabled": 0, "is_reserved": 0, "fusion_lat": 0.0, "lat": 38.91358433333333, "fusion_lon": 0.0, "rental_uris": {"ios": "https://dc.lft.to/lastmile_qr_scan", "android": "https://dc.lft.to/lastmile_qr_scan"}, "lon": -77.04659183333334, "bike_id": "0037018f886752910fc1baa8fd9db81d", "type": "electric_scooter", "name": "0037018f886752910fc1baa8fd9db81d"}, {"is_disabled": 0, "is_reserved": 0, "fusion_lat": 0.0, "lat": 38.902590833333335, "fusion_lon": 0.0, "rental_uris": {"ios": "https://dc.lft.to/lastmile_qr_scan", "android": "https://dc.lft.to/lastmile_qr_scan"}, "lon": -77.03841616666666, "bike_id": "426220e8362fe87e16697d1e70e289ae", "type": "electric_scooter", "name": "426220e8362fe87e16697d1e70e289ae"}, {"is_disabled": 0, "is_reserved": 0, "fusion_lat": 0.0, "lat": 38.90645116666666, "fusion_lon": 0.0, "rental_uris": {"ios": "https://dc.lft.to/lastmile_qr_scan", "android": "https://dc.lft.to/lastmile_qr_scan"}, "lon": -77.0058145, "bike_id": "1b8e313f6efb646a94dec77f2ef2fb60", "type": "electric_scooter", "name": "1b8e313f6efb646a94dec77f2ef2fb60"}, {"is_disabled": 0, "is_reserved": 0, "fusion_lat": 0.0, "lat": 38.935265333333334, "fusion_lon": 0.0, "rental_uris": {"ios": "https://dc.lft.to/lastmile_qr_scan", "android": "https://dc.lft.to/lastmile_qr_scan"}, "lon": -77.05445016666667, "bike_id": "c62ed0ca8eb785668a2ea7d35fedd596", "type": "electric_scooter", "name": "c62ed0ca8eb785668a2ea7d35fedd596"}, {"is_disabled": 0, "is_reserved": 0, "fusion_lat": 0.0, "lat": 38.85945183333333, "fusion_lon": 0.0, "rental_uris": {"ios": "https://dc.lft.to/lastmile_qr_scan", "android": "https://dc.lft.to/lastmile_qr_scan"}, "lon": -77.0943, "bike_id": "3816aff290bdd3e93f0d097f23a68d73", "type": "electric_bike", "name": "3816aff290bdd3e93f0d097f23a68d73"}, {"is_disabled": 0, "is_reserved": 0, "fusion_lat": 0.0, "lat": 38.88758216666667, "fusion_lon": 0.0, "rental_uris": {"ios": "https://dc.lft.to/lastmile_qr_scan", "android": "https://dc.lft.to/lastmile_qr_scan"}, "lon": -77.156546, "bike_id": "f0de319f35ba7ab0781d9210b4a74394", "type": "electric_bike", "name": "f0de319f35ba7ab0781d9210b4a74394"}, {"is_disabled": 0, "is_reserved": 0, "fusion_lat": 0.0, "lat": 38.842767333333335, "fusion_lon": 0.0, "rental_uris": {"ios": "https://dc.lft.to/lastmile_qr_scan", "android": "https://dc.lft.to/lastmile_qr_scan"}, "lon": -76.98842716666667, "bike_id": "c9ec8ff9c2523debd588b18a03b32fe2", "type": "electric_bike", "name": "c9ec8ff9c2523debd588b18a03b32fe2"}, {"is_disabled": 0, "is_reserved": 0, "fusion_lat": 0.0, "lat": 38.89524316666667, "fusion_lon": 0.0, "rental_uris": {"ios": "https://dc.lft.to/lastmile_qr_scan", "android": "https://dc.lft.to/lastmile_qr_scan"}, "lon": -77.02567133333334, "bike_id": "c23a1a61205589c6e3b510e487b2ade2", "type": "electric_scooter", "name": "c23a1a61205589c6e3b510e487b2ade2"}, {"is_disabled": 0, "is_reserved": 0, "fusion_lat": 0.0, "lat": 38.929862166666666, "fusion_lon": 0.0, "rental_uris": {"ios": "https://dc.lft.to/lastmile_qr_scan", "android": "https://dc.lft.to/lastmile_qr_scan"}, "lon": -77.03474766666666, "bike_id": "b2e6071a4d71d395e1685a2da2701267", "type": "electric_scooter", "name": "b2e6071a4d71d395e1685a2da2701267"}, {"is_disabled": 0, "is_reserved": 0, "fusion_lat": 0.0, "lat": 38.917267833333334, "fusion_lon": 0.0, "rental_uris": {"ios": "https://dc.lft.to/lastmile_qr_scan", "android": "https://dc.lft.to/lastmile_qr_scan"}, "lon": -77.02301066666666, "bike_id": "f0ccaafbc50107b4c2869334924782cd", "type": "electric_scooter", "name": "f0ccaafbc50107b4c2869334924782cd"}, {"is_disabled": 0, "is_reserved": 0, "fusion_lat": 0.0, "lat": 38.89546683333333, "fusion_lon": 0.0, "rental_uris": {"ios": "https://dc.lft.to/lastmile_qr_scan", "android": "https://dc.lft.to/lastmile_qr_scan"}, "lon": -77.02674933333333, "bike_id": "5c2c21cc9d998310033a6e7d0efe4e5e", "type": "electric_scooter", "name": "5c2c21cc9d998310033a6e7d0efe4e5e"}, {"is_disabled": 0, "is_reserved": 0, "fusion_lat": 0.0, "lat": 38.902386666666665, "fusion_lon": 0.0, "rental_uris": {"ios": "https://dc.lft.to/lastmile_qr_scan", "android": "https://dc.lft.to/lastmile_qr_scan"}, "lon": -77.05338766666667, "bike_id": "0b013c5368ad72052a15d4602800bb6b", "type": "electric_scooter", "name": "0b013c5368ad72052a15d4602800bb6b"}, {"is_disabled": 0, "is_reserved": 0, "fusion_lat": 0.0, "lat": 38.892282, "fusion_lon": 0.0, "rental_uris": {"ios": "https://dc.lft.to/lastmile_qr_scan", "android": "https://dc.lft.to/lastmile_qr_scan"}, "lon": -77.02965083333333, "bike_id": "84d0a2abe66c5e46aa9e04d86ed716a1", "type": "electric_scooter", "name": "84d0a2abe66c5e46aa9e04d86ed716a1"}, {"is_disabled": 0, "is_reserved": 0, "fusion_lat": 0.0, "lat": 38.936148833333334, "fusion_lon": 0.0, "rental_uris": {"ios": "https://dc.lft.to/lastmile_qr_scan", "android": "https://dc.lft.to/lastmile_qr_scan"}, "lon": -77.038638, "bike_id": "c93c6fbaa52d8cfcf4a72ccac3da0620", "type": "electric_scooter", "name": "c93c6fbaa52d8cfcf4a72ccac3da0620"}, {"is_disabled": 0, "is_reserved": 0, "fusion_lat": 0.0, "lat": 38.9285835, "fusion_lon": 0.0, "rental_uris": {"ios": "https://dc.lft.to/lastmile_qr_scan", "android": "https://dc.lft.to/lastmile_qr_scan"}, "lon": -77.02880233333333, "bike_id": "8e25841236a984f6ebbe70338be4fa07", "type": "electric_scooter", "name": "8e25841236a984f6ebbe70338be4fa07"}, {"is_disabled": 0, "is_reserved": 0, "fusion_lat": 0.0, "lat": 38.91783866666667, "fusion_lon": 0.0, "rental_uris": {"ios": "https://dc.lft.to/lastmile_qr_scan", "android": "https://dc.lft.to/lastmile_qr_scan"}, "lon": -77.02302, "bike_id": "76c1753eb8099f98a69e54dbf31d8f85", "type": "electric_scooter", "name": "76c1753eb8099f98a69e54dbf31d8f85"}, {"is_disabled": 0, "is_reserved": 0, "fusion_lat": 0.0, "lat": 38.934173333333334, "fusion_lon": 0.0, "rental_uris": {"ios": "https://dc.lft.to/lastmile_qr_scan", "android": "https://dc.lft.to/lastmile_qr_scan"}, "lon": -77.04275116666666, "bike_id": "d69b1dde6d13ae5fe881abccdf686445", "type": "electric_scooter", "name": "d69b1dde6d13ae5fe881abccdf686445"}, {"is_disabled": 0, "is_reserved": 0, "fusion_lat": 0.0, "lat": 38.92239033333333, "fusion_lon": 0.0, "rental_uris": {"ios": "https://dc.lft.to/lastmile_qr_scan", "android": "https://dc.lft.to/lastmile_qr_scan"}, "lon": -77.02267083333334, "bike_id": "28895941a094aba6995c4cde1e68fa52", "type": "electric_scooter", "name": "28895941a094aba6995c4cde1e68fa52"}, {"is_disabled": 0, "is_reserved": 0, "fusion_lat": 0.0, "lat": 38.90180816666667, "fusion_lon": 0.0, "rental_uris": {"ios": "https://dc.lft.to/lastmile_qr_scan", "android": "https://dc.lft.to/lastmile_qr_scan"}, "lon": -76.97673416666666, "bike_id": "99e2d9e5cb95786ef0735470d53f1f19", "type": "electric_scooter", "name": "99e2d9e5cb95786ef0735470d53f1f19"}, {"is_disabled": 0, "is_reserved": 0, "fusion_lat": 0.0, "lat": 38.892447833333335, "fusion_lon": 0.0, "rental_uris": {"ios": "https://dc.lft.to/lastmile_qr_scan", "android": "https://dc.lft.to/lastmile_qr_scan"}, "lon": -77.0395745, "bike_id": "85ad228efe7436f8e7541319aab811dd", "type": "electric_scooter", "name": "85ad228efe7436f8e7541319aab811dd"}, {"is_disabled": 0, "is_reserved": 0, "fusion_lat": 0.0, "lat": 38.8870995, "fusion_lon": 0.0, "rental_uris": {"ios": "https://dc.lft.to/lastmile_qr_scan", "android": "https://dc.lft.to/lastmile_qr_scan"}, "lon": -76.98379816666667, "bike_id": "a0bb7cb3a7205fb9d0fff5da3dc33c6b", "type": "electric_scooter", "name": "a0bb7cb3a7205fb9d0fff5da3dc33c6b"}, {"is_disabled": 0, "is_reserved": 0, "fusion_lat": 0.0, "lat": 38.925952833333334, "fusion_lon": 0.0, "rental_uris": {"ios": "https://dc.lft.to/lastmile_qr_scan", "android": "https://dc.lft.to/lastmile_qr_scan"}, "lon": -77.02495116666667, "bike_id": "e6f0509e0e8fab1012e0e00c26315627", "type": "electric_scooter", "name": "e6f0509e0e8fab1012e0e00c26315627"}, {"is_disabled": 0, "is_reserved": 0, "fusion_lat": 0.0, "lat": 38.95638183333333, "fusion_lon": 0.0, "rental_uris": {"ios": "https://dc.lft.to/lastmile_qr_scan", "android": "https://dc.lft.to/lastmile_qr_scan"}, "lon": -77.03630966666667, "bike_id": "62a0cb2916202e625a04d534e1767d2f", "type": "electric_scooter", "name": "62a0cb2916202e625a04d534e1767d2f"}, {"is_disabled": 0, "is_reserved": 0, "fusion_lat": 0.0, "lat": 38.9333975, "fusion_lon": 0.0, "rental_uris": {"ios": "https://dc.lft.to/lastmile_qr_scan", "android": "https://dc.lft.to/lastmile_qr_scan"}, "lon": -77.01934416666667, "bike_id": "3ac7050ee19493e67e9af5172cebb19f", "type": "electric_scooter", "name": "3ac7050ee19493e67e9af5172cebb19f"}, {"is_disabled": 0, "is_reserved": 0, "fusion_lat": 0.0, "lat": 38.92732783333334, "fusion_lon": 0.0, "rental_uris": {"ios": "https://dc.lft.to/lastmile_qr_scan", "android": "https://dc.lft.to/lastmile_qr_scan"}, "lon": -77.02273466666666, "bike_id": "cd9b718dfe58e475dc47da26e8baec22", "type": "electric_scooter", "name": "cd9b718dfe58e475dc47da26e8baec22"}, {"is_disabled": 0, "is_reserved": 0, "fusion_lat": 0.0, "lat": 38.91732583333334, "fusion_lon": 0.0, "rental_uris": {"ios": "https://dc.lft.to/lastmile_qr_scan", "android": "https://dc.lft.to/lastmile_qr_scan"}, "lon": -77.02606816666666, "bike_id": "121b13749fa561e2bab1228128acb37e", "type": "electric_scooter", "name": "121b13749fa561e2bab1228128acb37e"}, {"is_disabled": 0, "is_reserved": 0, "fusion_lat": 0.0, "lat": 38.890844333333334, "fusion_lon": 0.0, "rental_uris": {"ios": "https://dc.lft.to/lastmile_qr_scan", "android": "https://dc.lft.to/lastmile_qr_scan"}, "lon": -76.9547355, "bike_id": "c9a3191336ddedd5eacf64754d2a83be", "type": "electric_bike", "name": "c9a3191336ddedd5eacf64754d2a83be"}, {"is_disabled": 0, "is_reserved": 0, "fusion_lat": 0.0, "lat": 38.9190585, "fusion_lon": 0.0, "rental_uris": {"ios": "https://dc.lft.to/lastmile_qr_scan", "android": "https://dc.lft.to/lastmile_qr_scan"}, "lon": -77.03443633333333, "bike_id": "524dc37dc33c6e5f50b4dc83472fa5ce", "type": "electric_scooter", "name": "524dc37dc33c6e5f50b4dc83472fa5ce"}, {"is_disabled": 0, "is_reserved": 0, "fusion_lat": 0.0, "lat": 38.932370166666665, "fusion_lon": 0.0, "rental_uris": {"ios": "https://dc.lft.to/lastmile_qr_scan", "android": "https://dc.lft.to/lastmile_qr_scan"}, "lon": -77.02031733333334, "bike_id": "aa87918de84a7e81ecb08d6c3b1513e5", "type": "electric_scooter", "name": "aa87918de84a7e81ecb08d6c3b1513e5"}, {"is_disabled": 0, "is_reserved": 0, "fusion_lat": 0.0, "lat": 38.93056766666667, "fusion_lon": 0.0, "rental_uris": {"ios": "https://dc.lft.to/lastmile_qr_scan", "android": "https://dc.lft.to/lastmile_qr_scan"}, "lon": -76.9732675, "bike_id": "406ae5f3f6972de5fdd9329b5dae7263", "type": "electric_scooter", "name": "406ae5f3f6972de5fdd9329b5dae7263"}, {"is_disabled": 0, "is_reserved": 0, "fusion_lat": 0.0, "lat": 38.875634833333336, "fusion_lon": 0.0, "rental_uris": {"ios": "https://dc.lft.to/lastmile_qr_scan", "android": "https://dc.lft.to/lastmile_qr_scan"}, "lon": -77.04705916666667, "bike_id": "04c2cf585a62b560cd608337e14a2a81", "type": "electric_bike", "name": "04c2cf585a62b560cd608337e14a2a81"}, {"is_disabled": 0, "is_reserved": 0, "fusion_lat": 0.0, "lat": 38.907500166666665, "fusion_lon": 0.0, "rental_uris": {"ios": "https://dc.lft.to/lastmile_qr_scan", "android": "https://dc.lft.to/lastmile_qr_scan"}, "lon": -77.00030283333334, "bike_id": "c9d18fbcb6c8885c0e6e8bd44247bebb", "type": "electric_scooter", "name": "c9d18fbcb6c8885c0e6e8bd44247bebb"}, {"is_disabled": 0, "is_reserved": 0, "fusion_lat": 0.0, "lat": 38.908821, "fusion_lon": 0.0, "rental_uris": {"ios": "https://dc.lft.to/lastmile_qr_scan", "android": "https://dc.lft.to/lastmile_qr_scan"}, "lon": -77.0465965, "bike_id": "06a6b90af194d79fb5d35dba7d123aa1", "type": "electric_scooter", "name": "06a6b90af194d79fb5d35dba7d123aa1"}, {"is_disabled": 0, "is_reserved": 0, "fusion_lat": 0.0, "lat": 38.998506, "fusion_lon": 0.0, "rental_uris": {"ios": "https://dc.lft.to/lastmile_qr_scan", "android": "https://dc.lft.to/lastmile_qr_scan"}, "lon": -77.00249533333333, "bike_id": "5f667fb200027a65d5bb5aecaa7f6bbd", "type": "electric_bike", "name": "5f667fb200027a65d5bb5aecaa7f6bbd"}, {"is_disabled": 0, "is_reserved": 0, "fusion_lat": 0.0, "lat": 38.9126835, "fusion_lon": 0.0, "rental_uris": {"ios": "https://dc.lft.to/lastmile_qr_scan", "android": "https://dc.lft.to/lastmile_qr_scan"}, "lon": -77.0466145, "bike_id": "1c839eb2de553157c3a223fa330a924b", "type": "electric_scooter", "name": "1c839eb2de553157c3a223fa330a924b"}, {"is_disabled": 0, "is_reserved": 0, "fusion_lat": 0.0, "lat": 39.04234116666667, "fusion_lon": 0.0, "rental_uris": {"ios": "https://dc.lft.to/lastmile_qr_scan", "android": "https://dc.lft.to/lastmile_qr_scan"}, "lon": -76.997379, "bike_id": "cd12a19a950bbe2dff1154236a6636eb", "type": "electric_bike", "name": "cd12a19a950bbe2dff1154236a6636eb"}, {"is_disabled": 0, "is_reserved": 0, "fusion_lat": 0.0, "lat": 38.95074433333333, "fusion_lon": 0.0, "rental_uris": {"ios": "https://dc.lft.to/lastmile_qr_scan", "android": "https://dc.lft.to/lastmile_qr_scan"}, "lon": -76.99596783333334, "bike_id": "2b8330142a6df49fa178096f56f5d497", "type": "electric_bike", "name": "2b8330142a6df49fa178096f56f5d497"}, {"is_disabled": 0, "is_reserved": 0, "fusion_lat": 0.0, "lat": 38.89471866666667, "fusion_lon": 0.0, "rental_uris": {"ios": "https://dc.lft.to/lastmile_qr_scan", "android": "https://dc.lft.to/lastmile_qr_scan"}, "lon": -77.00266316666666, "bike_id": "0620e9dd082dd0e7df4d699fa0621f4b", "type": "electric_scooter", "name": "0620e9dd082dd0e7df4d699fa0621f4b"}, {"is_disabled": 0, "is_reserved": 0, "fusion_lat": 0.0, "lat": 38.917854166666665, "fusion_lon": 0.0, "rental_uris": {"ios": "https://dc.lft.to/lastmile_qr_scan", "android": "https://dc.lft.to/lastmile_qr_scan"}, "lon": -77.0235785, "bike_id": "524f1e04fcee840850c9442a550de5e9", "type": "electric_scooter", "name": "524f1e04fcee840850c9442a550de5e9"}, {"is_disabled": 0, "is_reserved": 0, "fusion_lat": 0.0, "lat": 38.898096, "fusion_lon": 0.0, "rental_uris": {"ios": "https://dc.lft.to/lastmile_qr_scan", "android": "https://dc.lft.to/lastmile_qr_scan"}, "lon": -77.002064, "bike_id": "0fa888f7928371b44d97594ba7a6e805", "type": "electric_scooter", "name": "0fa888f7928371b44d97594ba7a6e805"}, {"is_disabled": 0, "is_reserved": 0, "fusion_lat": 0.0, "lat": 38.89249216666666, "fusion_lon": 0.0, "rental_uris": {"ios": "https://dc.lft.to/lastmile_qr_scan", "android": "https://dc.lft.to/lastmile_qr_scan"}, "lon": -77.0396035, "bike_id": "5e37f935da05c5aa76e14f54725921c4", "type": "electric_scooter", "name": "5e37f935da05c5aa76e14f54725921c4"}, {"is_disabled": 0, "is_reserved": 0, "fusion_lat": 0.0, "lat": 38.92437233333333, "fusion_lon": 0.0, "rental_uris": {"ios": "https://dc.lft.to/lastmile_qr_scan", "android": "https://dc.lft.to/lastmile_qr_scan"}, "lon": -77.03404616666667, "bike_id": "87a6705144b26a1ca2506e8be370b0b1", "type": "electric_scooter", "name": "87a6705144b26a1ca2506e8be370b0b1"}, {"is_disabled": 0, "is_reserved": 0, "fusion_lat": 0.0, "lat": 38.920674166666664, "fusion_lon": 0.0, "rental_uris": {"ios": "https://dc.lft.to/lastmile_qr_scan", "android": "https://dc.lft.to/lastmile_qr_scan"}, "lon": -77.02562966666666, "bike_id": "44e876c3c34be83a33810612c839cc63", "type": "electric_scooter", "name": "44e876c3c34be83a33810612c839cc63"}, {"is_disabled": 0, "is_reserved": 0, "fusion_lat": 0.0, "lat": 38.942015, "fusion_lon": 0.0, "rental_uris": {"ios": "https://dc.lft.to/lastmile_qr_scan", "android": "https://dc.lft.to/lastmile_qr_scan"}, "lon": -77.025647, "bike_id": "cd3bea69c93e0dfeb3c824c8978b7c0c", "type": "electric_scooter", "name": "cd3bea69c93e0dfeb3c824c8978b7c0c"}, {"is_disabled": 0, "is_reserved": 0, "fusion_lat": 0.0, "lat": 38.96550716666667, "fusion_lon": 0.0, "rental_uris": {"ios": "https://dc.lft.to/lastmile_qr_scan", "android": "https://dc.lft.to/lastmile_qr_scan"}, "lon": -77.01625333333334, "bike_id": "af3e5532ee8156eaa02ab5e693c9e68d", "type": "electric_bike", "name": "af3e5532ee8156eaa02ab5e693c9e68d"}, {"is_disabled": 0, "is_reserved": 0, "fusion_lat": 0.0, "lat": 38.881248166666666, "fusion_lon": 0.0, "rental_uris": {"ios": "https://dc.lft.to/lastmile_qr_scan", "android": "https://dc.lft.to/lastmile_qr_scan"}, "lon": -76.99284233333333, "bike_id": "cdd4e75473d33a284d8eb07897f5512d", "type": "electric_scooter", "name": "cdd4e75473d33a284d8eb07897f5512d"}, {"is_disabled": 0, "is_reserved": 0, "fusion_lat": 0.0, "lat": 38.878563166666666, "fusion_lon": 0.0, "rental_uris": {"ios": "https://dc.lft.to/lastmile_qr_scan", "android": "https://dc.lft.to/lastmile_qr_scan"}, "lon": -77.0055265, "bike_id": "2cff661e74a60c36a4b40b3a07b2223f", "type": "electric_scooter", "name": "2cff661e74a60c36a4b40b3a07b2223f"}, {"is_disabled": 0, "is_reserved": 0, "fusion_lat": 0.0, "lat": 38.908397666666666, "fusion_lon": 0.0, "rental_uris": {"ios": "https://dc.lft.to/lastmile_qr_scan", "android": "https://dc.lft.to/lastmile_qr_scan"}, "lon": -76.93445, "bike_id": "d63fcb6d6088f77559cd65d9f370f251", "type": "electric_scooter", "name": "d63fcb6d6088f77559cd65d9f370f251"}, {"is_disabled": 0, "is_reserved": 0, "fusion_lat": 0.0, "lat": 38.96793783333333, "fusion_lon": 0.0, "rental_uris": {"ios": "https://dc.lft.to/lastmile_qr_scan", "android": "https://dc.lft.to/lastmile_qr_scan"}, "lon": -77.02430733333334, "bike_id": "6272312702dd33aa9edc38471c238d98", "type": "electric_scooter", "name": "6272312702dd33aa9edc38471c238d98"}, {"is_disabled": 0, "is_reserved": 0, "fusion_lat": 0.0, "lat": 38.90328083333333, "fusion_lon": 0.0, "rental_uris": {"ios": "https://dc.lft.to/lastmile_qr_scan", "android": "https://dc.lft.to/lastmile_qr_scan"}, "lon": -77.01964766666667, "bike_id": "15e9a6239d55d28c97c9e5b9a30c2623", "type": "electric_scooter", "name": "15e9a6239d55d28c97c9e5b9a30c2623"}, {"is_disabled": 0, "is_reserved": 0, "fusion_lat": 0.0, "lat": 38.944935, "fusion_lon": 0.0, "rental_uris": {"ios": "https://dc.lft.to/lastmile_qr_scan", "android": "https://dc.lft.to/lastmile_qr_scan"}, "lon": -77.00737883333333, "bike_id": "92b7a1fb28eb8a0dbf8786c7727c5bfd", "type": "electric_bike", "name": "92b7a1fb28eb8a0dbf8786c7727c5bfd"}, {"is_disabled": 0, "is_reserved": 0, "fusion_lat": 0.0, "lat": 38.90876016666667, "fusion_lon": 0.0, "rental_uris": {"ios": "https://dc.lft.to/lastmile_qr_scan", "android": "https://dc.lft.to/lastmile_qr_scan"}, "lon": -77.00398783333333, "bike_id": "83836d2cbce910e0e1e2c848b6fd3505", "type": "electric_scooter", "name": "83836d2cbce910e0e1e2c848b6fd3505"}, {"is_disabled": 0, "is_reserved": 0, "fusion_lat": 0.0, "lat": 38.80523083333333, "fusion_lon": 0.0, "rental_uris": {"ios": "https://dc.lft.to/lastmile_qr_scan", "android": "https://dc.lft.to/lastmile_qr_scan"}, "lon": -77.04335966666666, "bike_id": "1e07c5c7ec591899c1cc90c71aca8384", "type": "electric_bike", "name": "1e07c5c7ec591899c1cc90c71aca8384"}, {"is_disabled": 0, "is_reserved": 0, "fusion_lat": 0.0, "lat": 38.93672216666667, "fusion_lon": 0.0, "rental_uris": {"ios": "https://dc.lft.to/lastmile_qr_scan", "android": "https://dc.lft.to/lastmile_qr_scan"}, "lon": -77.02283833333334, "bike_id": "c786fa534ae4dc9363748fbe89122689", "type": "electric_scooter", "name": "c786fa534ae4dc9363748fbe89122689"}, {"is_disabled": 0, "is_reserved": 0, "fusion_lat": 0.0, "lat": 38.91608933333333, "fusion_lon": 0.0, "rental_uris": {"ios": "https://dc.lft.to/lastmile_qr_scan", "android": "https://dc.lft.to/lastmile_qr_scan"}, "lon": -77.02294766666667, "bike_id": "c1c998c088295a3ff99c012b314f5778", "type": "electric_scooter", "name": "c1c998c088295a3ff99c012b314f5778"}, {"is_disabled": 0, "is_reserved": 0, "fusion_lat": 0.0, "lat": 38.935272833333336, "fusion_lon": 0.0, "rental_uris": {"ios": "https://dc.lft.to/lastmile_qr_scan", "android": "https://dc.lft.to/lastmile_qr_scan"}, "lon": -77.02351283333333, "bike_id": "213b8e0b0442b0db1a561c6d58ddcff4", "type": "electric_scooter", "name": "213b8e0b0442b0db1a561c6d58ddcff4"}, {"is_disabled": 0, "is_reserved": 0, "fusion_lat": 0.0, "lat": 38.92656216666666, "fusion_lon": 0.0, "rental_uris": {"ios": "https://dc.lft.to/lastmile_qr_scan", "android": "https://dc.lft.to/lastmile_qr_scan"}, "lon": -77.05198633333333, "bike_id": "2599911b95f19121ede8c86cbed907d9", "type": "electric_scooter", "name": "2599911b95f19121ede8c86cbed907d9"}, {"is_disabled": 0, "is_reserved": 0, "fusion_lat": 0.0, "lat": 38.90511516666667, "fusion_lon": 0.0, "rental_uris": {"ios": "https://dc.lft.to/lastmile_qr_scan", "android": "https://dc.lft.to/lastmile_qr_scan"}, "lon": -76.95205233333333, "bike_id": "0d0039c7e6f6a39de7c620406cbb8b59", "type": "electric_scooter", "name": "0d0039c7e6f6a39de7c620406cbb8b59"}, {"is_disabled": 0, "is_reserved": 0, "fusion_lat": 0.0, "lat": 38.86003933333333, "fusion_lon": 0.0, "rental_uris": {"ios": "https://dc.lft.to/lastmile_qr_scan", "android": "https://dc.lft.to/lastmile_qr_scan"}, "lon": -77.06526016666666, "bike_id": "e6d3c1b215d57898de17a38fa50a1c83", "type": "electric_bike", "name": "e6d3c1b215d57898de17a38fa50a1c83"}, {"is_disabled": 0, "is_reserved": 0, "fusion_lat": 0.0, "lat": 38.8746135, "fusion_lon": 0.0, "rental_uris": {"ios": "https://dc.lft.to/lastmile_qr_scan", "android": "https://dc.lft.to/lastmile_qr_scan"}, "lon": -77.00943166666667, "bike_id": "040be2464973fee418944fdc43bb6b00", "type": "electric_scooter", "name": "040be2464973fee418944fdc43bb6b00"}, {"is_disabled": 0, "is_reserved": 0, "fusion_lat": 0.0, "lat": 38.8854355, "fusion_lon": 0.0, "rental_uris": {"ios": "https://dc.lft.to/lastmile_qr_scan", "android": "https://dc.lft.to/lastmile_qr_scan"}, "lon": -76.9597715, "bike_id": "85092425eb6f3b4bbf2cac289436e887", "type": "electric_scooter", "name": "85092425eb6f3b4bbf2cac289436e887"}, {"is_disabled": 0, "is_reserved": 0, "fusion_lat": 0.0, "lat": 38.88299516666667, "fusion_lon": 0.0, "rental_uris": {"ios": "https://dc.lft.to/lastmile_qr_scan", "android": "https://dc.lft.to/lastmile_qr_scan"}, "lon": -77.008905, "bike_id": "e74a3308eca642a51188e42ecc7c4a1f", "type": "electric_scooter", "name": "e74a3308eca642a51188e42ecc7c4a1f"}, {"is_disabled": 0, "is_reserved": 0, "fusion_lat": 0.0, "lat": 38.89676766666667, "fusion_lon": 0.0, "rental_uris": {"ios": "https://dc.lft.to/lastmile_qr_scan", "android": "https://dc.lft.to/lastmile_qr_scan"}, "lon": -76.93206783333333, "bike_id": "cbe4c3aadbce5d9e05c97b6a0dbaf732", "type": "electric_scooter", "name": "cbe4c3aadbce5d9e05c97b6a0dbaf732"}, {"is_disabled": 0, "is_reserved": 0, "fusion_lat": 0.0, "lat": 38.9180575, "fusion_lon": 0.0, "rental_uris": {"ios": "https://dc.lft.to/lastmile_qr_scan", "android": "https://dc.lft.to/lastmile_qr_scan"}, "lon": -77.02492783333334, "bike_id": "c0e9cde08a95dfe3b55b7024b4415d36", "type": "electric_scooter", "name": "c0e9cde08a95dfe3b55b7024b4415d36"}, {"is_disabled": 0, "is_reserved": 0, "fusion_lat": 0.0, "lat": 38.93477583333333, "fusion_lon": 0.0, "rental_uris": {"ios": "https://dc.lft.to/lastmile_qr_scan", "android": "https://dc.lft.to/lastmile_qr_scan"}, "lon": -77.03605566666667, "bike_id": "81d0d28505bc9f63cc5dab792739a782", "type": "electric_scooter", "name": "81d0d28505bc9f63cc5dab792739a782"}, {"is_disabled": 0, "is_reserved": 0, "fusion_lat": 0.0, "lat": 38.919054833333334, "fusion_lon": 0.0, "rental_uris": {"ios": "https://dc.lft.to/lastmile_qr_scan", "android": "https://dc.lft.to/lastmile_qr_scan"}, "lon": -77.03441116666667, "bike_id": "b4caf8cf0e77157e5198fe41882d9349", "type": "electric_scooter", "name": "b4caf8cf0e77157e5198fe41882d9349"}, {"is_disabled": 0, "is_reserved": 0, "fusion_lat": 0.0, "lat": 38.91705566666667, "fusion_lon": 0.0, "rental_uris": {"ios": "https://dc.lft.to/lastmile_qr_scan", "android": "https://dc.lft.to/lastmile_qr_scan"}, "lon": -77.005154, "bike_id": "8b80b05e8847990b342ff83e0ec22dd9", "type": "electric_scooter", "name": "8b80b05e8847990b342ff83e0ec22dd9"}, {"is_disabled": 0, "is_reserved": 0, "fusion_lat": 0.0, "lat": 38.9523915, "fusion_lon": 0.0, "rental_uris": {"ios": "https://dc.lft.to/lastmile_qr_scan", "android": "https://dc.lft.to/lastmile_qr_scan"}, "lon": -76.97952566666666, "bike_id": "41aadef5f2b2ae40c41395a5e076189c", "type": "electric_bike", "name": "41aadef5f2b2ae40c41395a5e076189c"}, {"is_disabled": 0, "is_reserved": 0, "fusion_lat": 0.0, "lat": 38.897024, "fusion_lon": 0.0, "rental_uris": {"ios": "https://dc.lft.to/lastmile_qr_scan", "android": "https://dc.lft.to/lastmile_qr_scan"}, "lon": -77.04334633333333, "bike_id": "da411796d02557f42ea3280bc90a4e13", "type": "electric_scooter", "name": "da411796d02557f42ea3280bc90a4e13"}, {"is_disabled": 0, "is_reserved": 0, "fusion_lat": 0.0, "lat": 38.95777616666667, "fusion_lon": 0.0, "rental_uris": {"ios": "https://dc.lft.to/lastmile_qr_scan", "android": "https://dc.lft.to/lastmile_qr_scan"}, "lon": -77.02459283333333, "bike_id": "3258251dcf23f261b85f3eb82fa65187", "type": "electric_scooter", "name": "3258251dcf23f261b85f3eb82fa65187"}, {"is_disabled": 0, "is_reserved": 0, "fusion_lat": 0.0, "lat": 38.906415833333334, "fusion_lon": 0.0, "rental_uris": {"ios": "https://dc.lft.to/lastmile_qr_scan", "android": "https://dc.lft.to/lastmile_qr_scan"}, "lon": -77.068934, "bike_id": "bb58a10f10c3cd62261c7a6905023fd0", "type": "electric_scooter", "name": "bb58a10f10c3cd62261c7a6905023fd0"}, {"is_disabled": 0, "is_reserved": 0, "fusion_lat": 0.0, "lat": 38.8942285, "fusion_lon": 0.0, "rental_uris": {"ios": "https://dc.lft.to/lastmile_qr_scan", "android": "https://dc.lft.to/lastmile_qr_scan"}, "lon": -77.05595516666666, "bike_id": "b41f91a9eab1456a2f6bb2f885858d64", "type": "electric_scooter", "name": "b41f91a9eab1456a2f6bb2f885858d64"}, {"is_disabled": 0, "is_reserved": 0, "fusion_lat": 0.0, "lat": 38.9231855, "fusion_lon": 0.0, "rental_uris": {"ios": "https://dc.lft.to/lastmile_qr_scan", "android": "https://dc.lft.to/lastmile_qr_scan"}, "lon": -77.04510483333334, "bike_id": "14e6353ecee2e473eaaae80529729aca", "type": "electric_scooter", "name": "14e6353ecee2e473eaaae80529729aca"}, {"is_disabled": 0, "is_reserved": 0, "fusion_lat": 0.0, "lat": 38.9112135, "fusion_lon": 0.0, "rental_uris": {"ios": "https://dc.lft.to/lastmile_qr_scan", "android": "https://dc.lft.to/lastmile_qr_scan"}, "lon": -77.0111285, "bike_id": "30f86cc8d881f19118ac313c52cd52a1", "type": "electric_scooter", "name": "30f86cc8d881f19118ac313c52cd52a1"}, {"is_disabled": 0, "is_reserved": 0, "fusion_lat": 0.0, "lat": 38.90718183333333, "fusion_lon": 0.0, "rental_uris": {"ios": "https://dc.lft.to/lastmile_qr_scan", "android": "https://dc.lft.to/lastmile_qr_scan"}, "lon": -77.02979633333334, "bike_id": "641c8c90a7c8ac6bb3467f05160e68ed", "type": "electric_scooter", "name": "641c8c90a7c8ac6bb3467f05160e68ed"}, {"is_disabled": 0, "is_reserved": 0, "fusion_lat": 0.0, "lat": 38.92528133333333, "fusion_lon": 0.0, "rental_uris": {"ios": "https://dc.lft.to/lastmile_qr_scan", "android": "https://dc.lft.to/lastmile_qr_scan"}, "lon": -77.03249566666666, "bike_id": "850543f891298191a347657e131d99aa", "type": "electric_scooter", "name": "850543f891298191a347657e131d99aa"}, {"is_disabled": 0, "is_reserved": 0, "fusion_lat": 0.0, "lat": 38.90592866666667, "fusion_lon": 0.0, "rental_uris": {"ios": "https://dc.lft.to/lastmile_qr_scan", "android": "https://dc.lft.to/lastmile_qr_scan"}, "lon": -77.00731166666667, "bike_id": "c5b841ae2515295bb3bd97c5b083b6a5", "type": "electric_scooter", "name": "c5b841ae2515295bb3bd97c5b083b6a5"}, {"is_disabled": 0, "is_reserved": 0, "fusion_lat": 0.0, "lat": 38.90272516666667, "fusion_lon": 0.0, "rental_uris": {"ios": "https://dc.lft.to/lastmile_qr_scan", "android": "https://dc.lft.to/lastmile_qr_scan"}, "lon": -77.03198733333333, "bike_id": "c38c92553d269236c9b2d769a5e5d83c", "type": "electric_scooter", "name": "c38c92553d269236c9b2d769a5e5d83c"}, {"is_disabled": 0, "is_reserved": 0, "fusion_lat": 0.0, "lat": 38.932779333333336, "fusion_lon": 0.0, "rental_uris": {"ios": "https://dc.lft.to/lastmile_qr_scan", "android": "https://dc.lft.to/lastmile_qr_scan"}, "lon": -77.0413855, "bike_id": "cda67661197b7c47fc7b42d05714c544", "type": "electric_scooter", "name": "cda67661197b7c47fc7b42d05714c544"}, {"is_disabled": 0, "is_reserved": 0, "fusion_lat": 0.0, "lat": 38.92351033333333, "fusion_lon": 0.0, "rental_uris": {"ios": "https://dc.lft.to/lastmile_qr_scan", "android": "https://dc.lft.to/lastmile_qr_scan"}, "lon": -76.97207916666666, "bike_id": "462146ba9296a5af50fd2c712de331bc", "type": "electric_scooter", "name": "462146ba9296a5af50fd2c712de331bc"}, {"is_disabled": 0, "is_reserved": 0, "fusion_lat": 0.0, "lat": 39.02516216666667, "fusion_lon": 0.0, "rental_uris": {"ios": "https://dc.lft.to/lastmile_qr_scan", "android": "https://dc.lft.to/lastmile_qr_scan"}, "lon": -77.01969433333333, "bike_id": "1ecff5df69cbd1699ac69fa1cf9e36cf", "type": "electric_bike", "name": "1ecff5df69cbd1699ac69fa1cf9e36cf"}, {"is_disabled": 0, "is_reserved": 0, "fusion_lat": 0.0, "lat": 38.89969116666666, "fusion_lon": 0.0, "rental_uris": {"ios": "https://dc.lft.to/lastmile_qr_scan", "android": "https://dc.lft.to/lastmile_qr_scan"}, "lon": -76.92614583333334, "bike_id": "71a2ef089d0731d2a609b1e36e7ce263", "type": "electric_scooter", "name": "71a2ef089d0731d2a609b1e36e7ce263"}, {"is_disabled": 0, "is_reserved": 0, "fusion_lat": 0.0, "lat": 38.89463, "fusion_lon": 0.0, "rental_uris": {"ios": "https://dc.lft.to/lastmile_qr_scan", "android": "https://dc.lft.to/lastmile_qr_scan"}, "lon": -77.00228233333333, "bike_id": "f5b7a1fa889482472328de63edfc972b", "type": "electric_scooter", "name": "f5b7a1fa889482472328de63edfc972b"}, {"is_disabled": 0, "is_reserved": 0, "fusion_lat": 0.0, "lat": 38.9534125, "fusion_lon": 0.0, "rental_uris": {"ios": "https://dc.lft.to/lastmile_qr_scan", "android": "https://dc.lft.to/lastmile_qr_scan"}, "lon": -77.081556, "bike_id": "48080c4398f6fcb1f3f340c8b4db316f", "type": "electric_scooter", "name": "48080c4398f6fcb1f3f340c8b4db316f"}, {"is_disabled": 0, "is_reserved": 0, "fusion_lat": 0.0, "lat": 38.921819, "fusion_lon": 0.0, "rental_uris": {"ios": "https://dc.lft.to/lastmile_qr_scan", "android": "https://dc.lft.to/lastmile_qr_scan"}, "lon": -77.040238, "bike_id": "9cc7c37e845c898c59aae23a124b0d46", "type": "electric_scooter", "name": "9cc7c37e845c898c59aae23a124b0d46"}, {"is_disabled": 0, "is_reserved": 0, "fusion_lat": 0.0, "lat": 38.929929, "fusion_lon": 0.0, "rental_uris": {"ios": "https://dc.lft.to/lastmile_qr_scan", "android": "https://dc.lft.to/lastmile_qr_scan"}, "lon": -77.0380165, "bike_id": "467a43a81beaf5847810a108e05c8402", "type": "electric_scooter", "name": "467a43a81beaf5847810a108e05c8402"}, {"is_disabled": 0, "is_reserved": 0, "fusion_lat": 0.0, "lat": 38.90656883333333, "fusion_lon": 0.0, "rental_uris": {"ios": "https://dc.lft.to/lastmile_qr_scan", "android": "https://dc.lft.to/lastmile_qr_scan"}, "lon": -77.01624783333334, "bike_id": "55c2ce475174ad7e7bcfd652748876a8", "type": "electric_scooter", "name": "55c2ce475174ad7e7bcfd652748876a8"}, {"is_disabled": 0, "is_reserved": 0, "fusion_lat": 0.0, "lat": 39.08477666666667, "fusion_lon": 0.0, "rental_uris": {"ios": "https://dc.lft.to/lastmile_qr_scan", "android": "https://dc.lft.to/lastmile_qr_scan"}, "lon": -76.9506725, "bike_id": "8de8e4364842a19112c8a5744c4776d6", "type": "electric_bike", "name": "8de8e4364842a19112c8a5744c4776d6"}, {"is_disabled": 0, "is_reserved": 0, "fusion_lat": 0.0, "lat": 38.888818, "fusion_lon": 0.0, "rental_uris": {"ios": "https://dc.lft.to/lastmile_qr_scan", "android": "https://dc.lft.to/lastmile_qr_scan"}, "lon": -76.99036683333334, "bike_id": "a7f9d9f2ebebb64a857b85951cac63ad", "type": "electric_scooter", "name": "a7f9d9f2ebebb64a857b85951cac63ad"}, {"is_disabled": 0, "is_reserved": 0, "fusion_lat": 0.0, "lat": 38.925681, "fusion_lon": 0.0, "rental_uris": {"ios": "https://dc.lft.to/lastmile_qr_scan", "android": "https://dc.lft.to/lastmile_qr_scan"}, "lon": -77.0228325, "bike_id": "a28b239dd38a05e7ab1932250b40f296", "type": "electric_scooter", "name": "a28b239dd38a05e7ab1932250b40f296"}, {"is_disabled": 0, "is_reserved": 0, "fusion_lat": 0.0, "lat": 38.923897833333335, "fusion_lon": 0.0, "rental_uris": {"ios": "https://dc.lft.to/lastmile_qr_scan", "android": "https://dc.lft.to/lastmile_qr_scan"}, "lon": -77.0089335, "bike_id": "6a5b8d4e6efd6750fabe5da62a9c1c4f", "type": "electric_scooter", "name": "6a5b8d4e6efd6750fabe5da62a9c1c4f"}, {"is_disabled": 0, "is_reserved": 0, "fusion_lat": 0.0, "lat": 38.94198033333333, "fusion_lon": 0.0, "rental_uris": {"ios": "https://dc.lft.to/lastmile_qr_scan", "android": "https://dc.lft.to/lastmile_qr_scan"}, "lon": -77.0882125, "bike_id": "01f046a5a41c649cf18d6e2421dce562", "type": "electric_scooter", "name": "01f046a5a41c649cf18d6e2421dce562"}, {"is_disabled": 0, "is_reserved": 0, "fusion_lat": 0.0, "lat": 38.92902, "fusion_lon": 0.0, "rental_uris": {"ios": "https://dc.lft.to/lastmile_qr_scan", "android": "https://dc.lft.to/lastmile_qr_scan"}, "lon": -77.0261705, "bike_id": "ce2264e40866316d5476e32dc217735f", "type": "electric_scooter", "name": "ce2264e40866316d5476e32dc217735f"}, {"is_disabled": 0, "is_reserved": 0, "fusion_lat": 0.0, "lat": 38.876949, "fusion_lon": 0.0, "rental_uris": {"ios": "https://dc.lft.to/lastmile_qr_scan", "android": "https://dc.lft.to/lastmile_qr_scan"}, "lon": -77.01760783333333, "bike_id": "a5dd901ca0e9741c3940729e99a1d5c0", "type": "electric_scooter", "name": "a5dd901ca0e9741c3940729e99a1d5c0"}, {"is_disabled": 0, "is_reserved": 0, "fusion_lat": 0.0, "lat": 38.90564416666667, "fusion_lon": 0.0, "rental_uris": {"ios": "https://dc.lft.to/lastmile_qr_scan", "android": "https://dc.lft.to/lastmile_qr_scan"}, "lon": -77.04886766666667, "bike_id": "aba1058fe0f0ccaccc69ced6cbe72532", "type": "electric_scooter", "name": "aba1058fe0f0ccaccc69ced6cbe72532"}, {"is_disabled": 0, "is_reserved": 0, "fusion_lat": 0.0, "lat": 38.906234166666664, "fusion_lon": 0.0, "rental_uris": {"ios": "https://dc.lft.to/lastmile_qr_scan", "android": "https://dc.lft.to/lastmile_qr_scan"}, "lon": -77.03380166666666, "bike_id": "b8f3496d29590835a09fbc7e0a3aa4fe", "type": "electric_scooter", "name": "b8f3496d29590835a09fbc7e0a3aa4fe"}, {"is_disabled": 0, "is_reserved": 0, "fusion_lat": 0.0, "lat": 38.89550233333333, "fusion_lon": 0.0, "rental_uris": {"ios": "https://dc.lft.to/lastmile_qr_scan", "android": "https://dc.lft.to/lastmile_qr_scan"}, "lon": -77.01661333333334, "bike_id": "3ca576eb4bde632e0ded5dbf46197d15", "type": "electric_scooter", "name": "3ca576eb4bde632e0ded5dbf46197d15"}, {"is_disabled": 0, "is_reserved": 0, "fusion_lat": 0.0, "lat": 38.923348833333336, "fusion_lon": 0.0, "rental_uris": {"ios": "https://dc.lft.to/lastmile_qr_scan", "android": "https://dc.lft.to/lastmile_qr_scan"}, "lon": -77.03523216666666, "bike_id": "1cc41c44abe62faaecf4af29e51e2145", "type": "electric_scooter", "name": "1cc41c44abe62faaecf4af29e51e2145"}, {"is_disabled": 0, "is_reserved": 0, "fusion_lat": 0.0, "lat": 38.886267833333335, "fusion_lon": 0.0, "rental_uris": {"ios": "https://dc.lft.to/lastmile_qr_scan", "android": "https://dc.lft.to/lastmile_qr_scan"}, "lon": -76.99015033333333, "bike_id": "4717ea0170472f2513e948ac8885dd0c", "type": "electric_bike", "name": "4717ea0170472f2513e948ac8885dd0c"}, {"is_disabled": 0, "is_reserved": 0, "fusion_lat": 0.0, "lat": 38.892262, "fusion_lon": 0.0, "rental_uris": {"ios": "https://dc.lft.to/lastmile_qr_scan", "android": "https://dc.lft.to/lastmile_qr_scan"}, "lon": -77.05002933333333, "bike_id": "e6cc3f7f394f9077a3f75a4adc8b7fb5", "type": "electric_scooter", "name": "e6cc3f7f394f9077a3f75a4adc8b7fb5"}, {"is_disabled": 0, "is_reserved": 0, "fusion_lat": 0.0, "lat": 38.90695216666667, "fusion_lon": 0.0, "rental_uris": {"ios": "https://dc.lft.to/lastmile_qr_scan", "android": "https://dc.lft.to/lastmile_qr_scan"}, "lon": -76.9525435, "bike_id": "088b629753c45dc41e6b0ccfb4d8c012", "type": "electric_bike", "name": "088b629753c45dc41e6b0ccfb4d8c012"}, {"is_disabled": 0, "is_reserved": 0, "fusion_lat": 0.0, "lat": 38.9471265, "fusion_lon": 0.0, "rental_uris": {"ios": "https://dc.lft.to/lastmile_qr_scan", "android": "https://dc.lft.to/lastmile_qr_scan"}, "lon": -77.06801933333334, "bike_id": "de7e8d9db8248b6fe6371cf644cb28da", "type": "electric_scooter", "name": "de7e8d9db8248b6fe6371cf644cb28da"}, {"is_disabled": 0, "is_reserved": 0, "fusion_lat": 0.0, "lat": 38.8835235, "fusion_lon": 0.0, "rental_uris": {"ios": "https://dc.lft.to/lastmile_qr_scan", "android": "https://dc.lft.to/lastmile_qr_scan"}, "lon": -76.95766916666666, "bike_id": "c6f68a828cb63b789fcbbf02f8dccb4e", "type": "electric_scooter", "name": "c6f68a828cb63b789fcbbf02f8dccb4e"}, {"is_disabled": 0, "is_reserved": 0, "fusion_lat": 0.0, "lat": 38.9425925, "fusion_lon": 0.0, "rental_uris": {"ios": "https://dc.lft.to/lastmile_qr_scan", "android": "https://dc.lft.to/lastmile_qr_scan"}, "lon": -76.98455916666667, "bike_id": "6fae151b2430855188d6e40ac423595e", "type": "electric_scooter", "name": "6fae151b2430855188d6e40ac423595e"}, {"is_disabled": 0, "is_reserved": 0, "fusion_lat": 0.0, "lat": 38.8967945, "fusion_lon": 0.0, "rental_uris": {"ios": "https://dc.lft.to/lastmile_qr_scan", "android": "https://dc.lft.to/lastmile_qr_scan"}, "lon": -77.05119066666667, "bike_id": "c962d539087a26cd7adca6ca697e3be5", "type": "electric_scooter", "name": "c962d539087a26cd7adca6ca697e3be5"}, {"is_disabled": 0, "is_reserved": 0, "fusion_lat": 0.0, "lat": 38.967797, "fusion_lon": 0.0, "rental_uris": {"ios": "https://dc.lft.to/lastmile_qr_scan", "android": "https://dc.lft.to/lastmile_qr_scan"}, "lon": -76.99650783333334, "bike_id": "63935b71c00992aed8d1325e8367cfd7", "type": "electric_bike", "name": "63935b71c00992aed8d1325e8367cfd7"}, {"is_disabled": 0, "is_reserved": 0, "fusion_lat": 0.0, "lat": 38.905043166666665, "fusion_lon": 0.0, "rental_uris": {"ios": "https://dc.lft.to/lastmile_qr_scan", "android": "https://dc.lft.to/lastmile_qr_scan"}, "lon": -77.06108, "bike_id": "1807119a5d3c7f335ba56cd412eb00ff", "type": "electric_scooter", "name": "1807119a5d3c7f335ba56cd412eb00ff"}, {"is_disabled": 0, "is_reserved": 0, "fusion_lat": 0.0, "lat": 38.91122516666667, "fusion_lon": 0.0, "rental_uris": {"ios": "https://dc.lft.to/lastmile_qr_scan", "android": "https://dc.lft.to/lastmile_qr_scan"}, "lon": -76.99746316666666, "bike_id": "b26b2ec53afc9cb79e99733a8cd59cd1", "type": "electric_scooter", "name": "b26b2ec53afc9cb79e99733a8cd59cd1"}, {"is_disabled": 0, "is_reserved": 0, "fusion_lat": 0.0, "lat": 38.930174666666666, "fusion_lon": 0.0, "rental_uris": {"ios": "https://dc.lft.to/lastmile_qr_scan", "android": "https://dc.lft.to/lastmile_qr_scan"}, "lon": -77.0380255, "bike_id": "12191b0826ac26b8c44a86ecd1d30023", "type": "electric_scooter", "name": "12191b0826ac26b8c44a86ecd1d30023"}, {"is_disabled": 0, "is_reserved": 0, "fusion_lat": 0.0, "lat": 38.922158833333334, "fusion_lon": 0.0, "rental_uris": {"ios": "https://dc.lft.to/lastmile_qr_scan", "android": "https://dc.lft.to/lastmile_qr_scan"}, "lon": -77.032931, "bike_id": "6a66ca865de83287a6499243517b5707", "type": "electric_scooter", "name": "6a66ca865de83287a6499243517b5707"}, {"is_disabled": 0, "is_reserved": 0, "fusion_lat": 0.0, "lat": 38.904768833333335, "fusion_lon": 0.0, "rental_uris": {"ios": "https://dc.lft.to/lastmile_qr_scan", "android": "https://dc.lft.to/lastmile_qr_scan"}, "lon": -76.95055183333334, "bike_id": "4d839a8ea911ff104901bde68782578c", "type": "electric_scooter", "name": "4d839a8ea911ff104901bde68782578c"}, {"is_disabled": 0, "is_reserved": 0, "fusion_lat": 0.0, "lat": 38.89695966666667, "fusion_lon": 0.0, "rental_uris": {"ios": "https://dc.lft.to/lastmile_qr_scan", "android": "https://dc.lft.to/lastmile_qr_scan"}, "lon": -77.04890433333334, "bike_id": "58413a60dae65a937634a913489276f4", "type": "electric_scooter", "name": "58413a60dae65a937634a913489276f4"}, {"is_disabled": 0, "is_reserved": 0, "fusion_lat": 0.0, "lat": 38.85512333333333, "fusion_lon": 0.0, "rental_uris": {"ios": "https://dc.lft.to/lastmile_qr_scan", "android": "https://dc.lft.to/lastmile_qr_scan"}, "lon": -76.99153366666667, "bike_id": "1cfa813356fd751827fb6fb68502a531", "type": "electric_scooter", "name": "1cfa813356fd751827fb6fb68502a531"}, {"is_disabled": 0, "is_reserved": 0, "fusion_lat": 0.0, "lat": 38.9242605, "fusion_lon": 0.0, "rental_uris": {"ios": "https://dc.lft.to/lastmile_qr_scan", "android": "https://dc.lft.to/lastmile_qr_scan"}, "lon": -77.02987916666666, "bike_id": "7ed1c145d6b7bb666507f0ed9b5cc3ec", "type": "electric_scooter", "name": "7ed1c145d6b7bb666507f0ed9b5cc3ec"}, {"is_disabled": 0, "is_reserved": 0, "fusion_lat": 0.0, "lat": 38.913513, "fusion_lon": 0.0, "rental_uris": {"ios": "https://dc.lft.to/lastmile_qr_scan", "android": "https://dc.lft.to/lastmile_qr_scan"}, "lon": -76.97139283333334, "bike_id": "0be4582400244581ad9a2a120456a651", "type": "electric_scooter", "name": "0be4582400244581ad9a2a120456a651"}, {"is_disabled": 0, "is_reserved": 0, "fusion_lat": 0.0, "lat": 38.925068, "fusion_lon": 0.0, "rental_uris": {"ios": "https://dc.lft.to/lastmile_qr_scan", "android": "https://dc.lft.to/lastmile_qr_scan"}, "lon": -77.02356216666666, "bike_id": "d108df9e583a6ec3cc7f58391fe66ff4", "type": "electric_scooter", "name": "d108df9e583a6ec3cc7f58391fe66ff4"}, {"is_disabled": 0, "is_reserved": 0, "fusion_lat": 0.0, "lat": 38.8995035, "fusion_lon": 0.0, "rental_uris": {"ios": "https://dc.lft.to/lastmile_qr_scan", "android": "https://dc.lft.to/lastmile_qr_scan"}, "lon": -77.01497433333333, "bike_id": "5c2de1805a308e8aba067751b7c3a7a7", "type": "electric_scooter", "name": "5c2de1805a308e8aba067751b7c3a7a7"}, {"is_disabled": 0, "is_reserved": 0, "fusion_lat": 0.0, "lat": 38.89998283333333, "fusion_lon": 0.0, "rental_uris": {"ios": "https://dc.lft.to/lastmile_qr_scan", "android": "https://dc.lft.to/lastmile_qr_scan"}, "lon": -77.00677033333334, "bike_id": "d593d857479ac782ac7e423bd00be546", "type": "electric_scooter", "name": "d593d857479ac782ac7e423bd00be546"}, {"is_disabled": 0, "is_reserved": 0, "fusion_lat": 0.0, "lat": 38.932391833333334, "fusion_lon": 0.0, "rental_uris": {"ios": "https://dc.lft.to/lastmile_qr_scan", "android": "https://dc.lft.to/lastmile_qr_scan"}, "lon": -77.02929833333333, "bike_id": "fa652062ec84760973aff62aa8488a64", "type": "electric_scooter", "name": "fa652062ec84760973aff62aa8488a64"}, {"is_disabled": 0, "is_reserved": 0, "fusion_lat": 0.0, "lat": 38.9102765, "fusion_lon": 0.0, "rental_uris": {"ios": "https://dc.lft.to/lastmile_qr_scan", "android": "https://dc.lft.to/lastmile_qr_scan"}, "lon": -76.9233605, "bike_id": "1172b29e1aae700212ae31c84db93166", "type": "electric_bike", "name": "1172b29e1aae700212ae31c84db93166"}, {"is_disabled": 0, "is_reserved": 0, "fusion_lat": 0.0, "lat": 38.9091545, "fusion_lon": 0.0, "rental_uris": {"ios": "https://dc.lft.to/lastmile_qr_scan", "android": "https://dc.lft.to/lastmile_qr_scan"}, "lon": -77.04943583333333, "bike_id": "e9a005ea9db89fd329ad3d18b36335b4", "type": "electric_scooter", "name": "e9a005ea9db89fd329ad3d18b36335b4"}, {"is_disabled": 0, "is_reserved": 0, "fusion_lat": 0.0, "lat": 38.92974233333333, "fusion_lon": 0.0, "rental_uris": {"ios": "https://dc.lft.to/lastmile_qr_scan", "android": "https://dc.lft.to/lastmile_qr_scan"}, "lon": -77.03894933333333, "bike_id": "c6c9fd8646566deddef3d1361d42552c", "type": "electric_scooter", "name": "c6c9fd8646566deddef3d1361d42552c"}, {"is_disabled": 0, "is_reserved": 0, "fusion_lat": 0.0, "lat": 38.87641566666667, "fusion_lon": 0.0, "rental_uris": {"ios": "https://dc.lft.to/lastmile_qr_scan", "android": "https://dc.lft.to/lastmile_qr_scan"}, "lon": -76.99295016666667, "bike_id": "e311bdf6dd18b4346920537d47f2ddcc", "type": "electric_scooter", "name": "e311bdf6dd18b4346920537d47f2ddcc"}, {"is_disabled": 0, "is_reserved": 0, "fusion_lat": 0.0, "lat": 38.831571833333335, "fusion_lon": 0.0, "rental_uris": {"ios": "https://dc.lft.to/lastmile_qr_scan", "android": "https://dc.lft.to/lastmile_qr_scan"}, "lon": -76.99548383333334, "bike_id": "89eb79e5fd537538e48019fd41997b2b", "type": "electric_bike", "name": "89eb79e5fd537538e48019fd41997b2b"}, {"is_disabled": 0, "is_reserved": 0, "fusion_lat": 0.0, "lat": 38.90638516666667, "fusion_lon": 0.0, "rental_uris": {"ios": "https://dc.lft.to/lastmile_qr_scan", "android": "https://dc.lft.to/lastmile_qr_scan"}, "lon": -77.0689915, "bike_id": "87256ccbb92822be8dcd6306e5229463", "type": "electric_scooter", "name": "87256ccbb92822be8dcd6306e5229463"}, {"is_disabled": 0, "is_reserved": 0, "fusion_lat": 0.0, "lat": 38.8911875, "fusion_lon": 0.0, "rental_uris": {"ios": "https://dc.lft.to/lastmile_qr_scan", "android": "https://dc.lft.to/lastmile_qr_scan"}, "lon": -76.99943533333334, "bike_id": "f118430f3a372dcd1f7f499be0b6679f", "type": "electric_scooter", "name": "f118430f3a372dcd1f7f499be0b6679f"}, {"is_disabled": 0, "is_reserved": 0, "fusion_lat": 0.0, "lat": 38.952691, "fusion_lon": 0.0, "rental_uris": {"ios": "https://dc.lft.to/lastmile_qr_scan", "android": "https://dc.lft.to/lastmile_qr_scan"}, "lon": -76.998922, "bike_id": "ccd1be6345baf174c70acd7aac5bd263", "type": "electric_scooter", "name": "ccd1be6345baf174c70acd7aac5bd263"}, {"is_disabled": 0, "is_reserved": 0, "fusion_lat": 0.0, "lat": 38.90905166666667, "fusion_lon": 0.0, "rental_uris": {"ios": "https://dc.lft.to/lastmile_qr_scan", "android": "https://dc.lft.to/lastmile_qr_scan"}, "lon": -77.03507116666667, "bike_id": "7e703c27f04df3432cbec613cf48d20a", "type": "electric_scooter", "name": "7e703c27f04df3432cbec613cf48d20a"}, {"is_disabled": 0, "is_reserved": 0, "fusion_lat": 0.0, "lat": 38.931370666666666, "fusion_lon": 0.0, "rental_uris": {"ios": "https://dc.lft.to/lastmile_qr_scan", "android": "https://dc.lft.to/lastmile_qr_scan"}, "lon": -77.05695466666667, "bike_id": "602ab5eb1363bc12c8ff8355f9a88d68", "type": "electric_scooter", "name": "602ab5eb1363bc12c8ff8355f9a88d68"}, {"is_disabled": 0, "is_reserved": 0, "fusion_lat": 0.0, "lat": 38.905411666666666, "fusion_lon": 0.0, "rental_uris": {"ios": "https://dc.lft.to/lastmile_qr_scan", "android": "https://dc.lft.to/lastmile_qr_scan"}, "lon": -77.03224616666667, "bike_id": "6b9a8961d4b7bd90c79e16a839200304", "type": "electric_scooter", "name": "6b9a8961d4b7bd90c79e16a839200304"}, {"is_disabled": 0, "is_reserved": 0, "fusion_lat": 0.0, "lat": 38.864701, "fusion_lon": 0.0, "rental_uris": {"ios": "https://dc.lft.to/lastmile_qr_scan", "android": "https://dc.lft.to/lastmile_qr_scan"}, "lon": -76.97756333333334, "bike_id": "f66e86564529d68dd93ebe47572d1447", "type": "electric_scooter", "name": "f66e86564529d68dd93ebe47572d1447"}, {"is_disabled": 0, "is_reserved": 0, "fusion_lat": 0.0, "lat": 38.905318333333334, "fusion_lon": 0.0, "rental_uris": {"ios": "https://dc.lft.to/lastmile_qr_scan", "android": "https://dc.lft.to/lastmile_qr_scan"}, "lon": -77.059144, "bike_id": "586d601c3d8e5ccdc309ff9b1e66495d", "type": "electric_bike", "name": "586d601c3d8e5ccdc309ff9b1e66495d"}, {"is_disabled": 0, "is_reserved": 0, "fusion_lat": 0.0, "lat": 38.925286166666666, "fusion_lon": 0.0, "rental_uris": {"ios": "https://dc.lft.to/lastmile_qr_scan", "android": "https://dc.lft.to/lastmile_qr_scan"}, "lon": -77.02618833333334, "bike_id": "b57712dfce6197c448aa2153b47a169d", "type": "electric_bike", "name": "b57712dfce6197c448aa2153b47a169d"}, {"is_disabled": 0, "is_reserved": 0, "fusion_lat": 0.0, "lat": 38.804787, "fusion_lon": 0.0, "rental_uris": {"ios": "https://dc.lft.to/lastmile_qr_scan", "android": "https://dc.lft.to/lastmile_qr_scan"}, "lon": -76.99105616666667, "bike_id": "932b740a5df11b8f42c76468c2221258", "type": "electric_bike", "name": "932b740a5df11b8f42c76468c2221258"}, {"is_disabled": 0, "is_reserved": 0, "fusion_lat": 0.0, "lat": 38.915531333333334, "fusion_lon": 0.0, "rental_uris": {"ios": "https://dc.lft.to/lastmile_qr_scan", "android": "https://dc.lft.to/lastmile_qr_scan"}, "lon": -77.02336683333333, "bike_id": "c99d2bfd0bff4ca171a61e7b3a6b5015", "type": "electric_scooter", "name": "c99d2bfd0bff4ca171a61e7b3a6b5015"}, {"is_disabled": 0, "is_reserved": 0, "fusion_lat": 0.0, "lat": 39.000945333333334, "fusion_lon": 0.0, "rental_uris": {"ios": "https://dc.lft.to/lastmile_qr_scan", "android": "https://dc.lft.to/lastmile_qr_scan"}, "lon": -76.90983083333333, "bike_id": "0f4946a3aa3854f811062fe1dc604a8e", "type": "electric_bike", "name": "0f4946a3aa3854f811062fe1dc604a8e"}, {"is_disabled": 0, "is_reserved": 0, "fusion_lat": 0.0, "lat": 38.932084333333336, "fusion_lon": 0.0, "rental_uris": {"ios": "https://dc.lft.to/lastmile_qr_scan", "android": "https://dc.lft.to/lastmile_qr_scan"}, "lon": -77.02283366666667, "bike_id": "128a420f52444c17fbbf4bd8c31694d9", "type": "electric_scooter", "name": "128a420f52444c17fbbf4bd8c31694d9"}, {"is_disabled": 0, "is_reserved": 0, "fusion_lat": 0.0, "lat": 38.902281333333335, "fusion_lon": 0.0, "rental_uris": {"ios": "https://dc.lft.to/lastmile_qr_scan", "android": "https://dc.lft.to/lastmile_qr_scan"}, "lon": -77.06065816666667, "bike_id": "1ca676bc32c4967499548343fa351d44", "type": "electric_scooter", "name": "1ca676bc32c4967499548343fa351d44"}, {"is_disabled": 0, "is_reserved": 0, "fusion_lat": 0.0, "lat": 38.9306805, "fusion_lon": 0.0, "rental_uris": {"ios": "https://dc.lft.to/lastmile_qr_scan", "android": "https://dc.lft.to/lastmile_qr_scan"}, "lon": -77.031948, "bike_id": "c28e1df368b313c2f139b62097b0b3f6", "type": "electric_scooter", "name": "c28e1df368b313c2f139b62097b0b3f6"}, {"is_disabled": 0, "is_reserved": 0, "fusion_lat": 0.0, "lat": 38.892380333333335, "fusion_lon": 0.0, "rental_uris": {"ios": "https://dc.lft.to/lastmile_qr_scan", "android": "https://dc.lft.to/lastmile_qr_scan"}, "lon": -77.03960233333333, "bike_id": "d154f3ed1c5fb183df8cfdb0cb153be3", "type": "electric_scooter", "name": "d154f3ed1c5fb183df8cfdb0cb153be3"}, {"is_disabled": 0, "is_reserved": 0, "fusion_lat": 0.0, "lat": 38.923093, "fusion_lon": 0.0, "rental_uris": {"ios": "https://dc.lft.to/lastmile_qr_scan", "android": "https://dc.lft.to/lastmile_qr_scan"}, "lon": -77.034049, "bike_id": "ce56ddbd41c04ada044a2bbbfa877ced", "type": "electric_scooter", "name": "ce56ddbd41c04ada044a2bbbfa877ced"}, {"is_disabled": 0, "is_reserved": 0, "fusion_lat": 0.0, "lat": 38.89852, "fusion_lon": 0.0, "rental_uris": {"ios": "https://dc.lft.to/lastmile_qr_scan", "android": "https://dc.lft.to/lastmile_qr_scan"}, "lon": -77.002035, "bike_id": "75b70b50de63e9c071e7e164f1b3c56e", "type": "electric_scooter", "name": "75b70b50de63e9c071e7e164f1b3c56e"}, {"is_disabled": 0, "is_reserved": 0, "fusion_lat": 0.0, "lat": 38.974407666666664, "fusion_lon": 0.0, "rental_uris": {"ios": "https://dc.lft.to/lastmile_qr_scan", "android": "https://dc.lft.to/lastmile_qr_scan"}, "lon": -77.09616516666667, "bike_id": "7737b5497303c24d4902b31dce6c5b95", "type": "electric_bike", "name": "7737b5497303c24d4902b31dce6c5b95"}, {"is_disabled": 0, "is_reserved": 0, "fusion_lat": 0.0, "lat": 38.89457616666667, "fusion_lon": 0.0, "rental_uris": {"ios": "https://dc.lft.to/lastmile_qr_scan", "android": "https://dc.lft.to/lastmile_qr_scan"}, "lon": -76.93674283333333, "bike_id": "8becb9d7fc5aa4ba1697f37448a1be07", "type": "electric_bike", "name": "8becb9d7fc5aa4ba1697f37448a1be07"}, {"is_disabled": 0, "is_reserved": 0, "fusion_lat": 0.0, "lat": 38.918145833333334, "fusion_lon": 0.0, "rental_uris": {"ios": "https://dc.lft.to/lastmile_qr_scan", "android": "https://dc.lft.to/lastmile_qr_scan"}, "lon": -77.02711966666666, "bike_id": "56c59152d6498984b4fd782b4b04ea87", "type": "electric_scooter", "name": "56c59152d6498984b4fd782b4b04ea87"}, {"is_disabled": 0, "is_reserved": 0, "fusion_lat": 0.0, "lat": 38.876544333333335, "fusion_lon": 0.0, "rental_uris": {"ios": "https://dc.lft.to/lastmile_qr_scan", "android": "https://dc.lft.to/lastmile_qr_scan"}, "lon": -77.00885166666667, "bike_id": "e84fbafee46063eb381eb706eb70716f", "type": "electric_scooter", "name": "e84fbafee46063eb381eb706eb70716f"}, {"is_disabled": 0, "is_reserved": 0, "fusion_lat": 0.0, "lat": 38.899488833333336, "fusion_lon": 0.0, "rental_uris": {"ios": "https://dc.lft.to/lastmile_qr_scan", "android": "https://dc.lft.to/lastmile_qr_scan"}, "lon": -77.0505295, "bike_id": "abf9945d5112f354219fe09a4d5024ac", "type": "electric_scooter", "name": "abf9945d5112f354219fe09a4d5024ac"}, {"is_disabled": 0, "is_reserved": 0, "fusion_lat": 0.0, "lat": 38.911008833333334, "fusion_lon": 0.0, "rental_uris": {"ios": "https://dc.lft.to/lastmile_qr_scan", "android": "https://dc.lft.to/lastmile_qr_scan"}, "lon": -77.02171116666666, "bike_id": "17d8a0d3db452eba2eed5d2c2f66f3dd", "type": "electric_scooter", "name": "17d8a0d3db452eba2eed5d2c2f66f3dd"}, {"is_disabled": 0, "is_reserved": 0, "fusion_lat": 0.0, "lat": 38.902599333333335, "fusion_lon": 0.0, "rental_uris": {"ios": "https://dc.lft.to/lastmile_qr_scan", "android": "https://dc.lft.to/lastmile_qr_scan"}, "lon": -77.0021555, "bike_id": "7511fa42008d4e1fe78b85abd6704a32", "type": "electric_scooter", "name": "7511fa42008d4e1fe78b85abd6704a32"}, {"is_disabled": 0, "is_reserved": 0, "fusion_lat": 0.0, "lat": 38.87589916666667, "fusion_lon": 0.0, "rental_uris": {"ios": "https://dc.lft.to/lastmile_qr_scan", "android": "https://dc.lft.to/lastmile_qr_scan"}, "lon": -77.00834116666667, "bike_id": "04c1f1e9e5cbae39df491fa5390a8baf", "type": "electric_scooter", "name": "04c1f1e9e5cbae39df491fa5390a8baf"}, {"is_disabled": 0, "is_reserved": 0, "fusion_lat": 0.0, "lat": 38.927649, "fusion_lon": 0.0, "rental_uris": {"ios": "https://dc.lft.to/lastmile_qr_scan", "android": "https://dc.lft.to/lastmile_qr_scan"}, "lon": -77.02789883333334, "bike_id": "b47f998f4b6f2182cc9fbc4b21307e58", "type": "electric_scooter", "name": "b47f998f4b6f2182cc9fbc4b21307e58"}, {"is_disabled": 0, "is_reserved": 0, "fusion_lat": 0.0, "lat": 38.918861, "fusion_lon": 0.0, "rental_uris": {"ios": "https://dc.lft.to/lastmile_qr_scan", "android": "https://dc.lft.to/lastmile_qr_scan"}, "lon": -77.03552433333333, "bike_id": "b79c338ebbf0e7d1c1f42e68e9e23d1b", "type": "electric_scooter", "name": "b79c338ebbf0e7d1c1f42e68e9e23d1b"}, {"is_disabled": 0, "is_reserved": 0, "fusion_lat": 0.0, "lat": 38.9296995, "fusion_lon": 0.0, "rental_uris": {"ios": "https://dc.lft.to/lastmile_qr_scan", "android": "https://dc.lft.to/lastmile_qr_scan"}, "lon": -77.03083666666667, "bike_id": "992fc2ef3973e8c1dd78560a50fe4a62", "type": "electric_scooter", "name": "992fc2ef3973e8c1dd78560a50fe4a62"}, {"is_disabled": 0, "is_reserved": 0, "fusion_lat": 0.0, "lat": 38.9050675, "fusion_lon": 0.0, "rental_uris": {"ios": "https://dc.lft.to/lastmile_qr_scan", "android": "https://dc.lft.to/lastmile_qr_scan"}, "lon": -77.04825316666667, "bike_id": "e44b6012327908aa147c9cf89c74c3d7", "type": "electric_scooter", "name": "e44b6012327908aa147c9cf89c74c3d7"}, {"is_disabled": 0, "is_reserved": 0, "fusion_lat": 0.0, "lat": 38.90358366666667, "fusion_lon": 0.0, "rental_uris": {"ios": "https://dc.lft.to/lastmile_qr_scan", "android": "https://dc.lft.to/lastmile_qr_scan"}, "lon": -77.01619833333334, "bike_id": "dc4e8fd13fbf75d342703878d31f2f29", "type": "electric_scooter", "name": "dc4e8fd13fbf75d342703878d31f2f29"}, {"is_disabled": 0, "is_reserved": 0, "fusion_lat": 0.0, "lat": 38.914014, "fusion_lon": 0.0, "rental_uris": {"ios": "https://dc.lft.to/lastmile_qr_scan", "android": "https://dc.lft.to/lastmile_qr_scan"}, "lon": -77.01069416666667, "bike_id": "c6d702f0f8e27d3a0efbe392ab4ceb06", "type": "electric_scooter", "name": "c6d702f0f8e27d3a0efbe392ab4ceb06"}, {"is_disabled": 0, "is_reserved": 0, "fusion_lat": 0.0, "lat": 38.90724516666667, "fusion_lon": 0.0, "rental_uris": {"ios": "https://dc.lft.to/lastmile_qr_scan", "android": "https://dc.lft.to/lastmile_qr_scan"}, "lon": -77.03511216666666, "bike_id": "0d4157e806c486ca306a8b14352e853e", "type": "electric_scooter", "name": "0d4157e806c486ca306a8b14352e853e"}, {"is_disabled": 0, "is_reserved": 0, "fusion_lat": 0.0, "lat": 38.914736166666664, "fusion_lon": 0.0, "rental_uris": {"ios": "https://dc.lft.to/lastmile_qr_scan", "android": "https://dc.lft.to/lastmile_qr_scan"}, "lon": -77.00196433333333, "bike_id": "403bd50954b4145b64fa480bea472c41", "type": "electric_scooter", "name": "403bd50954b4145b64fa480bea472c41"}, {"is_disabled": 0, "is_reserved": 0, "fusion_lat": 0.0, "lat": 38.928010666666665, "fusion_lon": 0.0, "rental_uris": {"ios": "https://dc.lft.to/lastmile_qr_scan", "android": "https://dc.lft.to/lastmile_qr_scan"}, "lon": -76.97606716666667, "bike_id": "891f407b37ef5d5bf2815e9376860e99", "type": "electric_scooter", "name": "891f407b37ef5d5bf2815e9376860e99"}, {"is_disabled": 0, "is_reserved": 0, "fusion_lat": 0.0, "lat": 38.8926205, "fusion_lon": 0.0, "rental_uris": {"ios": "https://dc.lft.to/lastmile_qr_scan", "android": "https://dc.lft.to/lastmile_qr_scan"}, "lon": -77.04677983333333, "bike_id": "552e14cbb2478e74b448e5088df1d570", "type": "electric_scooter", "name": "552e14cbb2478e74b448e5088df1d570"}, {"is_disabled": 0, "is_reserved": 0, "fusion_lat": 0.0, "lat": 38.9274125, "fusion_lon": 0.0, "rental_uris": {"ios": "https://dc.lft.to/lastmile_qr_scan", "android": "https://dc.lft.to/lastmile_qr_scan"}, "lon": -77.0236935, "bike_id": "550bb9b462e32b7ca5246f029ae6f720", "type": "electric_scooter", "name": "550bb9b462e32b7ca5246f029ae6f720"}, {"is_disabled": 0, "is_reserved": 0, "fusion_lat": 0.0, "lat": 38.9277625, "fusion_lon": 0.0, "rental_uris": {"ios": "https://dc.lft.to/lastmile_qr_scan", "android": "https://dc.lft.to/lastmile_qr_scan"}, "lon": -77.05262666666667, "bike_id": "214d15eb52f39072b59f35f5f5e68c7b", "type": "electric_scooter", "name": "214d15eb52f39072b59f35f5f5e68c7b"}, {"is_disabled": 0, "is_reserved": 0, "fusion_lat": 0.0, "lat": 38.90776833333334, "fusion_lon": 0.0, "rental_uris": {"ios": "https://dc.lft.to/lastmile_qr_scan", "android": "https://dc.lft.to/lastmile_qr_scan"}, "lon": -77.03544016666666, "bike_id": "eb5f816004ca8b42154ee373378bfdd0", "type": "electric_scooter", "name": "eb5f816004ca8b42154ee373378bfdd0"}, {"is_disabled": 0, "is_reserved": 0, "fusion_lat": 0.0, "lat": 38.89561783333333, "fusion_lon": 0.0, "rental_uris": {"ios": "https://dc.lft.to/lastmile_qr_scan", "android": "https://dc.lft.to/lastmile_qr_scan"}, "lon": -77.12735116666667, "bike_id": "e5f1dcf9e9aa60a67e17e63908d08aa1", "type": "electric_bike", "name": "e5f1dcf9e9aa60a67e17e63908d08aa1"}, {"is_disabled": 0, "is_reserved": 0, "fusion_lat": 0.0, "lat": 38.92167466666667, "fusion_lon": 0.0, "rental_uris": {"ios": "https://dc.lft.to/lastmile_qr_scan", "android": "https://dc.lft.to/lastmile_qr_scan"}, "lon": -77.01810883333333, "bike_id": "7dee16efb10f99681b36bdc3c4b8aa4b", "type": "electric_scooter", "name": "7dee16efb10f99681b36bdc3c4b8aa4b"}, {"is_disabled": 0, "is_reserved": 0, "fusion_lat": 0.0, "lat": 38.94099533333333, "fusion_lon": 0.0, "rental_uris": {"ios": "https://dc.lft.to/lastmile_qr_scan", "android": "https://dc.lft.to/lastmile_qr_scan"}, "lon": -76.95623933333333, "bike_id": "4419dc76b1e648ebdb7eb991454851be", "type": "electric_bike", "name": "4419dc76b1e648ebdb7eb991454851be"}, {"is_disabled": 0, "is_reserved": 0, "fusion_lat": 0.0, "lat": 38.904957, "fusion_lon": 0.0, "rental_uris": {"ios": "https://dc.lft.to/lastmile_qr_scan", "android": "https://dc.lft.to/lastmile_qr_scan"}, "lon": -77.02499983333334, "bike_id": "7e9cec2321818e33abd96a832b9a9eb7", "type": "electric_scooter", "name": "7e9cec2321818e33abd96a832b9a9eb7"}, {"is_disabled": 0, "is_reserved": 0, "fusion_lat": 0.0, "lat": 38.9158095, "fusion_lon": 0.0, "rental_uris": {"ios": "https://dc.lft.to/lastmile_qr_scan", "android": "https://dc.lft.to/lastmile_qr_scan"}, "lon": -76.9772145, "bike_id": "b53b946dec06bbe4c437577ce66ab66e", "type": "electric_scooter", "name": "b53b946dec06bbe4c437577ce66ab66e"}, {"is_disabled": 0, "is_reserved": 0, "fusion_lat": 0.0, "lat": 38.906533833333334, "fusion_lon": 0.0, "rental_uris": {"ios": "https://dc.lft.to/lastmile_qr_scan", "android": "https://dc.lft.to/lastmile_qr_scan"}, "lon": -77.05312016666667, "bike_id": "71e4afa21ccf599996e21f75d9657b4b", "type": "electric_scooter", "name": "71e4afa21ccf599996e21f75d9657b4b"}, {"is_disabled": 0, "is_reserved": 0, "fusion_lat": 0.0, "lat": 38.92335816666667, "fusion_lon": 0.0, "rental_uris": {"ios": "https://dc.lft.to/lastmile_qr_scan", "android": "https://dc.lft.to/lastmile_qr_scan"}, "lon": -77.035169, "bike_id": "dc18d9f98f4781f767d351c584a99af2", "type": "electric_scooter", "name": "dc18d9f98f4781f767d351c584a99af2"}, {"is_disabled": 0, "is_reserved": 0, "fusion_lat": 0.0, "lat": 38.96760483333333, "fusion_lon": 0.0, "rental_uris": {"ios": "https://dc.lft.to/lastmile_qr_scan", "android": "https://dc.lft.to/lastmile_qr_scan"}, "lon": -77.0342285, "bike_id": "de24cd4815f3379b2229aef505bb15a3", "type": "electric_scooter", "name": "de24cd4815f3379b2229aef505bb15a3"}, {"is_disabled": 0, "is_reserved": 0, "fusion_lat": 0.0, "lat": 38.921673166666665, "fusion_lon": 0.0, "rental_uris": {"ios": "https://dc.lft.to/lastmile_qr_scan", "android": "https://dc.lft.to/lastmile_qr_scan"}, "lon": -77.03667916666667, "bike_id": "e01f7cff590d3a3b4bab2d3a72e30e88", "type": "electric_scooter", "name": "e01f7cff590d3a3b4bab2d3a72e30e88"}, {"is_disabled": 0, "is_reserved": 0, "fusion_lat": 0.0, "lat": 38.917759333333336, "fusion_lon": 0.0, "rental_uris": {"ios": "https://dc.lft.to/lastmile_qr_scan", "android": "https://dc.lft.to/lastmile_qr_scan"}, "lon": -77.02297483333334, "bike_id": "c2115677db92eeb0fbbad95e8b8c4df0", "type": "electric_scooter", "name": "c2115677db92eeb0fbbad95e8b8c4df0"}, {"is_disabled": 0, "is_reserved": 0, "fusion_lat": 0.0, "lat": 38.896060166666665, "fusion_lon": 0.0, "rental_uris": {"ios": "https://dc.lft.to/lastmile_qr_scan", "android": "https://dc.lft.to/lastmile_qr_scan"}, "lon": -77.02145333333333, "bike_id": "003638c5e40297b2110766ca380dee0c", "type": "electric_scooter", "name": "003638c5e40297b2110766ca380dee0c"}, {"is_disabled": 0, "is_reserved": 0, "fusion_lat": 0.0, "lat": 38.915542, "fusion_lon": 0.0, "rental_uris": {"ios": "https://dc.lft.to/lastmile_qr_scan", "android": "https://dc.lft.to/lastmile_qr_scan"}, "lon": -77.05407833333334, "bike_id": "c45b697ba34bf3e782e1f26b104e0eac", "type": "electric_scooter", "name": "c45b697ba34bf3e782e1f26b104e0eac"}, {"is_disabled": 0, "is_reserved": 0, "fusion_lat": 0.0, "lat": 38.91202466666667, "fusion_lon": 0.0, "rental_uris": {"ios": "https://dc.lft.to/lastmile_qr_scan", "android": "https://dc.lft.to/lastmile_qr_scan"}, "lon": -77.021007, "bike_id": "1c737b1a97338fdbc836de54f2c5f6d7", "type": "electric_scooter", "name": "1c737b1a97338fdbc836de54f2c5f6d7"}, {"is_disabled": 0, "is_reserved": 0, "fusion_lat": 0.0, "lat": 38.918174, "fusion_lon": 0.0, "rental_uris": {"ios": "https://dc.lft.to/lastmile_qr_scan", "android": "https://dc.lft.to/lastmile_qr_scan"}, "lon": -77.0252575, "bike_id": "578890471e84d8b481e3a20ff1ea1b28", "type": "electric_scooter", "name": "578890471e84d8b481e3a20ff1ea1b28"}, {"is_disabled": 0, "is_reserved": 0, "fusion_lat": 0.0, "lat": 38.93115783333333, "fusion_lon": 0.0, "rental_uris": {"ios": "https://dc.lft.to/lastmile_qr_scan", "android": "https://dc.lft.to/lastmile_qr_scan"}, "lon": -77.031687, "bike_id": "e58abde2f45e15a3a53cf2eab8764151", "type": "electric_scooter", "name": "e58abde2f45e15a3a53cf2eab8764151"}, {"is_disabled": 0, "is_reserved": 0, "fusion_lat": 0.0, "lat": 38.923483166666664, "fusion_lon": 0.0, "rental_uris": {"ios": "https://dc.lft.to/lastmile_qr_scan", "android": "https://dc.lft.to/lastmile_qr_scan"}, "lon": -77.0331685, "bike_id": "3304249202cd566556fe500c2eda8468", "type": "electric_scooter", "name": "3304249202cd566556fe500c2eda8468"}, {"is_disabled": 0, "is_reserved": 0, "fusion_lat": 0.0, "lat": 38.920874166666664, "fusion_lon": 0.0, "rental_uris": {"ios": "https://dc.lft.to/lastmile_qr_scan", "android": "https://dc.lft.to/lastmile_qr_scan"}, "lon": -77.01744416666666, "bike_id": "0051cad20e5dbc146bba8c6218d0863e", "type": "electric_scooter", "name": "0051cad20e5dbc146bba8c6218d0863e"}, {"is_disabled": 0, "is_reserved": 0, "fusion_lat": 0.0, "lat": 38.87096783333333, "fusion_lon": 0.0, "rental_uris": {"ios": "https://dc.lft.to/lastmile_qr_scan", "android": "https://dc.lft.to/lastmile_qr_scan"}, "lon": -77.012026, "bike_id": "52a2f52faef4e9450d32cab00328351b", "type": "electric_scooter", "name": "52a2f52faef4e9450d32cab00328351b"}, {"is_disabled": 0, "is_reserved": 0, "fusion_lat": 0.0, "lat": 38.884753, "fusion_lon": 0.0, "rental_uris": {"ios": "https://dc.lft.to/lastmile_qr_scan", "android": "https://dc.lft.to/lastmile_qr_scan"}, "lon": -77.02369866666666, "bike_id": "036890955615d95f8c91490b37786239", "type": "electric_scooter", "name": "036890955615d95f8c91490b37786239"}, {"is_disabled": 0, "is_reserved": 0, "fusion_lat": 0.0, "lat": 38.9484815, "fusion_lon": 0.0, "rental_uris": {"ios": "https://dc.lft.to/lastmile_qr_scan", "android": "https://dc.lft.to/lastmile_qr_scan"}, "lon": -77.02108216666667, "bike_id": "f4f8d0dbd252b9665000badd323ac1b0", "type": "electric_scooter", "name": "f4f8d0dbd252b9665000badd323ac1b0"}, {"is_disabled": 0, "is_reserved": 0, "fusion_lat": 0.0, "lat": 38.90848016666666, "fusion_lon": 0.0, "rental_uris": {"ios": "https://dc.lft.to/lastmile_qr_scan", "android": "https://dc.lft.to/lastmile_qr_scan"}, "lon": -77.02067233333334, "bike_id": "8db3521d6bd60354e5bd567e34c29974", "type": "electric_scooter", "name": "8db3521d6bd60354e5bd567e34c29974"}, {"is_disabled": 0, "is_reserved": 0, "fusion_lat": 0.0, "lat": 38.9369355, "fusion_lon": 0.0, "rental_uris": {"ios": "https://dc.lft.to/lastmile_qr_scan", "android": "https://dc.lft.to/lastmile_qr_scan"}, "lon": -77.05600833333334, "bike_id": "fb1abcc47fbc0d46f0060776a7b4d012", "type": "electric_scooter", "name": "fb1abcc47fbc0d46f0060776a7b4d012"}, {"is_disabled": 0, "is_reserved": 0, "fusion_lat": 0.0, "lat": 38.946058, "fusion_lon": 0.0, "rental_uris": {"ios": "https://dc.lft.to/lastmile_qr_scan", "android": "https://dc.lft.to/lastmile_qr_scan"}, "lon": -77.01737766666666, "bike_id": "fceaa88a6cf317c3130d803fa6d564ac", "type": "electric_bike", "name": "fceaa88a6cf317c3130d803fa6d564ac"}, {"is_disabled": 0, "is_reserved": 0, "fusion_lat": 0.0, "lat": 38.92877766666667, "fusion_lon": 0.0, "rental_uris": {"ios": "https://dc.lft.to/lastmile_qr_scan", "android": "https://dc.lft.to/lastmile_qr_scan"}, "lon": -77.0335605, "bike_id": "52c67fd3fc143a702aa1fe30b2db2034", "type": "electric_scooter", "name": "52c67fd3fc143a702aa1fe30b2db2034"}, {"is_disabled": 0, "is_reserved": 0, "fusion_lat": 0.0, "lat": 38.9037885, "fusion_lon": 0.0, "rental_uris": {"ios": "https://dc.lft.to/lastmile_qr_scan", "android": "https://dc.lft.to/lastmile_qr_scan"}, "lon": -77.01845066666667, "bike_id": "c9b1653f2767c148cfae701c8dd3c6f8", "type": "electric_scooter", "name": "c9b1653f2767c148cfae701c8dd3c6f8"}, {"is_disabled": 0, "is_reserved": 0, "fusion_lat": 0.0, "lat": 38.95304683333333, "fusion_lon": 0.0, "rental_uris": {"ios": "https://dc.lft.to/lastmile_qr_scan", "android": "https://dc.lft.to/lastmile_qr_scan"}, "lon": -77.0201595, "bike_id": "8c0c0b31ae472140a9dd35e5b22a1365", "type": "electric_scooter", "name": "8c0c0b31ae472140a9dd35e5b22a1365"}, {"is_disabled": 0, "is_reserved": 0, "fusion_lat": 0.0, "lat": 38.9536335, "fusion_lon": 0.0, "rental_uris": {"ios": "https://dc.lft.to/lastmile_qr_scan", "android": "https://dc.lft.to/lastmile_qr_scan"}, "lon": -76.998448, "bike_id": "1cc39e5c783ad84134cff9ed13bdf01e", "type": "electric_scooter", "name": "1cc39e5c783ad84134cff9ed13bdf01e"}, {"is_disabled": 0, "is_reserved": 0, "fusion_lat": 0.0, "lat": 38.93452816666667, "fusion_lon": 0.0, "rental_uris": {"ios": "https://dc.lft.to/lastmile_qr_scan", "android": "https://dc.lft.to/lastmile_qr_scan"}, "lon": -77.02410466666667, "bike_id": "a62b239b5004a4ff52d11847e5fed6b1", "type": "electric_scooter", "name": "a62b239b5004a4ff52d11847e5fed6b1"}, {"is_disabled": 0, "is_reserved": 0, "fusion_lat": 0.0, "lat": 38.88582383333333, "fusion_lon": 0.0, "rental_uris": {"ios": "https://dc.lft.to/lastmile_qr_scan", "android": "https://dc.lft.to/lastmile_qr_scan"}, "lon": -77.01225933333333, "bike_id": "7a451fab57978ddae511daf2132c5580", "type": "electric_scooter", "name": "7a451fab57978ddae511daf2132c5580"}, {"is_disabled": 0, "is_reserved": 0, "fusion_lat": 0.0, "lat": 38.920746666666666, "fusion_lon": 0.0, "rental_uris": {"ios": "https://dc.lft.to/lastmile_qr_scan", "android": "https://dc.lft.to/lastmile_qr_scan"}, "lon": -77.00457116666666, "bike_id": "76c38ca1d119e4f9d018a23c0749568a", "type": "electric_scooter", "name": "76c38ca1d119e4f9d018a23c0749568a"}, {"is_disabled": 0, "is_reserved": 0, "fusion_lat": 0.0, "lat": 38.93193683333333, "fusion_lon": 0.0, "rental_uris": {"ios": "https://dc.lft.to/lastmile_qr_scan", "android": "https://dc.lft.to/lastmile_qr_scan"}, "lon": -77.02450566666667, "bike_id": "2109c475e0d2f1b31973984513b4cd92", "type": "electric_scooter", "name": "2109c475e0d2f1b31973984513b4cd92"}, {"is_disabled": 0, "is_reserved": 0, "fusion_lat": 0.0, "lat": 38.946009833333335, "fusion_lon": 0.0, "rental_uris": {"ios": "https://dc.lft.to/lastmile_qr_scan", "android": "https://dc.lft.to/lastmile_qr_scan"}, "lon": -77.02668516666667, "bike_id": "bab650bd3f5bb191ba9ef7dd05783b3c", "type": "electric_scooter", "name": "bab650bd3f5bb191ba9ef7dd05783b3c"}, {"is_disabled": 0, "is_reserved": 0, "fusion_lat": 0.0, "lat": 38.89892, "fusion_lon": 0.0, "rental_uris": {"ios": "https://dc.lft.to/lastmile_qr_scan", "android": "https://dc.lft.to/lastmile_qr_scan"}, "lon": -77.0216915, "bike_id": "bf760e8f0c8c2a9b9a8da2a689862e34", "type": "electric_scooter", "name": "bf760e8f0c8c2a9b9a8da2a689862e34"}, {"is_disabled": 0, "is_reserved": 0, "fusion_lat": 0.0, "lat": 38.876091, "fusion_lon": 0.0, "rental_uris": {"ios": "https://dc.lft.to/lastmile_qr_scan", "android": "https://dc.lft.to/lastmile_qr_scan"}, "lon": -77.00607383333333, "bike_id": "2c5771fdef79c67d5aa4fcf81450782f", "type": "electric_scooter", "name": "2c5771fdef79c67d5aa4fcf81450782f"}, {"is_disabled": 0, "is_reserved": 0, "fusion_lat": 0.0, "lat": 38.82423083333333, "fusion_lon": 0.0, "rental_uris": {"ios": "https://dc.lft.to/lastmile_qr_scan", "android": "https://dc.lft.to/lastmile_qr_scan"}, "lon": -77.1203965, "bike_id": "5a0bfd5d8443dc49a12dd68b0cfbc290", "type": "electric_bike", "name": "5a0bfd5d8443dc49a12dd68b0cfbc290"}, {"is_disabled": 0, "is_reserved": 0, "fusion_lat": 0.0, "lat": 38.865643666666664, "fusion_lon": 0.0, "rental_uris": {"ios": "https://dc.lft.to/lastmile_qr_scan", "android": "https://dc.lft.to/lastmile_qr_scan"}, "lon": -76.974665, "bike_id": "6909836d110ec1f12852a7bef7f3678f", "type": "electric_bike", "name": "6909836d110ec1f12852a7bef7f3678f"}, {"is_disabled": 0, "is_reserved": 0, "fusion_lat": 0.0, "lat": 38.9293815, "fusion_lon": 0.0, "rental_uris": {"ios": "https://dc.lft.to/lastmile_qr_scan", "android": "https://dc.lft.to/lastmile_qr_scan"}, "lon": -77.0549635, "bike_id": "e93df9f27d2ffda30a092d6981d8a22f", "type": "electric_scooter", "name": "e93df9f27d2ffda30a092d6981d8a22f"}, {"is_disabled": 0, "is_reserved": 0, "fusion_lat": 0.0, "lat": 38.8821995, "fusion_lon": 0.0, "rental_uris": {"ios": "https://dc.lft.to/lastmile_qr_scan", "android": "https://dc.lft.to/lastmile_qr_scan"}, "lon": -76.9973265, "bike_id": "e54833bf07377c086ae008efaaca0562", "type": "electric_scooter", "name": "e54833bf07377c086ae008efaaca0562"}, {"is_disabled": 0, "is_reserved": 0, "fusion_lat": 0.0, "lat": 38.85639233333333, "fusion_lon": 0.0, "rental_uris": {"ios": "https://dc.lft.to/lastmile_qr_scan", "android": "https://dc.lft.to/lastmile_qr_scan"}, "lon": -77.0683755, "bike_id": "6dcd0770f5e9906906ec7e2890a7a109", "type": "electric_bike", "name": "6dcd0770f5e9906906ec7e2890a7a109"}, {"is_disabled": 0, "is_reserved": 0, "fusion_lat": 0.0, "lat": 38.941315, "fusion_lon": 0.0, "rental_uris": {"ios": "https://dc.lft.to/lastmile_qr_scan", "android": "https://dc.lft.to/lastmile_qr_scan"}, "lon": -77.02319466666667, "bike_id": "ab5cacc8ddb033f9ed9467694f385175", "type": "electric_scooter", "name": "ab5cacc8ddb033f9ed9467694f385175"}, {"is_disabled": 0, "is_reserved": 0, "fusion_lat": 0.0, "lat": 38.92197616666667, "fusion_lon": 0.0, "rental_uris": {"ios": "https://dc.lft.to/lastmile_qr_scan", "android": "https://dc.lft.to/lastmile_qr_scan"}, "lon": -77.03774466666667, "bike_id": "d4742a79dcfd34e75781ceaeffc97063", "type": "electric_scooter", "name": "d4742a79dcfd34e75781ceaeffc97063"}, {"is_disabled": 0, "is_reserved": 0, "fusion_lat": 0.0, "lat": 38.92483583333333, "fusion_lon": 0.0, "rental_uris": {"ios": "https://dc.lft.to/lastmile_qr_scan", "android": "https://dc.lft.to/lastmile_qr_scan"}, "lon": -77.02661133333334, "bike_id": "2fb5348f508c91797c4f1e3024f4178e", "type": "electric_scooter", "name": "2fb5348f508c91797c4f1e3024f4178e"}, {"is_disabled": 0, "is_reserved": 0, "fusion_lat": 0.0, "lat": 38.93532, "fusion_lon": 0.0, "rental_uris": {"ios": "https://dc.lft.to/lastmile_qr_scan", "android": "https://dc.lft.to/lastmile_qr_scan"}, "lon": -77.02352866666666, "bike_id": "96827df38246558e6fd140ebef00c09c", "type": "electric_scooter", "name": "96827df38246558e6fd140ebef00c09c"}, {"is_disabled": 0, "is_reserved": 0, "fusion_lat": 0.0, "lat": 38.92820366666667, "fusion_lon": 0.0, "rental_uris": {"ios": "https://dc.lft.to/lastmile_qr_scan", "android": "https://dc.lft.to/lastmile_qr_scan"}, "lon": -77.043596, "bike_id": "8eb0a3afbef6646f8c88a731383ba492", "type": "electric_scooter", "name": "8eb0a3afbef6646f8c88a731383ba492"}, {"is_disabled": 0, "is_reserved": 0, "fusion_lat": 0.0, "lat": 38.92849183333333, "fusion_lon": 0.0, "rental_uris": {"ios": "https://dc.lft.to/lastmile_qr_scan", "android": "https://dc.lft.to/lastmile_qr_scan"}, "lon": -77.036187, "bike_id": "7091d1d875596d445eceb56e9ad11789", "type": "electric_scooter", "name": "7091d1d875596d445eceb56e9ad11789"}, {"is_disabled": 0, "is_reserved": 0, "fusion_lat": 0.0, "lat": 38.935550666666664, "fusion_lon": 0.0, "rental_uris": {"ios": "https://dc.lft.to/lastmile_qr_scan", "android": "https://dc.lft.to/lastmile_qr_scan"}, "lon": -77.07704166666667, "bike_id": "c70f1109dcc9f9000ee9ea92dc915e89", "type": "electric_scooter", "name": "c70f1109dcc9f9000ee9ea92dc915e89"}, {"is_disabled": 0, "is_reserved": 0, "fusion_lat": 0.0, "lat": 38.923832166666664, "fusion_lon": 0.0, "rental_uris": {"ios": "https://dc.lft.to/lastmile_qr_scan", "android": "https://dc.lft.to/lastmile_qr_scan"}, "lon": -77.04022483333334, "bike_id": "eaa826a40b993f34ab65c243e2917158", "type": "electric_scooter", "name": "eaa826a40b993f34ab65c243e2917158"}, {"is_disabled": 0, "is_reserved": 0, "fusion_lat": 0.0, "lat": 38.9224475, "fusion_lon": 0.0, "rental_uris": {"ios": "https://dc.lft.to/lastmile_qr_scan", "android": "https://dc.lft.to/lastmile_qr_scan"}, "lon": -77.03659483333334, "bike_id": "f98fc95c3fa727ae1f1383450cf242dc", "type": "electric_scooter", "name": "f98fc95c3fa727ae1f1383450cf242dc"}, {"is_disabled": 0, "is_reserved": 0, "fusion_lat": 0.0, "lat": 38.91679516666667, "fusion_lon": 0.0, "rental_uris": {"ios": "https://dc.lft.to/lastmile_qr_scan", "android": "https://dc.lft.to/lastmile_qr_scan"}, "lon": -77.02332916666667, "bike_id": "8367cda62be4ff68ac9cfb6658a763a1", "type": "electric_scooter", "name": "8367cda62be4ff68ac9cfb6658a763a1"}, {"is_disabled": 0, "is_reserved": 0, "fusion_lat": 0.0, "lat": 38.938581166666665, "fusion_lon": 0.0, "rental_uris": {"ios": "https://dc.lft.to/lastmile_qr_scan", "android": "https://dc.lft.to/lastmile_qr_scan"}, "lon": -76.99436666666666, "bike_id": "f599c2b0e49b57103b5785afac144342", "type": "electric_scooter", "name": "f599c2b0e49b57103b5785afac144342"}, {"is_disabled": 0, "is_reserved": 0, "fusion_lat": 0.0, "lat": 38.902365, "fusion_lon": 0.0, "rental_uris": {"ios": "https://dc.lft.to/lastmile_qr_scan", "android": "https://dc.lft.to/lastmile_qr_scan"}, "lon": -77.01438883333333, "bike_id": "2419424edec65f4ddfe392663cfafb58", "type": "electric_scooter", "name": "2419424edec65f4ddfe392663cfafb58"}, {"is_disabled": 0, "is_reserved": 0, "fusion_lat": 0.0, "lat": 38.87658733333333, "fusion_lon": 0.0, "rental_uris": {"ios": "https://dc.lft.to/lastmile_qr_scan", "android": "https://dc.lft.to/lastmile_qr_scan"}, "lon": -77.00200733333334, "bike_id": "1383e3a512601699694975ee6e6eed66", "type": "electric_scooter", "name": "1383e3a512601699694975ee6e6eed66"}, {"is_disabled": 0, "is_reserved": 0, "fusion_lat": 0.0, "lat": 38.928737, "fusion_lon": 0.0, "rental_uris": {"ios": "https://dc.lft.to/lastmile_qr_scan", "android": "https://dc.lft.to/lastmile_qr_scan"}, "lon": -77.0399695, "bike_id": "ae5b1133b482e5dac665b446179cfd11", "type": "electric_scooter", "name": "ae5b1133b482e5dac665b446179cfd11"}, {"is_disabled": 0, "is_reserved": 0, "fusion_lat": 0.0, "lat": 38.904981, "fusion_lon": 0.0, "rental_uris": {"ios": "https://dc.lft.to/lastmile_qr_scan", "android": "https://dc.lft.to/lastmile_qr_scan"}, "lon": -77.00907683333334, "bike_id": "08ec93e61a4bbccbf270a0be33125486", "type": "electric_scooter", "name": "08ec93e61a4bbccbf270a0be33125486"}, {"is_disabled": 0, "is_reserved": 0, "fusion_lat": 0.0, "lat": 38.922351166666665, "fusion_lon": 0.0, "rental_uris": {"ios": "https://dc.lft.to/lastmile_qr_scan", "android": "https://dc.lft.to/lastmile_qr_scan"}, "lon": -77.03519183333333, "bike_id": "e1c25fc7e39a4f17ed35696792ae6761", "type": "electric_scooter", "name": "e1c25fc7e39a4f17ed35696792ae6761"}, {"is_disabled": 0, "is_reserved": 0, "fusion_lat": 0.0, "lat": 38.933604833333334, "fusion_lon": 0.0, "rental_uris": {"ios": "https://dc.lft.to/lastmile_qr_scan", "android": "https://dc.lft.to/lastmile_qr_scan"}, "lon": -77.0284225, "bike_id": "460d69b2405f87b8567bb55789ddeeb2", "type": "electric_scooter", "name": "460d69b2405f87b8567bb55789ddeeb2"}, {"is_disabled": 0, "is_reserved": 0, "fusion_lat": 0.0, "lat": 38.904247, "fusion_lon": 0.0, "rental_uris": {"ios": "https://dc.lft.to/lastmile_qr_scan", "android": "https://dc.lft.to/lastmile_qr_scan"}, "lon": -77.06115983333333, "bike_id": "cd4b3989b3f97c3dd07ebd43fec4c4e8", "type": "electric_scooter", "name": "cd4b3989b3f97c3dd07ebd43fec4c4e8"}, {"is_disabled": 0, "is_reserved": 0, "fusion_lat": 0.0, "lat": 38.919484, "fusion_lon": 0.0, "rental_uris": {"ios": "https://dc.lft.to/lastmile_qr_scan", "android": "https://dc.lft.to/lastmile_qr_scan"}, "lon": -77.0230325, "bike_id": "2309d0be271ff877ae29590350ec445e", "type": "electric_scooter", "name": "2309d0be271ff877ae29590350ec445e"}, {"is_disabled": 0, "is_reserved": 0, "fusion_lat": 0.0, "lat": 38.908098833333334, "fusion_lon": 0.0, "rental_uris": {"ios": "https://dc.lft.to/lastmile_qr_scan", "android": "https://dc.lft.to/lastmile_qr_scan"}, "lon": -77.02531516666667, "bike_id": "78586ade5cb2965e26db96fbf0b17794", "type": "electric_scooter", "name": "78586ade5cb2965e26db96fbf0b17794"}, {"is_disabled": 0, "is_reserved": 0, "fusion_lat": 0.0, "lat": 38.94445366666667, "fusion_lon": 0.0, "rental_uris": {"ios": "https://dc.lft.to/lastmile_qr_scan", "android": "https://dc.lft.to/lastmile_qr_scan"}, "lon": -77.03282083333333, "bike_id": "c776c1464a1138b78768b7222dea7485", "type": "electric_scooter", "name": "c776c1464a1138b78768b7222dea7485"}, {"is_disabled": 0, "is_reserved": 0, "fusion_lat": 0.0, "lat": 38.9064665, "fusion_lon": 0.0, "rental_uris": {"ios": "https://dc.lft.to/lastmile_qr_scan", "android": "https://dc.lft.to/lastmile_qr_scan"}, "lon": -76.97938383333333, "bike_id": "58641b53c6db457167c064daa35c59e1", "type": "electric_scooter", "name": "58641b53c6db457167c064daa35c59e1"}, {"is_disabled": 0, "is_reserved": 0, "fusion_lat": 0.0, "lat": 38.897246, "fusion_lon": 0.0, "rental_uris": {"ios": "https://dc.lft.to/lastmile_qr_scan", "android": "https://dc.lft.to/lastmile_qr_scan"}, "lon": -77.02408683333333, "bike_id": "6f1bf13d63c5ed0beb79026e438a3dcc", "type": "electric_scooter", "name": "6f1bf13d63c5ed0beb79026e438a3dcc"}, {"is_disabled": 0, "is_reserved": 0, "fusion_lat": 0.0, "lat": 38.90391416666667, "fusion_lon": 0.0, "rental_uris": {"ios": "https://dc.lft.to/lastmile_qr_scan", "android": "https://dc.lft.to/lastmile_qr_scan"}, "lon": -77.0629635, "bike_id": "bc1cca123ae9189fb12657924ce37bc9", "type": "electric_scooter", "name": "bc1cca123ae9189fb12657924ce37bc9"}, {"is_disabled": 0, "is_reserved": 0, "fusion_lat": 0.0, "lat": 38.90960233333333, "fusion_lon": 0.0, "rental_uris": {"ios": "https://dc.lft.to/lastmile_qr_scan", "android": "https://dc.lft.to/lastmile_qr_scan"}, "lon": -77.02282416666667, "bike_id": "ded9aeaee2f31b71ed7f5137f92b4a46", "type": "electric_bike", "name": "ded9aeaee2f31b71ed7f5137f92b4a46"}, {"is_disabled": 0, "is_reserved": 0, "fusion_lat": 0.0, "lat": 38.930665833333336, "fusion_lon": 0.0, "rental_uris": {"ios": "https://dc.lft.to/lastmile_qr_scan", "android": "https://dc.lft.to/lastmile_qr_scan"}, "lon": -77.02347116666667, "bike_id": "b46b65a788852811aa3dfa72dc1e5432", "type": "electric_scooter", "name": "b46b65a788852811aa3dfa72dc1e5432"}, {"is_disabled": 0, "is_reserved": 0, "fusion_lat": 0.0, "lat": 38.885413, "fusion_lon": 0.0, "rental_uris": {"ios": "https://dc.lft.to/lastmile_qr_scan", "android": "https://dc.lft.to/lastmile_qr_scan"}, "lon": -76.97887266666666, "bike_id": "d7b1deebcac48e4189ab66468fcdb07d", "type": "electric_scooter", "name": "d7b1deebcac48e4189ab66468fcdb07d"}, {"is_disabled": 0, "is_reserved": 0, "fusion_lat": 0.0, "lat": 38.83410133333334, "fusion_lon": 0.0, "rental_uris": {"ios": "https://dc.lft.to/lastmile_qr_scan", "android": "https://dc.lft.to/lastmile_qr_scan"}, "lon": -77.04989266666666, "bike_id": "82de24cead3faa2b8f0bf8e2dd25ccd4", "type": "electric_bike", "name": "82de24cead3faa2b8f0bf8e2dd25ccd4"}, {"is_disabled": 0, "is_reserved": 0, "fusion_lat": 0.0, "lat": 38.96425333333333, "fusion_lon": 0.0, "rental_uris": {"ios": "https://dc.lft.to/lastmile_qr_scan", "android": "https://dc.lft.to/lastmile_qr_scan"}, "lon": -77.074251, "bike_id": "e4bc30fadeb59aa3b81ed3a5505808e8", "type": "electric_scooter", "name": "e4bc30fadeb59aa3b81ed3a5505808e8"}, {"is_disabled": 0, "is_reserved": 0, "fusion_lat": 0.0, "lat": 38.857116833333336, "fusion_lon": 0.0, "rental_uris": {"ios": "https://dc.lft.to/lastmile_qr_scan", "android": "https://dc.lft.to/lastmile_qr_scan"}, "lon": -76.98097666666666, "bike_id": "c1a18aae8284420a6f8f2c4e14642ba8", "type": "electric_scooter", "name": "c1a18aae8284420a6f8f2c4e14642ba8"}, {"is_disabled": 0, "is_reserved": 0, "fusion_lat": 0.0, "lat": 38.892214, "fusion_lon": 0.0, "rental_uris": {"ios": "https://dc.lft.to/lastmile_qr_scan", "android": "https://dc.lft.to/lastmile_qr_scan"}, "lon": -77.03323316666666, "bike_id": "a652b22e32262ceaa5fdd84d18e5342e", "type": "electric_bike", "name": "a652b22e32262ceaa5fdd84d18e5342e"}, {"is_disabled": 0, "is_reserved": 0, "fusion_lat": 0.0, "lat": 38.89869433333333, "fusion_lon": 0.0, "rental_uris": {"ios": "https://dc.lft.to/lastmile_qr_scan", "android": "https://dc.lft.to/lastmile_qr_scan"}, "lon": -76.9313725, "bike_id": "6d52aa3396778dad564a2302a64d5116", "type": "electric_scooter", "name": "6d52aa3396778dad564a2302a64d5116"}, {"is_disabled": 0, "is_reserved": 0, "fusion_lat": 0.0, "lat": 38.89602083333333, "fusion_lon": 0.0, "rental_uris": {"ios": "https://dc.lft.to/lastmile_qr_scan", "android": "https://dc.lft.to/lastmile_qr_scan"}, "lon": -77.00332116666667, "bike_id": "a42b7555f146fda7447e8e7a6313ca79", "type": "electric_scooter", "name": "a42b7555f146fda7447e8e7a6313ca79"}, {"is_disabled": 0, "is_reserved": 0, "fusion_lat": 0.0, "lat": 38.93739933333333, "fusion_lon": 0.0, "rental_uris": {"ios": "https://dc.lft.to/lastmile_qr_scan", "android": "https://dc.lft.to/lastmile_qr_scan"}, "lon": -77.0343565, "bike_id": "7e126d1373b247921ebdde07c06f10f1", "type": "electric_scooter", "name": "7e126d1373b247921ebdde07c06f10f1"}, {"is_disabled": 0, "is_reserved": 0, "fusion_lat": 0.0, "lat": 38.949189833333335, "fusion_lon": 0.0, "rental_uris": {"ios": "https://dc.lft.to/lastmile_qr_scan", "android": "https://dc.lft.to/lastmile_qr_scan"}, "lon": -77.02316733333333, "bike_id": "930395c36239d859499aad86681b0ea0", "type": "electric_scooter", "name": "930395c36239d859499aad86681b0ea0"}, {"is_disabled": 0, "is_reserved": 0, "fusion_lat": 0.0, "lat": 38.90533, "fusion_lon": 0.0, "rental_uris": {"ios": "https://dc.lft.to/lastmile_qr_scan", "android": "https://dc.lft.to/lastmile_qr_scan"}, "lon": -77.05009, "bike_id": "93d22cb891b58ebc71765800b146452d", "type": "electric_scooter", "name": "93d22cb891b58ebc71765800b146452d"}, {"is_disabled": 0, "is_reserved": 0, "fusion_lat": 0.0, "lat": 38.90256316666667, "fusion_lon": 0.0, "rental_uris": {"ios": "https://dc.lft.to/lastmile_qr_scan", "android": "https://dc.lft.to/lastmile_qr_scan"}, "lon": -77.039482, "bike_id": "a02d2602cd8992e4a410b85d6f3fe073", "type": "electric_scooter", "name": "a02d2602cd8992e4a410b85d6f3fe073"}, {"is_disabled": 0, "is_reserved": 0, "fusion_lat": 0.0, "lat": 38.91411266666667, "fusion_lon": 0.0, "rental_uris": {"ios": "https://dc.lft.to/lastmile_qr_scan", "android": "https://dc.lft.to/lastmile_qr_scan"}, "lon": -77.033034, "bike_id": "d777cc1e23e931a9fcf67b8480926b15", "type": "electric_scooter", "name": "d777cc1e23e931a9fcf67b8480926b15"}, {"is_disabled": 0, "is_reserved": 0, "fusion_lat": 0.0, "lat": 38.9563065, "fusion_lon": 0.0, "rental_uris": {"ios": "https://dc.lft.to/lastmile_qr_scan", "android": "https://dc.lft.to/lastmile_qr_scan"}, "lon": -77.03629316666667, "bike_id": "9c97589f1e66aef7ef1e3df90d94321b", "type": "electric_scooter", "name": "9c97589f1e66aef7ef1e3df90d94321b"}, {"is_disabled": 0, "is_reserved": 0, "fusion_lat": 0.0, "lat": 38.893331333333336, "fusion_lon": 0.0, "rental_uris": {"ios": "https://dc.lft.to/lastmile_qr_scan", "android": "https://dc.lft.to/lastmile_qr_scan"}, "lon": -76.92889766666667, "bike_id": "c749d5517509da66edba3d77cf39a461", "type": "electric_scooter", "name": "c749d5517509da66edba3d77cf39a461"}, {"is_disabled": 0, "is_reserved": 0, "fusion_lat": 0.0, "lat": 38.933666, "fusion_lon": 0.0, "rental_uris": {"ios": "https://dc.lft.to/lastmile_qr_scan", "android": "https://dc.lft.to/lastmile_qr_scan"}, "lon": -77.0388235, "bike_id": "9ec6a2e8d346955ed6ba56ae4da4472c", "type": "electric_scooter", "name": "9ec6a2e8d346955ed6ba56ae4da4472c"}, {"is_disabled": 0, "is_reserved": 0, "fusion_lat": 0.0, "lat": 38.929981166666664, "fusion_lon": 0.0, "rental_uris": {"ios": "https://dc.lft.to/lastmile_qr_scan", "android": "https://dc.lft.to/lastmile_qr_scan"}, "lon": -77.038008, "bike_id": "950e3012788cc74ab4192a8b6f95aa33", "type": "electric_scooter", "name": "950e3012788cc74ab4192a8b6f95aa33"}, {"is_disabled": 0, "is_reserved": 0, "fusion_lat": 0.0, "lat": 38.899240166666665, "fusion_lon": 0.0, "rental_uris": {"ios": "https://dc.lft.to/lastmile_qr_scan", "android": "https://dc.lft.to/lastmile_qr_scan"}, "lon": -77.00161266666667, "bike_id": "7ce028b5c7131a45944b06c2d625cffe", "type": "electric_bike", "name": "7ce028b5c7131a45944b06c2d625cffe"}, {"is_disabled": 0, "is_reserved": 0, "fusion_lat": 0.0, "lat": 38.909222166666666, "fusion_lon": 0.0, "rental_uris": {"ios": "https://dc.lft.to/lastmile_qr_scan", "android": "https://dc.lft.to/lastmile_qr_scan"}, "lon": -77.04576566666667, "bike_id": "5df126ee23ae75e98fa0db32d2a528e1", "type": "electric_scooter", "name": "5df126ee23ae75e98fa0db32d2a528e1"}, {"is_disabled": 0, "is_reserved": 0, "fusion_lat": 0.0, "lat": 38.916646, "fusion_lon": 0.0, "rental_uris": {"ios": "https://dc.lft.to/lastmile_qr_scan", "android": "https://dc.lft.to/lastmile_qr_scan"}, "lon": -77.000493, "bike_id": "90a9cb6cadc10fc6a00b1eefb7e58800", "type": "electric_scooter", "name": "90a9cb6cadc10fc6a00b1eefb7e58800"}, {"is_disabled": 0, "is_reserved": 0, "fusion_lat": 0.0, "lat": 38.89203166666667, "fusion_lon": 0.0, "rental_uris": {"ios": "https://dc.lft.to/lastmile_qr_scan", "android": "https://dc.lft.to/lastmile_qr_scan"}, "lon": -76.9292165, "bike_id": "4760f6ddde0787a7bffeec8896e5a86c", "type": "electric_scooter", "name": "4760f6ddde0787a7bffeec8896e5a86c"}, {"is_disabled": 0, "is_reserved": 0, "fusion_lat": 0.0, "lat": 38.893992, "fusion_lon": 0.0, "rental_uris": {"ios": "https://dc.lft.to/lastmile_qr_scan", "android": "https://dc.lft.to/lastmile_qr_scan"}, "lon": -77.02364133333333, "bike_id": "f15989cdc693e5757c7b21b6b576def2", "type": "electric_scooter", "name": "f15989cdc693e5757c7b21b6b576def2"}, {"is_disabled": 0, "is_reserved": 0, "fusion_lat": 0.0, "lat": 38.927118, "fusion_lon": 0.0, "rental_uris": {"ios": "https://dc.lft.to/lastmile_qr_scan", "android": "https://dc.lft.to/lastmile_qr_scan"}, "lon": -77.02093333333333, "bike_id": "976e92240051919516828ab363beb24b", "type": "electric_scooter", "name": "976e92240051919516828ab363beb24b"}, {"is_disabled": 0, "is_reserved": 0, "fusion_lat": 0.0, "lat": 38.876934, "fusion_lon": 0.0, "rental_uris": {"ios": "https://dc.lft.to/lastmile_qr_scan", "android": "https://dc.lft.to/lastmile_qr_scan"}, "lon": -76.99624933333334, "bike_id": "c309bfe06ee50dc07f7f5050367b300f", "type": "electric_scooter", "name": "c309bfe06ee50dc07f7f5050367b300f"}, {"is_disabled": 0, "is_reserved": 0, "fusion_lat": 0.0, "lat": 38.9224255, "fusion_lon": 0.0, "rental_uris": {"ios": "https://dc.lft.to/lastmile_qr_scan", "android": "https://dc.lft.to/lastmile_qr_scan"}, "lon": -77.03660966666666, "bike_id": "286dc839b545fad335e28123fd161027", "type": "electric_scooter", "name": "286dc839b545fad335e28123fd161027"}, {"is_disabled": 0, "is_reserved": 0, "fusion_lat": 0.0, "lat": 38.93863066666667, "fusion_lon": 0.0, "rental_uris": {"ios": "https://dc.lft.to/lastmile_qr_scan", "android": "https://dc.lft.to/lastmile_qr_scan"}, "lon": -77.03045983333334, "bike_id": "06b9dd854c89b1a9b66d7ef67b31df23", "type": "electric_scooter", "name": "06b9dd854c89b1a9b66d7ef67b31df23"}, {"is_disabled": 0, "is_reserved": 0, "fusion_lat": 0.0, "lat": 38.9470735, "fusion_lon": 0.0, "rental_uris": {"ios": "https://dc.lft.to/lastmile_qr_scan", "android": "https://dc.lft.to/lastmile_qr_scan"}, "lon": -77.0261265, "bike_id": "9b4ea74cd6e05eaed35579cb64585fde", "type": "electric_scooter", "name": "9b4ea74cd6e05eaed35579cb64585fde"}, {"is_disabled": 0, "is_reserved": 0, "fusion_lat": 0.0, "lat": 38.874440666666665, "fusion_lon": 0.0, "rental_uris": {"ios": "https://dc.lft.to/lastmile_qr_scan", "android": "https://dc.lft.to/lastmile_qr_scan"}, "lon": -77.00286766666666, "bike_id": "80c342937380c27b863021dbd5c9c6f4", "type": "electric_scooter", "name": "80c342937380c27b863021dbd5c9c6f4"}, {"is_disabled": 0, "is_reserved": 0, "fusion_lat": 0.0, "lat": 38.844756333333336, "fusion_lon": 0.0, "rental_uris": {"ios": "https://dc.lft.to/lastmile_qr_scan", "android": "https://dc.lft.to/lastmile_qr_scan"}, "lon": -76.99585616666667, "bike_id": "65b62f7db62f555f5481afc9e26536b3", "type": "electric_bike", "name": "65b62f7db62f555f5481afc9e26536b3"}, {"is_disabled": 0, "is_reserved": 0, "fusion_lat": 0.0, "lat": 38.91265, "fusion_lon": 0.0, "rental_uris": {"ios": "https://dc.lft.to/lastmile_qr_scan", "android": "https://dc.lft.to/lastmile_qr_scan"}, "lon": -77.01604733333333, "bike_id": "47191fe7143b816a5b190b8aad67bdaf", "type": "electric_scooter", "name": "47191fe7143b816a5b190b8aad67bdaf"}, {"is_disabled": 0, "is_reserved": 0, "fusion_lat": 0.0, "lat": 38.927586833333336, "fusion_lon": 0.0, "rental_uris": {"ios": "https://dc.lft.to/lastmile_qr_scan", "android": "https://dc.lft.to/lastmile_qr_scan"}, "lon": -77.0295515, "bike_id": "c06cbb10e0cc269445b9d44183a9abe8", "type": "electric_scooter", "name": "c06cbb10e0cc269445b9d44183a9abe8"}, {"is_disabled": 0, "is_reserved": 0, "fusion_lat": 0.0, "lat": 38.88044983333333, "fusion_lon": 0.0, "rental_uris": {"ios": "https://dc.lft.to/lastmile_qr_scan", "android": "https://dc.lft.to/lastmile_qr_scan"}, "lon": -76.927203, "bike_id": "a4f86d8e3e90e545429344086103bd74", "type": "electric_scooter", "name": "a4f86d8e3e90e545429344086103bd74"}, {"is_disabled": 0, "is_reserved": 0, "fusion_lat": 0.0, "lat": 38.89607383333333, "fusion_lon": 0.0, "rental_uris": {"ios": "https://dc.lft.to/lastmile_qr_scan", "android": "https://dc.lft.to/lastmile_qr_scan"}, "lon": -77.00331833333334, "bike_id": "101934d60a1c8ed680624fe7c51d7ab2", "type": "electric_scooter", "name": "101934d60a1c8ed680624fe7c51d7ab2"}, {"is_disabled": 0, "is_reserved": 0, "fusion_lat": 0.0, "lat": 38.82925216666667, "fusion_lon": 0.0, "rental_uris": {"ios": "https://dc.lft.to/lastmile_qr_scan", "android": "https://dc.lft.to/lastmile_qr_scan"}, "lon": -77.068751, "bike_id": "ffe9c886fab4dddc59f5232719a98f49", "type": "electric_bike", "name": "ffe9c886fab4dddc59f5232719a98f49"}, {"is_disabled": 0, "is_reserved": 0, "fusion_lat": 0.0, "lat": 38.919980833333334, "fusion_lon": 0.0, "rental_uris": {"ios": "https://dc.lft.to/lastmile_qr_scan", "android": "https://dc.lft.to/lastmile_qr_scan"}, "lon": -77.0314885, "bike_id": "e32c9c327f0d0e79e19ae8d50342807b", "type": "electric_scooter", "name": "e32c9c327f0d0e79e19ae8d50342807b"}, {"is_disabled": 0, "is_reserved": 0, "fusion_lat": 0.0, "lat": 38.928711166666666, "fusion_lon": 0.0, "rental_uris": {"ios": "https://dc.lft.to/lastmile_qr_scan", "android": "https://dc.lft.to/lastmile_qr_scan"}, "lon": -77.05654583333333, "bike_id": "eb9adf81c08e2e3d9f1a4918e7c5d099", "type": "electric_scooter", "name": "eb9adf81c08e2e3d9f1a4918e7c5d099"}, {"is_disabled": 0, "is_reserved": 0, "fusion_lat": 0.0, "lat": 38.92253766666666, "fusion_lon": 0.0, "rental_uris": {"ios": "https://dc.lft.to/lastmile_qr_scan", "android": "https://dc.lft.to/lastmile_qr_scan"}, "lon": -77.0727685, "bike_id": "1aa5743c89190d1d434014d86b29ae99", "type": "electric_scooter", "name": "1aa5743c89190d1d434014d86b29ae99"}, {"is_disabled": 0, "is_reserved": 0, "fusion_lat": 0.0, "lat": 38.8990995, "fusion_lon": 0.0, "rental_uris": {"ios": "https://dc.lft.to/lastmile_qr_scan", "android": "https://dc.lft.to/lastmile_qr_scan"}, "lon": -76.9338105, "bike_id": "da94b85199cacf316334d9e3cba33b65", "type": "electric_scooter", "name": "da94b85199cacf316334d9e3cba33b65"}, {"is_disabled": 0, "is_reserved": 0, "fusion_lat": 0.0, "lat": 38.89716, "fusion_lon": 0.0, "rental_uris": {"ios": "https://dc.lft.to/lastmile_qr_scan", "android": "https://dc.lft.to/lastmile_qr_scan"}, "lon": -77.04538666666667, "bike_id": "172f89c0c1f6101d36e7413b50fc808e", "type": "electric_scooter", "name": "172f89c0c1f6101d36e7413b50fc808e"}, {"is_disabled": 0, "is_reserved": 0, "fusion_lat": 0.0, "lat": 38.901552833333334, "fusion_lon": 0.0, "rental_uris": {"ios": "https://dc.lft.to/lastmile_qr_scan", "android": "https://dc.lft.to/lastmile_qr_scan"}, "lon": -77.02510116666667, "bike_id": "366b54afab55c084bfb75d1105ae85e7", "type": "electric_scooter", "name": "366b54afab55c084bfb75d1105ae85e7"}, {"is_disabled": 0, "is_reserved": 0, "fusion_lat": 0.0, "lat": 38.9297285, "fusion_lon": 0.0, "rental_uris": {"ios": "https://dc.lft.to/lastmile_qr_scan", "android": "https://dc.lft.to/lastmile_qr_scan"}, "lon": -77.029194, "bike_id": "f5dac481d372a19a2e35fe477a5d9f02", "type": "electric_scooter", "name": "f5dac481d372a19a2e35fe477a5d9f02"}, {"is_disabled": 0, "is_reserved": 0, "fusion_lat": 0.0, "lat": 38.97282966666667, "fusion_lon": 0.0, "rental_uris": {"ios": "https://dc.lft.to/lastmile_qr_scan", "android": "https://dc.lft.to/lastmile_qr_scan"}, "lon": -77.036228, "bike_id": "6d747bbefdeda228571cc04ea5c453c3", "type": "electric_bike", "name": "6d747bbefdeda228571cc04ea5c453c3"}, {"is_disabled": 0, "is_reserved": 0, "fusion_lat": 0.0, "lat": 38.926592, "fusion_lon": 0.0, "rental_uris": {"ios": "https://dc.lft.to/lastmile_qr_scan", "android": "https://dc.lft.to/lastmile_qr_scan"}, "lon": -76.993012, "bike_id": "e1ccb60e36ce9f534a5e04a0105acaf3", "type": "electric_scooter", "name": "e1ccb60e36ce9f534a5e04a0105acaf3"}, {"is_disabled": 0, "is_reserved": 0, "fusion_lat": 0.0, "lat": 38.952449666666666, "fusion_lon": 0.0, "rental_uris": {"ios": "https://dc.lft.to/lastmile_qr_scan", "android": "https://dc.lft.to/lastmile_qr_scan"}, "lon": -77.09625616666666, "bike_id": "804540fc1e55805b0b05f33352fef769", "type": "electric_bike", "name": "804540fc1e55805b0b05f33352fef769"}, {"is_disabled": 0, "is_reserved": 0, "fusion_lat": 0.0, "lat": 38.87906233333333, "fusion_lon": 0.0, "rental_uris": {"ios": "https://dc.lft.to/lastmile_qr_scan", "android": "https://dc.lft.to/lastmile_qr_scan"}, "lon": -76.99154616666667, "bike_id": "507190bd0ec018402b42eca57a78e0f3", "type": "electric_scooter", "name": "507190bd0ec018402b42eca57a78e0f3"}, {"is_disabled": 0, "is_reserved": 0, "fusion_lat": 0.0, "lat": 38.96157733333333, "fusion_lon": 0.0, "rental_uris": {"ios": "https://dc.lft.to/lastmile_qr_scan", "android": "https://dc.lft.to/lastmile_qr_scan"}, "lon": -77.0278945, "bike_id": "d869f5440f9a7ab738d11935b9fc034a", "type": "electric_scooter", "name": "d869f5440f9a7ab738d11935b9fc034a"},