{"data": {"bikes": [{"lon": -76.99949533333333, "lat": 38.842921, "name": "0778375be9e4fe8f9d5344d2412f0bfb", "fusion_lat": 0.0, "fusion_lon": 0.0, "rental_uris": {"android": "https://dc.lft.to/lastmile_qr_scan", "ios": "https://dc.lft.to/lastmile_qr_scan"}, "is_reserved": 0, "is_disabled": 0, "type": "electric_scooter", "bike_id": "0778375be9e4fe8f9d5344d2412f0bfb"}, {"lon": -77.02722933333334, "lat": 38.918171, "name": "c9258aedca896b7b680a51192bb19691", "fusion_lat": 0.0, "fusion_lon": 0.0, "rental_uris": {"android": "https://dc.lft.to/lastmile_qr_scan", "ios": "https://dc.lft.to/lastmile_qr_scan"}, "is_reserved": 0, "is_disabled": 0, "type": "electric_scooter", "bike_id": "c9258aedca896b7b680a51192bb19691"}, {"lon": -77.04382433333333, "lat": 38.92564566666667, "name": "1d8aad90d51e38d0ea90269b3f2cba0e", "fusion_lat": 0.0, "fusion_lon": 0.0, "rental_uris": {"android": "https://dc.lft.to/lastmile_qr_scan", "ios": "https://dc.lft.to/lastmile_qr_scan"}, "is_reserved": 0, "is_disabled": 0, "type": "electric_scooter", "bike_id": "1d8aad90d51e38d0ea90269b3f2cba0e"}, {"lon": -77.0002365, "lat": 38.919732833333335, "name": "f814f984408e092bc286d837586a52c8", "fusion_lat": 0.0, "fusion_lon": 0.0, "rental_uris": {"android": "https://dc.lft.to/lastmile_qr_scan", "ios": "https://dc.lft.to/lastmile_qr_scan"}, "is_reserved": 0, "is_disabled": 0, "type": "electric_scooter", "bike_id": "f814f984408e092bc286d837586a52c8"}, {"lon": -77.019375, "lat": 38.949251, "name": "7efe5f1d2293000054d9c41dea67823b", "fusion_lat": 0.0, "fusion_lon": 0.0, "rental_uris": {"android": "https://dc.lft.to/lastmile_qr_scan", "ios": "https://dc.lft.to/lastmile_qr_scan"}, "is_reserved": 0, "is_disabled": 0, "type": "electric_scooter", "bike_id": "7efe5f1d2293000054d9c41dea67823b"}, {"lon": -77.0189385, "lat": 38.8741275, "name": "65d356eb363be3bf69b9fce3b5bad5ad", "fusion_lat": 0.0, "fusion_lon": 0.0, "rental_uris": {"android": "https://dc.lft.to/lastmile_qr_scan", "ios": "https://dc.lft.to/lastmile_qr_scan"}, "is_reserved": 0, "is_disabled": 0, "type": "electric_scooter", "bike_id": "65d356eb363be3bf69b9fce3b5bad5ad"}, {"lon": -77.02244416666667, "lat": 38.91113933333333, "name": "a13ebc51b926cd21a90b8f68f98f2633", "fusion_lat": 0.0, "fusion_lon": 0.0, "rental_uris": {"android": "https://dc.lft.to/lastmile_qr_scan", "ios": "https://dc.lft.to/lastmile_qr_scan"}, "is_reserved": 0, "is_disabled": 0, "type": "electric_scooter", "bike_id": "a13ebc51b926cd21a90b8f68f98f2633"}, {"lon": -77.03218616666666, "lat": 38.9163865, "name": "9597c8fc94f0b9b554a8d1b8b53d30ed", "fusion_lat": 0.0, "fusion_lon": 0.0, "rental_uris": {"android": "https://dc.lft.to/lastmile_qr_scan", "ios": "https://dc.lft.to/lastmile_qr_scan"}, "is_reserved": 0, "is_disabled": 0, "type": "electric_scooter", "bike_id": "9597c8fc94f0b9b554a8d1b8b53d30ed"}, {"lon": -77.03330866666667, "lat": 38.89847066666667, "name": "95c05aa878539b6032d13b60a6ec186f", "fusion_lat": 0.0, "fusion_lon": 0.0, "rental_uris": {"android": "https://dc.lft.to/lastmile_qr_scan", "ios": "https://dc.lft.to/lastmile_qr_scan"}, "is_reserved": 0, "is_disabled": 0, "type": "electric_scooter", "bike_id": "95c05aa878539b6032d13b60a6ec186f"}, {"lon": -77.04485533333333, "lat": 38.91066716666667, "name": "253499f4a62c6194d3924356c5fad967", "fusion_lat": 0.0, "fusion_lon": 0.0, "rental_uris": {"android": "https://dc.lft.to/lastmile_qr_scan", "ios": "https://dc.lft.to/lastmile_qr_scan"}, "is_reserved": 0, "is_disabled": 0, "type": "electric_scooter", "bike_id": "253499f4a62c6194d3924356c5fad967"}, {"lon": -77.02439233333334, "lat": 38.9270135, "name": "d721abe052327030c38dbad9638a6f22", "fusion_lat": 0.0, "fusion_lon": 0.0, "rental_uris": {"android": "https://dc.lft.to/lastmile_qr_scan", "ios": "https://dc.lft.to/lastmile_qr_scan"}, "is_reserved": 0, "is_disabled": 0, "type": "electric_scooter", "bike_id": "d721abe052327030c38dbad9638a6f22"}, {"lon": -77.03786883333333, "lat": 38.91214083333333, "name": "31c097c4144b5f96544eba90344b54e7", "fusion_lat": 0.0, "fusion_lon": 0.0, "rental_uris": {"android": "https://dc.lft.to/lastmile_qr_scan", "ios": "https://dc.lft.to/lastmile_qr_scan"}, "is_reserved": 0, "is_disabled": 0, "type": "electric_scooter", "bike_id": "31c097c4144b5f96544eba90344b54e7"}, {"lon": -77.04503233333334, "lat": 38.90371483333333, "name": "b5201d2f4c1fd3936602255b02b29028", "fusion_lat": 0.0, "fusion_lon": 0.0, "rental_uris": {"android": "https://dc.lft.to/lastmile_qr_scan", "ios": "https://dc.lft.to/lastmile_qr_scan"}, "is_reserved": 0, "is_disabled": 0, "type": "electric_scooter", "bike_id": "b5201d2f4c1fd3936602255b02b29028"}, {"lon": -77.05121116666666, "lat": 38.905472333333336, "name": "c36c94de0ef55be86264d9f265d2420e", "fusion_lat": 0.0, "fusion_lon": 0.0, "rental_uris": {"android": "https://dc.lft.to/lastmile_qr_scan", "ios": "https://dc.lft.to/lastmile_qr_scan"}, "is_reserved": 0, "is_disabled": 0, "type": "electric_scooter", "bike_id": "c36c94de0ef55be86264d9f265d2420e"}, {"lon": -77.03246216666666, "lat": 38.905433333333335, "name": "9ea48f8653c417f7dd82b2afd253b064", "fusion_lat": 0.0, "fusion_lon": 0.0, "rental_uris": {"android": "https://dc.lft.to/lastmile_qr_scan", "ios": "https://dc.lft.to/lastmile_qr_scan"}, "is_reserved": 0, "is_disabled": 0, "type": "electric_scooter", "bike_id": "9ea48f8653c417f7dd82b2afd253b064"}, {"lon": -77.01754816666667, "lat": 38.902469333333336, "name": "de2c460092d614ded43bcc99823383cc", "fusion_lat": 0.0, "fusion_lon": 0.0, "rental_uris": {"android": "https://dc.lft.to/lastmile_qr_scan", "ios": "https://dc.lft.to/lastmile_qr_scan"}, "is_reserved": 0, "is_disabled": 0, "type": "electric_scooter", "bike_id": "de2c460092d614ded43bcc99823383cc"}, {"lon": -77.043988, "lat": 38.910809, "name": "6326b94ab6866dbebf0458644bb6e23c", "fusion_lat": 0.0, "fusion_lon": 0.0, "rental_uris": {"android": "https://dc.lft.to/lastmile_qr_scan", "ios": "https://dc.lft.to/lastmile_qr_scan"}, "is_reserved": 0, "is_disabled": 0, "type": "electric_scooter", "bike_id": "6326b94ab6866dbebf0458644bb6e23c"}, {"lon": -76.93715866666666, "lat": 38.895856333333334, "name": "5d1897517a1d7411046f49634ce48627", "fusion_lat": 0.0, "fusion_lon": 0.0, "rental_uris": {"android": "https://dc.lft.to/lastmile_qr_scan", "ios": "https://dc.lft.to/lastmile_qr_scan"}, "is_reserved": 0, "is_disabled": 0, "type": "electric_scooter", "bike_id": "5d1897517a1d7411046f49634ce48627"}, {"lon": -77.034547, "lat": 38.909447, "name": "ecf7e8ff29d31b96158955dbe471dbda", "fusion_lat": 0.0, "fusion_lon": 0.0, "rental_uris": {"android": "https://dc.lft.to/lastmile_qr_scan", "ios": "https://dc.lft.to/lastmile_qr_scan"}, "is_reserved": 0, "is_disabled": 0, "type": "electric_scooter", "bike_id": "ecf7e8ff29d31b96158955dbe471dbda"}, {"lon": -77.0403725, "lat": 38.900014166666665, "name": "cb997ebc3825c435e78203418ff6f6a2", "fusion_lat": 0.0, "fusion_lon": 0.0, "rental_uris": {"android": "https://dc.lft.to/lastmile_qr_scan", "ios": "https://dc.lft.to/lastmile_qr_scan"}, "is_reserved": 0, "is_disabled": 0, "type": "electric_scooter", "bike_id": "cb997ebc3825c435e78203418ff6f6a2"}, {"lon": -77.00805116666666, "lat": 38.916989666666666, "name": "cb8d40c4d683abf52e508ace7a55a5f1", "fusion_lat": 0.0, "fusion_lon": 0.0, "rental_uris": {"android": "https://dc.lft.to/lastmile_qr_scan", "ios": "https://dc.lft.to/lastmile_qr_scan"}, "is_reserved": 0, "is_disabled": 0, "type": "electric_scooter", "bike_id": "cb8d40c4d683abf52e508ace7a55a5f1"}, {"lon": -77.027435, "lat": 38.96715866666667, "name": "09c0d1741a9ad1f27224f8897ae02f27", "fusion_lat": 0.0, "fusion_lon": 0.0, "rental_uris": {"android": "https://dc.lft.to/lastmile_qr_scan", "ios": "https://dc.lft.to/lastmile_qr_scan"}, "is_reserved": 0, "is_disabled": 0, "type": "electric_scooter", "bike_id": "09c0d1741a9ad1f27224f8897ae02f27"}, {"lon": -77.03444416666666, "lat": 38.91806316666667, "name": "cc87c5c15bd5814c86ef8529df615e1a", "fusion_lat": 0.0, "fusion_lon": 0.0, "rental_uris": {"android": "https://dc.lft.to/lastmile_qr_scan", "ios": "https://dc.lft.to/lastmile_qr_scan"}, "is_reserved": 0, "is_disabled": 0, "type": "electric_scooter", "bike_id": "cc87c5c15bd5814c86ef8529df615e1a"}, {"lon": -77.07895783333333, "lat": 38.91923166666667, "name": "c824d3beddb798280951cc2e599140b8", "fusion_lat": 0.0, "fusion_lon": 0.0, "rental_uris": {"android": "https://dc.lft.to/lastmile_qr_scan", "ios": "https://dc.lft.to/lastmile_qr_scan"}, "is_reserved": 0, "is_disabled": 0, "type": "electric_scooter", "bike_id": "c824d3beddb798280951cc2e599140b8"}, {"lon": -77.038747, "lat": 38.917050833333334, "name": "3054f213b5164fa775af21c51233bd96", "fusion_lat": 0.0, "fusion_lon": 0.0, "rental_uris": {"android": "https://dc.lft.to/lastmile_qr_scan", "ios": "https://dc.lft.to/lastmile_qr_scan"}, "is_reserved": 0, "is_disabled": 0, "type": "electric_scooter", "bike_id": "3054f213b5164fa775af21c51233bd96"}, {"lon": -77.00530783333333, "lat": 38.91695433333334, "name": "b56d5b6867993d6d04878dad710b8cfb", "fusion_lat": 0.0, "fusion_lon": 0.0, "rental_uris": {"android": "https://dc.lft.to/lastmile_qr_scan", "ios": "https://dc.lft.to/lastmile_qr_scan"}, "is_reserved": 0, "is_disabled": 0, "type": "electric_scooter", "bike_id": "b56d5b6867993d6d04878dad710b8cfb"}, {"lon": -76.97619666666667, "lat": 38.895784666666664, "name": "270afb750dc14015f50ab168c3e99ff4", "fusion_lat": 0.0, "fusion_lon": 0.0, "rental_uris": {"android": "https://dc.lft.to/lastmile_qr_scan", "ios": "https://dc.lft.to/lastmile_qr_scan"}, "is_reserved": 0, "is_disabled": 0, "type": "electric_bike", "bike_id": "270afb750dc14015f50ab168c3e99ff4"}, {"lon": -77.03821383333333, "lat": 38.92538366666667, "name": "ec69f7f214ac7c7917e88fe0ae659198", "fusion_lat": 0.0, "fusion_lon": 0.0, "rental_uris": {"android": "https://dc.lft.to/lastmile_qr_scan", "ios": "https://dc.lft.to/lastmile_qr_scan"}, "is_reserved": 0, "is_disabled": 0, "type": "electric_scooter", "bike_id": "ec69f7f214ac7c7917e88fe0ae659198"}, {"lon": -77.04245416666667, "lat": 38.9243775, "name": "b7f33d4379eaa6eb7598c1db4e8173d0", "fusion_lat": 0.0, "fusion_lon": 0.0, "rental_uris": {"android": "https://dc.lft.to/lastmile_qr_scan", "ios": "https://dc.lft.to/lastmile_qr_scan"}, "is_reserved": 0, "is_disabled": 0, "type": "electric_scooter", "bike_id": "b7f33d4379eaa6eb7598c1db4e8173d0"}, {"lon": -77.034479, "lat": 38.903596666666665, "name": "b74440a7a9c650b3aee358e932fd3ae3", "fusion_lat": 0.0, "fusion_lon": 0.0, "rental_uris": {"android": "https://dc.lft.to/lastmile_qr_scan", "ios": "https://dc.lft.to/lastmile_qr_scan"}, "is_reserved": 0, "is_disabled": 0, "type": "electric_scooter", "bike_id": "b74440a7a9c650b3aee358e932fd3ae3"}, {"lon": -77.01747866666666, "lat": 38.876951166666665, "name": "4c624eefb058c2f4c57de37291ffe8ee", "fusion_lat": 0.0, "fusion_lon": 0.0, "rental_uris": {"android": "https://dc.lft.to/lastmile_qr_scan", "ios": "https://dc.lft.to/lastmile_qr_scan"}, "is_reserved": 0, "is_disabled": 0, "type": "electric_scooter", "bike_id": "4c624eefb058c2f4c57de37291ffe8ee"}, {"lon": -77.01863683333333, "lat": 38.892571333333336, "name": "a4d96bf89a5d7f43752a09a7fc8b3075", "fusion_lat": 0.0, "fusion_lon": 0.0, "rental_uris": {"android": "https://dc.lft.to/lastmile_qr_scan", "ios": "https://dc.lft.to/lastmile_qr_scan"}, "is_reserved": 0, "is_disabled": 0, "type": "electric_scooter", "bike_id": "a4d96bf89a5d7f43752a09a7fc8b3075"}, {"lon": -76.99185216666666, "lat": 38.905060166666665, "name": "e7f18a70b24f295dd6a899d463cdb8b5", "fusion_lat": 0.0, "fusion_lon": 0.0, "rental_uris": {"android": "https://dc.lft.to/lastmile_qr_scan", "ios": "https://dc.lft.to/lastmile_qr_scan"}, "is_reserved": 0, "is_disabled": 0, "type": "electric_scooter", "bike_id": "e7f18a70b24f295dd6a899d463cdb8b5"}, {"lon": -76.99751283333333, "lat": 38.90034683333333, "name": "4c15146bb23c2a0cd3e868058270fa38", "fusion_lat": 0.0, "fusion_lon": 0.0, "rental_uris": {"android": "https://dc.lft.to/lastmile_qr_scan", "ios": "https://dc.lft.to/lastmile_qr_scan"}, "is_reserved": 0, "is_disabled": 0, "type": "electric_scooter", "bike_id": "4c15146bb23c2a0cd3e868058270fa38"}, {"lon": -77.02976533333333, "lat": 38.90779766666667, "name": "9b9de82baac50435ffc6a3807aa32990", "fusion_lat": 0.0, "fusion_lon": 0.0, "rental_uris": {"android": "https://dc.lft.to/lastmile_qr_scan", "ios": "https://dc.lft.to/lastmile_qr_scan"}, "is_reserved": 0, "is_disabled": 0, "type": "electric_scooter", "bike_id": "9b9de82baac50435ffc6a3807aa32990"}, {"lon": -77.03728983333333, "lat": 38.91708333333333, "name": "4f7b81747122791e1cc23945b42bfe6d", "fusion_lat": 0.0, "fusion_lon": 0.0, "rental_uris": {"android": "https://dc.lft.to/lastmile_qr_scan", "ios": "https://dc.lft.to/lastmile_qr_scan"}, "is_reserved": 0, "is_disabled": 0, "type": "electric_scooter", "bike_id": "4f7b81747122791e1cc23945b42bfe6d"}, {"lon": -77.04999883333333, "lat": 38.8923105, "name": "d98f0953536927d826cbb156fefa6c14", "fusion_lat": 0.0, "fusion_lon": 0.0, "rental_uris": {"android": "https://dc.lft.to/lastmile_qr_scan", "ios": "https://dc.lft.to/lastmile_qr_scan"}, "is_reserved": 0, "is_disabled": 0, "type": "electric_scooter", "bike_id": "d98f0953536927d826cbb156fefa6c14"}, {"lon": -77.022659, "lat": 38.912606333333336, "name": "47bb42f28a81525b6b06e1b6dfe15c66", "fusion_lat": 0.0, "fusion_lon": 0.0, "rental_uris": {"android": "https://dc.lft.to/lastmile_qr_scan", "ios": "https://dc.lft.to/lastmile_qr_scan"}, "is_reserved": 0, "is_disabled": 0, "type": "electric_scooter", "bike_id": "47bb42f28a81525b6b06e1b6dfe15c66"}, {"lon": -76.99027, "lat": 38.85871816666667, "name": "757d2dd6400c851e672bd8a09b902d2a", "fusion_lat": 0.0, "fusion_lon": 0.0, "rental_uris": {"android": "https://dc.lft.to/lastmile_qr_scan", "ios": "https://dc.lft.to/lastmile_qr_scan"}, "is_reserved": 0, "is_disabled": 0, "type": "electric_scooter", "bike_id": "757d2dd6400c851e672bd8a09b902d2a"}, {"lon": -77.03158716666667, "lat": 38.90116483333333, "name": "0bc45e89caa046381551de3a6c7553ef", "fusion_lat": 0.0, "fusion_lon": 0.0, "rental_uris": {"android": "https://dc.lft.to/lastmile_qr_scan", "ios": "https://dc.lft.to/lastmile_qr_scan"}, "is_reserved": 0, "is_disabled": 0, "type": "electric_scooter", "bike_id": "0bc45e89caa046381551de3a6c7553ef"}, {"lon": -77.04862433333334, "lat": 38.9196535, "name": "6cb088b87fc9e688be5692ba7cf3defd", "fusion_lat": 0.0, "fusion_lon": 0.0, "rental_uris": {"android": "https://dc.lft.to/lastmile_qr_scan", "ios": "https://dc.lft.to/lastmile_qr_scan"}, "is_reserved": 0, "is_disabled": 0, "type": "electric_scooter", "bike_id": "6cb088b87fc9e688be5692ba7cf3defd"}, {"lon": -77.025437, "lat": 38.92066116666667, "name": "66b9b0f059dcd11cecd18dbfe7efd465", "fusion_lat": 0.0, "fusion_lon": 0.0, "rental_uris": {"android": "https://dc.lft.to/lastmile_qr_scan", "ios": "https://dc.lft.to/lastmile_qr_scan"}, "is_reserved": 0, "is_disabled": 0, "type": "electric_scooter", "bike_id": "66b9b0f059dcd11cecd18dbfe7efd465"}, {"lon": -77.02551616666666, "lat": 38.892247166666664, "name": "fa31ea7f68887eadcb61c9a1a1417065", "fusion_lat": 0.0, "fusion_lon": 0.0, "rental_uris": {"android": "https://dc.lft.to/lastmile_qr_scan", "ios": "https://dc.lft.to/lastmile_qr_scan"}, "is_reserved": 0, "is_disabled": 0, "type": "electric_scooter", "bike_id": "fa31ea7f68887eadcb61c9a1a1417065"}, {"lon": -77.03854466666667, "lat": 38.90806966666667, "name": "6cf717049978a5f290f56557b41f377a", "fusion_lat": 0.0, "fusion_lon": 0.0, "rental_uris": {"android": "https://dc.lft.to/lastmile_qr_scan", "ios": "https://dc.lft.to/lastmile_qr_scan"}, "is_reserved": 0, "is_disabled": 0, "type": "electric_scooter", "bike_id": "6cf717049978a5f290f56557b41f377a"}, {"lon": -76.99978883333333, "lat": 38.838388, "name": "8934c8789a0e02c8a9371aa5b2fe3b42", "fusion_lat": 0.0, "fusion_lon": 0.0, "rental_uris": {"android": "https://dc.lft.to/lastmile_qr_scan", "ios": "https://dc.lft.to/lastmile_qr_scan"}, "is_reserved": 0, "is_disabled": 0, "type": "electric_scooter", "bike_id": "8934c8789a0e02c8a9371aa5b2fe3b42"}, {"lon": -77.04506216666667, "lat": 38.9037575, "name": "b038dc15233dec1f216d360036ae7654", "fusion_lat": 0.0, "fusion_lon": 0.0, "rental_uris": {"android": "https://dc.lft.to/lastmile_qr_scan", "ios": "https://dc.lft.to/lastmile_qr_scan"}, "is_reserved": 0, "is_disabled": 0, "type": "electric_scooter", "bike_id": "b038dc15233dec1f216d360036ae7654"}, {"lon": -77.02292216666666, "lat": 38.90909166666667, "name": "9e9d9bec49bbf0ee84f5bd1fae0f0e59", "fusion_lat": 0.0, "fusion_lon": 0.0, "rental_uris": {"android": "https://dc.lft.to/lastmile_qr_scan", "ios": "https://dc.lft.to/lastmile_qr_scan"}, "is_reserved": 0, "is_disabled": 0, "type": "electric_scooter", "bike_id": "9e9d9bec49bbf0ee84f5bd1fae0f0e59"}, {"lon": -77.0390325, "lat": 38.92328333333333, "name": "1baea6e4d0c19dec8b0b4a60f78a8820", "fusion_lat": 0.0, "fusion_lon": 0.0, "rental_uris": {"android": "https://dc.lft.to/lastmile_qr_scan", "ios": "https://dc.lft.to/lastmile_qr_scan"}, "is_reserved": 0, "is_disabled": 0, "type": "electric_scooter", "bike_id": "1baea6e4d0c19dec8b0b4a60f78a8820"}, {"lon": -77.02312916666666, "lat": 38.917790833333335, "name": "e8f4cb51948c14bdb4d7d22d53a64da3", "fusion_lat": 0.0, "fusion_lon": 0.0, "rental_uris": {"android": "https://dc.lft.to/lastmile_qr_scan", "ios": "https://dc.lft.to/lastmile_qr_scan"}, "is_reserved": 0, "is_disabled": 0, "type": "electric_scooter", "bike_id": "e8f4cb51948c14bdb4d7d22d53a64da3"}, {"lon": -77.03925633333333, "lat": 38.911109333333336, "name": "549173b31a9981786e026bbec58d91cd", "fusion_lat": 0.0, "fusion_lon": 0.0, "rental_uris": {"android": "https://dc.lft.to/lastmile_qr_scan", "ios": "https://dc.lft.to/lastmile_qr_scan"}, "is_reserved": 0, "is_disabled": 0, "type": "electric_scooter", "bike_id": "549173b31a9981786e026bbec58d91cd"}, {"lon": -77.04281616666667, "lat": 38.9226355, "name": "bf53c240796ddf916052ac301f221a7a", "fusion_lat": 0.0, "fusion_lon": 0.0, "rental_uris": {"android": "https://dc.lft.to/lastmile_qr_scan", "ios": "https://dc.lft.to/lastmile_qr_scan"}, "is_reserved": 0, "is_disabled": 0, "type": "electric_scooter", "bike_id": "bf53c240796ddf916052ac301f221a7a"}, {"lon": -76.99006283333334, "lat": 38.865062, "name": "4e98f504ce339b246643164998ad9f85", "fusion_lat": 0.0, "fusion_lon": 0.0, "rental_uris": {"android": "https://dc.lft.to/lastmile_qr_scan", "ios": "https://dc.lft.to/lastmile_qr_scan"}, "is_reserved": 0, "is_disabled": 0, "type": "electric_scooter", "bike_id": "4e98f504ce339b246643164998ad9f85"}, {"lon": -77.04866916666667, "lat": 38.90171083333333, "name": "68f9e1f96b5e9ce65bf65560ff18473a", "fusion_lat": 0.0, "fusion_lon": 0.0, "rental_uris": {"android": "https://dc.lft.to/lastmile_qr_scan", "ios": "https://dc.lft.to/lastmile_qr_scan"}, "is_reserved": 0, "is_disabled": 0, "type": "electric_scooter", "bike_id": "68f9e1f96b5e9ce65bf65560ff18473a"}, {"lon": -76.99081183333334, "lat": 38.860463333333335, "name": "84f66c0ff66bb46e8c67f1070520ff39", "fusion_lat": 0.0, "fusion_lon": 0.0, "rental_uris": {"android": "https://dc.lft.to/lastmile_qr_scan", "ios": "https://dc.lft.to/lastmile_qr_scan"}, "is_reserved": 0, "is_disabled": 0, "type": "electric_scooter", "bike_id": "84f66c0ff66bb46e8c67f1070520ff39"}, {"lon": -77.02412183333334, "lat": 38.920855333333336, "name": "c166ccf3499e4cf89fb296951e7ac584", "fusion_lat": 0.0, "fusion_lon": 0.0, "rental_uris": {"android": "https://dc.lft.to/lastmile_qr_scan", "ios": "https://dc.lft.to/lastmile_qr_scan"}, "is_reserved": 0, "is_disabled": 0, "type": "electric_scooter", "bike_id": "c166ccf3499e4cf89fb296951e7ac584"}, {"lon": -77.03857233333333, "lat": 38.9116875, "name": "59b8954a2a7ffbe101706337de936e7d", "fusion_lat": 0.0, "fusion_lon": 0.0, "rental_uris": {"android": "https://dc.lft.to/lastmile_qr_scan", "ios": "https://dc.lft.to/lastmile_qr_scan"}, "is_reserved": 0, "is_disabled": 0, "type": "electric_scooter", "bike_id": "59b8954a2a7ffbe101706337de936e7d"}, {"lon": -77.062879, "lat": 38.90482, "name": "f55850537bc3e4eafd35ef4809fbe083", "fusion_lat": 0.0, "fusion_lon": 0.0, "rental_uris": {"android": "https://dc.lft.to/lastmile_qr_scan", "ios": "https://dc.lft.to/lastmile_qr_scan"}, "is_reserved": 0, "is_disabled": 0, "type": "electric_scooter", "bike_id": "f55850537bc3e4eafd35ef4809fbe083"}, {"lon": -77.00809366666667, "lat": 38.90561066666667, "name": "95b7e2a397b91888fea212666238db70", "fusion_lat": 0.0, "fusion_lon": 0.0, "rental_uris": {"android": "https://dc.lft.to/lastmile_qr_scan", "ios": "https://dc.lft.to/lastmile_qr_scan"}, "is_reserved": 0, "is_disabled": 0, "type": "electric_scooter", "bike_id": "95b7e2a397b91888fea212666238db70"}, {"lon": -77.041974, "lat": 38.91872266666667, "name": "870eaa18e92e052f5ab52c693986100f", "fusion_lat": 0.0, "fusion_lon": 0.0, "rental_uris": {"android": "https://dc.lft.to/lastmile_qr_scan", "ios": "https://dc.lft.to/lastmile_qr_scan"}, "is_reserved": 0, "is_disabled": 0, "type": "electric_scooter", "bike_id": "870eaa18e92e052f5ab52c693986100f"}, {"lon": -76.93179666666667, "lat": 38.898809, "name": "2816dc6b272f69f3c2d963787c5055d0", "fusion_lat": 0.0, "fusion_lon": 0.0, "rental_uris": {"android": "https://dc.lft.to/lastmile_qr_scan", "ios": "https://dc.lft.to/lastmile_qr_scan"}, "is_reserved": 0, "is_disabled": 0, "type": "electric_scooter", "bike_id": "2816dc6b272f69f3c2d963787c5055d0"}, {"lon": -77.03823183333333, "lat": 38.920649166666664, "name": "0d8a60df21d33aea6ec6f67a6337b76d", "fusion_lat": 0.0, "fusion_lon": 0.0, "rental_uris": {"android": "https://dc.lft.to/lastmile_qr_scan", "ios": "https://dc.lft.to/lastmile_qr_scan"}, "is_reserved": 0, "is_disabled": 0, "type": "electric_scooter", "bike_id": "0d8a60df21d33aea6ec6f67a6337b76d"}, {"lon": -77.02848216666666, "lat": 38.925701, "name": "ec9902f55e875277ea9ceca3309fc8e4", "fusion_lat": 0.0, "fusion_lon": 0.0, "rental_uris": {"android": "https://dc.lft.to/lastmile_qr_scan", "ios": "https://dc.lft.to/lastmile_qr_scan"}, "is_reserved": 0, "is_disabled": 0, "type": "electric_scooter", "bike_id": "ec9902f55e875277ea9ceca3309fc8e4"}, {"lon": -77.05157016666666, "lat": 38.90208616666666, "name": "bf1df4897ed535a736a9e56176667816", "fusion_lat": 0.0, "fusion_lon": 0.0, "rental_uris": {"android": "https://dc.lft.to/lastmile_qr_scan", "ios": "https://dc.lft.to/lastmile_qr_scan"}, "is_reserved": 0, "is_disabled": 0, "type": "electric_scooter", "bike_id": "bf1df4897ed535a736a9e56176667816"}, {"lon": -77.02292466666667, "lat": 38.956453333333336, "name": "0740e75dcb1b5d79de31b747b7beb1e3", "fusion_lat": 0.0, "fusion_lon": 0.0, "rental_uris": {"android": "https://dc.lft.to/lastmile_qr_scan", "ios": "https://dc.lft.to/lastmile_qr_scan"}, "is_reserved": 0, "is_disabled": 0, "type": "electric_scooter", "bike_id": "0740e75dcb1b5d79de31b747b7beb1e3"}, {"lon": -76.91925733333333, "lat": 38.8907905, "name": "7a0ee150307fa67f0dfa29412d8cd113", "fusion_lat": 0.0, "fusion_lon": 0.0, "rental_uris": {"android": "https://dc.lft.to/lastmile_qr_scan", "ios": "https://dc.lft.to/lastmile_qr_scan"}, "is_reserved": 0, "is_disabled": 0, "type": "electric_scooter", "bike_id": "7a0ee150307fa67f0dfa29412d8cd113"}, {"lon": -77.03747733333333, "lat": 38.935865166666666, "name": "8db520865b1f19a9f407110dc876b53a", "fusion_lat": 0.0, "fusion_lon": 0.0, "rental_uris": {"android": "https://dc.lft.to/lastmile_qr_scan", "ios": "https://dc.lft.to/lastmile_qr_scan"}, "is_reserved": 0, "is_disabled": 0, "type": "electric_scooter", "bike_id": "8db520865b1f19a9f407110dc876b53a"}, {"lon": -77.04508516666667, "lat": 38.9110975, "name": "647c2a14f0dac9629b610a6e9bdf3413", "fusion_lat": 0.0, "fusion_lon": 0.0, "rental_uris": {"android": "https://dc.lft.to/lastmile_qr_scan", "ios": "https://dc.lft.to/lastmile_qr_scan"}, "is_reserved": 0, "is_disabled": 0, "type": "electric_scooter", "bike_id": "647c2a14f0dac9629b610a6e9bdf3413"}, {"lon": -76.9958745, "lat": 38.955025166666665, "name": "014196bf2f8e89adc1ca03bb469690b7", "fusion_lat": 0.0, "fusion_lon": 0.0, "rental_uris": {"android": "https://dc.lft.to/lastmile_qr_scan", "ios": "https://dc.lft.to/lastmile_qr_scan"}, "is_reserved": 0, "is_disabled": 0, "type": "electric_scooter", "bike_id": "014196bf2f8e89adc1ca03bb469690b7"}, {"lon": -77.0276455, "lat": 38.91343833333333, "name": "f70f63f86da4ac1285da882feca54525", "fusion_lat": 0.0, "fusion_lon": 0.0, "rental_uris": {"android": "https://dc.lft.to/lastmile_qr_scan", "ios": "https://dc.lft.to/lastmile_qr_scan"}, "is_reserved": 0, "is_disabled": 0, "type": "electric_scooter", "bike_id": "f70f63f86da4ac1285da882feca54525"}, {"lon": -77.03274716666667, "lat": 38.9071205, "name": "5ac6887f8f2384e670aa4f7196dc9110", "fusion_lat": 0.0, "fusion_lon": 0.0, "rental_uris": {"android": "https://dc.lft.to/lastmile_qr_scan", "ios": "https://dc.lft.to/lastmile_qr_scan"}, "is_reserved": 0, "is_disabled": 0, "type": "electric_scooter", "bike_id": "5ac6887f8f2384e670aa4f7196dc9110"}, {"lon": -76.923731, "lat": 38.88373883333333, "name": "741936150849e52274324bc900a88f2b", "fusion_lat": 0.0, "fusion_lon": 0.0, "rental_uris": {"android": "https://dc.lft.to/lastmile_qr_scan", "ios": "https://dc.lft.to/lastmile_qr_scan"}, "is_reserved": 0, "is_disabled": 0, "type": "electric_bike", "bike_id": "741936150849e52274324bc900a88f2b"}, {"lon": -77.02363416666667, "lat": 38.92057916666667, "name": "a44439ae136c6491ed8cb08e28c7e5a0", "fusion_lat": 0.0, "fusion_lon": 0.0, "rental_uris": {"android": "https://dc.lft.to/lastmile_qr_scan", "ios": "https://dc.lft.to/lastmile_qr_scan"}, "is_reserved": 0, "is_disabled": 0, "type": "electric_scooter", "bike_id": "a44439ae136c6491ed8cb08e28c7e5a0"}, {"lon": -76.9958005, "lat": 38.900297333333334, "name": "d66155e2577f0cd4b4fea4a691c33b55", "fusion_lat": 0.0, "fusion_lon": 0.0, "rental_uris": {"android": "https://dc.lft.to/lastmile_qr_scan", "ios": "https://dc.lft.to/lastmile_qr_scan"}, "is_reserved": 0, "is_disabled": 0, "type": "electric_scooter", "bike_id": "d66155e2577f0cd4b4fea4a691c33b55"}, {"lon": -77.07489216666667, "lat": 38.906651333333336, "name": "9467932f5391be065807e5c6c872b792", "fusion_lat": 0.0, "fusion_lon": 0.0, "rental_uris": {"android": "https://dc.lft.to/lastmile_qr_scan", "ios": "https://dc.lft.to/lastmile_qr_scan"}, "is_reserved": 0, "is_disabled": 0, "type": "electric_scooter", "bike_id": "9467932f5391be065807e5c6c872b792"}, {"lon": -77.04792816666667, "lat": 38.893704, "name": "383c4700ab32f0fef9c53b45d41af15e", "fusion_lat": 0.0, "fusion_lon": 0.0, "rental_uris": {"android": "https://dc.lft.to/lastmile_qr_scan", "ios": "https://dc.lft.to/lastmile_qr_scan"}, "is_reserved": 0, "is_disabled": 0, "type": "electric_scooter", "bike_id": "383c4700ab32f0fef9c53b45d41af15e"}, {"lon": -77.03215766666666, "lat": 38.894028166666665, "name": "83c701b22573a098628c79da964b245a", "fusion_lat": 0.0, "fusion_lon": 0.0, "rental_uris": {"android": "https://dc.lft.to/lastmile_qr_scan", "ios": "https://dc.lft.to/lastmile_qr_scan"}, "is_reserved": 0, "is_disabled": 0, "type": "electric_scooter", "bike_id": "83c701b22573a098628c79da964b245a"}, {"lon": -77.03658883333334, "lat": 38.922949833333334, "name": "66def2d9dff2a424f3bf251a26bc1500", "fusion_lat": 0.0, "fusion_lon": 0.0, "rental_uris": {"android": "https://dc.lft.to/lastmile_qr_scan", "ios": "https://dc.lft.to/lastmile_qr_scan"}, "is_reserved": 0, "is_disabled": 0, "type": "electric_scooter", "bike_id": "66def2d9dff2a424f3bf251a26bc1500"}, {"lon": -77.0329465, "lat": 38.95636783333333, "name": "c18265db17cc411729ff4ace74d40312", "fusion_lat": 0.0, "fusion_lon": 0.0, "rental_uris": {"android": "https://dc.lft.to/lastmile_qr_scan", "ios": "https://dc.lft.to/lastmile_qr_scan"}, "is_reserved": 0, "is_disabled": 0, "type": "electric_scooter", "bike_id": "c18265db17cc411729ff4ace74d40312"}, {"lon": -77.022392, "lat": 38.91114133333333, "name": "5d45371ad4fca4d4e8b817bb8d11427d", "fusion_lat": 0.0, "fusion_lon": 0.0, "rental_uris": {"android": "https://dc.lft.to/lastmile_qr_scan", "ios": "https://dc.lft.to/lastmile_qr_scan"}, "is_reserved": 0, "is_disabled": 0, "type": "electric_scooter", "bike_id": "5d45371ad4fca4d4e8b817bb8d11427d"}, {"lon": -77.032567, "lat": 38.959374, "name": "8afe7d2c2bc8fce89b61e0d007c302bc", "fusion_lat": 0.0, "fusion_lon": 0.0, "rental_uris": {"android": "https://dc.lft.to/lastmile_qr_scan", "ios": "https://dc.lft.to/lastmile_qr_scan"}, "is_reserved": 0, "is_disabled": 0, "type": "electric_scooter", "bike_id": "8afe7d2c2bc8fce89b61e0d007c302bc"}, {"lon": -77.04265616666666, "lat": 38.9169755, "name": "8bbc65abc26fd71e40396ae95b70d98c", "fusion_lat": 0.0, "fusion_lon": 0.0, "rental_uris": {"android": "https://dc.lft.to/lastmile_qr_scan", "ios": "https://dc.lft.to/lastmile_qr_scan"}, "is_reserved": 0, "is_disabled": 0, "type": "electric_scooter", "bike_id": "8bbc65abc26fd71e40396ae95b70d98c"}, {"lon": -77.02837016666666, "lat": 38.887662666666664, "name": "6fc3348d49fa04ae03cecd65c752b011", "fusion_lat": 0.0, "fusion_lon": 0.0, "rental_uris": {"android": "https://dc.lft.to/lastmile_qr_scan", "ios": "https://dc.lft.to/lastmile_qr_scan"}, "is_reserved": 0, "is_disabled": 0, "type": "electric_scooter", "bike_id": "6fc3348d49fa04ae03cecd65c752b011"}, {"lon": -77.0143195, "lat": 38.929888166666665, "name": "147b7545eaac09315f8014933ad94a05", "fusion_lat": 0.0, "fusion_lon": 0.0, "rental_uris": {"android": "https://dc.lft.to/lastmile_qr_scan", "ios": "https://dc.lft.to/lastmile_qr_scan"}, "is_reserved": 0, "is_disabled": 0, "type": "electric_scooter", "bike_id": "147b7545eaac09315f8014933ad94a05"}, {"lon": -77.0564295, "lat": 38.92416083333333, "name": "8a76f181f60ca2fd27a3c0099eaf3557", "fusion_lat": 0.0, "fusion_lon": 0.0, "rental_uris": {"android": "https://dc.lft.to/lastmile_qr_scan", "ios": "https://dc.lft.to/lastmile_qr_scan"}, "is_reserved": 0, "is_disabled": 0, "type": "electric_scooter", "bike_id": "8a76f181f60ca2fd27a3c0099eaf3557"}, {"lon": -77.03516133333333, "lat": 38.921420166666664, "name": "a522a1d5636111045b06f5a8894769f2", "fusion_lat": 0.0, "fusion_lon": 0.0, "rental_uris": {"android": "https://dc.lft.to/lastmile_qr_scan", "ios": "https://dc.lft.to/lastmile_qr_scan"}, "is_reserved": 0, "is_disabled": 0, "type": "electric_scooter", "bike_id": "a522a1d5636111045b06f5a8894769f2"}, {"lon": -77.03270316666666, "lat": 38.93817683333333, "name": "e149f478afba73b523e5afcf8ddda0bd", "fusion_lat": 0.0, "fusion_lon": 0.0, "rental_uris": {"android": "https://dc.lft.to/lastmile_qr_scan", "ios": "https://dc.lft.to/lastmile_qr_scan"}, "is_reserved": 0, "is_disabled": 0, "type": "electric_scooter", "bike_id": "e149f478afba73b523e5afcf8ddda0bd"}, {"lon": -77.029567, "lat": 38.8975075, "name": "be487078cfadc69cceffdac7b562298c", "fusion_lat": 0.0, "fusion_lon": 0.0, "rental_uris": {"android": "https://dc.lft.to/lastmile_qr_scan", "ios": "https://dc.lft.to/lastmile_qr_scan"}, "is_reserved": 0, "is_disabled": 0, "type": "electric_scooter", "bike_id": "be487078cfadc69cceffdac7b562298c"}, {"lon": -77.02696083333333, "lat": 38.91271416666667, "name": "8c56c1b1e5eb7b2484683d8f8de67d84", "fusion_lat": 0.0, "fusion_lon": 0.0, "rental_uris": {"android": "https://dc.lft.to/lastmile_qr_scan", "ios": "https://dc.lft.to/lastmile_qr_scan"}, "is_reserved": 0, "is_disabled": 0, "type": "electric_scooter", "bike_id": "8c56c1b1e5eb7b2484683d8f8de67d84"}, {"lon": -77.09201366666667, "lat": 38.917114, "name": "febad24e65e1e88f75ba17d85b2ab368", "fusion_lat": 0.0, "fusion_lon": 0.0, "rental_uris": {"android": "https://dc.lft.to/lastmile_qr_scan", "ios": "https://dc.lft.to/lastmile_qr_scan"}, "is_reserved": 0, "is_disabled": 0, "type": "electric_scooter", "bike_id": "febad24e65e1e88f75ba17d85b2ab368"}, {"lon": -77.04487633333333, "lat": 38.911635, "name": "4465966b8861be77252c2ebdee88b8fe", "fusion_lat": 0.0, "fusion_lon": 0.0, "rental_uris": {"android": "https://dc.lft.to/lastmile_qr_scan", "ios": "https://dc.lft.to/lastmile_qr_scan"}, "is_reserved": 0, "is_disabled": 0, "type": "electric_scooter", "bike_id": "4465966b8861be77252c2ebdee88b8fe"}, {"lon": -76.94849733333334, "lat": 38.894805833333336, "name": "daf80a75c78ae85994fac09a58289ac7", "fusion_lat": 0.0, "fusion_lon": 0.0, "rental_uris": {"android": "https://dc.lft.to/lastmile_qr_scan", "ios": "https://dc.lft.to/lastmile_qr_scan"}, "is_reserved": 0, "is_disabled": 0, "type": "electric_scooter", "bike_id": "daf80a75c78ae85994fac09a58289ac7"}, {"lon": -77.03185383333333, "lat": 38.9159915, "name": "f4fea5add96c1787d2a3d1f732debc55", "fusion_lat": 0.0, "fusion_lon": 0.0, "rental_uris": {"android": "https://dc.lft.to/lastmile_qr_scan", "ios": "https://dc.lft.to/lastmile_qr_scan"}, "is_reserved": 0, "is_disabled": 0, "type": "electric_scooter", "bike_id": "f4fea5add96c1787d2a3d1f732debc55"}, {"lon": -77.0227185, "lat": 38.89368116666667, "name": "0c18adcec2b06e638afa8e96a322be7a", "fusion_lat": 0.0, "fusion_lon": 0.0, "rental_uris": {"android": "https://dc.lft.to/lastmile_qr_scan", "ios": "https://dc.lft.to/lastmile_qr_scan"}, "is_reserved": 0, "is_disabled": 0, "type": "electric_scooter", "bike_id": "0c18adcec2b06e638afa8e96a322be7a"}, {"lon": -77.02548183333333, "lat": 38.8922705, "name": "03c7a6ada410f3cc501fc3b674ddb1ea", "fusion_lat": 0.0, "fusion_lon": 0.0, "rental_uris": {"android": "https://dc.lft.to/lastmile_qr_scan", "ios": "https://dc.lft.to/lastmile_qr_scan"}, "is_reserved": 0, "is_disabled": 0, "type": "electric_scooter", "bike_id": "03c7a6ada410f3cc501fc3b674ddb1ea"}, {"lon": -77.012933, "lat": 39.00381633333333, "name": "c8150467d6d6338dd903c2a54469651c", "fusion_lat": 0.0, "fusion_lon": 0.0, "rental_uris": {"android": "https://dc.lft.to/lastmile_qr_scan", "ios": "https://dc.lft.to/lastmile_qr_scan"}, "is_reserved": 0, "is_disabled": 0, "type": "electric_bike", "bike_id": "c8150467d6d6338dd903c2a54469651c"}, {"lon": -77.01126533333333, "lat": 38.90366183333333, "name": "2f67c5a7719238ac607442abae5d651b", "fusion_lat": 0.0, "fusion_lon": 0.0, "rental_uris": {"android": "https://dc.lft.to/lastmile_qr_scan", "ios": "https://dc.lft.to/lastmile_qr_scan"}, "is_reserved": 0, "is_disabled": 0, "type": "electric_scooter", "bike_id": "2f67c5a7719238ac607442abae5d651b"}, {"lon": -77.08935683333333, "lat": 38.840905666666664, "name": "f633d5b2c11dafc01bb72049907145a5", "fusion_lat": 0.0, "fusion_lon": 0.0, "rental_uris": {"android": "https://dc.lft.to/lastmile_qr_scan", "ios": "https://dc.lft.to/lastmile_qr_scan"}, "is_reserved": 0, "is_disabled": 0, "type": "electric_bike", "bike_id": "f633d5b2c11dafc01bb72049907145a5"}, {"lon": -77.04515633333334, "lat": 38.886061166666664, "name": "f9b06dde0101b445b7ad2b8b01eccdf6", "fusion_lat": 0.0, "fusion_lon": 0.0, "rental_uris": {"android": "https://dc.lft.to/lastmile_qr_scan", "ios": "https://dc.lft.to/lastmile_qr_scan"}, "is_reserved": 0, "is_disabled": 0, "type": "electric_scooter", "bike_id": "f9b06dde0101b445b7ad2b8b01eccdf6"}, {"lon": -77.00063283333333, "lat": 38.88897733333334, "name": "ea66fdaca58b86201f3788c144c40f88", "fusion_lat": 0.0, "fusion_lon": 0.0, "rental_uris": {"android": "https://dc.lft.to/lastmile_qr_scan", "ios": "https://dc.lft.to/lastmile_qr_scan"}, "is_reserved": 0, "is_disabled": 0, "type": "electric_scooter", "bike_id": "ea66fdaca58b86201f3788c144c40f88"}, {"lon": -77.02784116666666, "lat": 38.918135666666664, "name": "e7b658f4e762942f819c8b4242e7e4e6", "fusion_lat": 0.0, "fusion_lon": 0.0, "rental_uris": {"android": "https://dc.lft.to/lastmile_qr_scan", "ios": "https://dc.lft.to/lastmile_qr_scan"}, "is_reserved": 0, "is_disabled": 0, "type": "electric_scooter", "bike_id": "e7b658f4e762942f819c8b4242e7e4e6"}, {"lon": -77.02984833333333, "lat": 38.8956835, "name": "e278d0351f98ef274bb2840e56210119", "fusion_lat": 0.0, "fusion_lon": 0.0, "rental_uris": {"android": "https://dc.lft.to/lastmile_qr_scan", "ios": "https://dc.lft.to/lastmile_qr_scan"}, "is_reserved": 0, "is_disabled": 0, "type": "electric_scooter", "bike_id": "e278d0351f98ef274bb2840e56210119"}, {"lon": -77.1142995, "lat": 38.8426835, "name": "a23ce8528dc85b297101486061631ee6", "fusion_lat": 0.0, "fusion_lon": 0.0, "rental_uris": {"android": "https://dc.lft.to/lastmile_qr_scan", "ios": "https://dc.lft.to/lastmile_qr_scan"}, "is_reserved": 0, "is_disabled": 0, "type": "electric_bike", "bike_id": "a23ce8528dc85b297101486061631ee6"}, {"lon": -77.05095433333334, "lat": 38.8132985, "name": "00ad9bb2115957b246bdd76de2dabe8c", "fusion_lat": 0.0, "fusion_lon": 0.0, "rental_uris": {"android": "https://dc.lft.to/lastmile_qr_scan", "ios": "https://dc.lft.to/lastmile_qr_scan"}, "is_reserved": 0, "is_disabled": 0, "type": "electric_bike", "bike_id": "00ad9bb2115957b246bdd76de2dabe8c"}, {"lon": -77.0135825, "lat": 38.9141405, "name": "32a1bf958752e3d5ab56931d82465f49", "fusion_lat": 0.0, "fusion_lon": 0.0, "rental_uris": {"android": "https://dc.lft.to/lastmile_qr_scan", "ios": "https://dc.lft.to/lastmile_qr_scan"}, "is_reserved": 0, "is_disabled": 0, "type": "electric_scooter", "bike_id": "32a1bf958752e3d5ab56931d82465f49"}, {"lon": -77.03703666666667, "lat": 38.916623333333334, "name": "84be0516ab6602ed18dd26f4d234c1a7", "fusion_lat": 0.0, "fusion_lon": 0.0, "rental_uris": {"android": "https://dc.lft.to/lastmile_qr_scan", "ios": "https://dc.lft.to/lastmile_qr_scan"}, "is_reserved": 0, "is_disabled": 0, "type": "electric_scooter", "bike_id": "84be0516ab6602ed18dd26f4d234c1a7"}, {"lon": -77.02905283333334, "lat": 38.88420583333333, "name": "02fa91e79b4136105c614995dbb5df29", "fusion_lat": 0.0, "fusion_lon": 0.0, "rental_uris": {"android": "https://dc.lft.to/lastmile_qr_scan", "ios": "https://dc.lft.to/lastmile_qr_scan"}, "is_reserved": 0, "is_disabled": 0, "type": "electric_scooter", "bike_id": "02fa91e79b4136105c614995dbb5df29"}, {"lon": -77.00097866666667, "lat": 38.87371816666667, "name": "c9ef8d8e7b107c3acd5b171efb804588", "fusion_lat": 0.0, "fusion_lon": 0.0, "rental_uris": {"android": "https://dc.lft.to/lastmile_qr_scan", "ios": "https://dc.lft.to/lastmile_qr_scan"}, "is_reserved": 0, "is_disabled": 0, "type": "electric_scooter", "bike_id": "c9ef8d8e7b107c3acd5b171efb804588"}, {"lon": -77.02184366666667, "lat": 38.91003516666667, "name": "b5c047e7bd7008bce277f5f06e82f1bc", "fusion_lat": 0.0, "fusion_lon": 0.0, "rental_uris": {"android": "https://dc.lft.to/lastmile_qr_scan", "ios": "https://dc.lft.to/lastmile_qr_scan"}, "is_reserved": 0, "is_disabled": 0, "type": "electric_scooter", "bike_id": "b5c047e7bd7008bce277f5f06e82f1bc"}, {"lon": -77.0790145, "lat": 38.839368, "name": "9a7c85be4088e9ea5c9d15f8c8a0a24e", "fusion_lat": 0.0, "fusion_lon": 0.0, "rental_uris": {"android": "https://dc.lft.to/lastmile_qr_scan", "ios": "https://dc.lft.to/lastmile_qr_scan"}, "is_reserved": 0, "is_disabled": 0, "type": "electric_bike", "bike_id": "9a7c85be4088e9ea5c9d15f8c8a0a24e"}, {"lon": -77.01535016666666, "lat": 38.88739266666666, "name": "c5eb895cb28f4870c7f2bd02eb004ce5", "fusion_lat": 0.0, "fusion_lon": 0.0, "rental_uris": {"android": "https://dc.lft.to/lastmile_qr_scan", "ios": "https://dc.lft.to/lastmile_qr_scan"}, "is_reserved": 0, "is_disabled": 0, "type": "electric_scooter", "bike_id": "c5eb895cb28f4870c7f2bd02eb004ce5"}, {"lon": -77.0221545, "lat": 38.887666833333334, "name": "2621106b7ec4f31ddd705038b7736338", "fusion_lat": 0.0, "fusion_lon": 0.0, "rental_uris": {"android": "https://dc.lft.to/lastmile_qr_scan", "ios": "https://dc.lft.to/lastmile_qr_scan"}, "is_reserved": 0, "is_disabled": 0, "type": "electric_scooter", "bike_id": "2621106b7ec4f31ddd705038b7736338"}, {"lon": -76.98414133333333, "lat": 38.85969166666667, "name": "870b6487748637cb8b66901055a92b44", "fusion_lat": 0.0, "fusion_lon": 0.0, "rental_uris": {"android": "https://dc.lft.to/lastmile_qr_scan", "ios": "https://dc.lft.to/lastmile_qr_scan"}, "is_reserved": 0, "is_disabled": 0, "type": "electric_scooter", "bike_id": "870b6487748637cb8b66901055a92b44"}, {"lon": -77.1051105, "lat": 38.92846733333333, "name": "cd6bddec96a1e9e2af9a186c79606ecc", "fusion_lat": 0.0, "fusion_lon": 0.0, "rental_uris": {"android": "https://dc.lft.to/lastmile_qr_scan", "ios": "https://dc.lft.to/lastmile_qr_scan"}, "is_reserved": 0, "is_disabled": 0, "type": "electric_bike", "bike_id": "cd6bddec96a1e9e2af9a186c79606ecc"}, {"lon": -77.02820116666666, "lat": 38.90264583333333, "name": "ae3b6bbbce756712117c7f4cdb06e45a", "fusion_lat": 0.0, "fusion_lon": 0.0, "rental_uris": {"android": "https://dc.lft.to/lastmile_qr_scan", "ios": "https://dc.lft.to/lastmile_qr_scan"}, "is_reserved": 0, "is_disabled": 0, "type": "electric_scooter", "bike_id": "ae3b6bbbce756712117c7f4cdb06e45a"}, {"lon": -77.00274833333333, "lat": 38.89740366666667, "name": "8dace7b06a6eccc849cd4127fdf48d67", "fusion_lat": 0.0, "fusion_lon": 0.0, "rental_uris": {"android": "https://dc.lft.to/lastmile_qr_scan", "ios": "https://dc.lft.to/lastmile_qr_scan"}, "is_reserved": 0, "is_disabled": 0, "type": "electric_scooter", "bike_id": "8dace7b06a6eccc849cd4127fdf48d67"}, {"lon": -77.04515766666667, "lat": 38.90780183333333, "name": "97aad2c9447ebf22a54aac14f6d61af9", "fusion_lat": 0.0, "fusion_lon": 0.0, "rental_uris": {"android": "https://dc.lft.to/lastmile_qr_scan", "ios": "https://dc.lft.to/lastmile_qr_scan"}, "is_reserved": 0, "is_disabled": 0, "type": "electric_scooter", "bike_id": "97aad2c9447ebf22a54aac14f6d61af9"}, {"lon": -77.02880783333333, "lat": 38.950788833333334, "name": "469bfc8a75b0feb566e057d5180d746f", "fusion_lat": 0.0, "fusion_lon": 0.0, "rental_uris": {"android": "https://dc.lft.to/lastmile_qr_scan", "ios": "https://dc.lft.to/lastmile_qr_scan"}, "is_reserved": 0, "is_disabled": 0, "type": "electric_scooter", "bike_id": "469bfc8a75b0feb566e057d5180d746f"}, {"lon": -77.055249, "lat": 38.899213333333336, "name": "1c016280bc7e9ed614340eb201b091b3", "fusion_lat": 0.0, "fusion_lon": 0.0, "rental_uris": {"android": "https://dc.lft.to/lastmile_qr_scan", "ios": "https://dc.lft.to/lastmile_qr_scan"}, "is_reserved": 0, "is_disabled": 0, "type": "electric_scooter", "bike_id": "1c016280bc7e9ed614340eb201b091b3"}, {"lon": -77.03076866666666, "lat": 38.9002575, "name": "9fd33ec46822b300156492d2584d9b39", "fusion_lat": 0.0, "fusion_lon": 0.0, "rental_uris": {"android": "https://dc.lft.to/lastmile_qr_scan", "ios": "https://dc.lft.to/lastmile_qr_scan"}, "is_reserved": 0, "is_disabled": 0, "type": "electric_scooter", "bike_id": "9fd33ec46822b300156492d2584d9b39"}, {"lon": -77.08941533333333, "lat": 38.841004166666664, "name": "b95fd5b2f52238621083d24111790572", "fusion_lat": 0.0, "fusion_lon": 0.0, "rental_uris": {"android": "https://dc.lft.to/lastmile_qr_scan", "ios": "https://dc.lft.to/lastmile_qr_scan"}, "is_reserved": 0, "is_disabled": 0, "type": "electric_bike", "bike_id": "b95fd5b2f52238621083d24111790572"}, {"lon": -77.00089316666667, "lat": 38.873783833333334, "name": "699ba64d4dd3bba61da4385b098c41e2", "fusion_lat": 0.0, "fusion_lon": 0.0, "rental_uris": {"android": "https://dc.lft.to/lastmile_qr_scan", "ios": "https://dc.lft.to/lastmile_qr_scan"}, "is_reserved": 0, "is_disabled": 0, "type": "electric_scooter", "bike_id": "699ba64d4dd3bba61da4385b098c41e2"}, {"lon": -76.97612633333334, "lat": 38.9130755, "name": "361e94fc1498ccd32bae48e0ee6c0714", "fusion_lat": 0.0, "fusion_lon": 0.0, "rental_uris": {"android": "https://dc.lft.to/lastmile_qr_scan", "ios": "https://dc.lft.to/lastmile_qr_scan"}, "is_reserved": 0, "is_disabled": 0, "type": "electric_bike", "bike_id": "361e94fc1498ccd32bae48e0ee6c0714"}, {"lon": -77.02213516666667, "lat": 38.91414233333333, "name": "6968c533b1c39fa8ef1ba2771c748b54", "fusion_lat": 0.0, "fusion_lon": 0.0, "rental_uris": {"android": "https://dc.lft.to/lastmile_qr_scan", "ios": "https://dc.lft.to/lastmile_qr_scan"}, "is_reserved": 0, "is_disabled": 0, "type": "electric_scooter", "bike_id": "6968c533b1c39fa8ef1ba2771c748b54"}, {"lon": -77.0439525, "lat": 38.92272466666667, "name": "0893dae73ac45bb2af6161c128202b61", "fusion_lat": 0.0, "fusion_lon": 0.0, "rental_uris": {"android": "https://dc.lft.to/lastmile_qr_scan", "ios": "https://dc.lft.to/lastmile_qr_scan"}, "is_reserved": 0, "is_disabled": 0, "type": "electric_scooter", "bike_id": "0893dae73ac45bb2af6161c128202b61"}, {"lon": -77.0240365, "lat": 38.887373333333336, "name": "dace8b2619f3092bf2e18ba38e2e47f0", "fusion_lat": 0.0, "fusion_lon": 0.0, "rental_uris": {"android": "https://dc.lft.to/lastmile_qr_scan", "ios": "https://dc.lft.to/lastmile_qr_scan"}, "is_reserved": 0, "is_disabled": 0, "type": "electric_scooter", "bike_id": "dace8b2619f3092bf2e18ba38e2e47f0"}, {"lon": -76.971914, "lat": 38.912659166666664, "name": "97cd0f1e67346d7ea031cdd3857ded1b", "fusion_lat": 0.0, "fusion_lon": 0.0, "rental_uris": {"android": "https://dc.lft.to/lastmile_qr_scan", "ios": "https://dc.lft.to/lastmile_qr_scan"}, "is_reserved": 0, "is_disabled": 0, "type": "electric_scooter", "bike_id": "97cd0f1e67346d7ea031cdd3857ded1b"}, {"lon": -77.01829566666666, "lat": 38.908085166666666, "name": "f6a86bd626a84130ed3b51f712c0d3e6", "fusion_lat": 0.0, "fusion_lon": 0.0, "rental_uris": {"android": "https://dc.lft.to/lastmile_qr_scan", "ios": "https://dc.lft.to/lastmile_qr_scan"}, "is_reserved": 0, "is_disabled": 0, "type": "electric_scooter", "bike_id": "f6a86bd626a84130ed3b51f712c0d3e6"}, {"lon": -77.0107335, "lat": 38.8711, "name": "f6eb5255e3eefd5da6869a2b8be6110d", "fusion_lat": 0.0, "fusion_lon": 0.0, "rental_uris": {"android": "https://dc.lft.to/lastmile_qr_scan", "ios": "https://dc.lft.to/lastmile_qr_scan"}, "is_reserved": 0, "is_disabled": 0, "type": "electric_scooter", "bike_id": "f6eb5255e3eefd5da6869a2b8be6110d"}, {"lon": -76.990349, "lat": 38.85871216666666, "name": "90d718889e54167b142ddee89d7cc002", "fusion_lat": 0.0, "fusion_lon": 0.0, "rental_uris": {"android": "https://dc.lft.to/lastmile_qr_scan", "ios": "https://dc.lft.to/lastmile_qr_scan"}, "is_reserved": 0, "is_disabled": 0, "type": "electric_scooter", "bike_id": "90d718889e54167b142ddee89d7cc002"}, {"lon": -77.10924933333334, "lat": 39.051984166666664, "name": "bf6a38f7dbb2d1dd697430c10e980baa", "fusion_lat": 0.0, "fusion_lon": 0.0, "rental_uris": {"android": "https://dc.lft.to/lastmile_qr_scan", "ios": "https://dc.lft.to/lastmile_qr_scan"}, "is_reserved": 0, "is_disabled": 0, "type": "electric_bike", "bike_id": "bf6a38f7dbb2d1dd697430c10e980baa"}, {"lon": -77.02318533333333, "lat": 38.88731583333333, "name": "438cded20935e260df1e5f849fb6afa6", "fusion_lat": 0.0, "fusion_lon": 0.0, "rental_uris": {"android": "https://dc.lft.to/lastmile_qr_scan", "ios": "https://dc.lft.to/lastmile_qr_scan"}, "is_reserved": 0, "is_disabled": 0, "type": "electric_scooter", "bike_id": "438cded20935e260df1e5f849fb6afa6"}, {"lon": -77.022293, "lat": 38.88621783333333, "name": "89e5763fa0d2a54a655d97fa6f82b7bd", "fusion_lat": 0.0, "fusion_lon": 0.0, "rental_uris": {"android": "https://dc.lft.to/lastmile_qr_scan", "ios": "https://dc.lft.to/lastmile_qr_scan"}, "is_reserved": 0, "is_disabled": 0, "type": "electric_bike", "bike_id": "89e5763fa0d2a54a655d97fa6f82b7bd"}, {"lon": -77.07599983333333, "lat": 38.91211466666667, "name": "445c0c1a0a819119da0c537c891638d6", "fusion_lat": 0.0, "fusion_lon": 0.0, "rental_uris": {"android": "https://dc.lft.to/lastmile_qr_scan", "ios": "https://dc.lft.to/lastmile_qr_scan"}, "is_reserved": 0, "is_disabled": 0, "type": "electric_scooter", "bike_id": "445c0c1a0a819119da0c537c891638d6"}, {"lon": -76.9725585, "lat": 38.95740266666667, "name": "fc8d466975d8ac76624b09b7e5ddb3b8", "fusion_lat": 0.0, "fusion_lon": 0.0, "rental_uris": {"android": "https://dc.lft.to/lastmile_qr_scan", "ios": "https://dc.lft.to/lastmile_qr_scan"}, "is_reserved": 0, "is_disabled": 0, "type": "electric_bike", "bike_id": "fc8d466975d8ac76624b09b7e5ddb3b8"}, {"lon": -76.95659716666667, "lat": 38.8960335, "name": "a5898292e7413ef8da7b8fde9713d5c2", "fusion_lat": 0.0, "fusion_lon": 0.0, "rental_uris": {"android": "https://dc.lft.to/lastmile_qr_scan", "ios": "https://dc.lft.to/lastmile_qr_scan"}, "is_reserved": 0, "is_disabled": 0, "type": "electric_scooter", "bike_id": "a5898292e7413ef8da7b8fde9713d5c2"}, {"lon": -77.18742083333333, "lat": 38.893516166666664, "name": "e3d25d0d516c8fa992cd721d33fb034f", "fusion_lat": 0.0, "fusion_lon": 0.0, "rental_uris": {"android": "https://dc.lft.to/lastmile_qr_scan", "ios": "https://dc.lft.to/lastmile_qr_scan"}, "is_reserved": 0, "is_disabled": 0, "type": "electric_bike", "bike_id": "e3d25d0d516c8fa992cd721d33fb034f"}, {"lon": -77.03311833333333, "lat": 38.92557033333333, "name": "5e591a935638db2bb6f21bdc81390b58", "fusion_lat": 0.0, "fusion_lon": 0.0, "rental_uris": {"android": "https://dc.lft.to/lastmile_qr_scan", "ios": "https://dc.lft.to/lastmile_qr_scan"}, "is_reserved": 0, "is_disabled": 0, "type": "electric_scooter", "bike_id": "5e591a935638db2bb6f21bdc81390b58"}, {"lon": -76.94653883333334, "lat": 38.8982415, "name": "23ce253445ea902ccdd5d5f808531a2f", "fusion_lat": 0.0, "fusion_lon": 0.0, "rental_uris": {"android": "https://dc.lft.to/lastmile_qr_scan", "ios": "https://dc.lft.to/lastmile_qr_scan"}, "is_reserved": 0, "is_disabled": 0, "type": "electric_scooter", "bike_id": "23ce253445ea902ccdd5d5f808531a2f"}, {"lon": -77.04036533333333, "lat": 38.9010815, "name": "f3e17343cd3480765829770899fb6557", "fusion_lat": 0.0, "fusion_lon": 0.0, "rental_uris": {"android": "https://dc.lft.to/lastmile_qr_scan", "ios": "https://dc.lft.to/lastmile_qr_scan"}, "is_reserved": 0, "is_disabled": 0, "type": "electric_bike", "bike_id": "f3e17343cd3480765829770899fb6557"}, {"lon": -77.0347185, "lat": 38.9148005, "name": "c7c5c9177562222712624251a60b1b81", "fusion_lat": 0.0, "fusion_lon": 0.0, "rental_uris": {"android": "https://dc.lft.to/lastmile_qr_scan", "ios": "https://dc.lft.to/lastmile_qr_scan"}, "is_reserved": 0, "is_disabled": 0, "type": "electric_scooter", "bike_id": "c7c5c9177562222712624251a60b1b81"}, {"lon": -77.00240183333334, "lat": 38.9071705, "name": "966d2b21536bb05863084cb2fcf43679", "fusion_lat": 0.0, "fusion_lon": 0.0, "rental_uris": {"android": "https://dc.lft.to/lastmile_qr_scan", "ios": "https://dc.lft.to/lastmile_qr_scan"}, "is_reserved": 0, "is_disabled": 0, "type": "electric_scooter", "bike_id": "966d2b21536bb05863084cb2fcf43679"}, {"lon": -76.93173833333333, "lat": 38.898834, "name": "c94e0c68911e6a96f5d616b331157298", "fusion_lat": 0.0, "fusion_lon": 0.0, "rental_uris": {"android": "https://dc.lft.to/lastmile_qr_scan", "ios": "https://dc.lft.to/lastmile_qr_scan"}, "is_reserved": 0, "is_disabled": 0, "type": "electric_scooter", "bike_id": "c94e0c68911e6a96f5d616b331157298"}, {"lon": -77.01901166666667, "lat": 38.90994383333334, "name": "02ec09cedc7035fd2599421333f09bc8", "fusion_lat": 0.0, "fusion_lon": 0.0, "rental_uris": {"android": "https://dc.lft.to/lastmile_qr_scan", "ios": "https://dc.lft.to/lastmile_qr_scan"}, "is_reserved": 0, "is_disabled": 0, "type": "electric_scooter", "bike_id": "02ec09cedc7035fd2599421333f09bc8"}, {"lon": -77.038449, "lat": 38.918207833333334, "name": "0a8f579398596b66b54fd70e2a1b079d", "fusion_lat": 0.0, "fusion_lon": 0.0, "rental_uris": {"android": "https://dc.lft.to/lastmile_qr_scan", "ios": "https://dc.lft.to/lastmile_qr_scan"}, "is_reserved": 0, "is_disabled": 0, "type": "electric_scooter", "bike_id": "0a8f579398596b66b54fd70e2a1b079d"}, {"lon": -77.01654, "lat": 38.88122833333333, "name": "e2b44f0c6f21389fe55aa47e35b78730", "fusion_lat": 0.0, "fusion_lon": 0.0, "rental_uris": {"android": "https://dc.lft.to/lastmile_qr_scan", "ios": "https://dc.lft.to/lastmile_qr_scan"}, "is_reserved": 0, "is_disabled": 0, "type": "electric_scooter", "bike_id": "e2b44f0c6f21389fe55aa47e35b78730"}, {"lon": -77.02721316666667, "lat": 38.909532, "name": "62e07e4603521f196bb1980eb5da1f12", "fusion_lat": 0.0, "fusion_lon": 0.0, "rental_uris": {"android": "https://dc.lft.to/lastmile_qr_scan", "ios": "https://dc.lft.to/lastmile_qr_scan"}, "is_reserved": 0, "is_disabled": 0, "type": "electric_scooter", "bike_id": "62e07e4603521f196bb1980eb5da1f12"}, {"lon": -77.01754366666667, "lat": 38.877105666666665, "name": "cf2819add51d96cd9706062e3c56292e", "fusion_lat": 0.0, "fusion_lon": 0.0, "rental_uris": {"android": "https://dc.lft.to/lastmile_qr_scan", "ios": "https://dc.lft.to/lastmile_qr_scan"}, "is_reserved": 0, "is_disabled": 0, "type": "electric_scooter", "bike_id": "cf2819add51d96cd9706062e3c56292e"}, {"lon": -77.05342983333334, "lat": 38.904153666666666, "name": "c9ba4e111d9189849703ede9493ec203", "fusion_lat": 0.0, "fusion_lon": 0.0, "rental_uris": {"android": "https://dc.lft.to/lastmile_qr_scan", "ios": "https://dc.lft.to/lastmile_qr_scan"}, "is_reserved": 0, "is_disabled": 0, "type": "electric_scooter", "bike_id": "c9ba4e111d9189849703ede9493ec203"}, {"lon": -77.03188883333333, "lat": 38.91186666666667, "name": "d4e3d1efdbea8db9a00bc5054d5212fd", "fusion_lat": 0.0, "fusion_lon": 0.0, "rental_uris": {"android": "https://dc.lft.to/lastmile_qr_scan", "ios": "https://dc.lft.to/lastmile_qr_scan"}, "is_reserved": 0, "is_disabled": 0, "type": "electric_scooter", "bike_id": "d4e3d1efdbea8db9a00bc5054d5212fd"}, {"lon": -76.9472605, "lat": 38.89676083333333, "name": "63255e1ee5ab79025b3316e5f16bb945", "fusion_lat": 0.0, "fusion_lon": 0.0, "rental_uris": {"android": "https://dc.lft.to/lastmile_qr_scan", "ios": "https://dc.lft.to/lastmile_qr_scan"}, "is_reserved": 0, "is_disabled": 0, "type": "electric_scooter", "bike_id": "63255e1ee5ab79025b3316e5f16bb945"}, {"lon": -77.01125366666666, "lat": 38.89505333333334, "name": "d02ed7c6453dfc391a46086b5bd59686", "fusion_lat": 0.0, "fusion_lon": 0.0, "rental_uris": {"android": "https://dc.lft.to/lastmile_qr_scan", "ios": "https://dc.lft.to/lastmile_qr_scan"}, "is_reserved": 0, "is_disabled": 0, "type": "electric_scooter", "bike_id": "d02ed7c6453dfc391a46086b5bd59686"}, {"lon": -77.04159816666666, "lat": 38.914156166666665, "name": "d0d1aa913eb71efec1c8f6cfbdb9b805", "fusion_lat": 0.0, "fusion_lon": 0.0, "rental_uris": {"android": "https://dc.lft.to/lastmile_qr_scan", "ios": "https://dc.lft.to/lastmile_qr_scan"}, "is_reserved": 0, "is_disabled": 0, "type": "electric_scooter", "bike_id": "d0d1aa913eb71efec1c8f6cfbdb9b805"}, {"lon": -76.98099116666667, "lat": 38.9039325, "name": "647f205ed313ea10004dcfc42922484a", "fusion_lat": 0.0, "fusion_lon": 0.0, "rental_uris": {"android": "https://dc.lft.to/lastmile_qr_scan", "ios": "https://dc.lft.to/lastmile_qr_scan"}, "is_reserved": 0, "is_disabled": 0, "type": "electric_scooter", "bike_id": "647f205ed313ea10004dcfc42922484a"}, {"lon": -77.02713733333333, "lat": 38.971992166666666, "name": "0692a801eccd75f27c991d721198e9c0", "fusion_lat": 0.0, "fusion_lon": 0.0, "rental_uris": {"android": "https://dc.lft.to/lastmile_qr_scan", "ios": "https://dc.lft.to/lastmile_qr_scan"}, "is_reserved": 0, "is_disabled": 0, "type": "electric_bike", "bike_id": "0692a801eccd75f27c991d721198e9c0"}, {"lon": -77.0444425, "lat": 38.918752, "name": "3021f4567323747ac73286b1e297cf83", "fusion_lat": 0.0, "fusion_lon": 0.0, "rental_uris": {"android": "https://dc.lft.to/lastmile_qr_scan", "ios": "https://dc.lft.to/lastmile_qr_scan"}, "is_reserved": 0, "is_disabled": 0, "type": "electric_scooter", "bike_id": "3021f4567323747ac73286b1e297cf83"}, {"lon": -77.0215945, "lat": 38.92460616666666, "name": "edd7f094d72d82190a27510f397b836c", "fusion_lat": 0.0, "fusion_lon": 0.0, "rental_uris": {"android": "https://dc.lft.to/lastmile_qr_scan", "ios": "https://dc.lft.to/lastmile_qr_scan"}, "is_reserved": 0, "is_disabled": 0, "type": "electric_scooter", "bike_id": "edd7f094d72d82190a27510f397b836c"}, {"lon": -76.99951383333334, "lat": 38.84291366666667, "name": "72688e2cbed18020ee0da8de1b2bb581", "fusion_lat": 0.0, "fusion_lon": 0.0, "rental_uris": {"android": "https://dc.lft.to/lastmile_qr_scan", "ios": "https://dc.lft.to/lastmile_qr_scan"}, "is_reserved": 0, "is_disabled": 0, "type": "electric_scooter", "bike_id": "72688e2cbed18020ee0da8de1b2bb581"}, {"lon": -77.04647616666666, "lat": 38.85211566666667, "name": "bf800b3110c860e4f0df48ec49f25f12", "fusion_lat": 0.0, "fusion_lon": 0.0, "rental_uris": {"android": "https://dc.lft.to/lastmile_qr_scan", "ios": "https://dc.lft.to/lastmile_qr_scan"}, "is_reserved": 0, "is_disabled": 0, "type": "electric_bike", "bike_id": "bf800b3110c860e4f0df48ec49f25f12"}, {"lon": -77.03894733333334, "lat": 38.9222005, "name": "539433d34a7ffccd84fb1752882cf365", "fusion_lat": 0.0, "fusion_lon": 0.0, "rental_uris": {"android": "https://dc.lft.to/lastmile_qr_scan", "ios": "https://dc.lft.to/lastmile_qr_scan"}, "is_reserved": 0, "is_disabled": 0, "type": "electric_scooter", "bike_id": "539433d34a7ffccd84fb1752882cf365"}, {"lon": -77.03322016666667, "lat": 38.90029116666667, "name": "f2881fd0ae9161a7d148492a977878b9", "fusion_lat": 0.0, "fusion_lon": 0.0, "rental_uris": {"android": "https://dc.lft.to/lastmile_qr_scan", "ios": "https://dc.lft.to/lastmile_qr_scan"}, "is_reserved": 0, "is_disabled": 0, "type": "electric_scooter", "bike_id": "f2881fd0ae9161a7d148492a977878b9"}, {"lon": -77.03168333333333, "lat": 38.944554333333336, "name": "3e2ac4f4871d833b48e517c84e19f474", "fusion_lat": 0.0, "fusion_lon": 0.0, "rental_uris": {"android": "https://dc.lft.to/lastmile_qr_scan", "ios": "https://dc.lft.to/lastmile_qr_scan"}, "is_reserved": 0, "is_disabled": 0, "type": "electric_bike", "bike_id": "3e2ac4f4871d833b48e517c84e19f474"}, {"lon": -77.03860583333334, "lat": 38.90800566666667, "name": "8711d57562402d8d3e46cdbab9e5d836", "fusion_lat": 0.0, "fusion_lon": 0.0, "rental_uris": {"android": "https://dc.lft.to/lastmile_qr_scan", "ios": "https://dc.lft.to/lastmile_qr_scan"}, "is_reserved": 0, "is_disabled": 0, "type": "electric_scooter", "bike_id": "8711d57562402d8d3e46cdbab9e5d836"}, {"lon": -77.02976583333333, "lat": 38.9167885, "name": "20bcc8f602e8e92cc2a341779c8a699b", "fusion_lat": 0.0, "fusion_lon": 0.0, "rental_uris": {"android": "https://dc.lft.to/lastmile_qr_scan", "ios": "https://dc.lft.to/lastmile_qr_scan"}, "is_reserved": 0, "is_disabled": 0, "type": "electric_scooter", "bike_id": "20bcc8f602e8e92cc2a341779c8a699b"}, {"lon": -77.05732716666667, "lat": 38.93366833333333, "name": "232bc72f846be704cfd1cc07789dd5b6", "fusion_lat": 0.0, "fusion_lon": 0.0, "rental_uris": {"android": "https://dc.lft.to/lastmile_qr_scan", "ios": "https://dc.lft.to/lastmile_qr_scan"}, "is_reserved": 0, "is_disabled": 0, "type": "electric_scooter", "bike_id": "232bc72f846be704cfd1cc07789dd5b6"}, {"lon": -77.01184316666667, "lat": 38.900314, "name": "4dcb61424786e11ee8dc325dc18d2a54", "fusion_lat": 0.0, "fusion_lon": 0.0, "rental_uris": {"android": "https://dc.lft.to/lastmile_qr_scan", "ios": "https://dc.lft.to/lastmile_qr_scan"}, "is_reserved": 0, "is_disabled": 0, "type": "electric_scooter", "bike_id": "4dcb61424786e11ee8dc325dc18d2a54"}, {"lon": -77.01583133333334, "lat": 38.885127, "name": "407dd6d1f673b43fccfacea8f799f300", "fusion_lat": 0.0, "fusion_lon": 0.0, "rental_uris": {"android": "https://dc.lft.to/lastmile_qr_scan", "ios": "https://dc.lft.to/lastmile_qr_scan"}, "is_reserved": 0, "is_disabled": 0, "type": "electric_bike", "bike_id": "407dd6d1f673b43fccfacea8f799f300"}, {"lon": -77.0220475, "lat": 38.8962595, "name": "cc5a2c37a73612cb8d4c6755e8d529d1", "fusion_lat": 0.0, "fusion_lon": 0.0, "rental_uris": {"android": "https://dc.lft.to/lastmile_qr_scan", "ios": "https://dc.lft.to/lastmile_qr_scan"}, "is_reserved": 0, "is_disabled": 0, "type": "electric_scooter", "bike_id": "cc5a2c37a73612cb8d4c6755e8d529d1"}, {"lon": -77.00570866666666, "lat": 38.92719866666667, "name": "8c06edf8446b1083675c44d27e7a6d3c", "fusion_lat": 0.0, "fusion_lon": 0.0, "rental_uris": {"android": "https://dc.lft.to/lastmile_qr_scan", "ios": "https://dc.lft.to/lastmile_qr_scan"}, "is_reserved": 0, "is_disabled": 0, "type": "electric_scooter", "bike_id": "8c06edf8446b1083675c44d27e7a6d3c"}, {"lon": -77.00537316666667, "lat": 38.928923833333336, "name": "dbdd3fe5d2db254913a9dbd438f65a2b", "fusion_lat": 0.0, "fusion_lon": 0.0, "rental_uris": {"android": "https://dc.lft.to/lastmile_qr_scan", "ios": "https://dc.lft.to/lastmile_qr_scan"}, "is_reserved": 0, "is_disabled": 0, "type": "electric_scooter", "bike_id": "dbdd3fe5d2db254913a9dbd438f65a2b"}, {"lon": -77.02407466666666, "lat": 38.9098095, "name": "f531758f87939c029fa884ba9a6b9b8c", "fusion_lat": 0.0, "fusion_lon": 0.0, "rental_uris": {"android": "https://dc.lft.to/lastmile_qr_scan", "ios": "https://dc.lft.to/lastmile_qr_scan"}, "is_reserved": 0, "is_disabled": 0, "type": "electric_scooter", "bike_id": "f531758f87939c029fa884ba9a6b9b8c"}, {"lon": -77.04810383333333, "lat": 38.89748433333333, "name": "ba451696d5c108cdd21c153ccaae3c5a", "fusion_lat": 0.0, "fusion_lon": 0.0, "rental_uris": {"android": "https://dc.lft.to/lastmile_qr_scan", "ios": "https://dc.lft.to/lastmile_qr_scan"}, "is_reserved": 0, "is_disabled": 0, "type": "electric_scooter", "bike_id": "ba451696d5c108cdd21c153ccaae3c5a"}, {"lon": -77.02348266666667, "lat": 38.96203333333333, "name": "8c0a53065a883c1e9b4068d805df28d8", "fusion_lat": 0.0, "fusion_lon": 0.0, "rental_uris": {"android": "https://dc.lft.to/lastmile_qr_scan", "ios": "https://dc.lft.to/lastmile_qr_scan"}, "is_reserved": 0, "is_disabled": 0, "type": "electric_scooter", "bike_id": "8c0a53065a883c1e9b4068d805df28d8"}, {"lon": -76.99547966666667, "lat": 38.8841395, "name": "905a0a0fd190fa2ad9f6df56e08b94b5", "fusion_lat": 0.0, "fusion_lon": 0.0, "rental_uris": {"android": "https://dc.lft.to/lastmile_qr_scan", "ios": "https://dc.lft.to/lastmile_qr_scan"}, "is_reserved": 0, "is_disabled": 0, "type": "electric_scooter", "bike_id": "905a0a0fd190fa2ad9f6df56e08b94b5"}, {"lon": -77.02467083333333, "lat": 38.917082, "name": "ac2de59bd33fea0db9bc0ebaff6af4d0", "fusion_lat": 0.0, "fusion_lon": 0.0, "rental_uris": {"android": "https://dc.lft.to/lastmile_qr_scan", "ios": "https://dc.lft.to/lastmile_qr_scan"}, "is_reserved": 0, "is_disabled": 0, "type": "electric_scooter", "bike_id": "ac2de59bd33fea0db9bc0ebaff6af4d0"}, {"lon": -77.01393716666666, "lat": 38.91944983333333, "name": "a759a621ede20aa6d1d5c38ad6057cc4", "fusion_lat": 0.0, "fusion_lon": 0.0, "rental_uris": {"android": "https://dc.lft.to/lastmile_qr_scan", "ios": "https://dc.lft.to/lastmile_qr_scan"}, "is_reserved": 0, "is_disabled": 0, "type": "electric_scooter", "bike_id": "a759a621ede20aa6d1d5c38ad6057cc4"}, {"lon": -77.05320683333333, "lat": 38.923521, "name": "1ec7fb7dd87e67c5117449fd513f393c", "fusion_lat": 0.0, "fusion_lon": 0.0, "rental_uris": {"android": "https://dc.lft.to/lastmile_qr_scan", "ios": "https://dc.lft.to/lastmile_qr_scan"}, "is_reserved": 0, "is_disabled": 0, "type": "electric_scooter", "bike_id": "1ec7fb7dd87e67c5117449fd513f393c"}, {"lon": -76.983416, "lat": 38.915409333333336, "name": "a065645a164f468e6686faad1c078b93", "fusion_lat": 0.0, "fusion_lon": 0.0, "rental_uris": {"android": "https://dc.lft.to/lastmile_qr_scan", "ios": "https://dc.lft.to/lastmile_qr_scan"}, "is_reserved": 0, "is_disabled": 0, "type": "electric_scooter", "bike_id": "a065645a164f468e6686faad1c078b93"}, {"lon": -77.0392815, "lat": 38.898652, "name": "2eec7e6c1beb97daf8318584efec6461", "fusion_lat": 0.0, "fusion_lon": 0.0, "rental_uris": {"android": "https://dc.lft.to/lastmile_qr_scan", "ios": "https://dc.lft.to/lastmile_qr_scan"}, "is_reserved": 0, "is_disabled": 0, "type": "electric_scooter", "bike_id": "2eec7e6c1beb97daf8318584efec6461"}, {"lon": -77.00748516666667, "lat": 38.90374333333333, "name": "4d055d8d1aa433a637d755aa2909686f", "fusion_lat": 0.0, "fusion_lon": 0.0, "rental_uris": {"android": "https://dc.lft.to/lastmile_qr_scan", "ios": "https://dc.lft.to/lastmile_qr_scan"}, "is_reserved": 0, "is_disabled": 0, "type": "electric_scooter", "bike_id": "4d055d8d1aa433a637d755aa2909686f"}, {"lon": -77.02185066666667, "lat": 38.909790666666666, "name": "a47cc8835558acf3eca71bddd34fe6dc", "fusion_lat": 0.0, "fusion_lon": 0.0, "rental_uris": {"android": "https://dc.lft.to/lastmile_qr_scan", "ios": "https://dc.lft.to/lastmile_qr_scan"}, "is_reserved": 0, "is_disabled": 0, "type": "electric_scooter", "bike_id": "a47cc8835558acf3eca71bddd34fe6dc"}, {"lon": -76.9335245, "lat": 38.89903533333333, "name": "90c84fe8fcf24f5889eb5c26a3b18304", "fusion_lat": 0.0, "fusion_lon": 0.0, "rental_uris": {"android": "https://dc.lft.to/lastmile_qr_scan", "ios": "https://dc.lft.to/lastmile_qr_scan"}, "is_reserved": 0, "is_disabled": 0, "type": "electric_scooter", "bike_id": "90c84fe8fcf24f5889eb5c26a3b18304"}, {"lon": -77.05134166666667, "lat": 38.906276, "name": "62d7d4b87d3e4f5a409b201113c99ec9", "fusion_lat": 0.0, "fusion_lon": 0.0, "rental_uris": {"android": "https://dc.lft.to/lastmile_qr_scan", "ios": "https://dc.lft.to/lastmile_qr_scan"}, "is_reserved": 0, "is_disabled": 0, "type": "electric_scooter", "bike_id": "62d7d4b87d3e4f5a409b201113c99ec9"}, {"lon": -77.02412116666666, "lat": 38.9189905, "name": "b9cf8109026236c55c17e1a2ed84adb9", "fusion_lat": 0.0, "fusion_lon": 0.0, "rental_uris": {"android": "https://dc.lft.to/lastmile_qr_scan", "ios": "https://dc.lft.to/lastmile_qr_scan"}, "is_reserved": 0, "is_disabled": 0, "type": "electric_scooter", "bike_id": "b9cf8109026236c55c17e1a2ed84adb9"}, {"lon": -77.0603775, "lat": 38.93914816666667, "name": "8247b2a84e8c4466ab33a84593626a14", "fusion_lat": 0.0, "fusion_lon": 0.0, "rental_uris": {"android": "https://dc.lft.to/lastmile_qr_scan", "ios": "https://dc.lft.to/lastmile_qr_scan"}, "is_reserved": 0, "is_disabled": 0, "type": "electric_scooter", "bike_id": "8247b2a84e8c4466ab33a84593626a14"}, {"lon": -77.044234, "lat": 38.92606166666667, "name": "719efed3e699facfe58e95a0ded81225", "fusion_lat": 0.0, "fusion_lon": 0.0, "rental_uris": {"android": "https://dc.lft.to/lastmile_qr_scan", "ios": "https://dc.lft.to/lastmile_qr_scan"}, "is_reserved": 0, "is_disabled": 0, "type": "electric_scooter", "bike_id": "719efed3e699facfe58e95a0ded81225"}, {"lon": -77.02830916666667, "lat": 38.892278166666664, "name": "02eaa9c037f39f81cbb0a3ea57572cf9", "fusion_lat": 0.0, "fusion_lon": 0.0, "rental_uris": {"android": "https://dc.lft.to/lastmile_qr_scan", "ios": "https://dc.lft.to/lastmile_qr_scan"}, "is_reserved": 0, "is_disabled": 0, "type": "electric_scooter", "bike_id": "02eaa9c037f39f81cbb0a3ea57572cf9"}, {"lon": -76.98623566666667, "lat": 38.86819933333334, "name": "b8a73b95d1f5cfeb7a273693b41a9f14", "fusion_lat": 0.0, "fusion_lon": 0.0, "rental_uris": {"android": "https://dc.lft.to/lastmile_qr_scan", "ios": "https://dc.lft.to/lastmile_qr_scan"}, "is_reserved": 0, "is_disabled": 0, "type": "electric_scooter", "bike_id": "b8a73b95d1f5cfeb7a273693b41a9f14"}, {"lon": -77.04185466666667, "lat": 38.913378, "name": "f1138d661eaeb26bf29cf7adb4ca7743", "fusion_lat": 0.0, "fusion_lon": 0.0, "rental_uris": {"android": "https://dc.lft.to/lastmile_qr_scan", "ios": "https://dc.lft.to/lastmile_qr_scan"}, "is_reserved": 0, "is_disabled": 0, "type": "electric_scooter", "bike_id": "f1138d661eaeb26bf29cf7adb4ca7743"}, {"lon": -77.01442933333334, "lat": 38.87765433333333, "name": "df52bc9fd9fd1f2b966cd1e0201c83af", "fusion_lat": 0.0, "fusion_lon": 0.0, "rental_uris": {"android": "https://dc.lft.to/lastmile_qr_scan", "ios": "https://dc.lft.to/lastmile_qr_scan"}, "is_reserved": 0, "is_disabled": 0, "type": "electric_scooter", "bike_id": "df52bc9fd9fd1f2b966cd1e0201c83af"}, {"lon": -76.98757433333333, "lat": 38.8449975, "name": "72d3933903a3baaa52bf09c96c1a968d", "fusion_lat": 0.0, "fusion_lon": 0.0, "rental_uris": {"android": "https://dc.lft.to/lastmile_qr_scan", "ios": "https://dc.lft.to/lastmile_qr_scan"}, "is_reserved": 0, "is_disabled": 0, "type": "electric_scooter", "bike_id": "72d3933903a3baaa52bf09c96c1a968d"}, {"lon": -77.01261183333334, "lat": 38.89965816666667, "name": "3c7a69193dbfe587ced0ea8fa7462197", "fusion_lat": 0.0, "fusion_lon": 0.0, "rental_uris": {"android": "https://dc.lft.to/lastmile_qr_scan", "ios": "https://dc.lft.to/lastmile_qr_scan"}, "is_reserved": 0, "is_disabled": 0, "type": "electric_scooter", "bike_id": "3c7a69193dbfe587ced0ea8fa7462197"}, {"lon": -77.04287783333334, "lat": 38.92257566666667, "name": "2273ab7dedfa47a6aa8cb41a29b73085", "fusion_lat": 0.0, "fusion_lon": 0.0, "rental_uris": {"android": "https://dc.lft.to/lastmile_qr_scan", "ios": "https://dc.lft.to/lastmile_qr_scan"}, "is_reserved": 0, "is_disabled": 0, "type": "electric_scooter", "bike_id": "2273ab7dedfa47a6aa8cb41a29b73085"}, {"lon": -77.04902783333333, "lat": 38.892317, "name": "eb8aab5693cbf34958b11e51a9fc7931", "fusion_lat": 0.0, "fusion_lon": 0.0, "rental_uris": {"android": "https://dc.lft.to/lastmile_qr_scan", "ios": "https://dc.lft.to/lastmile_qr_scan"}, "is_reserved": 0, "is_disabled": 0, "type": "electric_scooter", "bike_id": "eb8aab5693cbf34958b11e51a9fc7931"}, {"lon": -77.02971066666667, "lat": 38.92730383333333, "name": "dc906612bc55a271292ae402f71a2e99", "fusion_lat": 0.0, "fusion_lon": 0.0, "rental_uris": {"android": "https://dc.lft.to/lastmile_qr_scan", "ios": "https://dc.lft.to/lastmile_qr_scan"}, "is_reserved": 0, "is_disabled": 0, "type": "electric_scooter", "bike_id": "dc906612bc55a271292ae402f71a2e99"}, {"lon": -76.9488275, "lat": 38.894626833333334, "name": "9d14d2f5f1b70adb53c875deb9fb8458", "fusion_lat": 0.0, "fusion_lon": 0.0, "rental_uris": {"android": "https://dc.lft.to/lastmile_qr_scan", "ios": "https://dc.lft.to/lastmile_qr_scan"}, "is_reserved": 0, "is_disabled": 0, "type": "electric_scooter", "bike_id": "9d14d2f5f1b70adb53c875deb9fb8458"}, {"lon": -77.13599683333334, "lat": 39.05344266666667, "name": "ac809d99e6bd6eabb4900a4f1d9d1280", "fusion_lat": 0.0, "fusion_lon": 0.0, "rental_uris": {"android": "https://dc.lft.to/lastmile_qr_scan", "ios": "https://dc.lft.to/lastmile_qr_scan"}, "is_reserved": 0, "is_disabled": 0, "type": "electric_bike", "bike_id": "ac809d99e6bd6eabb4900a4f1d9d1280"}, {"lon": -77.03637416666666, "lat": 38.9291235, "name": "fe3017cf18646f7c188e3c5ba13cc12c", "fusion_lat": 0.0, "fusion_lon": 0.0, "rental_uris": {"android": "https://dc.lft.to/lastmile_qr_scan", "ios": "https://dc.lft.to/lastmile_qr_scan"}, "is_reserved": 0, "is_disabled": 0, "type": "electric_scooter", "bike_id": "fe3017cf18646f7c188e3c5ba13cc12c"}, {"lon": -76.94850616666666, "lat": 38.88302083333333, "name": "face589137a8036473de6916d1e9ef2d", "fusion_lat": 0.0, "fusion_lon": 0.0, "rental_uris": {"android": "https://dc.lft.to/lastmile_qr_scan", "ios": "https://dc.lft.to/lastmile_qr_scan"}, "is_reserved": 0, "is_disabled": 0, "type": "electric_scooter", "bike_id": "face589137a8036473de6916d1e9ef2d"}, {"lon": -77.05912066666667, "lat": 38.90153033333333, "name": "5e7ac48768fca75d3ad06a9d533eda13", "fusion_lat": 0.0, "fusion_lon": 0.0, "rental_uris": {"android": "https://dc.lft.to/lastmile_qr_scan", "ios": "https://dc.lft.to/lastmile_qr_scan"}, "is_reserved": 0, "is_disabled": 0, "type": "electric_scooter", "bike_id": "5e7ac48768fca75d3ad06a9d533eda13"}, {"lon": -77.03351516666666, "lat": 38.885046833333334, "name": "ee5a768618c62c1ea0fc3bc3885867c7", "fusion_lat": 0.0, "fusion_lon": 0.0, "rental_uris": {"android": "https://dc.lft.to/lastmile_qr_scan", "ios": "https://dc.lft.to/lastmile_qr_scan"}, "is_reserved": 0, "is_disabled": 0, "type": "electric_scooter", "bike_id": "ee5a768618c62c1ea0fc3bc3885867c7"}, {"lon": -76.93178083333333, "lat": 38.898828333333334, "name": "7c3a59aee0b730a8abd4b90d11ce9f25", "fusion_lat": 0.0, "fusion_lon": 0.0, "rental_uris": {"android": "https://dc.lft.to/lastmile_qr_scan", "ios": "https://dc.lft.to/lastmile_qr_scan"}, "is_reserved": 0, "is_disabled": 0, "type": "electric_scooter", "bike_id": "7c3a59aee0b730a8abd4b90d11ce9f25"}, {"lon": -77.04167083333333, "lat": 38.906117333333334, "name": "e3fe8204580cf69217cd1d5ab002d029", "fusion_lat": 0.0, "fusion_lon": 0.0, "rental_uris": {"android": "https://dc.lft.to/lastmile_qr_scan", "ios": "https://dc.lft.to/lastmile_qr_scan"}, "is_reserved": 0, "is_disabled": 0, "type": "electric_scooter", "bike_id": "e3fe8204580cf69217cd1d5ab002d029"}, {"lon": -76.981669, "lat": 38.8458455, "name": "9b99532df855879daa3c097489cf5e74", "fusion_lat": 0.0, "fusion_lon": 0.0, "rental_uris": {"android": "https://dc.lft.to/lastmile_qr_scan", "ios": "https://dc.lft.to/lastmile_qr_scan"}, "is_reserved": 0, "is_disabled": 0, "type": "electric_bike", "bike_id": "9b99532df855879daa3c097489cf5e74"}, {"lon": -76.9927275, "lat": 38.89687216666667, "name": "57c1608549323725ad4aaed4b872ec20", "fusion_lat": 0.0, "fusion_lon": 0.0, "rental_uris": {"android": "https://dc.lft.to/lastmile_qr_scan", "ios": "https://dc.lft.to/lastmile_qr_scan"}, "is_reserved": 0, "is_disabled": 0, "type": "electric_scooter", "bike_id": "57c1608549323725ad4aaed4b872ec20"}, {"lon": -77.10688216666667, "lat": 38.85458766666667, "name": "3a77040f791c4f1c91d89382b472115e", "fusion_lat": 0.0, "fusion_lon": 0.0, "rental_uris": {"android": "https://dc.lft.to/lastmile_qr_scan", "ios": "https://dc.lft.to/lastmile_qr_scan"}, "is_reserved": 0, "is_disabled": 0, "type": "electric_bike", "bike_id": "3a77040f791c4f1c91d89382b472115e"}, {"lon": -77.03677583333334, "lat": 38.92096183333334, "name": "ec32c9e6d517616ceee309d5e66d0204", "fusion_lat": 0.0, "fusion_lon": 0.0, "rental_uris": {"android": "https://dc.lft.to/lastmile_qr_scan", "ios": "https://dc.lft.to/lastmile_qr_scan"}, "is_reserved": 0, "is_disabled": 0, "type": "electric_scooter", "bike_id": "ec32c9e6d517616ceee309d5e66d0204"}, {"lon": -76.94845183333334, "lat": 38.8948145, "name": "5590d219113b9db5e5ad5d71331661e6", "fusion_lat": 0.0, "fusion_lon": 0.0, "rental_uris": {"android": "https://dc.lft.to/lastmile_qr_scan", "ios": "https://dc.lft.to/lastmile_qr_scan"}, "is_reserved": 0, "is_disabled": 0, "type": "electric_scooter", "bike_id": "5590d219113b9db5e5ad5d71331661e6"}, {"lon": -77.04151866666666, "lat": 38.907448333333335, "name": "3088149f43926182178547440c6ad66b", "fusion_lat": 0.0, "fusion_lon": 0.0, "rental_uris": {"android": "https://dc.lft.to/lastmile_qr_scan", "ios": "https://dc.lft.to/lastmile_qr_scan"}, "is_reserved": 0, "is_disabled": 0, "type": "electric_scooter", "bike_id": "3088149f43926182178547440c6ad66b"}, {"lon": -77.06529183333333, "lat": 38.9112895, "name": "12e129261a658a9740bfdcf9d512f8bc", "fusion_lat": 0.0, "fusion_lon": 0.0, "rental_uris": {"android": "https://dc.lft.to/lastmile_qr_scan", "ios": "https://dc.lft.to/lastmile_qr_scan"}, "is_reserved": 0, "is_disabled": 0, "type": "electric_scooter", "bike_id": "12e129261a658a9740bfdcf9d512f8bc"}, {"lon": -76.99517416666667, "lat": 38.89479716666666, "name": "cb23ae8d5b7b0951a5e915be5d433dcb", "fusion_lat": 0.0, "fusion_lon": 0.0, "rental_uris": {"android": "https://dc.lft.to/lastmile_qr_scan", "ios": "https://dc.lft.to/lastmile_qr_scan"}, "is_reserved": 0, "is_disabled": 0, "type": "electric_scooter", "bike_id": "cb23ae8d5b7b0951a5e915be5d433dcb"}, {"lon": -77.0320655, "lat": 38.911547666666664, "name": "2267056888b34cfe3f74a424670c7547", "fusion_lat": 0.0, "fusion_lon": 0.0, "rental_uris": {"android": "https://dc.lft.to/lastmile_qr_scan", "ios": "https://dc.lft.to/lastmile_qr_scan"}, "is_reserved": 0, "is_disabled": 0, "type": "electric_scooter", "bike_id": "2267056888b34cfe3f74a424670c7547"}, {"lon": -77.0323145, "lat": 38.938706, "name": "c8c089734ccc1a9023d06844d252df51", "fusion_lat": 0.0, "fusion_lon": 0.0, "rental_uris": {"android": "https://dc.lft.to/lastmile_qr_scan", "ios": "https://dc.lft.to/lastmile_qr_scan"}, "is_reserved": 0, "is_disabled": 0, "type": "electric_scooter", "bike_id": "c8c089734ccc1a9023d06844d252df51"}, {"lon": -77.10730316666667, "lat": 38.85552416666667, "name": "c1fe51a313442e0c244cb861eb710337", "fusion_lat": 0.0, "fusion_lon": 0.0, "rental_uris": {"android": "https://dc.lft.to/lastmile_qr_scan", "ios": "https://dc.lft.to/lastmile_qr_scan"}, "is_reserved": 0, "is_disabled": 0, "type": "electric_bike", "bike_id": "c1fe51a313442e0c244cb861eb710337"}, {"lon": -76.98174466666667, "lat": 38.9003745, "name": "26365f1fbecf0ad723e2c148afa0d9e0", "fusion_lat": 0.0, "fusion_lon": 0.0, "rental_uris": {"android": "https://dc.lft.to/lastmile_qr_scan", "ios": "https://dc.lft.to/lastmile_qr_scan"}, "is_reserved": 0, "is_disabled": 0, "type": "electric_scooter", "bike_id": "26365f1fbecf0ad723e2c148afa0d9e0"}, {"lon": -77.02144583333333, "lat": 38.94807333333333, "name": "68a88b36e805d2efa2f8db9effb4873f", "fusion_lat": 0.0, "fusion_lon": 0.0, "rental_uris": {"android": "https://dc.lft.to/lastmile_qr_scan", "ios": "https://dc.lft.to/lastmile_qr_scan"}, "is_reserved": 0, "is_disabled": 0, "type": "electric_bike", "bike_id": "68a88b36e805d2efa2f8db9effb4873f"}, {"lon": -77.03788433333334, "lat": 38.9262095, "name": "4d770258cc9b6027866ee5ad9d01bc77", "fusion_lat": 0.0, "fusion_lon": 0.0, "rental_uris": {"android": "https://dc.lft.to/lastmile_qr_scan", "ios": "https://dc.lft.to/lastmile_qr_scan"}, "is_reserved": 0, "is_disabled": 0, "type": "electric_scooter", "bike_id": "4d770258cc9b6027866ee5ad9d01bc77"}, {"lon": -76.87822616666666, "lat": 38.992323999999996, "name": "b2dff9005ff96dfa386b2db88f318370", "fusion_lat": 0.0, "fusion_lon": 0.0, "rental_uris": {"android": "https://dc.lft.to/lastmile_qr_scan", "ios": "https://dc.lft.to/lastmile_qr_scan"}, "is_reserved": 0, "is_disabled": 0, "type": "electric_bike", "bike_id": "b2dff9005ff96dfa386b2db88f318370"}, {"lon": -76.977515, "lat": 38.90005516666667, "name": "ef09ca7b3d1deb968b3d023cc87061a2", "fusion_lat": 0.0, "fusion_lon": 0.0, "rental_uris": {"android": "https://dc.lft.to/lastmile_qr_scan", "ios": "https://dc.lft.to/lastmile_qr_scan"}, "is_reserved": 0, "is_disabled": 0, "type": "electric_scooter", "bike_id": "ef09ca7b3d1deb968b3d023cc87061a2"}, {"lon": -77.05546616666666, "lat": 38.899548833333334, "name": "c247bd18c1ff9bd18233f2b48200e3a9", "fusion_lat": 0.0, "fusion_lon": 0.0, "rental_uris": {"android": "https://dc.lft.to/lastmile_qr_scan", "ios": "https://dc.lft.to/lastmile_qr_scan"}, "is_reserved": 0, "is_disabled": 0, "type": "electric_scooter", "bike_id": "c247bd18c1ff9bd18233f2b48200e3a9"}, {"lon": -76.94869516666667, "lat": 38.88962516666667, "name": "b82babd85fdb5c453fd82ef580c7e130", "fusion_lat": 0.0, "fusion_lon": 0.0, "rental_uris": {"android": "https://dc.lft.to/lastmile_qr_scan", "ios": "https://dc.lft.to/lastmile_qr_scan"}, "is_reserved": 0, "is_disabled": 0, "type": "electric_bike", "bike_id": "b82babd85fdb5c453fd82ef580c7e130"}, {"lon": -77.03319466666666, "lat": 38.91414366666667, "name": "c8bf864e2b1fac0d4ca54c78f9638311", "fusion_lat": 0.0, "fusion_lon": 0.0, "rental_uris": {"android": "https://dc.lft.to/lastmile_qr_scan", "ios": "https://dc.lft.to/lastmile_qr_scan"}, "is_reserved": 0, "is_disabled": 0, "type": "electric_scooter", "bike_id": "c8bf864e2b1fac0d4ca54c78f9638311"}, {"lon": -77.048369, "lat": 38.90454, "name": "f250ed1648a8652fde20fda23b48ce03", "fusion_lat": 0.0, "fusion_lon": 0.0, "rental_uris": {"android": "https://dc.lft.to/lastmile_qr_scan", "ios": "https://dc.lft.to/lastmile_qr_scan"}, "is_reserved": 0, "is_disabled": 0, "type": "electric_scooter", "bike_id": "f250ed1648a8652fde20fda23b48ce03"}, {"lon": -77.0334425, "lat": 38.921598333333336, "name": "9ae80bb8c1bd598f8a2e5e1eaf220a01", "fusion_lat": 0.0, "fusion_lon": 0.0, "rental_uris": {"android": "https://dc.lft.to/lastmile_qr_scan", "ios": "https://dc.lft.to/lastmile_qr_scan"}, "is_reserved": 0, "is_disabled": 0, "type": "electric_scooter", "bike_id": "9ae80bb8c1bd598f8a2e5e1eaf220a01"}, {"lon": -76.99935616666667, "lat": 38.89615516666667, "name": "2f1af77c88213ee2c786b80bba0a3064", "fusion_lat": 0.0, "fusion_lon": 0.0, "rental_uris": {"android": "https://dc.lft.to/lastmile_qr_scan", "ios": "https://dc.lft.to/lastmile_qr_scan"}, "is_reserved": 0, "is_disabled": 0, "type": "electric_scooter", "bike_id": "2f1af77c88213ee2c786b80bba0a3064"}, {"lon": -77.02210333333333, "lat": 38.914135333333334, "name": "bd8d66326682623c7dbd5aa73985e682", "fusion_lat": 0.0, "fusion_lon": 0.0, "rental_uris": {"android": "https://dc.lft.to/lastmile_qr_scan", "ios": "https://dc.lft.to/lastmile_qr_scan"}, "is_reserved": 0, "is_disabled": 0, "type": "electric_scooter", "bike_id": "bd8d66326682623c7dbd5aa73985e682"}, {"lon": -77.0320185, "lat": 38.919905666666665, "name": "a893f7c52f73e9ab7e45e21ca8846964", "fusion_lat": 0.0, "fusion_lon": 0.0, "rental_uris": {"android": "https://dc.lft.to/lastmile_qr_scan", "ios": "https://dc.lft.to/lastmile_qr_scan"}, "is_reserved": 0, "is_disabled": 0, "type": "electric_scooter", "bike_id": "a893f7c52f73e9ab7e45e21ca8846964"}, {"lon": -77.0196635, "lat": 38.87846166666667, "name": "e31e9b209ceb26c08e8c27c3f9a03e0f", "fusion_lat": 0.0, "fusion_lon": 0.0, "rental_uris": {"android": "https://dc.lft.to/lastmile_qr_scan", "ios": "https://dc.lft.to/lastmile_qr_scan"}, "is_reserved": 0, "is_disabled": 0, "type": "electric_scooter", "bike_id": "e31e9b209ceb26c08e8c27c3f9a03e0f"}, {"lon": -77.02829666666666, "lat": 38.917035166666665, "name": "54d9176bcaa8a5e63856945b59180a7b", "fusion_lat": 0.0, "fusion_lon": 0.0, "rental_uris": {"android": "https://dc.lft.to/lastmile_qr_scan", "ios": "https://dc.lft.to/lastmile_qr_scan"}, "is_reserved": 0, "is_disabled": 0, "type": "electric_scooter", "bike_id": "54d9176bcaa8a5e63856945b59180a7b"}, {"lon": -77.01113383333333, "lat": 38.91549283333333, "name": "f2fa3da9a280bdfc91636cbddb0c9c40", "fusion_lat": 0.0, "fusion_lon": 0.0, "rental_uris": {"android": "https://dc.lft.to/lastmile_qr_scan", "ios": "https://dc.lft.to/lastmile_qr_scan"}, "is_reserved": 0, "is_disabled": 0, "type": "electric_scooter", "bike_id": "f2fa3da9a280bdfc91636cbddb0c9c40"}, {"lon": -77.01531216666666, "lat": 38.88628833333333, "name": "067e0fec27c11e5489a56f3557632239", "fusion_lat": 0.0, "fusion_lon": 0.0, "rental_uris": {"android": "https://dc.lft.to/lastmile_qr_scan", "ios": "https://dc.lft.to/lastmile_qr_scan"}, "is_reserved": 0, "is_disabled": 0, "type": "electric_scooter", "bike_id": "067e0fec27c11e5489a56f3557632239"}, {"lon": -76.95210616666667, "lat": 38.936666333333335, "name": "af847986235cb557d2ffd092c0b04149", "fusion_lat": 0.0, "fusion_lon": 0.0, "rental_uris": {"android": "https://dc.lft.to/lastmile_qr_scan", "ios": "https://dc.lft.to/lastmile_qr_scan"}, "is_reserved": 0, "is_disabled": 0, "type": "electric_bike", "bike_id": "af847986235cb557d2ffd092c0b04149"}, {"lon": -77.06772616666667, "lat": 38.905074, "name": "e6c0b7683f9253b9f6ebef548492e6eb", "fusion_lat": 0.0, "fusion_lon": 0.0, "rental_uris": {"android": "https://dc.lft.to/lastmile_qr_scan", "ios": "https://dc.lft.to/lastmile_qr_scan"}, "is_reserved": 0, "is_disabled": 0, "type": "electric_scooter", "bike_id": "e6c0b7683f9253b9f6ebef548492e6eb"}, {"lon": -76.93183816666667, "lat": 38.8987695, "name": "38d2c875d230bd55105ff1230c26888e", "fusion_lat": 0.0, "fusion_lon": 0.0, "rental_uris": {"android": "https://dc.lft.to/lastmile_qr_scan", "ios": "https://dc.lft.to/lastmile_qr_scan"}, "is_reserved": 0, "is_disabled": 0, "type": "electric_scooter", "bike_id": "38d2c875d230bd55105ff1230c26888e"}, {"lon": -77.02828433333333, "lat": 38.895225333333336, "name": "7d4e44c159dfff66bb87064df998af00", "fusion_lat": 0.0, "fusion_lon": 0.0, "rental_uris": {"android": "https://dc.lft.to/lastmile_qr_scan", "ios": "https://dc.lft.to/lastmile_qr_scan"}, "is_reserved": 0, "is_disabled": 0, "type": "electric_scooter", "bike_id": "7d4e44c159dfff66bb87064df998af00"}, {"lon": -77.00139716666666, "lat": 38.90410466666667, "name": "8faa97b71b6a13a7357f08ff38f572cd", "fusion_lat": 0.0, "fusion_lon": 0.0, "rental_uris": {"android": "https://dc.lft.to/lastmile_qr_scan", "ios": "https://dc.lft.to/lastmile_qr_scan"}, "is_reserved": 0, "is_disabled": 0, "type": "electric_scooter", "bike_id": "8faa97b71b6a13a7357f08ff38f572cd"}, {"lon": -77.03219166666666, "lat": 38.9198225, "name": "4a1db017f98476a54f8cdd5dfe80978f", "fusion_lat": 0.0, "fusion_lon": 0.0, "rental_uris": {"android": "https://dc.lft.to/lastmile_qr_scan", "ios": "https://dc.lft.to/lastmile_qr_scan"}, "is_reserved": 0, "is_disabled": 0, "type": "electric_scooter", "bike_id": "4a1db017f98476a54f8cdd5dfe80978f"}, {"lon": -76.990633, "lat": 38.900209, "name": "e6bdfedd080f808c32463d9287e58208", "fusion_lat": 0.0, "fusion_lon": 0.0, "rental_uris": {"android": "https://dc.lft.to/lastmile_qr_scan", "ios": "https://dc.lft.to/lastmile_qr_scan"}, "is_reserved": 0, "is_disabled": 0, "type": "electric_scooter", "bike_id": "e6bdfedd080f808c32463d9287e58208"}, {"lon": -77.0321455, "lat": 38.91573116666667, "name": "9840f241808ff6a3e15fb0e9560feaf0", "fusion_lat": 0.0, "fusion_lon": 0.0, "rental_uris": {"android": "https://dc.lft.to/lastmile_qr_scan", "ios": "https://dc.lft.to/lastmile_qr_scan"}, "is_reserved": 0, "is_disabled": 0, "type": "electric_scooter", "bike_id": "9840f241808ff6a3e15fb0e9560feaf0"}, {"lon": -77.0421185, "lat": 38.9210855, "name": "66e1434cc5d1923821e494d8ba2e9b9b", "fusion_lat": 0.0, "fusion_lon": 0.0, "rental_uris": {"android": "https://dc.lft.to/lastmile_qr_scan", "ios": "https://dc.lft.to/lastmile_qr_scan"}, "is_reserved": 0, "is_disabled": 0, "type": "electric_scooter", "bike_id": "66e1434cc5d1923821e494d8ba2e9b9b"}, {"lon": -77.0399405, "lat": 38.907182166666665, "name": "dfd8489ed41c2b99fa544f452b4f3f48", "fusion_lat": 0.0, "fusion_lon": 0.0, "rental_uris": {"android": "https://dc.lft.to/lastmile_qr_scan", "ios": "https://dc.lft.to/lastmile_qr_scan"}, "is_reserved": 0, "is_disabled": 0, "type": "electric_scooter", "bike_id": "dfd8489ed41c2b99fa544f452b4f3f48"}, {"lon": -77.04675133333333, "lat": 38.91550483333333, "name": "c1bb835b11937d8c804da2a550e3d183", "fusion_lat": 0.0, "fusion_lon": 0.0, "rental_uris": {"android": "https://dc.lft.to/lastmile_qr_scan", "ios": "https://dc.lft.to/lastmile_qr_scan"}, "is_reserved": 0, "is_disabled": 0, "type": "electric_scooter", "bike_id": "c1bb835b11937d8c804da2a550e3d183"}, {"lon": -76.977361, "lat": 38.872875, "name": "afc3f75c6d398a81af72971a4c793507", "fusion_lat": 0.0, "fusion_lon": 0.0, "rental_uris": {"android": "https://dc.lft.to/lastmile_qr_scan", "ios": "https://dc.lft.to/lastmile_qr_scan"}, "is_reserved": 0, "is_disabled": 0, "type": "electric_scooter", "bike_id": "afc3f75c6d398a81af72971a4c793507"}, {"lon": -77.000519, "lat": 38.87344, "name": "c526d850db65b33dc63f8e629056f013", "fusion_lat": 0.0, "fusion_lon": 0.0, "rental_uris": {"android": "https://dc.lft.to/lastmile_qr_scan", "ios": "https://dc.lft.to/lastmile_qr_scan"}, "is_reserved": 0, "is_disabled": 0, "type": "electric_scooter", "bike_id": "c526d850db65b33dc63f8e629056f013"}, {"lon": -77.038315, "lat": 38.921713, "name": "d879a032e58b2e93f919f06b7f22e67a", "fusion_lat": 0.0, "fusion_lon": 0.0, "rental_uris": {"android": "https://dc.lft.to/lastmile_qr_scan", "ios": "https://dc.lft.to/lastmile_qr_scan"}, "is_reserved": 0, "is_disabled": 0, "type": "electric_scooter", "bike_id": "d879a032e58b2e93f919f06b7f22e67a"}, {"lon": -77.131805, "lat": 38.869057, "name": "45abcd99c4afb42f749dd84f6bf565a6", "fusion_lat": 0.0, "fusion_lon": 0.0, "rental_uris": {"android": "https://dc.lft.to/lastmile_qr_scan", "ios": "https://dc.lft.to/lastmile_qr_scan"}, "is_reserved": 0, "is_disabled": 0, "type": "electric_bike", "bike_id": "45abcd99c4afb42f749dd84f6bf565a6"}, {"lon": -76.996364, "lat": 38.932416, "name": "4197af80018c3429c8a8c9e26fbe0d4b", "fusion_lat": 0.0, "fusion_lon": 0.0, "rental_uris": {"android": "https://dc.lft.to/lastmile_qr_scan", "ios": "https://dc.lft.to/lastmile_qr_scan"}, "is_reserved": 0, "is_disabled": 0, "type": "electric_bike", "bike_id": "4197af80018c3429c8a8c9e26fbe0d4b"}, {"lon": -77.03392966666667, "lat": 38.9205965, "name": "bea58eae32c2fd7d707e09805ec4bc03", "fusion_lat": 0.0, "fusion_lon": 0.0, "rental_uris": {"android": "https://dc.lft.to/lastmile_qr_scan", "ios": "https://dc.lft.to/lastmile_qr_scan"}, "is_reserved": 0, "is_disabled": 0, "type": "electric_scooter", "bike_id": "bea58eae32c2fd7d707e09805ec4bc03"}, {"lon": -77.03795383333333, "lat": 38.996691, "name": "61b1967ca93ff962dba77914f8c062f2", "fusion_lat": 0.0, "fusion_lon": 0.0, "rental_uris": {"android": "https://dc.lft.to/lastmile_qr_scan", "ios": "https://dc.lft.to/lastmile_qr_scan"}, "is_reserved": 0, "is_disabled": 0, "type": "electric_bike", "bike_id": "61b1967ca93ff962dba77914f8c062f2"}, {"lon": -77.03946033333334, "lat": 38.9314835, "name": "400a27755655d005919a807478323ff5", "fusion_lat": 0.0, "fusion_lon": 0.0, "rental_uris": {"android": "https://dc.lft.to/lastmile_qr_scan", "ios": "https://dc.lft.to/lastmile_qr_scan"}, "is_reserved": 0, "is_disabled": 0, "type": "electric_scooter", "bike_id": "400a27755655d005919a807478323ff5"}, {"lon": -76.9890355, "lat": 38.866902, "name": "0beebb73960e6e352f25e4f5ab33bb06", "fusion_lat": 0.0, "fusion_lon": 0.0, "rental_uris": {"android": "https://dc.lft.to/lastmile_qr_scan", "ios": "https://dc.lft.to/lastmile_qr_scan"}, "is_reserved": 0, "is_disabled": 0, "type": "electric_scooter", "bike_id": "0beebb73960e6e352f25e4f5ab33bb06"}, {"lon": -77.0272295, "lat": 38.89515033333333, "name": "411f65a0f8efe0e405057358e4440169", "fusion_lat": 0.0, "fusion_lon": 0.0, "rental_uris": {"android": "https://dc.lft.to/lastmile_qr_scan", "ios": "https://dc.lft.to/lastmile_qr_scan"}, "is_reserved": 0, "is_disabled": 0, "type": "electric_bike", "bike_id": "411f65a0f8efe0e405057358e4440169"}, {"lon": -77.0306815, "lat": 38.880464, "name": "6986ea863e57898339c74fd1a7bb6863", "fusion_lat": 0.0, "fusion_lon": 0.0, "rental_uris": {"android": "https://dc.lft.to/lastmile_qr_scan", "ios": "https://dc.lft.to/lastmile_qr_scan"}, "is_reserved": 0, "is_disabled": 0, "type": "electric_scooter", "bike_id": "6986ea863e57898339c74fd1a7bb6863"}, {"lon": -77.03659916666666, "lat": 38.922833, "name": "843b621fb78a99001c6fd23d6dcc7672", "fusion_lat": 0.0, "fusion_lon": 0.0, "rental_uris": {"android": "https://dc.lft.to/lastmile_qr_scan", "ios": "https://dc.lft.to/lastmile_qr_scan"}, "is_reserved": 0, "is_disabled": 0, "type": "electric_scooter", "bike_id": "843b621fb78a99001c6fd23d6dcc7672"}, {"lon": -77.03419633333333, "lat": 38.92949633333333, "name": "4cb6aeb2ae3f94c9f80aa427996822af", "fusion_lat": 0.0, "fusion_lon": 0.0, "rental_uris": {"android": "https://dc.lft.to/lastmile_qr_scan", "ios": "https://dc.lft.to/lastmile_qr_scan"}, "is_reserved": 0, "is_disabled": 0, "type": "electric_scooter", "bike_id": "4cb6aeb2ae3f94c9f80aa427996822af"}, {"lon": -77.04290816666666, "lat": 38.907202, "name": "6dd5dada3aeb6fa6a3266409c44ca961", "fusion_lat": 0.0, "fusion_lon": 0.0, "rental_uris": {"android": "https://dc.lft.to/lastmile_qr_scan", "ios": "https://dc.lft.to/lastmile_qr_scan"}, "is_reserved": 0, "is_disabled": 0, "type": "electric_scooter", "bike_id": "6dd5dada3aeb6fa6a3266409c44ca961"}, {"lon": -76.95747866666666, "lat": 38.89217766666667, "name": "298a33b2171b8c6960feeda96656993f", "fusion_lat": 0.0, "fusion_lon": 0.0, "rental_uris": {"android": "https://dc.lft.to/lastmile_qr_scan", "ios": "https://dc.lft.to/lastmile_qr_scan"}, "is_reserved": 0, "is_disabled": 0, "type": "electric_scooter", "bike_id": "298a33b2171b8c6960feeda96656993f"}, {"lon": -77.02495916666666, "lat": 38.91805333333333, "name": "3d3abe7ca343d631424fe307fa6880fa", "fusion_lat": 0.0, "fusion_lon": 0.0, "rental_uris": {"android": "https://dc.lft.to/lastmile_qr_scan", "ios": "https://dc.lft.to/lastmile_qr_scan"}, "is_reserved": 0, "is_disabled": 0, "type": "electric_scooter", "bike_id": "3d3abe7ca343d631424fe307fa6880fa"}, {"lon": -76.99703633333333, "lat": 38.90828366666667, "name": "f57f25f63012bc5a689c18a859484989", "fusion_lat": 0.0, "fusion_lon": 0.0, "rental_uris": {"android": "https://dc.lft.to/lastmile_qr_scan", "ios": "https://dc.lft.to/lastmile_qr_scan"}, "is_reserved": 0, "is_disabled": 0, "type": "electric_scooter", "bike_id": "f57f25f63012bc5a689c18a859484989"}, {"lon": -77.003339, "lat": 38.893584, "name": "c518426190d78edb0ca7e1d28f24d98b", "fusion_lat": 0.0, "fusion_lon": 0.0, "rental_uris": {"android": "https://dc.lft.to/lastmile_qr_scan", "ios": "https://dc.lft.to/lastmile_qr_scan"}, "is_reserved": 0, "is_disabled": 0, "type": "electric_scooter", "bike_id": "c518426190d78edb0ca7e1d28f24d98b"}, {"lon": -77.046894, "lat": 38.92134083333333, "name": "f6e9f1b3f9937f7e6105391b8a870922", "fusion_lat": 0.0, "fusion_lon": 0.0, "rental_uris": {"android": "https://dc.lft.to/lastmile_qr_scan", "ios": "https://dc.lft.to/lastmile_qr_scan"}, "is_reserved": 0, "is_disabled": 0, "type": "electric_scooter", "bike_id": "f6e9f1b3f9937f7e6105391b8a870922"}, {"lon": -77.0474735, "lat": 38.912597, "name": "8634deba2fca35672cc3a242a66a421c", "fusion_lat": 0.0, "fusion_lon": 0.0, "rental_uris": {"android": "https://dc.lft.to/lastmile_qr_scan", "ios": "https://dc.lft.to/lastmile_qr_scan"}, "is_reserved": 0, "is_disabled": 0, "type": "electric_scooter", "bike_id": "8634deba2fca35672cc3a242a66a421c"}, {"lon": -76.9466595, "lat": 38.898691166666666, "name": "b224d24208d6bcd934773457eefc5e6c", "fusion_lat": 0.0, "fusion_lon": 0.0, "rental_uris": {"android": "https://dc.lft.to/lastmile_qr_scan", "ios": "https://dc.lft.to/lastmile_qr_scan"}, "is_reserved": 0, "is_disabled": 0, "type": "electric_scooter", "bike_id": "b224d24208d6bcd934773457eefc5e6c"}, {"lon": -77.03943183333334, "lat": 38.90807133333333, "name": "8220440c6fd5d6437f3297f5f438a429", "fusion_lat": 0.0, "fusion_lon": 0.0, "rental_uris": {"android": "https://dc.lft.to/lastmile_qr_scan", "ios": "https://dc.lft.to/lastmile_qr_scan"}, "is_reserved": 0, "is_disabled": 0, "type": "electric_scooter", "bike_id": "8220440c6fd5d6437f3297f5f438a429"}, {"lon": -77.021029, "lat": 38.934489, "name": "4d39e8395b13c279a8e5e8e1db74f1a6", "fusion_lat": 0.0, "fusion_lon": 0.0, "rental_uris": {"android": "https://dc.lft.to/lastmile_qr_scan", "ios": "https://dc.lft.to/lastmile_qr_scan"}, "is_reserved": 0, "is_disabled": 0, "type": "electric_scooter", "bike_id": "4d39e8395b13c279a8e5e8e1db74f1a6"}, {"lon": -77.02615233333333, "lat": 38.89643433333333, "name": "b4a78efc2bc752f3584e48ac628be94f", "fusion_lat": 0.0, "fusion_lon": 0.0, "rental_uris": {"android": "https://dc.lft.to/lastmile_qr_scan", "ios": "https://dc.lft.to/lastmile_qr_scan"}, "is_reserved": 0, "is_disabled": 0, "type": "electric_scooter", "bike_id": "b4a78efc2bc752f3584e48ac628be94f"}, {"lon": -77.0330655, "lat": 38.909628833333336, "name": "22a8d3dc1cd2ce1bd0e79a23aa8dd47a", "fusion_lat": 0.0, "fusion_lon": 0.0, "rental_uris": {"android": "https://dc.lft.to/lastmile_qr_scan", "ios": "https://dc.lft.to/lastmile_qr_scan"}, "is_reserved": 0, "is_disabled": 0, "type": "electric_scooter", "bike_id": "22a8d3dc1cd2ce1bd0e79a23aa8dd47a"}, {"lon": -77.0416165, "lat": 38.91345916666667, "name": "643d687cb15cebf56fa13d7827231550", "fusion_lat": 0.0, "fusion_lon": 0.0, "rental_uris": {"android": "https://dc.lft.to/lastmile_qr_scan", "ios": "https://dc.lft.to/lastmile_qr_scan"}, "is_reserved": 0, "is_disabled": 0, "type": "electric_scooter", "bike_id": "643d687cb15cebf56fa13d7827231550"}, {"lon": -77.04613416666666, "lat": 38.90965633333333, "name": "9f07d02264bfb1558a6199cd3645daa4", "fusion_lat": 0.0, "fusion_lon": 0.0, "rental_uris": {"android": "https://dc.lft.to/lastmile_qr_scan", "ios": "https://dc.lft.to/lastmile_qr_scan"}, "is_reserved": 0, "is_disabled": 0, "type": "electric_scooter", "bike_id": "9f07d02264bfb1558a6199cd3645daa4"}, {"lon": -76.9823785, "lat": 38.86759833333333, "name": "02cd16915ff8701af2aab6a83ebc56a9", "fusion_lat": 0.0, "fusion_lon": 0.0, "rental_uris": {"android": "https://dc.lft.to/lastmile_qr_scan", "ios": "https://dc.lft.to/lastmile_qr_scan"}, "is_reserved": 0, "is_disabled": 0, "type": "electric_scooter", "bike_id": "02cd16915ff8701af2aab6a83ebc56a9"}, {"lon": -76.99612233333333, "lat": 38.8856395, "name": "029a0336c548e5b4c470d5181ad0d81b", "fusion_lat": 0.0, "fusion_lon": 0.0, "rental_uris": {"android": "https://dc.lft.to/lastmile_qr_scan", "ios": "https://dc.lft.to/lastmile_qr_scan"}, "is_reserved": 0, "is_disabled": 0, "type": "electric_scooter", "bike_id": "029a0336c548e5b4c470d5181ad0d81b"}, {"lon": -77.05689183333334, "lat": 38.92331383333333, "name": "557c8b7b3045f15f429fa6d30c7a4ac2", "fusion_lat": 0.0, "fusion_lon": 0.0, "rental_uris": {"android": "https://dc.lft.to/lastmile_qr_scan", "ios": "https://dc.lft.to/lastmile_qr_scan"}, "is_reserved": 0, "is_disabled": 0, "type": "electric_scooter", "bike_id": "557c8b7b3045f15f429fa6d30c7a4ac2"}, {"lon": -77.02572483333333, "lat": 38.88746416666667, "name": "74086cf66fa57e328e1acf074ebf7b28", "fusion_lat": 0.0, "fusion_lon": 0.0, "rental_uris": {"android": "https://dc.lft.to/lastmile_qr_scan", "ios": "https://dc.lft.to/lastmile_qr_scan"}, "is_reserved": 0, "is_disabled": 0, "type": "electric_scooter", "bike_id": "74086cf66fa57e328e1acf074ebf7b28"}, {"lon": -76.98432966666667, "lat": 38.855154666666664, "name": "25fde5f4fbd5267da8aa1af347b4e5b7", "fusion_lat": 0.0, "fusion_lon": 0.0, "rental_uris": {"android": "https://dc.lft.to/lastmile_qr_scan", "ios": "https://dc.lft.to/lastmile_qr_scan"}, "is_reserved": 0, "is_disabled": 0, "type": "electric_bike", "bike_id": "25fde5f4fbd5267da8aa1af347b4e5b7"}, {"lon": -77.05222766666667, "lat": 38.935337833333335, "name": "9000b63e983ea7ae1367c60a61209504", "fusion_lat": 0.0, "fusion_lon": 0.0, "rental_uris": {"android": "https://dc.lft.to/lastmile_qr_scan", "ios": "https://dc.lft.to/lastmile_qr_scan"}, "is_reserved": 0, "is_disabled": 0, "type": "electric_bike", "bike_id": "9000b63e983ea7ae1367c60a61209504"}, {"lon": -77.03536, "lat": 38.93594616666667, "name": "141d70d2e3882efa9a17aae4ba03191d", "fusion_lat": 0.0, "fusion_lon": 0.0, "rental_uris": {"android": "https://dc.lft.to/lastmile_qr_scan", "ios": "https://dc.lft.to/lastmile_qr_scan"}, "is_reserved": 0, "is_disabled": 0, "type": "electric_scooter", "bike_id": "141d70d2e3882efa9a17aae4ba03191d"}, {"lon": -77.04379933333334, "lat": 38.90701633333333, "name": "8308059812ebb710a306d03659fbf169", "fusion_lat": 0.0, "fusion_lon": 0.0, "rental_uris": {"android": "https://dc.lft.to/lastmile_qr_scan", "ios": "https://dc.lft.to/lastmile_qr_scan"}, "is_reserved": 0, "is_disabled": 0, "type": "electric_scooter", "bike_id": "8308059812ebb710a306d03659fbf169"}, {"lon": -77.03472333333333, "lat": 38.916655166666665, "name": "db0a09900c674d9eb961cd6c84b1cea2", "fusion_lat": 0.0, "fusion_lon": 0.0, "rental_uris": {"android": "https://dc.lft.to/lastmile_qr_scan", "ios": "https://dc.lft.to/lastmile_qr_scan"}, "is_reserved": 0, "is_disabled": 0, "type": "electric_scooter", "bike_id": "db0a09900c674d9eb961cd6c84b1cea2"}, {"lon": -76.98763533333333, "lat": 38.84497116666667, "name": "43ac6a42fe9f88ed3d4589509dd68a99", "fusion_lat": 0.0, "fusion_lon": 0.0, "rental_uris": {"android": "https://dc.lft.to/lastmile_qr_scan", "ios": "https://dc.lft.to/lastmile_qr_scan"}, "is_reserved": 0, "is_disabled": 0, "type": "electric_scooter", "bike_id": "43ac6a42fe9f88ed3d4589509dd68a99"}, {"lon": -77.07187766666667, "lat": 38.91992316666666, "name": "b64479e0c941b7fcaa8041273436e9c8", "fusion_lat": 0.0, "fusion_lon": 0.0, "rental_uris": {"android": "https://dc.lft.to/lastmile_qr_scan", "ios": "https://dc.lft.to/lastmile_qr_scan"}, "is_reserved": 0, "is_disabled": 0, "type": "electric_scooter", "bike_id": "b64479e0c941b7fcaa8041273436e9c8"}, {"lon": -77.00346833333333, "lat": 38.90054816666667, "name": "8076414980b89cfbeaca68dda30e0aa9", "fusion_lat": 0.0, "fusion_lon": 0.0, "rental_uris": {"android": "https://dc.lft.to/lastmile_qr_scan", "ios": "https://dc.lft.to/lastmile_qr_scan"}, "is_reserved": 0, "is_disabled": 0, "type": "electric_scooter", "bike_id": "8076414980b89cfbeaca68dda30e0aa9"}, {"lon": -77.03729433333334, "lat": 38.9266855, "name": "2f7ae69486d3fa2ed0c722094e2f6a46", "fusion_lat": 0.0, "fusion_lon": 0.0, "rental_uris": {"android": "https://dc.lft.to/lastmile_qr_scan", "ios": "https://dc.lft.to/lastmile_qr_scan"}, "is_reserved": 0, "is_disabled": 0, "type": "electric_scooter", "bike_id": "2f7ae69486d3fa2ed0c722094e2f6a46"}, {"lon": -77.0239345, "lat": 38.918920166666666, "name": "01aae4e5ae613523b7ae66bc166de3db", "fusion_lat": 0.0, "fusion_lon": 0.0, "rental_uris": {"android": "https://dc.lft.to/lastmile_qr_scan", "ios": "https://dc.lft.to/lastmile_qr_scan"}, "is_reserved": 0, "is_disabled": 0, "type": "electric_scooter", "bike_id": "01aae4e5ae613523b7ae66bc166de3db"},