{"data": {"bikes": [{"name": "81acf4010df5fe01d09c7d50c03e586b", "fusion_lon": 0.0, "lat": 38.918388, "is_reserved": 0, "type": "electric_scooter", "bike_id": "81acf4010df5fe01d09c7d50c03e586b", "is_disabled": 0, "rental_uris": {"android": "https://dc.lft.to/lastmile_qr_scan", "ios": "https://dc.lft.to/lastmile_qr_scan"}, "lon": -77.02321766666667, "fusion_lat": 0.0}, {"name": "28455e8a48b544c9e57848e28a2d8c01", "fusion_lon": 0.0, "lat": 38.9187735, "is_reserved": 0, "type": "electric_scooter", "bike_id": "28455e8a48b544c9e57848e28a2d8c01", "is_disabled": 0, "rental_uris": {"android": "https://dc.lft.to/lastmile_qr_scan", "ios": "https://dc.lft.to/lastmile_qr_scan"}, "lon": -77.02947066666667, "fusion_lat": 0.0}, {"name": "21e1d301599fd985a100f1f6c60f2b2f", "fusion_lon": 0.0, "lat": 38.9255955, "is_reserved": 0, "type": "electric_scooter", "bike_id": "21e1d301599fd985a100f1f6c60f2b2f", "is_disabled": 0, "rental_uris": {"android": "https://dc.lft.to/lastmile_qr_scan", "ios": "https://dc.lft.to/lastmile_qr_scan"}, "lon": -77.03819266666666, "fusion_lat": 0.0}, {"name": "70bc92b62695652d9b7bc54e5a47b940", "fusion_lon": 0.0, "lat": 38.88991583333333, "is_reserved": 0, "type": "electric_scooter", "bike_id": "70bc92b62695652d9b7bc54e5a47b940", "is_disabled": 0, "rental_uris": {"android": "https://dc.lft.to/lastmile_qr_scan", "ios": "https://dc.lft.to/lastmile_qr_scan"}, "lon": -76.93109566666666, "fusion_lat": 0.0}, {"name": "aca8c89fc6af49313f31329c2ccc0e85", "fusion_lon": 0.0, "lat": 38.9242685, "is_reserved": 0, "type": "electric_scooter", "bike_id": "aca8c89fc6af49313f31329c2ccc0e85", "is_disabled": 0, "rental_uris": {"android": "https://dc.lft.to/lastmile_qr_scan", "ios": "https://dc.lft.to/lastmile_qr_scan"}, "lon": -77.04243433333333, "fusion_lat": 0.0}, {"name": "7795b390f40f6a7ae1cf55cde90fe83d", "fusion_lon": 0.0, "lat": 38.89731483333333, "is_reserved": 0, "type": "electric_scooter", "bike_id": "7795b390f40f6a7ae1cf55cde90fe83d", "is_disabled": 0, "rental_uris": {"android": "https://dc.lft.to/lastmile_qr_scan", "ios": "https://dc.lft.to/lastmile_qr_scan"}, "lon": -77.05527, "fusion_lat": 0.0}, {"name": "5cb520aa23f50d639ad4640e07792e99", "fusion_lon": 0.0, "lat": 38.918242166666666, "is_reserved": 0, "type": "electric_scooter", "bike_id": "5cb520aa23f50d639ad4640e07792e99", "is_disabled": 0, "rental_uris": {"android": "https://dc.lft.to/lastmile_qr_scan", "ios": "https://dc.lft.to/lastmile_qr_scan"}, "lon": -77.02712066666666, "fusion_lat": 0.0}, {"name": "89925711f4be140ebb7d5ce1279424f0", "fusion_lon": 0.0, "lat": 38.9133875, "is_reserved": 0, "type": "electric_scooter", "bike_id": "89925711f4be140ebb7d5ce1279424f0", "is_disabled": 0, "rental_uris": {"android": "https://dc.lft.to/lastmile_qr_scan", "ios": "https://dc.lft.to/lastmile_qr_scan"}, "lon": -77.0317525, "fusion_lat": 0.0}, {"name": "94f869290002d49a198ce9baa24a6d93", "fusion_lon": 0.0, "lat": 38.88866816666667, "is_reserved": 0, "type": "electric_scooter", "bike_id": "94f869290002d49a198ce9baa24a6d93", "is_disabled": 0, "rental_uris": {"android": "https://dc.lft.to/lastmile_qr_scan", "ios": "https://dc.lft.to/lastmile_qr_scan"}, "lon": -77.0000885, "fusion_lat": 0.0}, {"name": "59cec8e65a7750530e0b9a148749edc6", "fusion_lon": 0.0, "lat": 38.922108333333334, "is_reserved": 0, "type": "electric_scooter", "bike_id": "59cec8e65a7750530e0b9a148749edc6", "is_disabled": 0, "rental_uris": {"android": "https://dc.lft.to/lastmile_qr_scan", "ios": "https://dc.lft.to/lastmile_qr_scan"}, "lon": -77.032957, "fusion_lat": 0.0}, {"name": "c811e10a54afd08d759e11a701a7abef", "fusion_lon": 0.0, "lat": 38.921387333333335, "is_reserved": 0, "type": "electric_scooter", "bike_id": "c811e10a54afd08d759e11a701a7abef", "is_disabled": 0, "rental_uris": {"android": "https://dc.lft.to/lastmile_qr_scan", "ios": "https://dc.lft.to/lastmile_qr_scan"}, "lon": -77.03663066666667, "fusion_lat": 0.0}, {"name": "33061707e2c64bc5efa1c328e416e3ee", "fusion_lon": 0.0, "lat": 38.94907533333333, "is_reserved": 0, "type": "electric_scooter", "bike_id": "33061707e2c64bc5efa1c328e416e3ee", "is_disabled": 0, "rental_uris": {"android": "https://dc.lft.to/lastmile_qr_scan", "ios": "https://dc.lft.to/lastmile_qr_scan"}, "lon": -77.00648216666667, "fusion_lat": 0.0}, {"name": "b100142485dd1d302f3ea78193f86c02", "fusion_lon": 0.0, "lat": 38.92140883333333, "is_reserved": 0, "type": "electric_scooter", "bike_id": "b100142485dd1d302f3ea78193f86c02", "is_disabled": 0, "rental_uris": {"android": "https://dc.lft.to/lastmile_qr_scan", "ios": "https://dc.lft.to/lastmile_qr_scan"}, "lon": -77.0412735, "fusion_lat": 0.0}, {"name": "f0997e15423f380d8b1f123b1c0ac762", "fusion_lon": 0.0, "lat": 38.945297333333336, "is_reserved": 0, "type": "electric_scooter", "bike_id": "f0997e15423f380d8b1f123b1c0ac762", "is_disabled": 0, "rental_uris": {"android": "https://dc.lft.to/lastmile_qr_scan", "ios": "https://dc.lft.to/lastmile_qr_scan"}, "lon": -77.02093616666667, "fusion_lat": 0.0}, {"name": "2ee255c5fa3f05f280726f807420737e", "fusion_lon": 0.0, "lat": 38.907507833333334, "is_reserved": 0, "type": "electric_scooter", "bike_id": "2ee255c5fa3f05f280726f807420737e", "is_disabled": 0, "rental_uris": {"android": "https://dc.lft.to/lastmile_qr_scan", "ios": "https://dc.lft.to/lastmile_qr_scan"}, "lon": -77.00153516666667, "fusion_lat": 0.0}, {"name": "a5022954af85713078e563fe1eebd730", "fusion_lon": 0.0, "lat": 38.91544533333333, "is_reserved": 0, "type": "electric_scooter", "bike_id": "a5022954af85713078e563fe1eebd730", "is_disabled": 0, "rental_uris": {"android": "https://dc.lft.to/lastmile_qr_scan", "ios": "https://dc.lft.to/lastmile_qr_scan"}, "lon": -77.0385185, "fusion_lat": 0.0}, {"name": "490587fc74b78b9f2a5fcf0677c8a952", "fusion_lon": 0.0, "lat": 38.93322783333333, "is_reserved": 0, "type": "electric_scooter", "bike_id": "490587fc74b78b9f2a5fcf0677c8a952", "is_disabled": 0, "rental_uris": {"android": "https://dc.lft.to/lastmile_qr_scan", "ios": "https://dc.lft.to/lastmile_qr_scan"}, "lon": -77.03427783333333, "fusion_lat": 0.0}, {"name": "9be0004391a44337421cdd468be25a21", "fusion_lon": 0.0, "lat": 38.914067833333334, "is_reserved": 0, "type": "electric_scooter", "bike_id": "9be0004391a44337421cdd468be25a21", "is_disabled": 0, "rental_uris": {"android": "https://dc.lft.to/lastmile_qr_scan", "ios": "https://dc.lft.to/lastmile_qr_scan"}, "lon": -77.03705583333333, "fusion_lat": 0.0}, {"name": "88c78d4ac0128543845d4e21ee1db2c4", "fusion_lon": 0.0, "lat": 38.920451, "is_reserved": 0, "type": "electric_scooter", "bike_id": "88c78d4ac0128543845d4e21ee1db2c4", "is_disabled": 0, "rental_uris": {"android": "https://dc.lft.to/lastmile_qr_scan", "ios": "https://dc.lft.to/lastmile_qr_scan"}, "lon": -77.02589183333333, "fusion_lat": 0.0}, {"name": "cc6c85353b5461e538e1b7a23e08a650", "fusion_lon": 0.0, "lat": 38.942266833333335, "is_reserved": 0, "type": "electric_bike", "bike_id": "cc6c85353b5461e538e1b7a23e08a650", "is_disabled": 0, "rental_uris": {"android": "https://dc.lft.to/lastmile_qr_scan", "ios": "https://dc.lft.to/lastmile_qr_scan"}, "lon": -76.9662095, "fusion_lat": 0.0}, {"name": "03f86ab39b357aac884289ff65fbc131", "fusion_lon": 0.0, "lat": 38.89616516666667, "is_reserved": 0, "type": "electric_scooter", "bike_id": "03f86ab39b357aac884289ff65fbc131", "is_disabled": 0, "rental_uris": {"android": "https://dc.lft.to/lastmile_qr_scan", "ios": "https://dc.lft.to/lastmile_qr_scan"}, "lon": -77.04472133333333, "fusion_lat": 0.0}, {"name": "6470812e5c9d5ea378cf7eae7bb5b152", "fusion_lon": 0.0, "lat": 38.915614, "is_reserved": 0, "type": "electric_scooter", "bike_id": "6470812e5c9d5ea378cf7eae7bb5b152", "is_disabled": 0, "rental_uris": {"android": "https://dc.lft.to/lastmile_qr_scan", "ios": "https://dc.lft.to/lastmile_qr_scan"}, "lon": -77.02055183333333, "fusion_lat": 0.0}, {"name": "b4e743f161e98fc19f04ea0289593b9d", "fusion_lon": 0.0, "lat": 38.929681333333335, "is_reserved": 0, "type": "electric_bike", "bike_id": "b4e743f161e98fc19f04ea0289593b9d", "is_disabled": 0, "rental_uris": {"android": "https://dc.lft.to/lastmile_qr_scan", "ios": "https://dc.lft.to/lastmile_qr_scan"}, "lon": -77.18561733333334, "fusion_lat": 0.0}, {"name": "3118d95ea25f989e43617833fba9f6c2", "fusion_lon": 0.0, "lat": 38.9339865, "is_reserved": 0, "type": "electric_scooter", "bike_id": "3118d95ea25f989e43617833fba9f6c2", "is_disabled": 0, "rental_uris": {"android": "https://dc.lft.to/lastmile_qr_scan", "ios": "https://dc.lft.to/lastmile_qr_scan"}, "lon": -77.03984166666666, "fusion_lat": 0.0}, {"name": "c8ba95231d5abf58c05675a54c82a6e6", "fusion_lon": 0.0, "lat": 38.92456816666667, "is_reserved": 0, "type": "electric_scooter", "bike_id": "c8ba95231d5abf58c05675a54c82a6e6", "is_disabled": 0, "rental_uris": {"android": "https://dc.lft.to/lastmile_qr_scan", "ios": "https://dc.lft.to/lastmile_qr_scan"}, "lon": -77.07829633333333, "fusion_lat": 0.0}, {"name": "96a483b220d69eaf7f843f884d612b46", "fusion_lon": 0.0, "lat": 38.92722666666667, "is_reserved": 0, "type": "electric_scooter", "bike_id": "96a483b220d69eaf7f843f884d612b46", "is_disabled": 0, "rental_uris": {"android": "https://dc.lft.to/lastmile_qr_scan", "ios": "https://dc.lft.to/lastmile_qr_scan"}, "lon": -77.02279366666667, "fusion_lat": 0.0}, {"name": "83b91b57ae5d9af69b7ba6835198f7e2", "fusion_lon": 0.0, "lat": 38.88610416666667, "is_reserved": 0, "type": "electric_scooter", "bike_id": "83b91b57ae5d9af69b7ba6835198f7e2", "is_disabled": 0, "rental_uris": {"android": "https://dc.lft.to/lastmile_qr_scan", "ios": "https://dc.lft.to/lastmile_qr_scan"}, "lon": -76.995133, "fusion_lat": 0.0}, {"name": "680f10b377b96d493de463dbcdf82db1", "fusion_lon": 0.0, "lat": 38.92410616666667, "is_reserved": 0, "type": "electric_scooter", "bike_id": "680f10b377b96d493de463dbcdf82db1", "is_disabled": 0, "rental_uris": {"android": "https://dc.lft.to/lastmile_qr_scan", "ios": "https://dc.lft.to/lastmile_qr_scan"}, "lon": -77.03637633333334, "fusion_lat": 0.0}, {"name": "14b0df12a6837fbf17cf46efe4d20994", "fusion_lon": 0.0, "lat": 38.90268916666667, "is_reserved": 0, "type": "electric_scooter", "bike_id": "14b0df12a6837fbf17cf46efe4d20994", "is_disabled": 0, "rental_uris": {"android": "https://dc.lft.to/lastmile_qr_scan", "ios": "https://dc.lft.to/lastmile_qr_scan"}, "lon": -77.057973, "fusion_lat": 0.0}, {"name": "29d290d4b9e2fcf69fe20eccfc73fc55", "fusion_lon": 0.0, "lat": 39.05500966666666, "is_reserved": 0, "type": "electric_bike", "bike_id": "29d290d4b9e2fcf69fe20eccfc73fc55", "is_disabled": 0, "rental_uris": {"android": "https://dc.lft.to/lastmile_qr_scan", "ios": "https://dc.lft.to/lastmile_qr_scan"}, "lon": -77.046516, "fusion_lat": 0.0}, {"name": "a94b83b4961ee06ab8b796702096de07", "fusion_lon": 0.0, "lat": 38.93189666666667, "is_reserved": 0, "type": "electric_scooter", "bike_id": "a94b83b4961ee06ab8b796702096de07", "is_disabled": 0, "rental_uris": {"android": "https://dc.lft.to/lastmile_qr_scan", "ios": "https://dc.lft.to/lastmile_qr_scan"}, "lon": -77.03658966666667, "fusion_lat": 0.0}, {"name": "c2b7abe96cfd9c28a13caa18b530a24b", "fusion_lon": 0.0, "lat": 38.90497583333333, "is_reserved": 0, "type": "electric_scooter", "bike_id": "c2b7abe96cfd9c28a13caa18b530a24b", "is_disabled": 0, "rental_uris": {"android": "https://dc.lft.to/lastmile_qr_scan", "ios": "https://dc.lft.to/lastmile_qr_scan"}, "lon": -77.02004283333333, "fusion_lat": 0.0}, {"name": "ab39da423dda5a99aa9e22f36b5b489d", "fusion_lon": 0.0, "lat": 38.97726566666667, "is_reserved": 0, "type": "electric_scooter", "bike_id": "ab39da423dda5a99aa9e22f36b5b489d", "is_disabled": 0, "rental_uris": {"android": "https://dc.lft.to/lastmile_qr_scan", "ios": "https://dc.lft.to/lastmile_qr_scan"}, "lon": -77.01727883333334, "fusion_lat": 0.0}, {"name": "f3bb596c7a093e5d61c1ea44bf80b94c", "fusion_lon": 0.0, "lat": 38.910264, "is_reserved": 0, "type": "electric_scooter", "bike_id": "f3bb596c7a093e5d61c1ea44bf80b94c", "is_disabled": 0, "rental_uris": {"android": "https://dc.lft.to/lastmile_qr_scan", "ios": "https://dc.lft.to/lastmile_qr_scan"}, "lon": -77.00755733333334, "fusion_lat": 0.0}, {"name": "a772f3a2c347afabaecb30b0e1095a28", "fusion_lon": 0.0, "lat": 38.9008835, "is_reserved": 0, "type": "electric_scooter", "bike_id": "a772f3a2c347afabaecb30b0e1095a28", "is_disabled": 0, "rental_uris": {"android": "https://dc.lft.to/lastmile_qr_scan", "ios": "https://dc.lft.to/lastmile_qr_scan"}, "lon": -76.9833, "fusion_lat": 0.0}, {"name": "51f4f7449a6a0f8ff089acc18810abdd", "fusion_lon": 0.0, "lat": 38.916899, "is_reserved": 0, "type": "electric_scooter", "bike_id": "51f4f7449a6a0f8ff089acc18810abdd", "is_disabled": 0, "rental_uris": {"android": "https://dc.lft.to/lastmile_qr_scan", "ios": "https://dc.lft.to/lastmile_qr_scan"}, "lon": -77.02957516666666, "fusion_lat": 0.0}, {"name": "86701a5fde83a32f64e2a364acf14cc2", "fusion_lon": 0.0, "lat": 38.905808666666665, "is_reserved": 0, "type": "electric_scooter", "bike_id": "86701a5fde83a32f64e2a364acf14cc2", "is_disabled": 0, "rental_uris": {"android": "https://dc.lft.to/lastmile_qr_scan", "ios": "https://dc.lft.to/lastmile_qr_scan"}, "lon": -77.00583683333333, "fusion_lat": 0.0}, {"name": "fee49d63e506df2614db394520ec1b50", "fusion_lon": 0.0, "lat": 38.915480333333335, "is_reserved": 0, "type": "electric_scooter", "bike_id": "fee49d63e506df2614db394520ec1b50", "is_disabled": 0, "rental_uris": {"android": "https://dc.lft.to/lastmile_qr_scan", "ios": "https://dc.lft.to/lastmile_qr_scan"}, "lon": -77.03854666666666, "fusion_lat": 0.0}, {"name": "90b9018ee7b3b181981ffe390c12bf7e", "fusion_lon": 0.0, "lat": 38.8931995, "is_reserved": 0, "type": "electric_scooter", "bike_id": "90b9018ee7b3b181981ffe390c12bf7e", "is_disabled": 0, "rental_uris": {"android": "https://dc.lft.to/lastmile_qr_scan", "ios": "https://dc.lft.to/lastmile_qr_scan"}, "lon": -77.01808066666666, "fusion_lat": 0.0}, {"name": "dedf711dc900567516a2badb7bd3e370", "fusion_lon": 0.0, "lat": 38.88486116666667, "is_reserved": 0, "type": "electric_scooter", "bike_id": "dedf711dc900567516a2badb7bd3e370", "is_disabled": 0, "rental_uris": {"android": "https://dc.lft.to/lastmile_qr_scan", "ios": "https://dc.lft.to/lastmile_qr_scan"}, "lon": -77.00913533333333, "fusion_lat": 0.0}, {"name": "d72137b895755043d8039d6371900414", "fusion_lon": 0.0, "lat": 38.924153833333335, "is_reserved": 0, "type": "electric_scooter", "bike_id": "d72137b895755043d8039d6371900414", "is_disabled": 0, "rental_uris": {"android": "https://dc.lft.to/lastmile_qr_scan", "ios": "https://dc.lft.to/lastmile_qr_scan"}, "lon": -77.050661, "fusion_lat": 0.0}, {"name": "468524c24ddfa0b767dd414b0cfd110f", "fusion_lon": 0.0, "lat": 38.9102855, "is_reserved": 0, "type": "electric_scooter", "bike_id": "468524c24ddfa0b767dd414b0cfd110f", "is_disabled": 0, "rental_uris": {"android": "https://dc.lft.to/lastmile_qr_scan", "ios": "https://dc.lft.to/lastmile_qr_scan"}, "lon": -77.00760366666667, "fusion_lat": 0.0}, {"name": "8469a16bbf12e8dd282bf95afc6f5e27", "fusion_lon": 0.0, "lat": 38.888895, "is_reserved": 0, "type": "electric_scooter", "bike_id": "8469a16bbf12e8dd282bf95afc6f5e27", "is_disabled": 0, "rental_uris": {"android": "https://dc.lft.to/lastmile_qr_scan", "ios": "https://dc.lft.to/lastmile_qr_scan"}, "lon": -76.94783483333333, "fusion_lat": 0.0}, {"name": "14f0fce2fc591ab27e8ff224f3ef2eed", "fusion_lon": 0.0, "lat": 38.79611966666667, "is_reserved": 0, "type": "electric_bike", "bike_id": "14f0fce2fc591ab27e8ff224f3ef2eed", "is_disabled": 0, "rental_uris": {"android": "https://dc.lft.to/lastmile_qr_scan", "ios": "https://dc.lft.to/lastmile_qr_scan"}, "lon": -76.997453, "fusion_lat": 0.0}, {"name": "bea44d59a4cc011d20fd5505b18d4228", "fusion_lon": 0.0, "lat": 38.91990833333333, "is_reserved": 0, "type": "electric_scooter", "bike_id": "bea44d59a4cc011d20fd5505b18d4228", "is_disabled": 0, "rental_uris": {"android": "https://dc.lft.to/lastmile_qr_scan", "ios": "https://dc.lft.to/lastmile_qr_scan"}, "lon": -77.02400066666667, "fusion_lat": 0.0}, {"name": "d7409ad7a2cb3b7ba4b9eac810d620b0", "fusion_lon": 0.0, "lat": 38.93007633333333, "is_reserved": 0, "type": "electric_scooter", "bike_id": "d7409ad7a2cb3b7ba4b9eac810d620b0", "is_disabled": 0, "rental_uris": {"android": "https://dc.lft.to/lastmile_qr_scan", "ios": "https://dc.lft.to/lastmile_qr_scan"}, "lon": -77.03780966666666, "fusion_lat": 0.0}, {"name": "cadda5346608c118047926815fcda333", "fusion_lon": 0.0, "lat": 38.931294, "is_reserved": 0, "type": "electric_scooter", "bike_id": "cadda5346608c118047926815fcda333", "is_disabled": 0, "rental_uris": {"android": "https://dc.lft.to/lastmile_qr_scan", "ios": "https://dc.lft.to/lastmile_qr_scan"}, "lon": -77.0330405, "fusion_lat": 0.0}, {"name": "5b8183b93dda409559c0ff545581e11e", "fusion_lon": 0.0, "lat": 38.8472935, "is_reserved": 0, "type": "electric_bike", "bike_id": "5b8183b93dda409559c0ff545581e11e", "is_disabled": 0, "rental_uris": {"android": "https://dc.lft.to/lastmile_qr_scan", "ios": "https://dc.lft.to/lastmile_qr_scan"}, "lon": -77.1198845, "fusion_lat": 0.0}, {"name": "35475bcec06e9964ba3b367f2dde82a3", "fusion_lon": 0.0, "lat": 38.907716666666666, "is_reserved": 0, "type": "electric_scooter", "bike_id": "35475bcec06e9964ba3b367f2dde82a3", "is_disabled": 0, "rental_uris": {"android": "https://dc.lft.to/lastmile_qr_scan", "ios": "https://dc.lft.to/lastmile_qr_scan"}, "lon": -77.029668, "fusion_lat": 0.0}, {"name": "1892ba12b633b738da55bda1c9163230", "fusion_lon": 0.0, "lat": 38.8773455, "is_reserved": 0, "type": "electric_scooter", "bike_id": "1892ba12b633b738da55bda1c9163230", "is_disabled": 0, "rental_uris": {"android": "https://dc.lft.to/lastmile_qr_scan", "ios": "https://dc.lft.to/lastmile_qr_scan"}, "lon": -77.01787933333334, "fusion_lat": 0.0}, {"name": "862d1f6fec4f911751caae96dad0ef4a", "fusion_lon": 0.0, "lat": 38.920357, "is_reserved": 0, "type": "electric_scooter", "bike_id": "862d1f6fec4f911751caae96dad0ef4a", "is_disabled": 0, "rental_uris": {"android": "https://dc.lft.to/lastmile_qr_scan", "ios": "https://dc.lft.to/lastmile_qr_scan"}, "lon": -77.02582833333334, "fusion_lat": 0.0}, {"name": "a60f25d19484c6062dcf0aa9d39556b8", "fusion_lon": 0.0, "lat": 38.899131833333335, "is_reserved": 0, "type": "electric_scooter", "bike_id": "a60f25d19484c6062dcf0aa9d39556b8", "is_disabled": 0, "rental_uris": {"android": "https://dc.lft.to/lastmile_qr_scan", "ios": "https://dc.lft.to/lastmile_qr_scan"}, "lon": -76.93377883333334, "fusion_lat": 0.0}, {"name": "538fc445a6aed608de989ffa41ffacb4", "fusion_lon": 0.0, "lat": 38.9033455, "is_reserved": 0, "type": "electric_scooter", "bike_id": "538fc445a6aed608de989ffa41ffacb4", "is_disabled": 0, "rental_uris": {"android": "https://dc.lft.to/lastmile_qr_scan", "ios": "https://dc.lft.to/lastmile_qr_scan"}, "lon": -76.9758275, "fusion_lat": 0.0}, {"name": "a2f5c1e8efbe556f4324d74808faaa16", "fusion_lon": 0.0, "lat": 38.8922275, "is_reserved": 0, "type": "electric_scooter", "bike_id": "a2f5c1e8efbe556f4324d74808faaa16", "is_disabled": 0, "rental_uris": {"android": "https://dc.lft.to/lastmile_qr_scan", "ios": "https://dc.lft.to/lastmile_qr_scan"}, "lon": -77.0127855, "fusion_lat": 0.0}, {"name": "6dcf19521647bd26732ffd28c8d52bd0", "fusion_lon": 0.0, "lat": 38.929807833333335, "is_reserved": 0, "type": "electric_scooter", "bike_id": "6dcf19521647bd26732ffd28c8d52bd0", "is_disabled": 0, "rental_uris": {"android": "https://dc.lft.to/lastmile_qr_scan", "ios": "https://dc.lft.to/lastmile_qr_scan"}, "lon": -77.03659833333333, "fusion_lat": 0.0}, {"name": "419e2b16d5bf7e96d3a1358b6f629112", "fusion_lon": 0.0, "lat": 38.854219666666665, "is_reserved": 0, "type": "electric_bike", "bike_id": "419e2b16d5bf7e96d3a1358b6f629112", "is_disabled": 0, "rental_uris": {"android": "https://dc.lft.to/lastmile_qr_scan", "ios": "https://dc.lft.to/lastmile_qr_scan"}, "lon": -77.1208, "fusion_lat": 0.0}, {"name": "353c8d6be152c0ca5760191b882c4475", "fusion_lon": 0.0, "lat": 38.923383, "is_reserved": 0, "type": "electric_scooter", "bike_id": "353c8d6be152c0ca5760191b882c4475", "is_disabled": 0, "rental_uris": {"android": "https://dc.lft.to/lastmile_qr_scan", "ios": "https://dc.lft.to/lastmile_qr_scan"}, "lon": -77.05249066666667, "fusion_lat": 0.0}, {"name": "49260582d912172ccf1871474fdcfcff", "fusion_lon": 0.0, "lat": 38.90151566666667, "is_reserved": 0, "type": "electric_scooter", "bike_id": "49260582d912172ccf1871474fdcfcff", "is_disabled": 0, "rental_uris": {"android": "https://dc.lft.to/lastmile_qr_scan", "ios": "https://dc.lft.to/lastmile_qr_scan"}, "lon": -76.9213945, "fusion_lat": 0.0}, {"name": "73c2a40fe2b1b46ac1c070347a3f21b5", "fusion_lon": 0.0, "lat": 38.89827983333333, "is_reserved": 0, "type": "electric_scooter", "bike_id": "73c2a40fe2b1b46ac1c070347a3f21b5", "is_disabled": 0, "rental_uris": {"android": "https://dc.lft.to/lastmile_qr_scan", "ios": "https://dc.lft.to/lastmile_qr_scan"}, "lon": -77.04955716666667, "fusion_lat": 0.0}, {"name": "cd4b682b0e3e3012b7ff9193f457b79f", "fusion_lon": 0.0, "lat": 38.9140585, "is_reserved": 0, "type": "electric_scooter", "bike_id": "cd4b682b0e3e3012b7ff9193f457b79f", "is_disabled": 0, "rental_uris": {"android": "https://dc.lft.to/lastmile_qr_scan", "ios": "https://dc.lft.to/lastmile_qr_scan"}, "lon": -77.04032633333334, "fusion_lat": 0.0}, {"name": "418c529aa7344cdead1a923f4a775b4d", "fusion_lon": 0.0, "lat": 38.882862, "is_reserved": 0, "type": "electric_bike", "bike_id": "418c529aa7344cdead1a923f4a775b4d", "is_disabled": 0, "rental_uris": {"android": "https://dc.lft.to/lastmile_qr_scan", "ios": "https://dc.lft.to/lastmile_qr_scan"}, "lon": -77.17191, "fusion_lat": 0.0}, {"name": "5c6f5d4d213e64c81921c8e1e8a07138", "fusion_lon": 0.0, "lat": 38.948202, "is_reserved": 0, "type": "electric_bike", "bike_id": "5c6f5d4d213e64c81921c8e1e8a07138", "is_disabled": 0, "rental_uris": {"android": "https://dc.lft.to/lastmile_qr_scan", "ios": "https://dc.lft.to/lastmile_qr_scan"}, "lon": -77.023728, "fusion_lat": 0.0}, {"name": "92a53a9c8f354d064dd974dcdc114b32", "fusion_lon": 0.0, "lat": 38.935299, "is_reserved": 0, "type": "electric_scooter", "bike_id": "92a53a9c8f354d064dd974dcdc114b32", "is_disabled": 0, "rental_uris": {"android": "https://dc.lft.to/lastmile_qr_scan", "ios": "https://dc.lft.to/lastmile_qr_scan"}, "lon": -77.0544815, "fusion_lat": 0.0}, {"name": "7f34382d2e206726a0c34700e49f0741", "fusion_lon": 0.0, "lat": 38.90645383333333, "is_reserved": 0, "type": "electric_scooter", "bike_id": "7f34382d2e206726a0c34700e49f0741", "is_disabled": 0, "rental_uris": {"android": "https://dc.lft.to/lastmile_qr_scan", "ios": "https://dc.lft.to/lastmile_qr_scan"}, "lon": -77.024936, "fusion_lat": 0.0}, {"name": "07d27556fe3d9dcd8e2e462c12eeee6d", "fusion_lon": 0.0, "lat": 38.89224333333333, "is_reserved": 0, "type": "electric_scooter", "bike_id": "07d27556fe3d9dcd8e2e462c12eeee6d", "is_disabled": 0, "rental_uris": {"android": "https://dc.lft.to/lastmile_qr_scan", "ios": "https://dc.lft.to/lastmile_qr_scan"}, "lon": -77.04376283333333, "fusion_lat": 0.0}, {"name": "d98db1d6acd3ccd59e99dce9ad58159d", "fusion_lon": 0.0, "lat": 38.92432316666667, "is_reserved": 0, "type": "electric_bike", "bike_id": "d98db1d6acd3ccd59e99dce9ad58159d", "is_disabled": 0, "rental_uris": {"android": "https://dc.lft.to/lastmile_qr_scan", "ios": "https://dc.lft.to/lastmile_qr_scan"}, "lon": -76.9965105, "fusion_lat": 0.0}, {"name": "ee42ae6571445d36b593e17c4cc9c793", "fusion_lon": 0.0, "lat": 38.89516866666666, "is_reserved": 0, "type": "electric_scooter", "bike_id": "ee42ae6571445d36b593e17c4cc9c793", "is_disabled": 0, "rental_uris": {"android": "https://dc.lft.to/lastmile_qr_scan", "ios": "https://dc.lft.to/lastmile_qr_scan"}, "lon": -76.98828166666667, "fusion_lat": 0.0}, {"name": "461e341cac4f234594a9547f9513ce4b", "fusion_lon": 0.0, "lat": 38.902074166666665, "is_reserved": 0, "type": "electric_scooter", "bike_id": "461e341cac4f234594a9547f9513ce4b", "is_disabled": 0, "rental_uris": {"android": "https://dc.lft.to/lastmile_qr_scan", "ios": "https://dc.lft.to/lastmile_qr_scan"}, "lon": -77.02378083333333, "fusion_lat": 0.0}, {"name": "65f6d42056d38f9c1b82907cc55b0825", "fusion_lon": 0.0, "lat": 38.9148505, "is_reserved": 0, "type": "electric_scooter", "bike_id": "65f6d42056d38f9c1b82907cc55b0825", "is_disabled": 0, "rental_uris": {"android": "https://dc.lft.to/lastmile_qr_scan", "ios": "https://dc.lft.to/lastmile_qr_scan"}, "lon": -76.985755, "fusion_lat": 0.0}, {"name": "2e926ef758a43d779586313c2fb09c13", "fusion_lon": 0.0, "lat": 38.91789433333334, "is_reserved": 0, "type": "electric_scooter", "bike_id": "2e926ef758a43d779586313c2fb09c13", "is_disabled": 0, "rental_uris": {"android": "https://dc.lft.to/lastmile_qr_scan", "ios": "https://dc.lft.to/lastmile_qr_scan"}, "lon": -77.032027, "fusion_lat": 0.0}, {"name": "a62d7e8c2d04d6219024754d30b5958b", "fusion_lon": 0.0, "lat": 38.923563333333334, "is_reserved": 0, "type": "electric_scooter", "bike_id": "a62d7e8c2d04d6219024754d30b5958b", "is_disabled": 0, "rental_uris": {"android": "https://dc.lft.to/lastmile_qr_scan", "ios": "https://dc.lft.to/lastmile_qr_scan"}, "lon": -77.05079, "fusion_lat": 0.0}, {"name": "a5acc80b529ca503ef6eb137902a5dc6", "fusion_lon": 0.0, "lat": 38.902396, "is_reserved": 0, "type": "electric_scooter", "bike_id": "a5acc80b529ca503ef6eb137902a5dc6", "is_disabled": 0, "rental_uris": {"android": "https://dc.lft.to/lastmile_qr_scan", "ios": "https://dc.lft.to/lastmile_qr_scan"}, "lon": -76.9740905, "fusion_lat": 0.0}, {"name": "5579db423733e25d9323882091e69914", "fusion_lon": 0.0, "lat": 38.91987066666667, "is_reserved": 0, "type": "electric_scooter", "bike_id": "5579db423733e25d9323882091e69914", "is_disabled": 0, "rental_uris": {"android": "https://dc.lft.to/lastmile_qr_scan", "ios": "https://dc.lft.to/lastmile_qr_scan"}, "lon": -76.97303883333333, "fusion_lat": 0.0}, {"name": "038c63ec50b53ff33f2c1457f0a53a1e", "fusion_lon": 0.0, "lat": 38.921138, "is_reserved": 0, "type": "electric_scooter", "bike_id": "038c63ec50b53ff33f2c1457f0a53a1e", "is_disabled": 0, "rental_uris": {"android": "https://dc.lft.to/lastmile_qr_scan", "ios": "https://dc.lft.to/lastmile_qr_scan"}, "lon": -77.0332905, "fusion_lat": 0.0}, {"name": "0f6424f631e6867f559fc736f6419a0d", "fusion_lon": 0.0, "lat": 38.92503716666667, "is_reserved": 0, "type": "electric_scooter", "bike_id": "0f6424f631e6867f559fc736f6419a0d", "is_disabled": 0, "rental_uris": {"android": "https://dc.lft.to/lastmile_qr_scan", "ios": "https://dc.lft.to/lastmile_qr_scan"}, "lon": -77.008907, "fusion_lat": 0.0}, {"name": "bd55a2f2eeb4a745ccfb914e2e3ac027", "fusion_lon": 0.0, "lat": 38.90776983333333, "is_reserved": 0, "type": "electric_scooter", "bike_id": "bd55a2f2eeb4a745ccfb914e2e3ac027", "is_disabled": 0, "rental_uris": {"android": "https://dc.lft.to/lastmile_qr_scan", "ios": "https://dc.lft.to/lastmile_qr_scan"}, "lon": -77.0382655, "fusion_lat": 0.0}, {"name": "6789e9aea138741a9c5a00e5c24e537a", "fusion_lon": 0.0, "lat": 38.86239066666667, "is_reserved": 0, "type": "electric_scooter", "bike_id": "6789e9aea138741a9c5a00e5c24e537a", "is_disabled": 0, "rental_uris": {"android": "https://dc.lft.to/lastmile_qr_scan", "ios": "https://dc.lft.to/lastmile_qr_scan"}, "lon": -76.9949355, "fusion_lat": 0.0}, {"name": "6fb33d9d44d15ec469f5296860452dc5", "fusion_lon": 0.0, "lat": 38.874581166666665, "is_reserved": 0, "type": "electric_scooter", "bike_id": "6fb33d9d44d15ec469f5296860452dc5", "is_disabled": 0, "rental_uris": {"android": "https://dc.lft.to/lastmile_qr_scan", "ios": "https://dc.lft.to/lastmile_qr_scan"}, "lon": -77.00544, "fusion_lat": 0.0}, {"name": "11d92a5c1fdf111b32c5e7051bbebc0f", "fusion_lon": 0.0, "lat": 38.9003445, "is_reserved": 0, "type": "electric_scooter", "bike_id": "11d92a5c1fdf111b32c5e7051bbebc0f", "is_disabled": 0, "rental_uris": {"android": "https://dc.lft.to/lastmile_qr_scan", "ios": "https://dc.lft.to/lastmile_qr_scan"}, "lon": -76.9881785, "fusion_lat": 0.0}, {"name": "b17a5db6b951775b59ed3fae515bdf64", "fusion_lon": 0.0, "lat": 38.92825366666667, "is_reserved": 0, "type": "electric_scooter", "bike_id": "b17a5db6b951775b59ed3fae515bdf64", "is_disabled": 0, "rental_uris": {"android": "https://dc.lft.to/lastmile_qr_scan", "ios": "https://dc.lft.to/lastmile_qr_scan"}, "lon": -77.02626866666667, "fusion_lat": 0.0}, {"name": "b8ac495ed12fa7d31af5074258226ce2", "fusion_lon": 0.0, "lat": 38.903469, "is_reserved": 0, "type": "electric_scooter", "bike_id": "b8ac495ed12fa7d31af5074258226ce2", "is_disabled": 0, "rental_uris": {"android": "https://dc.lft.to/lastmile_qr_scan", "ios": "https://dc.lft.to/lastmile_qr_scan"}, "lon": -76.97485666666667, "fusion_lat": 0.0}, {"name": "7d9395c3c73fb798c15032cb7df0544e", "fusion_lon": 0.0, "lat": 38.921193333333335, "is_reserved": 0, "type": "electric_scooter", "bike_id": "7d9395c3c73fb798c15032cb7df0544e", "is_disabled": 0, "rental_uris": {"android": "https://dc.lft.to/lastmile_qr_scan", "ios": "https://dc.lft.to/lastmile_qr_scan"}, "lon": -77.04572366666666, "fusion_lat": 0.0}, {"name": "4ba94156aa9bae7a7d2a6c5fa736cef7", "fusion_lon": 0.0, "lat": 38.92512083333333, "is_reserved": 0, "type": "electric_scooter", "bike_id": "4ba94156aa9bae7a7d2a6c5fa736cef7", "is_disabled": 0, "rental_uris": {"android": "https://dc.lft.to/lastmile_qr_scan", "ios": "https://dc.lft.to/lastmile_qr_scan"}, "lon": -77.0525655, "fusion_lat": 0.0}, {"name": "6253dbb8d3d08e890c0f9446c93e8c39", "fusion_lon": 0.0, "lat": 38.90054166666667, "is_reserved": 0, "type": "electric_scooter", "bike_id": "6253dbb8d3d08e890c0f9446c93e8c39", "is_disabled": 0, "rental_uris": {"android": "https://dc.lft.to/lastmile_qr_scan", "ios": "https://dc.lft.to/lastmile_qr_scan"}, "lon": -77.02918416666667, "fusion_lat": 0.0}, {"name": "5906eb6313ccff68eeff1bd97b964b80", "fusion_lon": 0.0, "lat": 38.90716916666667, "is_reserved": 0, "type": "electric_scooter", "bike_id": "5906eb6313ccff68eeff1bd97b964b80", "is_disabled": 0, "rental_uris": {"android": "https://dc.lft.to/lastmile_qr_scan", "ios": "https://dc.lft.to/lastmile_qr_scan"}, "lon": -77.01013833333333, "fusion_lat": 0.0}, {"name": "0cabb34694a6d3640de9369de5a98e21", "fusion_lon": 0.0, "lat": 38.907117166666666, "is_reserved": 0, "type": "electric_scooter", "bike_id": "0cabb34694a6d3640de9369de5a98e21", "is_disabled": 0, "rental_uris": {"android": "https://dc.lft.to/lastmile_qr_scan", "ios": "https://dc.lft.to/lastmile_qr_scan"}, "lon": -77.0344335, "fusion_lat": 0.0}, {"name": "7c5b7258280d95eb2573852ce4975d98", "fusion_lon": 0.0, "lat": 38.91824583333333, "is_reserved": 0, "type": "electric_scooter", "bike_id": "7c5b7258280d95eb2573852ce4975d98", "is_disabled": 0, "rental_uris": {"android": "https://dc.lft.to/lastmile_qr_scan", "ios": "https://dc.lft.to/lastmile_qr_scan"}, "lon": -77.025044, "fusion_lat": 0.0}, {"name": "113657428e03dce851fd7e4e1174b86d", "fusion_lon": 0.0, "lat": 38.91924066666667, "is_reserved": 0, "type": "electric_scooter", "bike_id": "113657428e03dce851fd7e4e1174b86d", "is_disabled": 0, "rental_uris": {"android": "https://dc.lft.to/lastmile_qr_scan", "ios": "https://dc.lft.to/lastmile_qr_scan"}, "lon": -77.0251775, "fusion_lat": 0.0}, {"name": "97217e8b2fe9e9d4a918be268002d49c", "fusion_lon": 0.0, "lat": 38.89735266666667, "is_reserved": 0, "type": "electric_scooter", "bike_id": "97217e8b2fe9e9d4a918be268002d49c", "is_disabled": 0, "rental_uris": {"android": "https://dc.lft.to/lastmile_qr_scan", "ios": "https://dc.lft.to/lastmile_qr_scan"}, "lon": -77.05578683333333, "fusion_lat": 0.0}, {"name": "85e014ad08553a02e567bb44f59e4ff4", "fusion_lon": 0.0, "lat": 38.90035683333333, "is_reserved": 0, "type": "electric_scooter", "bike_id": "85e014ad08553a02e567bb44f59e4ff4", "is_disabled": 0, "rental_uris": {"android": "https://dc.lft.to/lastmile_qr_scan", "ios": "https://dc.lft.to/lastmile_qr_scan"}, "lon": -77.01768633333333, "fusion_lat": 0.0}, {"name": "eb08b3f1fa9fb6430440d1cd3ba9e644", "fusion_lon": 0.0, "lat": 38.951816, "is_reserved": 0, "type": "electric_scooter", "bike_id": "eb08b3f1fa9fb6430440d1cd3ba9e644", "is_disabled": 0, "rental_uris": {"android": "https://dc.lft.to/lastmile_qr_scan", "ios": "https://dc.lft.to/lastmile_qr_scan"}, "lon": -77.02726616666666, "fusion_lat": 0.0}, {"name": "0a693ae100b87f2d6bfbe6cae23fd105", "fusion_lon": 0.0, "lat": 38.91190816666666, "is_reserved": 0, "type": "electric_scooter", "bike_id": "0a693ae100b87f2d6bfbe6cae23fd105", "is_disabled": 0, "rental_uris": {"android": "https://dc.lft.to/lastmile_qr_scan", "ios": "https://dc.lft.to/lastmile_qr_scan"}, "lon": -77.01776933333333, "fusion_lat": 0.0}, {"name": "f5fd6e7832e2857ae827034ef0cac063", "fusion_lon": 0.0, "lat": 38.900329166666666, "is_reserved": 0, "type": "electric_scooter", "bike_id": "f5fd6e7832e2857ae827034ef0cac063", "is_disabled": 0, "rental_uris": {"android": "https://dc.lft.to/lastmile_qr_scan", "ios": "https://dc.lft.to/lastmile_qr_scan"}, "lon": -76.996941, "fusion_lat": 0.0}, {"name": "4ddcf11e0e2cac51455b52b65b66fdcc", "fusion_lon": 0.0, "lat": 38.9002615, "is_reserved": 0, "type": "electric_scooter", "bike_id": "4ddcf11e0e2cac51455b52b65b66fdcc", "is_disabled": 0, "rental_uris": {"android": "https://dc.lft.to/lastmile_qr_scan", "ios": "https://dc.lft.to/lastmile_qr_scan"}, "lon": -76.9804045, "fusion_lat": 0.0}, {"name": "bbc7ac6e5930d7dacb3e852db2aa606f", "fusion_lon": 0.0, "lat": 38.902681666666666, "is_reserved": 0, "type": "electric_scooter", "bike_id": "bbc7ac6e5930d7dacb3e852db2aa606f", "is_disabled": 0, "rental_uris": {"android": "https://dc.lft.to/lastmile_qr_scan", "ios": "https://dc.lft.to/lastmile_qr_scan"}, "lon": -77.01763233333334, "fusion_lat": 0.0}, {"name": "ac43f570ef2f0da7654d08863fca57ee", "fusion_lon": 0.0, "lat": 38.91683333333334, "is_reserved": 0, "type": "electric_scooter", "bike_id": "ac43f570ef2f0da7654d08863fca57ee", "is_disabled": 0, "rental_uris": {"android": "https://dc.lft.to/lastmile_qr_scan", "ios": "https://dc.lft.to/lastmile_qr_scan"}, "lon": -77.02696916666666, "fusion_lat": 0.0}, {"name": "f17011c777d05be16a7bcb1edd1df4b2", "fusion_lon": 0.0, "lat": 38.92608666666667, "is_reserved": 0, "type": "electric_scooter", "bike_id": "f17011c777d05be16a7bcb1edd1df4b2", "is_disabled": 0, "rental_uris": {"android": "https://dc.lft.to/lastmile_qr_scan", "ios": "https://dc.lft.to/lastmile_qr_scan"}, "lon": -77.06629533333333, "fusion_lat": 0.0}, {"name": "87492ccb9176de73e0b192f18ec94a45", "fusion_lon": 0.0, "lat": 38.92385983333333, "is_reserved": 0, "type": "electric_scooter", "bike_id": "87492ccb9176de73e0b192f18ec94a45", "is_disabled": 0, "rental_uris": {"android": "https://dc.lft.to/lastmile_qr_scan", "ios": "https://dc.lft.to/lastmile_qr_scan"}, "lon": -77.02564633333333, "fusion_lat": 0.0}, {"name": "3e47f04abd9642cf497ac0d8e285ac04", "fusion_lon": 0.0, "lat": 38.92793566666667, "is_reserved": 0, "type": "electric_scooter", "bike_id": "3e47f04abd9642cf497ac0d8e285ac04", "is_disabled": 0, "rental_uris": {"android": "https://dc.lft.to/lastmile_qr_scan", "ios": "https://dc.lft.to/lastmile_qr_scan"}, "lon": -77.03024566666667, "fusion_lat": 0.0}, {"name": "1433ee1d3e3f45075f50abe1b18693d3", "fusion_lon": 0.0, "lat": 38.83447133333333, "is_reserved": 0, "type": "electric_scooter", "bike_id": "1433ee1d3e3f45075f50abe1b18693d3", "is_disabled": 0, "rental_uris": {"android": "https://dc.lft.to/lastmile_qr_scan", "ios": "https://dc.lft.to/lastmile_qr_scan"}, "lon": -76.9907545, "fusion_lat": 0.0}, {"name": "5d4dbd2e675a489b7f07e8cc17f135d2", "fusion_lon": 0.0, "lat": 38.95755716666667, "is_reserved": 0, "type": "electric_scooter", "bike_id": "5d4dbd2e675a489b7f07e8cc17f135d2", "is_disabled": 0, "rental_uris": {"android": "https://dc.lft.to/lastmile_qr_scan", "ios": "https://dc.lft.to/lastmile_qr_scan"}, "lon": -77.02101733333333, "fusion_lat": 0.0}, {"name": "4149b91483d50b0a6625d9b9e146b9f2", "fusion_lon": 0.0, "lat": 38.917523833333334, "is_reserved": 0, "type": "electric_bike", "bike_id": "4149b91483d50b0a6625d9b9e146b9f2", "is_disabled": 0, "rental_uris": {"android": "https://dc.lft.to/lastmile_qr_scan", "ios": "https://dc.lft.to/lastmile_qr_scan"}, "lon": -77.0005265, "fusion_lat": 0.0}, {"name": "f2295d6b65b4849bf9ce55d081858866", "fusion_lon": 0.0, "lat": 38.904390666666664, "is_reserved": 0, "type": "electric_scooter", "bike_id": "f2295d6b65b4849bf9ce55d081858866", "is_disabled": 0, "rental_uris": {"android": "https://dc.lft.to/lastmile_qr_scan", "ios": "https://dc.lft.to/lastmile_qr_scan"}, "lon": -76.9848545, "fusion_lat": 0.0}, {"name": "5913e4e49b44522c0eb9fae241d37f4b", "fusion_lon": 0.0, "lat": 38.8962785, "is_reserved": 0, "type": "electric_scooter", "bike_id": "5913e4e49b44522c0eb9fae241d37f4b", "is_disabled": 0, "rental_uris": {"android": "https://dc.lft.to/lastmile_qr_scan", "ios": "https://dc.lft.to/lastmile_qr_scan"}, "lon": -77.0298395, "fusion_lat": 0.0}, {"name": "200fc3af903c5839dd0f6e1ef44aaeba", "fusion_lon": 0.0, "lat": 38.875782, "is_reserved": 0, "type": "electric_scooter", "bike_id": "200fc3af903c5839dd0f6e1ef44aaeba", "is_disabled": 0, "rental_uris": {"android": "https://dc.lft.to/lastmile_qr_scan", "ios": "https://dc.lft.to/lastmile_qr_scan"}, "lon": -77.00613316666667, "fusion_lat": 0.0}, {"name": "1c92d40fbd118bb20af135f2fbb04679", "fusion_lon": 0.0, "lat": 38.874678833333334, "is_reserved": 0, "type": "electric_scooter", "bike_id": "1c92d40fbd118bb20af135f2fbb04679", "is_disabled": 0, "rental_uris": {"android": "https://dc.lft.to/lastmile_qr_scan", "ios": "https://dc.lft.to/lastmile_qr_scan"}, "lon": -77.01594966666667, "fusion_lat": 0.0}, {"name": "88c198718ffe39150893bce8b33f50a5", "fusion_lon": 0.0, "lat": 38.92383983333333, "is_reserved": 0, "type": "electric_scooter", "bike_id": "88c198718ffe39150893bce8b33f50a5", "is_disabled": 0, "rental_uris": {"android": "https://dc.lft.to/lastmile_qr_scan", "ios": "https://dc.lft.to/lastmile_qr_scan"}, "lon": -77.05188583333333, "fusion_lat": 0.0}, {"name": "0a9afd1d9c2188297ac76d6c8a7c15b6", "fusion_lon": 0.0, "lat": 38.933738166666664, "is_reserved": 0, "type": "electric_scooter", "bike_id": "0a9afd1d9c2188297ac76d6c8a7c15b6", "is_disabled": 0, "rental_uris": {"android": "https://dc.lft.to/lastmile_qr_scan", "ios": "https://dc.lft.to/lastmile_qr_scan"}, "lon": -77.02687983333334, "fusion_lat": 0.0}, {"name": "13a7cad10c375b25e5fc7a60311b5b2a", "fusion_lon": 0.0, "lat": 38.87351266666667, "is_reserved": 0, "type": "electric_scooter", "bike_id": "13a7cad10c375b25e5fc7a60311b5b2a", "is_disabled": 0, "rental_uris": {"android": "https://dc.lft.to/lastmile_qr_scan", "ios": "https://dc.lft.to/lastmile_qr_scan"}, "lon": -77.00262316666667, "fusion_lat": 0.0}, {"name": "c351500f3f96a67ace0ed117a07ee768", "fusion_lon": 0.0, "lat": 38.90090716666667, "is_reserved": 0, "type": "electric_scooter", "bike_id": "c351500f3f96a67ace0ed117a07ee768", "is_disabled": 0, "rental_uris": {"android": "https://dc.lft.to/lastmile_qr_scan", "ios": "https://dc.lft.to/lastmile_qr_scan"}, "lon": -77.01227733333333, "fusion_lat": 0.0}, {"name": "3cf5052fc97f16094bb4e0b773da57d6", "fusion_lon": 0.0, "lat": 38.918443833333335, "is_reserved": 0, "type": "electric_scooter", "bike_id": "3cf5052fc97f16094bb4e0b773da57d6", "is_disabled": 0, "rental_uris": {"android": "https://dc.lft.to/lastmile_qr_scan", "ios": "https://dc.lft.to/lastmile_qr_scan"}, "lon": -77.02327383333333, "fusion_lat": 0.0}, {"name": "840271771fd5d069df944eced83e6905", "fusion_lon": 0.0, "lat": 38.948238333333336, "is_reserved": 0, "type": "electric_scooter", "bike_id": "840271771fd5d069df944eced83e6905", "is_disabled": 0, "rental_uris": {"android": "https://dc.lft.to/lastmile_qr_scan", "ios": "https://dc.lft.to/lastmile_qr_scan"}, "lon": -77.07892016666666, "fusion_lat": 0.0}, {"name": "c6d86f4691ff3dbf44d4ce30b4f6e61c", "fusion_lon": 0.0, "lat": 38.8608395, "is_reserved": 0, "type": "electric_scooter", "bike_id": "c6d86f4691ff3dbf44d4ce30b4f6e61c", "is_disabled": 0, "rental_uris": {"android": "https://dc.lft.to/lastmile_qr_scan", "ios": "https://dc.lft.to/lastmile_qr_scan"}, "lon": -76.96867083333333, "fusion_lat": 0.0}, {"name": "9c7757a41e89f117bf519097353f3ede", "fusion_lon": 0.0, "lat": 38.90051416666667, "is_reserved": 0, "type": "electric_scooter", "bike_id": "9c7757a41e89f117bf519097353f3ede", "is_disabled": 0, "rental_uris": {"android": "https://dc.lft.to/lastmile_qr_scan", "ios": "https://dc.lft.to/lastmile_qr_scan"}, "lon": -77.02169, "fusion_lat": 0.0}, {"name": "9ad80fa4f217a7d520ba215ae2c1ec1c", "fusion_lon": 0.0, "lat": 38.922396166666665, "is_reserved": 0, "type": "electric_scooter", "bike_id": "9ad80fa4f217a7d520ba215ae2c1ec1c", "is_disabled": 0, "rental_uris": {"android": "https://dc.lft.to/lastmile_qr_scan", "ios": "https://dc.lft.to/lastmile_qr_scan"}, "lon": -77.03519316666667, "fusion_lat": 0.0}, {"name": "0c8ea17062857729e58b2acf4822eef0", "fusion_lon": 0.0, "lat": 38.9168535, "is_reserved": 0, "type": "electric_scooter", "bike_id": "0c8ea17062857729e58b2acf4822eef0", "is_disabled": 0, "rental_uris": {"android": "https://dc.lft.to/lastmile_qr_scan", "ios": "https://dc.lft.to/lastmile_qr_scan"}, "lon": -77.03695233333333, "fusion_lat": 0.0}, {"name": "1585b68038b86f943c5bd9381aac6537", "fusion_lon": 0.0, "lat": 38.899255833333335, "is_reserved": 0, "type": "electric_scooter", "bike_id": "1585b68038b86f943c5bd9381aac6537", "is_disabled": 0, "rental_uris": {"android": "https://dc.lft.to/lastmile_qr_scan", "ios": "https://dc.lft.to/lastmile_qr_scan"}, "lon": -77.07061416666667, "fusion_lat": 0.0}, {"name": "1ecb2a070ee531d9c88ed28a555a4ff0", "fusion_lon": 0.0, "lat": 38.923812, "is_reserved": 0, "type": "electric_scooter", "bike_id": "1ecb2a070ee531d9c88ed28a555a4ff0", "is_disabled": 0, "rental_uris": {"android": "https://dc.lft.to/lastmile_qr_scan", "ios": "https://dc.lft.to/lastmile_qr_scan"}, "lon": -77.03091883333333, "fusion_lat": 0.0}, {"name": "b0cd02a7b00a62a43f66b5cae6092779", "fusion_lon": 0.0, "lat": 38.911723, "is_reserved": 0, "type": "electric_scooter", "bike_id": "b0cd02a7b00a62a43f66b5cae6092779", "is_disabled": 0, "rental_uris": {"android": "https://dc.lft.to/lastmile_qr_scan", "ios": "https://dc.lft.to/lastmile_qr_scan"}, "lon": -77.0044575, "fusion_lat": 0.0}, {"name": "62282a002549b3618783a301c578676e", "fusion_lon": 0.0, "lat": 38.898411833333334, "is_reserved": 0, "type": "electric_scooter", "bike_id": "62282a002549b3618783a301c578676e", "is_disabled": 0, "rental_uris": {"android": "https://dc.lft.to/lastmile_qr_scan", "ios": "https://dc.lft.to/lastmile_qr_scan"}, "lon": -77.023892, "fusion_lat": 0.0}, {"name": "6cdb50f1f10900368f5b0a66bb22e942", "fusion_lon": 0.0, "lat": 38.89959366666667, "is_reserved": 0, "type": "electric_bike", "bike_id": "6cdb50f1f10900368f5b0a66bb22e942", "is_disabled": 0, "rental_uris": {"android": "https://dc.lft.to/lastmile_qr_scan", "ios": "https://dc.lft.to/lastmile_qr_scan"}, "lon": -76.98566133333334, "fusion_lat": 0.0}, {"name": "9bb8f746469b5caaa8fd3de192010960", "fusion_lon": 0.0, "lat": 38.91558033333333, "is_reserved": 0, "type": "electric_scooter", "bike_id": "9bb8f746469b5caaa8fd3de192010960", "is_disabled": 0, "rental_uris": {"android": "https://dc.lft.to/lastmile_qr_scan", "ios": "https://dc.lft.to/lastmile_qr_scan"}, "lon": -77.01041783333334, "fusion_lat": 0.0}, {"name": "a56039f67dc3d1cd7cb13e78a9a0d373", "fusion_lon": 0.0, "lat": 38.86630383333333, "is_reserved": 0, "type": "electric_scooter", "bike_id": "a56039f67dc3d1cd7cb13e78a9a0d373", "is_disabled": 0, "rental_uris": {"android": "https://dc.lft.to/lastmile_qr_scan", "ios": "https://dc.lft.to/lastmile_qr_scan"}, "lon": -76.98921833333333, "fusion_lat": 0.0}, {"name": "7ef31ebdee0e13e61ba5fe8b4e9222df", "fusion_lon": 0.0, "lat": 38.90396416666667, "is_reserved": 0, "type": "electric_scooter", "bike_id": "7ef31ebdee0e13e61ba5fe8b4e9222df", "is_disabled": 0, "rental_uris": {"android": "https://dc.lft.to/lastmile_qr_scan", "ios": "https://dc.lft.to/lastmile_qr_scan"}, "lon": -77.04521483333333, "fusion_lat": 0.0}, {"name": "9d5508694cb43cb91f9b634b7c57cc69", "fusion_lon": 0.0, "lat": 38.908410333333336, "is_reserved": 0, "type": "electric_scooter", "bike_id": "9d5508694cb43cb91f9b634b7c57cc69", "is_disabled": 0, "rental_uris": {"android": "https://dc.lft.to/lastmile_qr_scan", "ios": "https://dc.lft.to/lastmile_qr_scan"}, "lon": -77.00232666666666, "fusion_lat": 0.0}, {"name": "abc90cf55d92472011211e91708e4631", "fusion_lon": 0.0, "lat": 38.922546, "is_reserved": 0, "type": "electric_scooter", "bike_id": "abc90cf55d92472011211e91708e4631", "is_disabled": 0, "rental_uris": {"android": "https://dc.lft.to/lastmile_qr_scan", "ios": "https://dc.lft.to/lastmile_qr_scan"}, "lon": -77.03029366666667, "fusion_lat": 0.0}, {"name": "1361b5d78f8768c2f7ce04d431ca30f3", "fusion_lon": 0.0, "lat": 38.91550383333333, "is_reserved": 0, "type": "electric_scooter", "bike_id": "1361b5d78f8768c2f7ce04d431ca30f3", "is_disabled": 0, "rental_uris": {"android": "https://dc.lft.to/lastmile_qr_scan", "ios": "https://dc.lft.to/lastmile_qr_scan"}, "lon": -77.0417805, "fusion_lat": 0.0}, {"name": "b3763dd3a9774f82ef706b8b70116b7f", "fusion_lon": 0.0, "lat": 38.919939666666664, "is_reserved": 0, "type": "electric_scooter", "bike_id": "b3763dd3a9774f82ef706b8b70116b7f", "is_disabled": 0, "rental_uris": {"android": "https://dc.lft.to/lastmile_qr_scan", "ios": "https://dc.lft.to/lastmile_qr_scan"}, "lon": -77.032171, "fusion_lat": 0.0}, {"name": "12288be8ccfbfbf10762b1dcf90805d2", "fusion_lon": 0.0, "lat": 38.89708683333333, "is_reserved": 0, "type": "electric_scooter", "bike_id": "12288be8ccfbfbf10762b1dcf90805d2", "is_disabled": 0, "rental_uris": {"android": "https://dc.lft.to/lastmile_qr_scan", "ios": "https://dc.lft.to/lastmile_qr_scan"}, "lon": -76.93004083333334, "fusion_lat": 0.0}, {"name": "fe8bd650e7714946789628a80a188a81", "fusion_lon": 0.0, "lat": 38.916312, "is_reserved": 0, "type": "electric_scooter", "bike_id": "fe8bd650e7714946789628a80a188a81", "is_disabled": 0, "rental_uris": {"android": "https://dc.lft.to/lastmile_qr_scan", "ios": "https://dc.lft.to/lastmile_qr_scan"}, "lon": -77.023878, "fusion_lat": 0.0}, {"name": "dcf12071b83049733c52e8c36049e92d", "fusion_lon": 0.0, "lat": 38.97881816666667, "is_reserved": 0, "type": "electric_bike", "bike_id": "dcf12071b83049733c52e8c36049e92d", "is_disabled": 0, "rental_uris": {"android": "https://dc.lft.to/lastmile_qr_scan", "ios": "https://dc.lft.to/lastmile_qr_scan"}, "lon": -77.06032566666667, "fusion_lat": 0.0}, {"name": "b4b19864c121cf41ac7e8b96b7e40622", "fusion_lon": 0.0, "lat": 38.91681766666667, "is_reserved": 0, "type": "electric_scooter", "bike_id": "b4b19864c121cf41ac7e8b96b7e40622", "is_disabled": 0, "rental_uris": {"android": "https://dc.lft.to/lastmile_qr_scan", "ios": "https://dc.lft.to/lastmile_qr_scan"}, "lon": -77.0296915, "fusion_lat": 0.0}, {"name": "df4f9a890367e5411fcc4c8da5d45439", "fusion_lon": 0.0, "lat": 38.912435, "is_reserved": 0, "type": "electric_scooter", "bike_id": "df4f9a890367e5411fcc4c8da5d45439", "is_disabled": 0, "rental_uris": {"android": "https://dc.lft.to/lastmile_qr_scan", "ios": "https://dc.lft.to/lastmile_qr_scan"}, "lon": -77.034116, "fusion_lat": 0.0}, {"name": "8c4abc32e4f1be484547d9beac3e7d5a", "fusion_lon": 0.0, "lat": 38.90790966666667, "is_reserved": 0, "type": "electric_scooter", "bike_id": "8c4abc32e4f1be484547d9beac3e7d5a", "is_disabled": 0, "rental_uris": {"android": "https://dc.lft.to/lastmile_qr_scan", "ios": "https://dc.lft.to/lastmile_qr_scan"}, "lon": -77.00973483333334, "fusion_lat": 0.0}, {"name": "001b5a70c4f1b2fa0f82621799cd9b21", "fusion_lon": 0.0, "lat": 38.907196, "is_reserved": 0, "type": "electric_scooter", "bike_id": "001b5a70c4f1b2fa0f82621799cd9b21", "is_disabled": 0, "rental_uris": {"android": "https://dc.lft.to/lastmile_qr_scan", "ios": "https://dc.lft.to/lastmile_qr_scan"}, "lon": -77.02542133333333, "fusion_lat": 0.0}, {"name": "ecfc3cae413a0bffafda1ff33d75cbfa", "fusion_lon": 0.0, "lat": 38.905657, "is_reserved": 0, "type": "electric_scooter", "bike_id": "ecfc3cae413a0bffafda1ff33d75cbfa", "is_disabled": 0, "rental_uris": {"android": "https://dc.lft.to/lastmile_qr_scan", "ios": "https://dc.lft.to/lastmile_qr_scan"}, "lon": -77.03998966666667, "fusion_lat": 0.0}, {"name": "c43714d37838201cb7ff8b0af599736d", "fusion_lon": 0.0, "lat": 38.90628683333333, "is_reserved": 0, "type": "electric_bike", "bike_id": "c43714d37838201cb7ff8b0af599736d", "is_disabled": 0, "rental_uris": {"android": "https://dc.lft.to/lastmile_qr_scan", "ios": "https://dc.lft.to/lastmile_qr_scan"}, "lon": -76.98605233333333, "fusion_lat": 0.0}, {"name": "0d8540a3f4c45f02f902f51d204f76c7", "fusion_lon": 0.0, "lat": 38.9027165, "is_reserved": 0, "type": "electric_scooter", "bike_id": "0d8540a3f4c45f02f902f51d204f76c7", "is_disabled": 0, "rental_uris": {"android": "https://dc.lft.to/lastmile_qr_scan", "ios": "https://dc.lft.to/lastmile_qr_scan"}, "lon": -77.01763866666667, "fusion_lat": 0.0}, {"name": "257f20b949ca4655d45b34b1c9c49170", "fusion_lon": 0.0, "lat": 38.901646166666666, "is_reserved": 0, "type": "electric_scooter", "bike_id": "257f20b949ca4655d45b34b1c9c49170", "is_disabled": 0, "rental_uris": {"android": "https://dc.lft.to/lastmile_qr_scan", "ios": "https://dc.lft.to/lastmile_qr_scan"}, "lon": -77.02495866666666, "fusion_lat": 0.0}, {"name": "cc3cfbcee919f483ea409a38b971346e", "fusion_lon": 0.0, "lat": 38.91914533333333, "is_reserved": 0, "type": "electric_scooter", "bike_id": "cc3cfbcee919f483ea409a38b971346e", "is_disabled": 0, "rental_uris": {"android": "https://dc.lft.to/lastmile_qr_scan", "ios": "https://dc.lft.to/lastmile_qr_scan"}, "lon": -77.02619266666666, "fusion_lat": 0.0}, {"name": "546a81186f046980e5b359472ff3e2df", "fusion_lon": 0.0, "lat": 38.92090483333333, "is_reserved": 0, "type": "electric_scooter", "bike_id": "546a81186f046980e5b359472ff3e2df", "is_disabled": 0, "rental_uris": {"android": "https://dc.lft.to/lastmile_qr_scan", "ios": "https://dc.lft.to/lastmile_qr_scan"}, "lon": -77.0242075, "fusion_lat": 0.0}, {"name": "2080dbf4ba32bcba2855eb27b62b81f3", "fusion_lon": 0.0, "lat": 38.923880833333335, "is_reserved": 0, "type": "electric_scooter", "bike_id": "2080dbf4ba32bcba2855eb27b62b81f3", "is_disabled": 0, "rental_uris": {"android": "https://dc.lft.to/lastmile_qr_scan", "ios": "https://dc.lft.to/lastmile_qr_scan"}, "lon": -77.03663316666666, "fusion_lat": 0.0}, {"name": "32bf58cb05f3e993c6bc924ed84781be", "fusion_lon": 0.0, "lat": 38.924536833333335, "is_reserved": 0, "type": "electric_scooter", "bike_id": "32bf58cb05f3e993c6bc924ed84781be", "is_disabled": 0, "rental_uris": {"android": "https://dc.lft.to/lastmile_qr_scan", "ios": "https://dc.lft.to/lastmile_qr_scan"}, "lon": -77.04117933333333, "fusion_lat": 0.0}, {"name": "e57507e7ee46cbf92e963bdf68b044c3", "fusion_lon": 0.0, "lat": 38.8721235, "is_reserved": 0, "type": "electric_scooter", "bike_id": "e57507e7ee46cbf92e963bdf68b044c3", "is_disabled": 0, "rental_uris": {"android": "https://dc.lft.to/lastmile_qr_scan", "ios": "https://dc.lft.to/lastmile_qr_scan"}, "lon": -77.01636116666667, "fusion_lat": 0.0}, {"name": "04f0a95f95f0d904e5a343eda6d2a2e8", "fusion_lon": 0.0, "lat": 38.899835333333336, "is_reserved": 0, "type": "electric_scooter", "bike_id": "04f0a95f95f0d904e5a343eda6d2a2e8", "is_disabled": 0, "rental_uris": {"android": "https://dc.lft.to/lastmile_qr_scan", "ios": "https://dc.lft.to/lastmile_qr_scan"}, "lon": -77.00645, "fusion_lat": 0.0}, {"name": "1c4cba65dd1dc0ef18fc16aeb6e301c1", "fusion_lon": 0.0, "lat": 38.91922816666667, "is_reserved": 0, "type": "electric_scooter", "bike_id": "1c4cba65dd1dc0ef18fc16aeb6e301c1", "is_disabled": 0, "rental_uris": {"android": "https://dc.lft.to/lastmile_qr_scan", "ios": "https://dc.lft.to/lastmile_qr_scan"}, "lon": -77.0247575, "fusion_lat": 0.0}, {"name": "e1937473b68f94790998375b38f464db", "fusion_lon": 0.0, "lat": 38.90344, "is_reserved": 0, "type": "electric_scooter", "bike_id": "e1937473b68f94790998375b38f464db", "is_disabled": 0, "rental_uris": {"android": "https://dc.lft.to/lastmile_qr_scan", "ios": "https://dc.lft.to/lastmile_qr_scan"}, "lon": -77.050091, "fusion_lat": 0.0}, {"name": "ec43e0254960708c01ca8790d623f4fd", "fusion_lon": 0.0, "lat": 38.888168666666665, "is_reserved": 0, "type": "electric_scooter", "bike_id": "ec43e0254960708c01ca8790d623f4fd", "is_disabled": 0, "rental_uris": {"android": "https://dc.lft.to/lastmile_qr_scan", "ios": "https://dc.lft.to/lastmile_qr_scan"}, "lon": -77.01488516666667, "fusion_lat": 0.0}, {"name": "e7ca3c140212941655660e14dc89f952", "fusion_lon": 0.0, "lat": 38.89791066666667, "is_reserved": 0, "type": "electric_scooter", "bike_id": "e7ca3c140212941655660e14dc89f952", "is_disabled": 0, "rental_uris": {"android": "https://dc.lft.to/lastmile_qr_scan", "ios": "https://dc.lft.to/lastmile_qr_scan"}, "lon": -77.00916316666667, "fusion_lat": 0.0}, {"name": "5ccbef33c9174e30725c622a93a25b95", "fusion_lon": 0.0, "lat": 38.952952, "is_reserved": 0, "type": "electric_bike", "bike_id": "5ccbef33c9174e30725c622a93a25b95", "is_disabled": 0, "rental_uris": {"android": "https://dc.lft.to/lastmile_qr_scan", "ios": "https://dc.lft.to/lastmile_qr_scan"}, "lon": -77.02400433333334, "fusion_lat": 0.0}, {"name": "31b7f71a321fd9c32b3b0ccc5135ee2f", "fusion_lon": 0.0, "lat": 38.922331166666666, "is_reserved": 0, "type": "electric_scooter", "bike_id": "31b7f71a321fd9c32b3b0ccc5135ee2f", "is_disabled": 0, "rental_uris": {"android": "https://dc.lft.to/lastmile_qr_scan", "ios": "https://dc.lft.to/lastmile_qr_scan"}, "lon": -77.04498183333334, "fusion_lat": 0.0}, {"name": "00d3e2b98f70194c856ca1ad03b03595", "fusion_lon": 0.0, "lat": 38.917719166666664, "is_reserved": 0, "type": "electric_scooter", "bike_id": "00d3e2b98f70194c856ca1ad03b03595", "is_disabled": 0, "rental_uris": {"android": "https://dc.lft.to/lastmile_qr_scan", "ios": "https://dc.lft.to/lastmile_qr_scan"}, "lon": -77.04059666666667, "fusion_lat": 0.0}, {"name": "65f61da7ad9dc1fe313ca2d64975d434", "fusion_lon": 0.0, "lat": 38.9155125, "is_reserved": 0, "type": "electric_scooter", "bike_id": "65f61da7ad9dc1fe313ca2d64975d434", "is_disabled": 0, "rental_uris": {"android": "https://dc.lft.to/lastmile_qr_scan", "ios": "https://dc.lft.to/lastmile_qr_scan"}, "lon": -77.04179533333334, "fusion_lat": 0.0}, {"name": "af71f707ceb14d3b47095263ffb4705d", "fusion_lon": 0.0, "lat": 38.878867666666665, "is_reserved": 0, "type": "electric_bike", "bike_id": "af71f707ceb14d3b47095263ffb4705d", "is_disabled": 0, "rental_uris": {"android": "https://dc.lft.to/lastmile_qr_scan", "ios": "https://dc.lft.to/lastmile_qr_scan"}, "lon": -77.09617433333334, "fusion_lat": 0.0}, {"name": "92846434ce9f55bcfcfc1ab9fdbb4200", "fusion_lon": 0.0, "lat": 38.925108, "is_reserved": 0, "type": "electric_scooter", "bike_id": "92846434ce9f55bcfcfc1ab9fdbb4200", "is_disabled": 0, "rental_uris": {"android": "https://dc.lft.to/lastmile_qr_scan", "ios": "https://dc.lft.to/lastmile_qr_scan"}, "lon": -77.0235965, "fusion_lat": 0.0}, {"name": "1239296c430e7b4651286d7bec1ba73f", "fusion_lon": 0.0, "lat": 38.9169465, "is_reserved": 0, "type": "electric_scooter", "bike_id": "1239296c430e7b4651286d7bec1ba73f", "is_disabled": 0, "rental_uris": {"android": "https://dc.lft.to/lastmile_qr_scan", "ios": "https://dc.lft.to/lastmile_qr_scan"}, "lon": -77.04263183333333, "fusion_lat": 0.0}, {"name": "8b1d2786c45c271a7d0dad0b1ad7ad92", "fusion_lon": 0.0, "lat": 38.90324566666666, "is_reserved": 0, "type": "electric_scooter", "bike_id": "8b1d2786c45c271a7d0dad0b1ad7ad92", "is_disabled": 0, "rental_uris": {"android": "https://dc.lft.to/lastmile_qr_scan", "ios": "https://dc.lft.to/lastmile_qr_scan"}, "lon": -76.98160916666667, "fusion_lat": 0.0}, {"name": "2cf381d44a257bd34bbab40b14007b8d", "fusion_lon": 0.0, "lat": 38.9245315, "is_reserved": 0, "type": "electric_scooter", "bike_id": "2cf381d44a257bd34bbab40b14007b8d", "is_disabled": 0, "rental_uris": {"android": "https://dc.lft.to/lastmile_qr_scan", "ios": "https://dc.lft.to/lastmile_qr_scan"}, "lon": -77.04116283333333, "fusion_lat": 0.0}, {"name": "3002d77ea0e6ed8d2749db4dd9b11373", "fusion_lon": 0.0, "lat": 38.90864066666666, "is_reserved": 0, "type": "electric_scooter", "bike_id": "3002d77ea0e6ed8d2749db4dd9b11373", "is_disabled": 0, "rental_uris": {"android": "https://dc.lft.to/lastmile_qr_scan", "ios": "https://dc.lft.to/lastmile_qr_scan"}, "lon": -77.02424983333333, "fusion_lat": 0.0}, {"name": "5efc7ba0d80911d39f5bbd4ce4c176e5", "fusion_lon": 0.0, "lat": 38.91790816666666, "is_reserved": 0, "type": "electric_scooter", "bike_id": "5efc7ba0d80911d39f5bbd4ce4c176e5", "is_disabled": 0, "rental_uris": {"android": "https://dc.lft.to/lastmile_qr_scan", "ios": "https://dc.lft.to/lastmile_qr_scan"}, "lon": -77.03433766666667, "fusion_lat": 0.0}, {"name": "65a6f2d7a368132c05c508ff22bcd151", "fusion_lon": 0.0, "lat": 38.91662816666667, "is_reserved": 0, "type": "electric_scooter", "bike_id": "65a6f2d7a368132c05c508ff22bcd151", "is_disabled": 0, "rental_uris": {"android": "https://dc.lft.to/lastmile_qr_scan", "ios": "https://dc.lft.to/lastmile_qr_scan"}, "lon": -77.029688, "fusion_lat": 0.0}, {"name": "f82b67ce36463dca354be3061da2c467", "fusion_lon": 0.0, "lat": 38.85528933333333, "is_reserved": 0, "type": "electric_bike", "bike_id": "f82b67ce36463dca354be3061da2c467", "is_disabled": 0, "rental_uris": {"android": "https://dc.lft.to/lastmile_qr_scan", "ios": "https://dc.lft.to/lastmile_qr_scan"}, "lon": -77.11991483333334, "fusion_lat": 0.0}, {"name": "66af30aae0542c65f7dcb9f85c071833", "fusion_lon": 0.0, "lat": 38.92868416666666, "is_reserved": 0, "type": "electric_scooter", "bike_id": "66af30aae0542c65f7dcb9f85c071833", "is_disabled": 0, "rental_uris": {"android": "https://dc.lft.to/lastmile_qr_scan", "ios": "https://dc.lft.to/lastmile_qr_scan"}, "lon": -77.0273215, "fusion_lat": 0.0}, {"name": "8f453c466c4b88c5f0a4958c8b30e80c", "fusion_lon": 0.0, "lat": 38.929466166666664, "is_reserved": 0, "type": "electric_scooter", "bike_id": "8f453c466c4b88c5f0a4958c8b30e80c", "is_disabled": 0, "rental_uris": {"android": "https://dc.lft.to/lastmile_qr_scan", "ios": "https://dc.lft.to/lastmile_qr_scan"}, "lon": -77.03274133333333, "fusion_lat": 0.0}, {"name": "46c687e4d0aa84fd97e5611c0df59911", "fusion_lon": 0.0, "lat": 38.90574433333333, "is_reserved": 0, "type": "electric_scooter", "bike_id": "46c687e4d0aa84fd97e5611c0df59911", "is_disabled": 0, "rental_uris": {"android": "https://dc.lft.to/lastmile_qr_scan", "ios": "https://dc.lft.to/lastmile_qr_scan"}, "lon": -77.005842, "fusion_lat": 0.0}, {"name": "93329d4e700dfb83b87e27e12549b108", "fusion_lon": 0.0, "lat": 38.993273, "is_reserved": 0, "type": "electric_bike", "bike_id": "93329d4e700dfb83b87e27e12549b108", "is_disabled": 0, "rental_uris": {"android": "https://dc.lft.to/lastmile_qr_scan", "ios": "https://dc.lft.to/lastmile_qr_scan"}, "lon": -76.946172, "fusion_lat": 0.0}, {"name": "ba89aed0938432071fba9bb81c21b614", "fusion_lon": 0.0, "lat": 38.9191485, "is_reserved": 0, "type": "electric_scooter", "bike_id": "ba89aed0938432071fba9bb81c21b614", "is_disabled": 0, "rental_uris": {"android": "https://dc.lft.to/lastmile_qr_scan", "ios": "https://dc.lft.to/lastmile_qr_scan"}, "lon": -77.0446515, "fusion_lat": 0.0}, {"name": "315458b3ef4cd3351f2de062bb10b856", "fusion_lon": 0.0, "lat": 38.93938166666667, "is_reserved": 0, "type": "electric_scooter", "bike_id": "315458b3ef4cd3351f2de062bb10b856", "is_disabled": 0, "rental_uris": {"android": "https://dc.lft.to/lastmile_qr_scan", "ios": "https://dc.lft.to/lastmile_qr_scan"}, "lon": -77.025094, "fusion_lat": 0.0}, {"name": "489cc40bd1f5107a21d63f50d45a3762", "fusion_lon": 0.0, "lat": 38.90180016666667, "is_reserved": 0, "type": "electric_scooter", "bike_id": "489cc40bd1f5107a21d63f50d45a3762", "is_disabled": 0, "rental_uris": {"android": "https://dc.lft.to/lastmile_qr_scan", "ios": "https://dc.lft.to/lastmile_qr_scan"}, "lon": -77.02116016666666, "fusion_lat": 0.0}, {"name": "7bebfbaa2f242673b71436be0379774b", "fusion_lon": 0.0, "lat": 38.886116, "is_reserved": 0, "type": "electric_scooter", "bike_id": "7bebfbaa2f242673b71436be0379774b", "is_disabled": 0, "rental_uris": {"android": "https://dc.lft.to/lastmile_qr_scan", "ios": "https://dc.lft.to/lastmile_qr_scan"}, "lon": -76.99516433333334, "fusion_lat": 0.0}, {"name": "0311ec9ceddcea7c441ce37b9693407a", "fusion_lon": 0.0, "lat": 38.918736833333334, "is_reserved": 0, "type": "electric_scooter", "bike_id": "0311ec9ceddcea7c441ce37b9693407a", "is_disabled": 0, "rental_uris": {"android": "https://dc.lft.to/lastmile_qr_scan", "ios": "https://dc.lft.to/lastmile_qr_scan"}, "lon": -77.04384116666667, "fusion_lat": 0.0}, {"name": "950dce9298c98ff307b5d902b01ce638", "fusion_lon": 0.0, "lat": 38.92232516666667, "is_reserved": 0, "type": "electric_scooter", "bike_id": "950dce9298c98ff307b5d902b01ce638", "is_disabled": 0, "rental_uris": {"android": "https://dc.lft.to/lastmile_qr_scan", "ios": "https://dc.lft.to/lastmile_qr_scan"}, "lon": -77.0471935, "fusion_lat": 0.0}, {"name": "fe7695de3802a11ebefd7e8a6b55c3f7", "fusion_lon": 0.0, "lat": 38.88611383333333, "is_reserved": 0, "type": "electric_scooter", "bike_id": "fe7695de3802a11ebefd7e8a6b55c3f7", "is_disabled": 0, "rental_uris": {"android": "https://dc.lft.to/lastmile_qr_scan", "ios": "https://dc.lft.to/lastmile_qr_scan"}, "lon": -77.00137316666667, "fusion_lat": 0.0}, {"name": "8bf0366040eecd27aa1e0c770553d0f0", "fusion_lon": 0.0, "lat": 38.949789, "is_reserved": 0, "type": "electric_scooter", "bike_id": "8bf0366040eecd27aa1e0c770553d0f0", "is_disabled": 0, "rental_uris": {"android": "https://dc.lft.to/lastmile_qr_scan", "ios": "https://dc.lft.to/lastmile_qr_scan"}, "lon": -77.026511, "fusion_lat": 0.0}, {"name": "93d2ffd3084bbc911224a07bf6cd01f5", "fusion_lon": 0.0, "lat": 38.87668333333333, "is_reserved": 0, "type": "electric_scooter", "bike_id": "93d2ffd3084bbc911224a07bf6cd01f5", "is_disabled": 0, "rental_uris": {"android": "https://dc.lft.to/lastmile_qr_scan", "ios": "https://dc.lft.to/lastmile_qr_scan"}, "lon": -77.00443966666667, "fusion_lat": 0.0}, {"name": "d1f284814d07d93bcbc54fe6f5c31b39", "fusion_lon": 0.0, "lat": 38.823676, "is_reserved": 0, "type": "electric_bike", "bike_id": "d1f284814d07d93bcbc54fe6f5c31b39", "is_disabled": 0, "rental_uris": {"android": "https://dc.lft.to/lastmile_qr_scan", "ios": "https://dc.lft.to/lastmile_qr_scan"}, "lon": -77.00216733333333, "fusion_lat": 0.0}, {"name": "cf5bfd8a231bbd741ab690509d6ba37f", "fusion_lon": 0.0, "lat": 38.958396666666665, "is_reserved": 0, "type": "electric_scooter", "bike_id": "cf5bfd8a231bbd741ab690509d6ba37f", "is_disabled": 0, "rental_uris": {"android": "https://dc.lft.to/lastmile_qr_scan", "ios": "https://dc.lft.to/lastmile_qr_scan"}, "lon": -77.027366, "fusion_lat": 0.0}, {"name": "ea5c2e6ff5544dce387436eab3c9eb44", "fusion_lon": 0.0, "lat": 38.9181505, "is_reserved": 0, "type": "electric_scooter", "bike_id": "ea5c2e6ff5544dce387436eab3c9eb44", "is_disabled": 0, "rental_uris": {"android": "https://dc.lft.to/lastmile_qr_scan", "ios": "https://dc.lft.to/lastmile_qr_scan"}, "lon": -77.03665366666667, "fusion_lat": 0.0}, {"name": "b699c15e7ba5beff303852d0795425b7", "fusion_lon": 0.0, "lat": 38.87616583333333, "is_reserved": 0, "type": "electric_scooter", "bike_id": "b699c15e7ba5beff303852d0795425b7", "is_disabled": 0, "rental_uris": {"android": "https://dc.lft.to/lastmile_qr_scan", "ios": "https://dc.lft.to/lastmile_qr_scan"}, "lon": -77.000625, "fusion_lat": 0.0}, {"name": "919a1156b92740c6a9d4db161b4facb2", "fusion_lon": 0.0, "lat": 38.942062166666666, "is_reserved": 0, "type": "electric_scooter", "bike_id": "919a1156b92740c6a9d4db161b4facb2", "is_disabled": 0, "rental_uris": {"android": "https://dc.lft.to/lastmile_qr_scan", "ios": "https://dc.lft.to/lastmile_qr_scan"}, "lon": -77.02513516666667, "fusion_lat": 0.0}, {"name": "3f1bba46f5282b399ee7df3fc447c175", "fusion_lon": 0.0, "lat": 38.87277433333333, "is_reserved": 0, "type": "electric_bike", "bike_id": "3f1bba46f5282b399ee7df3fc447c175", "is_disabled": 0, "rental_uris": {"android": "https://dc.lft.to/lastmile_qr_scan", "ios": "https://dc.lft.to/lastmile_qr_scan"}, "lon": -77.233171, "fusion_lat": 0.0}, {"name": "37af0eb8afdb86342dfede81e9088ca2", "fusion_lon": 0.0, "lat": 38.8983855, "is_reserved": 0, "type": "electric_scooter", "bike_id": "37af0eb8afdb86342dfede81e9088ca2", "is_disabled": 0, "rental_uris": {"android": "https://dc.lft.to/lastmile_qr_scan", "ios": "https://dc.lft.to/lastmile_qr_scan"}, "lon": -77.03331033333333, "fusion_lat": 0.0}, {"name": "607df5ad2d2decd2cb6026bf33d2722e", "fusion_lon": 0.0, "lat": 38.86354033333333, "is_reserved": 0, "type": "electric_scooter", "bike_id": "607df5ad2d2decd2cb6026bf33d2722e", "is_disabled": 0, "rental_uris": {"android": "https://dc.lft.to/lastmile_qr_scan", "ios": "https://dc.lft.to/lastmile_qr_scan"}, "lon": -76.98705266666667, "fusion_lat": 0.0}, {"name": "9e0eea933aa3fb1392263f9e22846788", "fusion_lon": 0.0, "lat": 38.90030266666667, "is_reserved": 0, "type": "electric_scooter", "bike_id": "9e0eea933aa3fb1392263f9e22846788", "is_disabled": 0, "rental_uris": {"android": "https://dc.lft.to/lastmile_qr_scan", "ios": "https://dc.lft.to/lastmile_qr_scan"}, "lon": -77.01190833333334, "fusion_lat": 0.0}, {"name": "e6f8904175643b5b89544fcc69124149", "fusion_lon": 0.0, "lat": 38.88729566666667, "is_reserved": 0, "type": "electric_scooter", "bike_id": "e6f8904175643b5b89544fcc69124149", "is_disabled": 0, "rental_uris": {"android": "https://dc.lft.to/lastmile_qr_scan", "ios": "https://dc.lft.to/lastmile_qr_scan"}, "lon": -77.0283915, "fusion_lat": 0.0}, {"name": "d0f199dfb2346569feafda3144ec7927", "fusion_lon": 0.0, "lat": 38.91526183333333, "is_reserved": 0, "type": "electric_scooter", "bike_id": "d0f199dfb2346569feafda3144ec7927", "is_disabled": 0, "rental_uris": {"android": "https://dc.lft.to/lastmile_qr_scan", "ios": "https://dc.lft.to/lastmile_qr_scan"}, "lon": -77.03185416666666, "fusion_lat": 0.0}, {"name": "660b56e30a55450f67b2fdcd62f2e046", "fusion_lon": 0.0, "lat": 38.880601, "is_reserved": 0, "type": "electric_bike", "bike_id": "660b56e30a55450f67b2fdcd62f2e046", "is_disabled": 0, "rental_uris": {"android": "https://dc.lft.to/lastmile_qr_scan", "ios": "https://dc.lft.to/lastmile_qr_scan"}, "lon": -76.96234766666667, "fusion_lat": 0.0}, {"name": "4c830bf28bd44416240737db93717e82", "fusion_lon": 0.0, "lat": 38.906038333333335, "is_reserved": 0, "type": "electric_scooter", "bike_id": "4c830bf28bd44416240737db93717e82", "is_disabled": 0, "rental_uris": {"android": "https://dc.lft.to/lastmile_qr_scan", "ios": "https://dc.lft.to/lastmile_qr_scan"}, "lon": -77.0568685, "fusion_lat": 0.0}, {"name": "8899da08d4830c29c7435a45a4281671", "fusion_lon": 0.0, "lat": 38.88514983333334, "is_reserved": 0, "type": "electric_scooter", "bike_id": "8899da08d4830c29c7435a45a4281671", "is_disabled": 0, "rental_uris": {"android": "https://dc.lft.to/lastmile_qr_scan", "ios": "https://dc.lft.to/lastmile_qr_scan"}, "lon": -77.00564766666666, "fusion_lat": 0.0}, {"name": "8a4b872c295e8b61d167c4991bee430d", "fusion_lon": 0.0, "lat": 38.86953583333333, "is_reserved": 0, "type": "electric_scooter", "bike_id": "8a4b872c295e8b61d167c4991bee430d", "is_disabled": 0, "rental_uris": {"android": "https://dc.lft.to/lastmile_qr_scan", "ios": "https://dc.lft.to/lastmile_qr_scan"}, "lon": -76.98177733333333, "fusion_lat": 0.0}, {"name": "eb0c0a96841aa960f7cde8197a107044", "fusion_lon": 0.0, "lat": 38.893215, "is_reserved": 0, "type": "electric_scooter", "bike_id": "eb0c0a96841aa960f7cde8197a107044", "is_disabled": 0, "rental_uris": {"android": "https://dc.lft.to/lastmile_qr_scan", "ios": "https://dc.lft.to/lastmile_qr_scan"}, "lon": -77.04873016666667, "fusion_lat": 0.0}, {"name": "dace9541dfe0c006f28fec6fcd8475ef", "fusion_lon": 0.0, "lat": 38.923993333333335, "is_reserved": 0, "type": "electric_scooter", "bike_id": "dace9541dfe0c006f28fec6fcd8475ef", "is_disabled": 0, "rental_uris": {"android": "https://dc.lft.to/lastmile_qr_scan", "ios": "https://dc.lft.to/lastmile_qr_scan"}, "lon": -77.02144616666666, "fusion_lat": 0.0}, {"name": "8c723aa9fc6eac7967da00dae32abef6", "fusion_lon": 0.0, "lat": 38.91615083333333, "is_reserved": 0, "type": "electric_scooter", "bike_id": "8c723aa9fc6eac7967da00dae32abef6", "is_disabled": 0, "rental_uris": {"android": "https://dc.lft.to/lastmile_qr_scan", "ios": "https://dc.lft.to/lastmile_qr_scan"}, "lon": -77.04847616666666, "fusion_lat": 0.0}, {"name": "762cabdf504feabbe5be4c9a570dcc02", "fusion_lon": 0.0, "lat": 38.9101435, "is_reserved": 0, "type": "electric_bike", "bike_id": "762cabdf504feabbe5be4c9a570dcc02", "is_disabled": 0, "rental_uris": {"android": "https://dc.lft.to/lastmile_qr_scan", "ios": "https://dc.lft.to/lastmile_qr_scan"}, "lon": -77.22797, "fusion_lat": 0.0}, {"name": "aba8523a7552b6bc1c4c3d9b40daca96", "fusion_lon": 0.0, "lat": 38.92312666666667, "is_reserved": 0, "type": "electric_scooter", "bike_id": "aba8523a7552b6bc1c4c3d9b40daca96", "is_disabled": 0, "rental_uris": {"android": "https://dc.lft.to/lastmile_qr_scan", "ios": "https://dc.lft.to/lastmile_qr_scan"}, "lon": -77.027593, "fusion_lat": 0.0}, {"name": "97bfb09369496864b843b78130828a93", "fusion_lon": 0.0, "lat": 38.9367805, "is_reserved": 0, "type": "electric_scooter", "bike_id": "97bfb09369496864b843b78130828a93", "is_disabled": 0, "rental_uris": {"android": "https://dc.lft.to/lastmile_qr_scan", "ios": "https://dc.lft.to/lastmile_qr_scan"}, "lon": -77.032839, "fusion_lat": 0.0}, {"name": "a4b5fb90a6cfef192968e3c4243b6800", "fusion_lon": 0.0, "lat": 38.90061, "is_reserved": 0, "type": "electric_scooter", "bike_id": "a4b5fb90a6cfef192968e3c4243b6800", "is_disabled": 0, "rental_uris": {"android": "https://dc.lft.to/lastmile_qr_scan", "ios": "https://dc.lft.to/lastmile_qr_scan"}, "lon": -76.93476166666667, "fusion_lat": 0.0}, {"name": "d7edcf8c16c216b49764fc48e7916e98", "fusion_lon": 0.0, "lat": 38.923233833333335, "is_reserved": 0, "type": "electric_scooter", "bike_id": "d7edcf8c16c216b49764fc48e7916e98", "is_disabled": 0, "rental_uris": {"android": "https://dc.lft.to/lastmile_qr_scan", "ios": "https://dc.lft.to/lastmile_qr_scan"}, "lon": -77.021374, "fusion_lat": 0.0}, {"name": "89ac5cf8ad02b1aa2203ce42e24e3614", "fusion_lon": 0.0, "lat": 38.856943666666666, "is_reserved": 0, "type": "electric_scooter", "bike_id": "89ac5cf8ad02b1aa2203ce42e24e3614", "is_disabled": 0, "rental_uris": {"android": "https://dc.lft.to/lastmile_qr_scan", "ios": "https://dc.lft.to/lastmile_qr_scan"}, "lon": -76.98968383333333, "fusion_lat": 0.0}, {"name": "21cc4ec400087d1ed376984fec7c80ea", "fusion_lon": 0.0, "lat": 39.05788066666667, "is_reserved": 0, "type": "electric_bike", "bike_id": "21cc4ec400087d1ed376984fec7c80ea", "is_disabled": 0, "rental_uris": {"android": "https://dc.lft.to/lastmile_qr_scan", "ios": "https://dc.lft.to/lastmile_qr_scan"}, "lon": -77.15022016666667, "fusion_lat": 0.0}, {"name": "0ee76fb86fb9c73e8c142bf3076a31a5", "fusion_lon": 0.0, "lat": 38.9301055, "is_reserved": 0, "type": "electric_scooter", "bike_id": "0ee76fb86fb9c73e8c142bf3076a31a5", "is_disabled": 0, "rental_uris": {"android": "https://dc.lft.to/lastmile_qr_scan", "ios": "https://dc.lft.to/lastmile_qr_scan"}, "lon": -77.01435866666667, "fusion_lat": 0.0}, {"name": "918a3ea04a2a08268250eb40524f44a1", "fusion_lon": 0.0, "lat": 38.844274, "is_reserved": 0, "type": "electric_scooter", "bike_id": "918a3ea04a2a08268250eb40524f44a1", "is_disabled": 0, "rental_uris": {"android": "https://dc.lft.to/lastmile_qr_scan", "ios": "https://dc.lft.to/lastmile_qr_scan"}, "lon": -76.99783933333333, "fusion_lat": 0.0}, {"name": "1e00032fae9620f7a94c46fd0964bddd", "fusion_lon": 0.0, "lat": 38.9089145, "is_reserved": 0, "type": "electric_scooter", "bike_id": "1e00032fae9620f7a94c46fd0964bddd", "is_disabled": 0, "rental_uris": {"android": "https://dc.lft.to/lastmile_qr_scan", "ios": "https://dc.lft.to/lastmile_qr_scan"}, "lon": -77.07273966666666, "fusion_lat": 0.0}, {"name": "2b8105556d0cd1666ebac7aeeecbaac3", "fusion_lon": 0.0, "lat": 38.837357, "is_reserved": 0, "type": "electric_bike", "bike_id": "2b8105556d0cd1666ebac7aeeecbaac3", "is_disabled": 0, "rental_uris": {"android": "https://dc.lft.to/lastmile_qr_scan", "ios": "https://dc.lft.to/lastmile_qr_scan"}, "lon": -77.09549383333334, "fusion_lat": 0.0}, {"name": "9530d8345c0b4c7143cc7395188d720e", "fusion_lon": 0.0, "lat": 38.90288, "is_reserved": 0, "type": "electric_scooter", "bike_id": "9530d8345c0b4c7143cc7395188d720e", "is_disabled": 0, "rental_uris": {"android": "https://dc.lft.to/lastmile_qr_scan", "ios": "https://dc.lft.to/lastmile_qr_scan"}, "lon": -77.05814616666666, "fusion_lat": 0.0}, {"name": "cdb3ab2020648bef87531b5912a32471", "fusion_lon": 0.0, "lat": 38.9212895, "is_reserved": 0, "type": "electric_scooter", "bike_id": "cdb3ab2020648bef87531b5912a32471", "is_disabled": 0, "rental_uris": {"android": "https://dc.lft.to/lastmile_qr_scan", "ios": "https://dc.lft.to/lastmile_qr_scan"}, "lon": -77.04426783333334, "fusion_lat": 0.0}, {"name": "e954a24a2621c8421b4b47f6d9dd4d28", "fusion_lon": 0.0, "lat": 38.909663, "is_reserved": 0, "type": "electric_scooter", "bike_id": "e954a24a2621c8421b4b47f6d9dd4d28", "is_disabled": 0, "rental_uris": {"android": "https://dc.lft.to/lastmile_qr_scan", "ios": "https://dc.lft.to/lastmile_qr_scan"}, "lon": -77.04801016666667, "fusion_lat": 0.0}, {"name": "e4938ac4fa869868c0c5c0c00ba14f4f", "fusion_lon": 0.0, "lat": 38.9106245, "is_reserved": 0, "type": "electric_scooter", "bike_id": "e4938ac4fa869868c0c5c0c00ba14f4f", "is_disabled": 0, "rental_uris": {"android": "https://dc.lft.to/lastmile_qr_scan", "ios": "https://dc.lft.to/lastmile_qr_scan"}, "lon": -77.0408555, "fusion_lat": 0.0}, {"name": "b22d4d007d8ca93853c576d7e08b5457", "fusion_lon": 0.0, "lat": 38.923769166666666, "is_reserved": 0, "type": "electric_scooter", "bike_id": "b22d4d007d8ca93853c576d7e08b5457", "is_disabled": 0, "rental_uris": {"android": "https://dc.lft.to/lastmile_qr_scan", "ios": "https://dc.lft.to/lastmile_qr_scan"}, "lon": -77.01901, "fusion_lat": 0.0}, {"name": "f056b3261bce6207917d1b8ee2916076", "fusion_lon": 0.0, "lat": 38.8763665, "is_reserved": 0, "type": "electric_scooter", "bike_id": "f056b3261bce6207917d1b8ee2916076", "is_disabled": 0, "rental_uris": {"android": "https://dc.lft.to/lastmile_qr_scan", "ios": "https://dc.lft.to/lastmile_qr_scan"}, "lon": -77.00458983333333, "fusion_lat": 0.0}, {"name": "9ec721f6e1200d35bd00ceb85d029e63", "fusion_lon": 0.0, "lat": 38.95187966666667, "is_reserved": 0, "type": "electric_scooter", "bike_id": "9ec721f6e1200d35bd00ceb85d029e63", "is_disabled": 0, "rental_uris": {"android": "https://dc.lft.to/lastmile_qr_scan", "ios": "https://dc.lft.to/lastmile_qr_scan"}, "lon": -77.02613766666667, "fusion_lat": 0.0}, {"name": "b3050bf3a877dccc9cb2fbf338f8cdb7", "fusion_lon": 0.0, "lat": 38.915555166666664, "is_reserved": 0, "type": "electric_scooter", "bike_id": "b3050bf3a877dccc9cb2fbf338f8cdb7", "is_disabled": 0, "rental_uris": {"android": "https://dc.lft.to/lastmile_qr_scan", "ios": "https://dc.lft.to/lastmile_qr_scan"}, "lon": -77.04129183333333, "fusion_lat": 0.0}, {"name": "76c831c88eaf314f248e23a1479082a6", "fusion_lon": 0.0, "lat": 38.91681666666667, "is_reserved": 0, "type": "electric_scooter", "bike_id": "76c831c88eaf314f248e23a1479082a6", "is_disabled": 0, "rental_uris": {"android": "https://dc.lft.to/lastmile_qr_scan", "ios": "https://dc.lft.to/lastmile_qr_scan"}, "lon": -77.02698016666666, "fusion_lat": 0.0}, {"name": "c1e3c0d85c6191975952b47b4318890c", "fusion_lon": 0.0, "lat": 38.9226055, "is_reserved": 0, "type": "electric_scooter", "bike_id": "c1e3c0d85c6191975952b47b4318890c", "is_disabled": 0, "rental_uris": {"android": "https://dc.lft.to/lastmile_qr_scan", "ios": "https://dc.lft.to/lastmile_qr_scan"}, "lon": -77.07327666666667, "fusion_lat": 0.0}, {"name": "2e104a9fa0c091bd43cd0bb3bd4dda6f", "fusion_lon": 0.0, "lat": 38.91769133333333, "is_reserved": 0, "type": "electric_scooter", "bike_id": "2e104a9fa0c091bd43cd0bb3bd4dda6f", "is_disabled": 0, "rental_uris": {"android": "https://dc.lft.to/lastmile_qr_scan", "ios": "https://dc.lft.to/lastmile_qr_scan"}, "lon": -77.04061583333333, "fusion_lat": 0.0}, {"name": "c16e614c883bff8fa967d8c410dcab0e", "fusion_lon": 0.0, "lat": 38.958756, "is_reserved": 0, "type": "electric_bike", "bike_id": "c16e614c883bff8fa967d8c410dcab0e", "is_disabled": 0, "rental_uris": {"android": "https://dc.lft.to/lastmile_qr_scan", "ios": "https://dc.lft.to/lastmile_qr_scan"}, "lon": -77.00148983333334, "fusion_lat": 0.0}, {"name": "9f597139da2fae8cd1853dd1df19e834", "fusion_lon": 0.0, "lat": 38.86182983333333, "is_reserved": 0, "type": "electric_scooter", "bike_id": "9f597139da2fae8cd1853dd1df19e834", "is_disabled": 0, "rental_uris": {"android": "https://dc.lft.to/lastmile_qr_scan", "ios": "https://dc.lft.to/lastmile_qr_scan"}, "lon": -77.08776016666667, "fusion_lat": 0.0}, {"name": "5af8f7a1d234a495afcab1c9655bc2d4", "fusion_lon": 0.0, "lat": 38.907806, "is_reserved": 0, "type": "electric_scooter", "bike_id": "5af8f7a1d234a495afcab1c9655bc2d4", "is_disabled": 0, "rental_uris": {"android": "https://dc.lft.to/lastmile_qr_scan", "ios": "https://dc.lft.to/lastmile_qr_scan"}, "lon": -77.03831266666667, "fusion_lat": 0.0}, {"name": "4ae77ed9f1a1e33a3414f0a2ccad1b2f", "fusion_lon": 0.0, "lat": 38.9132525, "is_reserved": 0, "type": "electric_scooter", "bike_id": "4ae77ed9f1a1e33a3414f0a2ccad1b2f", "is_disabled": 0, "rental_uris": {"android": "https://dc.lft.to/lastmile_qr_scan", "ios": "https://dc.lft.to/lastmile_qr_scan"}, "lon": -77.06253283333334, "fusion_lat": 0.0}, {"name": "098ca706aa7911cd09bf3d8ad5c5c27f", "fusion_lon": 0.0, "lat": 38.896086333333336, "is_reserved": 0, "type": "electric_scooter", "bike_id": "098ca706aa7911cd09bf3d8ad5c5c27f", "is_disabled": 0, "rental_uris": {"android": "https://dc.lft.to/lastmile_qr_scan", "ios": "https://dc.lft.to/lastmile_qr_scan"}, "lon": -77.05437066666667, "fusion_lat": 0.0}, {"name": "5a31bd58caee8097e0c95d8c77ae0e33", "fusion_lon": 0.0, "lat": 38.9322845, "is_reserved": 0, "type": "electric_bike", "bike_id": "5a31bd58caee8097e0c95d8c77ae0e33", "is_disabled": 0, "rental_uris": {"android": "https://dc.lft.to/lastmile_qr_scan", "ios": "https://dc.lft.to/lastmile_qr_scan"}, "lon": -77.1811915, "fusion_lat": 0.0}, {"name": "838ad910651b817a3a3cf4cbcd44c702", "fusion_lon": 0.0, "lat": 38.87679633333333, "is_reserved": 0, "type": "electric_scooter", "bike_id": "838ad910651b817a3a3cf4cbcd44c702", "is_disabled": 0, "rental_uris": {"android": "https://dc.lft.to/lastmile_qr_scan", "ios": "https://dc.lft.to/lastmile_qr_scan"}, "lon": -76.9983145, "fusion_lat": 0.0}, {"name": "38a1fba716d3b0a11d2669208d51d502", "fusion_lon": 0.0, "lat": 38.93545916666667, "is_reserved": 0, "type": "electric_scooter", "bike_id": "38a1fba716d3b0a11d2669208d51d502", "is_disabled": 0, "rental_uris": {"android": "https://dc.lft.to/lastmile_qr_scan", "ios": "https://dc.lft.to/lastmile_qr_scan"}, "lon": -77.058559, "fusion_lat": 0.0}, {"name": "390fd32a029078b093e73c56dd1b090f", "fusion_lon": 0.0, "lat": 38.895993, "is_reserved": 0, "type": "electric_scooter", "bike_id": "390fd32a029078b093e73c56dd1b090f", "is_disabled": 0, "rental_uris": {"android": "https://dc.lft.to/lastmile_qr_scan", "ios": "https://dc.lft.to/lastmile_qr_scan"}, "lon": -77.00767233333333, "fusion_lat": 0.0}, {"name": "4e2626de0388f1a604d8e3e1168c47f0", "fusion_lon": 0.0, "lat": 38.903251, "is_reserved": 0, "type": "electric_scooter", "bike_id": "4e2626de0388f1a604d8e3e1168c47f0", "is_disabled": 0, "rental_uris": {"android": "https://dc.lft.to/lastmile_qr_scan", "ios": "https://dc.lft.to/lastmile_qr_scan"}, "lon": -77.02706933333333, "fusion_lat": 0.0}, {"name": "dacfe8958c64f19415d46e00e02a0c3e", "fusion_lon": 0.0, "lat": 38.93766933333333, "is_reserved": 0, "type": "electric_scooter", "bike_id": "dacfe8958c64f19415d46e00e02a0c3e", "is_disabled": 0, "rental_uris": {"android": "https://dc.lft.to/lastmile_qr_scan", "ios": "https://dc.lft.to/lastmile_qr_scan"}, "lon": -77.0252225, "fusion_lat": 0.0}, {"name": "9c710ae129ef4c1a025a1cd3e435d79a", "fusion_lon": 0.0, "lat": 38.9615015, "is_reserved": 0, "type": "electric_scooter", "bike_id": "9c710ae129ef4c1a025a1cd3e435d79a", "is_disabled": 0, "rental_uris": {"android": "https://dc.lft.to/lastmile_qr_scan", "ios": "https://dc.lft.to/lastmile_qr_scan"}, "lon": -77.03236616666666, "fusion_lat": 0.0}, {"name": "25c743ae6189b3095854997634f0163b", "fusion_lon": 0.0, "lat": 38.90581433333333, "is_reserved": 0, "type": "electric_scooter", "bike_id": "25c743ae6189b3095854997634f0163b", "is_disabled": 0, "rental_uris": {"android": "https://dc.lft.to/lastmile_qr_scan", "ios": "https://dc.lft.to/lastmile_qr_scan"}, "lon": -77.0071185, "fusion_lat": 0.0}, {"name": "57468bff3f4f1886c961d7ad33ec522b", "fusion_lon": 0.0, "lat": 38.910352833333334, "is_reserved": 0, "type": "electric_scooter", "bike_id": "57468bff3f4f1886c961d7ad33ec522b", "is_disabled": 0, "rental_uris": {"android": "https://dc.lft.to/lastmile_qr_scan", "ios": "https://dc.lft.to/lastmile_qr_scan"}, "lon": -77.0134175, "fusion_lat": 0.0}, {"name": "7f3a6c61108da29f2520dc7b927b0629", "fusion_lon": 0.0, "lat": 38.905015666666664, "is_reserved": 0, "type": "electric_scooter", "bike_id": "7f3a6c61108da29f2520dc7b927b0629", "is_disabled": 0, "rental_uris": {"android": "https://dc.lft.to/lastmile_qr_scan", "ios": "https://dc.lft.to/lastmile_qr_scan"}, "lon": -77.026012, "fusion_lat": 0.0}, {"name": "297795b3255e59496043c236641c580c", "fusion_lon": 0.0, "lat": 38.905145, "is_reserved": 0, "type": "electric_scooter", "bike_id": "297795b3255e59496043c236641c580c", "is_disabled": 0, "rental_uris": {"android": "https://dc.lft.to/lastmile_qr_scan", "ios": "https://dc.lft.to/lastmile_qr_scan"}, "lon": -77.00136183333333, "fusion_lat": 0.0}, {"name": "3da68524674aa8f6ad0eccfe979b6885", "fusion_lon": 0.0, "lat": 38.923522166666665, "is_reserved": 0, "type": "electric_scooter", "bike_id": "3da68524674aa8f6ad0eccfe979b6885", "is_disabled": 0, "rental_uris": {"android": "https://dc.lft.to/lastmile_qr_scan", "ios": "https://dc.lft.to/lastmile_qr_scan"}, "lon": -77.04153666666667, "fusion_lat": 0.0}, {"name": "8ac04ecf353ef68911ec42cdbf21cccb", "fusion_lon": 0.0, "lat": 38.903404, "is_reserved": 0, "type": "electric_scooter", "bike_id": "8ac04ecf353ef68911ec42cdbf21cccb", "is_disabled": 0, "rental_uris": {"android": "https://dc.lft.to/lastmile_qr_scan", "ios": "https://dc.lft.to/lastmile_qr_scan"}, "lon": -77.025534, "fusion_lat": 0.0}, {"name": "9de29fd2fe611d57485ba16f485e7324", "fusion_lon": 0.0, "lat": 38.89778033333333, "is_reserved": 0, "type": "electric_scooter", "bike_id": "9de29fd2fe611d57485ba16f485e7324", "is_disabled": 0, "rental_uris": {"android": "https://dc.lft.to/lastmile_qr_scan", "ios": "https://dc.lft.to/lastmile_qr_scan"}, "lon": -77.05170233333334, "fusion_lat": 0.0}, {"name": "c87cbce7f9cce859e2dd8be6073fc3a6", "fusion_lon": 0.0, "lat": 39.03985933333333, "is_reserved": 0, "type": "electric_bike", "bike_id": "c87cbce7f9cce859e2dd8be6073fc3a6", "is_disabled": 0, "rental_uris": {"android": "https://dc.lft.to/lastmile_qr_scan", "ios": "https://dc.lft.to/lastmile_qr_scan"}, "lon": -76.999224, "fusion_lat": 0.0}, {"name": "79a3db631ef4f727d6cbc718599df75e", "fusion_lon": 0.0, "lat": 38.956528, "is_reserved": 0, "type": "electric_bike", "bike_id": "79a3db631ef4f727d6cbc718599df75e", "is_disabled": 0, "rental_uris": {"android": "https://dc.lft.to/lastmile_qr_scan", "ios": "https://dc.lft.to/lastmile_qr_scan"}, "lon": -77.01280716666666, "fusion_lat": 0.0}, {"name": "e2ed2584bbb0356becbce4e35ab4ad8d", "fusion_lon": 0.0, "lat": 38.893711333333336, "is_reserved": 0, "type": "electric_scooter", "bike_id": "e2ed2584bbb0356becbce4e35ab4ad8d", "is_disabled": 0, "rental_uris": {"android": "https://dc.lft.to/lastmile_qr_scan", "ios": "https://dc.lft.to/lastmile_qr_scan"}, "lon": -77.01552733333334, "fusion_lat": 0.0}, {"name": "70b408f233c562fd846e24dc4c66e309", "fusion_lon": 0.0, "lat": 38.9051155, "is_reserved": 0, "type": "electric_scooter", "bike_id": "70b408f233c562fd846e24dc4c66e309", "is_disabled": 0, "rental_uris": {"android": "https://dc.lft.to/lastmile_qr_scan", "ios": "https://dc.lft.to/lastmile_qr_scan"}, "lon": -77.00137216666667, "fusion_lat": 0.0}, {"name": "2abe4217c0407235e77f3fa3ef79b3fc", "fusion_lon": 0.0, "lat": 38.916838, "is_reserved": 0, "type": "electric_scooter", "bike_id": "2abe4217c0407235e77f3fa3ef79b3fc", "is_disabled": 0, "rental_uris": {"android": "https://dc.lft.to/lastmile_qr_scan", "ios": "https://dc.lft.to/lastmile_qr_scan"}, "lon": -77.0414145, "fusion_lat": 0.0}, {"name": "810a56d60fe60a8786f8a107e21e797f", "fusion_lon": 0.0, "lat": 38.90667333333333, "is_reserved": 0, "type": "electric_scooter", "bike_id": "810a56d60fe60a8786f8a107e21e797f", "is_disabled": 0, "rental_uris": {"android": "https://dc.lft.to/lastmile_qr_scan", "ios": "https://dc.lft.to/lastmile_qr_scan"}, "lon": -77.07140516666666, "fusion_lat": 0.0}, {"name": "95350e98ced8d5c3c0a7a666eb759d08", "fusion_lon": 0.0, "lat": 38.99003416666667, "is_reserved": 0, "type": "electric_bike", "bike_id": "95350e98ced8d5c3c0a7a666eb759d08", "is_disabled": 0, "rental_uris": {"android": "https://dc.lft.to/lastmile_qr_scan", "ios": "https://dc.lft.to/lastmile_qr_scan"}, "lon": -77.00438966666667, "fusion_lat": 0.0}, {"name": "ad0c54a85730ca802f242a3e77c8ec79", "fusion_lon": 0.0, "lat": 38.86657816666666, "is_reserved": 0, "type": "electric_scooter", "bike_id": "ad0c54a85730ca802f242a3e77c8ec79", "is_disabled": 0, "rental_uris": {"android": "https://dc.lft.to/lastmile_qr_scan", "ios": "https://dc.lft.to/lastmile_qr_scan"}, "lon": -76.9888685, "fusion_lat": 0.0}, {"name": "6c3fc751e538940a3ea591659d522101", "fusion_lon": 0.0, "lat": 38.90202266666667, "is_reserved": 0, "type": "electric_scooter", "bike_id": "6c3fc751e538940a3ea591659d522101", "is_disabled": 0, "rental_uris": {"android": "https://dc.lft.to/lastmile_qr_scan", "ios": "https://dc.lft.to/lastmile_qr_scan"}, "lon": -77.02118933333334, "fusion_lat": 0.0}, {"name": "56d794f56368578f833278b1a0443fdd", "fusion_lon": 0.0, "lat": 38.925572333333335, "is_reserved": 0, "type": "electric_scooter", "bike_id": "56d794f56368578f833278b1a0443fdd", "is_disabled": 0, "rental_uris": {"android": "https://dc.lft.to/lastmile_qr_scan", "ios": "https://dc.lft.to/lastmile_qr_scan"}, "lon": -77.03293483333333, "fusion_lat": 0.0}, {"name": "46892161cda5638b3fe5500da693c273", "fusion_lon": 0.0, "lat": 38.86517766666667, "is_reserved": 0, "type": "electric_scooter", "bike_id": "46892161cda5638b3fe5500da693c273", "is_disabled": 0, "rental_uris": {"android": "https://dc.lft.to/lastmile_qr_scan", "ios": "https://dc.lft.to/lastmile_qr_scan"}, "lon": -76.97348716666667, "fusion_lat": 0.0}, {"name": "03aaa708593204b2aa85714b251b8b54", "fusion_lon": 0.0, "lat": 38.924814166666664, "is_reserved": 0, "type": "electric_scooter", "bike_id": "03aaa708593204b2aa85714b251b8b54", "is_disabled": 0, "rental_uris": {"android": "https://dc.lft.to/lastmile_qr_scan", "ios": "https://dc.lft.to/lastmile_qr_scan"}, "lon": -77.0351265, "fusion_lat": 0.0}, {"name": "56620718b58fa0306e14709a4da51093", "fusion_lon": 0.0, "lat": 38.8624055, "is_reserved": 0, "type": "electric_scooter", "bike_id": "56620718b58fa0306e14709a4da51093", "is_disabled": 0, "rental_uris": {"android": "https://dc.lft.to/lastmile_qr_scan", "ios": "https://dc.lft.to/lastmile_qr_scan"}, "lon": -76.994929, "fusion_lat": 0.0}, {"name": "8c9e5aadbfc622cd69b61755988ca382", "fusion_lon": 0.0, "lat": 38.8492625, "is_reserved": 0, "type": "electric_bike", "bike_id": "8c9e5aadbfc622cd69b61755988ca382", "is_disabled": 0, "rental_uris": {"android": "https://dc.lft.to/lastmile_qr_scan", "ios": "https://dc.lft.to/lastmile_qr_scan"}, "lon": -77.07791916666666, "fusion_lat": 0.0}, {"name": "9d7d671596d832cfd12c16e04c3030c9", "fusion_lon": 0.0, "lat": 38.91742833333333, "is_reserved": 0, "type": "electric_scooter", "bike_id": "9d7d671596d832cfd12c16e04c3030c9", "is_disabled": 0, "rental_uris": {"android": "https://dc.lft.to/lastmile_qr_scan", "ios": "https://dc.lft.to/lastmile_qr_scan"}, "lon": -77.0364365, "fusion_lat": 0.0}, {"name": "792a52d5b2fe6d86d318bebb92970f08", "fusion_lon": 0.0, "lat": 38.926761166666665, "is_reserved": 0, "type": "electric_scooter", "bike_id": "792a52d5b2fe6d86d318bebb92970f08", "is_disabled": 0, "rental_uris": {"android": "https://dc.lft.to/lastmile_qr_scan", "ios": "https://dc.lft.to/lastmile_qr_scan"}, "lon": -76.995501, "fusion_lat": 0.0}, {"name": "415fb0cfac4c70914592d25619de8c15", "fusion_lon": 0.0, "lat": 38.901725166666665, "is_reserved": 0, "type": "electric_scooter", "bike_id": "415fb0cfac4c70914592d25619de8c15", "is_disabled": 0, "rental_uris": {"android": "https://dc.lft.to/lastmile_qr_scan", "ios": "https://dc.lft.to/lastmile_qr_scan"}, "lon": -76.9829745, "fusion_lat": 0.0}, {"name": "b018ba03d03c3cccee6f7378b4d301ef", "fusion_lon": 0.0, "lat": 38.887425666666665, "is_reserved": 0, "type": "electric_scooter", "bike_id": "b018ba03d03c3cccee6f7378b4d301ef", "is_disabled": 0, "rental_uris": {"android": "https://dc.lft.to/lastmile_qr_scan", "ios": "https://dc.lft.to/lastmile_qr_scan"}, "lon": -77.02730833333334, "fusion_lat": 0.0}, {"name": "49548c5a406d9a3ee93c41f31f691b62", "fusion_lon": 0.0, "lat": 38.91554416666666, "is_reserved": 0, "type": "electric_scooter", "bike_id": "49548c5a406d9a3ee93c41f31f691b62", "is_disabled": 0, "rental_uris": {"android": "https://dc.lft.to/lastmile_qr_scan", "ios": "https://dc.lft.to/lastmile_qr_scan"}, "lon": -77.024414, "fusion_lat": 0.0}, {"name": "a2387d41f85448fb873faf11bc5ce09d", "fusion_lon": 0.0, "lat": 38.89850066666666, "is_reserved": 0, "type": "electric_scooter", "bike_id": "a2387d41f85448fb873faf11bc5ce09d", "is_disabled": 0, "rental_uris": {"android": "https://dc.lft.to/lastmile_qr_scan", "ios": "https://dc.lft.to/lastmile_qr_scan"}, "lon": -77.02367866666667, "fusion_lat": 0.0}, {"name": "32a4caf83e94743e6090619a5eea76dd", "fusion_lon": 0.0, "lat": 38.91712483333333, "is_reserved": 0, "type": "electric_scooter", "bike_id": "32a4caf83e94743e6090619a5eea76dd", "is_disabled": 0, "rental_uris": {"android": "https://dc.lft.to/lastmile_qr_scan", "ios": "https://dc.lft.to/lastmile_qr_scan"}, "lon": -77.01210933333333, "fusion_lat": 0.0}, {"name": "aba30d00ae1046b070d1cdbe02973b9e", "fusion_lon": 0.0, "lat": 38.89723933333333, "is_reserved": 0, "type": "electric_scooter", "bike_id": "aba30d00ae1046b070d1cdbe02973b9e", "is_disabled": 0, "rental_uris": {"android": "https://dc.lft.to/lastmile_qr_scan", "ios": "https://dc.lft.to/lastmile_qr_scan"}, "lon": -77.00786433333333, "fusion_lat": 0.0}, {"name": "c058c921daceef88886ba9abf26b8c7b", "fusion_lon": 0.0, "lat": 38.919926833333335, "is_reserved": 0, "type": "electric_scooter", "bike_id": "c058c921daceef88886ba9abf26b8c7b", "is_disabled": 0, "rental_uris": {"android": "https://dc.lft.to/lastmile_qr_scan", "ios": "https://dc.lft.to/lastmile_qr_scan"}, "lon": -77.02391083333333, "fusion_lat": 0.0}, {"name": "587923ca345750c43864001358f74e09", "fusion_lon": 0.0, "lat": 38.921594999999996, "is_reserved": 0, "type": "electric_scooter", "bike_id": "587923ca345750c43864001358f74e09", "is_disabled": 0, "rental_uris": {"android": "https://dc.lft.to/lastmile_qr_scan", "ios": "https://dc.lft.to/lastmile_qr_scan"}, "lon": -77.03514266666667, "fusion_lat": 0.0}, {"name": "aaf85052853c2c211fada7d2f14abc81", "fusion_lon": 0.0, "lat": 38.91142383333333, "is_reserved": 0, "type": "electric_scooter", "bike_id": "aaf85052853c2c211fada7d2f14abc81", "is_disabled": 0, "rental_uris": {"android": "https://dc.lft.to/lastmile_qr_scan", "ios": "https://dc.lft.to/lastmile_qr_scan"}, "lon": -77.02384583333334, "fusion_lat": 0.0}, {"name": "38ee23360a4c281ee79f8819a640b9f0", "fusion_lon": 0.0, "lat": 38.913758666666666, "is_reserved": 0, "type": "electric_scooter", "bike_id": "38ee23360a4c281ee79f8819a640b9f0", "is_disabled": 0, "rental_uris": {"android": "https://dc.lft.to/lastmile_qr_scan", "ios": "https://dc.lft.to/lastmile_qr_scan"}, "lon": -77.01423016666666, "fusion_lat": 0.0}, {"name": "78c10bfedc4cc66a8ccd35d27f5a7f45", "fusion_lon": 0.0, "lat": 38.90379816666667, "is_reserved": 0, "type": "electric_scooter", "bike_id": "78c10bfedc4cc66a8ccd35d27f5a7f45", "is_disabled": 0, "rental_uris": {"android": "https://dc.lft.to/lastmile_qr_scan", "ios": "https://dc.lft.to/lastmile_qr_scan"}, "lon": -77.02949066666666, "fusion_lat": 0.0}, {"name": "1004aaa40e4d796585afb8ea51492780", "fusion_lon": 0.0, "lat": 38.907065333333335, "is_reserved": 0, "type": "electric_scooter", "bike_id": "1004aaa40e4d796585afb8ea51492780", "is_disabled": 0, "rental_uris": {"android": "https://dc.lft.to/lastmile_qr_scan", "ios": "https://dc.lft.to/lastmile_qr_scan"}, "lon": -77.03516566666667, "fusion_lat": 0.0}, {"name": "bc62c9a5b995dab99a26804004a3e6c3", "fusion_lon": 0.0, "lat": 38.865154, "is_reserved": 0, "type": "electric_bike", "bike_id": "bc62c9a5b995dab99a26804004a3e6c3", "is_disabled": 0, "rental_uris": {"android": "https://dc.lft.to/lastmile_qr_scan", "ios": "https://dc.lft.to/lastmile_qr_scan"}, "lon": -76.97334933333333, "fusion_lat": 0.0}, {"name": "45f9ca0685fa1b9a18d8eedf9cca91c7", "fusion_lon": 0.0, "lat": 38.8985705, "is_reserved": 0, "type": "electric_scooter", "bike_id": "45f9ca0685fa1b9a18d8eedf9cca91c7", "is_disabled": 0, "rental_uris": {"android": "https://dc.lft.to/lastmile_qr_scan", "ios": "https://dc.lft.to/lastmile_qr_scan"}, "lon": -76.99036366666667, "fusion_lat": 0.0}, {"name": "c7f9fe0b4d5d658b12b14260067e51c1", "fusion_lon": 0.0, "lat": 38.919846666666665, "is_reserved": 0, "type": "electric_scooter", "bike_id": "c7f9fe0b4d5d658b12b14260067e51c1", "is_disabled": 0, "rental_uris": {"android": "https://dc.lft.to/lastmile_qr_scan", "ios": "https://dc.lft.to/lastmile_qr_scan"}, "lon": -77.02394233333334, "fusion_lat": 0.0}, {"name": "137cd2e43e76569a191d3109047ab864", "fusion_lon": 0.0, "lat": 38.922895, "is_reserved": 0, "type": "electric_scooter", "bike_id": "137cd2e43e76569a191d3109047ab864", "is_disabled": 0, "rental_uris": {"android": "https://dc.lft.to/lastmile_qr_scan", "ios": "https://dc.lft.to/lastmile_qr_scan"}, "lon": -77.03683216666667, "fusion_lat": 0.0}, {"name": "3487ba4d1217948fbeb04793183cb818", "fusion_lon": 0.0, "lat": 38.907393, "is_reserved": 0, "type": "electric_scooter", "bike_id": "3487ba4d1217948fbeb04793183cb818", "is_disabled": 0, "rental_uris": {"android": "https://dc.lft.to/lastmile_qr_scan", "ios": "https://dc.lft.to/lastmile_qr_scan"}, "lon": -77.04214333333333, "fusion_lat": 0.0}, {"name": "898b336671edd7bbf98ef1c25977dfce", "fusion_lon": 0.0, "lat": 38.919613, "is_reserved": 0, "type": "electric_scooter", "bike_id": "898b336671edd7bbf98ef1c25977dfce", "is_disabled": 0, "rental_uris": {"android": "https://dc.lft.to/lastmile_qr_scan", "ios": "https://dc.lft.to/lastmile_qr_scan"}, "lon": -77.0238535, "fusion_lat": 0.0}, {"name": "cadb73bb89a91b2d96098af4520f61ed", "fusion_lon": 0.0, "lat": 38.88265083333334, "is_reserved": 0, "type": "electric_scooter", "bike_id": "cadb73bb89a91b2d96098af4520f61ed", "is_disabled": 0, "rental_uris": {"android": "https://dc.lft.to/lastmile_qr_scan", "ios": "https://dc.lft.to/lastmile_qr_scan"}, "lon": -76.99252616666666, "fusion_lat": 0.0}, {"name": "b603fe71269ac0da9dc34009f88504c1", "fusion_lon": 0.0, "lat": 38.90581533333334, "is_reserved": 0, "type": "electric_scooter", "bike_id": "b603fe71269ac0da9dc34009f88504c1", "is_disabled": 0, "rental_uris": {"android": "https://dc.lft.to/lastmile_qr_scan", "ios": "https://dc.lft.to/lastmile_qr_scan"}, "lon": -77.005761, "fusion_lat": 0.0}, {"name": "af17324338ccb9a8b0f16eb8acf5f4f6", "fusion_lon": 0.0, "lat": 38.9163915, "is_reserved": 0, "type": "electric_scooter", "bike_id": "af17324338ccb9a8b0f16eb8acf5f4f6", "is_disabled": 0, "rental_uris": {"android": "https://dc.lft.to/lastmile_qr_scan", "ios": "https://dc.lft.to/lastmile_qr_scan"}, "lon": -77.0398975, "fusion_lat": 0.0}, {"name": "b2282772caffc60773f4af4ffc7584c4", "fusion_lon": 0.0, "lat": 38.900686666666665, "is_reserved": 0, "type": "electric_scooter", "bike_id": "b2282772caffc60773f4af4ffc7584c4", "is_disabled": 0, "rental_uris": {"android": "https://dc.lft.to/lastmile_qr_scan", "ios": "https://dc.lft.to/lastmile_qr_scan"}, "lon": -76.99634533333334, "fusion_lat": 0.0}, {"name": "041fe6e742113f88175da8b8284056b3", "fusion_lon": 0.0, "lat": 38.923743333333334, "is_reserved": 0, "type": "electric_scooter", "bike_id": "041fe6e742113f88175da8b8284056b3", "is_disabled": 0, "rental_uris": {"android": "https://dc.lft.to/lastmile_qr_scan", "ios": "https://dc.lft.to/lastmile_qr_scan"}, "lon": -77.03053266666667, "fusion_lat": 0.0}, {"name": "207b50635ac7ad83ac5513b4a9d20dea", "fusion_lon": 0.0, "lat": 38.92484866666667, "is_reserved": 0, "type": "electric_scooter", "bike_id": "207b50635ac7ad83ac5513b4a9d20dea", "is_disabled": 0, "rental_uris": {"android": "https://dc.lft.to/lastmile_qr_scan", "ios": "https://dc.lft.to/lastmile_qr_scan"}, "lon": -77.0276105, "fusion_lat": 0.0}, {"name": "fdca08cfea9d5b0e81686a67d5f8bdcc", "fusion_lon": 0.0, "lat": 38.91460466666667, "is_reserved": 0, "type": "electric_scooter", "bike_id": "fdca08cfea9d5b0e81686a67d5f8bdcc", "is_disabled": 0, "rental_uris": {"android": "https://dc.lft.to/lastmile_qr_scan", "ios": "https://dc.lft.to/lastmile_qr_scan"}, "lon": -77.0713025, "fusion_lat": 0.0}, {"name": "1a873166383a1091e26725c27a261a39", "fusion_lon": 0.0, "lat": 38.917412, "is_reserved": 0, "type": "electric_scooter", "bike_id": "1a873166383a1091e26725c27a261a39", "is_disabled": 0, "rental_uris": {"android": "https://dc.lft.to/lastmile_qr_scan", "ios": "https://dc.lft.to/lastmile_qr_scan"}, "lon": -77.03461366666667, "fusion_lat": 0.0}, {"name": "9be48249231182ce32aa49b74991acad", "fusion_lon": 0.0, "lat": 38.9304195, "is_reserved": 0, "type": "electric_scooter", "bike_id": "9be48249231182ce32aa49b74991acad", "is_disabled": 0, "rental_uris": {"android": "https://dc.lft.to/lastmile_qr_scan", "ios": "https://dc.lft.to/lastmile_qr_scan"}, "lon": -77.01227633333333, "fusion_lat": 0.0}, {"name": "cd7dd65a5673156eaf262d7c471efc63", "fusion_lon": 0.0, "lat": 38.914744, "is_reserved": 0, "type": "electric_scooter", "bike_id": "cd7dd65a5673156eaf262d7c471efc63", "is_disabled": 0, "rental_uris": {"android": "https://dc.lft.to/lastmile_qr_scan", "ios": "https://dc.lft.to/lastmile_qr_scan"}, "lon": -77.03182766666667, "fusion_lat": 0.0}, {"name": "7f1253827eebf9c9933d6ec336cce7e5", "fusion_lon": 0.0, "lat": 38.91269366666667, "is_reserved": 0, "type": "electric_scooter", "bike_id": "7f1253827eebf9c9933d6ec336cce7e5", "is_disabled": 0, "rental_uris": {"android": "https://dc.lft.to/lastmile_qr_scan", "ios": "https://dc.lft.to/lastmile_qr_scan"}, "lon": -77.0222625, "fusion_lat": 0.0}, {"name": "6ebe4f84802f7c39bdc5e05fe10fffdd", "fusion_lon": 0.0, "lat": 38.923785333333335, "is_reserved": 0, "type": "electric_scooter", "bike_id": "6ebe4f84802f7c39bdc5e05fe10fffdd", "is_disabled": 0, "rental_uris": {"android": "https://dc.lft.to/lastmile_qr_scan", "ios": "https://dc.lft.to/lastmile_qr_scan"}, "lon": -77.0353935, "fusion_lat": 0.0}, {"name": "56fe941a88afed9e3b967dee5d7c0f66", "fusion_lon": 0.0, "lat": 38.91911433333333, "is_reserved": 0, "type": "electric_scooter", "bike_id": "56fe941a88afed9e3b967dee5d7c0f66", "is_disabled": 0, "rental_uris": {"android": "https://dc.lft.to/lastmile_qr_scan", "ios": "https://dc.lft.to/lastmile_qr_scan"}, "lon": -77.01539733333334, "fusion_lat": 0.0}, {"name": "bfd2d57a505f09d1b40feceb653bea29", "fusion_lon": 0.0, "lat": 38.95357766666667, "is_reserved": 0, "type": "electric_bike", "bike_id": "bfd2d57a505f09d1b40feceb653bea29", "is_disabled": 0, "rental_uris": {"android": "https://dc.lft.to/lastmile_qr_scan", "ios": "https://dc.lft.to/lastmile_qr_scan"}, "lon": -76.98087083333333, "fusion_lat": 0.0},