{"data": {"bikes": [{"bike_id": "66d6362255fb8f0b34dd6e5b9aa8b1d4", "is_reserved": 0, "fusion_lon": 0.0, "lat": 38.80746966666667, "is_disabled": 0, "name": "66d6362255fb8f0b34dd6e5b9aa8b1d4", "fusion_lat": 0.0, "rental_uris": {"ios": "https://dc.lft.to/lastmile_qr_scan", "android": "https://dc.lft.to/lastmile_qr_scan"}, "lon": -77.09421733333333, "type": "electric_bike"}, {"bike_id": "5181ac86d48350e4c528981786b3f638", "is_reserved": 0, "fusion_lon": 0.0, "lat": 38.941720333333336, "is_disabled": 0, "name": "5181ac86d48350e4c528981786b3f638", "fusion_lat": 0.0, "rental_uris": {"ios": "https://dc.lft.to/lastmile_qr_scan", "android": "https://dc.lft.to/lastmile_qr_scan"}, "lon": -77.04131933333333, "type": "electric_scooter"}, {"bike_id": "76e51dc7883c86f11f49fa7b5d36c472", "is_reserved": 0, "fusion_lon": 0.0, "lat": 38.95629733333333, "is_disabled": 0, "name": "76e51dc7883c86f11f49fa7b5d36c472", "fusion_lat": 0.0, "rental_uris": {"ios": "https://dc.lft.to/lastmile_qr_scan", "android": "https://dc.lft.to/lastmile_qr_scan"}, "lon": -76.96663033333333, "type": "electric_bike"}, {"bike_id": "ef8c5b365ac879beec226c23a37254e1", "is_reserved": 0, "fusion_lon": 0.0, "lat": 38.898773166666665, "is_disabled": 0, "name": "ef8c5b365ac879beec226c23a37254e1", "fusion_lat": 0.0, "rental_uris": {"ios": "https://dc.lft.to/lastmile_qr_scan", "android": "https://dc.lft.to/lastmile_qr_scan"}, "lon": -76.93159866666667, "type": "electric_scooter"}, {"bike_id": "2b613ea20760b387cfa83d86a5a1fb7d", "is_reserved": 0, "fusion_lon": 0.0, "lat": 38.92139983333333, "is_disabled": 0, "name": "2b613ea20760b387cfa83d86a5a1fb7d", "fusion_lat": 0.0, "rental_uris": {"ios": "https://dc.lft.to/lastmile_qr_scan", "android": "https://dc.lft.to/lastmile_qr_scan"}, "lon": -77.0348845, "type": "electric_scooter"}, {"bike_id": "41cce68d04f94205163682198de6fa02", "is_reserved": 0, "fusion_lon": 0.0, "lat": 38.90342733333333, "is_disabled": 0, "name": "41cce68d04f94205163682198de6fa02", "fusion_lat": 0.0, "rental_uris": {"ios": "https://dc.lft.to/lastmile_qr_scan", "android": "https://dc.lft.to/lastmile_qr_scan"}, "lon": -77.0664115, "type": "electric_scooter"}, {"bike_id": "3f2b2d02163837d928cdb815d3f3a21d", "is_reserved": 0, "fusion_lon": 0.0, "lat": 38.91027833333333, "is_disabled": 0, "name": "3f2b2d02163837d928cdb815d3f3a21d", "fusion_lat": 0.0, "rental_uris": {"ios": "https://dc.lft.to/lastmile_qr_scan", "android": "https://dc.lft.to/lastmile_qr_scan"}, "lon": -77.04801966666666, "type": "electric_scooter"}, {"bike_id": "6f32e2464eedacf09cb7bde517b80c74", "is_reserved": 0, "fusion_lon": 0.0, "lat": 38.928946833333335, "is_disabled": 0, "name": "6f32e2464eedacf09cb7bde517b80c74", "fusion_lat": 0.0, "rental_uris": {"ios": "https://dc.lft.to/lastmile_qr_scan", "android": "https://dc.lft.to/lastmile_qr_scan"}, "lon": -77.0546355, "type": "electric_scooter"}, {"bike_id": "ed634d722d1ee902b0811472cdd4bfd1", "is_reserved": 0, "fusion_lon": 0.0, "lat": 38.99822666666667, "is_disabled": 0, "name": "ed634d722d1ee902b0811472cdd4bfd1", "fusion_lat": 0.0, "rental_uris": {"ios": "https://dc.lft.to/lastmile_qr_scan", "android": "https://dc.lft.to/lastmile_qr_scan"}, "lon": -76.88366916666666, "type": "electric_bike"}, {"bike_id": "be7ee02e6770b2b8e8f3a7f5aff86714", "is_reserved": 0, "fusion_lon": 0.0, "lat": 38.8563165, "is_disabled": 0, "name": "be7ee02e6770b2b8e8f3a7f5aff86714", "fusion_lat": 0.0, "rental_uris": {"ios": "https://dc.lft.to/lastmile_qr_scan", "android": "https://dc.lft.to/lastmile_qr_scan"}, "lon": -76.97454216666667, "type": "electric_scooter"}, {"bike_id": "a4c634a2b2b10982d822f4315a2ff6a0", "is_reserved": 0, "fusion_lon": 0.0, "lat": 38.9035075, "is_disabled": 0, "name": "a4c634a2b2b10982d822f4315a2ff6a0", "fusion_lat": 0.0, "rental_uris": {"ios": "https://dc.lft.to/lastmile_qr_scan", "android": "https://dc.lft.to/lastmile_qr_scan"}, "lon": -77.01097966666667, "type": "electric_scooter"}, {"bike_id": "7632cc092baa4fad31a1d439333669ae", "is_reserved": 0, "fusion_lon": 0.0, "lat": 38.913327, "is_disabled": 0, "name": "7632cc092baa4fad31a1d439333669ae", "fusion_lat": 0.0, "rental_uris": {"ios": "https://dc.lft.to/lastmile_qr_scan", "android": "https://dc.lft.to/lastmile_qr_scan"}, "lon": -77.031239, "type": "electric_scooter"}, {"bike_id": "6e1b495109d319b04773e6d91dcf6f7f", "is_reserved": 0, "fusion_lon": 0.0, "lat": 38.84293366666667, "is_disabled": 0, "name": "6e1b495109d319b04773e6d91dcf6f7f", "fusion_lat": 0.0, "rental_uris": {"ios": "https://dc.lft.to/lastmile_qr_scan", "android": "https://dc.lft.to/lastmile_qr_scan"}, "lon": -76.99947666666667, "type": "electric_scooter"}, {"bike_id": "e081fe7b72c18c415ead1d46c77886f4", "is_reserved": 0, "fusion_lon": 0.0, "lat": 38.940545166666666, "is_disabled": 0, "name": "e081fe7b72c18c415ead1d46c77886f4", "fusion_lat": 0.0, "rental_uris": {"ios": "https://dc.lft.to/lastmile_qr_scan", "android": "https://dc.lft.to/lastmile_qr_scan"}, "lon": -77.0927, "type": "electric_scooter"}, {"bike_id": "86efa709774b7fd81c48d8c454f78c53", "is_reserved": 0, "fusion_lon": 0.0, "lat": 38.903665833333335, "is_disabled": 0, "name": "86efa709774b7fd81c48d8c454f78c53", "fusion_lat": 0.0, "rental_uris": {"ios": "https://dc.lft.to/lastmile_qr_scan", "android": "https://dc.lft.to/lastmile_qr_scan"}, "lon": -77.01901383333333, "type": "electric_scooter"}, {"bike_id": "b0d484bdc15a7d27592d8ce1abd8efad", "is_reserved": 0, "fusion_lon": 0.0, "lat": 38.90315733333333, "is_disabled": 0, "name": "b0d484bdc15a7d27592d8ce1abd8efad", "fusion_lat": 0.0, "rental_uris": {"ios": "https://dc.lft.to/lastmile_qr_scan", "android": "https://dc.lft.to/lastmile_qr_scan"}, "lon": -77.03851566666667, "type": "electric_scooter"}, {"bike_id": "f591bbba00e0d6f9b13f413f5a2537c1", "is_reserved": 0, "fusion_lon": 0.0, "lat": 38.89817383333333, "is_disabled": 0, "name": "f591bbba00e0d6f9b13f413f5a2537c1", "fusion_lat": 0.0, "rental_uris": {"ios": "https://dc.lft.to/lastmile_qr_scan", "android": "https://dc.lft.to/lastmile_qr_scan"}, "lon": -77.02929266666666, "type": "electric_scooter"}, {"bike_id": "70f394a8623b076524beed8b5a07b978", "is_reserved": 0, "fusion_lon": 0.0, "lat": 38.9074635, "is_disabled": 0, "name": "70f394a8623b076524beed8b5a07b978", "fusion_lat": 0.0, "rental_uris": {"ios": "https://dc.lft.to/lastmile_qr_scan", "android": "https://dc.lft.to/lastmile_qr_scan"}, "lon": -77.000941, "type": "electric_scooter"}, {"bike_id": "cdce726a61d1f46d10b80ff28d3bc139", "is_reserved": 0, "fusion_lon": 0.0, "lat": 38.917405333333335, "is_disabled": 0, "name": "cdce726a61d1f46d10b80ff28d3bc139", "fusion_lat": 0.0, "rental_uris": {"ios": "https://dc.lft.to/lastmile_qr_scan", "android": "https://dc.lft.to/lastmile_qr_scan"}, "lon": -77.00752516666667, "type": "electric_scooter"}, {"bike_id": "77932a2031b13d94b1ebce615b9e79b0", "is_reserved": 0, "fusion_lon": 0.0, "lat": 38.974243666666666, "is_disabled": 0, "name": "77932a2031b13d94b1ebce615b9e79b0", "fusion_lat": 0.0, "rental_uris": {"ios": "https://dc.lft.to/lastmile_qr_scan", "android": "https://dc.lft.to/lastmile_qr_scan"}, "lon": -77.01521016666666, "type": "electric_scooter"}, {"bike_id": "efe43ad6828f9b27763d89c4e9a65b54", "is_reserved": 0, "fusion_lon": 0.0, "lat": 38.91412533333333, "is_disabled": 0, "name": "efe43ad6828f9b27763d89c4e9a65b54", "fusion_lat": 0.0, "rental_uris": {"ios": "https://dc.lft.to/lastmile_qr_scan", "android": "https://dc.lft.to/lastmile_qr_scan"}, "lon": -77.04142833333333, "type": "electric_scooter"}, {"bike_id": "08eb24f16a5b546fc4f00e487f17ef92", "is_reserved": 0, "fusion_lon": 0.0, "lat": 38.866989, "is_disabled": 0, "name": "08eb24f16a5b546fc4f00e487f17ef92", "fusion_lat": 0.0, "rental_uris": {"ios": "https://dc.lft.to/lastmile_qr_scan", "android": "https://dc.lft.to/lastmile_qr_scan"}, "lon": -76.9871635, "type": "electric_scooter"}, {"bike_id": "a8ad5d34548e640156cf076108d3b4d9", "is_reserved": 0, "fusion_lon": 0.0, "lat": 38.92741733333333, "is_disabled": 0, "name": "a8ad5d34548e640156cf076108d3b4d9", "fusion_lat": 0.0, "rental_uris": {"ios": "https://dc.lft.to/lastmile_qr_scan", "android": "https://dc.lft.to/lastmile_qr_scan"}, "lon": -77.01205383333334, "type": "electric_scooter"}, {"bike_id": "34866b4b5e000123aa87bfbb5f784e27", "is_reserved": 0, "fusion_lon": 0.0, "lat": 38.88404466666667, "is_disabled": 0, "name": "34866b4b5e000123aa87bfbb5f784e27", "fusion_lat": 0.0, "rental_uris": {"ios": "https://dc.lft.to/lastmile_qr_scan", "android": "https://dc.lft.to/lastmile_qr_scan"}, "lon": -76.98587016666667, "type": "electric_scooter"}, {"bike_id": "f7ec362e78054c68eebd84f05534d3d6", "is_reserved": 0, "fusion_lon": 0.0, "lat": 38.896868166666664, "is_disabled": 0, "name": "f7ec362e78054c68eebd84f05534d3d6", "fusion_lat": 0.0, "rental_uris": {"ios": "https://dc.lft.to/lastmile_qr_scan", "android": "https://dc.lft.to/lastmile_qr_scan"}, "lon": -76.996167, "type": "electric_scooter"}, {"bike_id": "cd2796180395e6521de36fbdab9c6c4e", "is_reserved": 0, "fusion_lon": 0.0, "lat": 38.914057666666665, "is_disabled": 0, "name": "cd2796180395e6521de36fbdab9c6c4e", "fusion_lat": 0.0, "rental_uris": {"ios": "https://dc.lft.to/lastmile_qr_scan", "android": "https://dc.lft.to/lastmile_qr_scan"}, "lon": -77.03176783333333, "type": "electric_scooter"}, {"bike_id": "f855f96f849045a40aad72684df05644", "is_reserved": 0, "fusion_lon": 0.0, "lat": 38.9127845, "is_disabled": 0, "name": "f855f96f849045a40aad72684df05644", "fusion_lat": 0.0, "rental_uris": {"ios": "https://dc.lft.to/lastmile_qr_scan", "android": "https://dc.lft.to/lastmile_qr_scan"}, "lon": -77.01350716666667, "type": "electric_scooter"}, {"bike_id": "b782779c3e2acb59c78457caf2658e9b", "is_reserved": 0, "fusion_lon": 0.0, "lat": 38.906232, "is_disabled": 0, "name": "b782779c3e2acb59c78457caf2658e9b", "fusion_lat": 0.0, "rental_uris": {"ios": "https://dc.lft.to/lastmile_qr_scan", "android": "https://dc.lft.to/lastmile_qr_scan"}, "lon": -77.041709, "type": "electric_scooter"}, {"bike_id": "72b593631ed82a367423dcad60291214", "is_reserved": 0, "fusion_lon": 0.0, "lat": 38.91913366666667, "is_disabled": 0, "name": "72b593631ed82a367423dcad60291214", "fusion_lat": 0.0, "rental_uris": {"ios": "https://dc.lft.to/lastmile_qr_scan", "android": "https://dc.lft.to/lastmile_qr_scan"}, "lon": -77.03153433333334, "type": "electric_scooter"}, {"bike_id": "02f5aa10e2825cfcbb9704449308edeb", "is_reserved": 0, "fusion_lon": 0.0, "lat": 38.931032, "is_disabled": 0, "name": "02f5aa10e2825cfcbb9704449308edeb", "fusion_lat": 0.0, "rental_uris": {"ios": "https://dc.lft.to/lastmile_qr_scan", "android": "https://dc.lft.to/lastmile_qr_scan"}, "lon": -77.03807566666667, "type": "electric_scooter"}, {"bike_id": "4b5d82ba0dc656714c3f23f6d0c228a8", "is_reserved": 0, "fusion_lon": 0.0, "lat": 38.9009345, "is_disabled": 0, "name": "4b5d82ba0dc656714c3f23f6d0c228a8", "fusion_lat": 0.0, "rental_uris": {"ios": "https://dc.lft.to/lastmile_qr_scan", "android": "https://dc.lft.to/lastmile_qr_scan"}, "lon": -76.9746415, "type": "electric_scooter"}, {"bike_id": "fe98adb4b67ace21e5867043c1c93a21", "is_reserved": 0, "fusion_lon": 0.0, "lat": 38.909584, "is_disabled": 0, "name": "fe98adb4b67ace21e5867043c1c93a21", "fusion_lat": 0.0, "rental_uris": {"ios": "https://dc.lft.to/lastmile_qr_scan", "android": "https://dc.lft.to/lastmile_qr_scan"}, "lon": -77.02553616666667, "type": "electric_scooter"}, {"bike_id": "31e80a627df2216d23730827d63fe834", "is_reserved": 0, "fusion_lon": 0.0, "lat": 38.90659433333333, "is_disabled": 0, "name": "31e80a627df2216d23730827d63fe834", "fusion_lat": 0.0, "rental_uris": {"ios": "https://dc.lft.to/lastmile_qr_scan", "android": "https://dc.lft.to/lastmile_qr_scan"}, "lon": -77.051472, "type": "electric_scooter"}, {"bike_id": "9b299d80899fc0064ee500acfc3c5dba", "is_reserved": 0, "fusion_lon": 0.0, "lat": 38.90008366666667, "is_disabled": 0, "name": "9b299d80899fc0064ee500acfc3c5dba", "fusion_lat": 0.0, "rental_uris": {"ios": "https://dc.lft.to/lastmile_qr_scan", "android": "https://dc.lft.to/lastmile_qr_scan"}, "lon": -77.04040133333334, "type": "electric_scooter"}, {"bike_id": "951062e8b59561f9a0b84b66831381f9", "is_reserved": 0, "fusion_lon": 0.0, "lat": 38.89265483333333, "is_disabled": 0, "name": "951062e8b59561f9a0b84b66831381f9", "fusion_lat": 0.0, "rental_uris": {"ios": "https://dc.lft.to/lastmile_qr_scan", "android": "https://dc.lft.to/lastmile_qr_scan"}, "lon": -77.02203016666667, "type": "electric_bike"}, {"bike_id": "8df44a1bb3b4f67ab2a1480f02163b2a", "is_reserved": 0, "fusion_lon": 0.0, "lat": 38.89731533333333, "is_disabled": 0, "name": "8df44a1bb3b4f67ab2a1480f02163b2a", "fusion_lat": 0.0, "rental_uris": {"ios": "https://dc.lft.to/lastmile_qr_scan", "android": "https://dc.lft.to/lastmile_qr_scan"}, "lon": -77.04334966666667, "type": "electric_scooter"}, {"bike_id": "d9c8f13f1c0245ffbab1db014ba0fb30", "is_reserved": 0, "fusion_lon": 0.0, "lat": 38.939526, "is_disabled": 0, "name": "d9c8f13f1c0245ffbab1db014ba0fb30", "fusion_lat": 0.0, "rental_uris": {"ios": "https://dc.lft.to/lastmile_qr_scan", "android": "https://dc.lft.to/lastmile_qr_scan"}, "lon": -77.03273083333333, "type": "electric_scooter"}, {"bike_id": "04b44e51008f1bf4d7f908abc0a59d80", "is_reserved": 0, "fusion_lon": 0.0, "lat": 38.98462766666667, "is_disabled": 0, "name": "04b44e51008f1bf4d7f908abc0a59d80", "fusion_lat": 0.0, "rental_uris": {"ios": "https://dc.lft.to/lastmile_qr_scan", "android": "https://dc.lft.to/lastmile_qr_scan"}, "lon": -76.9553045, "type": "electric_bike"}, {"bike_id": "b7ee73b3e65d3bdef74039d7a25f252b", "is_reserved": 0, "fusion_lon": 0.0, "lat": 38.916555333333335, "is_disabled": 0, "name": "b7ee73b3e65d3bdef74039d7a25f252b", "fusion_lat": 0.0, "rental_uris": {"ios": "https://dc.lft.to/lastmile_qr_scan", "android": "https://dc.lft.to/lastmile_qr_scan"}, "lon": -77.0365585, "type": "electric_scooter"}, {"bike_id": "e95f0372c95ae4e63ae6c03a0ccc6401", "is_reserved": 0, "fusion_lon": 0.0, "lat": 38.903567, "is_disabled": 0, "name": "e95f0372c95ae4e63ae6c03a0ccc6401", "fusion_lat": 0.0, "rental_uris": {"ios": "https://dc.lft.to/lastmile_qr_scan", "android": "https://dc.lft.to/lastmile_qr_scan"}, "lon": -77.0292295, "type": "electric_scooter"}, {"bike_id": "47a3c4d73123af522f539111c66bf735", "is_reserved": 0, "fusion_lon": 0.0, "lat": 38.920071166666666, "is_disabled": 0, "name": "47a3c4d73123af522f539111c66bf735", "fusion_lat": 0.0, "rental_uris": {"ios": "https://dc.lft.to/lastmile_qr_scan", "android": "https://dc.lft.to/lastmile_qr_scan"}, "lon": -77.02321783333333, "type": "electric_scooter"}, {"bike_id": "6723cafd24da86716277807ea27d3f9b", "is_reserved": 0, "fusion_lon": 0.0, "lat": 38.89227833333333, "is_disabled": 0, "name": "6723cafd24da86716277807ea27d3f9b", "fusion_lat": 0.0, "rental_uris": {"ios": "https://dc.lft.to/lastmile_qr_scan", "android": "https://dc.lft.to/lastmile_qr_scan"}, "lon": -77.02577766666667, "type": "electric_scooter"}, {"bike_id": "4cb0eaf738572d03707a545c93194fca", "is_reserved": 0, "fusion_lon": 0.0, "lat": 38.90283016666667, "is_disabled": 0, "name": "4cb0eaf738572d03707a545c93194fca", "fusion_lat": 0.0, "rental_uris": {"ios": "https://dc.lft.to/lastmile_qr_scan", "android": "https://dc.lft.to/lastmile_qr_scan"}, "lon": -77.0404635, "type": "electric_scooter"}, {"bike_id": "cd15dc9c7764f2096d9519b29ede2ca9", "is_reserved": 0, "fusion_lon": 0.0, "lat": 38.89731283333333, "is_disabled": 0, "name": "cd15dc9c7764f2096d9519b29ede2ca9", "fusion_lat": 0.0, "rental_uris": {"ios": "https://dc.lft.to/lastmile_qr_scan", "android": "https://dc.lft.to/lastmile_qr_scan"}, "lon": -77.02695666666666, "type": "electric_scooter"}, {"bike_id": "8120864d5f3b1d861f7ee9c8ea4f1772", "is_reserved": 0, "fusion_lon": 0.0, "lat": 38.939447333333334, "is_disabled": 0, "name": "8120864d5f3b1d861f7ee9c8ea4f1772", "fusion_lat": 0.0, "rental_uris": {"ios": "https://dc.lft.to/lastmile_qr_scan", "android": "https://dc.lft.to/lastmile_qr_scan"}, "lon": -77.032716, "type": "electric_scooter"}, {"bike_id": "eaef777e9a54fd3fa06a43a990b881df", "is_reserved": 0, "fusion_lon": 0.0, "lat": 38.90642116666667, "is_disabled": 0, "name": "eaef777e9a54fd3fa06a43a990b881df", "fusion_lat": 0.0, "rental_uris": {"ios": "https://dc.lft.to/lastmile_qr_scan", "android": "https://dc.lft.to/lastmile_qr_scan"}, "lon": -77.0249795, "type": "electric_scooter"}, {"bike_id": "cbe9ffde3610fcd6a27616050bd01d6f", "is_reserved": 0, "fusion_lon": 0.0, "lat": 38.92754633333333, "is_disabled": 0, "name": "cbe9ffde3610fcd6a27616050bd01d6f", "fusion_lat": 0.0, "rental_uris": {"ios": "https://dc.lft.to/lastmile_qr_scan", "android": "https://dc.lft.to/lastmile_qr_scan"}, "lon": -77.05375116666667, "type": "electric_scooter"}, {"bike_id": "7202a3ede8c166999b463c00ae7317fa", "is_reserved": 0, "fusion_lon": 0.0, "lat": 38.865917, "is_disabled": 0, "name": "7202a3ede8c166999b463c00ae7317fa", "fusion_lat": 0.0, "rental_uris": {"ios": "https://dc.lft.to/lastmile_qr_scan", "android": "https://dc.lft.to/lastmile_qr_scan"}, "lon": -76.932336, "type": "electric_bike"}, {"bike_id": "19d389a77c0bc1831e59d2cb68e751d2", "is_reserved": 0, "fusion_lon": 0.0, "lat": 38.885960833333336, "is_disabled": 0, "name": "19d389a77c0bc1831e59d2cb68e751d2", "fusion_lat": 0.0, "rental_uris": {"ios": "https://dc.lft.to/lastmile_qr_scan", "android": "https://dc.lft.to/lastmile_qr_scan"}, "lon": -76.9526345, "type": "electric_scooter"}, {"bike_id": "78ffb3466273ec8252bdf5943303a1a0", "is_reserved": 0, "fusion_lon": 0.0, "lat": 38.85223833333333, "is_disabled": 0, "name": "78ffb3466273ec8252bdf5943303a1a0", "fusion_lat": 0.0, "rental_uris": {"ios": "https://dc.lft.to/lastmile_qr_scan", "android": "https://dc.lft.to/lastmile_qr_scan"}, "lon": -77.12958616666667, "type": "electric_bike"}, {"bike_id": "f672a44d3fb076d64c2749a0dd6d3394", "is_reserved": 0, "fusion_lon": 0.0, "lat": 38.807002833333335, "is_disabled": 0, "name": "f672a44d3fb076d64c2749a0dd6d3394", "fusion_lat": 0.0, "rental_uris": {"ios": "https://dc.lft.to/lastmile_qr_scan", "android": "https://dc.lft.to/lastmile_qr_scan"}, "lon": -77.05973416666667, "type": "electric_bike"}, {"bike_id": "72d6853ab6298fef3046b1e8e38821e7", "is_reserved": 0, "fusion_lon": 0.0, "lat": 38.900690166666664, "is_disabled": 0, "name": "72d6853ab6298fef3046b1e8e38821e7", "fusion_lat": 0.0, "rental_uris": {"ios": "https://dc.lft.to/lastmile_qr_scan", "android": "https://dc.lft.to/lastmile_qr_scan"}, "lon": -77.007401, "type": "electric_scooter"}, {"bike_id": "1d7c163a733bfbf6272a162f13957cc8", "is_reserved": 0, "fusion_lon": 0.0, "lat": 38.901838, "is_disabled": 0, "name": "1d7c163a733bfbf6272a162f13957cc8", "fusion_lat": 0.0, "rental_uris": {"ios": "https://dc.lft.to/lastmile_qr_scan", "android": "https://dc.lft.to/lastmile_qr_scan"}, "lon": -77.04785933333334, "type": "electric_scooter"}, {"bike_id": "7bd3a4442a8b941f260a44e0fd09d2a4", "is_reserved": 0, "fusion_lon": 0.0, "lat": 38.9023605, "is_disabled": 0, "name": "7bd3a4442a8b941f260a44e0fd09d2a4", "fusion_lat": 0.0, "rental_uris": {"ios": "https://dc.lft.to/lastmile_qr_scan", "android": "https://dc.lft.to/lastmile_qr_scan"}, "lon": -77.02974166666667, "type": "electric_scooter"}, {"bike_id": "feabf2825b5e70e94e1e9ebd5e53a340", "is_reserved": 0, "fusion_lon": 0.0, "lat": 38.9279275, "is_disabled": 0, "name": "feabf2825b5e70e94e1e9ebd5e53a340", "fusion_lat": 0.0, "rental_uris": {"ios": "https://dc.lft.to/lastmile_qr_scan", "android": "https://dc.lft.to/lastmile_qr_scan"}, "lon": -77.031468, "type": "electric_scooter"}, {"bike_id": "228748dd3a4855c016d996e1c227d6e0", "is_reserved": 0, "fusion_lon": 0.0, "lat": 38.90567883333333, "is_disabled": 0, "name": "228748dd3a4855c016d996e1c227d6e0", "fusion_lat": 0.0, "rental_uris": {"ios": "https://dc.lft.to/lastmile_qr_scan", "android": "https://dc.lft.to/lastmile_qr_scan"}, "lon": -77.029719, "type": "electric_scooter"}, {"bike_id": "dcf7042a562eef8e7665d1137dd3c573", "is_reserved": 0, "fusion_lon": 0.0, "lat": 38.89222483333333, "is_disabled": 0, "name": "dcf7042a562eef8e7665d1137dd3c573", "fusion_lat": 0.0, "rental_uris": {"ios": "https://dc.lft.to/lastmile_qr_scan", "android": "https://dc.lft.to/lastmile_qr_scan"}, "lon": -77.02838816666667, "type": "electric_scooter"}, {"bike_id": "1bf90f261617f579c6a68e618fa8948d", "is_reserved": 0, "fusion_lon": 0.0, "lat": 38.880382, "is_disabled": 0, "name": "1bf90f261617f579c6a68e618fa8948d", "fusion_lat": 0.0, "rental_uris": {"ios": "https://dc.lft.to/lastmile_qr_scan", "android": "https://dc.lft.to/lastmile_qr_scan"}, "lon": -76.92721933333333, "type": "electric_scooter"}, {"bike_id": "403395015c2f592c791994f4e0b1dcf9", "is_reserved": 0, "fusion_lon": 0.0, "lat": 38.89841783333333, "is_disabled": 0, "name": "403395015c2f592c791994f4e0b1dcf9", "fusion_lat": 0.0, "rental_uris": {"ios": "https://dc.lft.to/lastmile_qr_scan", "android": "https://dc.lft.to/lastmile_qr_scan"}, "lon": -77.033262, "type": "electric_scooter"}, {"bike_id": "39059f8639e7233fb16e73b0100dbec4", "is_reserved": 0, "fusion_lon": 0.0, "lat": 38.93423216666667, "is_disabled": 0, "name": "39059f8639e7233fb16e73b0100dbec4", "fusion_lat": 0.0, "rental_uris": {"ios": "https://dc.lft.to/lastmile_qr_scan", "android": "https://dc.lft.to/lastmile_qr_scan"}, "lon": -77.0341145, "type": "electric_scooter"}, {"bike_id": "f916215f1d8b3bd49459dc16e24ee437", "is_reserved": 0, "fusion_lon": 0.0, "lat": 38.906753, "is_disabled": 0, "name": "f916215f1d8b3bd49459dc16e24ee437", "fusion_lat": 0.0, "rental_uris": {"ios": "https://dc.lft.to/lastmile_qr_scan", "android": "https://dc.lft.to/lastmile_qr_scan"}, "lon": -76.97813883333333, "type": "electric_scooter"}, {"bike_id": "1518ad8bdafa0289d7ddd2db300d717b", "is_reserved": 0, "fusion_lon": 0.0, "lat": 38.92437233333333, "is_disabled": 0, "name": "1518ad8bdafa0289d7ddd2db300d717b", "fusion_lat": 0.0, "rental_uris": {"ios": "https://dc.lft.to/lastmile_qr_scan", "android": "https://dc.lft.to/lastmile_qr_scan"}, "lon": -77.03404516666667, "type": "electric_scooter"}, {"bike_id": "14b37f73b90b9bda7ae9b8881ae8f29b", "is_reserved": 0, "fusion_lon": 0.0, "lat": 38.9170795, "is_disabled": 0, "name": "14b37f73b90b9bda7ae9b8881ae8f29b", "fusion_lat": 0.0, "rental_uris": {"ios": "https://dc.lft.to/lastmile_qr_scan", "android": "https://dc.lft.to/lastmile_qr_scan"}, "lon": -77.0293455, "type": "electric_scooter"}, {"bike_id": "6fd152baa156dc770e60cadf6011e3fa", "is_reserved": 0, "fusion_lon": 0.0, "lat": 38.911041, "is_disabled": 0, "name": "6fd152baa156dc770e60cadf6011e3fa", "fusion_lat": 0.0, "rental_uris": {"ios": "https://dc.lft.to/lastmile_qr_scan", "android": "https://dc.lft.to/lastmile_qr_scan"}, "lon": -77.04934233333333, "type": "electric_scooter"}, {"bike_id": "67438280e5189a066a101ea6d06e4c7a", "is_reserved": 0, "fusion_lon": 0.0, "lat": 38.9555875, "is_disabled": 0, "name": "67438280e5189a066a101ea6d06e4c7a", "fusion_lat": 0.0, "rental_uris": {"ios": "https://dc.lft.to/lastmile_qr_scan", "android": "https://dc.lft.to/lastmile_qr_scan"}, "lon": -76.9354905, "type": "electric_bike"}, {"bike_id": "b89b3c6b043403adefeb99192050c2c7", "is_reserved": 0, "fusion_lon": 0.0, "lat": 38.92465716666667, "is_disabled": 0, "name": "b89b3c6b043403adefeb99192050c2c7", "fusion_lat": 0.0, "rental_uris": {"ios": "https://dc.lft.to/lastmile_qr_scan", "android": "https://dc.lft.to/lastmile_qr_scan"}, "lon": -77.20839, "type": "electric_bike"}, {"bike_id": "3f9a5950e14bdd74dcc0ca54d3f15580", "is_reserved": 0, "fusion_lon": 0.0, "lat": 38.92553083333333, "is_disabled": 0, "name": "3f9a5950e14bdd74dcc0ca54d3f15580", "fusion_lat": 0.0, "rental_uris": {"ios": "https://dc.lft.to/lastmile_qr_scan", "android": "https://dc.lft.to/lastmile_qr_scan"}, "lon": -77.00137716666667, "type": "electric_bike"}, {"bike_id": "8ac66af2261e1d5cdd08f68663aa545b", "is_reserved": 0, "fusion_lon": 0.0, "lat": 38.9110055, "is_disabled": 0, "name": "8ac66af2261e1d5cdd08f68663aa545b", "fusion_lat": 0.0, "rental_uris": {"ios": "https://dc.lft.to/lastmile_qr_scan", "android": "https://dc.lft.to/lastmile_qr_scan"}, "lon": -77.0467495, "type": "electric_scooter"}, {"bike_id": "18d0f35c42aa6a32ef0c64ff8a5006ea", "is_reserved": 0, "fusion_lon": 0.0, "lat": 38.908339833333336, "is_disabled": 0, "name": "18d0f35c42aa6a32ef0c64ff8a5006ea", "fusion_lat": 0.0, "rental_uris": {"ios": "https://dc.lft.to/lastmile_qr_scan", "android": "https://dc.lft.to/lastmile_qr_scan"}, "lon": -76.99701966666666, "type": "electric_scooter"}, {"bike_id": "3ca070d4c51a9df13b4be6dcab59489d", "is_reserved": 0, "fusion_lon": 0.0, "lat": 38.91269916666667, "is_disabled": 0, "name": "3ca070d4c51a9df13b4be6dcab59489d", "fusion_lat": 0.0, "rental_uris": {"ios": "https://dc.lft.to/lastmile_qr_scan", "android": "https://dc.lft.to/lastmile_qr_scan"}, "lon": -77.0221015, "type": "electric_scooter"}, {"bike_id": "b6c65da55120caf8376e5c09a826114f", "is_reserved": 0, "fusion_lon": 0.0, "lat": 38.924432833333334, "is_disabled": 0, "name": "b6c65da55120caf8376e5c09a826114f", "fusion_lat": 0.0, "rental_uris": {"ios": "https://dc.lft.to/lastmile_qr_scan", "android": "https://dc.lft.to/lastmile_qr_scan"}, "lon": -77.0335475, "type": "electric_scooter"}, {"bike_id": "e46bd0d160ed519808f1ef2a8dc7feb4", "is_reserved": 0, "fusion_lon": 0.0, "lat": 38.891892166666665, "is_disabled": 0, "name": "e46bd0d160ed519808f1ef2a8dc7feb4", "fusion_lat": 0.0, "rental_uris": {"ios": "https://dc.lft.to/lastmile_qr_scan", "android": "https://dc.lft.to/lastmile_qr_scan"}, "lon": -77.12262583333333, "type": "electric_bike"}, {"bike_id": "f34db3b7a74c5cf3f7fc6e138a0f0247", "is_reserved": 0, "fusion_lon": 0.0, "lat": 38.902491833333336, "is_disabled": 0, "name": "f34db3b7a74c5cf3f7fc6e138a0f0247", "fusion_lat": 0.0, "rental_uris": {"ios": "https://dc.lft.to/lastmile_qr_scan", "android": "https://dc.lft.to/lastmile_qr_scan"}, "lon": -77.00203366666666, "type": "electric_scooter"}, {"bike_id": "24cff4f67a6a477af3647f93fda5a1c2", "is_reserved": 0, "fusion_lon": 0.0, "lat": 38.9066995, "is_disabled": 0, "name": "24cff4f67a6a477af3647f93fda5a1c2", "fusion_lat": 0.0, "rental_uris": {"ios": "https://dc.lft.to/lastmile_qr_scan", "android": "https://dc.lft.to/lastmile_qr_scan"}, "lon": -77.03442266666667, "type": "electric_scooter"}, {"bike_id": "1ebf0dcfdf908514f0710a0b83d5c91b", "is_reserved": 0, "fusion_lon": 0.0, "lat": 38.878536, "is_disabled": 0, "name": "1ebf0dcfdf908514f0710a0b83d5c91b", "fusion_lat": 0.0, "rental_uris": {"ios": "https://dc.lft.to/lastmile_qr_scan", "android": "https://dc.lft.to/lastmile_qr_scan"}, "lon": -76.98843616666667, "type": "electric_scooter"}, {"bike_id": "2c9bc579c5482dfa17e54db93f2c5af3", "is_reserved": 0, "fusion_lon": 0.0, "lat": 38.9170965, "is_disabled": 0, "name": "2c9bc579c5482dfa17e54db93f2c5af3", "fusion_lat": 0.0, "rental_uris": {"ios": "https://dc.lft.to/lastmile_qr_scan", "android": "https://dc.lft.to/lastmile_qr_scan"}, "lon": -77.02406016666667, "type": "electric_scooter"}, {"bike_id": "bf5f97695f253ff2b6c87e0558cd9224", "is_reserved": 0, "fusion_lon": 0.0, "lat": 38.914845, "is_disabled": 0, "name": "bf5f97695f253ff2b6c87e0558cd9224", "fusion_lat": 0.0, "rental_uris": {"ios": "https://dc.lft.to/lastmile_qr_scan", "android": "https://dc.lft.to/lastmile_qr_scan"}, "lon": -77.0409485, "type": "electric_scooter"}, {"bike_id": "f1f4859376b580d18d079f73722283cf", "is_reserved": 0, "fusion_lon": 0.0, "lat": 38.916544333333334, "is_disabled": 0, "name": "f1f4859376b580d18d079f73722283cf", "fusion_lat": 0.0, "rental_uris": {"ios": "https://dc.lft.to/lastmile_qr_scan", "android": "https://dc.lft.to/lastmile_qr_scan"}, "lon": -77.02278316666667, "type": "electric_scooter"}, {"bike_id": "078b23da68654458cebec98555c1b6ec", "is_reserved": 0, "fusion_lon": 0.0, "lat": 38.921187, "is_disabled": 0, "name": "078b23da68654458cebec98555c1b6ec", "fusion_lat": 0.0, "rental_uris": {"ios": "https://dc.lft.to/lastmile_qr_scan", "android": "https://dc.lft.to/lastmile_qr_scan"}, "lon": -77.036504, "type": "electric_scooter"}, {"bike_id": "eb532450ef48afa9e43e4f0ed6497912", "is_reserved": 0, "fusion_lon": 0.0, "lat": 38.942122833333336, "is_disabled": 0, "name": "eb532450ef48afa9e43e4f0ed6497912", "fusion_lat": 0.0, "rental_uris": {"ios": "https://dc.lft.to/lastmile_qr_scan", "android": "https://dc.lft.to/lastmile_qr_scan"}, "lon": -77.03583883333333, "type": "electric_scooter"}, {"bike_id": "eee6f01d31d2b0f131b5544fc2fead09", "is_reserved": 0, "fusion_lon": 0.0, "lat": 38.89087683333333, "is_disabled": 0, "name": "eee6f01d31d2b0f131b5544fc2fead09", "fusion_lat": 0.0, "rental_uris": {"ios": "https://dc.lft.to/lastmile_qr_scan", "android": "https://dc.lft.to/lastmile_qr_scan"}, "lon": -76.98750733333333, "type": "electric_scooter"}, {"bike_id": "635cdb49821b92d1a8406f377b5e9fb5", "is_reserved": 0, "fusion_lon": 0.0, "lat": 38.901863166666665, "is_disabled": 0, "name": "635cdb49821b92d1a8406f377b5e9fb5", "fusion_lat": 0.0, "rental_uris": {"ios": "https://dc.lft.to/lastmile_qr_scan", "android": "https://dc.lft.to/lastmile_qr_scan"}, "lon": -76.929961, "type": "electric_scooter"}, {"bike_id": "573418680644273d65854cc8edbd6187", "is_reserved": 0, "fusion_lon": 0.0, "lat": 38.90721766666667, "is_disabled": 0, "name": "573418680644273d65854cc8edbd6187", "fusion_lat": 0.0, "rental_uris": {"ios": "https://dc.lft.to/lastmile_qr_scan", "android": "https://dc.lft.to/lastmile_qr_scan"}, "lon": -77.02967933333333, "type": "electric_scooter"}, {"bike_id": "2346ef377e598f7864654bda15f79b0f", "is_reserved": 0, "fusion_lon": 0.0, "lat": 38.91329016666667, "is_disabled": 0, "name": "2346ef377e598f7864654bda15f79b0f", "fusion_lat": 0.0, "rental_uris": {"ios": "https://dc.lft.to/lastmile_qr_scan", "android": "https://dc.lft.to/lastmile_qr_scan"}, "lon": -77.04845566666667, "type": "electric_scooter"}, {"bike_id": "0c5756afcb170f4506b9f9e0be4d4b42", "is_reserved": 0, "fusion_lon": 0.0, "lat": 38.88404, "is_disabled": 0, "name": "0c5756afcb170f4506b9f9e0be4d4b42", "fusion_lat": 0.0, "rental_uris": {"ios": "https://dc.lft.to/lastmile_qr_scan", "android": "https://dc.lft.to/lastmile_qr_scan"}, "lon": -77.02623516666667, "type": "electric_scooter"}, {"bike_id": "2d9068ca17631ca73781459805ce6b8f", "is_reserved": 0, "fusion_lon": 0.0, "lat": 38.87662233333333, "is_disabled": 0, "name": "2d9068ca17631ca73781459805ce6b8f", "fusion_lat": 0.0, "rental_uris": {"ios": "https://dc.lft.to/lastmile_qr_scan", "android": "https://dc.lft.to/lastmile_qr_scan"}, "lon": -77.00432716666667, "type": "electric_scooter"}, {"bike_id": "ac069d80ffeec520950fd4d5549303ba", "is_reserved": 0, "fusion_lon": 0.0, "lat": 38.937813, "is_disabled": 0, "name": "ac069d80ffeec520950fd4d5549303ba", "fusion_lat": 0.0, "rental_uris": {"ios": "https://dc.lft.to/lastmile_qr_scan", "android": "https://dc.lft.to/lastmile_qr_scan"}, "lon": -77.01909083333334, "type": "electric_bike"}, {"bike_id": "c390cfa6e3f9ceebb55e0d43e77a4844", "is_reserved": 0, "fusion_lon": 0.0, "lat": 38.917093, "is_disabled": 0, "name": "c390cfa6e3f9ceebb55e0d43e77a4844", "fusion_lat": 0.0, "rental_uris": {"ios": "https://dc.lft.to/lastmile_qr_scan", "android": "https://dc.lft.to/lastmile_qr_scan"}, "lon": -77.02546383333333, "type": "electric_scooter"}, {"bike_id": "3cea1fe1d4b2f171cefa07306ea0c661", "is_reserved": 0, "fusion_lon": 0.0, "lat": 38.93083816666667, "is_disabled": 0, "name": "3cea1fe1d4b2f171cefa07306ea0c661", "fusion_lat": 0.0, "rental_uris": {"ios": "https://dc.lft.to/lastmile_qr_scan", "android": "https://dc.lft.to/lastmile_qr_scan"}, "lon": -77.02795566666667, "type": "electric_scooter"}, {"bike_id": "c0012d309dfbb713fdded1042bdd7459", "is_reserved": 0, "fusion_lon": 0.0, "lat": 38.92407133333333, "is_disabled": 0, "name": "c0012d309dfbb713fdded1042bdd7459", "fusion_lat": 0.0, "rental_uris": {"ios": "https://dc.lft.to/lastmile_qr_scan", "android": "https://dc.lft.to/lastmile_qr_scan"}, "lon": -77.0195245, "type": "electric_scooter"}, {"bike_id": "0a1b653ed8dca2269708c72f7c8a8f82", "is_reserved": 0, "fusion_lon": 0.0, "lat": 38.930023, "is_disabled": 0, "name": "0a1b653ed8dca2269708c72f7c8a8f82", "fusion_lat": 0.0, "rental_uris": {"ios": "https://dc.lft.to/lastmile_qr_scan", "android": "https://dc.lft.to/lastmile_qr_scan"}, "lon": -77.05538016666667, "type": "electric_scooter"}, {"bike_id": "9ffa51c0ef2def043bd7ab8f061f3905", "is_reserved": 0, "fusion_lon": 0.0, "lat": 38.88744633333334, "is_disabled": 0, "name": "9ffa51c0ef2def043bd7ab8f061f3905", "fusion_lat": 0.0, "rental_uris": {"ios": "https://dc.lft.to/lastmile_qr_scan", "android": "https://dc.lft.to/lastmile_qr_scan"}, "lon": -77.03121033333333, "type": "electric_scooter"}, {"bike_id": "2de2106d0bdbb7d14f11591eb589479c", "is_reserved": 0, "fusion_lon": 0.0, "lat": 38.9564215, "is_disabled": 0, "name": "2de2106d0bdbb7d14f11591eb589479c", "fusion_lat": 0.0, "rental_uris": {"ios": "https://dc.lft.to/lastmile_qr_scan", "android": "https://dc.lft.to/lastmile_qr_scan"}, "lon": -76.997961, "type": "electric_scooter"}, {"bike_id": "836f4d7bfab1ecb0e5299543855cf40b", "is_reserved": 0, "fusion_lon": 0.0, "lat": 38.88496116666666, "is_disabled": 0, "name": "836f4d7bfab1ecb0e5299543855cf40b", "fusion_lat": 0.0, "rental_uris": {"ios": "https://dc.lft.to/lastmile_qr_scan", "android": "https://dc.lft.to/lastmile_qr_scan"}, "lon": -77.007278, "type": "electric_scooter"}, {"bike_id": "e323143513a302ffb34c97576765174d", "is_reserved": 0, "fusion_lon": 0.0, "lat": 38.893608, "is_disabled": 0, "name": "e323143513a302ffb34c97576765174d", "fusion_lat": 0.0, "rental_uris": {"ios": "https://dc.lft.to/lastmile_qr_scan", "android": "https://dc.lft.to/lastmile_qr_scan"}, "lon": -77.02828383333333, "type": "electric_scooter"}, {"bike_id": "f655e0ce683a0e4cef1963c6cbbd71d7", "is_reserved": 0, "fusion_lon": 0.0, "lat": 38.90972383333333, "is_disabled": 0, "name": "f655e0ce683a0e4cef1963c6cbbd71d7", "fusion_lat": 0.0, "rental_uris": {"ios": "https://dc.lft.to/lastmile_qr_scan", "android": "https://dc.lft.to/lastmile_qr_scan"}, "lon": -77.03863266666667, "type": "electric_scooter"}, {"bike_id": "5ca2d9f944f14586fa3fd2de15fd66b5", "is_reserved": 0, "fusion_lon": 0.0, "lat": 38.88752266666667, "is_disabled": 0, "name": "5ca2d9f944f14586fa3fd2de15fd66b5", "fusion_lat": 0.0, "rental_uris": {"ios": "https://dc.lft.to/lastmile_qr_scan", "android": "https://dc.lft.to/lastmile_qr_scan"}, "lon": -77.02021366666666, "type": "electric_scooter"}, {"bike_id": "810b4337c2cfe35d6fe3e18018009a91", "is_reserved": 0, "fusion_lon": 0.0, "lat": 38.88336733333333, "is_disabled": 0, "name": "810b4337c2cfe35d6fe3e18018009a91", "fusion_lat": 0.0, "rental_uris": {"ios": "https://dc.lft.to/lastmile_qr_scan", "android": "https://dc.lft.to/lastmile_qr_scan"}, "lon": -76.99349916666667, "type": "electric_scooter"}, {"bike_id": "e6ac7d2885c3c217b7986bac45c8679b", "is_reserved": 0, "fusion_lon": 0.0, "lat": 38.900877333333334, "is_disabled": 0, "name": "e6ac7d2885c3c217b7986bac45c8679b", "fusion_lat": 0.0, "rental_uris": {"ios": "https://dc.lft.to/lastmile_qr_scan", "android": "https://dc.lft.to/lastmile_qr_scan"}, "lon": -77.04815366666666, "type": "electric_scooter"}, {"bike_id": "8b9d42a71717dc8b9c9fa0cbcb85e6a8", "is_reserved": 0, "fusion_lon": 0.0, "lat": 38.9170535, "is_disabled": 0, "name": "8b9d42a71717dc8b9c9fa0cbcb85e6a8", "fusion_lat": 0.0, "rental_uris": {"ios": "https://dc.lft.to/lastmile_qr_scan", "android": "https://dc.lft.to/lastmile_qr_scan"}, "lon": -77.02900716666667, "type": "electric_scooter"}, {"bike_id": "e9cade1e1684add17c6b16d69d1941b8", "is_reserved": 0, "fusion_lon": 0.0, "lat": 38.90517366666667, "is_disabled": 0, "name": "e9cade1e1684add17c6b16d69d1941b8", "fusion_lat": 0.0, "rental_uris": {"ios": "https://dc.lft.to/lastmile_qr_scan", "android": "https://dc.lft.to/lastmile_qr_scan"}, "lon": -77.06795583333333, "type": "electric_bike"}, {"bike_id": "be855eec7de0ea876e5cb9ad00d72691", "is_reserved": 0, "fusion_lon": 0.0, "lat": 38.95649933333333, "is_disabled": 0, "name": "be855eec7de0ea876e5cb9ad00d72691", "fusion_lat": 0.0, "rental_uris": {"ios": "https://dc.lft.to/lastmile_qr_scan", "android": "https://dc.lft.to/lastmile_qr_scan"}, "lon": -77.03276366666667, "type": "electric_scooter"}, {"bike_id": "7bb6e3e44549278e3a11f9be266925dd", "is_reserved": 0, "fusion_lon": 0.0, "lat": 38.8278405, "is_disabled": 0, "name": "7bb6e3e44549278e3a11f9be266925dd", "fusion_lat": 0.0, "rental_uris": {"ios": "https://dc.lft.to/lastmile_qr_scan", "android": "https://dc.lft.to/lastmile_qr_scan"}, "lon": -77.00921633333333, "type": "electric_bike"}, {"bike_id": "75d391b6bfe1c61709a3f765cedbd4a6", "is_reserved": 0, "fusion_lon": 0.0, "lat": 39.003696833333336, "is_disabled": 0, "name": "75d391b6bfe1c61709a3f765cedbd4a6", "fusion_lat": 0.0, "rental_uris": {"ios": "https://dc.lft.to/lastmile_qr_scan", "android": "https://dc.lft.to/lastmile_qr_scan"}, "lon": -77.01298116666666, "type": "electric_bike"}, {"bike_id": "1fc9993dec7306a3d2ff453b113b4ab9", "is_reserved": 0, "fusion_lon": 0.0, "lat": 38.88493833333333, "is_disabled": 0, "name": "1fc9993dec7306a3d2ff453b113b4ab9", "fusion_lat": 0.0, "rental_uris": {"ios": "https://dc.lft.to/lastmile_qr_scan", "android": "https://dc.lft.to/lastmile_qr_scan"}, "lon": -77.0072175, "type": "electric_scooter"}, {"bike_id": "69f425f575d1727ba45d4cb7126e658c", "is_reserved": 0, "fusion_lon": 0.0, "lat": 38.86354633333333, "is_disabled": 0, "name": "69f425f575d1727ba45d4cb7126e658c", "fusion_lat": 0.0, "rental_uris": {"ios": "https://dc.lft.to/lastmile_qr_scan", "android": "https://dc.lft.to/lastmile_qr_scan"}, "lon": -76.99070266666666, "type": "electric_scooter"}, {"bike_id": "354c5fa8c99e2134e0a2cc9ca08ba977", "is_reserved": 0, "fusion_lon": 0.0, "lat": 38.92476383333333, "is_disabled": 0, "name": "354c5fa8c99e2134e0a2cc9ca08ba977", "fusion_lat": 0.0, "rental_uris": {"ios": "https://dc.lft.to/lastmile_qr_scan", "android": "https://dc.lft.to/lastmile_qr_scan"}, "lon": -77.03540266666667, "type": "electric_scooter"}, {"bike_id": "a4009f07b93e0819872b79a1acb34f78", "is_reserved": 0, "fusion_lon": 0.0, "lat": 38.90452066666667, "is_disabled": 0, "name": "a4009f07b93e0819872b79a1acb34f78", "fusion_lat": 0.0, "rental_uris": {"ios": "https://dc.lft.to/lastmile_qr_scan", "android": "https://dc.lft.to/lastmile_qr_scan"}, "lon": -77.048927, "type": "electric_scooter"}, {"bike_id": "87bedf84da2a9db3bdd8917d6a57cbc3", "is_reserved": 0, "fusion_lon": 0.0, "lat": 38.884401833333335, "is_disabled": 0, "name": "87bedf84da2a9db3bdd8917d6a57cbc3", "fusion_lat": 0.0, "rental_uris": {"ios": "https://dc.lft.to/lastmile_qr_scan", "android": "https://dc.lft.to/lastmile_qr_scan"}, "lon": -76.9574775, "type": "electric_scooter"}, {"bike_id": "677463b01198785aff710f807a2ed2a1", "is_reserved": 0, "fusion_lon": 0.0, "lat": 38.9282535, "is_disabled": 0, "name": "677463b01198785aff710f807a2ed2a1", "fusion_lat": 0.0, "rental_uris": {"ios": "https://dc.lft.to/lastmile_qr_scan", "android": "https://dc.lft.to/lastmile_qr_scan"}, "lon": -77.02297183333333, "type": "electric_scooter"}, {"bike_id": "ea477862293d20c1781fe639b563f7e3", "is_reserved": 0, "fusion_lon": 0.0, "lat": 38.91112066666667, "is_disabled": 0, "name": "ea477862293d20c1781fe639b563f7e3", "fusion_lat": 0.0, "rental_uris": {"ios": "https://dc.lft.to/lastmile_qr_scan", "android": "https://dc.lft.to/lastmile_qr_scan"}, "lon": -77.03597, "type": "electric_scooter"}, {"bike_id": "0012f0597c9a8962bf4f35fb9cf582c6", "is_reserved": 0, "fusion_lon": 0.0, "lat": 38.954775, "is_disabled": 0, "name": "0012f0597c9a8962bf4f35fb9cf582c6", "fusion_lat": 0.0, "rental_uris": {"ios": "https://dc.lft.to/lastmile_qr_scan", "android": "https://dc.lft.to/lastmile_qr_scan"}, "lon": -77.08243783333333, "type": "electric_bike"}, {"bike_id": "7f953e9dacd8e1d60c13d0ada9e1c52f", "is_reserved": 0, "fusion_lon": 0.0, "lat": 38.92594233333333, "is_disabled": 0, "name": "7f953e9dacd8e1d60c13d0ada9e1c52f", "fusion_lat": 0.0, "rental_uris": {"ios": "https://dc.lft.to/lastmile_qr_scan", "android": "https://dc.lft.to/lastmile_qr_scan"}, "lon": -77.00488733333333, "type": "electric_scooter"}, {"bike_id": "0905878b6bdb0e12fa6286b872ad577c", "is_reserved": 0, "fusion_lon": 0.0, "lat": 38.916777833333335, "is_disabled": 0, "name": "0905878b6bdb0e12fa6286b872ad577c", "fusion_lat": 0.0, "rental_uris": {"ios": "https://dc.lft.to/lastmile_qr_scan", "android": "https://dc.lft.to/lastmile_qr_scan"}, "lon": -77.02717216666667, "type": "electric_scooter"}, {"bike_id": "fcf5a05802d7bdde7b5508655da5cbf8", "is_reserved": 0, "fusion_lon": 0.0, "lat": 38.9132985, "is_disabled": 0, "name": "fcf5a05802d7bdde7b5508655da5cbf8", "fusion_lat": 0.0, "rental_uris": {"ios": "https://dc.lft.to/lastmile_qr_scan", "android": "https://dc.lft.to/lastmile_qr_scan"}, "lon": -77.00224616666667, "type": "electric_scooter"}, {"bike_id": "7de7fe97c4c78b44b9bd82a1da8d2d83", "is_reserved": 0, "fusion_lon": 0.0, "lat": 38.9206255, "is_disabled": 0, "name": "7de7fe97c4c78b44b9bd82a1da8d2d83", "fusion_lat": 0.0, "rental_uris": {"ios": "https://dc.lft.to/lastmile_qr_scan", "android": "https://dc.lft.to/lastmile_qr_scan"}, "lon": -77.04256866666667, "type": "electric_scooter"}, {"bike_id": "3e6cb27f458ec8ab6d7cf13c48d7489a", "is_reserved": 0, "fusion_lon": 0.0, "lat": 38.920647833333334, "is_disabled": 0, "name": "3e6cb27f458ec8ab6d7cf13c48d7489a", "fusion_lat": 0.0, "rental_uris": {"ios": "https://dc.lft.to/lastmile_qr_scan", "android": "https://dc.lft.to/lastmile_qr_scan"}, "lon": -77.04249816666666, "type": "electric_scooter"}, {"bike_id": "0855c52a07a425df92af2351aad3bf80", "is_reserved": 0, "fusion_lon": 0.0, "lat": 38.9208995, "is_disabled": 0, "name": "0855c52a07a425df92af2351aad3bf80", "fusion_lat": 0.0, "rental_uris": {"ios": "https://dc.lft.to/lastmile_qr_scan", "android": "https://dc.lft.to/lastmile_qr_scan"}, "lon": -77.02592633333333, "type": "electric_scooter"}, {"bike_id": "df8d996a8620e6a702c159938c816c00", "is_reserved": 0, "fusion_lon": 0.0, "lat": 38.897623333333335, "is_disabled": 0, "name": "df8d996a8620e6a702c159938c816c00", "fusion_lat": 0.0, "rental_uris": {"ios": "https://dc.lft.to/lastmile_qr_scan", "android": "https://dc.lft.to/lastmile_qr_scan"}, "lon": -76.9418315, "type": "electric_scooter"}, {"bike_id": "f478089a3ed7c86c400d51ba1846a29e", "is_reserved": 0, "fusion_lon": 0.0, "lat": 38.94123666666667, "is_disabled": 0, "name": "f478089a3ed7c86c400d51ba1846a29e", "fusion_lat": 0.0, "rental_uris": {"ios": "https://dc.lft.to/lastmile_qr_scan", "android": "https://dc.lft.to/lastmile_qr_scan"}, "lon": -77.01544366666667, "type": "electric_scooter"}, {"bike_id": "fb30b80660e62df6dae6298163829f5e", "is_reserved": 0, "fusion_lon": 0.0, "lat": 38.919795, "is_disabled": 0, "name": "fb30b80660e62df6dae6298163829f5e", "fusion_lat": 0.0, "rental_uris": {"ios": "https://dc.lft.to/lastmile_qr_scan", "android": "https://dc.lft.to/lastmile_qr_scan"}, "lon": -77.0238515, "type": "electric_scooter"}, {"bike_id": "5002b8725cdddf5116944e3fe1a8e020", "is_reserved": 0, "fusion_lon": 0.0, "lat": 38.926138, "is_disabled": 0, "name": "5002b8725cdddf5116944e3fe1a8e020", "fusion_lat": 0.0, "rental_uris": {"ios": "https://dc.lft.to/lastmile_qr_scan", "android": "https://dc.lft.to/lastmile_qr_scan"}, "lon": -77.0367025, "type": "electric_bike"}, {"bike_id": "9339c8b2a1d2c621cfe5c3f8a820dba2", "is_reserved": 0, "fusion_lon": 0.0, "lat": 38.924882, "is_disabled": 0, "name": "9339c8b2a1d2c621cfe5c3f8a820dba2", "fusion_lat": 0.0, "rental_uris": {"ios": "https://dc.lft.to/lastmile_qr_scan", "android": "https://dc.lft.to/lastmile_qr_scan"}, "lon": -77.02711866666667, "type": "electric_scooter"}, {"bike_id": "2b4bb1fc50063c819bb649a9252aeb9e", "is_reserved": 0, "fusion_lon": 0.0, "lat": 38.91871666666667, "is_disabled": 0, "name": "2b4bb1fc50063c819bb649a9252aeb9e", "fusion_lat": 0.0, "rental_uris": {"ios": "https://dc.lft.to/lastmile_qr_scan", "android": "https://dc.lft.to/lastmile_qr_scan"}, "lon": -77.04463066666666, "type": "electric_scooter"}, {"bike_id": "456fc04970a11504727547c7eda871ae", "is_reserved": 0, "fusion_lon": 0.0, "lat": 38.89819166666667, "is_disabled": 0, "name": "456fc04970a11504727547c7eda871ae", "fusion_lat": 0.0, "rental_uris": {"ios": "https://dc.lft.to/lastmile_qr_scan", "android": "https://dc.lft.to/lastmile_qr_scan"}, "lon": -77.03279133333334, "type": "electric_scooter"}, {"bike_id": "00584615521cfa8748c4b1cf413a1561", "is_reserved": 0, "fusion_lon": 0.0, "lat": 38.871350166666666, "is_disabled": 0, "name": "00584615521cfa8748c4b1cf413a1561", "fusion_lat": 0.0, "rental_uris": {"ios": "https://dc.lft.to/lastmile_qr_scan", "android": "https://dc.lft.to/lastmile_qr_scan"}, "lon": -76.93729816666666, "type": "electric_bike"}, {"bike_id": "1b84bd0b79eeb31cc26ff8957eff122e", "is_reserved": 0, "fusion_lon": 0.0, "lat": 38.923669, "is_disabled": 0, "name": "1b84bd0b79eeb31cc26ff8957eff122e", "fusion_lat": 0.0, "rental_uris": {"ios": "https://dc.lft.to/lastmile_qr_scan", "android": "https://dc.lft.to/lastmile_qr_scan"}, "lon": -77.01951766666667, "type": "electric_scooter"}, {"bike_id": "56f15ed5038e5fadb94f13901ce1a1b4", "is_reserved": 0, "fusion_lon": 0.0, "lat": 38.9012225, "is_disabled": 0, "name": "56f15ed5038e5fadb94f13901ce1a1b4", "fusion_lat": 0.0, "rental_uris": {"ios": "https://dc.lft.to/lastmile_qr_scan", "android": "https://dc.lft.to/lastmile_qr_scan"}, "lon": -77.04356433333334, "type": "electric_scooter"}, {"bike_id": "d21a9ede2f69349ace27d936622e2126", "is_reserved": 0, "fusion_lon": 0.0, "lat": 38.92989433333334, "is_disabled": 0, "name": "d21a9ede2f69349ace27d936622e2126", "fusion_lat": 0.0, "rental_uris": {"ios": "https://dc.lft.to/lastmile_qr_scan", "android": "https://dc.lft.to/lastmile_qr_scan"}, "lon": -77.079391, "type": "electric_scooter"}, {"bike_id": "1d4e5c1d75157229ed35722d96f0b27f", "is_reserved": 0, "fusion_lon": 0.0, "lat": 38.930883666666666, "is_disabled": 0, "name": "1d4e5c1d75157229ed35722d96f0b27f", "fusion_lat": 0.0, "rental_uris": {"ios": "https://dc.lft.to/lastmile_qr_scan", "android": "https://dc.lft.to/lastmile_qr_scan"}, "lon": -77.03615866666667, "type": "electric_scooter"}, {"bike_id": "5d1608ddee74441e3ef7c47279c7ec42", "is_reserved": 0, "fusion_lon": 0.0, "lat": 38.9396675, "is_disabled": 0, "name": "5d1608ddee74441e3ef7c47279c7ec42", "fusion_lat": 0.0, "rental_uris": {"ios": "https://dc.lft.to/lastmile_qr_scan", "android": "https://dc.lft.to/lastmile_qr_scan"}, "lon": -77.05318266666667, "type": "electric_scooter"}, {"bike_id": "c0670e8466ab299d14a4cde82a83c8a1", "is_reserved": 0, "fusion_lon": 0.0, "lat": 38.885034833333336, "is_disabled": 0, "name": "c0670e8466ab299d14a4cde82a83c8a1", "fusion_lat": 0.0, "rental_uris": {"ios": "https://dc.lft.to/lastmile_qr_scan", "android": "https://dc.lft.to/lastmile_qr_scan"}, "lon": -77.00564116666666, "type": "electric_scooter"}, {"bike_id": "a1612d3e4ebd9ed47ae89d333f560a03", "is_reserved": 0, "fusion_lon": 0.0, "lat": 38.91138483333334, "is_disabled": 0, "name": "a1612d3e4ebd9ed47ae89d333f560a03", "fusion_lat": 0.0, "rental_uris": {"ios": "https://dc.lft.to/lastmile_qr_scan", "android": "https://dc.lft.to/lastmile_qr_scan"}, "lon": -77.00315433333333, "type": "electric_bike"}, {"bike_id": "27d044e64a7db030074146b2ef185410", "is_reserved": 0, "fusion_lon": 0.0, "lat": 38.93700366666667, "is_disabled": 0, "name": "27d044e64a7db030074146b2ef185410", "fusion_lat": 0.0, "rental_uris": {"ios": "https://dc.lft.to/lastmile_qr_scan", "android": "https://dc.lft.to/lastmile_qr_scan"}, "lon": -77.03260833333333, "type": "electric_scooter"}, {"bike_id": "3abb026528793935339db90813d4f961", "is_reserved": 0, "fusion_lon": 0.0, "lat": 38.91043666666667, "is_disabled": 0, "name": "3abb026528793935339db90813d4f961", "fusion_lat": 0.0, "rental_uris": {"ios": "https://dc.lft.to/lastmile_qr_scan", "android": "https://dc.lft.to/lastmile_qr_scan"}, "lon": -77.02816716666666, "type": "electric_scooter"}, {"bike_id": "22b4cefe16ee3a18562ef5dec0f0fde1", "is_reserved": 0, "fusion_lon": 0.0, "lat": 38.935767166666665, "is_disabled": 0, "name": "22b4cefe16ee3a18562ef5dec0f0fde1", "fusion_lat": 0.0, "rental_uris": {"ios": "https://dc.lft.to/lastmile_qr_scan", "android": "https://dc.lft.to/lastmile_qr_scan"}, "lon": -77.0328455, "type": "electric_scooter"}, {"bike_id": "f6f446a12b668c1ac57f4e16f1f2a12d", "is_reserved": 0, "fusion_lon": 0.0, "lat": 38.90973066666667, "is_disabled": 0, "name": "f6f446a12b668c1ac57f4e16f1f2a12d", "fusion_lat": 0.0, "rental_uris": {"ios": "https://dc.lft.to/lastmile_qr_scan", "android": "https://dc.lft.to/lastmile_qr_scan"}, "lon": -77.03867583333333, "type": "electric_scooter"}, {"bike_id": "a9c5d5d180b3959fdf6159de8e71f9a2", "is_reserved": 0, "fusion_lon": 0.0, "lat": 38.906068, "is_disabled": 0, "name": "a9c5d5d180b3959fdf6159de8e71f9a2", "fusion_lat": 0.0, "rental_uris": {"ios": "https://dc.lft.to/lastmile_qr_scan", "android": "https://dc.lft.to/lastmile_qr_scan"}, "lon": -77.05132016666667, "type": "electric_scooter"}, {"bike_id": "f496c048cf555f27bfaa5915d4eda75e", "is_reserved": 0, "fusion_lon": 0.0, "lat": 38.92139783333333, "is_disabled": 0, "name": "f496c048cf555f27bfaa5915d4eda75e", "fusion_lat": 0.0, "rental_uris": {"ios": "https://dc.lft.to/lastmile_qr_scan", "android": "https://dc.lft.to/lastmile_qr_scan"}, "lon": -77.03186383333333, "type": "electric_scooter"}, {"bike_id": "af6e1103251fcef468ec10784cea284c", "is_reserved": 0, "fusion_lon": 0.0, "lat": 38.923764, "is_disabled": 0, "name": "af6e1103251fcef468ec10784cea284c", "fusion_lat": 0.0, "rental_uris": {"ios": "https://dc.lft.to/lastmile_qr_scan", "android": "https://dc.lft.to/lastmile_qr_scan"}, "lon": -77.05178566666666, "type": "electric_scooter"}, {"bike_id": "3d02a71e6448b4c10886c6b9860e9802", "is_reserved": 0, "fusion_lon": 0.0, "lat": 38.900420833333335, "is_disabled": 0, "name": "3d02a71e6448b4c10886c6b9860e9802", "fusion_lat": 0.0, "rental_uris": {"ios": "https://dc.lft.to/lastmile_qr_scan", "android": "https://dc.lft.to/lastmile_qr_scan"}, "lon": -77.002179, "type": "electric_scooter"}, {"bike_id": "b8b171889bd1b3877c28d85e1cdb349d", "is_reserved": 0, "fusion_lon": 0.0, "lat": 38.921318, "is_disabled": 0, "name": "b8b171889bd1b3877c28d85e1cdb349d", "fusion_lat": 0.0, "rental_uris": {"ios": "https://dc.lft.to/lastmile_qr_scan", "android": "https://dc.lft.to/lastmile_qr_scan"}, "lon": -77.041241, "type": "electric_scooter"}, {"bike_id": "9c77646d6e8d613d30b6a69b9d8fbc84", "is_reserved": 0, "fusion_lon": 0.0, "lat": 38.873346833333336, "is_disabled": 0, "name": "9c77646d6e8d613d30b6a69b9d8fbc84", "fusion_lat": 0.0, "rental_uris": {"ios": "https://dc.lft.to/lastmile_qr_scan", "android": "https://dc.lft.to/lastmile_qr_scan"}, "lon": -76.9678185, "type": "electric_scooter"}, {"bike_id": "c9ef2b2cac89e2eccf696db94560314e", "is_reserved": 0, "fusion_lon": 0.0, "lat": 38.8793025, "is_disabled": 0, "name": "c9ef2b2cac89e2eccf696db94560314e", "fusion_lat": 0.0, "rental_uris": {"ios": "https://dc.lft.to/lastmile_qr_scan", "android": "https://dc.lft.to/lastmile_qr_scan"}, "lon": -77.01340183333333, "type": "electric_scooter"}, {"bike_id": "545e63862e5251849b5522dc1e5782c5", "is_reserved": 0, "fusion_lon": 0.0, "lat": 38.898437666666666, "is_disabled": 0, "name": "545e63862e5251849b5522dc1e5782c5", "fusion_lat": 0.0, "rental_uris": {"ios": "https://dc.lft.to/lastmile_qr_scan", "android": "https://dc.lft.to/lastmile_qr_scan"}, "lon": -76.94477133333334, "type": "electric_scooter"}, {"bike_id": "fbd9143b842a11c26d4372d89efe5429", "is_reserved": 0, "fusion_lon": 0.0, "lat": 39.09458133333333, "is_disabled": 0, "name": "fbd9143b842a11c26d4372d89efe5429", "fusion_lat": 0.0, "rental_uris": {"ios": "https://dc.lft.to/lastmile_qr_scan", "android": "https://dc.lft.to/lastmile_qr_scan"}, "lon": -77.14992716666667, "type": "electric_bike"}, {"bike_id": "e2eb257340b51ef13f1ba8380b41fc5a", "is_reserved": 0, "fusion_lon": 0.0, "lat": 38.885297333333334, "is_disabled": 0, "name": "e2eb257340b51ef13f1ba8380b41fc5a", "fusion_lat": 0.0, "rental_uris": {"ios": "https://dc.lft.to/lastmile_qr_scan", "android": "https://dc.lft.to/lastmile_qr_scan"}, "lon": -76.980562, "type": "electric_scooter"}, {"bike_id": "738736daf8a9a3fe87ed3919004084a8", "is_reserved": 0, "fusion_lon": 0.0, "lat": 38.9055015, "is_disabled": 0, "name": "738736daf8a9a3fe87ed3919004084a8", "fusion_lat": 0.0, "rental_uris": {"ios": "https://dc.lft.to/lastmile_qr_scan", "android": "https://dc.lft.to/lastmile_qr_scan"}, "lon": -77.0269275, "type": "electric_scooter"}, {"bike_id": "214fdf599d2e7137c3f8d03174837ed1", "is_reserved": 0, "fusion_lon": 0.0, "lat": 38.827850833333336, "is_disabled": 0, "name": "214fdf599d2e7137c3f8d03174837ed1", "fusion_lat": 0.0, "rental_uris": {"ios": "https://dc.lft.to/lastmile_qr_scan", "android": "https://dc.lft.to/lastmile_qr_scan"}, "lon": -77.00906833333333, "type": "electric_bike"}, {"bike_id": "9c2acc03ec998beb86e63a12700bed22", "is_reserved": 0, "fusion_lon": 0.0, "lat": 38.840585, "is_disabled": 0, "name": "9c2acc03ec998beb86e63a12700bed22", "fusion_lat": 0.0, "rental_uris": {"ios": "https://dc.lft.to/lastmile_qr_scan", "android": "https://dc.lft.to/lastmile_qr_scan"}, "lon": -77.06403183333333, "type": "electric_bike"}, {"bike_id": "8a61a45465da1eb8525daeff8c5372d8", "is_reserved": 0, "fusion_lon": 0.0, "lat": 38.899972, "is_disabled": 0, "name": "8a61a45465da1eb8525daeff8c5372d8", "fusion_lat": 0.0, "rental_uris": {"ios": "https://dc.lft.to/lastmile_qr_scan", "android": "https://dc.lft.to/lastmile_qr_scan"}, "lon": -76.99774133333334, "type": "electric_scooter"}, {"bike_id": "053d65f002c231793b1d69a15ce92795", "is_reserved": 0, "fusion_lon": 0.0, "lat": 38.92150766666666, "is_disabled": 0, "name": "053d65f002c231793b1d69a15ce92795", "fusion_lat": 0.0, "rental_uris": {"ios": "https://dc.lft.to/lastmile_qr_scan", "android": "https://dc.lft.to/lastmile_qr_scan"}, "lon": -77.0352875, "type": "electric_scooter"}, {"bike_id": "cfa1a054d47ab7f8ab5394c700222387", "is_reserved": 0, "fusion_lon": 0.0, "lat": 38.9272185, "is_disabled": 0, "name": "cfa1a054d47ab7f8ab5394c700222387", "fusion_lat": 0.0, "rental_uris": {"ios": "https://dc.lft.to/lastmile_qr_scan", "android": "https://dc.lft.to/lastmile_qr_scan"}, "lon": -77.00568966666667, "type": "electric_scooter"}, {"bike_id": "00ae06780a20de489855af942308b301", "is_reserved": 0, "fusion_lon": 0.0, "lat": 38.922699, "is_disabled": 0, "name": "00ae06780a20de489855af942308b301", "fusion_lat": 0.0, "rental_uris": {"ios": "https://dc.lft.to/lastmile_qr_scan", "android": "https://dc.lft.to/lastmile_qr_scan"}, "lon": -77.01823666666667, "type": "electric_scooter"}, {"bike_id": "ffb38f5b152ee46021b44e06a79760d6", "is_reserved": 0, "fusion_lon": 0.0, "lat": 38.899535, "is_disabled": 0, "name": "ffb38f5b152ee46021b44e06a79760d6", "fusion_lat": 0.0, "rental_uris": {"ios": "https://dc.lft.to/lastmile_qr_scan", "android": "https://dc.lft.to/lastmile_qr_scan"}, "lon": -77.05271383333333, "type": "electric_scooter"}, {"bike_id": "ef01a66530fcd8de574af86c88619a13", "is_reserved": 0, "fusion_lon": 0.0, "lat": 38.901286, "is_disabled": 0, "name": "ef01a66530fcd8de574af86c88619a13", "fusion_lat": 0.0, "rental_uris": {"ios": "https://dc.lft.to/lastmile_qr_scan", "android": "https://dc.lft.to/lastmile_qr_scan"}, "lon": -76.99710333333333, "type": "electric_scooter"}, {"bike_id": "9b5a1b73532c50ccd0229c9e508c8486", "is_reserved": 0, "fusion_lon": 0.0, "lat": 38.92714383333333, "is_disabled": 0, "name": "9b5a1b73532c50ccd0229c9e508c8486", "fusion_lat": 0.0, "rental_uris": {"ios": "https://dc.lft.to/lastmile_qr_scan", "android": "https://dc.lft.to/lastmile_qr_scan"}, "lon": -77.040491, "type": "electric_scooter"}, {"bike_id": "2c8cbe9e4460ae937a5bd57ac7c30a72", "is_reserved": 0, "fusion_lon": 0.0, "lat": 38.90524333333333, "is_disabled": 0, "name": "2c8cbe9e4460ae937a5bd57ac7c30a72", "fusion_lat": 0.0, "rental_uris": {"ios": "https://dc.lft.to/lastmile_qr_scan", "android": "https://dc.lft.to/lastmile_qr_scan"}, "lon": -77.06529166666667, "type": "electric_scooter"}, {"bike_id": "9480d6cd65bc4f19970b3e87edba9f4a", "is_reserved": 0, "fusion_lon": 0.0, "lat": 38.90713983333333, "is_disabled": 0, "name": "9480d6cd65bc4f19970b3e87edba9f4a", "fusion_lat": 0.0, "rental_uris": {"ios": "https://dc.lft.to/lastmile_qr_scan", "android": "https://dc.lft.to/lastmile_qr_scan"}, "lon": -77.00575433333333, "type": "electric_scooter"}, {"bike_id": "8c44f8d6236d830f3a4be91403be93e0", "is_reserved": 0, "fusion_lon": 0.0, "lat": 38.903841, "is_disabled": 0, "name": "8c44f8d6236d830f3a4be91403be93e0", "fusion_lat": 0.0, "rental_uris": {"ios": "https://dc.lft.to/lastmile_qr_scan", "android": "https://dc.lft.to/lastmile_qr_scan"}, "lon": -77.0448625, "type": "electric_scooter"}, {"bike_id": "1e0f46c44c76d630f547b6714461fd0c", "is_reserved": 0, "fusion_lon": 0.0, "lat": 38.933645166666665, "is_disabled": 0, "name": "1e0f46c44c76d630f547b6714461fd0c", "fusion_lat": 0.0, "rental_uris": {"ios": "https://dc.lft.to/lastmile_qr_scan", "android": "https://dc.lft.to/lastmile_qr_scan"}, "lon": -77.05728416666666, "type": "electric_scooter"}, {"bike_id": "51ac8d7b28d2931ce391d572770786b0", "is_reserved": 0, "fusion_lon": 0.0, "lat": 38.864254, "is_disabled": 0, "name": "51ac8d7b28d2931ce391d572770786b0", "fusion_lat": 0.0, "rental_uris": {"ios": "https://dc.lft.to/lastmile_qr_scan", "android": "https://dc.lft.to/lastmile_qr_scan"}, "lon": -76.985752, "type": "electric_scooter"}, {"bike_id": "1eb309866bac43034732c6b7b2316728", "is_reserved": 0, "fusion_lon": 0.0, "lat": 38.9335325, "is_disabled": 0, "name": "1eb309866bac43034732c6b7b2316728", "fusion_lat": 0.0, "rental_uris": {"ios": "https://dc.lft.to/lastmile_qr_scan", "android": "https://dc.lft.to/lastmile_qr_scan"}, "lon": -77.0342755, "type": "electric_scooter"}, {"bike_id": "88d69e08a71fd79b5690cf06274dbfc4", "is_reserved": 0, "fusion_lon": 0.0, "lat": 38.91801383333333, "is_disabled": 0, "name": "88d69e08a71fd79b5690cf06274dbfc4", "fusion_lat": 0.0, "rental_uris": {"ios": "https://dc.lft.to/lastmile_qr_scan", "android": "https://dc.lft.to/lastmile_qr_scan"}, "lon": -77.03206533333334, "type": "electric_scooter"}, {"bike_id": "347c263b186c9321ea3d420bcfff8e85", "is_reserved": 0, "fusion_lon": 0.0, "lat": 38.90028233333334, "is_disabled": 0, "name": "347c263b186c9321ea3d420bcfff8e85", "fusion_lat": 0.0, "rental_uris": {"ios": "https://dc.lft.to/lastmile_qr_scan", "android": "https://dc.lft.to/lastmile_qr_scan"}, "lon": -77.03201066666666, "type": "electric_scooter"}, {"bike_id": "de78871cbc63fb390e459c1d8c8a7e65", "is_reserved": 0, "fusion_lon": 0.0, "lat": 38.88327133333333, "is_disabled": 0, "name": "de78871cbc63fb390e459c1d8c8a7e65", "fusion_lat": 0.0, "rental_uris": {"ios": "https://dc.lft.to/lastmile_qr_scan", "android": "https://dc.lft.to/lastmile_qr_scan"}, "lon": -77.0177975, "type": "electric_scooter"}, {"bike_id": "d7eb0367ecda2774b154b7e845d007f4", "is_reserved": 0, "fusion_lon": 0.0, "lat": 38.900800833333335, "is_disabled": 0, "name": "d7eb0367ecda2774b154b7e845d007f4", "fusion_lat": 0.0, "rental_uris": {"ios": "https://dc.lft.to/lastmile_qr_scan", "android": "https://dc.lft.to/lastmile_qr_scan"}, "lon": -77.02050883333334, "type": "electric_scooter"}, {"bike_id": "3234f6b1d43e163fd78de98006086a54", "is_reserved": 0, "fusion_lon": 0.0, "lat": 38.913956666666664, "is_disabled": 0, "name": "3234f6b1d43e163fd78de98006086a54", "fusion_lat": 0.0, "rental_uris": {"ios": "https://dc.lft.to/lastmile_qr_scan", "android": "https://dc.lft.to/lastmile_qr_scan"}, "lon": -77.04604866666666, "type": "electric_scooter"}, {"bike_id": "930f713b6a3de8226e56f33c178a5534", "is_reserved": 0, "fusion_lon": 0.0, "lat": 38.894532833333336, "is_disabled": 0, "name": "930f713b6a3de8226e56f33c178a5534", "fusion_lat": 0.0, "rental_uris": {"ios": "https://dc.lft.to/lastmile_qr_scan", "android": "https://dc.lft.to/lastmile_qr_scan"}, "lon": -76.97038916666666, "type": "electric_bike"}, {"bike_id": "c67a739eb2c2f4e0970ffb2e75b8ed41", "is_reserved": 0, "fusion_lon": 0.0, "lat": 38.90647216666667, "is_disabled": 0, "name": "c67a739eb2c2f4e0970ffb2e75b8ed41", "fusion_lat": 0.0, "rental_uris": {"ios": "https://dc.lft.to/lastmile_qr_scan", "android": "https://dc.lft.to/lastmile_qr_scan"}, "lon": -77.03445583333334, "type": "electric_scooter"}, {"bike_id": "626422a47cd5fd2afbf6ffa186fc8b50", "is_reserved": 0, "fusion_lon": 0.0, "lat": 38.893638, "is_disabled": 0, "name": "626422a47cd5fd2afbf6ffa186fc8b50", "fusion_lat": 0.0, "rental_uris": {"ios": "https://dc.lft.to/lastmile_qr_scan", "android": "https://dc.lft.to/lastmile_qr_scan"}, "lon": -77.02830316666666, "type": "electric_scooter"}, {"bike_id": "4aa145c919c069cd443cab7f2f88846c", "is_reserved": 0, "fusion_lon": 0.0, "lat": 38.9088385, "is_disabled": 0, "name": "4aa145c919c069cd443cab7f2f88846c", "fusion_lat": 0.0, "rental_uris": {"ios": "https://dc.lft.to/lastmile_qr_scan", "android": "https://dc.lft.to/lastmile_qr_scan"}, "lon": -77.04330433333334, "type": "electric_scooter"}, {"bike_id": "b2cf494085020a4e0baa7e6a5605c372", "is_reserved": 0, "fusion_lon": 0.0, "lat": 38.926001166666666, "is_disabled": 0, "name": "b2cf494085020a4e0baa7e6a5605c372", "fusion_lat": 0.0, "rental_uris": {"ios": "https://dc.lft.to/lastmile_qr_scan", "android": "https://dc.lft.to/lastmile_qr_scan"}, "lon": -77.02130183333334, "type": "electric_scooter"}, {"bike_id": "47060910caa5e7afc9c70a12a1764e6b", "is_reserved": 0, "fusion_lon": 0.0, "lat": 38.8226355, "is_disabled": 0, "name": "47060910caa5e7afc9c70a12a1764e6b", "fusion_lat": 0.0, "rental_uris": {"ios": "https://dc.lft.to/lastmile_qr_scan", "android": "https://dc.lft.to/lastmile_qr_scan"}, "lon": -77.00550633333333, "type": "electric_bike"}, {"bike_id": "3dad3fa2257c4cadd2b9fe05c5b26716", "is_reserved": 0, "fusion_lon": 0.0, "lat": 38.910434333333335, "is_disabled": 0, "name": "3dad3fa2257c4cadd2b9fe05c5b26716", "fusion_lat": 0.0, "rental_uris": {"ios": "https://dc.lft.to/lastmile_qr_scan", "android": "https://dc.lft.to/lastmile_qr_scan"}, "lon": -77.035832, "type": "electric_scooter"}, {"bike_id": "9f86f582526f0e760e18addf129ded49", "is_reserved": 0, "fusion_lon": 0.0, "lat": 38.909729166666665, "is_disabled": 0, "name": "9f86f582526f0e760e18addf129ded49", "fusion_lat": 0.0, "rental_uris": {"ios": "https://dc.lft.to/lastmile_qr_scan", "android": "https://dc.lft.to/lastmile_qr_scan"}, "lon": -77.02727516666667, "type": "electric_scooter"}, {"bike_id": "5e67c408c83cf6f488c388db97f6654f", "is_reserved": 0, "fusion_lon": 0.0, "lat": 38.914154333333336, "is_disabled": 0, "name": "5e67c408c83cf6f488c388db97f6654f", "fusion_lat": 0.0, "rental_uris": {"ios": "https://dc.lft.to/lastmile_qr_scan", "android": "https://dc.lft.to/lastmile_qr_scan"}, "lon": -77.03910483333334, "type": "electric_scooter"}, {"bike_id": "3573d02ec7312dd5674bbbb9c2d0f769", "is_reserved": 0, "fusion_lon": 0.0, "lat": 38.917761166666665, "is_disabled": 0, "name": "3573d02ec7312dd5674bbbb9c2d0f769", "fusion_lat": 0.0, "rental_uris": {"ios": "https://dc.lft.to/lastmile_qr_scan", "android": "https://dc.lft.to/lastmile_qr_scan"}, "lon": -77.02316916666666, "type": "electric_scooter"}, {"bike_id": "65914bdb2d4d624ff917fafbdb9759ac", "is_reserved": 0, "fusion_lon": 0.0, "lat": 38.9011675, "is_disabled": 0, "name": "65914bdb2d4d624ff917fafbdb9759ac", "fusion_lat": 0.0, "rental_uris": {"ios": "https://dc.lft.to/lastmile_qr_scan", "android": "https://dc.lft.to/lastmile_qr_scan"}, "lon": -77.04366766666666, "type": "electric_scooter"}, {"bike_id": "612848f5c4b14093a76a6154c85faca0", "is_reserved": 0, "fusion_lon": 0.0, "lat": 38.9244405, "is_disabled": 0, "name": "612848f5c4b14093a76a6154c85faca0", "fusion_lat": 0.0, "rental_uris": {"ios": "https://dc.lft.to/lastmile_qr_scan", "android": "https://dc.lft.to/lastmile_qr_scan"}, "lon": -76.99334683333333, "type": "electric_scooter"}, {"bike_id": "a6dcd779f36d9be34afed0ff75d9d450", "is_reserved": 0, "fusion_lon": 0.0, "lat": 38.914016, "is_disabled": 0, "name": "a6dcd779f36d9be34afed0ff75d9d450", "fusion_lat": 0.0, "rental_uris": {"ios": "https://dc.lft.to/lastmile_qr_scan", "android": "https://dc.lft.to/lastmile_qr_scan"}, "lon": -77.001553, "type": "electric_scooter"}, {"bike_id": "9017a416f40e012718b784c2b17f483f", "is_reserved": 0, "fusion_lon": 0.0, "lat": 38.91733283333333, "is_disabled": 0, "name": "9017a416f40e012718b784c2b17f483f", "fusion_lat": 0.0, "rental_uris": {"ios": "https://dc.lft.to/lastmile_qr_scan", "android": "https://dc.lft.to/lastmile_qr_scan"}, "lon": -77.01026083333333, "type": "electric_scooter"}, {"bike_id": "1090c1c644affe4f8f0dde5feaac52b8", "is_reserved": 0, "fusion_lon": 0.0, "lat": 38.9008985, "is_disabled": 0, "name": "1090c1c644affe4f8f0dde5feaac52b8", "fusion_lat": 0.0, "rental_uris": {"ios": "https://dc.lft.to/lastmile_qr_scan", "android": "https://dc.lft.to/lastmile_qr_scan"}, "lon": -77.02418883333333, "type": "electric_scooter"}, {"bike_id": "4d9933651d313a0bbe0155e625485e92", "is_reserved": 0, "fusion_lon": 0.0, "lat": 38.9207295, "is_disabled": 0, "name": "4d9933651d313a0bbe0155e625485e92", "fusion_lat": 0.0, "rental_uris": {"ios": "https://dc.lft.to/lastmile_qr_scan", "android": "https://dc.lft.to/lastmile_qr_scan"}, "lon": -77.024352, "type": "electric_scooter"}, {"bike_id": "c12f5029f29ba994b03945c19a82bcd3", "is_reserved": 0, "fusion_lon": 0.0, "lat": 38.915671833333334, "is_disabled": 0, "name": "c12f5029f29ba994b03945c19a82bcd3", "fusion_lat": 0.0, "rental_uris": {"ios": "https://dc.lft.to/lastmile_qr_scan", "android": "https://dc.lft.to/lastmile_qr_scan"}, "lon": -77.02289283333333, "type": "electric_scooter"}, {"bike_id": "238184cb37503ce4d13e674da29387f2", "is_reserved": 0, "fusion_lon": 0.0, "lat": 38.925792, "is_disabled": 0, "name": "238184cb37503ce4d13e674da29387f2", "fusion_lat": 0.0, "rental_uris": {"ios": "https://dc.lft.to/lastmile_qr_scan", "android": "https://dc.lft.to/lastmile_qr_scan"}, "lon": -77.02567883333333, "type": "electric_scooter"}, {"bike_id": "70e0c30452bb22edc1a42b415589766a", "is_reserved": 0, "fusion_lon": 0.0, "lat": 38.91718566666667, "is_disabled": 0, "name": "70e0c30452bb22edc1a42b415589766a", "fusion_lat": 0.0, "rental_uris": {"ios": "https://dc.lft.to/lastmile_qr_scan", "android": "https://dc.lft.to/lastmile_qr_scan"}, "lon": -77.0384, "type": "electric_scooter"}, {"bike_id": "ceadbf80974907df62a39ff8e6fc8716", "is_reserved": 0, "fusion_lon": 0.0, "lat": 38.943959166666666, "is_disabled": 0, "name": "ceadbf80974907df62a39ff8e6fc8716", "fusion_lat": 0.0, "rental_uris": {"ios": "https://dc.lft.to/lastmile_qr_scan", "android": "https://dc.lft.to/lastmile_qr_scan"}, "lon": -77.03894366666667, "type": "electric_scooter"}, {"bike_id": "f9f851d19a426a0c8fd600fc1efce276", "is_reserved": 0, "fusion_lon": 0.0, "lat": 38.89879366666667, "is_disabled": 0, "name": "f9f851d19a426a0c8fd600fc1efce276", "fusion_lat": 0.0, "rental_uris": {"ios": "https://dc.lft.to/lastmile_qr_scan", "android": "https://dc.lft.to/lastmile_qr_scan"}, "lon": -76.93157, "type": "electric_scooter"}, {"bike_id": "b5410754a8e8300eee06af38d2cf5bc6", "is_reserved": 0, "fusion_lon": 0.0, "lat": 38.9169095, "is_disabled": 0, "name": "b5410754a8e8300eee06af38d2cf5bc6", "fusion_lat": 0.0, "rental_uris": {"ios": "https://dc.lft.to/lastmile_qr_scan", "android": "https://dc.lft.to/lastmile_qr_scan"}, "lon": -77.02903033333334, "type": "electric_scooter"}, {"bike_id": "e5f37c6fbd04eef3ad6c2d59670e37ae", "is_reserved": 0, "fusion_lon": 0.0, "lat": 38.93688, "is_disabled": 0, "name": "e5f37c6fbd04eef3ad6c2d59670e37ae", "fusion_lat": 0.0, "rental_uris": {"ios": "https://dc.lft.to/lastmile_qr_scan", "android": "https://dc.lft.to/lastmile_qr_scan"}, "lon": -77.06023816666666, "type": "electric_scooter"}, {"bike_id": "5e597960ff555cdaa0ff442fa234f327", "is_reserved": 0, "fusion_lon": 0.0, "lat": 38.90122916666667, "is_disabled": 0, "name": "5e597960ff555cdaa0ff442fa234f327", "fusion_lat": 0.0, "rental_uris": {"ios": "https://dc.lft.to/lastmile_qr_scan", "android": "https://dc.lft.to/lastmile_qr_scan"}, "lon": -77.01611016666666, "type": "electric_scooter"}, {"bike_id": "6c39acb49e77d561cf8638ae0c9c804e", "is_reserved": 0, "fusion_lon": 0.0, "lat": 38.911887666666665, "is_disabled": 0, "name": "6c39acb49e77d561cf8638ae0c9c804e", "fusion_lat": 0.0, "rental_uris": {"ios": "https://dc.lft.to/lastmile_qr_scan", "android": "https://dc.lft.to/lastmile_qr_scan"}, "lon": -76.99624766666666, "type": "electric_scooter"}, {"bike_id": "8556a99f08be6657d762bb3777f66403", "is_reserved": 0, "fusion_lon": 0.0, "lat": 38.91008766666667, "is_disabled": 0, "name": "8556a99f08be6657d762bb3777f66403", "fusion_lat": 0.0, "rental_uris": {"ios": "https://dc.lft.to/lastmile_qr_scan", "android": "https://dc.lft.to/lastmile_qr_scan"}, "lon": -76.993997, "type": "electric_scooter"}, {"bike_id": "6c89adf5eb6828ac06cbeaa0e8d0865a", "is_reserved": 0, "fusion_lon": 0.0, "lat": 38.8553495, "is_disabled": 0, "name": "6c89adf5eb6828ac06cbeaa0e8d0865a", "fusion_lat": 0.0, "rental_uris": {"ios": "https://dc.lft.to/lastmile_qr_scan", "android": "https://dc.lft.to/lastmile_qr_scan"}, "lon": -77.113289, "type": "electric_bike"}, {"bike_id": "241861e14be2d1665caebb10330128c8", "is_reserved": 0, "fusion_lon": 0.0, "lat": 38.917075, "is_disabled": 0, "name": "241861e14be2d1665caebb10330128c8", "fusion_lat": 0.0, "rental_uris": {"ios": "https://dc.lft.to/lastmile_qr_scan", "android": "https://dc.lft.to/lastmile_qr_scan"}, "lon": -77.03111333333334, "type": "electric_scooter"}, {"bike_id": "59d02e18499f2a2edfc46e3ba6a9e83c", "is_reserved": 0, "fusion_lon": 0.0, "lat": 38.897992, "is_disabled": 0, "name": "59d02e18499f2a2edfc46e3ba6a9e83c", "fusion_lat": 0.0, "rental_uris": {"ios": "https://dc.lft.to/lastmile_qr_scan", "android": "https://dc.lft.to/lastmile_qr_scan"}, "lon": -77.0297205, "type": "electric_scooter"}, {"bike_id": "6571ad2f4e29eab82ecebedd1ad26b6f", "is_reserved": 0, "fusion_lon": 0.0, "lat": 38.89678633333333, "is_disabled": 0, "name": "6571ad2f4e29eab82ecebedd1ad26b6f", "fusion_lat": 0.0, "rental_uris": {"ios": "https://dc.lft.to/lastmile_qr_scan", "android": "https://dc.lft.to/lastmile_qr_scan"}, "lon": -77.02942766666666, "type": "electric_scooter"}, {"bike_id": "3c44e87fb2b3aaffad770ca61ef209f8", "is_reserved": 0, "fusion_lon": 0.0, "lat": 38.883232, "is_disabled": 0, "name": "3c44e87fb2b3aaffad770ca61ef209f8", "fusion_lat": 0.0, "rental_uris": {"ios": "https://dc.lft.to/lastmile_qr_scan", "android": "https://dc.lft.to/lastmile_qr_scan"}, "lon": -77.01760166666666, "type": "electric_scooter"}, {"bike_id": "7bfb48a3193c80cd93f2884a4797591d", "is_reserved": 0, "fusion_lon": 0.0, "lat": 38.9256305, "is_disabled": 0, "name": "7bfb48a3193c80cd93f2884a4797591d", "fusion_lat": 0.0, "rental_uris": {"ios": "https://dc.lft.to/lastmile_qr_scan", "android": "https://dc.lft.to/lastmile_qr_scan"}, "lon": -77.0391465, "type": "electric_scooter"}, {"bike_id": "0e81d23288391d8d219f98c0d71649c3", "is_reserved": 0, "fusion_lon": 0.0, "lat": 38.925784, "is_disabled": 0, "name": "0e81d23288391d8d219f98c0d71649c3", "fusion_lat": 0.0, "rental_uris": {"ios": "https://dc.lft.to/lastmile_qr_scan", "android": "https://dc.lft.to/lastmile_qr_scan"}, "lon": -77.03918166666666, "type": "electric_scooter"}, {"bike_id": "2275c67013564f49137a2bb9f7277a8b", "is_reserved": 0, "fusion_lon": 0.0, "lat": 38.912836, "is_disabled": 0, "name": "2275c67013564f49137a2bb9f7277a8b", "fusion_lat": 0.0, "rental_uris": {"ios": "https://dc.lft.to/lastmile_qr_scan", "android": "https://dc.lft.to/lastmile_qr_scan"}, "lon": -77.03855083333333, "type": "electric_scooter"}, {"bike_id": "f122f0c5d68e0615d79228db7847ad55", "is_reserved": 0, "fusion_lon": 0.0, "lat": 38.91590683333333, "is_disabled": 0, "name": "f122f0c5d68e0615d79228db7847ad55", "fusion_lat": 0.0, "rental_uris": {"ios": "https://dc.lft.to/lastmile_qr_scan", "android": "https://dc.lft.to/lastmile_qr_scan"}, "lon": -76.9838385, "type": "electric_scooter"}, {"bike_id": "0ad1bf7e9328fa191234b0dbc7a7d6b2", "is_reserved": 0, "fusion_lon": 0.0, "lat": 38.902302666666664, "is_disabled": 0, "name": "0ad1bf7e9328fa191234b0dbc7a7d6b2", "fusion_lat": 0.0, "rental_uris": {"ios": "https://dc.lft.to/lastmile_qr_scan", "android": "https://dc.lft.to/lastmile_qr_scan"}, "lon": -77.03970016666666, "type": "electric_scooter"}, {"bike_id": "255ea8a98f2c9a37cb1e3c39582c2d2d", "is_reserved": 0, "fusion_lon": 0.0, "lat": 38.9446425, "is_disabled": 0, "name": "255ea8a98f2c9a37cb1e3c39582c2d2d", "fusion_lat": 0.0, "rental_uris": {"ios": "https://dc.lft.to/lastmile_qr_scan", "android": "https://dc.lft.to/lastmile_qr_scan"}, "lon": -77.00655366666666, "type": "electric_scooter"}, {"bike_id": "e19e82419b558213ab7f137de4ab2468", "is_reserved": 0, "fusion_lon": 0.0, "lat": 38.86564116666667, "is_disabled": 0, "name": "e19e82419b558213ab7f137de4ab2468", "fusion_lat": 0.0, "rental_uris": {"ios": "https://dc.lft.to/lastmile_qr_scan", "android": "https://dc.lft.to/lastmile_qr_scan"}, "lon": -76.98549, "type": "electric_scooter"}, {"bike_id": "953a904a2d40d2a2deff0584a4f4cc45", "is_reserved": 0, "fusion_lon": 0.0, "lat": 38.907836833333334, "is_disabled": 0, "name": "953a904a2d40d2a2deff0584a4f4cc45", "fusion_lat": 0.0, "rental_uris": {"ios": "https://dc.lft.to/lastmile_qr_scan", "android": "https://dc.lft.to/lastmile_qr_scan"}, "lon": -77.03682716666667, "type": "electric_scooter"}, {"bike_id": "80cd4e45d22b0f88ec5600d21aaff1b5", "is_reserved": 0, "fusion_lon": 0.0, "lat": 38.900649, "is_disabled": 0, "name": "80cd4e45d22b0f88ec5600d21aaff1b5", "fusion_lat": 0.0, "rental_uris": {"ios": "https://dc.lft.to/lastmile_qr_scan", "android": "https://dc.lft.to/lastmile_qr_scan"}, "lon": -76.987133, "type": "electric_scooter"}, {"bike_id": "1fdc84bb64e3c9b86fe66624818d143d", "is_reserved": 0, "fusion_lon": 0.0, "lat": 38.912610666666666, "is_disabled": 0, "name": "1fdc84bb64e3c9b86fe66624818d143d", "fusion_lat": 0.0, "rental_uris": {"ios": "https://dc.lft.to/lastmile_qr_scan", "android": "https://dc.lft.to/lastmile_qr_scan"}, "lon": -77.00672316666666, "type": "electric_scooter"}, {"bike_id": "eefc4cfc6bf5775493eb227dff5ab83b", "is_reserved": 0, "fusion_lon": 0.0, "lat": 38.893891833333335, "is_disabled": 0, "name": "eefc4cfc6bf5775493eb227dff5ab83b", "fusion_lat": 0.0, "rental_uris": {"ios": "https://dc.lft.to/lastmile_qr_scan", "android": "https://dc.lft.to/lastmile_qr_scan"}, "lon": -77.005973, "type": "electric_scooter"}, {"bike_id": "eb3ec3de60a1084e8f4d53b62f7bcbb3", "is_reserved": 0, "fusion_lon": 0.0, "lat": 38.93024416666667, "is_disabled": 0, "name": "eb3ec3de60a1084e8f4d53b62f7bcbb3", "fusion_lat": 0.0, "rental_uris": {"ios": "https://dc.lft.to/lastmile_qr_scan", "android": "https://dc.lft.to/lastmile_qr_scan"}, "lon": -77.02321016666667, "type": "electric_scooter"}, {"bike_id": "f48f910871e10d170f7cce4a52dc45f5", "is_reserved": 0, "fusion_lon": 0.0, "lat": 38.82263183333333, "is_disabled": 0, "name": "f48f910871e10d170f7cce4a52dc45f5", "fusion_lat": 0.0, "rental_uris": {"ios": "https://dc.lft.to/lastmile_qr_scan", "android": "https://dc.lft.to/lastmile_qr_scan"}, "lon": -77.05813216666667, "type": "electric_bike"}, {"bike_id": "b4f172b657334ec5982b6babfe977842", "is_reserved": 0, "fusion_lon": 0.0, "lat": 38.902550166666664, "is_disabled": 0, "name": "b4f172b657334ec5982b6babfe977842", "fusion_lat": 0.0, "rental_uris": {"ios": "https://dc.lft.to/lastmile_qr_scan", "android": "https://dc.lft.to/lastmile_qr_scan"}, "lon": -77.01722316666667, "type": "electric_scooter"}, {"bike_id": "68603b49c1b5ca845a4e4886cbac11ea", "is_reserved": 0, "fusion_lon": 0.0, "lat": 38.870078166666666, "is_disabled": 0, "name": "68603b49c1b5ca845a4e4886cbac11ea", "fusion_lat": 0.0, "rental_uris": {"ios": "https://dc.lft.to/lastmile_qr_scan", "android": "https://dc.lft.to/lastmile_qr_scan"}, "lon": -77.01227416666667, "type": "electric_scooter"}, {"bike_id": "2c11a86f183bfd62b4e18f21beda61fe", "is_reserved": 0, "fusion_lon": 0.0, "lat": 38.911759833333335, "is_disabled": 0, "name": "2c11a86f183bfd62b4e18f21beda61fe", "fusion_lat": 0.0, "rental_uris": {"ios": "https://dc.lft.to/lastmile_qr_scan", "android": "https://dc.lft.to/lastmile_qr_scan"}, "lon": -77.01152633333334, "type": "electric_bike"}, {"bike_id": "4f76c8985c45a40fe95c957ca377aaa3", "is_reserved": 0, "fusion_lon": 0.0, "lat": 38.86242266666667, "is_disabled": 0, "name": "4f76c8985c45a40fe95c957ca377aaa3", "fusion_lat": 0.0, "rental_uris": {"ios": "https://dc.lft.to/lastmile_qr_scan", "android": "https://dc.lft.to/lastmile_qr_scan"}, "lon": -76.9949625, "type": "electric_scooter"}, {"bike_id": "25e57782cbf995f2fe39ba3754a3e413", "is_reserved": 0, "fusion_lon": 0.0, "lat": 38.91109216666667, "is_disabled": 0, "name": "25e57782cbf995f2fe39ba3754a3e413", "fusion_lat": 0.0, "rental_uris": {"ios": "https://dc.lft.to/lastmile_qr_scan", "android": "https://dc.lft.to/lastmile_qr_scan"}, "lon": -77.03735883333333, "type": "electric_scooter"}, {"bike_id": "7c6d31263ad3d5da50b02669410390fd", "is_reserved": 0, "fusion_lon": 0.0, "lat": 38.93231516666667, "is_disabled": 0, "name": "7c6d31263ad3d5da50b02669410390fd", "fusion_lat": 0.0, "rental_uris": {"ios": "https://dc.lft.to/lastmile_qr_scan", "android": "https://dc.lft.to/lastmile_qr_scan"}, "lon": -77.03829866666666, "type": "electric_scooter"}, {"bike_id": "59eab1b348aea4b08b76b4a479d00c23", "is_reserved": 0, "fusion_lon": 0.0, "lat": 38.985084, "is_disabled": 0, "name": "59eab1b348aea4b08b76b4a479d00c23", "fusion_lat": 0.0, "rental_uris": {"ios": "https://dc.lft.to/lastmile_qr_scan", "android": "https://dc.lft.to/lastmile_qr_scan"}, "lon": -76.982084, "type": "electric_bike"}, {"bike_id": "be30d9df2ba82a30985f65967f1ca672", "is_reserved": 0, "fusion_lon": 0.0, "lat": 38.869940666666665, "is_disabled": 0, "name": "be30d9df2ba82a30985f65967f1ca672", "fusion_lat": 0.0, "rental_uris": {"ios": "https://dc.lft.to/lastmile_qr_scan", "android": "https://dc.lft.to/lastmile_qr_scan"}, "lon": -76.95982883333333, "type": "electric_bike"}, {"bike_id": "404dbabe3f12f8327f1711753c381135", "is_reserved": 0, "fusion_lon": 0.0, "lat": 38.9071915, "is_disabled": 0, "name": "404dbabe3f12f8327f1711753c381135", "fusion_lat": 0.0, "rental_uris": {"ios": "https://dc.lft.to/lastmile_qr_scan", "android": "https://dc.lft.to/lastmile_qr_scan"}, "lon": -77.031786, "type": "electric_scooter"}, {"bike_id": "88980a112426ace651df568ce62307a0", "is_reserved": 0, "fusion_lon": 0.0, "lat": 38.8291695, "is_disabled": 0, "name": "88980a112426ace651df568ce62307a0", "fusion_lat": 0.0, "rental_uris": {"ios": "https://dc.lft.to/lastmile_qr_scan", "android": "https://dc.lft.to/lastmile_qr_scan"}, "lon": -76.99733233333333, "type": "electric_scooter"}, {"bike_id": "cd42455ac5fa661c644fe9949987e87a", "is_reserved": 0, "fusion_lon": 0.0, "lat": 38.901665, "is_disabled": 0, "name": "cd42455ac5fa661c644fe9949987e87a", "fusion_lat": 0.0, "rental_uris": {"ios": "https://dc.lft.to/lastmile_qr_scan", "android": "https://dc.lft.to/lastmile_qr_scan"}, "lon": -76.98073166666667, "type": "electric_scooter"}, {"bike_id": "ada605e9c96d3e32bf87919ffdcd0330", "is_reserved": 0, "fusion_lon": 0.0, "lat": 38.90676966666667, "is_disabled": 0, "name": "ada605e9c96d3e32bf87919ffdcd0330", "fusion_lat": 0.0, "rental_uris": {"ios": "https://dc.lft.to/lastmile_qr_scan", "android": "https://dc.lft.to/lastmile_qr_scan"}, "lon": -77.037552, "type": "electric_scooter"}, {"bike_id": "81e77472cc56d43b9747b05f81337016", "is_reserved": 0, "fusion_lon": 0.0, "lat": 38.89979566666667, "is_disabled": 0, "name": "81e77472cc56d43b9747b05f81337016", "fusion_lat": 0.0, "rental_uris": {"ios": "https://dc.lft.to/lastmile_qr_scan", "android": "https://dc.lft.to/lastmile_qr_scan"}, "lon": -76.99146866666666, "type": "electric_scooter"}, {"bike_id": "d0e2b18184f4961433a08344484c85f7", "is_reserved": 0, "fusion_lon": 0.0, "lat": 38.905746666666666, "is_disabled": 0, "name": "d0e2b18184f4961433a08344484c85f7", "fusion_lat": 0.0, "rental_uris": {"ios": "https://dc.lft.to/lastmile_qr_scan", "android": "https://dc.lft.to/lastmile_qr_scan"}, "lon": -77.046055, "type": "electric_scooter"}, {"bike_id": "b0b19b35b0be75e0f68e960c7e2890ba", "is_reserved": 0, "fusion_lon": 0.0, "lat": 38.9265485, "is_disabled": 0, "name": "b0b19b35b0be75e0f68e960c7e2890ba", "fusion_lat": 0.0, "rental_uris": {"ios": "https://dc.lft.to/lastmile_qr_scan", "android": "https://dc.lft.to/lastmile_qr_scan"}, "lon": -77.037143, "type": "electric_scooter"}, {"bike_id": "e227659ec84883f6045c2ca0da8d3200", "is_reserved": 0, "fusion_lon": 0.0, "lat": 38.903697333333334, "is_disabled": 0, "name": "e227659ec84883f6045c2ca0da8d3200", "fusion_lat": 0.0, "rental_uris": {"ios": "https://dc.lft.to/lastmile_qr_scan", "android": "https://dc.lft.to/lastmile_qr_scan"}, "lon": -77.04340516666667, "type": "electric_scooter"}, {"bike_id": "929fac0fdf0b06e3e75451fc90d2efc0", "is_reserved": 0, "fusion_lon": 0.0, "lat": 38.911022333333335, "is_disabled": 0, "name": "929fac0fdf0b06e3e75451fc90d2efc0", "fusion_lat": 0.0, "rental_uris": {"ios": "https://dc.lft.to/lastmile_qr_scan", "android": "https://dc.lft.to/lastmile_qr_scan"}, "lon": -77.0028075, "type": "electric_scooter"}, {"bike_id": "e7fac0f1086b5f0ca505fbda3b49d610", "is_reserved": 0, "fusion_lon": 0.0, "lat": 38.8932865, "is_disabled": 0, "name": "e7fac0f1086b5f0ca505fbda3b49d610", "fusion_lat": 0.0, "rental_uris": {"ios": "https://dc.lft.to/lastmile_qr_scan", "android": "https://dc.lft.to/lastmile_qr_scan"}, "lon": -76.92999216666666, "type": "electric_scooter"}, {"bike_id": "86aaa41345a3aff78d3afc378cfa35ea", "is_reserved": 0, "fusion_lon": 0.0, "lat": 38.87627583333333, "is_disabled": 0, "name": "86aaa41345a3aff78d3afc378cfa35ea", "fusion_lat": 0.0, "rental_uris": {"ios": "https://dc.lft.to/lastmile_qr_scan", "android": "https://dc.lft.to/lastmile_qr_scan"}, "lon": -76.96526666666666, "type": "electric_scooter"}, {"bike_id": "8ca47958d5caf61cd29e66d3a4545417", "is_reserved": 0, "fusion_lon": 0.0, "lat": 38.92286933333333, "is_disabled": 0, "name": "8ca47958d5caf61cd29e66d3a4545417", "fusion_lat": 0.0, "rental_uris": {"ios": "https://dc.lft.to/lastmile_qr_scan", "android": "https://dc.lft.to/lastmile_qr_scan"}, "lon": -77.03660783333333, "type": "electric_scooter"}, {"bike_id": "4f145b4ce4be7bd491f83dd158d68a2a", "is_reserved": 0, "fusion_lon": 0.0, "lat": 38.917712333333334, "is_disabled": 0, "name": "4f145b4ce4be7bd491f83dd158d68a2a", "fusion_lat": 0.0, "rental_uris": {"ios": "https://dc.lft.to/lastmile_qr_scan", "android": "https://dc.lft.to/lastmile_qr_scan"}, "lon": -77.04755166666666, "type": "electric_scooter"}, {"bike_id": "45c5628e3c4c5ba130ddae5b33ab8624", "is_reserved": 0, "fusion_lon": 0.0, "lat": 38.94269633333333, "is_disabled": 0, "name": "45c5628e3c4c5ba130ddae5b33ab8624", "fusion_lat": 0.0, "rental_uris": {"ios": "https://dc.lft.to/lastmile_qr_scan", "android": "https://dc.lft.to/lastmile_qr_scan"}, "lon": -76.98074366666667, "type": "electric_bike"}, {"bike_id": "959e4761a265bbb342e7fae3fc343158", "is_reserved": 0, "fusion_lon": 0.0, "lat": 38.90991833333333, "is_disabled": 0, "name": "959e4761a265bbb342e7fae3fc343158", "fusion_lat": 0.0, "rental_uris": {"ios": "https://dc.lft.to/lastmile_qr_scan", "android": "https://dc.lft.to/lastmile_qr_scan"}, "lon": -77.0384745, "type": "electric_scooter"}, {"bike_id": "7ac38b2a99c55809479bd6d9a7a5d102", "is_reserved": 0, "fusion_lon": 0.0, "lat": 38.871548, "is_disabled": 0, "name": "7ac38b2a99c55809479bd6d9a7a5d102", "fusion_lat": 0.0, "rental_uris": {"ios": "https://dc.lft.to/lastmile_qr_scan", "android": "https://dc.lft.to/lastmile_qr_scan"}, "lon": -76.93665916666667, "type": "electric_bike"}, {"bike_id": "d1a8de508fea1eff74ea608fd5b4ce86", "is_reserved": 0, "fusion_lon": 0.0, "lat": 38.892531, "is_disabled": 0, "name": "d1a8de508fea1eff74ea608fd5b4ce86", "fusion_lat": 0.0, "rental_uris": {"ios": "https://dc.lft.to/lastmile_qr_scan", "android": "https://dc.lft.to/lastmile_qr_scan"}, "lon": -76.943181, "type": "electric_scooter"}, {"bike_id": "a0e534c4f2dd9e4ad0f8b2529ab4991f", "is_reserved": 0, "fusion_lon": 0.0, "lat": 38.927474333333336, "is_disabled": 0, "name": "a0e534c4f2dd9e4ad0f8b2529ab4991f", "fusion_lat": 0.0, "rental_uris": {"ios": "https://dc.lft.to/lastmile_qr_scan", "android": "https://dc.lft.to/lastmile_qr_scan"}, "lon": -77.02421816666667, "type": "electric_scooter"}, {"bike_id": "ea1e2f00469a369e1de58656d2366e1a", "is_reserved": 0, "fusion_lon": 0.0, "lat": 38.918344, "is_disabled": 0, "name": "ea1e2f00469a369e1de58656d2366e1a", "fusion_lat": 0.0, "rental_uris": {"ios": "https://dc.lft.to/lastmile_qr_scan", "android": "https://dc.lft.to/lastmile_qr_scan"}, "lon": -77.03520183333333, "type": "electric_scooter"}, {"bike_id": "569d5f95bab862fa9320c9335ce3b6b0", "is_reserved": 0, "fusion_lon": 0.0, "lat": 38.908047333333336, "is_disabled": 0, "name": "569d5f95bab862fa9320c9335ce3b6b0", "fusion_lat": 0.0, "rental_uris": {"ios": "https://dc.lft.to/lastmile_qr_scan", "android": "https://dc.lft.to/lastmile_qr_scan"}, "lon": -77.04342266666667, "type": "electric_scooter"}, {"bike_id": "c89ecb13d0609c486572e72dd89043aa", "is_reserved": 0, "fusion_lon": 0.0, "lat": 38.917954, "is_disabled": 0, "name": "c89ecb13d0609c486572e72dd89043aa", "fusion_lat": 0.0, "rental_uris": {"ios": "https://dc.lft.to/lastmile_qr_scan", "android": "https://dc.lft.to/lastmile_qr_scan"}, "lon": -77.03438283333334, "type": "electric_scooter"}, {"bike_id": "3694d0b7c37fdde2d9f5a0c7109e0b8b", "is_reserved": 0, "fusion_lon": 0.0, "lat": 38.95770533333334, "is_disabled": 0, "name": "3694d0b7c37fdde2d9f5a0c7109e0b8b", "fusion_lat": 0.0, "rental_uris": {"ios": "https://dc.lft.to/lastmile_qr_scan", "android": "https://dc.lft.to/lastmile_qr_scan"}, "lon": -77.011592, "type": "electric_bike"}, {"bike_id": "99c96e5f0df1d1363961d6f627f3b8bb", "is_reserved": 0, "fusion_lon": 0.0, "lat": 38.91121183333333, "is_disabled": 0, "name": "99c96e5f0df1d1363961d6f627f3b8bb", "fusion_lat": 0.0, "rental_uris": {"ios": "https://dc.lft.to/lastmile_qr_scan", "android": "https://dc.lft.to/lastmile_qr_scan"}, "lon": -77.03831533333333, "type": "electric_scooter"}, {"bike_id": "096d0cc1a212b675e9c50bddef910215", "is_reserved": 0, "fusion_lon": 0.0, "lat": 38.8961265, "is_disabled": 0, "name": "096d0cc1a212b675e9c50bddef910215", "fusion_lat": 0.0, "rental_uris": {"ios": "https://dc.lft.to/lastmile_qr_scan", "android": "https://dc.lft.to/lastmile_qr_scan"}, "lon": -77.04467316666667, "type": "electric_scooter"}, {"bike_id": "530a38800ba45929bbce2015ba1b10a4", "is_reserved": 0, "fusion_lon": 0.0, "lat": 38.934531666666665, "is_disabled": 0, "name": "530a38800ba45929bbce2015ba1b10a4", "fusion_lat": 0.0, "rental_uris": {"ios": "https://dc.lft.to/lastmile_qr_scan", "android": "https://dc.lft.to/lastmile_qr_scan"}, "lon": -77.07239766666666, "type": "electric_scooter"}, {"bike_id": "3cd724aaeda00774d15141318e0f6324", "is_reserved": 0, "fusion_lon": 0.0, "lat": 38.90962583333334, "is_disabled": 0, "name": "3cd724aaeda00774d15141318e0f6324", "fusion_lat": 0.0, "rental_uris": {"ios": "https://dc.lft.to/lastmile_qr_scan", "android": "https://dc.lft.to/lastmile_qr_scan"}, "lon": -77.04181016666666, "type": "electric_scooter"}, {"bike_id": "c288d64b8592670db0f467f56bef6f04", "is_reserved": 0, "fusion_lon": 0.0, "lat": 38.88310883333333, "is_disabled": 0, "name": "c288d64b8592670db0f467f56bef6f04", "fusion_lat": 0.0, "rental_uris": {"ios": "https://dc.lft.to/lastmile_qr_scan", "android": "https://dc.lft.to/lastmile_qr_scan"}, "lon": -77.00941433333334, "type": "electric_scooter"}, {"bike_id": "fa12db33bbc1edafe617d2eceabfe002", "is_reserved": 0, "fusion_lon": 0.0, "lat": 38.91809583333333, "is_disabled": 0, "name": "fa12db33bbc1edafe617d2eceabfe002", "fusion_lat": 0.0, "rental_uris": {"ios": "https://dc.lft.to/lastmile_qr_scan", "android": "https://dc.lft.to/lastmile_qr_scan"}, "lon": -77.01017266666666, "type": "electric_scooter"}, {"bike_id": "e275b2ff06929ef4ba130fcb7b761984", "is_reserved": 0, "fusion_lon": 0.0, "lat": 38.90244833333333, "is_disabled": 0, "name": "e275b2ff06929ef4ba130fcb7b761984", "fusion_lat": 0.0, "rental_uris": {"ios": "https://dc.lft.to/lastmile_qr_scan", "android": "https://dc.lft.to/lastmile_qr_scan"}, "lon": -77.0333705, "type": "electric_scooter"}, {"bike_id": "af210c330f18954d50fe63581def6fad", "is_reserved": 0, "fusion_lon": 0.0, "lat": 38.9053325, "is_disabled": 0, "name": "af210c330f18954d50fe63581def6fad", "fusion_lat": 0.0, "rental_uris": {"ios": "https://dc.lft.to/lastmile_qr_scan", "android": "https://dc.lft.to/lastmile_qr_scan"}, "lon": -77.05970383333333, "type": "electric_scooter"}, {"bike_id": "50ac799d76817ebd6c53e3ce7ffe8cf1", "is_reserved": 0, "fusion_lon": 0.0, "lat": 38.884470666666665, "is_disabled": 0, "name": "50ac799d76817ebd6c53e3ce7ffe8cf1", "fusion_lat": 0.0, "rental_uris": {"ios": "https://dc.lft.to/lastmile_qr_scan", "android": "https://dc.lft.to/lastmile_qr_scan"}, "lon": -77.00580966666666, "type": "electric_scooter"}, {"bike_id": "53c127f3875d71ef1f51f4163220de89", "is_reserved": 0, "fusion_lon": 0.0, "lat": 38.8940175, "is_disabled": 0, "name": "53c127f3875d71ef1f51f4163220de89", "fusion_lat": 0.0, "rental_uris": {"ios": "https://dc.lft.to/lastmile_qr_scan", "android": "https://dc.lft.to/lastmile_qr_scan"}, "lon": -76.9936475, "type": "electric_scooter"}, {"bike_id": "5bc4dbe8cf3b5720a660ebc20a1c01a2", "is_reserved": 0, "fusion_lon": 0.0, "lat": 38.9345765, "is_disabled": 0, "name": "5bc4dbe8cf3b5720a660ebc20a1c01a2", "fusion_lat": 0.0, "rental_uris": {"ios": "https://dc.lft.to/lastmile_qr_scan", "android": "https://dc.lft.to/lastmile_qr_scan"}, "lon": -77.03627433333334, "type": "electric_bike"}, {"bike_id": "60fe0a280e3b67f0ae3b08320a55a61b", "is_reserved": 0, "fusion_lon": 0.0, "lat": 38.90756483333333, "is_disabled": 0, "name": "60fe0a280e3b67f0ae3b08320a55a61b", "fusion_lat": 0.0, "rental_uris": {"ios": "https://dc.lft.to/lastmile_qr_scan", "android": "https://dc.lft.to/lastmile_qr_scan"}, "lon": -77.03601433333333, "type": "electric_scooter"}, {"bike_id": "0e8512721801b18e7b6e8ab5c29585ed", "is_reserved": 0, "fusion_lon": 0.0, "lat": 38.90957866666667, "is_disabled": 0, "name": "0e8512721801b18e7b6e8ab5c29585ed", "fusion_lat": 0.0, "rental_uris": {"ios": "https://dc.lft.to/lastmile_qr_scan", "android": "https://dc.lft.to/lastmile_qr_scan"}, "lon": -76.9847245, "type": "electric_scooter"}, {"bike_id": "79101c6e2837fb303133d932d3dcc261", "is_reserved": 0, "fusion_lon": 0.0, "lat": 38.917247, "is_disabled": 0, "name": "79101c6e2837fb303133d932d3dcc261", "fusion_lat": 0.0, "rental_uris": {"ios": "https://dc.lft.to/lastmile_qr_scan", "android": "https://dc.lft.to/lastmile_qr_scan"}, "lon": -77.03663033333333, "type": "electric_scooter"}, {"bike_id": "7b35aeb63d11b1822f3cda5bab971661", "is_reserved": 0, "fusion_lon": 0.0, "lat": 38.861617333333335, "is_disabled": 0, "name": "7b35aeb63d11b1822f3cda5bab971661", "fusion_lat": 0.0, "rental_uris": {"ios": "https://dc.lft.to/lastmile_qr_scan", "android": "https://dc.lft.to/lastmile_qr_scan"}, "lon": -77.13094916666667, "type": "electric_bike"}, {"bike_id": "cbd769a5031b2fd9bfa0c42d60ab54d7", "is_reserved": 0, "fusion_lon": 0.0, "lat": 38.89182266666667, "is_disabled": 0, "name": "cbd769a5031b2fd9bfa0c42d60ab54d7", "fusion_lat": 0.0, "rental_uris": {"ios": "https://dc.lft.to/lastmile_qr_scan", "android": "https://dc.lft.to/lastmile_qr_scan"}, "lon": -77.01531633333333, "type": "electric_scooter"}, {"bike_id": "8017557f588eada68aefbacb6218f14e", "is_reserved": 0, "fusion_lon": 0.0, "lat": 38.909684666666664, "is_disabled": 0, "name": "8017557f588eada68aefbacb6218f14e", "fusion_lat": 0.0, "rental_uris": {"ios": "https://dc.lft.to/lastmile_qr_scan", "android": "https://dc.lft.to/lastmile_qr_scan"}, "lon": -77.02721116666666, "type": "electric_scooter"}, {"bike_id": "6cca8a66838c735874510c6cbc1fbeef", "is_reserved": 0, "fusion_lon": 0.0, "lat": 38.941857166666665, "is_disabled": 0, "name": "6cca8a66838c735874510c6cbc1fbeef", "fusion_lat": 0.0, "rental_uris": {"ios": "https://dc.lft.to/lastmile_qr_scan", "android": "https://dc.lft.to/lastmile_qr_scan"}, "lon": -77.01700966666667, "type": "electric_scooter"}, {"bike_id": "3bdbdbd17752042c0ebbace6483ebc46", "is_reserved": 0, "fusion_lon": 0.0, "lat": 38.90238566666667, "is_disabled": 0, "name": "3bdbdbd17752042c0ebbace6483ebc46", "fusion_lat": 0.0, "rental_uris": {"ios": "https://dc.lft.to/lastmile_qr_scan", "android": "https://dc.lft.to/lastmile_qr_scan"}, "lon": -76.97418566666667, "type": "electric_scooter"}, {"bike_id": "038272b665fb7716d2108e694f6bb67d", "is_reserved": 0, "fusion_lon": 0.0, "lat": 38.898138, "is_disabled": 0, "name": "038272b665fb7716d2108e694f6bb67d", "fusion_lat": 0.0, "rental_uris": {"ios": "https://dc.lft.to/lastmile_qr_scan", "android": "https://dc.lft.to/lastmile_qr_scan"}, "lon": -77.00600633333333, "type": "electric_bike"}, {"bike_id": "65f76946c2e904c5d6cf62347c1eb3aa", "is_reserved": 0, "fusion_lon": 0.0, "lat": 38.915935166666664, "is_disabled": 0, "name": "65f76946c2e904c5d6cf62347c1eb3aa", "fusion_lat": 0.0, "rental_uris": {"ios": "https://dc.lft.to/lastmile_qr_scan", "android": "https://dc.lft.to/lastmile_qr_scan"}, "lon": -77.041696, "type": "electric_scooter"}, {"bike_id": "c7a7cc724c293fb9d330e04cc08d96a0", "is_reserved": 0, "fusion_lon": 0.0, "lat": 38.967699333333336, "is_disabled": 0, "name": "c7a7cc724c293fb9d330e04cc08d96a0", "fusion_lat": 0.0, "rental_uris": {"ios": "https://dc.lft.to/lastmile_qr_scan", "android": "https://dc.lft.to/lastmile_qr_scan"}, "lon": -77.0915825, "type": "electric_bike"}, {"bike_id": "8c2212f478cf174757b35b74b6942785", "is_reserved": 0, "fusion_lon": 0.0, "lat": 38.905726666666666, "is_disabled": 0, "name": "8c2212f478cf174757b35b74b6942785", "fusion_lat": 0.0, "rental_uris": {"ios": "https://dc.lft.to/lastmile_qr_scan", "android": "https://dc.lft.to/lastmile_qr_scan"}, "lon": -77.01509516666667, "type": "electric_scooter"}, {"bike_id": "0411f240c92fc4f285dbb416658afdf7", "is_reserved": 0, "fusion_lon": 0.0, "lat": 38.90014566666667, "is_disabled": 0, "name": "0411f240c92fc4f285dbb416658afdf7", "fusion_lat": 0.0, "rental_uris": {"ios": "https://dc.lft.to/lastmile_qr_scan", "android": "https://dc.lft.to/lastmile_qr_scan"}, "lon": -77.04381083333334, "type": "electric_scooter"}, {"bike_id": "7a0599d881b323af60322cfbf0525aff", "is_reserved": 0, "fusion_lon": 0.0, "lat": 38.937592, "is_disabled": 0, "name": "7a0599d881b323af60322cfbf0525aff", "fusion_lat": 0.0, "rental_uris": {"ios": "https://dc.lft.to/lastmile_qr_scan", "android": "https://dc.lft.to/lastmile_qr_scan"}, "lon": -77.03572833333334, "type": "electric_scooter"}, {"bike_id": "d186b4ddbd3718376a8a7a290716ad06", "is_reserved": 0, "fusion_lon": 0.0, "lat": 38.898331, "is_disabled": 0, "name": "d186b4ddbd3718376a8a7a290716ad06", "fusion_lat": 0.0, "rental_uris": {"ios": "https://dc.lft.to/lastmile_qr_scan", "android": "https://dc.lft.to/lastmile_qr_scan"}, "lon": -77.00749966666666, "type": "electric_scooter"}, {"bike_id": "5f6324eee3fce255a6ee888c3c0f2e93", "is_reserved": 0, "fusion_lon": 0.0, "lat": 38.913860666666665, "is_disabled": 0, "name": "5f6324eee3fce255a6ee888c3c0f2e93", "fusion_lat": 0.0, "rental_uris": {"ios": "https://dc.lft.to/lastmile_qr_scan", "android": "https://dc.lft.to/lastmile_qr_scan"}, "lon": -77.01797816666667, "type": "electric_scooter"}, {"bike_id": "c744515b813fb865c649b1dd7076fb42", "is_reserved": 0, "fusion_lon": 0.0, "lat": 38.91806316666667, "is_disabled": 0, "name": "c744515b813fb865c649b1dd7076fb42", "fusion_lat": 0.0, "rental_uris": {"ios": "https://dc.lft.to/lastmile_qr_scan", "android": "https://dc.lft.to/lastmile_qr_scan"}, "lon": -77.03441233333334, "type": "electric_scooter"}, {"bike_id": "23de45128aeed17e34733e919f68c4f0", "is_reserved": 0, "fusion_lon": 0.0, "lat": 38.90288783333333, "is_disabled": 0, "name": "23de45128aeed17e34733e919f68c4f0", "fusion_lat": 0.0, "rental_uris": {"ios": "https://dc.lft.to/lastmile_qr_scan", "android": "https://dc.lft.to/lastmile_qr_scan"}, "lon": -77.061161, "type": "electric_scooter"}, {"bike_id": "0bb8731e85a2805aaa39a5a5d8dffe9d", "is_reserved": 0, "fusion_lon": 0.0, "lat": 38.91404033333333, "is_disabled": 0, "name": "0bb8731e85a2805aaa39a5a5d8dffe9d", "fusion_lat": 0.0, "rental_uris": {"ios": "https://dc.lft.to/lastmile_qr_scan", "android": "https://dc.lft.to/lastmile_qr_scan"}, "lon": -77.04144933333333, "type": "electric_scooter"}, {"bike_id": "61f5c27020eecd7875a4f3413534d88b", "is_reserved": 0, "fusion_lon": 0.0, "lat": 38.913733666666666, "is_disabled": 0, "name": "61f5c27020eecd7875a4f3413534d88b", "fusion_lat": 0.0, "rental_uris": {"ios": "https://dc.lft.to/lastmile_qr_scan", "android": "https://dc.lft.to/lastmile_qr_scan"}, "lon": -77.02000533333333, "type": "electric_scooter"}, {"bike_id": "4b6a31422f5ce99ac1ad5fcca83b402e", "is_reserved": 0, "fusion_lon": 0.0, "lat": 38.8429385, "is_disabled": 0, "name": "4b6a31422f5ce99ac1ad5fcca83b402e", "fusion_lat": 0.0, "rental_uris": {"ios": "https://dc.lft.to/lastmile_qr_scan", "android": "https://dc.lft.to/lastmile_qr_scan"}, "lon": -76.99948883333333, "type": "electric_scooter"}, {"bike_id": "3c35b0b5404aafdf99a178bae818596c", "is_reserved": 0, "fusion_lon": 0.0, "lat": 38.917919499999996, "is_disabled": 0, "name": "3c35b0b5404aafdf99a178bae818596c", "fusion_lat": 0.0, "rental_uris": {"ios": "https://dc.lft.to/lastmile_qr_scan", "android": "https://dc.lft.to/lastmile_qr_scan"}, "lon": -77.034489, "type": "electric_scooter"}, {"bike_id": "8d4941095866bad95d4e64b7a2fd3aa3", "is_reserved": 0, "fusion_lon": 0.0, "lat": 38.900165333333334, "is_disabled": 0, "name": "8d4941095866bad95d4e64b7a2fd3aa3", "fusion_lat": 0.0, "rental_uris": {"ios": "https://dc.lft.to/lastmile_qr_scan", "android": "https://dc.lft.to/lastmile_qr_scan"}, "lon": -77.01349233333333, "type": "electric_scooter"}, {"bike_id": "60ad49bd4603bcee5d4c2a87709a98c9", "is_reserved": 0, "fusion_lon": 0.0, "lat": 38.9360845, "is_disabled": 0, "name": "60ad49bd4603bcee5d4c2a87709a98c9", "fusion_lat": 0.0, "rental_uris": {"ios": "https://dc.lft.to/lastmile_qr_scan", "android": "https://dc.lft.to/lastmile_qr_scan"}, "lon": -77.058592, "type": "electric_scooter"}, {"bike_id": "6ee4e8ce6a48a243f643c4755d6d627f", "is_reserved": 0, "fusion_lon": 0.0, "lat": 38.87846283333333, "is_disabled": 0, "name": "6ee4e8ce6a48a243f643c4755d6d627f", "fusion_lat": 0.0, "rental_uris": {"ios": "https://dc.lft.to/lastmile_qr_scan", "android": "https://dc.lft.to/lastmile_qr_scan"}, "lon": -77.0228305, "type": "electric_scooter"}, {"bike_id": "d220b987bf3cab104263ec21c3ea58b5", "is_reserved": 0, "fusion_lon": 0.0, "lat": 38.88410616666667, "is_disabled": 0, "name": "d220b987bf3cab104263ec21c3ea58b5", "fusion_lat": 0.0, "rental_uris": {"ios": "https://dc.lft.to/lastmile_qr_scan", "android": "https://dc.lft.to/lastmile_qr_scan"}, "lon": -77.015309, "type": "electric_scooter"}, {"bike_id": "d2b1d0762ebf7af5edbaad52966feda7", "is_reserved": 0, "fusion_lon": 0.0, "lat": 38.9005695, "is_disabled": 0, "name": "d2b1d0762ebf7af5edbaad52966feda7", "fusion_lat": 0.0, "rental_uris": {"ios": "https://dc.lft.to/lastmile_qr_scan", "android": "https://dc.lft.to/lastmile_qr_scan"}, "lon": -77.0396275, "type": "electric_scooter"}, {"bike_id": "f12718668b7b98010eac7c61b6bc902e", "is_reserved": 0, "fusion_lon": 0.0, "lat": 38.91089866666667, "is_disabled": 0, "name": "f12718668b7b98010eac7c61b6bc902e", "fusion_lat": 0.0, "rental_uris": {"ios": "https://dc.lft.to/lastmile_qr_scan", "android": "https://dc.lft.to/lastmile_qr_scan"}, "lon": -77.034489, "type": "electric_scooter"}, {"bike_id": "e55f2e47c0a22d4005f9d44d86854247", "is_reserved": 0, "fusion_lon": 0.0, "lat": 38.90526783333333, "is_disabled": 0, "name": "e55f2e47c0a22d4005f9d44d86854247", "fusion_lat": 0.0, "rental_uris": {"ios": "https://dc.lft.to/lastmile_qr_scan", "android": "https://dc.lft.to/lastmile_qr_scan"}, "lon": -77.06151783333334, "type": "electric_scooter"},