{"data": {"bikes": [{"rental_uris": {"ios": "https://dc.lft.to/lastmile_qr_scan", "android": "https://dc.lft.to/lastmile_qr_scan"}, "fusion_lon": 0.0, "type": "electric_bike", "is_reserved": 0, "lon": -76.96046033333333, "is_disabled": 0, "fusion_lat": 0.0, "bike_id": "e029f6fe8dc4327efd31f0bfa9e48cfb", "name": "e029f6fe8dc4327efd31f0bfa9e48cfb", "lat": 38.96739566666667}, {"rental_uris": {"ios": "https://dc.lft.to/lastmile_qr_scan", "android": "https://dc.lft.to/lastmile_qr_scan"}, "fusion_lon": 0.0, "type": "electric_scooter", "is_reserved": 0, "lon": -77.02022616666666, "is_disabled": 0, "fusion_lat": 0.0, "bike_id": "c18cf14ac4f83435537ddc0488170dff", "name": "c18cf14ac4f83435537ddc0488170dff", "lat": 38.894505}, {"rental_uris": {"ios": "https://dc.lft.to/lastmile_qr_scan", "android": "https://dc.lft.to/lastmile_qr_scan"}, "fusion_lon": 0.0, "type": "electric_scooter", "is_reserved": 0, "lon": -77.02575666666667, "is_disabled": 0, "fusion_lat": 0.0, "bike_id": "0be10e760ff2ed53151ce01c9bf6648d", "name": "0be10e760ff2ed53151ce01c9bf6648d", "lat": 38.92054666666667}, {"rental_uris": {"ios": "https://dc.lft.to/lastmile_qr_scan", "android": "https://dc.lft.to/lastmile_qr_scan"}, "fusion_lon": 0.0, "type": "electric_scooter", "is_reserved": 0, "lon": -77.0350165, "is_disabled": 0, "fusion_lat": 0.0, "bike_id": "352ed74e09fb9a6a4fa8486c53d8429a", "name": "352ed74e09fb9a6a4fa8486c53d8429a", "lat": 38.9187825}, {"rental_uris": {"ios": "https://dc.lft.to/lastmile_qr_scan", "android": "https://dc.lft.to/lastmile_qr_scan"}, "fusion_lon": 0.0, "type": "electric_scooter", "is_reserved": 0, "lon": -76.93176966666667, "is_disabled": 0, "fusion_lat": 0.0, "bike_id": "8f8437f6c07bff8231a0a8f682a45b08", "name": "8f8437f6c07bff8231a0a8f682a45b08", "lat": 38.8988605}, {"rental_uris": {"ios": "https://dc.lft.to/lastmile_qr_scan", "android": "https://dc.lft.to/lastmile_qr_scan"}, "fusion_lon": 0.0, "type": "electric_scooter", "is_reserved": 0, "lon": -77.03264266666666, "is_disabled": 0, "fusion_lat": 0.0, "bike_id": "d6703d401d7dc74c34ad8556f7aaf450", "name": "d6703d401d7dc74c34ad8556f7aaf450", "lat": 38.93254}, {"rental_uris": {"ios": "https://dc.lft.to/lastmile_qr_scan", "android": "https://dc.lft.to/lastmile_qr_scan"}, "fusion_lon": 0.0, "type": "electric_scooter", "is_reserved": 0, "lon": -77.01862133333333, "is_disabled": 0, "fusion_lat": 0.0, "bike_id": "c9c3326a1eaacc8cebc2b3b44fbd19fc", "name": "c9c3326a1eaacc8cebc2b3b44fbd19fc", "lat": 38.973681666666664}, {"rental_uris": {"ios": "https://dc.lft.to/lastmile_qr_scan", "android": "https://dc.lft.to/lastmile_qr_scan"}, "fusion_lon": 0.0, "type": "electric_scooter", "is_reserved": 0, "lon": -77.05019366666667, "is_disabled": 0, "fusion_lat": 0.0, "bike_id": "2d7b45faec17fd5bf6bbe7f05a257bb7", "name": "2d7b45faec17fd5bf6bbe7f05a257bb7", "lat": 38.897784333333334}, {"rental_uris": {"ios": "https://dc.lft.to/lastmile_qr_scan", "android": "https://dc.lft.to/lastmile_qr_scan"}, "fusion_lon": 0.0, "type": "electric_scooter", "is_reserved": 0, "lon": -77.03518316666667, "is_disabled": 0, "fusion_lat": 0.0, "bike_id": "3a6830a5bb743dba2c4124e35876fda5", "name": "3a6830a5bb743dba2c4124e35876fda5", "lat": 38.92158166666667}, {"rental_uris": {"ios": "https://dc.lft.to/lastmile_qr_scan", "android": "https://dc.lft.to/lastmile_qr_scan"}, "fusion_lon": 0.0, "type": "electric_scooter", "is_reserved": 0, "lon": -77.023189, "is_disabled": 0, "fusion_lat": 0.0, "bike_id": "1e0d48dae11ba8329aae583c37b0debf", "name": "1e0d48dae11ba8329aae583c37b0debf", "lat": 38.94472416666667}, {"rental_uris": {"ios": "https://dc.lft.to/lastmile_qr_scan", "android": "https://dc.lft.to/lastmile_qr_scan"}, "fusion_lon": 0.0, "type": "electric_scooter", "is_reserved": 0, "lon": -77.03517233333334, "is_disabled": 0, "fusion_lat": 0.0, "bike_id": "91bc7aedc169d3176ab2b63baf4f3c5c", "name": "91bc7aedc169d3176ab2b63baf4f3c5c", "lat": 38.92238183333333}, {"rental_uris": {"ios": "https://dc.lft.to/lastmile_qr_scan", "android": "https://dc.lft.to/lastmile_qr_scan"}, "fusion_lon": 0.0, "type": "electric_scooter", "is_reserved": 0, "lon": -77.08035366666667, "is_disabled": 0, "fusion_lat": 0.0, "bike_id": "93959f8f7779a2629681ded79f0ea8c2", "name": "93959f8f7779a2629681ded79f0ea8c2", "lat": 38.95607}, {"rental_uris": {"ios": "https://dc.lft.to/lastmile_qr_scan", "android": "https://dc.lft.to/lastmile_qr_scan"}, "fusion_lon": 0.0, "type": "electric_scooter", "is_reserved": 0, "lon": -77.0333185, "is_disabled": 0, "fusion_lat": 0.0, "bike_id": "28eb276df9301e59d2820797f2611b37", "name": "28eb276df9301e59d2820797f2611b37", "lat": 38.935040666666666}, {"rental_uris": {"ios": "https://dc.lft.to/lastmile_qr_scan", "android": "https://dc.lft.to/lastmile_qr_scan"}, "fusion_lon": 0.0, "type": "electric_scooter", "is_reserved": 0, "lon": -77.0327145, "is_disabled": 0, "fusion_lat": 0.0, "bike_id": "3b0b2a1ae7b8ff80990adc3f8d778bd4", "name": "3b0b2a1ae7b8ff80990adc3f8d778bd4", "lat": 38.911116}, {"rental_uris": {"ios": "https://dc.lft.to/lastmile_qr_scan", "android": "https://dc.lft.to/lastmile_qr_scan"}, "fusion_lon": 0.0, "type": "electric_scooter", "is_reserved": 0, "lon": -77.02046516666667, "is_disabled": 0, "fusion_lat": 0.0, "bike_id": "63c15bcf08fe589e24feca7d4a5c14ee", "name": "63c15bcf08fe589e24feca7d4a5c14ee", "lat": 38.9276955}, {"rental_uris": {"ios": "https://dc.lft.to/lastmile_qr_scan", "android": "https://dc.lft.to/lastmile_qr_scan"}, "fusion_lon": 0.0, "type": "electric_scooter", "is_reserved": 0, "lon": -77.0449395, "is_disabled": 0, "fusion_lat": 0.0, "bike_id": "4df91f5100acc8a910f114261111295b", "name": "4df91f5100acc8a910f114261111295b", "lat": 38.9010165}, {"rental_uris": {"ios": "https://dc.lft.to/lastmile_qr_scan", "android": "https://dc.lft.to/lastmile_qr_scan"}, "fusion_lon": 0.0, "type": "electric_scooter", "is_reserved": 0, "lon": -77.00536966666667, "is_disabled": 0, "fusion_lat": 0.0, "bike_id": "97abf6ba78c53a24b2138770a81257dd", "name": "97abf6ba78c53a24b2138770a81257dd", "lat": 38.875448}, {"rental_uris": {"ios": "https://dc.lft.to/lastmile_qr_scan", "android": "https://dc.lft.to/lastmile_qr_scan"}, "fusion_lon": 0.0, "type": "electric_scooter", "is_reserved": 0, "lon": -77.026632, "is_disabled": 0, "fusion_lat": 0.0, "bike_id": "954d6153c64c47bae8728ddd079bfc48", "name": "954d6153c64c47bae8728ddd079bfc48", "lat": 38.976018333333336}, {"rental_uris": {"ios": "https://dc.lft.to/lastmile_qr_scan", "android": "https://dc.lft.to/lastmile_qr_scan"}, "fusion_lon": 0.0, "type": "electric_scooter", "is_reserved": 0, "lon": -77.03392216666667, "is_disabled": 0, "fusion_lat": 0.0, "bike_id": "a3a6bddd533b812c21b7a455da3f8a6f", "name": "a3a6bddd533b812c21b7a455da3f8a6f", "lat": 38.9286915}, {"rental_uris": {"ios": "https://dc.lft.to/lastmile_qr_scan", "android": "https://dc.lft.to/lastmile_qr_scan"}, "fusion_lon": 0.0, "type": "electric_scooter", "is_reserved": 0, "lon": -77.022515, "is_disabled": 0, "fusion_lat": 0.0, "bike_id": "08cb63ab0fe44e7841a65414b568e027", "name": "08cb63ab0fe44e7841a65414b568e027", "lat": 38.92895016666667}, {"rental_uris": {"ios": "https://dc.lft.to/lastmile_qr_scan", "android": "https://dc.lft.to/lastmile_qr_scan"}, "fusion_lon": 0.0, "type": "electric_scooter", "is_reserved": 0, "lon": -77.02446966666666, "is_disabled": 0, "fusion_lat": 0.0, "bike_id": "fa0d1442051e3bda63cfc89b07a26b79", "name": "fa0d1442051e3bda63cfc89b07a26b79", "lat": 38.918067666666666}, {"rental_uris": {"ios": "https://dc.lft.to/lastmile_qr_scan", "android": "https://dc.lft.to/lastmile_qr_scan"}, "fusion_lon": 0.0, "type": "electric_bike", "is_reserved": 0, "lon": -77.12646, "is_disabled": 0, "fusion_lat": 0.0, "bike_id": "e6e2421cc5b03488e7d44fe284aacb57", "name": "e6e2421cc5b03488e7d44fe284aacb57", "lat": 38.81903466666667}, {"rental_uris": {"ios": "https://dc.lft.to/lastmile_qr_scan", "android": "https://dc.lft.to/lastmile_qr_scan"}, "fusion_lon": 0.0, "type": "electric_scooter", "is_reserved": 0, "lon": -77.012003, "is_disabled": 0, "fusion_lat": 0.0, "bike_id": "a7d794a5b3709724b45aa01b6296b3d1", "name": "a7d794a5b3709724b45aa01b6296b3d1", "lat": 38.91557183333333}, {"rental_uris": {"ios": "https://dc.lft.to/lastmile_qr_scan", "android": "https://dc.lft.to/lastmile_qr_scan"}, "fusion_lon": 0.0, "type": "electric_scooter", "is_reserved": 0, "lon": -77.04763866666667, "is_disabled": 0, "fusion_lat": 0.0, "bike_id": "3372c315f3503e90d870df3a000df2b7", "name": "3372c315f3503e90d870df3a000df2b7", "lat": 38.91246983333333}, {"rental_uris": {"ios": "https://dc.lft.to/lastmile_qr_scan", "android": "https://dc.lft.to/lastmile_qr_scan"}, "fusion_lon": 0.0, "type": "electric_scooter", "is_reserved": 0, "lon": -77.03848683333334, "is_disabled": 0, "fusion_lat": 0.0, "bike_id": "9a025a18d22647b404893bc3e0e0b791", "name": "9a025a18d22647b404893bc3e0e0b791", "lat": 38.905677}, {"rental_uris": {"ios": "https://dc.lft.to/lastmile_qr_scan", "android": "https://dc.lft.to/lastmile_qr_scan"}, "fusion_lon": 0.0, "type": "electric_bike", "is_reserved": 0, "lon": -77.05999016666667, "is_disabled": 0, "fusion_lat": 0.0, "bike_id": "e0d830ac9a34a010e9b1b006f5804f16", "name": "e0d830ac9a34a010e9b1b006f5804f16", "lat": 38.905271166666665}, {"rental_uris": {"ios": "https://dc.lft.to/lastmile_qr_scan", "android": "https://dc.lft.to/lastmile_qr_scan"}, "fusion_lon": 0.0, "type": "electric_scooter", "is_reserved": 0, "lon": -77.00585866666667, "is_disabled": 0, "fusion_lat": 0.0, "bike_id": "b5255447cf6280d1a9f04c861cec95e4", "name": "b5255447cf6280d1a9f04c861cec95e4", "lat": 38.906195}, {"rental_uris": {"ios": "https://dc.lft.to/lastmile_qr_scan", "android": "https://dc.lft.to/lastmile_qr_scan"}, "fusion_lon": 0.0, "type": "electric_scooter", "is_reserved": 0, "lon": -77.02233033333333, "is_disabled": 0, "fusion_lat": 0.0, "bike_id": "333d81669cbab12b36495cf1054cee8e", "name": "333d81669cbab12b36495cf1054cee8e", "lat": 38.9248065}, {"rental_uris": {"ios": "https://dc.lft.to/lastmile_qr_scan", "android": "https://dc.lft.to/lastmile_qr_scan"}, "fusion_lon": 0.0, "type": "electric_scooter", "is_reserved": 0, "lon": -76.933864, "is_disabled": 0, "fusion_lat": 0.0, "bike_id": "092319dd9d708fde328f7d004fc2276b", "name": "092319dd9d708fde328f7d004fc2276b", "lat": 38.89911683333333}, {"rental_uris": {"ios": "https://dc.lft.to/lastmile_qr_scan", "android": "https://dc.lft.to/lastmile_qr_scan"}, "fusion_lon": 0.0, "type": "electric_scooter", "is_reserved": 0, "lon": -77.04674066666666, "is_disabled": 0, "fusion_lat": 0.0, "bike_id": "9f9493f3f89bd8e38e1ba1ca87467ba9", "name": "9f9493f3f89bd8e38e1ba1ca87467ba9", "lat": 38.904619333333336}, {"rental_uris": {"ios": "https://dc.lft.to/lastmile_qr_scan", "android": "https://dc.lft.to/lastmile_qr_scan"}, "fusion_lon": 0.0, "type": "electric_scooter", "is_reserved": 0, "lon": -77.023312, "is_disabled": 0, "fusion_lat": 0.0, "bike_id": "6b1f3f68d3e6e1de058ac5446d2cc7ba", "name": "6b1f3f68d3e6e1de058ac5446d2cc7ba", "lat": 38.91786366666667}, {"rental_uris": {"ios": "https://dc.lft.to/lastmile_qr_scan", "android": "https://dc.lft.to/lastmile_qr_scan"}, "fusion_lon": 0.0, "type": "electric_bike", "is_reserved": 0, "lon": -76.95138883333334, "is_disabled": 0, "fusion_lat": 0.0, "bike_id": "ab0826c60d257d132f301a8db8b15958", "name": "ab0826c60d257d132f301a8db8b15958", "lat": 39.084328166666666}, {"rental_uris": {"ios": "https://dc.lft.to/lastmile_qr_scan", "android": "https://dc.lft.to/lastmile_qr_scan"}, "fusion_lon": 0.0, "type": "electric_scooter", "is_reserved": 0, "lon": -77.01812166666667, "is_disabled": 0, "fusion_lat": 0.0, "bike_id": "7d2811aca935a6e84bfafef3b032fc63", "name": "7d2811aca935a6e84bfafef3b032fc63", "lat": 38.919856333333335}, {"rental_uris": {"ios": "https://dc.lft.to/lastmile_qr_scan", "android": "https://dc.lft.to/lastmile_qr_scan"}, "fusion_lon": 0.0, "type": "electric_bike", "is_reserved": 0, "lon": -77.03063616666667, "is_disabled": 0, "fusion_lat": 0.0, "bike_id": "989be246a149c73e24d767c93fce9e12", "name": "989be246a149c73e24d767c93fce9e12", "lat": 38.9225225}, {"rental_uris": {"ios": "https://dc.lft.to/lastmile_qr_scan", "android": "https://dc.lft.to/lastmile_qr_scan"}, "fusion_lon": 0.0, "type": "electric_scooter", "is_reserved": 0, "lon": -77.06704683333334, "is_disabled": 0, "fusion_lat": 0.0, "bike_id": "225562bfccb56a0e073408b4e161a25b", "name": "225562bfccb56a0e073408b4e161a25b", "lat": 38.913716666666666}, {"rental_uris": {"ios": "https://dc.lft.to/lastmile_qr_scan", "android": "https://dc.lft.to/lastmile_qr_scan"}, "fusion_lon": 0.0, "type": "electric_scooter", "is_reserved": 0, "lon": -77.06356283333334, "is_disabled": 0, "fusion_lat": 0.0, "bike_id": "e51838b590ba69ce0cbdb591b3b5b2c9", "name": "e51838b590ba69ce0cbdb591b3b5b2c9", "lat": 38.90804516666667}, {"rental_uris": {"ios": "https://dc.lft.to/lastmile_qr_scan", "android": "https://dc.lft.to/lastmile_qr_scan"}, "fusion_lon": 0.0, "type": "electric_scooter", "is_reserved": 0, "lon": -77.03896416666667, "is_disabled": 0, "fusion_lat": 0.0, "bike_id": "17d1047f0d569e866c7c12e0a0ae236c", "name": "17d1047f0d569e866c7c12e0a0ae236c", "lat": 38.91713133333333}, {"rental_uris": {"ios": "https://dc.lft.to/lastmile_qr_scan", "android": "https://dc.lft.to/lastmile_qr_scan"}, "fusion_lon": 0.0, "type": "electric_scooter", "is_reserved": 0, "lon": -77.0498775, "is_disabled": 0, "fusion_lat": 0.0, "bike_id": "2f4f3e08ac6db7f77c8d4a3ea8fb05ea", "name": "2f4f3e08ac6db7f77c8d4a3ea8fb05ea", "lat": 38.897307}, {"rental_uris": {"ios": "https://dc.lft.to/lastmile_qr_scan", "android": "https://dc.lft.to/lastmile_qr_scan"}, "fusion_lon": 0.0, "type": "electric_scooter", "is_reserved": 0, "lon": -77.01945666666667, "is_disabled": 0, "fusion_lat": 0.0, "bike_id": "de2c8ece7378ec8bbba2fe2806c53b79", "name": "de2c8ece7378ec8bbba2fe2806c53b79", "lat": 38.92421616666667}, {"rental_uris": {"ios": "https://dc.lft.to/lastmile_qr_scan", "android": "https://dc.lft.to/lastmile_qr_scan"}, "fusion_lon": 0.0, "type": "electric_scooter", "is_reserved": 0, "lon": -77.03893466666666, "is_disabled": 0, "fusion_lat": 0.0, "bike_id": "910cf76a00115ad04dfc8be2a6cc1bf5", "name": "910cf76a00115ad04dfc8be2a6cc1bf5", "lat": 38.92501}, {"rental_uris": {"ios": "https://dc.lft.to/lastmile_qr_scan", "android": "https://dc.lft.to/lastmile_qr_scan"}, "fusion_lon": 0.0, "type": "electric_scooter", "is_reserved": 0, "lon": -77.02160083333334, "is_disabled": 0, "fusion_lat": 0.0, "bike_id": "4161af623555edc8b79d0aa6520d8d3a", "name": "4161af623555edc8b79d0aa6520d8d3a", "lat": 38.926144}, {"rental_uris": {"ios": "https://dc.lft.to/lastmile_qr_scan", "android": "https://dc.lft.to/lastmile_qr_scan"}, "fusion_lon": 0.0, "type": "electric_scooter", "is_reserved": 0, "lon": -77.03006666666667, "is_disabled": 0, "fusion_lat": 0.0, "bike_id": "0791a4321100eb6f14df750a72c9a9a6", "name": "0791a4321100eb6f14df750a72c9a9a6", "lat": 38.93110983333333}, {"rental_uris": {"ios": "https://dc.lft.to/lastmile_qr_scan", "android": "https://dc.lft.to/lastmile_qr_scan"}, "fusion_lon": 0.0, "type": "electric_scooter", "is_reserved": 0, "lon": -77.0561005, "is_disabled": 0, "fusion_lat": 0.0, "bike_id": "9bae0ea3c46959d4b6f82e43a33f8cd1", "name": "9bae0ea3c46959d4b6f82e43a33f8cd1", "lat": 38.931629666666666}, {"rental_uris": {"ios": "https://dc.lft.to/lastmile_qr_scan", "android": "https://dc.lft.to/lastmile_qr_scan"}, "fusion_lon": 0.0, "type": "electric_scooter", "is_reserved": 0, "lon": -77.02720866666667, "is_disabled": 0, "fusion_lat": 0.0, "bike_id": "3a2967e8b67b2c92ac6b4559beb199b0", "name": "3a2967e8b67b2c92ac6b4559beb199b0", "lat": 38.9042165}, {"rental_uris": {"ios": "https://dc.lft.to/lastmile_qr_scan", "android": "https://dc.lft.to/lastmile_qr_scan"}, "fusion_lon": 0.0, "type": "electric_scooter", "is_reserved": 0, "lon": -77.02590916666666, "is_disabled": 0, "fusion_lat": 0.0, "bike_id": "7db1638fb9573dbe068f029d359912db", "name": "7db1638fb9573dbe068f029d359912db", "lat": 38.905949166666666}, {"rental_uris": {"ios": "https://dc.lft.to/lastmile_qr_scan", "android": "https://dc.lft.to/lastmile_qr_scan"}, "fusion_lon": 0.0, "type": "electric_scooter", "is_reserved": 0, "lon": -77.03332183333333, "is_disabled": 0, "fusion_lat": 0.0, "bike_id": "9102ef78565940022cf2729658bfb784", "name": "9102ef78565940022cf2729658bfb784", "lat": 38.902704}, {"rental_uris": {"ios": "https://dc.lft.to/lastmile_qr_scan", "android": "https://dc.lft.to/lastmile_qr_scan"}, "fusion_lon": 0.0, "type": "electric_scooter", "is_reserved": 0, "lon": -76.93745766666666, "is_disabled": 0, "fusion_lat": 0.0, "bike_id": "b04d44a2d4a29b0d621c8811480e8e1c", "name": "b04d44a2d4a29b0d621c8811480e8e1c", "lat": 38.89009166666666}, {"rental_uris": {"ios": "https://dc.lft.to/lastmile_qr_scan", "android": "https://dc.lft.to/lastmile_qr_scan"}, "fusion_lon": 0.0, "type": "electric_scooter", "is_reserved": 0, "lon": -76.9359285, "is_disabled": 0, "fusion_lat": 0.0, "bike_id": "dfe1112c9d75edbc6be82bb4a3208d51", "name": "dfe1112c9d75edbc6be82bb4a3208d51", "lat": 38.909481}, {"rental_uris": {"ios": "https://dc.lft.to/lastmile_qr_scan", "android": "https://dc.lft.to/lastmile_qr_scan"}, "fusion_lon": 0.0, "type": "electric_scooter", "is_reserved": 0, "lon": -77.07192733333333, "is_disabled": 0, "fusion_lat": 0.0, "bike_id": "83acca007b8b8a6dd77283529873090c", "name": "83acca007b8b8a6dd77283529873090c", "lat": 38.906743}, {"rental_uris": {"ios": "https://dc.lft.to/lastmile_qr_scan", "android": "https://dc.lft.to/lastmile_qr_scan"}, "fusion_lon": 0.0, "type": "electric_scooter", "is_reserved": 0, "lon": -76.99835966666667, "is_disabled": 0, "fusion_lat": 0.0, "bike_id": "ca7e629d09916fcbc69ccf3569ddbdd6", "name": "ca7e629d09916fcbc69ccf3569ddbdd6", "lat": 38.92520016666667}, {"rental_uris": {"ios": "https://dc.lft.to/lastmile_qr_scan", "android": "https://dc.lft.to/lastmile_qr_scan"}, "fusion_lon": 0.0, "type": "electric_scooter", "is_reserved": 0, "lon": -77.02658433333333, "is_disabled": 0, "fusion_lat": 0.0, "bike_id": "315b30be66f84c91df2730a9f15b3569", "name": "315b30be66f84c91df2730a9f15b3569", "lat": 38.915015}, {"rental_uris": {"ios": "https://dc.lft.to/lastmile_qr_scan", "android": "https://dc.lft.to/lastmile_qr_scan"}, "fusion_lon": 0.0, "type": "electric_scooter", "is_reserved": 0, "lon": -77.03203833333333, "is_disabled": 0, "fusion_lat": 0.0, "bike_id": "79bf6eee82ca2cb9a6bd445a44603873", "name": "79bf6eee82ca2cb9a6bd445a44603873", "lat": 38.892398166666666}, {"rental_uris": {"ios": "https://dc.lft.to/lastmile_qr_scan", "android": "https://dc.lft.to/lastmile_qr_scan"}, "fusion_lon": 0.0, "type": "electric_scooter", "is_reserved": 0, "lon": -77.03278333333333, "is_disabled": 0, "fusion_lat": 0.0, "bike_id": "70636f780e83226d35ca728c55b032d3", "name": "70636f780e83226d35ca728c55b032d3", "lat": 38.92827183333333}, {"rental_uris": {"ios": "https://dc.lft.to/lastmile_qr_scan", "android": "https://dc.lft.to/lastmile_qr_scan"}, "fusion_lon": 0.0, "type": "electric_scooter", "is_reserved": 0, "lon": -77.010709, "is_disabled": 0, "fusion_lat": 0.0, "bike_id": "649aed790a71ad43b049348b16814918", "name": "649aed790a71ad43b049348b16814918", "lat": 38.91414566666667}, {"rental_uris": {"ios": "https://dc.lft.to/lastmile_qr_scan", "android": "https://dc.lft.to/lastmile_qr_scan"}, "fusion_lon": 0.0, "type": "electric_scooter", "is_reserved": 0, "lon": -77.039056, "is_disabled": 0, "fusion_lat": 0.0, "bike_id": "ca82e8d9eaf307c12d8a659c5d242f57", "name": "ca82e8d9eaf307c12d8a659c5d242f57", "lat": 38.902524666666665}, {"rental_uris": {"ios": "https://dc.lft.to/lastmile_qr_scan", "android": "https://dc.lft.to/lastmile_qr_scan"}, "fusion_lon": 0.0, "type": "electric_scooter", "is_reserved": 0, "lon": -77.03829533333334, "is_disabled": 0, "fusion_lat": 0.0, "bike_id": "25c97d9b57f1519306c74a168f85e0e7", "name": "25c97d9b57f1519306c74a168f85e0e7", "lat": 38.90129116666667}, {"rental_uris": {"ios": "https://dc.lft.to/lastmile_qr_scan", "android": "https://dc.lft.to/lastmile_qr_scan"}, "fusion_lon": 0.0, "type": "electric_scooter", "is_reserved": 0, "lon": -76.986867, "is_disabled": 0, "fusion_lat": 0.0, "bike_id": "ef42ed163f5558833170e869f86c923f", "name": "ef42ed163f5558833170e869f86c923f", "lat": 38.9129425}, {"rental_uris": {"ios": "https://dc.lft.to/lastmile_qr_scan", "android": "https://dc.lft.to/lastmile_qr_scan"}, "fusion_lon": 0.0, "type": "electric_scooter", "is_reserved": 0, "lon": -76.99054183333334, "is_disabled": 0, "fusion_lat": 0.0, "bike_id": "cc9bba9c669de13a6d3f228dfe2b585e", "name": "cc9bba9c669de13a6d3f228dfe2b585e", "lat": 38.9261595}, {"rental_uris": {"ios": "https://dc.lft.to/lastmile_qr_scan", "android": "https://dc.lft.to/lastmile_qr_scan"}, "fusion_lon": 0.0, "type": "electric_scooter", "is_reserved": 0, "lon": -77.04723566666667, "is_disabled": 0, "fusion_lat": 0.0, "bike_id": "be8ac670078e5bc69b2aeb4050cbe55c", "name": "be8ac670078e5bc69b2aeb4050cbe55c", "lat": 38.8996375}, {"rental_uris": {"ios": "https://dc.lft.to/lastmile_qr_scan", "android": "https://dc.lft.to/lastmile_qr_scan"}, "fusion_lon": 0.0, "type": "electric_scooter", "is_reserved": 0, "lon": -77.01797483333333, "is_disabled": 0, "fusion_lat": 0.0, "bike_id": "2b8b24475a0542d87bfc383a93840d2e", "name": "2b8b24475a0542d87bfc383a93840d2e", "lat": 38.911093}, {"rental_uris": {"ios": "https://dc.lft.to/lastmile_qr_scan", "android": "https://dc.lft.to/lastmile_qr_scan"}, "fusion_lon": 0.0, "type": "electric_scooter", "is_reserved": 0, "lon": -77.00485766666667, "is_disabled": 0, "fusion_lat": 0.0, "bike_id": "25a467654694294ebf36ea261ae161bb", "name": "25a467654694294ebf36ea261ae161bb", "lat": 38.896894833333334}, {"rental_uris": {"ios": "https://dc.lft.to/lastmile_qr_scan", "android": "https://dc.lft.to/lastmile_qr_scan"}, "fusion_lon": 0.0, "type": "electric_scooter", "is_reserved": 0, "lon": -77.03210033333333, "is_disabled": 0, "fusion_lat": 0.0, "bike_id": "5d06af15240f82cc2f9a5f7a7859bd7d", "name": "5d06af15240f82cc2f9a5f7a7859bd7d", "lat": 38.89242983333333}, {"rental_uris": {"ios": "https://dc.lft.to/lastmile_qr_scan", "android": "https://dc.lft.to/lastmile_qr_scan"}, "fusion_lon": 0.0, "type": "electric_scooter", "is_reserved": 0, "lon": -77.003326, "is_disabled": 0, "fusion_lat": 0.0, "bike_id": "29f9a2b4e5ef83ebb9af20cab23f6461", "name": "29f9a2b4e5ef83ebb9af20cab23f6461", "lat": 38.8764055}, {"rental_uris": {"ios": "https://dc.lft.to/lastmile_qr_scan", "android": "https://dc.lft.to/lastmile_qr_scan"}, "fusion_lon": 0.0, "type": "electric_scooter", "is_reserved": 0, "lon": -77.00529833333333, "is_disabled": 0, "fusion_lat": 0.0, "bike_id": "8e961ed99caef4048497a18ff3504783", "name": "8e961ed99caef4048497a18ff3504783", "lat": 38.87469183333333}, {"rental_uris": {"ios": "https://dc.lft.to/lastmile_qr_scan", "android": "https://dc.lft.to/lastmile_qr_scan"}, "fusion_lon": 0.0, "type": "electric_scooter", "is_reserved": 0, "lon": -77.07126566666666, "is_disabled": 0, "fusion_lat": 0.0, "bike_id": "5492ae2248e2805545f499a4e360160b", "name": "5492ae2248e2805545f499a4e360160b", "lat": 38.92011733333333}, {"rental_uris": {"ios": "https://dc.lft.to/lastmile_qr_scan", "android": "https://dc.lft.to/lastmile_qr_scan"}, "fusion_lon": 0.0, "type": "electric_scooter", "is_reserved": 0, "lon": -77.0268945, "is_disabled": 0, "fusion_lat": 0.0, "bike_id": "e7623fdb7eaf71bca92e10255c1f65b3", "name": "e7623fdb7eaf71bca92e10255c1f65b3", "lat": 38.902402}, {"rental_uris": {"ios": "https://dc.lft.to/lastmile_qr_scan", "android": "https://dc.lft.to/lastmile_qr_scan"}, "fusion_lon": 0.0, "type": "electric_scooter", "is_reserved": 0, "lon": -77.033466, "is_disabled": 0, "fusion_lat": 0.0, "bike_id": "5e1265ee7d68fe66713fc14b5603037f", "name": "5e1265ee7d68fe66713fc14b5603037f", "lat": 38.892431333333334}, {"rental_uris": {"ios": "https://dc.lft.to/lastmile_qr_scan", "android": "https://dc.lft.to/lastmile_qr_scan"}, "fusion_lon": 0.0, "type": "electric_scooter", "is_reserved": 0, "lon": -77.02633116666667, "is_disabled": 0, "fusion_lat": 0.0, "bike_id": "31f92e7267d33748f191f6bb66056e4b", "name": "31f92e7267d33748f191f6bb66056e4b", "lat": 38.944598666666664}, {"rental_uris": {"ios": "https://dc.lft.to/lastmile_qr_scan", "android": "https://dc.lft.to/lastmile_qr_scan"}, "fusion_lon": 0.0, "type": "electric_scooter", "is_reserved": 0, "lon": -77.04026616666667, "is_disabled": 0, "fusion_lat": 0.0, "bike_id": "76454f1f9662e5f4ba0a1e13b9ff25d9", "name": "76454f1f9662e5f4ba0a1e13b9ff25d9", "lat": 38.921645833333336}, {"rental_uris": {"ios": "https://dc.lft.to/lastmile_qr_scan", "android": "https://dc.lft.to/lastmile_qr_scan"}, "fusion_lon": 0.0, "type": "electric_scooter", "is_reserved": 0, "lon": -77.03376216666666, "is_disabled": 0, "fusion_lat": 0.0, "bike_id": "16918b1b0e45177088cd7226704d72e6", "name": "16918b1b0e45177088cd7226704d72e6", "lat": 38.92876783333333}, {"rental_uris": {"ios": "https://dc.lft.to/lastmile_qr_scan", "android": "https://dc.lft.to/lastmile_qr_scan"}, "fusion_lon": 0.0, "type": "electric_scooter", "is_reserved": 0, "lon": -76.978031, "is_disabled": 0, "fusion_lat": 0.0, "bike_id": "57cc5a8082e49a50ad17da3e37f6a5dd", "name": "57cc5a8082e49a50ad17da3e37f6a5dd", "lat": 38.92036}, {"rental_uris": {"ios": "https://dc.lft.to/lastmile_qr_scan", "android": "https://dc.lft.to/lastmile_qr_scan"}, "fusion_lon": 0.0, "type": "electric_scooter", "is_reserved": 0, "lon": -76.99156033333334, "is_disabled": 0, "fusion_lat": 0.0, "bike_id": "e8ed23e2be5efe32b270cac9d6604519", "name": "e8ed23e2be5efe32b270cac9d6604519", "lat": 38.900363166666665}, {"rental_uris": {"ios": "https://dc.lft.to/lastmile_qr_scan", "android": "https://dc.lft.to/lastmile_qr_scan"}, "fusion_lon": 0.0, "type": "electric_scooter", "is_reserved": 0, "lon": -77.03201683333333, "is_disabled": 0, "fusion_lat": 0.0, "bike_id": "e48e2d9196a02aa3f30fed7e7f9eb50a", "name": "e48e2d9196a02aa3f30fed7e7f9eb50a", "lat": 38.91732416666667}, {"rental_uris": {"ios": "https://dc.lft.to/lastmile_qr_scan", "android": "https://dc.lft.to/lastmile_qr_scan"}, "fusion_lon": 0.0, "type": "electric_scooter", "is_reserved": 0, "lon": -77.07246716666667, "is_disabled": 0, "fusion_lat": 0.0, "bike_id": "828386c069dccf44e41075aeb7fa675c", "name": "828386c069dccf44e41075aeb7fa675c", "lat": 38.939519}, {"rental_uris": {"ios": "https://dc.lft.to/lastmile_qr_scan", "android": "https://dc.lft.to/lastmile_qr_scan"}, "fusion_lon": 0.0, "type": "electric_scooter", "is_reserved": 0, "lon": -77.0346405, "is_disabled": 0, "fusion_lat": 0.0, "bike_id": "1e86dfaa979f34154db2b89a5865e8f2", "name": "1e86dfaa979f34154db2b89a5865e8f2", "lat": 38.91042016666667}, {"rental_uris": {"ios": "https://dc.lft.to/lastmile_qr_scan", "android": "https://dc.lft.to/lastmile_qr_scan"}, "fusion_lon": 0.0, "type": "electric_bike", "is_reserved": 0, "lon": -76.9224255, "is_disabled": 0, "fusion_lat": 0.0, "bike_id": "c453a55676783fc598b7b0b701b73c47", "name": "c453a55676783fc598b7b0b701b73c47", "lat": 39.01066083333333}, {"rental_uris": {"ios": "https://dc.lft.to/lastmile_qr_scan", "android": "https://dc.lft.to/lastmile_qr_scan"}, "fusion_lon": 0.0, "type": "electric_scooter", "is_reserved": 0, "lon": -76.931319, "is_disabled": 0, "fusion_lat": 0.0, "bike_id": "95e4695de6e463b2af17335fe7430536", "name": "95e4695de6e463b2af17335fe7430536", "lat": 38.87841366666667}, {"rental_uris": {"ios": "https://dc.lft.to/lastmile_qr_scan", "android": "https://dc.lft.to/lastmile_qr_scan"}, "fusion_lon": 0.0, "type": "electric_scooter", "is_reserved": 0, "lon": -77.0216315, "is_disabled": 0, "fusion_lat": 0.0, "bike_id": "2f7cb2f6f1c6d8bf5f5d032e4fe6d164", "name": "2f7cb2f6f1c6d8bf5f5d032e4fe6d164", "lat": 38.926359833333336}, {"rental_uris": {"ios": "https://dc.lft.to/lastmile_qr_scan", "android": "https://dc.lft.to/lastmile_qr_scan"}, "fusion_lon": 0.0, "type": "electric_scooter", "is_reserved": 0, "lon": -77.02982, "is_disabled": 0, "fusion_lat": 0.0, "bike_id": "76fb9c97a7a1f134376829291a3a874f", "name": "76fb9c97a7a1f134376829291a3a874f", "lat": 38.903712666666664}, {"rental_uris": {"ios": "https://dc.lft.to/lastmile_qr_scan", "android": "https://dc.lft.to/lastmile_qr_scan"}, "fusion_lon": 0.0, "type": "electric_scooter", "is_reserved": 0, "lon": -77.03667283333333, "is_disabled": 0, "fusion_lat": 0.0, "bike_id": "58d5ae141b6e0d3bfea92b183eface4f", "name": "58d5ae141b6e0d3bfea92b183eface4f", "lat": 38.9156425}, {"rental_uris": {"ios": "https://dc.lft.to/lastmile_qr_scan", "android": "https://dc.lft.to/lastmile_qr_scan"}, "fusion_lon": 0.0, "type": "electric_scooter", "is_reserved": 0, "lon": -77.0033105, "is_disabled": 0, "fusion_lat": 0.0, "bike_id": "15f71e8ea6232d651efc791ff9b7c968", "name": "15f71e8ea6232d651efc791ff9b7c968", "lat": 38.88991033333333}, {"rental_uris": {"ios": "https://dc.lft.to/lastmile_qr_scan", "android": "https://dc.lft.to/lastmile_qr_scan"}, "fusion_lon": 0.0, "type": "electric_scooter", "is_reserved": 0, "lon": -77.02239266666666, "is_disabled": 0, "fusion_lat": 0.0, "bike_id": "4e0db54428ed905a631b6cef76ef7487", "name": "4e0db54428ed905a631b6cef76ef7487", "lat": 38.91279733333333}, {"rental_uris": {"ios": "https://dc.lft.to/lastmile_qr_scan", "android": "https://dc.lft.to/lastmile_qr_scan"}, "fusion_lon": 0.0, "type": "electric_scooter", "is_reserved": 0, "lon": -77.02200916666666, "is_disabled": 0, "fusion_lat": 0.0, "bike_id": "f5bae8b678d3e25efdb7d9ad43aae56b", "name": "f5bae8b678d3e25efdb7d9ad43aae56b", "lat": 38.9313675}, {"rental_uris": {"ios": "https://dc.lft.to/lastmile_qr_scan", "android": "https://dc.lft.to/lastmile_qr_scan"}, "fusion_lon": 0.0, "type": "electric_scooter", "is_reserved": 0, "lon": -77.00378733333334, "is_disabled": 0, "fusion_lat": 0.0, "bike_id": "83eee8518f5146690a2ff55e0710e745", "name": "83eee8518f5146690a2ff55e0710e745", "lat": 38.876386}, {"rental_uris": {"ios": "https://dc.lft.to/lastmile_qr_scan", "android": "https://dc.lft.to/lastmile_qr_scan"}, "fusion_lon": 0.0, "type": "electric_scooter", "is_reserved": 0, "lon": -76.93472283333334, "is_disabled": 0, "fusion_lat": 0.0, "bike_id": "e3c78401411e90e6e27c8ebeceec7e55", "name": "e3c78401411e90e6e27c8ebeceec7e55", "lat": 38.90831516666667}, {"rental_uris": {"ios": "https://dc.lft.to/lastmile_qr_scan", "android": "https://dc.lft.to/lastmile_qr_scan"}, "fusion_lon": 0.0, "type": "electric_scooter", "is_reserved": 0, "lon": -76.99607066666667, "is_disabled": 0, "fusion_lat": 0.0, "bike_id": "cc9ae32a871dabf3adc065fa57400b00", "name": "cc9ae32a871dabf3adc065fa57400b00", "lat": 38.887210833333334}, {"rental_uris": {"ios": "https://dc.lft.to/lastmile_qr_scan", "android": "https://dc.lft.to/lastmile_qr_scan"}, "fusion_lon": 0.0, "type": "electric_scooter", "is_reserved": 0, "lon": -77.02114533333334, "is_disabled": 0, "fusion_lat": 0.0, "bike_id": "87189be888024fd4658b2af6944dcfcb", "name": "87189be888024fd4658b2af6944dcfcb", "lat": 38.9174335}, {"rental_uris": {"ios": "https://dc.lft.to/lastmile_qr_scan", "android": "https://dc.lft.to/lastmile_qr_scan"}, "fusion_lon": 0.0, "type": "electric_bike", "is_reserved": 0, "lon": -76.90017066666667, "is_disabled": 0, "fusion_lat": 0.0, "bike_id": "71b208b9732f6dced51a66e3063437a2", "name": "71b208b9732f6dced51a66e3063437a2", "lat": 39.00648866666667}, {"rental_uris": {"ios": "https://dc.lft.to/lastmile_qr_scan", "android": "https://dc.lft.to/lastmile_qr_scan"}, "fusion_lon": 0.0, "type": "electric_scooter", "is_reserved": 0, "lon": -77.03660566666667, "is_disabled": 0, "fusion_lat": 0.0, "bike_id": "40f449e84f9beca8db0e9fa40aa727d1", "name": "40f449e84f9beca8db0e9fa40aa727d1", "lat": 38.92244683333333}, {"rental_uris": {"ios": "https://dc.lft.to/lastmile_qr_scan", "android": "https://dc.lft.to/lastmile_qr_scan"}, "fusion_lon": 0.0, "type": "electric_scooter", "is_reserved": 0, "lon": -76.9980405, "is_disabled": 0, "fusion_lat": 0.0, "bike_id": "fb879a27c6772b6d99da43c595f0f734", "name": "fb879a27c6772b6d99da43c595f0f734", "lat": 38.91047416666667}, {"rental_uris": {"ios": "https://dc.lft.to/lastmile_qr_scan", "android": "https://dc.lft.to/lastmile_qr_scan"}, "fusion_lon": 0.0, "type": "electric_scooter", "is_reserved": 0, "lon": -76.9983365, "is_disabled": 0, "fusion_lat": 0.0, "bike_id": "931cd0f0380ab2375a18cde944d31c54", "name": "931cd0f0380ab2375a18cde944d31c54", "lat": 38.88007066666667}, {"rental_uris": {"ios": "https://dc.lft.to/lastmile_qr_scan", "android": "https://dc.lft.to/lastmile_qr_scan"}, "fusion_lon": 0.0, "type": "electric_scooter", "is_reserved": 0, "lon": -77.02228283333334, "is_disabled": 0, "fusion_lat": 0.0, "bike_id": "6f90d72a6878d562bacef6099a8a38b8", "name": "6f90d72a6878d562bacef6099a8a38b8", "lat": 38.91270683333333}, {"rental_uris": {"ios": "https://dc.lft.to/lastmile_qr_scan", "android": "https://dc.lft.to/lastmile_qr_scan"}, "fusion_lon": 0.0, "type": "electric_scooter", "is_reserved": 0, "lon": -77.0319655, "is_disabled": 0, "fusion_lat": 0.0, "bike_id": "004ab7ef84c1ee26f98873494489f813", "name": "004ab7ef84c1ee26f98873494489f813", "lat": 38.9165435}, {"rental_uris": {"ios": "https://dc.lft.to/lastmile_qr_scan", "android": "https://dc.lft.to/lastmile_qr_scan"}, "fusion_lon": 0.0, "type": "electric_scooter", "is_reserved": 0, "lon": -77.00426983333334, "is_disabled": 0, "fusion_lat": 0.0, "bike_id": "d764a7d2ad068338f482656205707f17", "name": "d764a7d2ad068338f482656205707f17", "lat": 38.90399033333333}, {"rental_uris": {"ios": "https://dc.lft.to/lastmile_qr_scan", "android": "https://dc.lft.to/lastmile_qr_scan"}, "fusion_lon": 0.0, "type": "electric_scooter", "is_reserved": 0, "lon": -77.017127, "is_disabled": 0, "fusion_lat": 0.0, "bike_id": "04a673d762b95947ecc68c59ffc5af7d", "name": "04a673d762b95947ecc68c59ffc5af7d", "lat": 38.90534016666667}, {"rental_uris": {"ios": "https://dc.lft.to/lastmile_qr_scan", "android": "https://dc.lft.to/lastmile_qr_scan"}, "fusion_lon": 0.0, "type": "electric_scooter", "is_reserved": 0, "lon": -76.99503583333333, "is_disabled": 0, "fusion_lat": 0.0, "bike_id": "dccae44903d972e3b3e1b09bc747e56b", "name": "dccae44903d972e3b3e1b09bc747e56b", "lat": 38.92703066666667}, {"rental_uris": {"ios": "https://dc.lft.to/lastmile_qr_scan", "android": "https://dc.lft.to/lastmile_qr_scan"}, "fusion_lon": 0.0, "type": "electric_bike", "is_reserved": 0, "lon": -77.11402616666666, "is_disabled": 0, "fusion_lat": 0.0, "bike_id": "3afb31394e78aeeb89484942336c2f75", "name": "3afb31394e78aeeb89484942336c2f75", "lat": 38.85245483333333}, {"rental_uris": {"ios": "https://dc.lft.to/lastmile_qr_scan", "android": "https://dc.lft.to/lastmile_qr_scan"}, "fusion_lon": 0.0, "type": "electric_scooter", "is_reserved": 0, "lon": -76.93483283333333, "is_disabled": 0, "fusion_lat": 0.0, "bike_id": "1a74128b70bc7876d36290f1104fa2b8", "name": "1a74128b70bc7876d36290f1104fa2b8", "lat": 38.8829735}, {"rental_uris": {"ios": "https://dc.lft.to/lastmile_qr_scan", "android": "https://dc.lft.to/lastmile_qr_scan"}, "fusion_lon": 0.0, "type": "electric_scooter", "is_reserved": 0, "lon": -77.02253983333334, "is_disabled": 0, "fusion_lat": 0.0, "bike_id": "c0b9c9e02e2d488b5aedaab0231d6367", "name": "c0b9c9e02e2d488b5aedaab0231d6367", "lat": 38.9281545}, {"rental_uris": {"ios": "https://dc.lft.to/lastmile_qr_scan", "android": "https://dc.lft.to/lastmile_qr_scan"}, "fusion_lon": 0.0, "type": "electric_scooter", "is_reserved": 0, "lon": -77.0327985, "is_disabled": 0, "fusion_lat": 0.0, "bike_id": "a38c8e221f9b86ff671e43d3b1d7ed4b", "name": "a38c8e221f9b86ff671e43d3b1d7ed4b", "lat": 38.93627}, {"rental_uris": {"ios": "https://dc.lft.to/lastmile_qr_scan", "android": "https://dc.lft.to/lastmile_qr_scan"}, "fusion_lon": 0.0, "type": "electric_scooter", "is_reserved": 0, "lon": -77.00246066666666, "is_disabled": 0, "fusion_lat": 0.0, "bike_id": "e32dcfce8094a152f60632a3b8a9c665", "name": "e32dcfce8094a152f60632a3b8a9c665", "lat": 38.90136616666667}, {"rental_uris": {"ios": "https://dc.lft.to/lastmile_qr_scan", "android": "https://dc.lft.to/lastmile_qr_scan"}, "fusion_lon": 0.0, "type": "electric_scooter", "is_reserved": 0, "lon": -77.00534716666667, "is_disabled": 0, "fusion_lat": 0.0, "bike_id": "9e07865e2b9b140007c2636c297d55ff", "name": "9e07865e2b9b140007c2636c297d55ff", "lat": 38.87545683333333}, {"rental_uris": {"ios": "https://dc.lft.to/lastmile_qr_scan", "android": "https://dc.lft.to/lastmile_qr_scan"}, "fusion_lon": 0.0, "type": "electric_scooter", "is_reserved": 0, "lon": -77.02575233333333, "is_disabled": 0, "fusion_lat": 0.0, "bike_id": "53b4a2cf8ef55f8c62c8e6c50a4d035c", "name": "53b4a2cf8ef55f8c62c8e6c50a4d035c", "lat": 38.92056633333333}, {"rental_uris": {"ios": "https://dc.lft.to/lastmile_qr_scan", "android": "https://dc.lft.to/lastmile_qr_scan"}, "fusion_lon": 0.0, "type": "electric_scooter", "is_reserved": 0, "lon": -76.98340633333333, "is_disabled": 0, "fusion_lat": 0.0, "bike_id": "e3b53ffa037593d1a198194b06036058", "name": "e3b53ffa037593d1a198194b06036058", "lat": 38.915346166666666}, {"rental_uris": {"ios": "https://dc.lft.to/lastmile_qr_scan", "android": "https://dc.lft.to/lastmile_qr_scan"}, "fusion_lon": 0.0, "type": "electric_scooter", "is_reserved": 0, "lon": -77.03828116666666, "is_disabled": 0, "fusion_lat": 0.0, "bike_id": "4a9aff8c7f0fc07a4060ae6af35481bb", "name": "4a9aff8c7f0fc07a4060ae6af35481bb", "lat": 38.91122416666666}, {"rental_uris": {"ios": "https://dc.lft.to/lastmile_qr_scan", "android": "https://dc.lft.to/lastmile_qr_scan"}, "fusion_lon": 0.0, "type": "electric_scooter", "is_reserved": 0, "lon": -77.01801616666667, "is_disabled": 0, "fusion_lat": 0.0, "bike_id": "f59a2e4e5f47ba4f3bfc14c9d7f85361", "name": "f59a2e4e5f47ba4f3bfc14c9d7f85361", "lat": 38.91423266666666}, {"rental_uris": {"ios": "https://dc.lft.to/lastmile_qr_scan", "android": "https://dc.lft.to/lastmile_qr_scan"}, "fusion_lon": 0.0, "type": "electric_scooter", "is_reserved": 0, "lon": -76.9392655, "is_disabled": 0, "fusion_lat": 0.0, "bike_id": "3c66e89ee4f0178cd724159a29f8eefe", "name": "3c66e89ee4f0178cd724159a29f8eefe", "lat": 38.89330133333333}, {"rental_uris": {"ios": "https://dc.lft.to/lastmile_qr_scan", "android": "https://dc.lft.to/lastmile_qr_scan"}, "fusion_lon": 0.0, "type": "electric_bike", "is_reserved": 0, "lon": -77.234104, "is_disabled": 0, "fusion_lat": 0.0, "bike_id": "91eac30e6266afaece4f8a5cc7201403", "name": "91eac30e6266afaece4f8a5cc7201403", "lat": 38.87578933333333}, {"rental_uris": {"ios": "https://dc.lft.to/lastmile_qr_scan", "android": "https://dc.lft.to/lastmile_qr_scan"}, "fusion_lon": 0.0, "type": "electric_scooter", "is_reserved": 0, "lon": -77.047452, "is_disabled": 0, "fusion_lat": 0.0, "bike_id": "69860ea3c22b038582331da622ed4217", "name": "69860ea3c22b038582331da622ed4217", "lat": 38.90540683333333}, {"rental_uris": {"ios": "https://dc.lft.to/lastmile_qr_scan", "android": "https://dc.lft.to/lastmile_qr_scan"}, "fusion_lon": 0.0, "type": "electric_bike", "is_reserved": 0, "lon": -77.03279616666667, "is_disabled": 0, "fusion_lat": 0.0, "bike_id": "ea832164da411502cb074dc425385bb2", "name": "ea832164da411502cb074dc425385bb2", "lat": 38.9364475}, {"rental_uris": {"ios": "https://dc.lft.to/lastmile_qr_scan", "android": "https://dc.lft.to/lastmile_qr_scan"}, "fusion_lon": 0.0, "type": "electric_scooter", "is_reserved": 0, "lon": -77.0236215, "is_disabled": 0, "fusion_lat": 0.0, "bike_id": "649c9bbeb0b573d79137f4b3f036813a", "name": "649c9bbeb0b573d79137f4b3f036813a", "lat": 38.902007833333336}, {"rental_uris": {"ios": "https://dc.lft.to/lastmile_qr_scan", "android": "https://dc.lft.to/lastmile_qr_scan"}, "fusion_lon": 0.0, "type": "electric_scooter", "is_reserved": 0, "lon": -77.0269155, "is_disabled": 0, "fusion_lat": 0.0, "bike_id": "d9ed1014ab1629bc792edc788856bed2", "name": "d9ed1014ab1629bc792edc788856bed2", "lat": 38.90700316666667}, {"rental_uris": {"ios": "https://dc.lft.to/lastmile_qr_scan", "android": "https://dc.lft.to/lastmile_qr_scan"}, "fusion_lon": 0.0, "type": "electric_scooter", "is_reserved": 0, "lon": -77.04293416666667, "is_disabled": 0, "fusion_lat": 0.0, "bike_id": "d9ba27a553bb97d8ff4a899cfa43a06b", "name": "d9ba27a553bb97d8ff4a899cfa43a06b", "lat": 38.923942833333335}, {"rental_uris": {"ios": "https://dc.lft.to/lastmile_qr_scan", "android": "https://dc.lft.to/lastmile_qr_scan"}, "fusion_lon": 0.0, "type": "electric_scooter", "is_reserved": 0, "lon": -77.042343, "is_disabled": 0, "fusion_lat": 0.0, "bike_id": "340cc5b85750dcf1fbddb0e6eb410c7c", "name": "340cc5b85750dcf1fbddb0e6eb410c7c", "lat": 38.92439266666667}, {"rental_uris": {"ios": "https://dc.lft.to/lastmile_qr_scan", "android": "https://dc.lft.to/lastmile_qr_scan"}, "fusion_lon": 0.0, "type": "electric_scooter", "is_reserved": 0, "lon": -77.02616, "is_disabled": 0, "fusion_lat": 0.0, "bike_id": "b74fcb0d41f3ac5dadb36a55fc796fa2", "name": "b74fcb0d41f3ac5dadb36a55fc796fa2", "lat": 38.8962335}, {"rental_uris": {"ios": "https://dc.lft.to/lastmile_qr_scan", "android": "https://dc.lft.to/lastmile_qr_scan"}, "fusion_lon": 0.0, "type": "electric_scooter", "is_reserved": 0, "lon": -77.021587, "is_disabled": 0, "fusion_lat": 0.0, "bike_id": "8429b183d8a1330a368870e93a3b9b4c", "name": "8429b183d8a1330a368870e93a3b9b4c", "lat": 38.89993}, {"rental_uris": {"ios": "https://dc.lft.to/lastmile_qr_scan", "android": "https://dc.lft.to/lastmile_qr_scan"}, "fusion_lon": 0.0, "type": "electric_bike", "is_reserved": 0, "lon": -76.935449, "is_disabled": 0, "fusion_lat": 0.0, "bike_id": "4ca0c313e09d9cd9d595b22dee08a9c8", "name": "4ca0c313e09d9cd9d595b22dee08a9c8", "lat": 38.95186733333333}, {"rental_uris": {"ios": "https://dc.lft.to/lastmile_qr_scan", "android": "https://dc.lft.to/lastmile_qr_scan"}, "fusion_lon": 0.0, "type": "electric_scooter", "is_reserved": 0, "lon": -77.03799383333333, "is_disabled": 0, "fusion_lat": 0.0, "bike_id": "226c24e1627ba9e0c983f8920b75bddd", "name": "226c24e1627ba9e0c983f8920b75bddd", "lat": 38.92318916666667}, {"rental_uris": {"ios": "https://dc.lft.to/lastmile_qr_scan", "android": "https://dc.lft.to/lastmile_qr_scan"}, "fusion_lon": 0.0, "type": "electric_scooter", "is_reserved": 0, "lon": -76.98336333333333, "is_disabled": 0, "fusion_lat": 0.0, "bike_id": "efab0aabebdac6c96d7b8e5ed9072700", "name": "efab0aabebdac6c96d7b8e5ed9072700", "lat": 38.895486166666664}, {"rental_uris": {"ios": "https://dc.lft.to/lastmile_qr_scan", "android": "https://dc.lft.to/lastmile_qr_scan"}, "fusion_lon": 0.0, "type": "electric_scooter", "is_reserved": 0, "lon": -77.03367516666667, "is_disabled": 0, "fusion_lat": 0.0, "bike_id": "79d9d82fb55669bb8873b5066e7d88e0", "name": "79d9d82fb55669bb8873b5066e7d88e0", "lat": 38.909681}, {"rental_uris": {"ios": "https://dc.lft.to/lastmile_qr_scan", "android": "https://dc.lft.to/lastmile_qr_scan"}, "fusion_lon": 0.0, "type": "electric_scooter", "is_reserved": 0, "lon": -77.02177116666667, "is_disabled": 0, "fusion_lat": 0.0, "bike_id": "eb3a952c3efbe61dc379e070dd411f18", "name": "eb3a952c3efbe61dc379e070dd411f18", "lat": 38.899849}, {"rental_uris": {"ios": "https://dc.lft.to/lastmile_qr_scan", "android": "https://dc.lft.to/lastmile_qr_scan"}, "fusion_lon": 0.0, "type": "electric_scooter", "is_reserved": 0, "lon": -77.02576883333333, "is_disabled": 0, "fusion_lat": 0.0, "bike_id": "5f080a297320b6a7bdd918fc246c4568", "name": "5f080a297320b6a7bdd918fc246c4568", "lat": 38.9045365}, {"rental_uris": {"ios": "https://dc.lft.to/lastmile_qr_scan", "android": "https://dc.lft.to/lastmile_qr_scan"}, "fusion_lon": 0.0, "type": "electric_scooter", "is_reserved": 0, "lon": -77.0140545, "is_disabled": 0, "fusion_lat": 0.0, "bike_id": "f6feec493225acc0d719b563d3c37744", "name": "f6feec493225acc0d719b563d3c37744", "lat": 38.928102333333335}, {"rental_uris": {"ios": "https://dc.lft.to/lastmile_qr_scan", "android": "https://dc.lft.to/lastmile_qr_scan"}, "fusion_lon": 0.0, "type": "electric_scooter", "is_reserved": 0, "lon": -77.0805375, "is_disabled": 0, "fusion_lat": 0.0, "bike_id": "6c09cc4d7b1764b23aed28cda9acdf40", "name": "6c09cc4d7b1764b23aed28cda9acdf40", "lat": 38.923733166666665}, {"rental_uris": {"ios": "https://dc.lft.to/lastmile_qr_scan", "android": "https://dc.lft.to/lastmile_qr_scan"}, "fusion_lon": 0.0, "type": "electric_scooter", "is_reserved": 0, "lon": -77.039957, "is_disabled": 0, "fusion_lat": 0.0, "bike_id": "6ff567eee47fd0c971a2ef535c0d95de", "name": "6ff567eee47fd0c971a2ef535c0d95de", "lat": 38.91764583333333}, {"rental_uris": {"ios": "https://dc.lft.to/lastmile_qr_scan", "android": "https://dc.lft.to/lastmile_qr_scan"}, "fusion_lon": 0.0, "type": "electric_scooter", "is_reserved": 0, "lon": -77.0215855, "is_disabled": 0, "fusion_lat": 0.0, "bike_id": "32e0add9db8b0c8fe2f67aafa902517c", "name": "32e0add9db8b0c8fe2f67aafa902517c", "lat": 38.89737816666667}, {"rental_uris": {"ios": "https://dc.lft.to/lastmile_qr_scan", "android": "https://dc.lft.to/lastmile_qr_scan"}, "fusion_lon": 0.0, "type": "electric_scooter", "is_reserved": 0, "lon": -77.01201133333333, "is_disabled": 0, "fusion_lat": 0.0, "bike_id": "cea74a89ee776bfba95cb384ed1fccd8", "name": "cea74a89ee776bfba95cb384ed1fccd8", "lat": 38.89678716666667}, {"rental_uris": {"ios": "https://dc.lft.to/lastmile_qr_scan", "android": "https://dc.lft.to/lastmile_qr_scan"}, "fusion_lon": 0.0, "type": "electric_scooter", "is_reserved": 0, "lon": -77.04451333333333, "is_disabled": 0, "fusion_lat": 0.0, "bike_id": "f41ef63065fea67ad9251222faf677f8", "name": "f41ef63065fea67ad9251222faf677f8", "lat": 38.9154305}, {"rental_uris": {"ios": "https://dc.lft.to/lastmile_qr_scan", "android": "https://dc.lft.to/lastmile_qr_scan"}, "fusion_lon": 0.0, "type": "electric_scooter", "is_reserved": 0, "lon": -77.04045133333334, "is_disabled": 0, "fusion_lat": 0.0, "bike_id": "7b35193f85b5706694c91e1e2ad1c61e", "name": "7b35193f85b5706694c91e1e2ad1c61e", "lat": 38.92428133333333}, {"rental_uris": {"ios": "https://dc.lft.to/lastmile_qr_scan", "android": "https://dc.lft.to/lastmile_qr_scan"}, "fusion_lon": 0.0, "type": "electric_scooter", "is_reserved": 0, "lon": -77.021431, "is_disabled": 0, "fusion_lat": 0.0, "bike_id": "5f54a9d86d7455956ed0151a903884a4", "name": "5f54a9d86d7455956ed0151a903884a4", "lat": 38.92109166666667}, {"rental_uris": {"ios": "https://dc.lft.to/lastmile_qr_scan", "android": "https://dc.lft.to/lastmile_qr_scan"}, "fusion_lon": 0.0, "type": "electric_scooter", "is_reserved": 0, "lon": -77.0043305, "is_disabled": 0, "fusion_lat": 0.0, "bike_id": "719ab9e9d518836ffea3d627548bd037", "name": "719ab9e9d518836ffea3d627548bd037", "lat": 38.876587}, {"rental_uris": {"ios": "https://dc.lft.to/lastmile_qr_scan", "android": "https://dc.lft.to/lastmile_qr_scan"}, "fusion_lon": 0.0, "type": "electric_scooter", "is_reserved": 0, "lon": -77.02723183333333, "is_disabled": 0, "fusion_lat": 0.0, "bike_id": "2b90534cab8b69836cf5fb29bd6e9d71", "name": "2b90534cab8b69836cf5fb29bd6e9d71", "lat": 38.927809}, {"rental_uris": {"ios": "https://dc.lft.to/lastmile_qr_scan", "android": "https://dc.lft.to/lastmile_qr_scan"}, "fusion_lon": 0.0, "type": "electric_scooter", "is_reserved": 0, "lon": -77.06499783333334, "is_disabled": 0, "fusion_lat": 0.0, "bike_id": "0c7b14b5b93fd350ccaaf6a48b10e830", "name": "0c7b14b5b93fd350ccaaf6a48b10e830", "lat": 38.905167166666665}, {"rental_uris": {"ios": "https://dc.lft.to/lastmile_qr_scan", "android": "https://dc.lft.to/lastmile_qr_scan"}, "fusion_lon": 0.0, "type": "electric_scooter", "is_reserved": 0, "lon": -77.03742283333334, "is_disabled": 0, "fusion_lat": 0.0, "bike_id": "7eb32b681f4d0858f8e9007e3f7d31ee", "name": "7eb32b681f4d0858f8e9007e3f7d31ee", "lat": 38.91619166666667}, {"rental_uris": {"ios": "https://dc.lft.to/lastmile_qr_scan", "android": "https://dc.lft.to/lastmile_qr_scan"}, "fusion_lon": 0.0, "type": "electric_scooter", "is_reserved": 0, "lon": -77.02936483333333, "is_disabled": 0, "fusion_lat": 0.0, "bike_id": "dd2277c5336b1683821fe0d9bbcf4c50", "name": "dd2277c5336b1683821fe0d9bbcf4c50", "lat": 38.91027716666667}, {"rental_uris": {"ios": "https://dc.lft.to/lastmile_qr_scan", "android": "https://dc.lft.to/lastmile_qr_scan"}, "fusion_lon": 0.0, "type": "electric_scooter", "is_reserved": 0, "lon": -77.00361266666667, "is_disabled": 0, "fusion_lat": 0.0, "bike_id": "f5a37ca0ac9a1ad86f18c475660e6270", "name": "f5a37ca0ac9a1ad86f18c475660e6270", "lat": 38.90773016666667}, {"rental_uris": {"ios": "https://dc.lft.to/lastmile_qr_scan", "android": "https://dc.lft.to/lastmile_qr_scan"}, "fusion_lon": 0.0, "type": "electric_scooter", "is_reserved": 0, "lon": -77.007531, "is_disabled": 0, "fusion_lat": 0.0, "bike_id": "c775fb7625f5be9af1ca613f61f01a5d", "name": "c775fb7625f5be9af1ca613f61f01a5d", "lat": 38.9102875}, {"rental_uris": {"ios": "https://dc.lft.to/lastmile_qr_scan", "android": "https://dc.lft.to/lastmile_qr_scan"}, "fusion_lon": 0.0, "type": "electric_bike", "is_reserved": 0, "lon": -76.95697183333333, "is_disabled": 0, "fusion_lat": 0.0, "bike_id": "65151f06b9c72f4e6581f5961c358726", "name": "65151f06b9c72f4e6581f5961c358726", "lat": 38.8887695}, {"rental_uris": {"ios": "https://dc.lft.to/lastmile_qr_scan", "android": "https://dc.lft.to/lastmile_qr_scan"}, "fusion_lon": 0.0, "type": "electric_scooter", "is_reserved": 0, "lon": -77.03992466666666, "is_disabled": 0, "fusion_lat": 0.0, "bike_id": "f7a42944d5ce3f66c479e115ec43d66f", "name": "f7a42944d5ce3f66c479e115ec43d66f", "lat": 38.896357333333334}, {"rental_uris": {"ios": "https://dc.lft.to/lastmile_qr_scan", "android": "https://dc.lft.to/lastmile_qr_scan"}, "fusion_lon": 0.0, "type": "electric_scooter", "is_reserved": 0, "lon": -77.05479733333334, "is_disabled": 0, "fusion_lat": 0.0, "bike_id": "abb49a26bb1bb608e06eb642698248cd", "name": "abb49a26bb1bb608e06eb642698248cd", "lat": 38.928226333333335}, {"rental_uris": {"ios": "https://dc.lft.to/lastmile_qr_scan", "android": "https://dc.lft.to/lastmile_qr_scan"}, "fusion_lon": 0.0, "type": "electric_scooter", "is_reserved": 0, "lon": -77.0255375, "is_disabled": 0, "fusion_lat": 0.0, "bike_id": "90a39e711ec7bbd8ee9c44233ced01fc", "name": "90a39e711ec7bbd8ee9c44233ced01fc", "lat": 38.924777166666665}, {"rental_uris": {"ios": "https://dc.lft.to/lastmile_qr_scan", "android": "https://dc.lft.to/lastmile_qr_scan"}, "fusion_lon": 0.0, "type": "electric_scooter", "is_reserved": 0, "lon": -77.04314883333333, "is_disabled": 0, "fusion_lat": 0.0, "bike_id": "6dec76e36573e38289e98b4d5fad2217", "name": "6dec76e36573e38289e98b4d5fad2217", "lat": 38.9236675}, {"rental_uris": {"ios": "https://dc.lft.to/lastmile_qr_scan", "android": "https://dc.lft.to/lastmile_qr_scan"}, "fusion_lon": 0.0, "type": "electric_bike", "is_reserved": 0, "lon": -76.931902, "is_disabled": 0, "fusion_lat": 0.0, "bike_id": "f106f089c0ef2af1d4b1fbba35bd9e15", "name": "f106f089c0ef2af1d4b1fbba35bd9e15", "lat": 38.87958483333333}, {"rental_uris": {"ios": "https://dc.lft.to/lastmile_qr_scan", "android": "https://dc.lft.to/lastmile_qr_scan"}, "fusion_lon": 0.0, "type": "electric_bike", "is_reserved": 0, "lon": -76.97223333333334, "is_disabled": 0, "fusion_lat": 0.0, "bike_id": "3204d555efa775d7951aaf85e32cb2df", "name": "3204d555efa775d7951aaf85e32cb2df", "lat": 38.915311333333335}, {"rental_uris": {"ios": "https://dc.lft.to/lastmile_qr_scan", "android": "https://dc.lft.to/lastmile_qr_scan"}, "fusion_lon": 0.0, "type": "electric_scooter", "is_reserved": 0, "lon": -77.0151275, "is_disabled": 0, "fusion_lat": 0.0, "bike_id": "a4e56e99145b2d2d07ea5688c4a571ef", "name": "a4e56e99145b2d2d07ea5688c4a571ef", "lat": 38.926764166666665}, {"rental_uris": {"ios": "https://dc.lft.to/lastmile_qr_scan", "android": "https://dc.lft.to/lastmile_qr_scan"}, "fusion_lon": 0.0, "type": "electric_scooter", "is_reserved": 0, "lon": -77.068951, "is_disabled": 0, "fusion_lat": 0.0, "bike_id": "e02b31c11b82f2e7c011df3c10402dbd", "name": "e02b31c11b82f2e7c011df3c10402dbd", "lat": 38.907298}, {"rental_uris": {"ios": "https://dc.lft.to/lastmile_qr_scan", "android": "https://dc.lft.to/lastmile_qr_scan"}, "fusion_lon": 0.0, "type": "electric_scooter", "is_reserved": 0, "lon": -77.017991, "is_disabled": 0, "fusion_lat": 0.0, "bike_id": "456ed8aed1c5beeb3d85f841a48d0aec", "name": "456ed8aed1c5beeb3d85f841a48d0aec", "lat": 38.91424416666667}, {"rental_uris": {"ios": "https://dc.lft.to/lastmile_qr_scan", "android": "https://dc.lft.to/lastmile_qr_scan"}, "fusion_lon": 0.0, "type": "electric_scooter", "is_reserved": 0, "lon": -77.0252595, "is_disabled": 0, "fusion_lat": 0.0, "bike_id": "6486d2bab812300f29bc07253d498f1b", "name": "6486d2bab812300f29bc07253d498f1b", "lat": 38.91816}, {"rental_uris": {"ios": "https://dc.lft.to/lastmile_qr_scan", "android": "https://dc.lft.to/lastmile_qr_scan"}, "fusion_lon": 0.0, "type": "electric_scooter", "is_reserved": 0, "lon": -77.03262466666666, "is_disabled": 0, "fusion_lat": 0.0, "bike_id": "292241392da3312a0bf48476c7b9ba7a", "name": "292241392da3312a0bf48476c7b9ba7a", "lat": 38.90264166666667}, {"rental_uris": {"ios": "https://dc.lft.to/lastmile_qr_scan", "android": "https://dc.lft.to/lastmile_qr_scan"}, "fusion_lon": 0.0, "type": "electric_scooter", "is_reserved": 0, "lon": -77.05024116666667, "is_disabled": 0, "fusion_lat": 0.0, "bike_id": "73e54a0059903b31b06ed442156031e3", "name": "73e54a0059903b31b06ed442156031e3", "lat": 38.892625833333334}, {"rental_uris": {"ios": "https://dc.lft.to/lastmile_qr_scan", "android": "https://dc.lft.to/lastmile_qr_scan"}, "fusion_lon": 0.0, "type": "electric_scooter", "is_reserved": 0, "lon": -76.92583316666666, "is_disabled": 0, "fusion_lat": 0.0, "bike_id": "b6ef828fef07fea4b1a8c63e1539adbc", "name": "b6ef828fef07fea4b1a8c63e1539adbc", "lat": 38.89731233333333}, {"rental_uris": {"ios": "https://dc.lft.to/lastmile_qr_scan", "android": "https://dc.lft.to/lastmile_qr_scan"}, "fusion_lon": 0.0, "type": "electric_scooter", "is_reserved": 0, "lon": -77.0342645, "is_disabled": 0, "fusion_lat": 0.0, "bike_id": "6aa6dd2b80494b2bcb48a1394bdfcac0", "name": "6aa6dd2b80494b2bcb48a1394bdfcac0", "lat": 38.90963433333334}, {"rental_uris": {"ios": "https://dc.lft.to/lastmile_qr_scan", "android": "https://dc.lft.to/lastmile_qr_scan"}, "fusion_lon": 0.0, "type": "electric_scooter", "is_reserved": 0, "lon": -77.03554966666667, "is_disabled": 0, "fusion_lat": 0.0, "bike_id": "1a40a76831e3e7eec89f463fb1700487", "name": "1a40a76831e3e7eec89f463fb1700487", "lat": 38.9274255}, {"rental_uris": {"ios": "https://dc.lft.to/lastmile_qr_scan", "android": "https://dc.lft.to/lastmile_qr_scan"}, "fusion_lon": 0.0, "type": "electric_bike", "is_reserved": 0, "lon": -77.06703583333334, "is_disabled": 0, "fusion_lat": 0.0, "bike_id": "48bacdf00d8047e318ca98c27979434d", "name": "48bacdf00d8047e318ca98c27979434d", "lat": 38.905129}, {"rental_uris": {"ios": "https://dc.lft.to/lastmile_qr_scan", "android": "https://dc.lft.to/lastmile_qr_scan"}, "fusion_lon": 0.0, "type": "electric_scooter", "is_reserved": 0, "lon": -77.01953733333333, "is_disabled": 0, "fusion_lat": 0.0, "bike_id": "8bcb2f102a1d874222cba643a55518d4", "name": "8bcb2f102a1d874222cba643a55518d4", "lat": 38.923192666666665}, {"rental_uris": {"ios": "https://dc.lft.to/lastmile_qr_scan", "android": "https://dc.lft.to/lastmile_qr_scan"}, "fusion_lon": 0.0, "type": "electric_scooter", "is_reserved": 0, "lon": -77.0327395, "is_disabled": 0, "fusion_lat": 0.0, "bike_id": "ff785cd44a6b2b2d8c1c0938f3171904", "name": "ff785cd44a6b2b2d8c1c0938f3171904", "lat": 38.930051166666665}, {"rental_uris": {"ios": "https://dc.lft.to/lastmile_qr_scan", "android": "https://dc.lft.to/lastmile_qr_scan"}, "fusion_lon": 0.0, "type": "electric_scooter", "is_reserved": 0, "lon": -77.00333816666667, "is_disabled": 0, "fusion_lat": 0.0, "bike_id": "c3e56cc7ca4675214bad82b802a65644", "name": "c3e56cc7ca4675214bad82b802a65644", "lat": 38.89359183333333}, {"rental_uris": {"ios": "https://dc.lft.to/lastmile_qr_scan", "android": "https://dc.lft.to/lastmile_qr_scan"}, "fusion_lon": 0.0, "type": "electric_scooter", "is_reserved": 0, "lon": -77.038513, "is_disabled": 0, "fusion_lat": 0.0, "bike_id": "6b91f98fd8fd8141e4beea3ec23b5934", "name": "6b91f98fd8fd8141e4beea3ec23b5934", "lat": 38.93131183333333}, {"rental_uris": {"ios": "https://dc.lft.to/lastmile_qr_scan", "android": "https://dc.lft.to/lastmile_qr_scan"}, "fusion_lon": 0.0, "type": "electric_scooter", "is_reserved": 0, "lon": -77.02445816666666, "is_disabled": 0, "fusion_lat": 0.0, "bike_id": "1885728f469335dfeee847c1153a86fd", "name": "1885728f469335dfeee847c1153a86fd", "lat": 38.949756666666666}, {"rental_uris": {"ios": "https://dc.lft.to/lastmile_qr_scan", "android": "https://dc.lft.to/lastmile_qr_scan"}, "fusion_lon": 0.0, "type": "electric_scooter", "is_reserved": 0, "lon": -77.0327785, "is_disabled": 0, "fusion_lat": 0.0, "bike_id": "3be753d61b451fef48845db55a6b3ef7", "name": "3be753d61b451fef48845db55a6b3ef7", "lat": 38.898931166666664}, {"rental_uris": {"ios": "https://dc.lft.to/lastmile_qr_scan", "android": "https://dc.lft.to/lastmile_qr_scan"}, "fusion_lon": 0.0, "type": "electric_scooter", "is_reserved": 0, "lon": -77.00459716666667, "is_disabled": 0, "fusion_lat": 0.0, "bike_id": "1ad8891b81ff77b53e1a7b9f8f08a481", "name": "1ad8891b81ff77b53e1a7b9f8f08a481", "lat": 38.91446333333333}, {"rental_uris": {"ios": "https://dc.lft.to/lastmile_qr_scan", "android": "https://dc.lft.to/lastmile_qr_scan"}, "fusion_lon": 0.0, "type": "electric_scooter", "is_reserved": 0, "lon": -77.032427, "is_disabled": 0, "fusion_lat": 0.0, "bike_id": "bc13498e705133a8b70afb1b6141dfc4", "name": "bc13498e705133a8b70afb1b6141dfc4", "lat": 38.901203833333334}, {"rental_uris": {"ios": "https://dc.lft.to/lastmile_qr_scan", "android": "https://dc.lft.to/lastmile_qr_scan"}, "fusion_lon": 0.0, "type": "electric_scooter", "is_reserved": 0, "lon": -77.05407533333333, "is_disabled": 0, "fusion_lat": 0.0, "bike_id": "33f7b94d3941f72ef428667b7c1d6249", "name": "33f7b94d3941f72ef428667b7c1d6249", "lat": 38.950501833333334}, {"rental_uris": {"ios": "https://dc.lft.to/lastmile_qr_scan", "android": "https://dc.lft.to/lastmile_qr_scan"}, "fusion_lon": 0.0, "type": "electric_scooter", "is_reserved": 0, "lon": -77.0167475, "is_disabled": 0, "fusion_lat": 0.0, "bike_id": "0ecc6f1ee99f3f924f5389adda3bf897", "name": "0ecc6f1ee99f3f924f5389adda3bf897", "lat": 38.920427833333335}, {"rental_uris": {"ios": "https://dc.lft.to/lastmile_qr_scan", "android": "https://dc.lft.to/lastmile_qr_scan"}, "fusion_lon": 0.0, "type": "electric_bike", "is_reserved": 0, "lon": -76.98996083333333, "is_disabled": 0, "fusion_lat": 0.0, "bike_id": "ea8fa3298bb63f91566ca12d37f1585f", "name": "ea8fa3298bb63f91566ca12d37f1585f", "lat": 38.866249333333336}, {"rental_uris": {"ios": "https://dc.lft.to/lastmile_qr_scan", "android": "https://dc.lft.to/lastmile_qr_scan"}, "fusion_lon": 0.0, "type": "electric_scooter", "is_reserved": 0, "lon": -77.014633, "is_disabled": 0, "fusion_lat": 0.0, "bike_id": "bb68f7c2749b92fb55a02c4e28d3e6e0", "name": "bb68f7c2749b92fb55a02c4e28d3e6e0", "lat": 38.92677916666667}, {"rental_uris": {"ios": "https://dc.lft.to/lastmile_qr_scan", "android": "https://dc.lft.to/lastmile_qr_scan"}, "fusion_lon": 0.0, "type": "electric_scooter", "is_reserved": 0, "lon": -77.024124, "is_disabled": 0, "fusion_lat": 0.0, "bike_id": "86cf86690cac6cb16415ad523d103cc8", "name": "86cf86690cac6cb16415ad523d103cc8", "lat": 38.917062}, {"rental_uris": {"ios": "https://dc.lft.to/lastmile_qr_scan", "android": "https://dc.lft.to/lastmile_qr_scan"}, "fusion_lon": 0.0, "type": "electric_scooter", "is_reserved": 0, "lon": -77.03303983333333, "is_disabled": 0, "fusion_lat": 0.0, "bike_id": "73938749285fe3be2e730d1fd1c21f71", "name": "73938749285fe3be2e730d1fd1c21f71", "lat": 38.89914666666667}, {"rental_uris": {"ios": "https://dc.lft.to/lastmile_qr_scan", "android": "https://dc.lft.to/lastmile_qr_scan"}, "fusion_lon": 0.0, "type": "electric_scooter", "is_reserved": 0, "lon": -77.02969633333333, "is_disabled": 0, "fusion_lat": 0.0, "bike_id": "818e6514eb83093f7e380327e6668f24", "name": "818e6514eb83093f7e380327e6668f24", "lat": 38.90603933333333}, {"rental_uris": {"ios": "https://dc.lft.to/lastmile_qr_scan", "android": "https://dc.lft.to/lastmile_qr_scan"}, "fusion_lon": 0.0, "type": "electric_scooter", "is_reserved": 0, "lon": -77.049947, "is_disabled": 0, "fusion_lat": 0.0, "bike_id": "0c7fe90878158175e0cf5b5737db23ae", "name": "0c7fe90878158175e0cf5b5737db23ae", "lat": 38.8940265}, {"rental_uris": {"ios": "https://dc.lft.to/lastmile_qr_scan", "android": "https://dc.lft.to/lastmile_qr_scan"}, "fusion_lon": 0.0, "type": "electric_scooter", "is_reserved": 0, "lon": -76.944704, "is_disabled": 0, "fusion_lat": 0.0, "bike_id": "fa904b47600bed7c69419703ef2f8be5", "name": "fa904b47600bed7c69419703ef2f8be5", "lat": 38.87908733333333}, {"rental_uris": {"ios": "https://dc.lft.to/lastmile_qr_scan", "android": "https://dc.lft.to/lastmile_qr_scan"}, "fusion_lon": 0.0, "type": "electric_scooter", "is_reserved": 0, "lon": -77.02956566666667, "is_disabled": 0, "fusion_lat": 0.0, "bike_id": "29bc9749bd4066d4fe1363a79d55278f", "name": "29bc9749bd4066d4fe1363a79d55278f", "lat": 38.916039166666664}, {"rental_uris": {"ios": "https://dc.lft.to/lastmile_qr_scan", "android": "https://dc.lft.to/lastmile_qr_scan"}, "fusion_lon": 0.0, "type": "electric_scooter", "is_reserved": 0, "lon": -77.00487133333333, "is_disabled": 0, "fusion_lat": 0.0, "bike_id": "1f5644acda789c506e0bf4eef753d66f", "name": "1f5644acda789c506e0bf4eef753d66f", "lat": 38.896916}, {"rental_uris": {"ios": "https://dc.lft.to/lastmile_qr_scan", "android": "https://dc.lft.to/lastmile_qr_scan"}, "fusion_lon": 0.0, "type": "electric_bike", "is_reserved": 0, "lon": -76.99370483333334, "is_disabled": 0, "fusion_lat": 0.0, "bike_id": "9bbd4cdaef53ab06b261c77b560aee9a", "name": "9bbd4cdaef53ab06b261c77b560aee9a", "lat": 38.99095466666667}, {"rental_uris": {"ios": "https://dc.lft.to/lastmile_qr_scan", "android": "https://dc.lft.to/lastmile_qr_scan"}, "fusion_lon": 0.0, "type": "electric_scooter", "is_reserved": 0, "lon": -76.99141983333334, "is_disabled": 0, "fusion_lat": 0.0, "bike_id": "a9b4798a2063dd4d5d3846c22b01594c", "name": "a9b4798a2063dd4d5d3846c22b01594c", "lat": 38.88670283333333}, {"rental_uris": {"ios": "https://dc.lft.to/lastmile_qr_scan", "android": "https://dc.lft.to/lastmile_qr_scan"}, "fusion_lon": 0.0, "type": "electric_scooter", "is_reserved": 0, "lon": -77.0325845, "is_disabled": 0, "fusion_lat": 0.0, "bike_id": "a9ea3c56ca103fc1828006c9c7f9bc6b", "name": "a9ea3c56ca103fc1828006c9c7f9bc6b", "lat": 38.937546}, {"rental_uris": {"ios": "https://dc.lft.to/lastmile_qr_scan", "android": "https://dc.lft.to/lastmile_qr_scan"}, "fusion_lon": 0.0, "type": "electric_scooter", "is_reserved": 0, "lon": -77.0318715, "is_disabled": 0, "fusion_lat": 0.0, "bike_id": "b27eb33ff6c784843ba42e1a0e719f8e", "name": "b27eb33ff6c784843ba42e1a0e719f8e", "lat": 38.913321}, {"rental_uris": {"ios": "https://dc.lft.to/lastmile_qr_scan", "android": "https://dc.lft.to/lastmile_qr_scan"}, "fusion_lon": 0.0, "type": "electric_scooter", "is_reserved": 0, "lon": -77.0171595, "is_disabled": 0, "fusion_lat": 0.0, "bike_id": "6e2f74dac0635693fe06e26de73124ae", "name": "6e2f74dac0635693fe06e26de73124ae", "lat": 38.92067566666667}, {"rental_uris": {"ios": "https://dc.lft.to/lastmile_qr_scan", "android": "https://dc.lft.to/lastmile_qr_scan"}, "fusion_lon": 0.0, "type": "electric_bike", "is_reserved": 0, "lon": -77.11842866666667, "is_disabled": 0, "fusion_lat": 0.0, "bike_id": "5861fc5f23946eb85e3e043f437d1bdf", "name": "5861fc5f23946eb85e3e043f437d1bdf", "lat": 38.87734533333333}, {"rental_uris": {"ios": "https://dc.lft.to/lastmile_qr_scan", "android": "https://dc.lft.to/lastmile_qr_scan"}, "fusion_lon": 0.0, "type": "electric_scooter", "is_reserved": 0, "lon": -77.02652783333333, "is_disabled": 0, "fusion_lat": 0.0, "bike_id": "b7b993a256adcd0f9d663b31c75fe7b3", "name": "b7b993a256adcd0f9d663b31c75fe7b3", "lat": 38.881092}, {"rental_uris": {"ios": "https://dc.lft.to/lastmile_qr_scan", "android": "https://dc.lft.to/lastmile_qr_scan"}, "fusion_lon": 0.0, "type": "electric_bike", "is_reserved": 0, "lon": -77.04318333333333, "is_disabled": 0, "fusion_lat": 0.0, "bike_id": "e4d6f4d4860d46b29b8cce1278c69ea7", "name": "e4d6f4d4860d46b29b8cce1278c69ea7", "lat": 38.92787916666666}, {"rental_uris": {"ios": "https://dc.lft.to/lastmile_qr_scan", "android": "https://dc.lft.to/lastmile_qr_scan"}, "fusion_lon": 0.0, "type": "electric_scooter", "is_reserved": 0, "lon": -77.04100433333333, "is_disabled": 0, "fusion_lat": 0.0, "bike_id": "1d0451565bcc7fe2a0fdcb6a13404d2c", "name": "1d0451565bcc7fe2a0fdcb6a13404d2c", "lat": 38.9014265}, {"rental_uris": {"ios": "https://dc.lft.to/lastmile_qr_scan", "android": "https://dc.lft.to/lastmile_qr_scan"}, "fusion_lon": 0.0, "type": "electric_scooter", "is_reserved": 0, "lon": -77.03556983333333, "is_disabled": 0, "fusion_lat": 0.0, "bike_id": "ece31cffbe00148a138eff28fc752ace", "name": "ece31cffbe00148a138eff28fc752ace", "lat": 38.90486966666667}, {"rental_uris": {"ios": "https://dc.lft.to/lastmile_qr_scan", "android": "https://dc.lft.to/lastmile_qr_scan"}, "fusion_lon": 0.0, "type": "electric_scooter", "is_reserved": 0, "lon": -77.02206066666666, "is_disabled": 0, "fusion_lat": 0.0, "bike_id": "fe6f4a2b666eb33ef25d2bf0dc70a8af", "name": "fe6f4a2b666eb33ef25d2bf0dc70a8af", "lat": 38.89974016666667}, {"rental_uris": {"ios": "https://dc.lft.to/lastmile_qr_scan", "android": "https://dc.lft.to/lastmile_qr_scan"}, "fusion_lon": 0.0, "type": "electric_scooter", "is_reserved": 0, "lon": -77.03871766666667, "is_disabled": 0, "fusion_lat": 0.0, "bike_id": "39846ea6b2fdaf7036418111103f337f", "name": "39846ea6b2fdaf7036418111103f337f", "lat": 38.90625633333333}, {"rental_uris": {"ios": "https://dc.lft.to/lastmile_qr_scan", "android": "https://dc.lft.to/lastmile_qr_scan"}, "fusion_lon": 0.0, "type": "electric_scooter", "is_reserved": 0, "lon": -77.03261633333334, "is_disabled": 0, "fusion_lat": 0.0, "bike_id": "9f31dd41a29c26c2f238f0f35aa954f2", "name": "9f31dd41a29c26c2f238f0f35aa954f2", "lat": 38.93541}, {"rental_uris": {"ios": "https://dc.lft.to/lastmile_qr_scan", "android": "https://dc.lft.to/lastmile_qr_scan"}, "fusion_lon": 0.0, "type": "electric_bike", "is_reserved": 0, "lon": -76.9819845, "is_disabled": 0, "fusion_lat": 0.0, "bike_id": "027120751302638dbbe931f74ec17a89", "name": "027120751302638dbbe931f74ec17a89", "lat": 38.98506316666667}, {"rental_uris": {"ios": "https://dc.lft.to/lastmile_qr_scan", "android": "https://dc.lft.to/lastmile_qr_scan"}, "fusion_lon": 0.0, "type": "electric_scooter", "is_reserved": 0, "lon": -77.01084316666666, "is_disabled": 0, "fusion_lat": 0.0, "bike_id": "a2055b19db2c23f6d031f17e44fb0a9b", "name": "a2055b19db2c23f6d031f17e44fb0a9b", "lat": 38.911403}, {"rental_uris": {"ios": "https://dc.lft.to/lastmile_qr_scan", "android": "https://dc.lft.to/lastmile_qr_scan"}, "fusion_lon": 0.0, "type": "electric_scooter", "is_reserved": 0, "lon": -77.03643266666667, "is_disabled": 0, "fusion_lat": 0.0, "bike_id": "0e66bdbb1709e8cbb5c8a8d5627f8cc5", "name": "0e66bdbb1709e8cbb5c8a8d5627f8cc5", "lat": 38.915741}, {"rental_uris": {"ios": "https://dc.lft.to/lastmile_qr_scan", "android": "https://dc.lft.to/lastmile_qr_scan"}, "fusion_lon": 0.0, "type": "electric_scooter", "is_reserved": 0, "lon": -77.026915, "is_disabled": 0, "fusion_lat": 0.0, "bike_id": "9f7c28f30405cbf3cbdab760dd6058d2", "name": "9f7c28f30405cbf3cbdab760dd6058d2", "lat": 38.90671583333334}, {"rental_uris": {"ios": "https://dc.lft.to/lastmile_qr_scan", "android": "https://dc.lft.to/lastmile_qr_scan"}, "fusion_lon": 0.0, "type": "electric_scooter", "is_reserved": 0, "lon": -77.04186683333333, "is_disabled": 0, "fusion_lat": 0.0, "bike_id": "2ae1003ceb70f75d4359dc482adbc8a9", "name": "2ae1003ceb70f75d4359dc482adbc8a9", "lat": 38.9205095}, {"rental_uris": {"ios": "https://dc.lft.to/lastmile_qr_scan", "android": "https://dc.lft.to/lastmile_qr_scan"}, "fusion_lon": 0.0, "type": "electric_scooter", "is_reserved": 0, "lon": -77.01936816666667, "is_disabled": 0, "fusion_lat": 0.0, "bike_id": "76270645af2062d751c70a9d92f37fa0", "name": "76270645af2062d751c70a9d92f37fa0", "lat": 38.876539}, {"rental_uris": {"ios": "https://dc.lft.to/lastmile_qr_scan", "android": "https://dc.lft.to/lastmile_qr_scan"}, "fusion_lon": 0.0, "type": "electric_bike", "is_reserved": 0, "lon": -76.91718966666667, "is_disabled": 0, "fusion_lat": 0.0, "bike_id": "9527267d8d231eafe15c847d87c0d356", "name": "9527267d8d231eafe15c847d87c0d356", "lat": 38.880269166666665}, {"rental_uris": {"ios": "https://dc.lft.to/lastmile_qr_scan", "android": "https://dc.lft.to/lastmile_qr_scan"}, "fusion_lon": 0.0, "type": "electric_scooter", "is_reserved": 0, "lon": -76.994572, "is_disabled": 0, "fusion_lat": 0.0, "bike_id": "f77f54e2b4cd119309ce1d7dbe08d465", "name": "f77f54e2b4cd119309ce1d7dbe08d465", "lat": 38.89727366666666}, {"rental_uris": {"ios": "https://dc.lft.to/lastmile_qr_scan", "android": "https://dc.lft.to/lastmile_qr_scan"}, "fusion_lon": 0.0, "type": "electric_scooter", "is_reserved": 0, "lon": -77.02490066666667, "is_disabled": 0, "fusion_lat": 0.0, "bike_id": "1b0a46463830ac04a713caa6d9ed9268", "name": "1b0a46463830ac04a713caa6d9ed9268", "lat": 38.9180585}, {"rental_uris": {"ios": "https://dc.lft.to/lastmile_qr_scan", "android": "https://dc.lft.to/lastmile_qr_scan"}, "fusion_lon": 0.0, "type": "electric_scooter", "is_reserved": 0, "lon": -77.03274383333333, "is_disabled": 0, "fusion_lat": 0.0, "bike_id": "56581fcb2c1013bdbdcece7d1eb70a8c", "name": "56581fcb2c1013bdbdcece7d1eb70a8c", "lat": 38.9111215}, {"rental_uris": {"ios": "https://dc.lft.to/lastmile_qr_scan", "android": "https://dc.lft.to/lastmile_qr_scan"}, "fusion_lon": 0.0, "type": "electric_scooter", "is_reserved": 0, "lon": -77.0449895, "is_disabled": 0, "fusion_lat": 0.0, "bike_id": "f7236c01d2e99b81485e463eb58d3bae", "name": "f7236c01d2e99b81485e463eb58d3bae", "lat": 38.90738966666667}, {"rental_uris": {"ios": "https://dc.lft.to/lastmile_qr_scan", "android": "https://dc.lft.to/lastmile_qr_scan"}, "fusion_lon": 0.0, "type": "electric_scooter", "is_reserved": 0, "lon": -76.94959266666666, "is_disabled": 0, "fusion_lat": 0.0, "bike_id": "5377aa5524ed72496c1d4a9df6356b3c", "name": "5377aa5524ed72496c1d4a9df6356b3c", "lat": 38.90487816666667}, {"rental_uris": {"ios": "https://dc.lft.to/lastmile_qr_scan", "android": "https://dc.lft.to/lastmile_qr_scan"}, "fusion_lon": 0.0, "type": "electric_scooter", "is_reserved": 0, "lon": -77.0241245, "is_disabled": 0, "fusion_lat": 0.0, "bike_id": "6ed0873d14e393ffa809724a0c38a6ad", "name": "6ed0873d14e393ffa809724a0c38a6ad", "lat": 38.90962}, {"rental_uris": {"ios": "https://dc.lft.to/lastmile_qr_scan", "android": "https://dc.lft.to/lastmile_qr_scan"}, "fusion_lon": 0.0, "type": "electric_bike", "is_reserved": 0, "lon": -77.0716295, "is_disabled": 0, "fusion_lat": 0.0, "bike_id": "ddcf001e66aa9d6e97e0d015b4bd8739", "name": "ddcf001e66aa9d6e97e0d015b4bd8739", "lat": 38.907792666666666}, {"rental_uris": {"ios": "https://dc.lft.to/lastmile_qr_scan", "android": "https://dc.lft.to/lastmile_qr_scan"}, "fusion_lon": 0.0, "type": "electric_scooter", "is_reserved": 0, "lon": -77.038318, "is_disabled": 0, "fusion_lat": 0.0, "bike_id": "feef5967ded55c335efa36ddfe7b96ee", "name": "feef5967ded55c335efa36ddfe7b96ee", "lat": 38.90409233333333}, {"rental_uris": {"ios": "https://dc.lft.to/lastmile_qr_scan", "android": "https://dc.lft.to/lastmile_qr_scan"}, "fusion_lon": 0.0, "type": "electric_scooter", "is_reserved": 0, "lon": -76.98337516666666, "is_disabled": 0, "fusion_lat": 0.0, "bike_id": "ef88117141e71b02661a7b6b5371e5b5", "name": "ef88117141e71b02661a7b6b5371e5b5", "lat": 38.88709}, {"rental_uris": {"ios": "https://dc.lft.to/lastmile_qr_scan", "android": "https://dc.lft.to/lastmile_qr_scan"}, "fusion_lon": 0.0, "type": "electric_scooter", "is_reserved": 0, "lon": -77.03441516666666, "is_disabled": 0, "fusion_lat": 0.0, "bike_id": "385bb2222bf818fb65f0a77b3ba9ba7d", "name": "385bb2222bf818fb65f0a77b3ba9ba7d", "lat": 38.9081565}, {"rental_uris": {"ios": "https://dc.lft.to/lastmile_qr_scan", "android": "https://dc.lft.to/lastmile_qr_scan"}, "fusion_lon": 0.0, "type": "electric_scooter", "is_reserved": 0, "lon": -76.99842833333334, "is_disabled": 0, "fusion_lat": 0.0, "bike_id": "d527c7bcfb10262774eee66392d59419", "name": "d527c7bcfb10262774eee66392d59419", "lat": 38.89624933333333}, {"rental_uris": {"ios": "https://dc.lft.to/lastmile_qr_scan", "android": "https://dc.lft.to/lastmile_qr_scan"}, "fusion_lon": 0.0, "type": "electric_scooter", "is_reserved": 0, "lon": -77.025801, "is_disabled": 0, "fusion_lat": 0.0, "bike_id": "1a500eaeee67b5995fc5927b90ed5548", "name": "1a500eaeee67b5995fc5927b90ed5548", "lat": 38.913440666666666}, {"rental_uris": {"ios": "https://dc.lft.to/lastmile_qr_scan", "android": "https://dc.lft.to/lastmile_qr_scan"}, "fusion_lon": 0.0, "type": "electric_bike", "is_reserved": 0, "lon": -77.00383633333334, "is_disabled": 0, "fusion_lat": 0.0, "bike_id": "475b4e4d4c96062c184010348664525c", "name": "475b4e4d4c96062c184010348664525c", "lat": 38.998635166666666}, {"rental_uris": {"ios": "https://dc.lft.to/lastmile_qr_scan", "android": "https://dc.lft.to/lastmile_qr_scan"}, "fusion_lon": 0.0, "type": "electric_scooter", "is_reserved": 0, "lon": -77.033367, "is_disabled": 0, "fusion_lat": 0.0, "bike_id": "cd90ea5d47a9e4f80fafb113a125cbfe", "name": "cd90ea5d47a9e4f80fafb113a125cbfe", "lat": 38.89731583333333}, {"rental_uris": {"ios": "https://dc.lft.to/lastmile_qr_scan", "android": "https://dc.lft.to/lastmile_qr_scan"}, "fusion_lon": 0.0, "type": "electric_scooter", "is_reserved": 0, "lon": -77.072495, "is_disabled": 0, "fusion_lat": 0.0, "bike_id": "d8001c1c2e33a12aa825f413a1dd54e9", "name": "d8001c1c2e33a12aa825f413a1dd54e9", "lat": 38.9077855}, {"rental_uris": {"ios": "https://dc.lft.to/lastmile_qr_scan", "android": "https://dc.lft.to/lastmile_qr_scan"}, "fusion_lon": 0.0, "type": "electric_scooter", "is_reserved": 0, "lon": -77.00785233333333, "is_disabled": 0, "fusion_lat": 0.0, "bike_id": "11094e2f83555681f43e0e18f14ebef1", "name": "11094e2f83555681f43e0e18f14ebef1", "lat": 38.9156285}, {"rental_uris": {"ios": "https://dc.lft.to/lastmile_qr_scan", "android": "https://dc.lft.to/lastmile_qr_scan"}, "fusion_lon": 0.0, "type": "electric_scooter", "is_reserved": 0, "lon": -77.04335583333334, "is_disabled": 0, "fusion_lat": 0.0, "bike_id": "72fc645399a84bea6f7e554cb1b21a3e", "name": "72fc645399a84bea6f7e554cb1b21a3e", "lat": 38.92498666666667}, {"rental_uris": {"ios": "https://dc.lft.to/lastmile_qr_scan", "android": "https://dc.lft.to/lastmile_qr_scan"}, "fusion_lon": 0.0, "type": "electric_scooter", "is_reserved": 0, "lon": -77.02668733333333, "is_disabled": 0, "fusion_lat": 0.0, "bike_id": "2b6d60525c11665d10bd6b6c530d7679", "name": "2b6d60525c11665d10bd6b6c530d7679", "lat": 38.921692166666666}, {"rental_uris": {"ios": "https://dc.lft.to/lastmile_qr_scan", "android": "https://dc.lft.to/lastmile_qr_scan"}, "fusion_lon": 0.0, "type": "electric_scooter", "is_reserved": 0, "lon": -77.03185266666667, "is_disabled": 0, "fusion_lat": 0.0, "bike_id": "c47b25dcf9ae9dd92ba754f05ddf6780", "name": "c47b25dcf9ae9dd92ba754f05ddf6780", "lat": 38.9133075}, {"rental_uris": {"ios": "https://dc.lft.to/lastmile_qr_scan", "android": "https://dc.lft.to/lastmile_qr_scan"}, "fusion_lon": 0.0, "type": "electric_scooter", "is_reserved": 0, "lon": -77.02542283333334, "is_disabled": 0, "fusion_lat": 0.0, "bike_id": "7280aa512cb8b04fa471218b838f3fc4", "name": "7280aa512cb8b04fa471218b838f3fc4", "lat": 38.892204}, {"rental_uris": {"ios": "https://dc.lft.to/lastmile_qr_scan", "android": "https://dc.lft.to/lastmile_qr_scan"}, "fusion_lon": 0.0, "type": "electric_scooter", "is_reserved": 0, "lon": -77.03371716666666, "is_disabled": 0, "fusion_lat": 0.0, "bike_id": "53e23ad7f38728572347698c0a39c14e", "name": "53e23ad7f38728572347698c0a39c14e", "lat": 38.89329566666667}, {"rental_uris": {"ios": "https://dc.lft.to/lastmile_qr_scan", "android": "https://dc.lft.to/lastmile_qr_scan"}, "fusion_lon": 0.0, "type": "electric_scooter", "is_reserved": 0, "lon": -77.03143266666666, "is_disabled": 0, "fusion_lat": 0.0, "bike_id": "3dc47c93f12f7ed1e222f0c6c67e70d8", "name": "3dc47c93f12f7ed1e222f0c6c67e70d8", "lat": 38.908997}, {"rental_uris": {"ios": "https://dc.lft.to/lastmile_qr_scan", "android": "https://dc.lft.to/lastmile_qr_scan"}, "fusion_lon": 0.0, "type": "electric_scooter", "is_reserved": 0, "lon": -76.98775933333333, "is_disabled": 0, "fusion_lat": 0.0, "bike_id": "5cf975b501262e32198efd37ae8fee1a", "name": "5cf975b501262e32198efd37ae8fee1a", "lat": 38.910763}, {"rental_uris": {"ios": "https://dc.lft.to/lastmile_qr_scan", "android": "https://dc.lft.to/lastmile_qr_scan"}, "fusion_lon": 0.0, "type": "electric_scooter", "is_reserved": 0, "lon": -76.986918, "is_disabled": 0, "fusion_lat": 0.0, "bike_id": "47d3f36de0eae747ef56cd32beeb42a3", "name": "47d3f36de0eae747ef56cd32beeb42a3", "lat": 38.907014333333336}, {"rental_uris": {"ios": "https://dc.lft.to/lastmile_qr_scan", "android": "https://dc.lft.to/lastmile_qr_scan"}, "fusion_lon": 0.0, "type": "electric_scooter", "is_reserved": 0, "lon": -77.07248683333333, "is_disabled": 0, "fusion_lat": 0.0, "bike_id": "ec336f8050898a3d87b3b00090d5a703", "name": "ec336f8050898a3d87b3b00090d5a703", "lat": 38.90780383333333}, {"rental_uris": {"ios": "https://dc.lft.to/lastmile_qr_scan", "android": "https://dc.lft.to/lastmile_qr_scan"}, "fusion_lon": 0.0, "type": "electric_scooter", "is_reserved": 0, "lon": -77.00176133333333, "is_disabled": 0, "fusion_lat": 0.0, "bike_id": "5c7e92196a42896c694210be8feace79", "name": "5c7e92196a42896c694210be8feace79", "lat": 38.900326166666666}, {"rental_uris": {"ios": "https://dc.lft.to/lastmile_qr_scan", "android": "https://dc.lft.to/lastmile_qr_scan"}, "fusion_lon": 0.0, "type": "electric_scooter", "is_reserved": 0, "lon": -77.04289033333333, "is_disabled": 0, "fusion_lat": 0.0, "bike_id": "0b1c63a39811c910fab2a519bf0f64a6", "name": "0b1c63a39811c910fab2a519bf0f64a6", "lat": 38.92242133333333}, {"rental_uris": {"ios": "https://dc.lft.to/lastmile_qr_scan", "android": "https://dc.lft.to/lastmile_qr_scan"}, "fusion_lon": 0.0, "type": "electric_scooter", "is_reserved": 0, "lon": -77.0179535, "is_disabled": 0, "fusion_lat": 0.0, "bike_id": "99499c6b8abb1a8c7b72996b0412a2a4", "name": "99499c6b8abb1a8c7b72996b0412a2a4", "lat": 38.919472999999996}, {"rental_uris": {"ios": "https://dc.lft.to/lastmile_qr_scan", "android": "https://dc.lft.to/lastmile_qr_scan"}, "fusion_lon": 0.0, "type": "electric_scooter", "is_reserved": 0, "lon": -77.03926533333333, "is_disabled": 0, "fusion_lat": 0.0, "bike_id": "441847eb301f9e4313da5a6d691325de", "name": "441847eb301f9e4313da5a6d691325de", "lat": 38.90364683333333}, {"rental_uris": {"ios": "https://dc.lft.to/lastmile_qr_scan", "android": "https://dc.lft.to/lastmile_qr_scan"}, "fusion_lon": 0.0, "type": "electric_scooter", "is_reserved": 0, "lon": -77.0234875, "is_disabled": 0, "fusion_lat": 0.0, "bike_id": "edb5e0e08aa6678688a08d1d1c4ef1b2", "name": "edb5e0e08aa6678688a08d1d1c4ef1b2", "lat": 38.879169166666664}, {"rental_uris": {"ios": "https://dc.lft.to/lastmile_qr_scan", "android": "https://dc.lft.to/lastmile_qr_scan"}, "fusion_lon": 0.0, "type": "electric_scooter", "is_reserved": 0, "lon": -77.00658483333333, "is_disabled": 0, "fusion_lat": 0.0, "bike_id": "baf6d93b9d98b3ef2cc4b687e4cc31f0", "name": "baf6d93b9d98b3ef2cc4b687e4cc31f0", "lat": 38.944615666666664}, {"rental_uris": {"ios": "https://dc.lft.to/lastmile_qr_scan", "android": "https://dc.lft.to/lastmile_qr_scan"}, "fusion_lon": 0.0, "type": "electric_scooter", "is_reserved": 0, "lon": -77.03329783333334, "is_disabled": 0, "fusion_lat": 0.0, "bike_id": "c6a42949c38ea6baa586283d0e5ae1d3", "name": "c6a42949c38ea6baa586283d0e5ae1d3", "lat": 38.89914683333333}, {"rental_uris": {"ios": "https://dc.lft.to/lastmile_qr_scan", "android": "https://dc.lft.to/lastmile_qr_scan"}, "fusion_lon": 0.0, "type": "electric_bike", "is_reserved": 0, "lon": -77.07658183333334, "is_disabled": 0, "fusion_lat": 0.0, "bike_id": "48bed4c44cada668761d62e3569e31c6", "name": "48bed4c44cada668761d62e3569e31c6", "lat": 38.80979966666666}, {"rental_uris": {"ios": "https://dc.lft.to/lastmile_qr_scan", "android": "https://dc.lft.to/lastmile_qr_scan"}, "fusion_lon": 0.0, "type": "electric_scooter", "is_reserved": 0, "lon": -77.03337816666667, "is_disabled": 0, "fusion_lat": 0.0, "bike_id": "5f3d02d824572bc16ac83b00ad7059ad", "name": "5f3d02d824572bc16ac83b00ad7059ad", "lat": 38.919198}, {"rental_uris": {"ios": "https://dc.lft.to/lastmile_qr_scan", "android": "https://dc.lft.to/lastmile_qr_scan"}, "fusion_lon": 0.0, "type": "electric_scooter", "is_reserved": 0, "lon": -77.060009, "is_disabled": 0, "fusion_lat": 0.0, "bike_id": "31cd509d1f466953d39760fe36eed9d8", "name": "31cd509d1f466953d39760fe36eed9d8", "lat": 38.903632333333334}, {"rental_uris": {"ios": "https://dc.lft.to/lastmile_qr_scan", "android": "https://dc.lft.to/lastmile_qr_scan"}, "fusion_lon": 0.0, "type": "electric_scooter", "is_reserved": 0, "lon": -77.0213335, "is_disabled": 0, "fusion_lat": 0.0, "bike_id": "39c809e934c44d5cf936aff5d55cf366", "name": "39c809e934c44d5cf936aff5d55cf366", "lat": 38.9240915}, {"rental_uris": {"ios": "https://dc.lft.to/lastmile_qr_scan", "android": "https://dc.lft.to/lastmile_qr_scan"}, "fusion_lon": 0.0, "type": "electric_scooter", "is_reserved": 0, "lon": -76.97815866666667, "is_disabled": 0, "fusion_lat": 0.0, "bike_id": "bfffef39682b42d2afebb62107eaf842", "name": "bfffef39682b42d2afebb62107eaf842", "lat": 38.89401266666667}, {"rental_uris": {"ios": "https://dc.lft.to/lastmile_qr_scan", "android": "https://dc.lft.to/lastmile_qr_scan"}, "fusion_lon": 0.0, "type": "electric_scooter", "is_reserved": 0, "lon": -77.02403983333333, "is_disabled": 0, "fusion_lat": 0.0, "bike_id": "2783f74df9c7ea6bc2de634548457dda", "name": "2783f74df9c7ea6bc2de634548457dda", "lat": 38.9170715}, {"rental_uris": {"ios": "https://dc.lft.to/lastmile_qr_scan", "android": "https://dc.lft.to/lastmile_qr_scan"}, "fusion_lon": 0.0, "type": "electric_scooter", "is_reserved": 0, "lon": -77.01608633333333, "is_disabled": 0, "fusion_lat": 0.0, "bike_id": "57cf6c0fd5e09d79d4c214771913025a", "name": "57cf6c0fd5e09d79d4c214771913025a", "lat": 38.8996755}, {"rental_uris": {"ios": "https://dc.lft.to/lastmile_qr_scan", "android": "https://dc.lft.to/lastmile_qr_scan"}, "fusion_lon": 0.0, "type": "electric_scooter", "is_reserved": 0, "lon": -76.9870805, "is_disabled": 0, "fusion_lat": 0.0, "bike_id": "bf9ffb98d3df7407e6347f27e749f114", "name": "bf9ffb98d3df7407e6347f27e749f114", "lat": 38.900615}, {"rental_uris": {"ios": "https://dc.lft.to/lastmile_qr_scan", "android": "https://dc.lft.to/lastmile_qr_scan"}, "fusion_lon": 0.0, "type": "electric_scooter", "is_reserved": 0, "lon": -77.0949445, "is_disabled": 0, "fusion_lat": 0.0, "bike_id": "7232011568c28f9144c21559b3e8eea9", "name": "7232011568c28f9144c21559b3e8eea9", "lat": 38.94488066666667}, {"rental_uris": {"ios": "https://dc.lft.to/lastmile_qr_scan", "android": "https://dc.lft.to/lastmile_qr_scan"}, "fusion_lon": 0.0, "type": "electric_scooter", "is_reserved": 0, "lon": -77.02847933333334, "is_disabled": 0, "fusion_lat": 0.0, "bike_id": "00906458337d4dfc0024cb6e0ca116c0", "name": "00906458337d4dfc0024cb6e0ca116c0", "lat": 38.896331}, {"rental_uris": {"ios": "https://dc.lft.to/lastmile_qr_scan", "android": "https://dc.lft.to/lastmile_qr_scan"}, "fusion_lon": 0.0, "type": "electric_scooter", "is_reserved": 0, "lon": -77.01913783333333, "is_disabled": 0, "fusion_lat": 0.0, "bike_id": "8f592564f635d424e0c2f8449e10ce8b", "name": "8f592564f635d424e0c2f8449e10ce8b", "lat": 38.89726866666667}, {"rental_uris": {"ios": "https://dc.lft.to/lastmile_qr_scan", "android": "https://dc.lft.to/lastmile_qr_scan"}, "fusion_lon": 0.0, "type": "electric_scooter", "is_reserved": 0, "lon": -77.02240383333333, "is_disabled": 0, "fusion_lat": 0.0, "bike_id": "4f95f3182a1875b8802a9ebe26d183aa", "name": "4f95f3182a1875b8802a9ebe26d183aa", "lat": 38.924646}, {"rental_uris": {"ios": "https://dc.lft.to/lastmile_qr_scan", "android": "https://dc.lft.to/lastmile_qr_scan"}, "fusion_lon": 0.0, "type": "electric_scooter", "is_reserved": 0, "lon": -77.01647283333334, "is_disabled": 0, "fusion_lat": 0.0, "bike_id": "870534b86797f9537c6312eeeb8d8eef", "name": "870534b86797f9537c6312eeeb8d8eef", "lat": 38.877078166666664}, {"rental_uris": {"ios": "https://dc.lft.to/lastmile_qr_scan", "android": "https://dc.lft.to/lastmile_qr_scan"}, "fusion_lon": 0.0, "type": "electric_scooter", "is_reserved": 0, "lon": -77.0318725, "is_disabled": 0, "fusion_lat": 0.0, "bike_id": "2c982cc521695a73411cb27b49eee304", "name": "2c982cc521695a73411cb27b49eee304", "lat": 38.9206235}, {"rental_uris": {"ios": "https://dc.lft.to/lastmile_qr_scan", "android": "https://dc.lft.to/lastmile_qr_scan"}, "fusion_lon": 0.0, "type": "electric_bike", "is_reserved": 0, "lon": -76.9860665, "is_disabled": 0, "fusion_lat": 0.0, "bike_id": "a169c15ed01986fc302494de39681b34", "name": "a169c15ed01986fc302494de39681b34", "lat": 38.9298115}, {"rental_uris": {"ios": "https://dc.lft.to/lastmile_qr_scan", "android": "https://dc.lft.to/lastmile_qr_scan"}, "fusion_lon": 0.0, "type": "electric_scooter", "is_reserved": 0, "lon": -77.0383985, "is_disabled": 0, "fusion_lat": 0.0, "bike_id": "f99de25f6d34a3bdfc6b5a5daa9157c5", "name": "f99de25f6d34a3bdfc6b5a5daa9157c5", "lat": 38.92654733333333}, {"rental_uris": {"ios": "https://dc.lft.to/lastmile_qr_scan", "android": "https://dc.lft.to/lastmile_qr_scan"}, "fusion_lon": 0.0, "type": "electric_scooter", "is_reserved": 0, "lon": -77.01259, "is_disabled": 0, "fusion_lat": 0.0, "bike_id": "dab26aa47b38d9788aab9cadf9f3f612", "name": "dab26aa47b38d9788aab9cadf9f3f612", "lat": 38.8982085}, {"rental_uris": {"ios": "https://dc.lft.to/lastmile_qr_scan", "android": "https://dc.lft.to/lastmile_qr_scan"}, "fusion_lon": 0.0, "type": "electric_scooter", "is_reserved": 0, "lon": -77.03997066666666, "is_disabled": 0, "fusion_lat": 0.0, "bike_id": "6faf45e1fb49c1a612b140ff31f775da", "name": "6faf45e1fb49c1a612b140ff31f775da", "lat": 38.88871116666667}, {"rental_uris": {"ios": "https://dc.lft.to/lastmile_qr_scan", "android": "https://dc.lft.to/lastmile_qr_scan"}, "fusion_lon": 0.0, "type": "electric_scooter", "is_reserved": 0, "lon": -76.9915895, "is_disabled": 0, "fusion_lat": 0.0, "bike_id": "6661cd2a6890e5331122755fb33319fa", "name": "6661cd2a6890e5331122755fb33319fa", "lat": 38.90036966666667}, {"rental_uris": {"ios": "https://dc.lft.to/lastmile_qr_scan", "android": "https://dc.lft.to/lastmile_qr_scan"}, "fusion_lon": 0.0, "type": "electric_scooter", "is_reserved": 0, "lon": -77.02489166666666, "is_disabled": 0, "fusion_lat": 0.0, "bike_id": "cd2144c269b8bed0cd28cea0c58e2bb7", "name": "cd2144c269b8bed0cd28cea0c58e2bb7", "lat": 38.91807033333333}, {"rental_uris": {"ios": "https://dc.lft.to/lastmile_qr_scan", "android": "https://dc.lft.to/lastmile_qr_scan"}, "fusion_lon": 0.0, "type": "electric_bike", "is_reserved": 0, "lon": -77.08364866666666, "is_disabled": 0, "fusion_lat": 0.0, "bike_id": "08af1755aa77221e7d3953c89484589c", "name": "08af1755aa77221e7d3953c89484589c", "lat": 38.83271466666667}, {"rental_uris": {"ios": "https://dc.lft.to/lastmile_qr_scan", "android": "https://dc.lft.to/lastmile_qr_scan"}, "fusion_lon": 0.0, "type": "electric_scooter", "is_reserved": 0, "lon": -76.98154366666667, "is_disabled": 0, "fusion_lat": 0.0, "bike_id": "412d71d1b5844c6881a29ac0920aba2d", "name": "412d71d1b5844c6881a29ac0920aba2d", "lat": 38.904432166666666}, {"rental_uris": {"ios": "https://dc.lft.to/lastmile_qr_scan", "android": "https://dc.lft.to/lastmile_qr_scan"}, "fusion_lon": 0.0, "type": "electric_scooter", "is_reserved": 0, "lon": -77.00301383333333, "is_disabled": 0, "fusion_lat": 0.0, "bike_id": "7d7b22e84e5223fb8810e64b1aec0113", "name": "7d7b22e84e5223fb8810e64b1aec0113", "lat": 38.8765765}, {"rental_uris": {"ios": "https://dc.lft.to/lastmile_qr_scan", "android": "https://dc.lft.to/lastmile_qr_scan"}, "fusion_lon": 0.0, "type": "electric_scooter", "is_reserved": 0, "lon": -77.01549933333334, "is_disabled": 0, "fusion_lat": 0.0, "bike_id": "73bb666d4f63c65ef06ca347ce79b3ea", "name": "73bb666d4f63c65ef06ca347ce79b3ea", "lat": 38.891723166666665}, {"rental_uris": {"ios": "https://dc.lft.to/lastmile_qr_scan", "android": "https://dc.lft.to/lastmile_qr_scan"}, "fusion_lon": 0.0, "type": "electric_scooter", "is_reserved": 0, "lon": -77.00431666666667, "is_disabled": 0, "fusion_lat": 0.0, "bike_id": "4dd3b64826c4c1367187e9de492182a5", "name": "4dd3b64826c4c1367187e9de492182a5", "lat": 38.920941666666664}, {"rental_uris": {"ios": "https://dc.lft.to/lastmile_qr_scan", "android": "https://dc.lft.to/lastmile_qr_scan"}, "fusion_lon": 0.0, "type": "electric_scooter", "is_reserved": 0, "lon": -77.02185833333333, "is_disabled": 0, "fusion_lat": 0.0, "bike_id": "ac69d075efa35ba5986aa332c7e97db7", "name": "ac69d075efa35ba5986aa332c7e97db7", "lat": 38.899769666666664}, {"rental_uris": {"ios": "https://dc.lft.to/lastmile_qr_scan", "android": "https://dc.lft.to/lastmile_qr_scan"}, "fusion_lon": 0.0, "type": "electric_scooter", "is_reserved": 0, "lon": -77.07231083333333, "is_disabled": 0, "fusion_lat": 0.0, "bike_id": "3a4594e446c6202f5a0d9c5c810f487b", "name": "3a4594e446c6202f5a0d9c5c810f487b", "lat": 38.93867183333333}, {"rental_uris": {"ios": "https://dc.lft.to/lastmile_qr_scan", "android": "https://dc.lft.to/lastmile_qr_scan"}, "fusion_lon": 0.0, "type": "electric_scooter", "is_reserved": 0, "lon": -77.00888483333334, "is_disabled": 0, "fusion_lat": 0.0, "bike_id": "97c384c6ec094a69d129de6648d81039", "name": "97c384c6ec094a69d129de6648d81039", "lat": 38.875326}, {"rental_uris": {"ios": "https://dc.lft.to/lastmile_qr_scan", "android": "https://dc.lft.to/lastmile_qr_scan"}, "fusion_lon": 0.0, "type": "electric_scooter", "is_reserved": 0, "lon": -77.019383, "is_disabled": 0, "fusion_lat": 0.0, "bike_id": "e286063d395dc6b65e22da8fc69980bc", "name": "e286063d395dc6b65e22da8fc69980bc", "lat": 38.924341166666665}, {"rental_uris": {"ios": "https://dc.lft.to/lastmile_qr_scan", "android": "https://dc.lft.to/lastmile_qr_scan"}, "fusion_lon": 0.0, "type": "electric_scooter", "is_reserved": 0, "lon": -77.0392255, "is_disabled": 0, "fusion_lat": 0.0, "bike_id": "56ac50b2d57bc1c68521e167b0cc7931", "name": "56ac50b2d57bc1c68521e167b0cc7931", "lat": 38.921056}, {"rental_uris": {"ios": "https://dc.lft.to/lastmile_qr_scan", "android": "https://dc.lft.to/lastmile_qr_scan"}, "fusion_lon": 0.0, "type": "electric_scooter", "is_reserved": 0, "lon": -77.03802183333333, "is_disabled": 0, "fusion_lat": 0.0, "bike_id": "4b1f9a4541fbeabd9728cdff8b732c6f", "name": "4b1f9a4541fbeabd9728cdff8b732c6f", "lat": 38.930340666666666}, {"rental_uris": {"ios": "https://dc.lft.to/lastmile_qr_scan", "android": "https://dc.lft.to/lastmile_qr_scan"}, "fusion_lon": 0.0, "type": "electric_scooter", "is_reserved": 0, "lon": -77.0202775, "is_disabled": 0, "fusion_lat": 0.0, "bike_id": "633b4b55afe40221e0c6359e16ad8991", "name": "633b4b55afe40221e0c6359e16ad8991", "lat": 38.924446333333336}, {"rental_uris": {"ios": "https://dc.lft.to/lastmile_qr_scan", "android": "https://dc.lft.to/lastmile_qr_scan"}, "fusion_lon": 0.0, "type": "electric_scooter", "is_reserved": 0, "lon": -77.00701183333334, "is_disabled": 0, "fusion_lat": 0.0, "bike_id": "52a82cecf22db3d19c095e9076a7dcaf", "name": "52a82cecf22db3d19c095e9076a7dcaf", "lat": 38.915620833333335}, {"rental_uris": {"ios": "https://dc.lft.to/lastmile_qr_scan", "android": "https://dc.lft.to/lastmile_qr_scan"}, "fusion_lon": 0.0, "type": "electric_scooter", "is_reserved": 0, "lon": -77.07244766666666, "is_disabled": 0, "fusion_lat": 0.0, "bike_id": "86eb6b481465fe9513782ee85b3f7a0a", "name": "86eb6b481465fe9513782ee85b3f7a0a", "lat": 38.907810166666664}, {"rental_uris": {"ios": "https://dc.lft.to/lastmile_qr_scan", "android": "https://dc.lft.to/lastmile_qr_scan"}, "fusion_lon": 0.0, "type": "electric_scooter", "is_reserved": 0, "lon": -77.04453366666667, "is_disabled": 0, "fusion_lat": 0.0, "bike_id": "5dfa9dec60fefcb8977aa41845964b6d", "name": "5dfa9dec60fefcb8977aa41845964b6d", "lat": 38.923275}, {"rental_uris": {"ios": "https://dc.lft.to/lastmile_qr_scan", "android": "https://dc.lft.to/lastmile_qr_scan"}, "fusion_lon": 0.0, "type": "electric_scooter", "is_reserved": 0, "lon": -76.98069966666667, "is_disabled": 0, "fusion_lat": 0.0, "bike_id": "b023332497b7364d6f4c39e64715d2b6", "name": "b023332497b7364d6f4c39e64715d2b6", "lat": 38.914879166666665}, {"rental_uris": {"ios": "https://dc.lft.to/lastmile_qr_scan", "android": "https://dc.lft.to/lastmile_qr_scan"}, "fusion_lon": 0.0, "type": "electric_scooter", "is_reserved": 0, "lon": -77.01501683333333, "is_disabled": 0, "fusion_lat": 0.0, "bike_id": "c9172e3833d8e925bc4142667a855801", "name": "c9172e3833d8e925bc4142667a855801", "lat": 38.92668283333333}, {"rental_uris": {"ios": "https://dc.lft.to/lastmile_qr_scan", "android": "https://dc.lft.to/lastmile_qr_scan"}, "fusion_lon": 0.0, "type": "electric_scooter", "is_reserved": 0, "lon": -77.0270195, "is_disabled": 0, "fusion_lat": 0.0, "bike_id": "afd6625a3b115d82563c66ca9c342e64", "name": "afd6625a3b115d82563c66ca9c342e64", "lat": 38.91721366666667}, {"rental_uris": {"ios": "https://dc.lft.to/lastmile_qr_scan", "android": "https://dc.lft.to/lastmile_qr_scan"}, "fusion_lon": 0.0, "type": "electric_bike", "is_reserved": 0, "lon": -77.07056716666666, "is_disabled": 0, "fusion_lat": 0.0, "bike_id": "a95615901a168ca31f99d32853529a16", "name": "a95615901a168ca31f99d32853529a16", "lat": 38.89760483333333}, {"rental_uris": {"ios": "https://dc.lft.to/lastmile_qr_scan", "android": "https://dc.lft.to/lastmile_qr_scan"}, "fusion_lon": 0.0, "type": "electric_scooter", "is_reserved": 0, "lon": -77.03489083333334, "is_disabled": 0, "fusion_lat": 0.0, "bike_id": "a72fced7c774236e6c022e8578bb7295", "name": "a72fced7c774236e6c022e8578bb7295", "lat": 38.923365}, {"rental_uris": {"ios": "https://dc.lft.to/lastmile_qr_scan", "android": "https://dc.lft.to/lastmile_qr_scan"}, "fusion_lon": 0.0, "type": "electric_scooter", "is_reserved": 0, "lon": -77.02227066666667, "is_disabled": 0, "fusion_lat": 0.0, "bike_id": "fb80d5a88fdd5faf50b3bb5ba7773172", "name": "fb80d5a88fdd5faf50b3bb5ba7773172", "lat": 38.912699333333336}, {"rental_uris": {"ios": "https://dc.lft.to/lastmile_qr_scan", "android": "https://dc.lft.to/lastmile_qr_scan"}, "fusion_lon": 0.0, "type": "electric_scooter", "is_reserved": 0, "lon": -77.02344416666666, "is_disabled": 0, "fusion_lat": 0.0, "bike_id": "cf96910b644633a64da56e9826a172e7", "name": "cf96910b644633a64da56e9826a172e7", "lat": 38.9353535}, {"rental_uris": {"ios": "https://dc.lft.to/lastmile_qr_scan", "android": "https://dc.lft.to/lastmile_qr_scan"}, "fusion_lon": 0.0, "type": "electric_scooter", "is_reserved": 0, "lon": -76.98613166666667, "is_disabled": 0, "fusion_lat": 0.0, "bike_id": "2824092ec177a421f9a2097048113084", "name": "2824092ec177a421f9a2097048113084", "lat": 38.90347166666667}, {"rental_uris": {"ios": "https://dc.lft.to/lastmile_qr_scan", "android": "https://dc.lft.to/lastmile_qr_scan"}, "fusion_lon": 0.0, "type": "electric_scooter", "is_reserved": 0, "lon": -76.98378783333334, "is_disabled": 0, "fusion_lat": 0.0, "bike_id": "01dc88d8ff7dcfa249eb04d5264afaed", "name": "01dc88d8ff7dcfa249eb04d5264afaed", "lat": 38.88711516666667}, {"rental_uris": {"ios": "https://dc.lft.to/lastmile_qr_scan", "android": "https://dc.lft.to/lastmile_qr_scan"}, "fusion_lon": 0.0, "type": "electric_scooter", "is_reserved": 0, "lon": -77.0366245, "is_disabled": 0, "fusion_lat": 0.0, "bike_id": "633c87dc3b54a26f25f833ff30b22bec", "name": "633c87dc3b54a26f25f833ff30b22bec", "lat": 38.9232515}, {"rental_uris": {"ios": "https://dc.lft.to/lastmile_qr_scan", "android": "https://dc.lft.to/lastmile_qr_scan"}, "fusion_lon": 0.0, "type": "electric_scooter", "is_reserved": 0, "lon": -77.04492383333333, "is_disabled": 0, "fusion_lat": 0.0, "bike_id": "b6bb3028c7022f2d9082a02eff7e75a3", "name": "b6bb3028c7022f2d9082a02eff7e75a3", "lat": 38.9109895}, {"rental_uris": {"ios": "https://dc.lft.to/lastmile_qr_scan", "android": "https://dc.lft.to/lastmile_qr_scan"}, "fusion_lon": 0.0, "type": "electric_scooter", "is_reserved": 0, "lon": -77.007804, "is_disabled": 0, "fusion_lat": 0.0, "bike_id": "41b7d7daeef95d5b8a993a07a358c1fd", "name": "41b7d7daeef95d5b8a993a07a358c1fd", "lat": 38.911914333333335}, {"rental_uris": {"ios": "https://dc.lft.to/lastmile_qr_scan", "android": "https://dc.lft.to/lastmile_qr_scan"}, "fusion_lon": 0.0, "type": "electric_scooter", "is_reserved": 0, "lon": -76.92307, "is_disabled": 0, "fusion_lat": 0.0, "bike_id": "bf46e77aac5c00937870bb27421f8523", "name": "bf46e77aac5c00937870bb27421f8523", "lat": 38.893877833333335}, {"rental_uris": {"ios": "https://dc.lft.to/lastmile_qr_scan", "android": "https://dc.lft.to/lastmile_qr_scan"}, "fusion_lon": 0.0, "type": "electric_scooter", "is_reserved": 0, "lon": -77.03495716666667, "is_disabled": 0, "fusion_lat": 0.0, "bike_id": "87a81541fcfbb73e93b29dc5daae5dd5", "name": "87a81541fcfbb73e93b29dc5daae5dd5", "lat": 38.924810666666666}, {"rental_uris": {"ios": "https://dc.lft.to/lastmile_qr_scan", "android": "https://dc.lft.to/lastmile_qr_scan"}, "fusion_lon": 0.0, "type": "electric_scooter", "is_reserved": 0, "lon": -77.026065, "is_disabled": 0, "fusion_lat": 0.0, "bike_id": "6bbd709829040af2ca4963fe680f3471", "name": "6bbd709829040af2ca4963fe680f3471", "lat": 38.8987275}, {"rental_uris": {"ios": "https://dc.lft.to/lastmile_qr_scan", "android": "https://dc.lft.to/lastmile_qr_scan"}, "fusion_lon": 0.0, "type": "electric_scooter", "is_reserved": 0, "lon": -77.021581, "is_disabled": 0, "fusion_lat": 0.0, "bike_id": "2a1458fec10c14841a84964963ff688a", "name": "2a1458fec10c14841a84964963ff688a", "lat": 38.9282925}, {"rental_uris": {"ios": "https://dc.lft.to/lastmile_qr_scan", "android": "https://dc.lft.to/lastmile_qr_scan"}, "fusion_lon": 0.0, "type": "electric_scooter", "is_reserved": 0, "lon": -77.07115233333333, "is_disabled": 0, "fusion_lat": 0.0, "bike_id": "c537aee28473419c38edff154a47503c", "name": "c537aee28473419c38edff154a47503c", "lat": 38.91972616666666}, {"rental_uris": {"ios": "https://dc.lft.to/lastmile_qr_scan", "android": "https://dc.lft.to/lastmile_qr_scan"}, "fusion_lon": 0.0, "type": "electric_scooter", "is_reserved": 0, "lon": -77.04343616666667, "is_disabled": 0, "fusion_lat": 0.0, "bike_id": "cd7be992264513168036e7d773d5ba21", "name": "cd7be992264513168036e7d773d5ba21", "lat": 38.90137816666667}, {"rental_uris": {"ios": "https://dc.lft.to/lastmile_qr_scan", "android": "https://dc.lft.to/lastmile_qr_scan"}, "fusion_lon": 0.0, "type": "electric_scooter", "is_reserved": 0, "lon": -77.0294555, "is_disabled": 0, "fusion_lat": 0.0, "bike_id": "44b7be7a9bdaaaa92a6b9814300097f4", "name": "44b7be7a9bdaaaa92a6b9814300097f4", "lat": 38.939734333333334}, {"rental_uris": {"ios": "https://dc.lft.to/lastmile_qr_scan", "android": "https://dc.lft.to/lastmile_qr_scan"}, "fusion_lon": 0.0, "type": "electric_scooter", "is_reserved": 0, "lon": -77.06020916666667, "is_disabled": 0, "fusion_lat": 0.0, "bike_id": "6429cac55c0cc7546326da7a9210c07d", "name": "6429cac55c0cc7546326da7a9210c07d", "lat": 38.9048165}, {"rental_uris": {"ios": "https://dc.lft.to/lastmile_qr_scan", "android": "https://dc.lft.to/lastmile_qr_scan"}, "fusion_lon": 0.0, "type": "electric_bike", "is_reserved": 0, "lon": -77.00131816666666, "is_disabled": 0, "fusion_lat": 0.0, "bike_id": "41ee76fe7aeb6d990703b298e740ece5", "name": "41ee76fe7aeb6d990703b298e740ece5", "lat": 38.99499016666667}, {"rental_uris": {"ios": "https://dc.lft.to/lastmile_qr_scan", "android": "https://dc.lft.to/lastmile_qr_scan"}, "fusion_lon": 0.0, "type": "electric_scooter", "is_reserved": 0, "lon": -76.92789216666667, "is_disabled": 0, "fusion_lat": 0.0, "bike_id": "b708a5207706406bb7fe7c320ca9ba56", "name": "b708a5207706406bb7fe7c320ca9ba56", "lat": 38.88364283333333}, {"rental_uris": {"ios": "https://dc.lft.to/lastmile_qr_scan", "android": "https://dc.lft.to/lastmile_qr_scan"},