{"data": {"bikes": [{"lon": -77.029822, "is_disabled": 0, "lat": 38.907323, "fusion_lat": 0.0, "is_reserved": 0, "rental_uris": {"ios": "https://dc.lft.to/lastmile_qr_scan", "android": "https://dc.lft.to/lastmile_qr_scan"}, "fusion_lon": 0.0, "type": "electric_scooter", "bike_id": "0951719098e2f7b7cb1f9c39132fba57", "name": "0951719098e2f7b7cb1f9c39132fba57"}, {"lon": -77.02307583333334, "is_disabled": 0, "lat": 38.92889133333333, "fusion_lat": 0.0, "is_reserved": 0, "rental_uris": {"ios": "https://dc.lft.to/lastmile_qr_scan", "android": "https://dc.lft.to/lastmile_qr_scan"}, "fusion_lon": 0.0, "type": "electric_scooter", "bike_id": "359f955aeba1d48d996bf2631d3064a0", "name": "359f955aeba1d48d996bf2631d3064a0"}, {"lon": -77.02825183333333, "is_disabled": 0, "lat": 38.886255, "fusion_lat": 0.0, "is_reserved": 0, "rental_uris": {"ios": "https://dc.lft.to/lastmile_qr_scan", "android": "https://dc.lft.to/lastmile_qr_scan"}, "fusion_lon": 0.0, "type": "electric_scooter", "bike_id": "e966b171913de6b34a27fbaccf6b214f", "name": "e966b171913de6b34a27fbaccf6b214f"}, {"lon": -76.9997635, "is_disabled": 0, "lat": 38.908389166666666, "fusion_lat": 0.0, "is_reserved": 0, "rental_uris": {"ios": "https://dc.lft.to/lastmile_qr_scan", "android": "https://dc.lft.to/lastmile_qr_scan"}, "fusion_lon": 0.0, "type": "electric_scooter", "bike_id": "8116be8531cb23a66fed9741c89df96f", "name": "8116be8531cb23a66fed9741c89df96f"}, {"lon": -77.04686283333334, "is_disabled": 0, "lat": 38.89224383333333, "fusion_lat": 0.0, "is_reserved": 0, "rental_uris": {"ios": "https://dc.lft.to/lastmile_qr_scan", "android": "https://dc.lft.to/lastmile_qr_scan"}, "fusion_lon": 0.0, "type": "electric_scooter", "bike_id": "55893482eb66ac879546249cd160af4e", "name": "55893482eb66ac879546249cd160af4e"}, {"lon": -77.0639495, "is_disabled": 0, "lat": 38.944175, "fusion_lat": 0.0, "is_reserved": 0, "rental_uris": {"ios": "https://dc.lft.to/lastmile_qr_scan", "android": "https://dc.lft.to/lastmile_qr_scan"}, "fusion_lon": 0.0, "type": "electric_scooter", "bike_id": "827a45efaa2517dc5fc590c39d3c027b", "name": "827a45efaa2517dc5fc590c39d3c027b"}, {"lon": -77.02574666666666, "is_disabled": 0, "lat": 38.930960166666665, "fusion_lat": 0.0, "is_reserved": 0, "rental_uris": {"ios": "https://dc.lft.to/lastmile_qr_scan", "android": "https://dc.lft.to/lastmile_qr_scan"}, "fusion_lon": 0.0, "type": "electric_scooter", "bike_id": "cf2eb0207e815af30eea95867e939c58", "name": "cf2eb0207e815af30eea95867e939c58"}, {"lon": -76.9472, "is_disabled": 0, "lat": 38.89740416666667, "fusion_lat": 0.0, "is_reserved": 0, "rental_uris": {"ios": "https://dc.lft.to/lastmile_qr_scan", "android": "https://dc.lft.to/lastmile_qr_scan"}, "fusion_lon": 0.0, "type": "electric_scooter", "bike_id": "8900d216f4e3d081fe28240e9bb89e00", "name": "8900d216f4e3d081fe28240e9bb89e00"}, {"lon": -77.03857, "is_disabled": 0, "lat": 38.91690883333333, "fusion_lat": 0.0, "is_reserved": 0, "rental_uris": {"ios": "https://dc.lft.to/lastmile_qr_scan", "android": "https://dc.lft.to/lastmile_qr_scan"}, "fusion_lon": 0.0, "type": "electric_scooter", "bike_id": "eff076d9cffd980e50932b6e6f307e9b", "name": "eff076d9cffd980e50932b6e6f307e9b"}, {"lon": -77.014792, "is_disabled": 0, "lat": 38.91875916666667, "fusion_lat": 0.0, "is_reserved": 0, "rental_uris": {"ios": "https://dc.lft.to/lastmile_qr_scan", "android": "https://dc.lft.to/lastmile_qr_scan"}, "fusion_lon": 0.0, "type": "electric_scooter", "bike_id": "58ff818032604356db2a27ad9d97de4b", "name": "58ff818032604356db2a27ad9d97de4b"}, {"lon": -77.02919333333334, "is_disabled": 0, "lat": 38.89968783333333, "fusion_lat": 0.0, "is_reserved": 0, "rental_uris": {"ios": "https://dc.lft.to/lastmile_qr_scan", "android": "https://dc.lft.to/lastmile_qr_scan"}, "fusion_lon": 0.0, "type": "electric_scooter", "bike_id": "e9212f5c2e9a18064ac412a9ed3ec6e6", "name": "e9212f5c2e9a18064ac412a9ed3ec6e6"}, {"lon": -77.02486666666667, "is_disabled": 0, "lat": 38.94183666666667, "fusion_lat": 0.0, "is_reserved": 0, "rental_uris": {"ios": "https://dc.lft.to/lastmile_qr_scan", "android": "https://dc.lft.to/lastmile_qr_scan"}, "fusion_lon": 0.0, "type": "electric_scooter", "bike_id": "8646b27db0dcb13b831fb1c4a0dd9225", "name": "8646b27db0dcb13b831fb1c4a0dd9225"}, {"lon": -77.00283666666667, "is_disabled": 0, "lat": 38.87723316666667, "fusion_lat": 0.0, "is_reserved": 0, "rental_uris": {"ios": "https://dc.lft.to/lastmile_qr_scan", "android": "https://dc.lft.to/lastmile_qr_scan"}, "fusion_lon": 0.0, "type": "electric_scooter", "bike_id": "548d3460add0d585d98464ac2ffa3fef", "name": "548d3460add0d585d98464ac2ffa3fef"}, {"lon": -77.022389, "is_disabled": 0, "lat": 38.92240666666667, "fusion_lat": 0.0, "is_reserved": 0, "rental_uris": {"ios": "https://dc.lft.to/lastmile_qr_scan", "android": "https://dc.lft.to/lastmile_qr_scan"}, "fusion_lon": 0.0, "type": "electric_scooter", "bike_id": "90345b812c886129ed32d4e0188a09db", "name": "90345b812c886129ed32d4e0188a09db"}, {"lon": -77.04008416666667, "is_disabled": 0, "lat": 38.9037955, "fusion_lat": 0.0, "is_reserved": 0, "rental_uris": {"ios": "https://dc.lft.to/lastmile_qr_scan", "android": "https://dc.lft.to/lastmile_qr_scan"}, "fusion_lon": 0.0, "type": "electric_scooter", "bike_id": "9676505be87a03e980a1ebdff9adaf85", "name": "9676505be87a03e980a1ebdff9adaf85"}, {"lon": -77.053409, "is_disabled": 0, "lat": 38.9027685, "fusion_lat": 0.0, "is_reserved": 0, "rental_uris": {"ios": "https://dc.lft.to/lastmile_qr_scan", "android": "https://dc.lft.to/lastmile_qr_scan"}, "fusion_lon": 0.0, "type": "electric_scooter", "bike_id": "f8ac977bcd40e77ceec396a9c78f32a8", "name": "f8ac977bcd40e77ceec396a9c78f32a8"}, {"lon": -76.98186683333333, "is_disabled": 0, "lat": 38.862071666666665, "fusion_lat": 0.0, "is_reserved": 0, "rental_uris": {"ios": "https://dc.lft.to/lastmile_qr_scan", "android": "https://dc.lft.to/lastmile_qr_scan"}, "fusion_lon": 0.0, "type": "electric_scooter", "bike_id": "211508a1ea99eb99902bf32f8978e50e", "name": "211508a1ea99eb99902bf32f8978e50e"}, {"lon": -77.02303783333333, "is_disabled": 0, "lat": 38.917530666666664, "fusion_lat": 0.0, "is_reserved": 0, "rental_uris": {"ios": "https://dc.lft.to/lastmile_qr_scan", "android": "https://dc.lft.to/lastmile_qr_scan"}, "fusion_lon": 0.0, "type": "electric_scooter", "bike_id": "119198c8fa9d64fd58196e739505dd2f", "name": "119198c8fa9d64fd58196e739505dd2f"}, {"lon": -77.03666166666666, "is_disabled": 0, "lat": 38.922615, "fusion_lat": 0.0, "is_reserved": 0, "rental_uris": {"ios": "https://dc.lft.to/lastmile_qr_scan", "android": "https://dc.lft.to/lastmile_qr_scan"}, "fusion_lon": 0.0, "type": "electric_scooter", "bike_id": "f75b3e733acc1add91ed333608b33e41", "name": "f75b3e733acc1add91ed333608b33e41"}, {"lon": -77.022941, "is_disabled": 0, "lat": 38.909554166666666, "fusion_lat": 0.0, "is_reserved": 0, "rental_uris": {"ios": "https://dc.lft.to/lastmile_qr_scan", "android": "https://dc.lft.to/lastmile_qr_scan"}, "fusion_lon": 0.0, "type": "electric_scooter", "bike_id": "aa4d48355ce0f56d6c7b5427b147377c", "name": "aa4d48355ce0f56d6c7b5427b147377c"}, {"lon": -77.0200855, "is_disabled": 0, "lat": 38.914071166666666, "fusion_lat": 0.0, "is_reserved": 0, "rental_uris": {"ios": "https://dc.lft.to/lastmile_qr_scan", "android": "https://dc.lft.to/lastmile_qr_scan"}, "fusion_lon": 0.0, "type": "electric_scooter", "bike_id": "6db8f96bd70d55b4e4447ad375a373a1", "name": "6db8f96bd70d55b4e4447ad375a373a1"}, {"lon": -77.0417855, "is_disabled": 0, "lat": 38.911282666666665, "fusion_lat": 0.0, "is_reserved": 0, "rental_uris": {"ios": "https://dc.lft.to/lastmile_qr_scan", "android": "https://dc.lft.to/lastmile_qr_scan"}, "fusion_lon": 0.0, "type": "electric_scooter", "bike_id": "4865aac4cb1f0fb30025acb9c276ecac", "name": "4865aac4cb1f0fb30025acb9c276ecac"}, {"lon": -77.023465, "is_disabled": 0, "lat": 38.89607316666667, "fusion_lat": 0.0, "is_reserved": 0, "rental_uris": {"ios": "https://dc.lft.to/lastmile_qr_scan", "android": "https://dc.lft.to/lastmile_qr_scan"}, "fusion_lon": 0.0, "type": "electric_scooter", "bike_id": "da06a618e9b30c53dd7f553d6145cd71", "name": "da06a618e9b30c53dd7f553d6145cd71"}, {"lon": -77.04814416666666, "is_disabled": 0, "lat": 38.916484833333335, "fusion_lat": 0.0, "is_reserved": 0, "rental_uris": {"ios": "https://dc.lft.to/lastmile_qr_scan", "android": "https://dc.lft.to/lastmile_qr_scan"}, "fusion_lon": 0.0, "type": "electric_scooter", "bike_id": "f5499745d3dd351f6627c649b2e47f27", "name": "f5499745d3dd351f6627c649b2e47f27"}, {"lon": -77.02976283333334, "is_disabled": 0, "lat": 38.90722616666667, "fusion_lat": 0.0, "is_reserved": 0, "rental_uris": {"ios": "https://dc.lft.to/lastmile_qr_scan", "android": "https://dc.lft.to/lastmile_qr_scan"}, "fusion_lon": 0.0, "type": "electric_scooter", "bike_id": "132f4c63a9fffa46942443e09bdeeab4", "name": "132f4c63a9fffa46942443e09bdeeab4"}, {"lon": -77.1347465, "is_disabled": 0, "lat": 38.85347866666667, "fusion_lat": 0.0, "is_reserved": 0, "rental_uris": {"ios": "https://dc.lft.to/lastmile_qr_scan", "android": "https://dc.lft.to/lastmile_qr_scan"}, "fusion_lon": 0.0, "type": "electric_bike", "bike_id": "14170e9a911c2aa8838db879bebfe54d", "name": "14170e9a911c2aa8838db879bebfe54d"}, {"lon": -77.03519333333334, "is_disabled": 0, "lat": 38.9359165, "fusion_lat": 0.0, "is_reserved": 0, "rental_uris": {"ios": "https://dc.lft.to/lastmile_qr_scan", "android": "https://dc.lft.to/lastmile_qr_scan"}, "fusion_lon": 0.0, "type": "electric_scooter", "bike_id": "7e29ea364c71954371f5fcfbc0397413", "name": "7e29ea364c71954371f5fcfbc0397413"}, {"lon": -77.021803, "is_disabled": 0, "lat": 38.8989285, "fusion_lat": 0.0, "is_reserved": 0, "rental_uris": {"ios": "https://dc.lft.to/lastmile_qr_scan", "android": "https://dc.lft.to/lastmile_qr_scan"}, "fusion_lon": 0.0, "type": "electric_scooter", "bike_id": "4fbd328f4ed7a4f34e7fd42c5b2fa782", "name": "4fbd328f4ed7a4f34e7fd42c5b2fa782"}, {"lon": -77.021357, "is_disabled": 0, "lat": 38.91551466666667, "fusion_lat": 0.0, "is_reserved": 0, "rental_uris": {"ios": "https://dc.lft.to/lastmile_qr_scan", "android": "https://dc.lft.to/lastmile_qr_scan"}, "fusion_lon": 0.0, "type": "electric_scooter", "bike_id": "aeec8ec89680b4cdd25e9b683bd21f45", "name": "aeec8ec89680b4cdd25e9b683bd21f45"}, {"lon": -77.05067633333333, "is_disabled": 0, "lat": 38.92531433333333, "fusion_lat": 0.0, "is_reserved": 0, "rental_uris": {"ios": "https://dc.lft.to/lastmile_qr_scan", "android": "https://dc.lft.to/lastmile_qr_scan"}, "fusion_lon": 0.0, "type": "electric_scooter", "bike_id": "ff13a88eadb22789b60f38428a6575a5", "name": "ff13a88eadb22789b60f38428a6575a5"}, {"lon": -76.98574016666667, "is_disabled": 0, "lat": 38.86682533333333, "fusion_lat": 0.0, "is_reserved": 0, "rental_uris": {"ios": "https://dc.lft.to/lastmile_qr_scan", "android": "https://dc.lft.to/lastmile_qr_scan"}, "fusion_lon": 0.0, "type": "electric_scooter", "bike_id": "16ce559ff59207e6d996fe1286503880", "name": "16ce559ff59207e6d996fe1286503880"}, {"lon": -77.01311916666667, "is_disabled": 0, "lat": 38.90133983333333, "fusion_lat": 0.0, "is_reserved": 0, "rental_uris": {"ios": "https://dc.lft.to/lastmile_qr_scan", "android": "https://dc.lft.to/lastmile_qr_scan"}, "fusion_lon": 0.0, "type": "electric_scooter", "bike_id": "4e57a35cfca54254348e7babf02b2ef6", "name": "4e57a35cfca54254348e7babf02b2ef6"}, {"lon": -76.98599616666667, "is_disabled": 0, "lat": 38.903724, "fusion_lat": 0.0, "is_reserved": 0, "rental_uris": {"ios": "https://dc.lft.to/lastmile_qr_scan", "android": "https://dc.lft.to/lastmile_qr_scan"}, "fusion_lon": 0.0, "type": "electric_scooter", "bike_id": "e71db13c92ef2cd8d08552891b6b9adc", "name": "e71db13c92ef2cd8d08552891b6b9adc"}, {"lon": -76.97977383333334, "is_disabled": 0, "lat": 38.89739466666666, "fusion_lat": 0.0, "is_reserved": 0, "rental_uris": {"ios": "https://dc.lft.to/lastmile_qr_scan", "android": "https://dc.lft.to/lastmile_qr_scan"}, "fusion_lon": 0.0, "type": "electric_scooter", "bike_id": "57f3aef38c22db8b895d124fad56c793", "name": "57f3aef38c22db8b895d124fad56c793"}, {"lon": -77.03212283333333, "is_disabled": 0, "lat": 38.9070905, "fusion_lat": 0.0, "is_reserved": 0, "rental_uris": {"ios": "https://dc.lft.to/lastmile_qr_scan", "android": "https://dc.lft.to/lastmile_qr_scan"}, "fusion_lon": 0.0, "type": "electric_scooter", "bike_id": "1a17e9d131b03a4db70fa7ab3c0b6bc6", "name": "1a17e9d131b03a4db70fa7ab3c0b6bc6"}, {"lon": -77.03393383333334, "is_disabled": 0, "lat": 38.9263665, "fusion_lat": 0.0, "is_reserved": 0, "rental_uris": {"ios": "https://dc.lft.to/lastmile_qr_scan", "android": "https://dc.lft.to/lastmile_qr_scan"}, "fusion_lon": 0.0, "type": "electric_scooter", "bike_id": "19328cfc46bca0eaaaddf71ee0be9992", "name": "19328cfc46bca0eaaaddf71ee0be9992"}, {"lon": -77.02384983333333, "is_disabled": 0, "lat": 38.98971266666667, "fusion_lat": 0.0, "is_reserved": 0, "rental_uris": {"ios": "https://dc.lft.to/lastmile_qr_scan", "android": "https://dc.lft.to/lastmile_qr_scan"}, "fusion_lon": 0.0, "type": "electric_bike", "bike_id": "d67f5c304cc38c8b715bd41144d750b7", "name": "d67f5c304cc38c8b715bd41144d750b7"}, {"lon": -77.02694466666667, "is_disabled": 0, "lat": 38.908727166666665, "fusion_lat": 0.0, "is_reserved": 0, "rental_uris": {"ios": "https://dc.lft.to/lastmile_qr_scan", "android": "https://dc.lft.to/lastmile_qr_scan"}, "fusion_lon": 0.0, "type": "electric_scooter", "bike_id": "8711d46581cfc66cb6b34ab46e4e00a8", "name": "8711d46581cfc66cb6b34ab46e4e00a8"}, {"lon": -77.027106, "is_disabled": 0, "lat": 38.904482333333334, "fusion_lat": 0.0, "is_reserved": 0, "rental_uris": {"ios": "https://dc.lft.to/lastmile_qr_scan", "android": "https://dc.lft.to/lastmile_qr_scan"}, "fusion_lon": 0.0, "type": "electric_scooter", "bike_id": "a108627b42de4d3447e9b10dccabc71b", "name": "a108627b42de4d3447e9b10dccabc71b"}, {"lon": -77.04041583333333, "is_disabled": 0, "lat": 38.90380066666667, "fusion_lat": 0.0, "is_reserved": 0, "rental_uris": {"ios": "https://dc.lft.to/lastmile_qr_scan", "android": "https://dc.lft.to/lastmile_qr_scan"}, "fusion_lon": 0.0, "type": "electric_scooter", "bike_id": "f23e988715082f0fa9eff815bfe6a081", "name": "f23e988715082f0fa9eff815bfe6a081"}, {"lon": -77.02802233333334, "is_disabled": 0, "lat": 38.92966783333333, "fusion_lat": 0.0, "is_reserved": 0, "rental_uris": {"ios": "https://dc.lft.to/lastmile_qr_scan", "android": "https://dc.lft.to/lastmile_qr_scan"}, "fusion_lon": 0.0, "type": "electric_scooter", "bike_id": "32d15e054d98b678160b757fcaa5b2a4", "name": "32d15e054d98b678160b757fcaa5b2a4"}, {"lon": -77.01706183333333, "is_disabled": 0, "lat": 38.913831, "fusion_lat": 0.0, "is_reserved": 0, "rental_uris": {"ios": "https://dc.lft.to/lastmile_qr_scan", "android": "https://dc.lft.to/lastmile_qr_scan"}, "fusion_lon": 0.0, "type": "electric_scooter", "bike_id": "c492e458cc253ea1bb5f77b07c505d06", "name": "c492e458cc253ea1bb5f77b07c505d06"}, {"lon": -77.002144, "is_disabled": 0, "lat": 38.90025216666667, "fusion_lat": 0.0, "is_reserved": 0, "rental_uris": {"ios": "https://dc.lft.to/lastmile_qr_scan", "android": "https://dc.lft.to/lastmile_qr_scan"}, "fusion_lon": 0.0, "type": "electric_scooter", "bike_id": "b33d01511782b13cf2b6e3149c7dfdaa", "name": "b33d01511782b13cf2b6e3149c7dfdaa"}, {"lon": -76.93209133333333, "is_disabled": 0, "lat": 38.896732166666666, "fusion_lat": 0.0, "is_reserved": 0, "rental_uris": {"ios": "https://dc.lft.to/lastmile_qr_scan", "android": "https://dc.lft.to/lastmile_qr_scan"}, "fusion_lon": 0.0, "type": "electric_scooter", "bike_id": "b419a0e7509db5e3d03babb0df6aea6c", "name": "b419a0e7509db5e3d03babb0df6aea6c"}, {"lon": -77.041525, "is_disabled": 0, "lat": 38.906468833333335, "fusion_lat": 0.0, "is_reserved": 0, "rental_uris": {"ios": "https://dc.lft.to/lastmile_qr_scan", "android": "https://dc.lft.to/lastmile_qr_scan"}, "fusion_lon": 0.0, "type": "electric_scooter", "bike_id": "b0ac64cb468eda9dc8955a5b45bf06ff", "name": "b0ac64cb468eda9dc8955a5b45bf06ff"}, {"lon": -77.0195825, "is_disabled": 0, "lat": 38.92423433333333, "fusion_lat": 0.0, "is_reserved": 0, "rental_uris": {"ios": "https://dc.lft.to/lastmile_qr_scan", "android": "https://dc.lft.to/lastmile_qr_scan"}, "fusion_lon": 0.0, "type": "electric_scooter", "bike_id": "3ce2075ec7f646f5cf8b23e955070fc1", "name": "3ce2075ec7f646f5cf8b23e955070fc1"}, {"lon": -77.03195566666666, "is_disabled": 0, "lat": 38.91823083333333, "fusion_lat": 0.0, "is_reserved": 0, "rental_uris": {"ios": "https://dc.lft.to/lastmile_qr_scan", "android": "https://dc.lft.to/lastmile_qr_scan"}, "fusion_lon": 0.0, "type": "electric_scooter", "bike_id": "ce802ae916b9d27d8e33bdff90db714f", "name": "ce802ae916b9d27d8e33bdff90db714f"}, {"lon": -77.0271815, "is_disabled": 0, "lat": 38.9000195, "fusion_lat": 0.0, "is_reserved": 0, "rental_uris": {"ios": "https://dc.lft.to/lastmile_qr_scan", "android": "https://dc.lft.to/lastmile_qr_scan"}, "fusion_lon": 0.0, "type": "electric_scooter", "bike_id": "acdfa207ac3248fcc44d8359bb90ed99", "name": "acdfa207ac3248fcc44d8359bb90ed99"}, {"lon": -77.0176385, "is_disabled": 0, "lat": 38.920473666666666, "fusion_lat": 0.0, "is_reserved": 0, "rental_uris": {"ios": "https://dc.lft.to/lastmile_qr_scan", "android": "https://dc.lft.to/lastmile_qr_scan"}, "fusion_lon": 0.0, "type": "electric_scooter", "bike_id": "2d931a9b70f75e8607a7d1a06c8ee410", "name": "2d931a9b70f75e8607a7d1a06c8ee410"}, {"lon": -77.02793166666666, "is_disabled": 0, "lat": 38.9296985, "fusion_lat": 0.0, "is_reserved": 0, "rental_uris": {"ios": "https://dc.lft.to/lastmile_qr_scan", "android": "https://dc.lft.to/lastmile_qr_scan"}, "fusion_lon": 0.0, "type": "electric_scooter", "bike_id": "06bb2863d571a8d737700293556841f8", "name": "06bb2863d571a8d737700293556841f8"}, {"lon": -76.981406, "is_disabled": 0, "lat": 38.897398, "fusion_lat": 0.0, "is_reserved": 0, "rental_uris": {"ios": "https://dc.lft.to/lastmile_qr_scan", "android": "https://dc.lft.to/lastmile_qr_scan"}, "fusion_lon": 0.0, "type": "electric_scooter", "bike_id": "7df363565244a6e95c5c534a5442a8a8", "name": "7df363565244a6e95c5c534a5442a8a8"}, {"lon": -77.08860966666667, "is_disabled": 0, "lat": 38.9163825, "fusion_lat": 0.0, "is_reserved": 0, "rental_uris": {"ios": "https://dc.lft.to/lastmile_qr_scan", "android": "https://dc.lft.to/lastmile_qr_scan"}, "fusion_lon": 0.0, "type": "electric_scooter", "bike_id": "96803f806db3cbae0776854ccfceafda", "name": "96803f806db3cbae0776854ccfceafda"}, {"lon": -77.004007, "is_disabled": 0, "lat": 38.92132866666667, "fusion_lat": 0.0, "is_reserved": 0, "rental_uris": {"ios": "https://dc.lft.to/lastmile_qr_scan", "android": "https://dc.lft.to/lastmile_qr_scan"}, "fusion_lon": 0.0, "type": "electric_scooter", "bike_id": "ebe18a66dcbc57646e038447357eeb0b", "name": "ebe18a66dcbc57646e038447357eeb0b"}, {"lon": -76.95950983333333, "is_disabled": 0, "lat": 38.8619245, "fusion_lat": 0.0, "is_reserved": 0, "rental_uris": {"ios": "https://dc.lft.to/lastmile_qr_scan", "android": "https://dc.lft.to/lastmile_qr_scan"}, "fusion_lon": 0.0, "type": "electric_scooter", "bike_id": "1cff3d71daa42ff28480c9270f765e32", "name": "1cff3d71daa42ff28480c9270f765e32"}, {"lon": -77.0445815, "is_disabled": 0, "lat": 38.91542166666667, "fusion_lat": 0.0, "is_reserved": 0, "rental_uris": {"ios": "https://dc.lft.to/lastmile_qr_scan", "android": "https://dc.lft.to/lastmile_qr_scan"}, "fusion_lon": 0.0, "type": "electric_scooter", "bike_id": "fb1a12bcb22ef86c27ae5d8d326bc093", "name": "fb1a12bcb22ef86c27ae5d8d326bc093"}, {"lon": -77.02198316666667, "is_disabled": 0, "lat": 38.896218, "fusion_lat": 0.0, "is_reserved": 0, "rental_uris": {"ios": "https://dc.lft.to/lastmile_qr_scan", "android": "https://dc.lft.to/lastmile_qr_scan"}, "fusion_lon": 0.0, "type": "electric_scooter", "bike_id": "693774371b7798ac6e6d97b4cef395cf", "name": "693774371b7798ac6e6d97b4cef395cf"}, {"lon": -77.033035, "is_disabled": 0, "lat": 38.9285325, "fusion_lat": 0.0, "is_reserved": 0, "rental_uris": {"ios": "https://dc.lft.to/lastmile_qr_scan", "android": "https://dc.lft.to/lastmile_qr_scan"}, "fusion_lon": 0.0, "type": "electric_scooter", "bike_id": "af1f81a075349c991732e8de8ee219b3", "name": "af1f81a075349c991732e8de8ee219b3"}, {"lon": -77.02155383333333, "is_disabled": 0, "lat": 38.92461683333333, "fusion_lat": 0.0, "is_reserved": 0, "rental_uris": {"ios": "https://dc.lft.to/lastmile_qr_scan", "android": "https://dc.lft.to/lastmile_qr_scan"}, "fusion_lon": 0.0, "type": "electric_scooter", "bike_id": "dee28fae36057740494b043588a1f90e", "name": "dee28fae36057740494b043588a1f90e"}, {"lon": -77.03401083333334, "is_disabled": 0, "lat": 38.92343066666667, "fusion_lat": 0.0, "is_reserved": 0, "rental_uris": {"ios": "https://dc.lft.to/lastmile_qr_scan", "android": "https://dc.lft.to/lastmile_qr_scan"}, "fusion_lon": 0.0, "type": "electric_scooter", "bike_id": "8ab1d2612c791806827289d670d5a3f9", "name": "8ab1d2612c791806827289d670d5a3f9"}, {"lon": -77.03987166666667, "is_disabled": 0, "lat": 38.90324833333333, "fusion_lat": 0.0, "is_reserved": 0, "rental_uris": {"ios": "https://dc.lft.to/lastmile_qr_scan", "android": "https://dc.lft.to/lastmile_qr_scan"}, "fusion_lon": 0.0, "type": "electric_scooter", "bike_id": "ef819e0c259c0bc144ee8523a987f3ed", "name": "ef819e0c259c0bc144ee8523a987f3ed"}, {"lon": -77.0489395, "is_disabled": 0, "lat": 38.900773, "fusion_lat": 0.0, "is_reserved": 0, "rental_uris": {"ios": "https://dc.lft.to/lastmile_qr_scan", "android": "https://dc.lft.to/lastmile_qr_scan"}, "fusion_lon": 0.0, "type": "electric_scooter", "bike_id": "b4ae178d376b611bccde9e2e541418fc", "name": "b4ae178d376b611bccde9e2e541418fc"}, {"lon": -77.01751116666667, "is_disabled": 0, "lat": 38.917088, "fusion_lat": 0.0, "is_reserved": 0, "rental_uris": {"ios": "https://dc.lft.to/lastmile_qr_scan", "android": "https://dc.lft.to/lastmile_qr_scan"}, "fusion_lon": 0.0, "type": "electric_scooter", "bike_id": "51974fc613fe3a9b89aa64f455b40964", "name": "51974fc613fe3a9b89aa64f455b40964"}, {"lon": -77.01949183333333, "is_disabled": 0, "lat": 38.9242165, "fusion_lat": 0.0, "is_reserved": 0, "rental_uris": {"ios": "https://dc.lft.to/lastmile_qr_scan", "android": "https://dc.lft.to/lastmile_qr_scan"}, "fusion_lon": 0.0, "type": "electric_scooter", "bike_id": "4d4ae696232c7616bf819a8a80ff9b19", "name": "4d4ae696232c7616bf819a8a80ff9b19"}, {"lon": -77.02977066666666, "is_disabled": 0, "lat": 38.89743933333333, "fusion_lat": 0.0, "is_reserved": 0, "rental_uris": {"ios": "https://dc.lft.to/lastmile_qr_scan", "android": "https://dc.lft.to/lastmile_qr_scan"}, "fusion_lon": 0.0, "type": "electric_scooter", "bike_id": "9e1fad2517fe030adb6ae4e165fa1b9d", "name": "9e1fad2517fe030adb6ae4e165fa1b9d"}, {"lon": -77.036231, "is_disabled": 0, "lat": 38.931565666666664, "fusion_lat": 0.0, "is_reserved": 0, "rental_uris": {"ios": "https://dc.lft.to/lastmile_qr_scan", "android": "https://dc.lft.to/lastmile_qr_scan"}, "fusion_lon": 0.0, "type": "electric_scooter", "bike_id": "4714847d4ed857ad82f1f949af32e780", "name": "4714847d4ed857ad82f1f949af32e780"}, {"lon": -77.013889, "is_disabled": 0, "lat": 38.91914333333333, "fusion_lat": 0.0, "is_reserved": 0, "rental_uris": {"ios": "https://dc.lft.to/lastmile_qr_scan", "android": "https://dc.lft.to/lastmile_qr_scan"}, "fusion_lon": 0.0, "type": "electric_scooter", "bike_id": "831b36692a3ded8a8f7a995bc614d4ef", "name": "831b36692a3ded8a8f7a995bc614d4ef"}, {"lon": -77.04289366666667, "is_disabled": 0, "lat": 38.83098316666667, "fusion_lat": 0.0, "is_reserved": 0, "rental_uris": {"ios": "https://dc.lft.to/lastmile_qr_scan", "android": "https://dc.lft.to/lastmile_qr_scan"}, "fusion_lon": 0.0, "type": "electric_bike", "bike_id": "1677e1c21742ece05dcc900d13561a22", "name": "1677e1c21742ece05dcc900d13561a22"}, {"lon": -77.02379033333334, "is_disabled": 0, "lat": 38.891953666666666, "fusion_lat": 0.0, "is_reserved": 0, "rental_uris": {"ios": "https://dc.lft.to/lastmile_qr_scan", "android": "https://dc.lft.to/lastmile_qr_scan"}, "fusion_lon": 0.0, "type": "electric_scooter", "bike_id": "91b08793d0326b7f290c3549dd103e08", "name": "91b08793d0326b7f290c3549dd103e08"}, {"lon": -76.94825783333333, "is_disabled": 0, "lat": 38.88411766666667, "fusion_lat": 0.0, "is_reserved": 0, "rental_uris": {"ios": "https://dc.lft.to/lastmile_qr_scan", "android": "https://dc.lft.to/lastmile_qr_scan"}, "fusion_lon": 0.0, "type": "electric_scooter", "bike_id": "d734ec2741de7508585731dbaf32896b", "name": "d734ec2741de7508585731dbaf32896b"}, {"lon": -77.03486133333334, "is_disabled": 0, "lat": 38.92338266666667, "fusion_lat": 0.0, "is_reserved": 0, "rental_uris": {"ios": "https://dc.lft.to/lastmile_qr_scan", "android": "https://dc.lft.to/lastmile_qr_scan"}, "fusion_lon": 0.0, "type": "electric_scooter", "bike_id": "f1f719fcccbdcefc30cd1bb6bed7b9ec", "name": "f1f719fcccbdcefc30cd1bb6bed7b9ec"}, {"lon": -77.05742566666666, "is_disabled": 0, "lat": 38.933994, "fusion_lat": 0.0, "is_reserved": 0, "rental_uris": {"ios": "https://dc.lft.to/lastmile_qr_scan", "android": "https://dc.lft.to/lastmile_qr_scan"}, "fusion_lon": 0.0, "type": "electric_scooter", "bike_id": "9ab6bbd53d87191e404ec3429af7eb31", "name": "9ab6bbd53d87191e404ec3429af7eb31"}, {"lon": -77.02203816666666, "is_disabled": 0, "lat": 38.91135966666667, "fusion_lat": 0.0, "is_reserved": 0, "rental_uris": {"ios": "https://dc.lft.to/lastmile_qr_scan", "android": "https://dc.lft.to/lastmile_qr_scan"}, "fusion_lon": 0.0, "type": "electric_scooter", "bike_id": "13dafa1c0e34854dbeb67d3f802aa487", "name": "13dafa1c0e34854dbeb67d3f802aa487"}, {"lon": -77.02617683333334, "is_disabled": 0, "lat": 38.896189666666665, "fusion_lat": 0.0, "is_reserved": 0, "rental_uris": {"ios": "https://dc.lft.to/lastmile_qr_scan", "android": "https://dc.lft.to/lastmile_qr_scan"}, "fusion_lon": 0.0, "type": "electric_scooter", "bike_id": "6ab61cf13eadac0816798b7fd10eb935", "name": "6ab61cf13eadac0816798b7fd10eb935"}, {"lon": -77.02861866666667, "is_disabled": 0, "lat": 38.89364333333333, "fusion_lat": 0.0, "is_reserved": 0, "rental_uris": {"ios": "https://dc.lft.to/lastmile_qr_scan", "android": "https://dc.lft.to/lastmile_qr_scan"}, "fusion_lon": 0.0, "type": "electric_scooter", "bike_id": "6f7a7e2ff4cbc0d856332acfdc6e1509", "name": "6f7a7e2ff4cbc0d856332acfdc6e1509"}, {"lon": -76.99944866666667, "is_disabled": 0, "lat": 38.91874333333333, "fusion_lat": 0.0, "is_reserved": 0, "rental_uris": {"ios": "https://dc.lft.to/lastmile_qr_scan", "android": "https://dc.lft.to/lastmile_qr_scan"}, "fusion_lon": 0.0, "type": "electric_scooter", "bike_id": "e77f6db583ac996cb2704ddf9a63ce2f", "name": "e77f6db583ac996cb2704ddf9a63ce2f"}, {"lon": -77.0223025, "is_disabled": 0, "lat": 38.89197083333333, "fusion_lat": 0.0, "is_reserved": 0, "rental_uris": {"ios": "https://dc.lft.to/lastmile_qr_scan", "android": "https://dc.lft.to/lastmile_qr_scan"}, "fusion_lon": 0.0, "type": "electric_scooter", "bike_id": "29a160e82520e9e764a7fd0ddcb5eb25", "name": "29a160e82520e9e764a7fd0ddcb5eb25"}, {"lon": -77.03430383333334, "is_disabled": 0, "lat": 38.91917266666667, "fusion_lat": 0.0, "is_reserved": 0, "rental_uris": {"ios": "https://dc.lft.to/lastmile_qr_scan", "android": "https://dc.lft.to/lastmile_qr_scan"}, "fusion_lon": 0.0, "type": "electric_scooter", "bike_id": "3b9223c1e0f1acf9462698620735c1a4", "name": "3b9223c1e0f1acf9462698620735c1a4"}, {"lon": -77.01331183333333, "is_disabled": 0, "lat": 38.926182833333336, "fusion_lat": 0.0, "is_reserved": 0, "rental_uris": {"ios": "https://dc.lft.to/lastmile_qr_scan", "android": "https://dc.lft.to/lastmile_qr_scan"}, "fusion_lon": 0.0, "type": "electric_scooter", "bike_id": "8a29b12cf1fd8d127c9919705944e039", "name": "8a29b12cf1fd8d127c9919705944e039"}, {"lon": -77.03767, "is_disabled": 0, "lat": 38.918798, "fusion_lat": 0.0, "is_reserved": 0, "rental_uris": {"ios": "https://dc.lft.to/lastmile_qr_scan", "android": "https://dc.lft.to/lastmile_qr_scan"}, "fusion_lon": 0.0, "type": "electric_scooter", "bike_id": "d482de9b54377e55b8f8ad8a47e9bf3c", "name": "d482de9b54377e55b8f8ad8a47e9bf3c"}, {"lon": -77.02758783333333, "is_disabled": 0, "lat": 38.901219833333336, "fusion_lat": 0.0, "is_reserved": 0, "rental_uris": {"ios": "https://dc.lft.to/lastmile_qr_scan", "android": "https://dc.lft.to/lastmile_qr_scan"}, "fusion_lon": 0.0, "type": "electric_scooter", "bike_id": "f904be60b3d69bea4db9d892341d17ef", "name": "f904be60b3d69bea4db9d892341d17ef"}, {"lon": -77.03053233333333, "is_disabled": 0, "lat": 38.92972133333333, "fusion_lat": 0.0, "is_reserved": 0, "rental_uris": {"ios": "https://dc.lft.to/lastmile_qr_scan", "android": "https://dc.lft.to/lastmile_qr_scan"}, "fusion_lon": 0.0, "type": "electric_bike", "bike_id": "34fcbed938cba806e1849b01cbe9951c", "name": "34fcbed938cba806e1849b01cbe9951c"}, {"lon": -77.02704566666667, "is_disabled": 0, "lat": 38.90863566666667, "fusion_lat": 0.0, "is_reserved": 0, "rental_uris": {"ios": "https://dc.lft.to/lastmile_qr_scan", "android": "https://dc.lft.to/lastmile_qr_scan"}, "fusion_lon": 0.0, "type": "electric_scooter", "bike_id": "137ac2e0fec5c1facef6fad7e618a5c2", "name": "137ac2e0fec5c1facef6fad7e618a5c2"}, {"lon": -77.02942116666667, "is_disabled": 0, "lat": 38.916804666666664, "fusion_lat": 0.0, "is_reserved": 0, "rental_uris": {"ios": "https://dc.lft.to/lastmile_qr_scan", "android": "https://dc.lft.to/lastmile_qr_scan"}, "fusion_lon": 0.0, "type": "electric_scooter", "bike_id": "7b97833e08f65d04f0a6b865b1182532", "name": "7b97833e08f65d04f0a6b865b1182532"}, {"lon": -77.01349066666667, "is_disabled": 0, "lat": 38.919155333333336, "fusion_lat": 0.0, "is_reserved": 0, "rental_uris": {"ios": "https://dc.lft.to/lastmile_qr_scan", "android": "https://dc.lft.to/lastmile_qr_scan"}, "fusion_lon": 0.0, "type": "electric_scooter", "bike_id": "bf46354c687bd28e924e6abfff681c9f", "name": "bf46354c687bd28e924e6abfff681c9f"}, {"lon": -76.97882083333333, "is_disabled": 0, "lat": 38.90193216666667, "fusion_lat": 0.0, "is_reserved": 0, "rental_uris": {"ios": "https://dc.lft.to/lastmile_qr_scan", "android": "https://dc.lft.to/lastmile_qr_scan"}, "fusion_lon": 0.0, "type": "electric_scooter", "bike_id": "483f43cb7ebf8f2bd83f8a0bd266b1c8", "name": "483f43cb7ebf8f2bd83f8a0bd266b1c8"}, {"lon": -77.00538616666667, "is_disabled": 0, "lat": 38.90545566666667, "fusion_lat": 0.0, "is_reserved": 0, "rental_uris": {"ios": "https://dc.lft.to/lastmile_qr_scan", "android": "https://dc.lft.to/lastmile_qr_scan"}, "fusion_lon": 0.0, "type": "electric_scooter", "bike_id": "7dc5657aba10208bfb6e4918eac27f39", "name": "7dc5657aba10208bfb6e4918eac27f39"}, {"lon": -77.012281, "is_disabled": 0, "lat": 38.9141915, "fusion_lat": 0.0, "is_reserved": 0, "rental_uris": {"ios": "https://dc.lft.to/lastmile_qr_scan", "android": "https://dc.lft.to/lastmile_qr_scan"}, "fusion_lon": 0.0, "type": "electric_scooter", "bike_id": "47c99388fdf0a51904213866e72b5a7d", "name": "47c99388fdf0a51904213866e72b5a7d"}, {"lon": -77.04600533333333, "is_disabled": 0, "lat": 38.91945166666667, "fusion_lat": 0.0, "is_reserved": 0, "rental_uris": {"ios": "https://dc.lft.to/lastmile_qr_scan", "android": "https://dc.lft.to/lastmile_qr_scan"}, "fusion_lon": 0.0, "type": "electric_scooter", "bike_id": "25a54b8c7fcb83a87dce5100414e62c2", "name": "25a54b8c7fcb83a87dce5100414e62c2"}, {"lon": -77.04446116666666, "is_disabled": 0, "lat": 38.9154745, "fusion_lat": 0.0, "is_reserved": 0, "rental_uris": {"ios": "https://dc.lft.to/lastmile_qr_scan", "android": "https://dc.lft.to/lastmile_qr_scan"}, "fusion_lon": 0.0, "type": "electric_scooter", "bike_id": "78c95a85e7ccf7966215ca325c9e41ee", "name": "78c95a85e7ccf7966215ca325c9e41ee"}, {"lon": -76.99008516666666, "is_disabled": 0, "lat": 38.865054666666666, "fusion_lat": 0.0, "is_reserved": 0, "rental_uris": {"ios": "https://dc.lft.to/lastmile_qr_scan", "android": "https://dc.lft.to/lastmile_qr_scan"}, "fusion_lon": 0.0, "type": "electric_scooter", "bike_id": "625511845b28d12d8e7541c38cf172b3", "name": "625511845b28d12d8e7541c38cf172b3"}, {"lon": -77.0173325, "is_disabled": 0, "lat": 38.883984166666664, "fusion_lat": 0.0, "is_reserved": 0, "rental_uris": {"ios": "https://dc.lft.to/lastmile_qr_scan", "android": "https://dc.lft.to/lastmile_qr_scan"}, "fusion_lon": 0.0, "type": "electric_scooter", "bike_id": "f619264558a76a6a2c96ca6c41a01c8e", "name": "f619264558a76a6a2c96ca6c41a01c8e"}, {"lon": -77.02383733333333, "is_disabled": 0, "lat": 38.91990033333333, "fusion_lat": 0.0, "is_reserved": 0, "rental_uris": {"ios": "https://dc.lft.to/lastmile_qr_scan", "android": "https://dc.lft.to/lastmile_qr_scan"}, "fusion_lon": 0.0, "type": "electric_scooter", "bike_id": "6706e5017e82ec8b953b35201a1cf9e9", "name": "6706e5017e82ec8b953b35201a1cf9e9"}, {"lon": -77.0394495, "is_disabled": 0, "lat": 38.914171333333336, "fusion_lat": 0.0, "is_reserved": 0, "rental_uris": {"ios": "https://dc.lft.to/lastmile_qr_scan", "android": "https://dc.lft.to/lastmile_qr_scan"}, "fusion_lon": 0.0, "type": "electric_scooter", "bike_id": "24b147650e81c07e67e112f8aab1d7ac", "name": "24b147650e81c07e67e112f8aab1d7ac"}, {"lon": -76.98570133333334, "is_disabled": 0, "lat": 38.8668505, "fusion_lat": 0.0, "is_reserved": 0, "rental_uris": {"ios": "https://dc.lft.to/lastmile_qr_scan", "android": "https://dc.lft.to/lastmile_qr_scan"}, "fusion_lon": 0.0, "type": "electric_scooter", "bike_id": "1515965a15d4fbf276e37729dc7078e7", "name": "1515965a15d4fbf276e37729dc7078e7"}, {"lon": -77.027849, "is_disabled": 0, "lat": 38.927757, "fusion_lat": 0.0, "is_reserved": 0, "rental_uris": {"ios": "https://dc.lft.to/lastmile_qr_scan", "android": "https://dc.lft.to/lastmile_qr_scan"}, "fusion_lon": 0.0, "type": "electric_scooter", "bike_id": "4cefffd370759333020d18c6957b223f", "name": "4cefffd370759333020d18c6957b223f"}, {"lon": -77.02198166666666, "is_disabled": 0, "lat": 38.91033766666666, "fusion_lat": 0.0, "is_reserved": 0, "rental_uris": {"ios": "https://dc.lft.to/lastmile_qr_scan", "android": "https://dc.lft.to/lastmile_qr_scan"}, "fusion_lon": 0.0, "type": "electric_scooter", "bike_id": "40bb3cc4fa91a5a278c2c48936c0ec93", "name": "40bb3cc4fa91a5a278c2c48936c0ec93"}, {"lon": -77.05028016666667, "is_disabled": 0, "lat": 38.923639333333334, "fusion_lat": 0.0, "is_reserved": 0, "rental_uris": {"ios": "https://dc.lft.to/lastmile_qr_scan", "android": "https://dc.lft.to/lastmile_qr_scan"}, "fusion_lon": 0.0, "type": "electric_scooter", "bike_id": "a48a8cf6adcd09e257a2055c280a5f00", "name": "a48a8cf6adcd09e257a2055c280a5f00"}, {"lon": -76.98146466666667, "is_disabled": 0, "lat": 38.905667666666666, "fusion_lat": 0.0, "is_reserved": 0, "rental_uris": {"ios": "https://dc.lft.to/lastmile_qr_scan", "android": "https://dc.lft.to/lastmile_qr_scan"}, "fusion_lon": 0.0, "type": "electric_scooter", "bike_id": "11c4934f54a856835a39f954155d6b00", "name": "11c4934f54a856835a39f954155d6b00"}, {"lon": -77.02461183333334, "is_disabled": 0, "lat": 38.930992, "fusion_lat": 0.0, "is_reserved": 0, "rental_uris": {"ios": "https://dc.lft.to/lastmile_qr_scan", "android": "https://dc.lft.to/lastmile_qr_scan"}, "fusion_lon": 0.0, "type": "electric_scooter", "bike_id": "83ed3771a518f7afd4a440c6f08fee72", "name": "83ed3771a518f7afd4a440c6f08fee72"}, {"lon": -77.02192316666667, "is_disabled": 0, "lat": 38.90195, "fusion_lat": 0.0, "is_reserved": 0, "rental_uris": {"ios": "https://dc.lft.to/lastmile_qr_scan", "android": "https://dc.lft.to/lastmile_qr_scan"}, "fusion_lon": 0.0, "type": "electric_scooter", "bike_id": "4cba0a4c251d943f6335fe9c8d314fb1", "name": "4cba0a4c251d943f6335fe9c8d314fb1"}, {"lon": -77.04213633333333, "is_disabled": 0, "lat": 38.9231985, "fusion_lat": 0.0, "is_reserved": 0, "rental_uris": {"ios": "https://dc.lft.to/lastmile_qr_scan", "android": "https://dc.lft.to/lastmile_qr_scan"}, "fusion_lon": 0.0, "type": "electric_scooter", "bike_id": "b3acd28bf4c05e757a59be668be876d8", "name": "b3acd28bf4c05e757a59be668be876d8"}, {"lon": -77.01220383333333, "is_disabled": 0, "lat": 38.91965583333333, "fusion_lat": 0.0, "is_reserved": 0, "rental_uris": {"ios": "https://dc.lft.to/lastmile_qr_scan", "android": "https://dc.lft.to/lastmile_qr_scan"}, "fusion_lon": 0.0, "type": "electric_scooter", "bike_id": "f2d37ed87d8f050efbd24a8d0b7749e3", "name": "f2d37ed87d8f050efbd24a8d0b7749e3"}, {"lon": -77.04056866666667, "is_disabled": 0, "lat": 38.90511766666667, "fusion_lat": 0.0, "is_reserved": 0, "rental_uris": {"ios": "https://dc.lft.to/lastmile_qr_scan", "android": "https://dc.lft.to/lastmile_qr_scan"}, "fusion_lon": 0.0, "type": "electric_scooter", "bike_id": "b721b3863f5c8a9dd496d0f23e76245d", "name": "b721b3863f5c8a9dd496d0f23e76245d"}, {"lon": -77.024068, "is_disabled": 0, "lat": 38.919085, "fusion_lat": 0.0, "is_reserved": 0, "rental_uris": {"ios": "https://dc.lft.to/lastmile_qr_scan", "android": "https://dc.lft.to/lastmile_qr_scan"}, "fusion_lon": 0.0, "type": "electric_scooter", "bike_id": "774060524d1417e5293b98f3ccc7b9d9", "name": "774060524d1417e5293b98f3ccc7b9d9"}, {"lon": -77.02716816666667, "is_disabled": 0, "lat": 38.92767633333333, "fusion_lat": 0.0, "is_reserved": 0, "rental_uris": {"ios": "https://dc.lft.to/lastmile_qr_scan", "android": "https://dc.lft.to/lastmile_qr_scan"}, "fusion_lon": 0.0, "type": "electric_scooter", "bike_id": "c3eac7160ab3601dc06a4474f3f3e38b", "name": "c3eac7160ab3601dc06a4474f3f3e38b"}, {"lon": -77.06836783333334, "is_disabled": 0, "lat": 38.91720733333333, "fusion_lat": 0.0, "is_reserved": 0, "rental_uris": {"ios": "https://dc.lft.to/lastmile_qr_scan", "android": "https://dc.lft.to/lastmile_qr_scan"}, "fusion_lon": 0.0, "type": "electric_scooter", "bike_id": "d2a09edce61ad7d4a51c4339e60bb3ad", "name": "d2a09edce61ad7d4a51c4339e60bb3ad"}, {"lon": -77.04151283333333, "is_disabled": 0, "lat": 38.90732083333333, "fusion_lat": 0.0, "is_reserved": 0, "rental_uris": {"ios": "https://dc.lft.to/lastmile_qr_scan", "android": "https://dc.lft.to/lastmile_qr_scan"}, "fusion_lon": 0.0, "type": "electric_scooter", "bike_id": "76245b0d778f2885116bbaf863e2d8ff", "name": "76245b0d778f2885116bbaf863e2d8ff"}, {"lon": -76.961115, "is_disabled": 0, "lat": 38.91856883333333, "fusion_lat": 0.0, "is_reserved": 0, "rental_uris": {"ios": "https://dc.lft.to/lastmile_qr_scan", "android": "https://dc.lft.to/lastmile_qr_scan"}, "fusion_lon": 0.0, "type": "electric_scooter", "bike_id": "3366605d397ffc93238d6a2162cc0be9", "name": "3366605d397ffc93238d6a2162cc0be9"}, {"lon": -77.05038116666667, "is_disabled": 0, "lat": 38.923378166666666, "fusion_lat": 0.0, "is_reserved": 0, "rental_uris": {"ios": "https://dc.lft.to/lastmile_qr_scan", "android": "https://dc.lft.to/lastmile_qr_scan"}, "fusion_lon": 0.0, "type": "electric_scooter", "bike_id": "4930bf6fd16272eac05f1e07e677f20d", "name": "4930bf6fd16272eac05f1e07e677f20d"}, {"lon": -77.04464616666667, "is_disabled": 0, "lat": 38.911802333333334, "fusion_lat": 0.0, "is_reserved": 0, "rental_uris": {"ios": "https://dc.lft.to/lastmile_qr_scan", "android": "https://dc.lft.to/lastmile_qr_scan"}, "fusion_lon": 0.0, "type": "electric_scooter", "bike_id": "acd989f4c4fb4508fdfc1aa8e6941bcf", "name": "acd989f4c4fb4508fdfc1aa8e6941bcf"}, {"lon": -77.03861283333333, "is_disabled": 0, "lat": 38.912559333333334, "fusion_lat": 0.0, "is_reserved": 0, "rental_uris": {"ios": "https://dc.lft.to/lastmile_qr_scan", "android": "https://dc.lft.to/lastmile_qr_scan"}, "fusion_lon": 0.0, "type": "electric_scooter", "bike_id": "e64b9d1822d25126eddbd7e3bb887577", "name": "e64b9d1822d25126eddbd7e3bb887577"}, {"lon": -77.02126283333334, "is_disabled": 0, "lat": 38.92121066666667, "fusion_lat": 0.0, "is_reserved": 0, "rental_uris": {"ios": "https://dc.lft.to/lastmile_qr_scan", "android": "https://dc.lft.to/lastmile_qr_scan"}, "fusion_lon": 0.0, "type": "electric_scooter", "bike_id": "9767f4b94c0d683aecc98f293b13ad21", "name": "9767f4b94c0d683aecc98f293b13ad21"}, {"lon": -77.0422965, "is_disabled": 0, "lat": 38.920662, "fusion_lat": 0.0, "is_reserved": 0, "rental_uris": {"ios": "https://dc.lft.to/lastmile_qr_scan", "android": "https://dc.lft.to/lastmile_qr_scan"}, "fusion_lon": 0.0, "type": "electric_scooter", "bike_id": "f4ae73b6ede6aedd86ac98758bca96b8", "name": "f4ae73b6ede6aedd86ac98758bca96b8"}, {"lon": -77.003865, "is_disabled": 0, "lat": 38.89547533333333, "fusion_lat": 0.0, "is_reserved": 0, "rental_uris": {"ios": "https://dc.lft.to/lastmile_qr_scan", "android": "https://dc.lft.to/lastmile_qr_scan"}, "fusion_lon": 0.0, "type": "electric_scooter", "bike_id": "1e4a85c8da8d14a3219a69ef78368686", "name": "1e4a85c8da8d14a3219a69ef78368686"}, {"lon": -77.06398683333333, "is_disabled": 0, "lat": 38.944162, "fusion_lat": 0.0, "is_reserved": 0, "rental_uris": {"ios": "https://dc.lft.to/lastmile_qr_scan", "android": "https://dc.lft.to/lastmile_qr_scan"}, "fusion_lon": 0.0, "type": "electric_scooter", "bike_id": "e81c818ced628e01b25d92926cf11d92", "name": "e81c818ced628e01b25d92926cf11d92"}, {"lon": -76.98372183333333, "is_disabled": 0, "lat": 38.91498683333333, "fusion_lat": 0.0, "is_reserved": 0, "rental_uris": {"ios": "https://dc.lft.to/lastmile_qr_scan", "android": "https://dc.lft.to/lastmile_qr_scan"}, "fusion_lon": 0.0, "type": "electric_scooter", "bike_id": "24fc72ccdd391f897aad445c23cc4a7a", "name": "24fc72ccdd391f897aad445c23cc4a7a"}, {"lon": -77.02801416666667, "is_disabled": 0, "lat": 38.908943, "fusion_lat": 0.0, "is_reserved": 0, "rental_uris": {"ios": "https://dc.lft.to/lastmile_qr_scan", "android": "https://dc.lft.to/lastmile_qr_scan"}, "fusion_lon": 0.0, "type": "electric_scooter", "bike_id": "13a233a120bbd8693df325336c7efcdf", "name": "13a233a120bbd8693df325336c7efcdf"}, {"lon": -77.02300833333334, "is_disabled": 0, "lat": 38.895086166666665, "fusion_lat": 0.0, "is_reserved": 0, "rental_uris": {"ios": "https://dc.lft.to/lastmile_qr_scan", "android": "https://dc.lft.to/lastmile_qr_scan"}, "fusion_lon": 0.0, "type": "electric_scooter", "bike_id": "933d4795035964e16b2436d8da0845fb", "name": "933d4795035964e16b2436d8da0845fb"}, {"lon": -77.02196916666666, "is_disabled": 0, "lat": 38.902085, "fusion_lat": 0.0, "is_reserved": 0, "rental_uris": {"ios": "https://dc.lft.to/lastmile_qr_scan", "android": "https://dc.lft.to/lastmile_qr_scan"}, "fusion_lon": 0.0, "type": "electric_scooter", "bike_id": "857610fe55b7a41e7b2f4bcc245376e2", "name": "857610fe55b7a41e7b2f4bcc245376e2"}, {"lon": -77.04144966666667, "is_disabled": 0, "lat": 38.907334, "fusion_lat": 0.0, "is_reserved": 0, "rental_uris": {"ios": "https://dc.lft.to/lastmile_qr_scan", "android": "https://dc.lft.to/lastmile_qr_scan"}, "fusion_lon": 0.0, "type": "electric_scooter", "bike_id": "92e44c641a381c6d3ef2c99cc503752e", "name": "92e44c641a381c6d3ef2c99cc503752e"}, {"lon": -77.04876783333333, "is_disabled": 0, "lat": 38.909736333333335, "fusion_lat": 0.0, "is_reserved": 0, "rental_uris": {"ios": "https://dc.lft.to/lastmile_qr_scan", "android": "https://dc.lft.to/lastmile_qr_scan"}, "fusion_lon": 0.0, "type": "electric_scooter", "bike_id": "909a6ab7afb23efe7c11e00fcf545345", "name": "909a6ab7afb23efe7c11e00fcf545345"}, {"lon": -77.02089366666667, "is_disabled": 0, "lat": 38.8818795, "fusion_lat": 0.0, "is_reserved": 0, "rental_uris": {"ios": "https://dc.lft.to/lastmile_qr_scan", "android": "https://dc.lft.to/lastmile_qr_scan"}, "fusion_lon": 0.0, "type": "electric_scooter", "bike_id": "a872e03273547309d3a6c3d24d8bf734", "name": "a872e03273547309d3a6c3d24d8bf734"}, {"lon": -76.99491433333333, "is_disabled": 0, "lat": 38.883396, "fusion_lat": 0.0, "is_reserved": 0, "rental_uris": {"ios": "https://dc.lft.to/lastmile_qr_scan", "android": "https://dc.lft.to/lastmile_qr_scan"}, "fusion_lon": 0.0, "type": "electric_scooter", "bike_id": "2595e7a9c1d9899f24e4c7d0e5965128", "name": "2595e7a9c1d9899f24e4c7d0e5965128"}, {"lon": -77.02122316666667, "is_disabled": 0, "lat": 38.93580083333333, "fusion_lat": 0.0, "is_reserved": 0, "rental_uris": {"ios": "https://dc.lft.to/lastmile_qr_scan", "android": "https://dc.lft.to/lastmile_qr_scan"}, "fusion_lon": 0.0, "type": "electric_bike", "bike_id": "a1b0131586c501bd5e734dae19a919cd", "name": "a1b0131586c501bd5e734dae19a919cd"}, {"lon": -76.96532683333334, "is_disabled": 0, "lat": 38.87623683333333, "fusion_lat": 0.0, "is_reserved": 0, "rental_uris": {"ios": "https://dc.lft.to/lastmile_qr_scan", "android": "https://dc.lft.to/lastmile_qr_scan"}, "fusion_lon": 0.0, "type": "electric_scooter", "bike_id": "7747ac485f09d98881e2d21406343e25", "name": "7747ac485f09d98881e2d21406343e25"}, {"lon": -77.006742, "is_disabled": 0, "lat": 38.94507766666667, "fusion_lat": 0.0, "is_reserved": 0, "rental_uris": {"ios": "https://dc.lft.to/lastmile_qr_scan", "android": "https://dc.lft.to/lastmile_qr_scan"}, "fusion_lon": 0.0, "type": "electric_bike", "bike_id": "9a89c937ddba0560eda36ed3a803a5e4", "name": "9a89c937ddba0560eda36ed3a803a5e4"}, {"lon": -77.01691583333333, "is_disabled": 0, "lat": 38.93898166666666, "fusion_lat": 0.0, "is_reserved": 0, "rental_uris": {"ios": "https://dc.lft.to/lastmile_qr_scan", "android": "https://dc.lft.to/lastmile_qr_scan"}, "fusion_lon": 0.0, "type": "electric_bike", "bike_id": "1e3410246da3b3f67972ab08134b1417", "name": "1e3410246da3b3f67972ab08134b1417"}, {"lon": -77.015818, "is_disabled": 0, "lat": 38.8764965, "fusion_lat": 0.0, "is_reserved": 0, "rental_uris": {"ios": "https://dc.lft.to/lastmile_qr_scan", "android": "https://dc.lft.to/lastmile_qr_scan"}, "fusion_lon": 0.0, "type": "electric_scooter", "bike_id": "03d554ca7a6976fe8bdc23f2ca665004", "name": "03d554ca7a6976fe8bdc23f2ca665004"}, {"lon": -77.04157933333333, "is_disabled": 0, "lat": 38.91420433333333, "fusion_lat": 0.0, "is_reserved": 0, "rental_uris": {"ios": "https://dc.lft.to/lastmile_qr_scan", "android": "https://dc.lft.to/lastmile_qr_scan"}, "fusion_lon": 0.0, "type": "electric_scooter", "bike_id": "104a92daa9241d992f3eabc47e08871f", "name": "104a92daa9241d992f3eabc47e08871f"}, {"lon": -77.04008233333333, "is_disabled": 0, "lat": 38.910054, "fusion_lat": 0.0, "is_reserved": 0, "rental_uris": {"ios": "https://dc.lft.to/lastmile_qr_scan", "android": "https://dc.lft.to/lastmile_qr_scan"}, "fusion_lon": 0.0, "type": "electric_scooter", "bike_id": "f5966d2e559eacb2d27b345766705ec7", "name": "f5966d2e559eacb2d27b345766705ec7"}, {"lon": -77.01834733333334, "is_disabled": 0, "lat": 38.9499205, "fusion_lat": 0.0, "is_reserved": 0, "rental_uris": {"ios": "https://dc.lft.to/lastmile_qr_scan", "android": "https://dc.lft.to/lastmile_qr_scan"}, "fusion_lon": 0.0, "type": "electric_scooter", "bike_id": "892103fdd2b7dac7d56c628e1d8fae61", "name": "892103fdd2b7dac7d56c628e1d8fae61"}, {"lon": -76.98816183333334, "is_disabled": 0, "lat": 38.90065, "fusion_lat": 0.0, "is_reserved": 0, "rental_uris": {"ios": "https://dc.lft.to/lastmile_qr_scan", "android": "https://dc.lft.to/lastmile_qr_scan"}, "fusion_lon": 0.0, "type": "electric_scooter", "bike_id": "ecf67c723dcb3d4f43e4c351b7140cfd", "name": "ecf67c723dcb3d4f43e4c351b7140cfd"}, {"lon": -76.98600683333333, "is_disabled": 0, "lat": 38.90014216666667, "fusion_lat": 0.0, "is_reserved": 0, "rental_uris": {"ios": "https://dc.lft.to/lastmile_qr_scan", "android": "https://dc.lft.to/lastmile_qr_scan"}, "fusion_lon": 0.0, "type": "electric_scooter", "bike_id": "3534f4def8b06242110f880565017d20", "name": "3534f4def8b06242110f880565017d20"}, {"lon": -76.92741783333334, "is_disabled": 0, "lat": 38.9006655, "fusion_lat": 0.0, "is_reserved": 0, "rental_uris": {"ios": "https://dc.lft.to/lastmile_qr_scan", "android": "https://dc.lft.to/lastmile_qr_scan"}, "fusion_lon": 0.0, "type": "electric_scooter", "bike_id": "cb1517b7d3cdec81f2b7f7f67e917314", "name": "cb1517b7d3cdec81f2b7f7f67e917314"}, {"lon": -76.915984, "is_disabled": 0, "lat": 38.879856, "fusion_lat": 0.0, "is_reserved": 0, "rental_uris": {"ios": "https://dc.lft.to/lastmile_qr_scan", "android": "https://dc.lft.to/lastmile_qr_scan"}, "fusion_lon": 0.0, "type": "electric_bike", "bike_id": "fc408b3c898d31a44877fbca2dbea1a7", "name": "fc408b3c898d31a44877fbca2dbea1a7"}, {"lon": -77.04874633333333, "is_disabled": 0, "lat": 38.909751666666665, "fusion_lat": 0.0, "is_reserved": 0, "rental_uris": {"ios": "https://dc.lft.to/lastmile_qr_scan", "android": "https://dc.lft.to/lastmile_qr_scan"}, "fusion_lon": 0.0, "type": "electric_scooter", "bike_id": "0dcfdf8bed99f64520f1fb995968a185", "name": "0dcfdf8bed99f64520f1fb995968a185"}, {"lon": -76.98538883333333, "is_disabled": 0, "lat": 38.909543166666666, "fusion_lat": 0.0, "is_reserved": 0, "rental_uris": {"ios": "https://dc.lft.to/lastmile_qr_scan", "android": "https://dc.lft.to/lastmile_qr_scan"}, "fusion_lon": 0.0, "type": "electric_scooter", "bike_id": "dc1f926f9f10d65db604673cae75d1b1", "name": "dc1f926f9f10d65db604673cae75d1b1"}, {"lon": -76.99159783333333, "is_disabled": 0, "lat": 38.901390166666665, "fusion_lat": 0.0, "is_reserved": 0, "rental_uris": {"ios": "https://dc.lft.to/lastmile_qr_scan", "android": "https://dc.lft.to/lastmile_qr_scan"}, "fusion_lon": 0.0, "type": "electric_scooter", "bike_id": "7b089f027dea63d00ba63dca35b3b07f", "name": "7b089f027dea63d00ba63dca35b3b07f"}, {"lon": -77.0526325, "is_disabled": 0, "lat": 38.9278055, "fusion_lat": 0.0, "is_reserved": 0, "rental_uris": {"ios": "https://dc.lft.to/lastmile_qr_scan", "android": "https://dc.lft.to/lastmile_qr_scan"}, "fusion_lon": 0.0, "type": "electric_scooter", "bike_id": "c9181451921f8b8c3959cb89c11994b8", "name": "c9181451921f8b8c3959cb89c11994b8"}, {"lon": -77.0324395, "is_disabled": 0, "lat": 38.929151833333336, "fusion_lat": 0.0, "is_reserved": 0, "rental_uris": {"ios": "https://dc.lft.to/lastmile_qr_scan", "android": "https://dc.lft.to/lastmile_qr_scan"}, "fusion_lon": 0.0, "type": "electric_scooter", "bike_id": "ffb4777b64019fcdcd08b30a1388f120", "name": "ffb4777b64019fcdcd08b30a1388f120"}, {"lon": -77.01416133333333, "is_disabled": 0, "lat": 38.928728666666665, "fusion_lat": 0.0, "is_reserved": 0, "rental_uris": {"ios": "https://dc.lft.to/lastmile_qr_scan", "android": "https://dc.lft.to/lastmile_qr_scan"}, "fusion_lon": 0.0, "type": "electric_scooter", "bike_id": "056b67eda040c365f0f028e9caf5d4ba", "name": "056b67eda040c365f0f028e9caf5d4ba"}, {"lon": -76.99122933333334, "is_disabled": 0, "lat": 38.90877116666667, "fusion_lat": 0.0, "is_reserved": 0, "rental_uris": {"ios": "https://dc.lft.to/lastmile_qr_scan", "android": "https://dc.lft.to/lastmile_qr_scan"}, "fusion_lon": 0.0, "type": "electric_bike", "bike_id": "5150b34b346b749aaeccc74af20fa45a", "name": "5150b34b346b749aaeccc74af20fa45a"}, {"lon": -76.9489425, "is_disabled": 0, "lat": 38.89532466666667, "fusion_lat": 0.0, "is_reserved": 0, "rental_uris": {"ios": "https://dc.lft.to/lastmile_qr_scan", "android": "https://dc.lft.to/lastmile_qr_scan"}, "fusion_lon": 0.0, "type": "electric_scooter", "bike_id": "f595398b825a0cec09761d59a5c2abda", "name": "f595398b825a0cec09761d59a5c2abda"}, {"lon": -76.94894066666667, "is_disabled": 0, "lat": 38.895321, "fusion_lat": 0.0, "is_reserved": 0, "rental_uris": {"ios": "https://dc.lft.to/lastmile_qr_scan", "android": "https://dc.lft.to/lastmile_qr_scan"}, "fusion_lon": 0.0, "type": "electric_scooter", "bike_id": "add1084f3552e1c3dd8880a81d6e214a", "name": "add1084f3552e1c3dd8880a81d6e214a"}, {"lon": -77.03338216666667, "is_disabled": 0, "lat": 38.9157755, "fusion_lat": 0.0, "is_reserved": 0, "rental_uris": {"ios": "https://dc.lft.to/lastmile_qr_scan", "android": "https://dc.lft.to/lastmile_qr_scan"}, "fusion_lon": 0.0, "type": "electric_scooter", "bike_id": "6bac3894c43794a22022ba49516c38d6", "name": "6bac3894c43794a22022ba49516c38d6"}, {"lon": -77.0321845, "is_disabled": 0, "lat": 38.892377, "fusion_lat": 0.0, "is_reserved": 0, "rental_uris": {"ios": "https://dc.lft.to/lastmile_qr_scan", "android": "https://dc.lft.to/lastmile_qr_scan"}, "fusion_lon": 0.0, "type": "electric_scooter", "bike_id": "62f2c77da598f1f37b6f4a05760dbc0a", "name": "62f2c77da598f1f37b6f4a05760dbc0a"}, {"lon": -77.03212016666667, "is_disabled": 0, "lat": 38.89235633333333, "fusion_lat": 0.0, "is_reserved": 0, "rental_uris": {"ios": "https://dc.lft.to/lastmile_qr_scan", "android": "https://dc.lft.to/lastmile_qr_scan"}, "fusion_lon": 0.0, "type": "electric_scooter", "bike_id": "d68c8c94cbe453636e432a1081573ec8", "name": "d68c8c94cbe453636e432a1081573ec8"}, {"lon": -77.02008116666667, "is_disabled": 0, "lat": 38.914052166666664, "fusion_lat": 0.0, "is_reserved": 0, "rental_uris": {"ios": "https://dc.lft.to/lastmile_qr_scan", "android": "https://dc.lft.to/lastmile_qr_scan"}, "fusion_lon": 0.0, "type": "electric_scooter", "bike_id": "27ba7babf6281f34f9f5178106ee5529", "name": "27ba7babf6281f34f9f5178106ee5529"}, {"lon": -77.11608866666667, "is_disabled": 0, "lat": 38.85484533333333, "fusion_lat": 0.0, "is_reserved": 0, "rental_uris": {"ios": "https://dc.lft.to/lastmile_qr_scan", "android": "https://dc.lft.to/lastmile_qr_scan"}, "fusion_lon": 0.0, "type": "electric_bike", "bike_id": "57f66fb00f56a63ada44d89c2f61ce72", "name": "57f66fb00f56a63ada44d89c2f61ce72"}, {"lon": -77.02212366666667, "is_disabled": 0, "lat": 38.93401866666667, "fusion_lat": 0.0, "is_reserved": 0, "rental_uris": {"ios": "https://dc.lft.to/lastmile_qr_scan", "android": "https://dc.lft.to/lastmile_qr_scan"}, "fusion_lon": 0.0, "type": "electric_scooter", "bike_id": "eb1aaa696a06e1dca7ac0f46b2d297ed", "name": "eb1aaa696a06e1dca7ac0f46b2d297ed"}, {"lon": -77.036656, "is_disabled": 0, "lat": 38.90794733333333, "fusion_lat": 0.0, "is_reserved": 0, "rental_uris": {"ios": "https://dc.lft.to/lastmile_qr_scan", "android": "https://dc.lft.to/lastmile_qr_scan"}, "fusion_lon": 0.0, "type": "electric_scooter", "bike_id": "0916a7240fe0b31ac1294905a6d3ba8c", "name": "0916a7240fe0b31ac1294905a6d3ba8c"}, {"lon": -76.99854216666667, "is_disabled": 0, "lat": 38.891988833333336, "fusion_lat": 0.0, "is_reserved": 0, "rental_uris": {"ios": "https://dc.lft.to/lastmile_qr_scan", "android": "https://dc.lft.to/lastmile_qr_scan"}, "fusion_lon": 0.0, "type": "electric_scooter", "bike_id": "79c722af708cba6eb134cf09e1400739", "name": "79c722af708cba6eb134cf09e1400739"}, {"lon": -77.1146585, "is_disabled": 0, "lat": 38.84147866666667, "fusion_lat": 0.0, "is_reserved": 0, "rental_uris": {"ios": "https://dc.lft.to/lastmile_qr_scan", "android": "https://dc.lft.to/lastmile_qr_scan"}, "fusion_lon": 0.0, "type": "electric_bike", "bike_id": "fa04a1994926c8cf1077a6658f306e42", "name": "fa04a1994926c8cf1077a6658f306e42"}, {"lon": -77.03320583333333, "is_disabled": 0, "lat": 38.898436833333335, "fusion_lat": 0.0, "is_reserved": 0, "rental_uris": {"ios": "https://dc.lft.to/lastmile_qr_scan", "android": "https://dc.lft.to/lastmile_qr_scan"}, "fusion_lon": 0.0, "type": "electric_scooter", "bike_id": "03194f93d98653c122a0f27d9342d1f1", "name": "03194f93d98653c122a0f27d9342d1f1"}, {"lon": -77.04337633333333, "is_disabled": 0, "lat": 38.9073025, "fusion_lat": 0.0, "is_reserved": 0, "rental_uris": {"ios": "https://dc.lft.to/lastmile_qr_scan", "android": "https://dc.lft.to/lastmile_qr_scan"}, "fusion_lon": 0.0, "type": "electric_scooter", "bike_id": "479163a262b6679cdcfcd490d68ed0bf", "name": "479163a262b6679cdcfcd490d68ed0bf"}, {"lon": -76.94414783333333, "is_disabled": 0, "lat": 38.9922565, "fusion_lat": 0.0, "is_reserved": 0, "rental_uris": {"ios": "https://dc.lft.to/lastmile_qr_scan", "android": "https://dc.lft.to/lastmile_qr_scan"}, "fusion_lon": 0.0, "type": "electric_bike", "bike_id": "11ad54f56aee274b577c9928e95cf0a9", "name": "11ad54f56aee274b577c9928e95cf0a9"}, {"lon": -77.02551133333333, "is_disabled": 0, "lat": 38.917094, "fusion_lat": 0.0, "is_reserved": 0, "rental_uris": {"ios": "https://dc.lft.to/lastmile_qr_scan", "android": "https://dc.lft.to/lastmile_qr_scan"}, "fusion_lon": 0.0, "type": "electric_scooter", "bike_id": "583b2fe4201bfac595a3d1e33f00a536", "name": "583b2fe4201bfac595a3d1e33f00a536"}, {"lon": -77.0384705, "is_disabled": 0, "lat": 38.90715433333333, "fusion_lat": 0.0, "is_reserved": 0, "rental_uris": {"ios": "https://dc.lft.to/lastmile_qr_scan", "android": "https://dc.lft.to/lastmile_qr_scan"}, "fusion_lon": 0.0, "type": "electric_scooter", "bike_id": "45d5577e778584bc88a44eb359e4f806", "name": "45d5577e778584bc88a44eb359e4f806"}, {"lon": -77.03400666666667, "is_disabled": 0, "lat": 38.924479166666664, "fusion_lat": 0.0, "is_reserved": 0, "rental_uris": {"ios": "https://dc.lft.to/lastmile_qr_scan", "android": "https://dc.lft.to/lastmile_qr_scan"}, "fusion_lon": 0.0, "type": "electric_scooter", "bike_id": "76055fc17ca0ee288167cbe02413b17f", "name": "76055fc17ca0ee288167cbe02413b17f"}, {"lon": -77.041666, "is_disabled": 0, "lat": 38.918593666666666, "fusion_lat": 0.0, "is_reserved": 0, "rental_uris": {"ios": "https://dc.lft.to/lastmile_qr_scan", "android": "https://dc.lft.to/lastmile_qr_scan"}, "fusion_lon": 0.0, "type": "electric_scooter", "bike_id": "b2f2601a4389c7c0fb1167efd8cfd76a", "name": "b2f2601a4389c7c0fb1167efd8cfd76a"}, {"lon": -77.0168055, "is_disabled": 0, "lat": 38.905658, "fusion_lat": 0.0, "is_reserved": 0, "rental_uris": {"ios": "https://dc.lft.to/lastmile_qr_scan", "android": "https://dc.lft.to/lastmile_qr_scan"}, "fusion_lon": 0.0, "type": "electric_scooter", "bike_id": "f99f583e3b1f7dd19eb9c2e76604b09f", "name": "f99f583e3b1f7dd19eb9c2e76604b09f"}, {"lon": -77.04663233333333, "is_disabled": 0, "lat": 38.90565266666667, "fusion_lat": 0.0, "is_reserved": 0, "rental_uris": {"ios": "https://dc.lft.to/lastmile_qr_scan", "android": "https://dc.lft.to/lastmile_qr_scan"}, "fusion_lon": 0.0, "type": "electric_scooter", "bike_id": "aa83b5621bebf6e8e5f7633b3cccb4f3", "name": "aa83b5621bebf6e8e5f7633b3cccb4f3"}, {"lon": -77.0273595, "is_disabled": 0, "lat": 38.9276535, "fusion_lat": 0.0, "is_reserved": 0, "rental_uris": {"ios": "https://dc.lft.to/lastmile_qr_scan", "android": "https://dc.lft.to/lastmile_qr_scan"}, "fusion_lon": 0.0, "type": "electric_scooter", "bike_id": "083b892277b6a4f1561417b96f99c60c", "name": "083b892277b6a4f1561417b96f99c60c"}, {"lon": -76.9653555, "is_disabled": 0, "lat": 38.87477883333333, "fusion_lat": 0.0, "is_reserved": 0, "rental_uris": {"ios": "https://dc.lft.to/lastmile_qr_scan", "android": "https://dc.lft.to/lastmile_qr_scan"}, "fusion_lon": 0.0, "type": "electric_bike", "bike_id": "e5fc50f7271b0c67d51be99db2c783f6", "name": "e5fc50f7271b0c67d51be99db2c783f6"}, {"lon": -76.93025316666666, "is_disabled": 0, "lat": 38.90169083333333, "fusion_lat": 0.0, "is_reserved": 0, "rental_uris": {"ios": "https://dc.lft.to/lastmile_qr_scan", "android": "https://dc.lft.to/lastmile_qr_scan"}, "fusion_lon": 0.0, "type": "electric_scooter", "bike_id": "c2a57da69f28003975d09eefd6b17960", "name": "c2a57da69f28003975d09eefd6b17960"}, {"lon": -77.01195833333334, "is_disabled": 0, "lat": 38.916975, "fusion_lat": 0.0, "is_reserved": 0, "rental_uris": {"ios": "https://dc.lft.to/lastmile_qr_scan", "android": "https://dc.lft.to/lastmile_qr_scan"}, "fusion_lon": 0.0, "type": "electric_scooter", "bike_id": "57aa5495fc1676118e593b16cf5b2d6a", "name": "57aa5495fc1676118e593b16cf5b2d6a"}, {"lon": -77.06310116666667, "is_disabled": 0, "lat": 38.798548, "fusion_lat": 0.0, "is_reserved": 0, "rental_uris": {"ios": "https://dc.lft.to/lastmile_qr_scan", "android": "https://dc.lft.to/lastmile_qr_scan"}, "fusion_lon": 0.0, "type": "electric_bike", "bike_id": "aeab9ce0093ca9b6fa020d19882c83c5", "name": "aeab9ce0093ca9b6fa020d19882c83c5"}, {"lon": -77.0100535, "is_disabled": 0, "lat": 38.95651216666667, "fusion_lat": 0.0, "is_reserved": 0, "rental_uris": {"ios": "https://dc.lft.to/lastmile_qr_scan", "android": "https://dc.lft.to/lastmile_qr_scan"}, "fusion_lon": 0.0, "type": "electric_scooter", "bike_id": "68ebbe785ed1327e3bf5a489affaa0d4", "name": "68ebbe785ed1327e3bf5a489affaa0d4"}, {"lon": -77.01148816666667, "is_disabled": 0, "lat": 38.9564105, "fusion_lat": 0.0, "is_reserved": 0, "rental_uris": {"ios": "https://dc.lft.to/lastmile_qr_scan", "android": "https://dc.lft.to/lastmile_qr_scan"}, "fusion_lon": 0.0, "type": "electric_scooter", "bike_id": "d1432776bd6cb517461bc42025fc35d2", "name": "d1432776bd6cb517461bc42025fc35d2"}, {"lon": -77.02455633333334, "is_disabled": 0, "lat": 38.943651333333335, "fusion_lat": 0.0, "is_reserved": 0, "rental_uris": {"ios": "https://dc.lft.to/lastmile_qr_scan", "android": "https://dc.lft.to/lastmile_qr_scan"}, "fusion_lon": 0.0, "type": "electric_scooter", "bike_id": "1104a52e5274546c8a02cb9a366993fe", "name": "1104a52e5274546c8a02cb9a366993fe"}, {"lon": -77.00576666666667, "is_disabled": 0, "lat": 38.90560333333333, "fusion_lat": 0.0, "is_reserved": 0, "rental_uris": {"ios": "https://dc.lft.to/lastmile_qr_scan", "android": "https://dc.lft.to/lastmile_qr_scan"}, "fusion_lon": 0.0, "type": "electric_scooter", "bike_id": "41124448e1ca7209e0ea913046e7a826", "name": "41124448e1ca7209e0ea913046e7a826"}, {"lon": -77.02953533333333, "is_disabled": 0, "lat": 38.905006166666666, "fusion_lat": 0.0, "is_reserved": 0, "rental_uris": {"ios": "https://dc.lft.to/lastmile_qr_scan", "android": "https://dc.lft.to/lastmile_qr_scan"}, "fusion_lon": 0.0, "type": "electric_scooter", "bike_id": "b78d4628d3a5f210a75583a35cb3b1ef", "name": "b78d4628d3a5f210a75583a35cb3b1ef"}, {"lon": -77.020926, "is_disabled": 0, "lat": 38.9214, "fusion_lat": 0.0, "is_reserved": 0, "rental_uris": {"ios": "https://dc.lft.to/lastmile_qr_scan", "android": "https://dc.lft.to/lastmile_qr_scan"}, "fusion_lon": 0.0, "type": "electric_scooter", "bike_id": "06cb44e16e8dccc54c48a69d720425cd", "name": "06cb44e16e8dccc54c48a69d720425cd"}, {"lon": -77.0514955, "is_disabled": 0, "lat": 38.92378583333333, "fusion_lat": 0.0, "is_reserved": 0, "rental_uris": {"ios": "https://dc.lft.to/lastmile_qr_scan", "android": "https://dc.lft.to/lastmile_qr_scan"}, "fusion_lon": 0.0, "type": "electric_scooter", "bike_id": "671cae1a5789b1c8b4d8fa988fdf35db", "name": "671cae1a5789b1c8b4d8fa988fdf35db"}, {"lon": -77.017759, "is_disabled": 0, "lat": 38.91505883333333, "fusion_lat": 0.0, "is_reserved": 0, "rental_uris": {"ios": "https://dc.lft.to/lastmile_qr_scan", "android": "https://dc.lft.to/lastmile_qr_scan"}, "fusion_lon": 0.0, "type": "electric_scooter", "bike_id": "edc869cef07d5adae12ebce98e4f258f", "name": "edc869cef07d5adae12ebce98e4f258f"}, {"lon": -77.02303566666667, "is_disabled": 0, "lat": 38.9091445, "fusion_lat": 0.0, "is_reserved": 0, "rental_uris": {"ios": "https://dc.lft.to/lastmile_qr_scan", "android": "https://dc.lft.to/lastmile_qr_scan"}, "fusion_lon": 0.0, "type": "electric_scooter", "bike_id": "068df4719a0cea1c0d9fd592b627fd75", "name": "068df4719a0cea1c0d9fd592b627fd75"}, {"lon": -77.02497166666667, "is_disabled": 0, "lat": 38.91953016666667, "fusion_lat": 0.0, "is_reserved": 0, "rental_uris": {"ios": "https://dc.lft.to/lastmile_qr_scan", "android": "https://dc.lft.to/lastmile_qr_scan"}, "fusion_lon": 0.0, "type": "electric_scooter", "bike_id": "8e474572003df2989da6e13802bb9415", "name": "8e474572003df2989da6e13802bb9415"}, {"lon": -77.00437783333334, "is_disabled": 0, "lat": 38.876568, "fusion_lat": 0.0, "is_reserved": 0, "rental_uris": {"ios": "https://dc.lft.to/lastmile_qr_scan", "android": "https://dc.lft.to/lastmile_qr_scan"}, "fusion_lon": 0.0, "type": "electric_scooter", "bike_id": "84453d3d75a994d1277d3c5f8f4bd2da", "name": "84453d3d75a994d1277d3c5f8f4bd2da"}, {"lon": -77.0259265, "is_disabled": 0, "lat": 38.90431933333333, "fusion_lat": 0.0, "is_reserved": 0, "rental_uris": {"ios": "https://dc.lft.to/lastmile_qr_scan", "android": "https://dc.lft.to/lastmile_qr_scan"}, "fusion_lon": 0.0, "type": "electric_scooter", "bike_id": "48690cb9840688f9b04f11204033b1c4", "name": "48690cb9840688f9b04f11204033b1c4"}, {"lon": -77.02271166666667, "is_disabled": 0, "lat": 38.89524316666667, "fusion_lat": 0.0, "is_reserved": 0, "rental_uris": {"ios": "https://dc.lft.to/lastmile_qr_scan", "android": "https://dc.lft.to/lastmile_qr_scan"}, "fusion_lon": 0.0, "type": "electric_scooter", "bike_id": "244e080de77306e3a13643fc5af41583", "name": "244e080de77306e3a13643fc5af41583"}, {"lon": -77.00112633333333, "is_disabled": 0, "lat": 38.88653433333333, "fusion_lat": 0.0, "is_reserved": 0, "rental_uris": {"ios": "https://dc.lft.to/lastmile_qr_scan", "android": "https://dc.lft.to/lastmile_qr_scan"}, "fusion_lon": 0.0, "type": "electric_scooter", "bike_id": "d53fd3d084d94e053e1f5cdb8f121ff3", "name": "d53fd3d084d94e053e1f5cdb8f121ff3"}, {"lon": -77.02121883333334, "is_disabled": 0, "lat": 38.902119666666664, "fusion_lat": 0.0, "is_reserved": 0, "rental_uris": {"ios": "https://dc.lft.to/lastmile_qr_scan", "android": "https://dc.lft.to/lastmile_qr_scan"}, "fusion_lon": 0.0, "type": "electric_scooter", "bike_id": "944a8942c095bf4508313c6caabcf40d", "name": "944a8942c095bf4508313c6caabcf40d"}, {"lon": -77.02495133333333, "is_disabled": 0, "lat": 38.918097833333334, "fusion_lat": 0.0, "is_reserved": 0, "rental_uris": {"ios": "https://dc.lft.to/lastmile_qr_scan", "android": "https://dc.lft.to/lastmile_qr_scan"}, "fusion_lon": 0.0, "type": "electric_scooter", "bike_id": "3283969f2f9799ce8f43d3a4786a8d6e", "name": "3283969f2f9799ce8f43d3a4786a8d6e"}, {"lon": -77.0225255, "is_disabled": 0, "lat": 38.9667725, "fusion_lat": 0.0, "is_reserved": 0, "rental_uris": {"ios": "https://dc.lft.to/lastmile_qr_scan", "android": "https://dc.lft.to/lastmile_qr_scan"}, "fusion_lon": 0.0, "type": "electric_bike", "bike_id": "e79188fa877416c03d18888e02a28795", "name": "e79188fa877416c03d18888e02a28795"}, {"lon": -76.97859683333333, "is_disabled": 0, "lat": 38.84473166666667, "fusion_lat": 0.0, "is_reserved": 0, "rental_uris": {"ios": "https://dc.lft.to/lastmile_qr_scan", "android": "https://dc.lft.to/lastmile_qr_scan"}, "fusion_lon": 0.0, "type": "electric_bike", "bike_id": "aadd05ba6bd29a208d5364df1b3c070b", "name": "aadd05ba6bd29a208d5364df1b3c070b"}, {"lon": -77.012158, "is_disabled": 0, "lat": 38.89844316666667, "fusion_lat": 0.0, "is_reserved": 0, "rental_uris": {"ios": "https://dc.lft.to/lastmile_qr_scan", "android": "https://dc.lft.to/lastmile_qr_scan"}, "fusion_lon": 0.0, "type": "electric_scooter", "bike_id": "97223d0614ad7d71886647d0e13e6ac1", "name": "97223d0614ad7d71886647d0e13e6ac1"}, {"lon": -77.034731, "is_disabled": 0, "lat": 38.88487833333333, "fusion_lat": 0.0, "is_reserved": 0, "rental_uris": {"ios": "https://dc.lft.to/lastmile_qr_scan", "android": "https://dc.lft.to/lastmile_qr_scan"}, "fusion_lon": 0.0, "type": "electric_scooter", "bike_id": "aa291ff299b189f39ab7a1c262769e93", "name": "aa291ff299b189f39ab7a1c262769e93"}, {"lon": -76.98372016666667, "is_disabled": 0, "lat": 38.879555, "fusion_lat": 0.0, "is_reserved": 0, "rental_uris": {"ios": "https://dc.lft.to/lastmile_qr_scan", "android": "https://dc.lft.to/lastmile_qr_scan"}, "fusion_lon": 0.0, "type": "electric_scooter", "bike_id": "1ac678126801a95eaaa0ced83df715be", "name": "1ac678126801a95eaaa0ced83df715be"}, {"lon": -77.02560883333334, "is_disabled": 0, "lat": 38.909573, "fusion_lat": 0.0, "is_reserved": 0, "rental_uris": {"ios": "https://dc.lft.to/lastmile_qr_scan", "android": "https://dc.lft.to/lastmile_qr_scan"}, "fusion_lon": 0.0, "type": "electric_scooter", "bike_id": "4a3721f1851b942148c6aec460b816c3", "name": "4a3721f1851b942148c6aec460b816c3"}, {"lon": -77.05660166666667, "is_disabled": 0, "lat": 38.90612816666667, "fusion_lat": 0.0, "is_reserved": 0, "rental_uris": {"ios": "https://dc.lft.to/lastmile_qr_scan", "android": "https://dc.lft.to/lastmile_qr_scan"}, "fusion_lon": 0.0, "type": "electric_scooter", "bike_id": "5dce5eef40a06269a67f2b98e9331a79", "name": "5dce5eef40a06269a67f2b98e9331a79"}, {"lon": -77.0573075, "is_disabled": 0, "lat": 38.933628, "fusion_lat": 0.0, "is_reserved": 0, "rental_uris": {"ios": "https://dc.lft.to/lastmile_qr_scan", "android": "https://dc.lft.to/lastmile_qr_scan"}, "fusion_lon": 0.0, "type": "electric_scooter", "bike_id": "e614972580fe85de52fe03a66fc456fc", "name": "e614972580fe85de52fe03a66fc456fc"}, {"lon": -77.00845816666667, "is_disabled": 0, "lat": 38.922334166666666, "fusion_lat": 0.0, "is_reserved": 0, "rental_uris": {"ios": "https://dc.lft.to/lastmile_qr_scan", "android": "https://dc.lft.to/lastmile_qr_scan"}, "fusion_lon": 0.0, "type": "electric_scooter", "bike_id": "0866fa56f6a5bb56807f2bae1345954b", "name": "0866fa56f6a5bb56807f2bae1345954b"}, {"lon": -76.97882866666667, "is_disabled": 0, "lat": 38.901915833333334, "fusion_lat": 0.0, "is_reserved": 0, "rental_uris": {"ios": "https://dc.lft.to/lastmile_qr_scan", "android": "https://dc.lft.to/lastmile_qr_scan"}, "fusion_lon": 0.0, "type": "electric_scooter", "bike_id": "989707c4f71dbda2bda643dbb804a6aa", "name": "989707c4f71dbda2bda643dbb804a6aa"}, {"lon": -77.00567883333333, "is_disabled": 0, "lat": 38.87654583333333, "fusion_lat": 0.0, "is_reserved": 0, "rental_uris": {"ios": "https://dc.lft.to/lastmile_qr_scan", "android": "https://dc.lft.to/lastmile_qr_scan"}, "fusion_lon": 0.0, "type": "electric_scooter", "bike_id": "33b4fd8b04791a526674cb29dc804bc6", "name": "33b4fd8b04791a526674cb29dc804bc6"}, {"lon": -77.04765883333333, "is_disabled": 0, "lat": 38.91770266666666, "fusion_lat": 0.0, "is_reserved": 0, "rental_uris": {"ios": "https://dc.lft.to/lastmile_qr_scan", "android": "https://dc.lft.to/lastmile_qr_scan"}, "fusion_lon": 0.0, "type": "electric_scooter", "bike_id": "0947a24ee57068d77e190072e71c1c67", "name": "0947a24ee57068d77e190072e71c1c67"}, {"lon": -77.01434866666666, "is_disabled": 0, "lat": 38.91314166666667, "fusion_lat": 0.0, "is_reserved": 0, "rental_uris": {"ios": "https://dc.lft.to/lastmile_qr_scan", "android": "https://dc.lft.to/lastmile_qr_scan"}, "fusion_lon": 0.0, "type": "electric_scooter", "bike_id": "d7298e1675effb099287dd4839610469", "name": "d7298e1675effb099287dd4839610469"}, {"lon": -76.98714183333334, "is_disabled": 0, "lat": 38.8670265, "fusion_lat": 0.0, "is_reserved": 0, "rental_uris": {"ios": "https://dc.lft.to/lastmile_qr_scan", "android": "https://dc.lft.to/lastmile_qr_scan"}, "fusion_lon": 0.0, "type": "electric_scooter", "bike_id": "53b105faf0d7d8c6f4b0acd3efa82670", "name": "53b105faf0d7d8c6f4b0acd3efa82670"}, {"lon": -77.04085766666667, "is_disabled": 0, "lat": 38.92032366666667, "fusion_lat": 0.0, "is_reserved": 0, "rental_uris": {"ios": "https://dc.lft.to/lastmile_qr_scan", "android": "https://dc.lft.to/lastmile_qr_scan"}, "fusion_lon": 0.0, "type": "electric_scooter", "bike_id": "13720ce5b2d24d93ea1fd2b7ea8e87b1", "name": "13720ce5b2d24d93ea1fd2b7ea8e87b1"}, {"lon": -77.0258235, "is_disabled": 0, "lat": 38.92686, "fusion_lat": 0.0, "is_reserved": 0, "rental_uris": {"ios": "https://dc.lft.to/lastmile_qr_scan", "android": "https://dc.lft.to/lastmile_qr_scan"}, "fusion_lon": 0.0, "type": "electric_bike", "bike_id": "c37c0696444768d6a58ca0480742b05b", "name": "c37c0696444768d6a58ca0480742b05b"}, {"lon": -77.03235366666667, "is_disabled": 0, "lat": 38.92155916666667, "fusion_lat": 0.0, "is_reserved": 0, "rental_uris": {"ios": "https://dc.lft.to/lastmile_qr_scan", "android": "https://dc.lft.to/lastmile_qr_scan"}, "fusion_lon": 0.0, "type": "electric_scooter", "bike_id": "fb87e914fea5e6962944342b852c519f", "name": "fb87e914fea5e6962944342b852c519f"}, {"lon": -77.0444935, "is_disabled": 0, "lat": 38.8961275, "fusion_lat": 0.0, "is_reserved": 0, "rental_uris": {"ios": "https://dc.lft.to/lastmile_qr_scan", "android": "https://dc.lft.to/lastmile_qr_scan"}, "fusion_lon": 0.0, "type": "electric_scooter", "bike_id": "d2f5436a4f5388f0e7a97201a0949ca1", "name": "d2f5436a4f5388f0e7a97201a0949ca1"}, {"lon": -77.04164183333333, "is_disabled": 0, "lat": 38.91598233333333, "fusion_lat": 0.0, "is_reserved": 0, "rental_uris": {"ios": "https://dc.lft.to/lastmile_qr_scan", "android": "https://dc.lft.to/lastmile_qr_scan"}, "fusion_lon": 0.0, "type": "electric_scooter", "bike_id": "6ffc55d2d770bbc3b54ae619217e7b53", "name": "6ffc55d2d770bbc3b54ae619217e7b53"}, {"lon": -77.03423433333333, "is_disabled": 0, "lat": 38.936624, "fusion_lat": 0.0, "is_reserved": 0, "rental_uris": {"ios": "https://dc.lft.to/lastmile_qr_scan", "android": "https://dc.lft.to/lastmile_qr_scan"}, "fusion_lon": 0.0, "type": "electric_bike", "bike_id": "80a248aab6836a1ca8b796a2ee0ec868", "name": "80a248aab6836a1ca8b796a2ee0ec868"}, {"lon": -77.13096283333333, "is_disabled": 0, "lat": 39.0243725, "fusion_lat": 0.0, "is_reserved": 0, "rental_uris": {"ios": "https://dc.lft.to/lastmile_qr_scan", "android": "https://dc.lft.to/lastmile_qr_scan"}, "fusion_lon": 0.0, "type": "electric_bike", "bike_id": "1f823142217fc976a75d96371ff9c994", "name": "1f823142217fc976a75d96371ff9c994"}, {"lon": -77.02810166666667, "is_disabled": 0, "lat": 38.91705116666667, "fusion_lat": 0.0, "is_reserved": 0, "rental_uris": {"ios": "https://dc.lft.to/lastmile_qr_scan", "android": "https://dc.lft.to/lastmile_qr_scan"}, "fusion_lon": 0.0, "type": "electric_scooter", "bike_id": "0c19568f4f7013e407f6c60911294066", "name": "0c19568f4f7013e407f6c60911294066"}, {"lon": -77.048519, "is_disabled": 0, "lat": 38.9044465, "fusion_lat": 0.0, "is_reserved": 0, "rental_uris": {"ios": "https://dc.lft.to/lastmile_qr_scan", "android": "https://dc.lft.to/lastmile_qr_scan"}, "fusion_lon": 0.0, "type": "electric_scooter", "bike_id": "0315b9bb62e956f802534da70bf52545", "name": "0315b9bb62e956f802534da70bf52545"}, {"lon": -77.04335616666667, "is_disabled": 0, "lat": 38.92219766666667, "fusion_lat": 0.0, "is_reserved": 0, "rental_uris": {"ios": "https://dc.lft.to/lastmile_qr_scan", "android": "https://dc.lft.to/lastmile_qr_scan"}, "fusion_lon": 0.0, "type": "electric_scooter", "bike_id": "3847c060f98c1c16ee45985e6fa4cce6", "name": "3847c060f98c1c16ee45985e6fa4cce6"}, {"lon": -77.03174216666666, "is_disabled": 0, "lat": 38.91324866666667, "fusion_lat": 0.0, "is_reserved": 0, "rental_uris": {"ios": "https://dc.lft.to/lastmile_qr_scan", "android": "https://dc.lft.to/lastmile_qr_scan"}, "fusion_lon": 0.0, "type": "electric_scooter", "bike_id": "faf1603dacd16cfcbb91d5c128beb1c8", "name": "faf1603dacd16cfcbb91d5c128beb1c8"}, {"lon": -77.04427983333333, "is_disabled": 0, "lat": 38.909672, "fusion_lat": 0.0, "is_reserved": 0, "rental_uris": {"ios": "https://dc.lft.to/lastmile_qr_scan", "android": "https://dc.lft.to/lastmile_qr_scan"}, "fusion_lon": 0.0, "type": "electric_scooter", "bike_id": "fe6866f929803b999c9c4c59c268a88e", "name": "fe6866f929803b999c9c4c59c268a88e"}, {"lon": -77.00196783333334, "is_disabled": 0, "lat": 38.96505416666667, "fusion_lat": 0.0, "is_reserved": 0, "rental_uris": {"ios": "https://dc.lft.to/lastmile_qr_scan", "android": "https://dc.lft.to/lastmile_qr_scan"}, "fusion_lon": 0.0, "type": "electric_scooter", "bike_id": "23b9890e0d3b9543426bf84d0b9e0356", "name": "23b9890e0d3b9543426bf84d0b9e0356"}, {"lon": -77.01970666666666, "is_disabled": 0, "lat": 38.876803, "fusion_lat": 0.0, "is_reserved": 0, "rental_uris": {"ios": "https://dc.lft.to/lastmile_qr_scan", "android": "https://dc.lft.to/lastmile_qr_scan"}, "fusion_lon": 0.0, "type": "electric_scooter", "bike_id": "35bf0cb20e0674064c6d323923e52fe0", "name": "35bf0cb20e0674064c6d323923e52fe0"}, {"lon": -77.02976683333333, "is_disabled": 0, "lat": 38.986952333333335, "fusion_lat": 0.0, "is_reserved": 0, "rental_uris": {"ios": "https://dc.lft.to/lastmile_qr_scan", "android": "https://dc.lft.to/lastmile_qr_scan"}, "fusion_lon": 0.0, "type": "electric_scooter", "bike_id": "55bc42e1dae9bcffcd025515eb66ac9d", "name": "55bc42e1dae9bcffcd025515eb66ac9d"}, {"lon": -77.03175083333333, "is_disabled": 0, "lat": 38.908848666666664, "fusion_lat": 0.0, "is_reserved": 0, "rental_uris": {"ios": "https://dc.lft.to/lastmile_qr_scan", "android": "https://dc.lft.to/lastmile_qr_scan"}, "fusion_lon": 0.0, "type": "electric_scooter", "bike_id": "014042011bb39a9475b12138b9d7752c", "name": "014042011bb39a9475b12138b9d7752c"}, {"lon": -77.00193183333333, "is_disabled": 0, "lat": 38.902355, "fusion_lat": 0.0, "is_reserved": 0, "rental_uris": {"ios": "https://dc.lft.to/lastmile_qr_scan", "android": "https://dc.lft.to/lastmile_qr_scan"}, "fusion_lon": 0.0, "type": "electric_scooter", "bike_id": "a95ba27482d33901edeece9842392469", "name": "a95ba27482d33901edeece9842392469"}, {"lon": -77.04195266666666, "is_disabled": 0, "lat": 38.920495, "fusion_lat": 0.0, "is_reserved": 0, "rental_uris": {"ios": "https://dc.lft.to/lastmile_qr_scan", "android": "https://dc.lft.to/lastmile_qr_scan"}, "fusion_lon": 0.0, "type": "electric_scooter", "bike_id": "eaa1f0bc8cd4cb37f35a5a7fb860480a", "name": "eaa1f0bc8cd4cb37f35a5a7fb860480a"}, {"lon": -77.04765283333333, "is_disabled": 0, "lat": 38.917511833333336, "fusion_lat": 0.0, "is_reserved": 0, "rental_uris": {"ios": "https://dc.lft.to/lastmile_qr_scan", "android": "https://dc.lft.to/lastmile_qr_scan"}, "fusion_lon": 0.0, "type": "electric_scooter", "bike_id": "49aaba95cefdd92158943a419da8a23a", "name": "49aaba95cefdd92158943a419da8a23a"}, {"lon": -77.03425683333333, "is_disabled": 0, "lat": 38.90797466666667, "fusion_lat": 0.0, "is_reserved": 0, "rental_uris": {"ios": "https://dc.lft.to/lastmile_qr_scan", "android": "https://dc.lft.to/lastmile_qr_scan"}, "fusion_lon": 0.0, "type": "electric_scooter", "bike_id": "3e9c0288be0cb557b832d234fe8b8847", "name": "3e9c0288be0cb557b832d234fe8b8847"}, {"lon": -77.038374, "is_disabled": 0, "lat": 38.907728166666665, "fusion_lat": 0.0, "is_reserved": 0, "rental_uris": {"ios": "https://dc.lft.to/lastmile_qr_scan", "android": "https://dc.lft.to/lastmile_qr_scan"}, "fusion_lon": 0.0, "type": "electric_scooter", "bike_id": "0d2f18a27dc1ed23018f1fb51abccb26", "name": "0d2f18a27dc1ed23018f1fb51abccb26"}, {"lon": -76.99875233333333, "is_disabled": 0, "lat": 38.844379, "fusion_lat": 0.0, "is_reserved": 0, "rental_uris": {"ios": "https://dc.lft.to/lastmile_qr_scan", "android": "https://dc.lft.to/lastmile_qr_scan"}, "fusion_lon": 0.0, "type": "electric_scooter", "bike_id": "f30c4b5e8606af354ceecf0db7c66ffb", "name": "f30c4b5e8606af354ceecf0db7c66ffb"}, {"lon": -77.0325935, "is_disabled": 0, "lat": 38.92155316666667, "fusion_lat": 0.0, "is_reserved": 0, "rental_uris": {"ios": "https://dc.lft.to/lastmile_qr_scan", "android": "https://dc.lft.to/lastmile_qr_scan"}, "fusion_lon": 0.0, "type": "electric_scooter", "bike_id": "1f73ef5944c173a2818e922bb0be5c48", "name": "1f73ef5944c173a2818e922bb0be5c48"}, {"lon": -77.01093283333333, "is_disabled": 0, "lat": 38.873090166666664, "fusion_lat": 0.0, "is_reserved": 0, "rental_uris": {"ios": "https://dc.lft.to/lastmile_qr_scan", "android": "https://dc.lft.to/lastmile_qr_scan"}, "fusion_lon": 0.0, "type": "electric_bike", "bike_id": "39ebf71169339bdef1c715faa0c3a180", "name": "39ebf71169339bdef1c715faa0c3a180"}, {"lon": -77.01359466666666, "is_disabled": 0, "lat": 38.87119966666667, "fusion_lat": 0.0, "is_reserved": 0, "rental_uris": {"ios": "https://dc.lft.to/lastmile_qr_scan", "android": "https://dc.lft.to/lastmile_qr_scan"}, "fusion_lon": 0.0, "type": "electric_scooter", "bike_id": "a54069e988cc8e775877345f4fca3689", "name": "a54069e988cc8e775877345f4fca3689"}, {"lon": -77.0627125, "is_disabled": 0, "lat": 38.905683833333335, "fusion_lat": 0.0, "is_reserved": 0, "rental_uris": {"ios": "https://dc.lft.to/lastmile_qr_scan", "android": "https://dc.lft.to/lastmile_qr_scan"}, "fusion_lon": 0.0, "type": "electric_scooter", "bike_id": "675bf38cf2452f1194283ab29683a625", "name": "675bf38cf2452f1194283ab29683a625"}, {"lon": -77.03181216666667, "is_disabled": 0, "lat": 38.917195, "fusion_lat": 0.0, "is_reserved": 0, "rental_uris": {"ios": "https://dc.lft.to/lastmile_qr_scan", "android": "https://dc.lft.to/lastmile_qr_scan"}, "fusion_lon": 0.0, "type": "electric_scooter", "bike_id": "a58699ec3aa57d1e9700a370ec8e34c4", "name": "a58699ec3aa57d1e9700a370ec8e34c4"}, {"lon": -77.02851283333334, "is_disabled": 0, "lat": 38.89353916666666, "fusion_lat": 0.0, "is_reserved": 0, "rental_uris": {"ios": "https://dc.lft.to/lastmile_qr_scan", "android": "https://dc.lft.to/lastmile_qr_scan"}, "fusion_lon": 0.0, "type": "electric_scooter", "bike_id": "aa2a37423f26fc7f90f1360ca4d6c1f0", "name": "aa2a37423f26fc7f90f1360ca4d6c1f0"}, {"lon": -77.03401116666667, "is_disabled": 0, "lat": 38.9125515, "fusion_lat": 0.0, "is_reserved": 0, "rental_uris": {"ios": "https://dc.lft.to/lastmile_qr_scan", "android": "https://dc.lft.to/lastmile_qr_scan"}, "fusion_lon": 0.0, "type": "electric_scooter", "bike_id": "4ac6e154f137b2bdf7e552957ed2a71a", "name": "4ac6e154f137b2bdf7e552957ed2a71a"}, {"lon": -77.0096175, "is_disabled": 0, "lat": 38.906646333333335, "fusion_lat": 0.0, "is_reserved": 0, "rental_uris": {"ios": "https://dc.lft.to/lastmile_qr_scan", "android": "https://dc.lft.to/lastmile_qr_scan"}, "fusion_lon": 0.0, "type": "electric_scooter", "bike_id": "babb3bfb2c727a5720f2fcc241158233", "name": "babb3bfb2c727a5720f2fcc241158233"}, {"lon": -77.0384005, "is_disabled": 0, "lat": 38.941899166666666, "fusion_lat": 0.0, "is_reserved": 0, "rental_uris": {"ios": "https://dc.lft.to/lastmile_qr_scan", "android": "https://dc.lft.to/lastmile_qr_scan"}, "fusion_lon": 0.0, "type": "electric_scooter", "bike_id": "9d343099aa45838abedcf482810b6412", "name": "9d343099aa45838abedcf482810b6412"}, {"lon": -77.02835216666666, "is_disabled": 0, "lat": 38.8865885, "fusion_lat": 0.0, "is_reserved": 0, "rental_uris": {"ios": "https://dc.lft.to/lastmile_qr_scan", "android": "https://dc.lft.to/lastmile_qr_scan"}, "fusion_lon": 0.0, "type": "electric_scooter", "bike_id": "34c18f953d403494bbefa58d4db95626", "name": "34c18f953d403494bbefa58d4db95626"}, {"lon": -77.02579483333334, "is_disabled": 0, "lat": 38.897349166666665, "fusion_lat": 0.0, "is_reserved": 0, "rental_uris": {"ios": "https://dc.lft.to/lastmile_qr_scan", "android": "https://dc.lft.to/lastmile_qr_scan"}, "fusion_lon": 0.0, "type": "electric_scooter", "bike_id": "1021e79de087cf79b4115893d725c56a", "name": "1021e79de087cf79b4115893d725c56a"}, {"lon": -77.00602283333333, "is_disabled": 0, "lat": 38.875902833333335, "fusion_lat": 0.0, "is_reserved": 0, "rental_uris": {"ios": "https://dc.lft.to/lastmile_qr_scan", "android": "https://dc.lft.to/lastmile_qr_scan"}, "fusion_lon": 0.0, "type": "electric_scooter", "bike_id": "649fb8453d63f1823654a7f9546beebd", "name": "649fb8453d63f1823654a7f9546beebd"}, {"lon": -77.03227283333334, "is_disabled": 0, "lat": 38.907017833333335, "fusion_lat": 0.0, "is_reserved": 0, "rental_uris": {"ios": "https://dc.lft.to/lastmile_qr_scan", "android": "https://dc.lft.to/lastmile_qr_scan"}, "fusion_lon": 0.0, "type": "electric_scooter", "bike_id": "049a9e67a2cd04a64d16242f3b350af7", "name": "049a9e67a2cd04a64d16242f3b350af7"}, {"lon": -77.02223466666666, "is_disabled": 0, "lat": 38.892212, "fusion_lat": 0.0, "is_reserved": 0, "rental_uris": {"ios": "https://dc.lft.to/lastmile_qr_scan", "android": "https://dc.lft.to/lastmile_qr_scan"}, "fusion_lon": 0.0, "type": "electric_scooter", "bike_id": "9a66c9ac486fb2ad5410970063df0d1a", "name": "9a66c9ac486fb2ad5410970063df0d1a"}, {"lon": -77.038267, "is_disabled": 0, "lat": 38.931330333333335, "fusion_lat": 0.0, "is_reserved": 0, "rental_uris": {"ios": "https://dc.lft.to/lastmile_qr_scan", "android": "https://dc.lft.to/lastmile_qr_scan"}, "fusion_lon": 0.0, "type": "electric_scooter", "bike_id": "27a55dd4c78bdca20a7e8a498621ca16", "name": "27a55dd4c78bdca20a7e8a498621ca16"}, {"lon": -77.02289766666667, "is_disabled": 0, "lat": 38.91566366666667, "fusion_lat": 0.0, "is_reserved": 0, "rental_uris": {"ios": "https://dc.lft.to/lastmile_qr_scan", "android": "https://dc.lft.to/lastmile_qr_scan"}, "fusion_lon": 0.0, "type": "electric_scooter", "bike_id": "ea14c6abcf6aeb82423d86b116b1dc0a", "name": "ea14c6abcf6aeb82423d86b116b1dc0a"}, {"lon": -76.97946633333333, "is_disabled": 0, "lat": 38.90432416666667, "fusion_lat": 0.0, "is_reserved": 0, "rental_uris": {"ios": "https://dc.lft.to/lastmile_qr_scan", "android": "https://dc.lft.to/lastmile_qr_scan"}, "fusion_lon": 0.0, "type": "electric_scooter", "bike_id": "a753ab90ca0624c82d825f2afd2ba7b6", "name": "a753ab90ca0624c82d825f2afd2ba7b6"}, {"lon": -76.9605325, "is_disabled": 0, "lat": 38.88328033333333, "fusion_lat": 0.0, "is_reserved": 0, "rental_uris": {"ios": "https://dc.lft.to/lastmile_qr_scan", "android": "https://dc.lft.to/lastmile_qr_scan"}, "fusion_lon": 0.0, "type": "electric_bike", "bike_id": "519847dc387a32f5cbc1c23dede94ebc", "name": "519847dc387a32f5cbc1c23dede94ebc"}, {"lon": -77.041117, "is_disabled": 0, "lat": 38.92313766666667, "fusion_lat": 0.0, "is_reserved": 0, "rental_uris": {"ios": "https://dc.lft.to/lastmile_qr_scan", "android": "https://dc.lft.to/lastmile_qr_scan"}, "fusion_lon": 0.0, "type": "electric_scooter", "bike_id": "5e0d87cf95036ff284aeafa59d59bb09", "name": "5e0d87cf95036ff284aeafa59d59bb09"}, {"lon": -77.01541466666667, "is_disabled": 0, "lat": 38.88573916666667, "fusion_lat": 0.0, "is_reserved": 0, "rental_uris": {"ios": "https://dc.lft.to/lastmile_qr_scan", "android": "https://dc.lft.to/lastmile_qr_scan"}, "fusion_lon": 0.0, "type": "electric_scooter", "bike_id": "0af07d659657278fa079e06b9318f5be", "name": "0af07d659657278fa079e06b9318f5be"}, {"lon": -77.0534145, "is_disabled": 0, "lat": 38.927189166666665, "fusion_lat": 0.0, "is_reserved": 0, "rental_uris": {"ios": "https://dc.lft.to/lastmile_qr_scan", "android": "https://dc.lft.to/lastmile_qr_scan"}, "fusion_lon": 0.0, "type": "electric_scooter", "bike_id": "f01d319308a54ff6f0380c51a94b1d80", "name": "f01d319308a54ff6f0380c51a94b1d80"}, {"lon": -77.024497, "is_disabled": 0, "lat": 38.918382666666666, "fusion_lat": 0.0, "is_reserved": 0, "rental_uris": {"ios": "https://dc.lft.to/lastmile_qr_scan", "android": "https://dc.lft.to/lastmile_qr_scan"}, "fusion_lon": 0.0, "type": "electric_scooter", "bike_id": "53f73811ec481e5372e974b55e7e967d", "name": "53f73811ec481e5372e974b55e7e967d"}, {"lon": -77.04579866666667, "is_disabled": 0, "lat": 38.932022833333335, "fusion_lat": 0.0, "is_reserved": 0, "rental_uris": {"ios": "https://dc.lft.to/lastmile_qr_scan", "android": "https://dc.lft.to/lastmile_qr_scan"}, "fusion_lon": 0.0, "type": "electric_scooter", "bike_id": "506dfd2c8cda356e990dc70b658fcc2e", "name": "506dfd2c8cda356e990dc70b658fcc2e"}, {"lon": -76.93379266666666, "is_disabled": 0, "lat": 38.89909983333333, "fusion_lat": 0.0, "is_reserved": 0, "rental_uris": {"ios": "https://dc.lft.to/lastmile_qr_scan", "android": "https://dc.lft.to/lastmile_qr_scan"}, "fusion_lon": 0.0, "type": "electric_scooter", "bike_id": "5ea8ca520293f1df3e48a2fdd3252ee7", "name": "5ea8ca520293f1df3e48a2fdd3252ee7"}, {"lon": -77.03834116666667, "is_disabled": 0, "lat": 38.92169716666667, "fusion_lat": 0.0, "is_reserved": 0, "rental_uris": {"ios": "https://dc.lft.to/lastmile_qr_scan", "android": "https://dc.lft.to/lastmile_qr_scan"}, "fusion_lon": 0.0, "type": "electric_scooter", "bike_id": "febb6207b092ec3dbf27c7794a76b681", "name": "febb6207b092ec3dbf27c7794a76b681"}, {"lon": -77.02022666666667, "is_disabled": 0, "lat": 38.924418, "fusion_lat": 0.0, "is_reserved": 0, "rental_uris": {"ios": "https://dc.lft.to/lastmile_qr_scan", "android": "https://dc.lft.to/lastmile_qr_scan"}, "fusion_lon": 0.0, "type": "electric_scooter", "bike_id": "29908b9cb18bca6de81aafbba572cd46", "name": "29908b9cb18bca6de81aafbba572cd46"}, {"lon": -77.02947266666666, "is_disabled": 0, "lat": 38.90504133333334, "fusion_lat": 0.0, "is_reserved": 0, "rental_uris": {"ios": "https://dc.lft.to/lastmile_qr_scan", "android": "https://dc.lft.to/lastmile_qr_scan"}, "fusion_lon": 0.0, "type": "electric_scooter", "bike_id": "84a436237350c89ff98fc8cbb5a6adef", "name": "84a436237350c89ff98fc8cbb5a6adef"}, {"lon": -77.0296855, "is_disabled": 0, "lat": 38.9275385, "fusion_lat": 0.0, "is_reserved": 0, "rental_uris": {"ios": "https://dc.lft.to/lastmile_qr_scan", "android": "https://dc.lft.to/lastmile_qr_scan"}, "fusion_lon": 0.0, "type": "electric_scooter", "bike_id": "3fed52eb7c1cf5b06be79d25509ed9ab", "name": "3fed52eb7c1cf5b06be79d25509ed9ab"}, {"lon": -77.13927233333334, "is_disabled": 0, "lat": 38.8729255, "fusion_lat": 0.0, "is_reserved": 0, "rental_uris": {"ios": "https://dc.lft.to/lastmile_qr_scan", "android": "https://dc.lft.to/lastmile_qr_scan"}, "fusion_lon": 0.0, "type": "electric_bike", "bike_id": "524e0ff2ea20db0cdf1cb306fd118b1f", "name": "524e0ff2ea20db0cdf1cb306fd118b1f"}, {"lon": -77.02552583333333, "is_disabled": 0, "lat": 38.919132166666664, "fusion_lat": 0.0, "is_reserved": 0, "rental_uris": {"ios": "https://dc.lft.to/lastmile_qr_scan", "android": "https://dc.lft.to/lastmile_qr_scan"}, "fusion_lon": 0.0, "type": "electric_scooter", "bike_id": "ee77be10df8ae36e5f6265c04404c977", "name": "ee77be10df8ae36e5f6265c04404c977"}, {"lon": -76.98842016666667, "is_disabled": 0, "lat": 38.842793666666665, "fusion_lat": 0.0, "is_reserved": 0, "rental_uris": {"ios": "https://dc.lft.to/lastmile_qr_scan", "android": "https://dc.lft.to/lastmile_qr_scan"}, "fusion_lon": 0.0, "type": "electric_bike", "bike_id": "03d6e9486d141a149204a2b779002158", "name": "03d6e9486d141a149204a2b779002158"}, {"lon": -77.04342816666667, "is_disabled": 0, "lat": 38.921907833333336, "fusion_lat": 0.0, "is_reserved": 0, "rental_uris": {"ios": "https://dc.lft.to/lastmile_qr_scan", "android": "https://dc.lft.to/lastmile_qr_scan"}, "fusion_lon": 0.0, "type": "electric_scooter", "bike_id": "7287dcdd4f2d4f900156b096cd8523a3", "name": "7287dcdd4f2d4f900156b096cd8523a3"}, {"lon": -77.00236383333333, "is_disabled": 0, "lat": 38.87491266666667, "fusion_lat": 0.0, "is_reserved": 0, "rental_uris": {"ios": "https://dc.lft.to/lastmile_qr_scan", "android": "https://dc.lft.to/lastmile_qr_scan"}, "fusion_lon": 0.0, "type": "electric_scooter", "bike_id": "3c15e21e8e6b830489c864eea4c81d31", "name": "3c15e21e8e6b830489c864eea4c81d31"}, {"lon": -77.02840066666667, "is_disabled": 0, "lat": 38.9169965, "fusion_lat": 0.0, "is_reserved": 0, "rental_uris": {"ios": "https://dc.lft.to/lastmile_qr_scan", "android": "https://dc.lft.to/lastmile_qr_scan"}, "fusion_lon": 0.0, "type": "electric_scooter", "bike_id": "ea105eb306178c56cb3d7a3a32a375f4", "name": "ea105eb306178c56cb3d7a3a32a375f4"}, {"lon": -76.970274, "is_disabled": 0, "lat": 38.873615666666666, "fusion_lat": 0.0, "is_reserved": 0, "rental_uris": {"ios": "https://dc.lft.to/lastmile_qr_scan", "android": "https://dc.lft.to/lastmile_qr_scan"}, "fusion_lon": 0.0, "type": "electric_scooter", "bike_id": "e6509c3c8578a54e9c789c5538d7b478", "name": "e6509c3c8578a54e9c789c5538d7b478"}, {"lon": -77.0295295, "is_disabled": 0, "lat": 38.91799616666667, "fusion_lat": 0.0, "is_reserved": 0, "rental_uris": {"ios": "https://dc.lft.to/lastmile_qr_scan", "android": "https://dc.lft.to/lastmile_qr_scan"}, "fusion_lon": 0.0, "type": "electric_scooter", "bike_id": "b15ce6b71b8a2343a108b044a19c4c52", "name": "b15ce6b71b8a2343a108b044a19c4c52"}, {"lon": -77.02546716666667, "is_disabled": 0, "lat": 38.8921735, "fusion_lat": 0.0, "is_reserved": 0, "rental_uris": {"ios": "https://dc.lft.to/lastmile_qr_scan", "android": "https://dc.lft.to/lastmile_qr_scan"}, "fusion_lon": 0.0, "type": "electric_scooter", "bike_id": "3f7f2940df6dcc35def987e7b72d91b5", "name": "3f7f2940df6dcc35def987e7b72d91b5"}, {"lon": -77.0190785, "is_disabled": 0, "lat": 38.90243916666667, "fusion_lat": 0.0, "is_reserved": 0, "rental_uris": {"ios": "https://dc.lft.to/lastmile_qr_scan", "android": "https://dc.lft.to/lastmile_qr_scan"}, "fusion_lon": 0.0, "type": "electric_scooter", "bike_id": "96d013e6c27b842176bf5c35d3524250", "name": "96d013e6c27b842176bf5c35d3524250"}, {"lon": -77.00160533333333, "is_disabled": 0, "lat": 38.907314666666664, "fusion_lat": 0.0, "is_reserved": 0, "rental_uris": {"ios": "https://dc.lft.to/lastmile_qr_scan", "android": "https://dc.lft.to/lastmile_qr_scan"}, "fusion_lon": 0.0, "type": "electric_scooter", "bike_id": "fbf69e48b4f72747a4104577cf1188f1", "name": "fbf69e48b4f72747a4104577cf1188f1"}, {"lon": -77.055547, "is_disabled": 0, "lat": 38.89981866666667, "fusion_lat": 0.0, "is_reserved": 0, "rental_uris": {"ios": "https://dc.lft.to/lastmile_qr_scan", "android": "https://dc.lft.to/lastmile_qr_scan"}, "fusion_lon": 0.0, "type": "electric_scooter", "bike_id": "53d7121b73a8e057a631b9beb6d02601", "name": "53d7121b73a8e057a631b9beb6d02601"}, {"lon": -77.03402366666667, "is_disabled": 0, "lat": 38.92437233333333, "fusion_lat": 0.0, "is_reserved": 0, "rental_uris": {"ios": "https://dc.lft.to/lastmile_qr_scan", "android": "https://dc.lft.to/lastmile_qr_scan"}, "fusion_lon": 0.0, "type": "electric_scooter", "bike_id": "766e6b50d57e3417d2affd5ddbe66e2f", "name": "766e6b50d57e3417d2affd5ddbe66e2f"}, {"lon": -76.99011183333333, "is_disabled": 0, "lat": 38.911398166666665, "fusion_lat": 0.0, "is_reserved": 0, "rental_uris": {"ios": "https://dc.lft.to/lastmile_qr_scan", "android": "https://dc.lft.to/lastmile_qr_scan"}, "fusion_lon": 0.0, "type": "electric_scooter", "bike_id": "32f311a2ee418347be8a9305bd605e29", "name": "32f311a2ee418347be8a9305bd605e29"}, {"lon": -77.13920316666666, "is_disabled": 0, "lat": 38.872982666666665, "fusion_lat": 0.0, "is_reserved": 0, "rental_uris": {"ios": "https://dc.lft.to/lastmile_qr_scan", "android": "https://dc.lft.to/lastmile_qr_scan"}, "fusion_lon": 0.0, "type": "electric_bike", "bike_id": "31852d37b873c74d953dcfc7a54f0350", "name": "31852d37b873c74d953dcfc7a54f0350"}, {"lon": -77.03835366666667, "is_disabled": 0, "lat": 38.915629333333335, "fusion_lat": 0.0, "is_reserved": 0, "rental_uris": {"ios": "https://dc.lft.to/lastmile_qr_scan", "android": "https://dc.lft.to/lastmile_qr_scan"}, "fusion_lon": 0.0, "type": "electric_scooter", "bike_id": "d39369881ad6172bb941d2a33cc03288", "name": "d39369881ad6172bb941d2a33cc03288"}, {"lon": -76.979607, "is_disabled": 0, "lat": 38.906170833333334, "fusion_lat": 0.0, "is_reserved": 0, "rental_uris": {"ios": "https://dc.lft.to/lastmile_qr_scan", "android": "https://dc.lft.to/lastmile_qr_scan"}, "fusion_lon": 0.0, "type": "electric_scooter", "bike_id": "754e11d0d915ca7882fe012880daa87d", "name": "754e11d0d915ca7882fe012880daa87d"}, {"lon": -77.04560066666667, "is_disabled": 0, "lat": 38.916442, "fusion_lat": 0.0, "is_reserved": 0, "rental_uris": {"ios": "https://dc.lft.to/lastmile_qr_scan", "android": "https://dc.lft.to/lastmile_qr_scan"}, "fusion_lon": 0.0, "type": "electric_scooter", "bike_id": "4f28930afaa3c675fcc03475dc4091a9", "name": "4f28930afaa3c675fcc03475dc4091a9"}, {"lon": -77.00088583333333, "is_disabled": 0, "lat": 38.92553783333334, "fusion_lat": 0.0, "is_reserved": 0, "rental_uris": {"ios": "https://dc.lft.to/lastmile_qr_scan", "android": "https://dc.lft.to/lastmile_qr_scan"}, "fusion_lon": 0.0, "type": "electric_scooter", "bike_id": "6d37b2fad9f4d186152282569abf6611", "name": "6d37b2fad9f4d186152282569abf6611"}, {"lon": -77.03838966666666, "is_disabled": 0, "lat": 38.914745333333336, "fusion_lat": 0.0, "is_reserved": 0, "rental_uris": {"ios": "https://dc.lft.to/lastmile_qr_scan", "android": "https://dc.lft.to/lastmile_qr_scan"}, "fusion_lon": 0.0, "type": "electric_scooter", "bike_id": "27c65947a2ad35f4b81fe0f70eb3b0a6", "name": "27c65947a2ad35f4b81fe0f70eb3b0a6"}, {"lon": -77.04834216666667, "is_disabled": 0, "lat": 38.89842683333333, "fusion_lat": 0.0, "is_reserved": 0, "rental_uris": {"ios": "https://dc.lft.to/lastmile_qr_scan", "android": "https://dc.lft.to/lastmile_qr_scan"}, "fusion_lon": 0.0, "type": "electric_scooter", "bike_id": "02216b5a8e2ffb7c47aee27f1ae40d04", "name": "02216b5a8e2ffb7c47aee27f1ae40d04"}, {"lon": -77.00569366666667, "is_disabled": 0, "lat": 38.90569583333333, "fusion_lat": 0.0, "is_reserved": 0, "rental_uris": {"ios": "https://dc.lft.to/lastmile_qr_scan", "android": "https://dc.lft.to/lastmile_qr_scan"}, "fusion_lon": 0.0, "type": "electric_scooter", "bike_id": "c4b743d95d19f93a5c7e9ea678b7f8b7", "name": "c4b743d95d19f93a5c7e9ea678b7f8b7"}, {"lon": -77.00628166666667, "is_disabled": 0, "lat": 38.871787166666664, "fusion_lat": 0.0, "is_reserved": 0, "rental_uris": {"ios": "https://dc.lft.to/lastmile_qr_scan", "android": "https://dc.lft.to/lastmile_qr_scan"}, "fusion_lon": 0.0, "type": "electric_scooter", "bike_id": "fcdc30f86c38795de6907dbf4bddeace", "name": "fcdc30f86c38795de6907dbf4bddeace"}, {"lon": -77.0262185, "is_disabled": 0, "lat": 38.92826016666667, "fusion_lat": 0.0, "is_reserved": 0, "rental_uris": {"ios": "https://dc.lft.to/lastmile_qr_scan", "android": "https://dc.lft.to/lastmile_qr_scan"}, "fusion_lon": 0.0, "type": "electric_scooter", "bike_id": "4de8323bff7c2ccfbb4f8e639ee0039e", "name": "4de8323bff7c2ccfbb4f8e639ee0039e"}, {"lon": -77.03777166666667, "is_disabled": 0, "lat": 38.924687, "fusion_lat": 0.0, "is_reserved": 0, "rental_uris": {"ios": "https://dc.lft.to/lastmile_qr_scan", "android": "https://dc.lft.to/lastmile_qr_scan"}, "fusion_lon": 0.0, "type": "electric_scooter", "bike_id": "e18d95a5714cb6f1b01a349c8637923d", "name": "e18d95a5714cb6f1b01a349c8637923d"}, {"lon": -77.012257, "is_disabled": 0, "lat": 38.9007355, "fusion_lat": 0.0, "is_reserved": 0, "rental_uris": {"ios": "https://dc.lft.to/lastmile_qr_scan", "android": "https://dc.lft.to/lastmile_qr_scan"}, "fusion_lon": 0.0, "type": "electric_scooter", "bike_id": "812a1c22a95f326fba7d64690ddcc2b1", "name": "812a1c22a95f326fba7d64690ddcc2b1"}, {"lon": -77.00131633333334, "is_disabled": 0, "lat": 38.892731833333336, "fusion_lat": 0.0, "is_reserved": 0, "rental_uris": {"ios": "https://dc.lft.to/lastmile_qr_scan", "android": "https://dc.lft.to/lastmile_qr_scan"}, "fusion_lon": 0.0, "type": "electric_scooter", "bike_id": "42da34f2dfc4a3f16f95570a499fd87c", "name": "42da34f2dfc4a3f16f95570a499fd87c"}, {"lon": -77.02314566666666, "is_disabled": 0, "lat": 38.917820166666665, "fusion_lat": 0.0, "is_reserved": 0, "rental_uris": {"ios": "https://dc.lft.to/lastmile_qr_scan", "android": "https://dc.lft.to/lastmile_qr_scan"}, "fusion_lon": 0.0, "type": "electric_scooter", "bike_id": "6d02982b001e45fc1e9ec968044f5bb3", "name": "6d02982b001e45fc1e9ec968044f5bb3"}, {"lon": -76.97710583333334, "is_disabled": 0, "lat": 38.89209533333333, "fusion_lat": 0.0, "is_reserved": 0, "rental_uris": {"ios": "https://dc.lft.to/lastmile_qr_scan", "android": "https://dc.lft.to/lastmile_qr_scan"}, "fusion_lon": 0.0, "type": "electric_bike", "bike_id": "315fe72ad4b9f389a23b829422e9f269", "name": "315fe72ad4b9f389a23b829422e9f269"}, {"lon": -77.02598266666666, "is_disabled": 0, "lat": 38.92381916666667, "fusion_lat": 0.0, "is_reserved": 0, "rental_uris": {"ios": "https://dc.lft.to/lastmile_qr_scan", "android": "https://dc.lft.to/lastmile_qr_scan"}, "fusion_lon": 0.0, "type": "electric_scooter", "bike_id": "76a2880a47e5f1560cba8e5cffc2782f", "name": "76a2880a47e5f1560cba8e5cffc2782f"}, {"lon": -77.02178, "is_disabled": 0, "lat": 38.90193216666667, "fusion_lat": 0.0, "is_reserved": 0, "rental_uris": {"ios": "https://dc.lft.to/lastmile_qr_scan", "android": "https://dc.lft.to/lastmile_qr_scan"}, "fusion_lon": 0.0, "type": "electric_scooter", "bike_id": "04d20056487c144096ee52748e7d9c7d", "name": "04d20056487c144096ee52748e7d9c7d"}, {"lon": -77.03836533333333, "is_disabled": 0, "lat": 38.9156205, "fusion_lat": 0.0, "is_reserved": 0, "rental_uris": {"ios": "https://dc.lft.to/lastmile_qr_scan", "android": "https://dc.lft.to/lastmile_qr_scan"}, "fusion_lon": 0.0, "type": "electric_scooter", "bike_id": "ec8752a255937e76faa2f2fab0282851", "name": "ec8752a255937e76faa2f2fab0282851"}, {"lon": -76.96062, "is_disabled": 0, "lat": 38.8840675, "fusion_lat": 0.0, "is_reserved": 0, "rental_uris": {"ios": "https://dc.lft.to/lastmile_qr_scan", "android": "https://dc.lft.to/lastmile_qr_scan"}, "fusion_lon": 0.0, "type": "electric_bike", "bike_id": "cc06ff5a4777213f1bf7c2ada42e927a", "name": "cc06ff5a4777213f1bf7c2ada42e927a"}, {"lon": -77.0254415, "is_disabled": 0, "lat": 38.919186, "fusion_lat": 0.0, "is_reserved": 0, "rental_uris": {"ios": "https://dc.lft.to/lastmile_qr_scan", "android": "https://dc.lft.to/lastmile_qr_scan"}, "fusion_lon": 0.0, "type": "electric_scooter", "bike_id": "c829a30da680dd96c1a7ad20b1a1e476", "name": "c829a30da680dd96c1a7ad20b1a1e476"}, {"lon": -77.00667583333333, "is_disabled": 0, "lat": 38.899859166666666, "fusion_lat": 0.0, "is_reserved": 0, "rental_uris": {"ios": "https://dc.lft.to/lastmile_qr_scan", "android": "https://dc.lft.to/lastmile_qr_scan"}, "fusion_lon": 0.0, "type": "electric_scooter", "bike_id": "00a25aa00ee4f46dcbfebd829d8b8107", "name": "00a25aa00ee4f46dcbfebd829d8b8107"},