{"data": {"bikes": [{"rental_uris": {"ios": "https://dc.lft.to/lastmile_qr_scan", "android": "https://dc.lft.to/lastmile_qr_scan"}, "type": "electric_bike", "name": "7e2567e125bef97cee220ed54b5969ae", "is_reserved": 0, "lon": -77.0123335, "is_disabled": 0, "fusion_lat": 0.0, "lat": 38.950947666666664, "bike_id": "7e2567e125bef97cee220ed54b5969ae", "fusion_lon": 0.0}, {"rental_uris": {"ios": "https://dc.lft.to/lastmile_qr_scan", "android": "https://dc.lft.to/lastmile_qr_scan"}, "type": "electric_scooter", "name": "84bd626b4cb031e6b30e5022ffbdd6a0", "is_reserved": 0, "lon": -77.0417575, "is_disabled": 0, "fusion_lat": 0.0, "lat": 38.9159115, "bike_id": "84bd626b4cb031e6b30e5022ffbdd6a0", "fusion_lon": 0.0}, {"rental_uris": {"ios": "https://dc.lft.to/lastmile_qr_scan", "android": "https://dc.lft.to/lastmile_qr_scan"}, "type": "electric_scooter", "name": "6b0e80209b90013d470b56dbafda74a6", "is_reserved": 0, "lon": -77.02710216666667, "is_disabled": 0, "fusion_lat": 0.0, "lat": 38.90594316666667, "bike_id": "6b0e80209b90013d470b56dbafda74a6", "fusion_lon": 0.0}, {"rental_uris": {"ios": "https://dc.lft.to/lastmile_qr_scan", "android": "https://dc.lft.to/lastmile_qr_scan"}, "type": "electric_scooter", "name": "12f9c1d2ceb2a7bd1de66c5f6362f992", "is_reserved": 0, "lon": -76.9987805, "is_disabled": 0, "fusion_lat": 0.0, "lat": 38.9002605, "bike_id": "12f9c1d2ceb2a7bd1de66c5f6362f992", "fusion_lon": 0.0}, {"rental_uris": {"ios": "https://dc.lft.to/lastmile_qr_scan", "android": "https://dc.lft.to/lastmile_qr_scan"}, "type": "electric_scooter", "name": "aef6e9d561b16411fac893fe568fa3ee", "is_reserved": 0, "lon": -77.0307805, "is_disabled": 0, "fusion_lat": 0.0, "lat": 38.93878483333334, "bike_id": "aef6e9d561b16411fac893fe568fa3ee", "fusion_lon": 0.0}, {"rental_uris": {"ios": "https://dc.lft.to/lastmile_qr_scan", "android": "https://dc.lft.to/lastmile_qr_scan"}, "type": "electric_bike", "name": "732f3f03c906d5ecf0fa7d2c13d1d21d", "is_reserved": 0, "lon": -77.000057, "is_disabled": 0, "fusion_lat": 0.0, "lat": 38.9239065, "bike_id": "732f3f03c906d5ecf0fa7d2c13d1d21d", "fusion_lon": 0.0}, {"rental_uris": {"ios": "https://dc.lft.to/lastmile_qr_scan", "android": "https://dc.lft.to/lastmile_qr_scan"}, "type": "electric_scooter", "name": "88a590c2f0027d4995e83bd2f644a489", "is_reserved": 0, "lon": -77.02838233333334, "is_disabled": 0, "fusion_lat": 0.0, "lat": 38.902422333333334, "bike_id": "88a590c2f0027d4995e83bd2f644a489", "fusion_lon": 0.0}, {"rental_uris": {"ios": "https://dc.lft.to/lastmile_qr_scan", "android": "https://dc.lft.to/lastmile_qr_scan"}, "type": "electric_scooter", "name": "75c88dc14f8d92c463e6f11974d50349", "is_reserved": 0, "lon": -76.9857995, "is_disabled": 0, "fusion_lat": 0.0, "lat": 38.854529666666664, "bike_id": "75c88dc14f8d92c463e6f11974d50349", "fusion_lon": 0.0}, {"rental_uris": {"ios": "https://dc.lft.to/lastmile_qr_scan", "android": "https://dc.lft.to/lastmile_qr_scan"}, "type": "electric_scooter", "name": "180fb860ffca7242e6030ae2be314e52", "is_reserved": 0, "lon": -77.04124416666667, "is_disabled": 0, "fusion_lat": 0.0, "lat": 38.93103266666667, "bike_id": "180fb860ffca7242e6030ae2be314e52", "fusion_lon": 0.0}, {"rental_uris": {"ios": "https://dc.lft.to/lastmile_qr_scan", "android": "https://dc.lft.to/lastmile_qr_scan"}, "type": "electric_scooter", "name": "f4f27dccfe19cdb437c2aeb760886082", "is_reserved": 0, "lon": -77.0230065, "is_disabled": 0, "fusion_lat": 0.0, "lat": 38.918490166666665, "bike_id": "f4f27dccfe19cdb437c2aeb760886082", "fusion_lon": 0.0}, {"rental_uris": {"ios": "https://dc.lft.to/lastmile_qr_scan", "android": "https://dc.lft.to/lastmile_qr_scan"}, "type": "electric_scooter", "name": "f841ea710fc9834ab1dcb323d0479f31", "is_reserved": 0, "lon": -77.03193966666667, "is_disabled": 0, "fusion_lat": 0.0, "lat": 38.922647166666664, "bike_id": "f841ea710fc9834ab1dcb323d0479f31", "fusion_lon": 0.0}, {"rental_uris": {"ios": "https://dc.lft.to/lastmile_qr_scan", "android": "https://dc.lft.to/lastmile_qr_scan"}, "type": "electric_scooter", "name": "41a5dc1b87f3263a8f73411cf9386b99", "is_reserved": 0, "lon": -77.02963816666667, "is_disabled": 0, "fusion_lat": 0.0, "lat": 38.92324516666667, "bike_id": "41a5dc1b87f3263a8f73411cf9386b99", "fusion_lon": 0.0}, {"rental_uris": {"ios": "https://dc.lft.to/lastmile_qr_scan", "android": "https://dc.lft.to/lastmile_qr_scan"}, "type": "electric_scooter", "name": "ed0ed00577038d83639f4586f3efb86c", "is_reserved": 0, "lon": -77.0212075, "is_disabled": 0, "fusion_lat": 0.0, "lat": 38.88744783333333, "bike_id": "ed0ed00577038d83639f4586f3efb86c", "fusion_lon": 0.0}, {"rental_uris": {"ios": "https://dc.lft.to/lastmile_qr_scan", "android": "https://dc.lft.to/lastmile_qr_scan"}, "type": "electric_scooter", "name": "0dceb2067586136c9b884024fcfb2738", "is_reserved": 0, "lon": -77.023833, "is_disabled": 0, "fusion_lat": 0.0, "lat": 38.935341666666666, "bike_id": "0dceb2067586136c9b884024fcfb2738", "fusion_lon": 0.0}, {"rental_uris": {"ios": "https://dc.lft.to/lastmile_qr_scan", "android": "https://dc.lft.to/lastmile_qr_scan"}, "type": "electric_scooter", "name": "358e7ce918cb570b617da7baa462b35f", "is_reserved": 0, "lon": -77.06113833333333, "is_disabled": 0, "fusion_lat": 0.0, "lat": 38.91286683333333, "bike_id": "358e7ce918cb570b617da7baa462b35f", "fusion_lon": 0.0}, {"rental_uris": {"ios": "https://dc.lft.to/lastmile_qr_scan", "android": "https://dc.lft.to/lastmile_qr_scan"}, "type": "electric_scooter", "name": "079f66c78c70a5466f67c977902ab681", "is_reserved": 0, "lon": -77.00257183333333, "is_disabled": 0, "fusion_lat": 0.0, "lat": 38.90268283333333, "bike_id": "079f66c78c70a5466f67c977902ab681", "fusion_lon": 0.0}, {"rental_uris": {"ios": "https://dc.lft.to/lastmile_qr_scan", "android": "https://dc.lft.to/lastmile_qr_scan"}, "type": "electric_scooter", "name": "4f613cb84feca29c720f489f173ab51a", "is_reserved": 0, "lon": -77.01238483333333, "is_disabled": 0, "fusion_lat": 0.0, "lat": 38.88109683333333, "bike_id": "4f613cb84feca29c720f489f173ab51a", "fusion_lon": 0.0}, {"rental_uris": {"ios": "https://dc.lft.to/lastmile_qr_scan", "android": "https://dc.lft.to/lastmile_qr_scan"}, "type": "electric_scooter", "name": "5db62c0813799997715334dfc1428b96", "is_reserved": 0, "lon": -77.0628275, "is_disabled": 0, "fusion_lat": 0.0, "lat": 38.9124875, "bike_id": "5db62c0813799997715334dfc1428b96", "fusion_lon": 0.0}, {"rental_uris": {"ios": "https://dc.lft.to/lastmile_qr_scan", "android": "https://dc.lft.to/lastmile_qr_scan"}, "type": "electric_bike", "name": "b6c3b5e035dee17c4dcbbe940ac91f1d", "is_reserved": 0, "lon": -77.051713, "is_disabled": 0, "fusion_lat": 0.0, "lat": 38.84476633333333, "bike_id": "b6c3b5e035dee17c4dcbbe940ac91f1d", "fusion_lon": 0.0}, {"rental_uris": {"ios": "https://dc.lft.to/lastmile_qr_scan", "android": "https://dc.lft.to/lastmile_qr_scan"}, "type": "electric_scooter", "name": "934c4df9db470fde58a1c7b0c9889563", "is_reserved": 0, "lon": -76.98543883333333, "is_disabled": 0, "fusion_lat": 0.0, "lat": 38.913003, "bike_id": "934c4df9db470fde58a1c7b0c9889563", "fusion_lon": 0.0}, {"rental_uris": {"ios": "https://dc.lft.to/lastmile_qr_scan", "android": "https://dc.lft.to/lastmile_qr_scan"}, "type": "electric_scooter", "name": "2b16b9270d1954d69d529cdf87cc3875", "is_reserved": 0, "lon": -77.034435, "is_disabled": 0, "fusion_lat": 0.0, "lat": 38.918024833333334, "bike_id": "2b16b9270d1954d69d529cdf87cc3875", "fusion_lon": 0.0}, {"rental_uris": {"ios": "https://dc.lft.to/lastmile_qr_scan", "android": "https://dc.lft.to/lastmile_qr_scan"}, "type": "electric_scooter", "name": "9cb1995d43efb882bd69f721226172d2", "is_reserved": 0, "lon": -77.02699, "is_disabled": 0, "fusion_lat": 0.0, "lat": 38.91907783333333, "bike_id": "9cb1995d43efb882bd69f721226172d2", "fusion_lon": 0.0}, {"rental_uris": {"ios": "https://dc.lft.to/lastmile_qr_scan", "android": "https://dc.lft.to/lastmile_qr_scan"}, "type": "electric_scooter", "name": "51ff1ab3400609d4d2b74e424654868d", "is_reserved": 0, "lon": -76.98164933333334, "is_disabled": 0, "fusion_lat": 0.0, "lat": 38.86176716666667, "bike_id": "51ff1ab3400609d4d2b74e424654868d", "fusion_lon": 0.0}, {"rental_uris": {"ios": "https://dc.lft.to/lastmile_qr_scan", "android": "https://dc.lft.to/lastmile_qr_scan"}, "type": "electric_scooter", "name": "861082cd1079fd8ddae6b09d4eff3905", "is_reserved": 0, "lon": -77.03373433333333, "is_disabled": 0, "fusion_lat": 0.0, "lat": 38.9111275, "bike_id": "861082cd1079fd8ddae6b09d4eff3905", "fusion_lon": 0.0}, {"rental_uris": {"ios": "https://dc.lft.to/lastmile_qr_scan", "android": "https://dc.lft.to/lastmile_qr_scan"}, "type": "electric_scooter", "name": "c2b01e2208d08400411daa2da49defbb", "is_reserved": 0, "lon": -77.0295155, "is_disabled": 0, "fusion_lat": 0.0, "lat": 38.90432066666666, "bike_id": "c2b01e2208d08400411daa2da49defbb", "fusion_lon": 0.0}, {"rental_uris": {"ios": "https://dc.lft.to/lastmile_qr_scan", "android": "https://dc.lft.to/lastmile_qr_scan"}, "type": "electric_scooter", "name": "b90c556fe195bb1ce170f68112e1fcd0", "is_reserved": 0, "lon": -77.03070933333333, "is_disabled": 0, "fusion_lat": 0.0, "lat": 38.89738066666666, "bike_id": "b90c556fe195bb1ce170f68112e1fcd0", "fusion_lon": 0.0}, {"rental_uris": {"ios": "https://dc.lft.to/lastmile_qr_scan", "android": "https://dc.lft.to/lastmile_qr_scan"}, "type": "electric_scooter", "name": "c260a720b467f4cae72b1753f2cac890", "is_reserved": 0, "lon": -77.0452005, "is_disabled": 0, "fusion_lat": 0.0, "lat": 38.9232235, "bike_id": "c260a720b467f4cae72b1753f2cac890", "fusion_lon": 0.0}, {"rental_uris": {"ios": "https://dc.lft.to/lastmile_qr_scan", "android": "https://dc.lft.to/lastmile_qr_scan"}, "type": "electric_scooter", "name": "5520fb2c674799dfa6233dffbe6fe46c", "is_reserved": 0, "lon": -77.0234445, "is_disabled": 0, "fusion_lat": 0.0, "lat": 38.919489666666664, "bike_id": "5520fb2c674799dfa6233dffbe6fe46c", "fusion_lon": 0.0}, {"rental_uris": {"ios": "https://dc.lft.to/lastmile_qr_scan", "android": "https://dc.lft.to/lastmile_qr_scan"}, "type": "electric_scooter", "name": "cd958195bb8a718e5cf9c89767386fbd", "is_reserved": 0, "lon": -77.01549583333333, "is_disabled": 0, "fusion_lat": 0.0, "lat": 38.94331666666667, "bike_id": "cd958195bb8a718e5cf9c89767386fbd", "fusion_lon": 0.0}, {"rental_uris": {"ios": "https://dc.lft.to/lastmile_qr_scan", "android": "https://dc.lft.to/lastmile_qr_scan"}, "type": "electric_scooter", "name": "35fcee65e1fe96c951409dd28b95f9c6", "is_reserved": 0, "lon": -77.0211245, "is_disabled": 0, "fusion_lat": 0.0, "lat": 38.9269065, "bike_id": "35fcee65e1fe96c951409dd28b95f9c6", "fusion_lon": 0.0}, {"rental_uris": {"ios": "https://dc.lft.to/lastmile_qr_scan", "android": "https://dc.lft.to/lastmile_qr_scan"}, "type": "electric_scooter", "name": "d3520166f36cfad46e2570dabafbf8c3", "is_reserved": 0, "lon": -77.01960116666666, "is_disabled": 0, "fusion_lat": 0.0, "lat": 38.92326633333333, "bike_id": "d3520166f36cfad46e2570dabafbf8c3", "fusion_lon": 0.0}, {"rental_uris": {"ios": "https://dc.lft.to/lastmile_qr_scan", "android": "https://dc.lft.to/lastmile_qr_scan"}, "type": "electric_scooter", "name": "d981480d14ae1bad7e2ca9ab67c99ad2", "is_reserved": 0, "lon": -77.02426883333334, "is_disabled": 0, "fusion_lat": 0.0, "lat": 38.92089283333333, "bike_id": "d981480d14ae1bad7e2ca9ab67c99ad2", "fusion_lon": 0.0}, {"rental_uris": {"ios": "https://dc.lft.to/lastmile_qr_scan", "android": "https://dc.lft.to/lastmile_qr_scan"}, "type": "electric_bike", "name": "2e5db287a8b3c68de797072ddfb00f64", "is_reserved": 0, "lon": -76.98248483333333, "is_disabled": 0, "fusion_lat": 0.0, "lat": 38.95245166666667, "bike_id": "2e5db287a8b3c68de797072ddfb00f64", "fusion_lon": 0.0}, {"rental_uris": {"ios": "https://dc.lft.to/lastmile_qr_scan", "android": "https://dc.lft.to/lastmile_qr_scan"}, "type": "electric_scooter", "name": "e53eb0e7a27e24299f94c417abfa9279", "is_reserved": 0, "lon": -76.98153266666667, "is_disabled": 0, "fusion_lat": 0.0, "lat": 38.899429166666664, "bike_id": "e53eb0e7a27e24299f94c417abfa9279", "fusion_lon": 0.0}, {"rental_uris": {"ios": "https://dc.lft.to/lastmile_qr_scan", "android": "https://dc.lft.to/lastmile_qr_scan"}, "type": "electric_scooter", "name": "dc40651dc82d676d4ccce2df21aa9d36", "is_reserved": 0, "lon": -77.03461866666666, "is_disabled": 0, "fusion_lat": 0.0, "lat": 38.90635366666667, "bike_id": "dc40651dc82d676d4ccce2df21aa9d36", "fusion_lon": 0.0}, {"rental_uris": {"ios": "https://dc.lft.to/lastmile_qr_scan", "android": "https://dc.lft.to/lastmile_qr_scan"}, "type": "electric_scooter", "name": "9842114ef95fe6869bb5b6e5afc5de31", "is_reserved": 0, "lon": -77.005518, "is_disabled": 0, "fusion_lat": 0.0, "lat": 38.878434, "bike_id": "9842114ef95fe6869bb5b6e5afc5de31", "fusion_lon": 0.0}, {"rental_uris": {"ios": "https://dc.lft.to/lastmile_qr_scan", "android": "https://dc.lft.to/lastmile_qr_scan"}, "type": "electric_scooter", "name": "5228cde15abc1ce562adf89e72023b36", "is_reserved": 0, "lon": -77.045724, "is_disabled": 0, "fusion_lat": 0.0, "lat": 38.92071833333333, "bike_id": "5228cde15abc1ce562adf89e72023b36", "fusion_lon": 0.0}, {"rental_uris": {"ios": "https://dc.lft.to/lastmile_qr_scan", "android": "https://dc.lft.to/lastmile_qr_scan"}, "type": "electric_scooter", "name": "1b37d01ad1233577613c3e73baf06437", "is_reserved": 0, "lon": -77.0408555, "is_disabled": 0, "fusion_lat": 0.0, "lat": 38.94791816666667, "bike_id": "1b37d01ad1233577613c3e73baf06437", "fusion_lon": 0.0}, {"rental_uris": {"ios": "https://dc.lft.to/lastmile_qr_scan", "android": "https://dc.lft.to/lastmile_qr_scan"}, "type": "electric_scooter", "name": "b4cb7c1e6ab43ccf0e50d8fc3e6bd31c", "is_reserved": 0, "lon": -77.03897816666667, "is_disabled": 0, "fusion_lat": 0.0, "lat": 38.931455666666665, "bike_id": "b4cb7c1e6ab43ccf0e50d8fc3e6bd31c", "fusion_lon": 0.0}, {"rental_uris": {"ios": "https://dc.lft.to/lastmile_qr_scan", "android": "https://dc.lft.to/lastmile_qr_scan"}, "type": "electric_scooter", "name": "aa961d4668994a1ba7cd076ce059ca3d", "is_reserved": 0, "lon": -77.02413116666666, "is_disabled": 0, "fusion_lat": 0.0, "lat": 38.9156845, "bike_id": "aa961d4668994a1ba7cd076ce059ca3d", "fusion_lon": 0.0}, {"rental_uris": {"ios": "https://dc.lft.to/lastmile_qr_scan", "android": "https://dc.lft.to/lastmile_qr_scan"}, "type": "electric_bike", "name": "1beab1a5a12578039dbcd4adacdb3805", "is_reserved": 0, "lon": -76.98023083333334, "is_disabled": 0, "fusion_lat": 0.0, "lat": 38.853155666666666, "bike_id": "1beab1a5a12578039dbcd4adacdb3805", "fusion_lon": 0.0}, {"rental_uris": {"ios": "https://dc.lft.to/lastmile_qr_scan", "android": "https://dc.lft.to/lastmile_qr_scan"}, "type": "electric_bike", "name": "31ed81c8d5ab9066d9774d8cf2389852", "is_reserved": 0, "lon": -77.0021045, "is_disabled": 0, "fusion_lat": 0.0, "lat": 38.98847933333333, "bike_id": "31ed81c8d5ab9066d9774d8cf2389852", "fusion_lon": 0.0}, {"rental_uris": {"ios": "https://dc.lft.to/lastmile_qr_scan", "android": "https://dc.lft.to/lastmile_qr_scan"}, "type": "electric_scooter", "name": "9a0fdfee4b5cebaf5b51c2950ea2f4d5", "is_reserved": 0, "lon": -77.03840033333333, "is_disabled": 0, "fusion_lat": 0.0, "lat": 38.903196333333334, "bike_id": "9a0fdfee4b5cebaf5b51c2950ea2f4d5", "fusion_lon": 0.0}, {"rental_uris": {"ios": "https://dc.lft.to/lastmile_qr_scan", "android": "https://dc.lft.to/lastmile_qr_scan"}, "type": "electric_scooter", "name": "05be1180a109cd6f450e3a58010d178f", "is_reserved": 0, "lon": -77.00605116666667, "is_disabled": 0, "fusion_lat": 0.0, "lat": 38.875642, "bike_id": "05be1180a109cd6f450e3a58010d178f", "fusion_lon": 0.0}, {"rental_uris": {"ios": "https://dc.lft.to/lastmile_qr_scan", "android": "https://dc.lft.to/lastmile_qr_scan"}, "type": "electric_scooter", "name": "dcf2630727d05bebd11b8ce5dd119f3e", "is_reserved": 0, "lon": -77.0346325, "is_disabled": 0, "fusion_lat": 0.0, "lat": 38.9083855, "bike_id": "dcf2630727d05bebd11b8ce5dd119f3e", "fusion_lon": 0.0}, {"rental_uris": {"ios": "https://dc.lft.to/lastmile_qr_scan", "android": "https://dc.lft.to/lastmile_qr_scan"}, "type": "electric_scooter", "name": "98391731ec7732f5cb31fd55034e1122", "is_reserved": 0, "lon": -77.0229855, "is_disabled": 0, "fusion_lat": 0.0, "lat": 38.9613315, "bike_id": "98391731ec7732f5cb31fd55034e1122", "fusion_lon": 0.0}, {"rental_uris": {"ios": "https://dc.lft.to/lastmile_qr_scan", "android": "https://dc.lft.to/lastmile_qr_scan"}, "type": "electric_scooter", "name": "20cf19021461628babbf59ec62372d19", "is_reserved": 0, "lon": -77.02819033333333, "is_disabled": 0, "fusion_lat": 0.0, "lat": 38.9564195, "bike_id": "20cf19021461628babbf59ec62372d19", "fusion_lon": 0.0}, {"rental_uris": {"ios": "https://dc.lft.to/lastmile_qr_scan", "android": "https://dc.lft.to/lastmile_qr_scan"}, "type": "electric_scooter", "name": "26c1ba66d9b682c6fc61e178e10684bc", "is_reserved": 0, "lon": -77.03373783333333, "is_disabled": 0, "fusion_lat": 0.0, "lat": 38.910460666666665, "bike_id": "26c1ba66d9b682c6fc61e178e10684bc", "fusion_lon": 0.0}, {"rental_uris": {"ios": "https://dc.lft.to/lastmile_qr_scan", "android": "https://dc.lft.to/lastmile_qr_scan"}, "type": "electric_scooter", "name": "365577ad5988659f21cb5c0a010345ea", "is_reserved": 0, "lon": -77.02720716666667, "is_disabled": 0, "fusion_lat": 0.0, "lat": 38.90038, "bike_id": "365577ad5988659f21cb5c0a010345ea", "fusion_lon": 0.0}, {"rental_uris": {"ios": "https://dc.lft.to/lastmile_qr_scan", "android": "https://dc.lft.to/lastmile_qr_scan"}, "type": "electric_bike", "name": "246c4cefcc7bdf7f44a5e453cafb411d", "is_reserved": 0, "lon": -76.96264733333334, "is_disabled": 0, "fusion_lat": 0.0, "lat": 38.8824645, "bike_id": "246c4cefcc7bdf7f44a5e453cafb411d", "fusion_lon": 0.0}, {"rental_uris": {"ios": "https://dc.lft.to/lastmile_qr_scan", "android": "https://dc.lft.to/lastmile_qr_scan"}, "type": "electric_scooter", "name": "4bb3cd8e73bbf8e3f452060043fa9373", "is_reserved": 0, "lon": -77.02950383333334, "is_disabled": 0, "fusion_lat": 0.0, "lat": 38.916884333333336, "bike_id": "4bb3cd8e73bbf8e3f452060043fa9373", "fusion_lon": 0.0}, {"rental_uris": {"ios": "https://dc.lft.to/lastmile_qr_scan", "android": "https://dc.lft.to/lastmile_qr_scan"}, "type": "electric_bike", "name": "f75afe3b9c3fe7488db3ce1f8a3176d3", "is_reserved": 0, "lon": -76.961521, "is_disabled": 0, "fusion_lat": 0.0, "lat": 38.85615033333333, "bike_id": "f75afe3b9c3fe7488db3ce1f8a3176d3", "fusion_lon": 0.0}, {"rental_uris": {"ios": "https://dc.lft.to/lastmile_qr_scan", "android": "https://dc.lft.to/lastmile_qr_scan"}, "type": "electric_scooter", "name": "23b1fb1a5dcbf8aa5e0b30f826d94590", "is_reserved": 0, "lon": -77.06528983333334, "is_disabled": 0, "fusion_lat": 0.0, "lat": 38.91114366666667, "bike_id": "23b1fb1a5dcbf8aa5e0b30f826d94590", "fusion_lon": 0.0}, {"rental_uris": {"ios": "https://dc.lft.to/lastmile_qr_scan", "android": "https://dc.lft.to/lastmile_qr_scan"}, "type": "electric_scooter", "name": "f7cb0a81243a828668e5572fab50f635", "is_reserved": 0, "lon": -77.04291916666666, "is_disabled": 0, "fusion_lat": 0.0, "lat": 38.90660616666667, "bike_id": "f7cb0a81243a828668e5572fab50f635", "fusion_lon": 0.0}, {"rental_uris": {"ios": "https://dc.lft.to/lastmile_qr_scan", "android": "https://dc.lft.to/lastmile_qr_scan"}, "type": "electric_scooter", "name": "6f158dcafdce31186e003d206e33ffd2", "is_reserved": 0, "lon": -76.948601, "is_disabled": 0, "fusion_lat": 0.0, "lat": 38.895641166666664, "bike_id": "6f158dcafdce31186e003d206e33ffd2", "fusion_lon": 0.0}, {"rental_uris": {"ios": "https://dc.lft.to/lastmile_qr_scan", "android": "https://dc.lft.to/lastmile_qr_scan"}, "type": "electric_scooter", "name": "90f47691e8f578f4a5bec1d2159d9f95", "is_reserved": 0, "lon": -77.04096166666666, "is_disabled": 0, "fusion_lat": 0.0, "lat": 38.92529833333333, "bike_id": "90f47691e8f578f4a5bec1d2159d9f95", "fusion_lon": 0.0}, {"rental_uris": {"ios": "https://dc.lft.to/lastmile_qr_scan", "android": "https://dc.lft.to/lastmile_qr_scan"}, "type": "electric_scooter", "name": "b27f811b1bb1b572fdeca179d7bf7210", "is_reserved": 0, "lon": -77.034796, "is_disabled": 0, "fusion_lat": 0.0, "lat": 38.9027775, "bike_id": "b27f811b1bb1b572fdeca179d7bf7210", "fusion_lon": 0.0}, {"rental_uris": {"ios": "https://dc.lft.to/lastmile_qr_scan", "android": "https://dc.lft.to/lastmile_qr_scan"}, "type": "electric_scooter", "name": "640e764710392d7c8252cd862c41ecbe", "is_reserved": 0, "lon": -77.04336633333334, "is_disabled": 0, "fusion_lat": 0.0, "lat": 38.92233516666667, "bike_id": "640e764710392d7c8252cd862c41ecbe", "fusion_lon": 0.0}, {"rental_uris": {"ios": "https://dc.lft.to/lastmile_qr_scan", "android": "https://dc.lft.to/lastmile_qr_scan"}, "type": "electric_scooter", "name": "68c51f72a2f442eaac06f4c3775ce3da", "is_reserved": 0, "lon": -77.06166333333333, "is_disabled": 0, "fusion_lat": 0.0, "lat": 38.90268366666667, "bike_id": "68c51f72a2f442eaac06f4c3775ce3da", "fusion_lon": 0.0}, {"rental_uris": {"ios": "https://dc.lft.to/lastmile_qr_scan", "android": "https://dc.lft.to/lastmile_qr_scan"}, "type": "electric_scooter", "name": "bd9dd7ec734f31382c3dede94c3da72e", "is_reserved": 0, "lon": -77.03509283333334, "is_disabled": 0, "fusion_lat": 0.0, "lat": 38.9235455, "bike_id": "bd9dd7ec734f31382c3dede94c3da72e", "fusion_lon": 0.0}, {"rental_uris": {"ios": "https://dc.lft.to/lastmile_qr_scan", "android": "https://dc.lft.to/lastmile_qr_scan"}, "type": "electric_scooter", "name": "32e6a3827c256b2dd609f5b27ca634a8", "is_reserved": 0, "lon": -76.99757766666667, "is_disabled": 0, "fusion_lat": 0.0, "lat": 38.885039666666664, "bike_id": "32e6a3827c256b2dd609f5b27ca634a8", "fusion_lon": 0.0}, {"rental_uris": {"ios": "https://dc.lft.to/lastmile_qr_scan", "android": "https://dc.lft.to/lastmile_qr_scan"}, "type": "electric_scooter", "name": "fe7e88aa2c45b2408b577b98066ba848", "is_reserved": 0, "lon": -77.02818866666667, "is_disabled": 0, "fusion_lat": 0.0, "lat": 38.90921483333333, "bike_id": "fe7e88aa2c45b2408b577b98066ba848", "fusion_lon": 0.0}, {"rental_uris": {"ios": "https://dc.lft.to/lastmile_qr_scan", "android": "https://dc.lft.to/lastmile_qr_scan"}, "type": "electric_scooter", "name": "ae31e34ecf38d606a3f5ba4b7aea21df", "is_reserved": 0, "lon": -77.0431605, "is_disabled": 0, "fusion_lat": 0.0, "lat": 38.934269666666665, "bike_id": "ae31e34ecf38d606a3f5ba4b7aea21df", "fusion_lon": 0.0}, {"rental_uris": {"ios": "https://dc.lft.to/lastmile_qr_scan", "android": "https://dc.lft.to/lastmile_qr_scan"}, "type": "electric_scooter", "name": "cc810ad96fcd5def4c0cb30e2af04601", "is_reserved": 0, "lon": -77.04312433333334, "is_disabled": 0, "fusion_lat": 0.0, "lat": 38.91786783333333, "bike_id": "cc810ad96fcd5def4c0cb30e2af04601", "fusion_lon": 0.0}, {"rental_uris": {"ios": "https://dc.lft.to/lastmile_qr_scan", "android": "https://dc.lft.to/lastmile_qr_scan"}, "type": "electric_scooter", "name": "f7c9c458073a51f25f5381a4fb330aac", "is_reserved": 0, "lon": -77.023294, "is_disabled": 0, "fusion_lat": 0.0, "lat": 38.89555, "bike_id": "f7c9c458073a51f25f5381a4fb330aac", "fusion_lon": 0.0}, {"rental_uris": {"ios": "https://dc.lft.to/lastmile_qr_scan", "android": "https://dc.lft.to/lastmile_qr_scan"}, "type": "electric_scooter", "name": "615d196f116efa7539c4ae6e84b8c534", "is_reserved": 0, "lon": -77.04896266666667, "is_disabled": 0, "fusion_lat": 0.0, "lat": 38.919355, "bike_id": "615d196f116efa7539c4ae6e84b8c534", "fusion_lon": 0.0}, {"rental_uris": {"ios": "https://dc.lft.to/lastmile_qr_scan", "android": "https://dc.lft.to/lastmile_qr_scan"}, "type": "electric_scooter", "name": "3972242722cdd119516df4f5c02c1ec6", "is_reserved": 0, "lon": -77.05426583333333, "is_disabled": 0, "fusion_lat": 0.0, "lat": 38.928482333333335, "bike_id": "3972242722cdd119516df4f5c02c1ec6", "fusion_lon": 0.0}, {"rental_uris": {"ios": "https://dc.lft.to/lastmile_qr_scan", "android": "https://dc.lft.to/lastmile_qr_scan"}, "type": "electric_scooter", "name": "4505d5eae1e9598145aac84ae8161782", "is_reserved": 0, "lon": -77.0414825, "is_disabled": 0, "fusion_lat": 0.0, "lat": 38.90580333333333, "bike_id": "4505d5eae1e9598145aac84ae8161782", "fusion_lon": 0.0}, {"rental_uris": {"ios": "https://dc.lft.to/lastmile_qr_scan", "android": "https://dc.lft.to/lastmile_qr_scan"}, "type": "electric_scooter", "name": "4d58a545830a0d834f8fa44447f2ade4", "is_reserved": 0, "lon": -77.03244266666667, "is_disabled": 0, "fusion_lat": 0.0, "lat": 38.928843666666666, "bike_id": "4d58a545830a0d834f8fa44447f2ade4", "fusion_lon": 0.0}, {"rental_uris": {"ios": "https://dc.lft.to/lastmile_qr_scan", "android": "https://dc.lft.to/lastmile_qr_scan"}, "type": "electric_scooter", "name": "dca15c7542a598f22ad18f554a528ffc", "is_reserved": 0, "lon": -77.040566, "is_disabled": 0, "fusion_lat": 0.0, "lat": 38.9301585, "bike_id": "dca15c7542a598f22ad18f554a528ffc", "fusion_lon": 0.0}, {"rental_uris": {"ios": "https://dc.lft.to/lastmile_qr_scan", "android": "https://dc.lft.to/lastmile_qr_scan"}, "type": "electric_scooter", "name": "45b0416a338520adace1be09f2857171", "is_reserved": 0, "lon": -76.99191016666667, "is_disabled": 0, "fusion_lat": 0.0, "lat": 38.890442666666665, "bike_id": "45b0416a338520adace1be09f2857171", "fusion_lon": 0.0}, {"rental_uris": {"ios": "https://dc.lft.to/lastmile_qr_scan", "android": "https://dc.lft.to/lastmile_qr_scan"}, "type": "electric_scooter", "name": "30ba10aff87a104bb2dc2f856882f232", "is_reserved": 0, "lon": -77.07166783333334, "is_disabled": 0, "fusion_lat": 0.0, "lat": 38.90777633333333, "bike_id": "30ba10aff87a104bb2dc2f856882f232", "fusion_lon": 0.0}, {"rental_uris": {"ios": "https://dc.lft.to/lastmile_qr_scan", "android": "https://dc.lft.to/lastmile_qr_scan"}, "type": "electric_scooter", "name": "4255f48bc4d425ed7070d036c3d4454a", "is_reserved": 0, "lon": -77.02660116666667, "is_disabled": 0, "fusion_lat": 0.0, "lat": 38.9248465, "bike_id": "4255f48bc4d425ed7070d036c3d4454a", "fusion_lon": 0.0}, {"rental_uris": {"ios": "https://dc.lft.to/lastmile_qr_scan", "android": "https://dc.lft.to/lastmile_qr_scan"}, "type": "electric_scooter", "name": "b180016f6113be4c0ebfcd7be7cd9144", "is_reserved": 0, "lon": -77.03176433333333, "is_disabled": 0, "fusion_lat": 0.0, "lat": 38.915626833333334, "bike_id": "b180016f6113be4c0ebfcd7be7cd9144", "fusion_lon": 0.0}, {"rental_uris": {"ios": "https://dc.lft.to/lastmile_qr_scan", "android": "https://dc.lft.to/lastmile_qr_scan"}, "type": "electric_scooter", "name": "5ef190147177c790a98bb902a81e7435", "is_reserved": 0, "lon": -76.99955566666667, "is_disabled": 0, "fusion_lat": 0.0, "lat": 38.9084565, "bike_id": "5ef190147177c790a98bb902a81e7435", "fusion_lon": 0.0}, {"rental_uris": {"ios": "https://dc.lft.to/lastmile_qr_scan", "android": "https://dc.lft.to/lastmile_qr_scan"}, "type": "electric_scooter", "name": "9917d859bd8dae89cfa0e65071a0b721", "is_reserved": 0, "lon": -76.990353, "is_disabled": 0, "fusion_lat": 0.0, "lat": 38.888836833333336, "bike_id": "9917d859bd8dae89cfa0e65071a0b721", "fusion_lon": 0.0}, {"rental_uris": {"ios": "https://dc.lft.to/lastmile_qr_scan", "android": "https://dc.lft.to/lastmile_qr_scan"}, "type": "electric_scooter", "name": "11f63aed1c516d638ec3e5b8554e8078", "is_reserved": 0, "lon": -77.00200566666666, "is_disabled": 0, "fusion_lat": 0.0, "lat": 38.88926166666667, "bike_id": "11f63aed1c516d638ec3e5b8554e8078", "fusion_lon": 0.0}, {"rental_uris": {"ios": "https://dc.lft.to/lastmile_qr_scan", "android": "https://dc.lft.to/lastmile_qr_scan"}, "type": "electric_bike", "name": "8c22865d8859d5735f0680bd93b818ed", "is_reserved": 0, "lon": -77.0190625, "is_disabled": 0, "fusion_lat": 0.0, "lat": 38.9767025, "bike_id": "8c22865d8859d5735f0680bd93b818ed", "fusion_lon": 0.0}, {"rental_uris": {"ios": "https://dc.lft.to/lastmile_qr_scan", "android": "https://dc.lft.to/lastmile_qr_scan"}, "type": "electric_scooter", "name": "efd30d9339bcb6760791806887124ccb", "is_reserved": 0, "lon": -77.04671433333333, "is_disabled": 0, "fusion_lat": 0.0, "lat": 38.912505, "bike_id": "efd30d9339bcb6760791806887124ccb", "fusion_lon": 0.0}, {"rental_uris": {"ios": "https://dc.lft.to/lastmile_qr_scan", "android": "https://dc.lft.to/lastmile_qr_scan"}, "type": "electric_scooter", "name": "40af51f0b43200be376d34bdb22aa044", "is_reserved": 0, "lon": -77.03265666666667, "is_disabled": 0, "fusion_lat": 0.0, "lat": 38.925461, "bike_id": "40af51f0b43200be376d34bdb22aa044", "fusion_lon": 0.0}, {"rental_uris": {"ios": "https://dc.lft.to/lastmile_qr_scan", "android": "https://dc.lft.to/lastmile_qr_scan"}, "type": "electric_scooter", "name": "6998ff47215527b95f26a3eda44b12c6", "is_reserved": 0, "lon": -77.06029416666667, "is_disabled": 0, "fusion_lat": 0.0, "lat": 38.93883783333333, "bike_id": "6998ff47215527b95f26a3eda44b12c6", "fusion_lon": 0.0}, {"rental_uris": {"ios": "https://dc.lft.to/lastmile_qr_scan", "android": "https://dc.lft.to/lastmile_qr_scan"}, "type": "electric_scooter", "name": "403ae6decd320fa677558ec2771cb571", "is_reserved": 0, "lon": -76.97721666666666, "is_disabled": 0, "fusion_lat": 0.0, "lat": 38.90057983333333, "bike_id": "403ae6decd320fa677558ec2771cb571", "fusion_lon": 0.0}, {"rental_uris": {"ios": "https://dc.lft.to/lastmile_qr_scan", "android": "https://dc.lft.to/lastmile_qr_scan"}, "type": "electric_scooter", "name": "99fec5c6f3c1199740c457e7329dd380", "is_reserved": 0, "lon": -76.98533, "is_disabled": 0, "fusion_lat": 0.0, "lat": 38.91452816666666, "bike_id": "99fec5c6f3c1199740c457e7329dd380", "fusion_lon": 0.0}, {"rental_uris": {"ios": "https://dc.lft.to/lastmile_qr_scan", "android": "https://dc.lft.to/lastmile_qr_scan"}, "type": "electric_scooter", "name": "68d3d993d8b581a85931654a0d2709a4", "is_reserved": 0, "lon": -77.036216, "is_disabled": 0, "fusion_lat": 0.0, "lat": 38.94289116666667, "bike_id": "68d3d993d8b581a85931654a0d2709a4", "fusion_lon": 0.0}, {"rental_uris": {"ios": "https://dc.lft.to/lastmile_qr_scan", "android": "https://dc.lft.to/lastmile_qr_scan"}, "type": "electric_bike", "name": "b3e9052f510bd22046567c98ac7520cc", "is_reserved": 0, "lon": -77.02070666666667, "is_disabled": 0, "fusion_lat": 0.0, "lat": 38.9644365, "bike_id": "b3e9052f510bd22046567c98ac7520cc", "fusion_lon": 0.0}, {"rental_uris": {"ios": "https://dc.lft.to/lastmile_qr_scan", "android": "https://dc.lft.to/lastmile_qr_scan"}, "type": "electric_bike", "name": "1fb94a046c8629f1f9910c83888c739b", "is_reserved": 0, "lon": -77.07664333333334, "is_disabled": 0, "fusion_lat": 0.0, "lat": 38.8098225, "bike_id": "1fb94a046c8629f1f9910c83888c739b", "fusion_lon": 0.0}, {"rental_uris": {"ios": "https://dc.lft.to/lastmile_qr_scan", "android": "https://dc.lft.to/lastmile_qr_scan"}, "type": "electric_scooter", "name": "f0ed725bce2c5e3f7b971b6388d322be", "is_reserved": 0, "lon": -77.02103983333333, "is_disabled": 0, "fusion_lat": 0.0, "lat": 38.96675833333333, "bike_id": "f0ed725bce2c5e3f7b971b6388d322be", "fusion_lon": 0.0}, {"rental_uris": {"ios": "https://dc.lft.to/lastmile_qr_scan", "android": "https://dc.lft.to/lastmile_qr_scan"}, "type": "electric_scooter", "name": "c5bd95953a3f000ede0ff6e606aa2aa6", "is_reserved": 0, "lon": -77.00608816666667, "is_disabled": 0, "fusion_lat": 0.0, "lat": 38.905764, "bike_id": "c5bd95953a3f000ede0ff6e606aa2aa6", "fusion_lon": 0.0}, {"rental_uris": {"ios": "https://dc.lft.to/lastmile_qr_scan", "android": "https://dc.lft.to/lastmile_qr_scan"}, "type": "electric_scooter", "name": "2e0072032b5156b038f850dcbc8f1a89", "is_reserved": 0, "lon": -77.06091483333333, "is_disabled": 0, "fusion_lat": 0.0, "lat": 38.939922, "bike_id": "2e0072032b5156b038f850dcbc8f1a89", "fusion_lon": 0.0}, {"rental_uris": {"ios": "https://dc.lft.to/lastmile_qr_scan", "android": "https://dc.lft.to/lastmile_qr_scan"}, "type": "electric_scooter", "name": "f3f80f7df09a32efe871da9d96214088", "is_reserved": 0, "lon": -77.06092216666667, "is_disabled": 0, "fusion_lat": 0.0, "lat": 38.939947833333335, "bike_id": "f3f80f7df09a32efe871da9d96214088", "fusion_lon": 0.0}, {"rental_uris": {"ios": "https://dc.lft.to/lastmile_qr_scan", "android": "https://dc.lft.to/lastmile_qr_scan"}, "type": "electric_scooter", "name": "d0d84ebca10baec67a8ed18bffab2420", "is_reserved": 0, "lon": -76.995908, "is_disabled": 0, "fusion_lat": 0.0, "lat": 38.909432833333334, "bike_id": "d0d84ebca10baec67a8ed18bffab2420", "fusion_lon": 0.0}, {"rental_uris": {"ios": "https://dc.lft.to/lastmile_qr_scan", "android": "https://dc.lft.to/lastmile_qr_scan"}, "type": "electric_scooter", "name": "4327b68cf9d301a84cf9cb3272c14247", "is_reserved": 0, "lon": -77.0491495, "is_disabled": 0, "fusion_lat": 0.0, "lat": 38.900718, "bike_id": "4327b68cf9d301a84cf9cb3272c14247", "fusion_lon": 0.0}, {"rental_uris": {"ios": "https://dc.lft.to/lastmile_qr_scan", "android": "https://dc.lft.to/lastmile_qr_scan"}, "type": "electric_bike", "name": "52a4e1db60de48f260430601b1ba8947", "is_reserved": 0, "lon": -77.069499, "is_disabled": 0, "fusion_lat": 0.0, "lat": 38.8362725, "bike_id": "52a4e1db60de48f260430601b1ba8947", "fusion_lon": 0.0}, {"rental_uris": {"ios": "https://dc.lft.to/lastmile_qr_scan", "android": "https://dc.lft.to/lastmile_qr_scan"}, "type": "electric_scooter", "name": "72fbaf75459e373ab8e683ebeffa1c5d", "is_reserved": 0, "lon": -77.01738883333333, "is_disabled": 0, "fusion_lat": 0.0, "lat": 38.902593333333336, "bike_id": "72fbaf75459e373ab8e683ebeffa1c5d", "fusion_lon": 0.0}, {"rental_uris": {"ios": "https://dc.lft.to/lastmile_qr_scan", "android": "https://dc.lft.to/lastmile_qr_scan"}, "type": "electric_scooter", "name": "ce7686481f00987434b594cd7e9cdb51", "is_reserved": 0, "lon": -77.0152105, "is_disabled": 0, "fusion_lat": 0.0, "lat": 38.88505, "bike_id": "ce7686481f00987434b594cd7e9cdb51", "fusion_lon": 0.0}, {"rental_uris": {"ios": "https://dc.lft.to/lastmile_qr_scan", "android": "https://dc.lft.to/lastmile_qr_scan"}, "type": "electric_scooter", "name": "9cad27bb66d41b2957d0c1e2097286d4", "is_reserved": 0, "lon": -77.04821266666667, "is_disabled": 0, "fusion_lat": 0.0, "lat": 38.91487716666666, "bike_id": "9cad27bb66d41b2957d0c1e2097286d4", "fusion_lon": 0.0}, {"rental_uris": {"ios": "https://dc.lft.to/lastmile_qr_scan", "android": "https://dc.lft.to/lastmile_qr_scan"}, "type": "electric_scooter", "name": "ef11cce23519e79560afceb69653de10", "is_reserved": 0, "lon": -77.0685415, "is_disabled": 0, "fusion_lat": 0.0, "lat": 38.90411783333333, "bike_id": "ef11cce23519e79560afceb69653de10", "fusion_lon": 0.0}, {"rental_uris": {"ios": "https://dc.lft.to/lastmile_qr_scan", "android": "https://dc.lft.to/lastmile_qr_scan"}, "type": "electric_bike", "name": "5785151ce56cade4a99cfa4b2fbe1a32", "is_reserved": 0, "lon": -76.99354533333333, "is_disabled": 0, "fusion_lat": 0.0, "lat": 38.84507283333333, "bike_id": "5785151ce56cade4a99cfa4b2fbe1a32", "fusion_lon": 0.0}, {"rental_uris": {"ios": "https://dc.lft.to/lastmile_qr_scan", "android": "https://dc.lft.to/lastmile_qr_scan"}, "type": "electric_scooter", "name": "a8c9aff8d2f1d8b05c283d6976a66b11", "is_reserved": 0, "lon": -76.97330683333334, "is_disabled": 0, "fusion_lat": 0.0, "lat": 38.904114666666665, "bike_id": "a8c9aff8d2f1d8b05c283d6976a66b11", "fusion_lon": 0.0}, {"rental_uris": {"ios": "https://dc.lft.to/lastmile_qr_scan", "android": "https://dc.lft.to/lastmile_qr_scan"}, "type": "electric_scooter", "name": "1c1dba5c8837d432ccf113f556790567", "is_reserved": 0, "lon": -77.039744, "is_disabled": 0, "fusion_lat": 0.0, "lat": 38.93149416666667, "bike_id": "1c1dba5c8837d432ccf113f556790567", "fusion_lon": 0.0}, {"rental_uris": {"ios": "https://dc.lft.to/lastmile_qr_scan", "android": "https://dc.lft.to/lastmile_qr_scan"}, "type": "electric_scooter", "name": "2a20ce1d101dbd1e06174bff9bd2c51c", "is_reserved": 0, "lon": -76.99080183333334, "is_disabled": 0, "fusion_lat": 0.0, "lat": 38.902930833333336, "bike_id": "2a20ce1d101dbd1e06174bff9bd2c51c", "fusion_lon": 0.0}, {"rental_uris": {"ios": "https://dc.lft.to/lastmile_qr_scan", "android": "https://dc.lft.to/lastmile_qr_scan"}, "type": "electric_bike", "name": "12e1144cfc848fea8ae7c4fda1b1dc32", "is_reserved": 0, "lon": -77.09724433333334, "is_disabled": 0, "fusion_lat": 0.0, "lat": 38.80737366666666, "bike_id": "12e1144cfc848fea8ae7c4fda1b1dc32", "fusion_lon": 0.0}, {"rental_uris": {"ios": "https://dc.lft.to/lastmile_qr_scan", "android": "https://dc.lft.to/lastmile_qr_scan"}, "type": "electric_scooter", "name": "cdc73a601f4932da56dd7267f250f825", "is_reserved": 0, "lon": -77.01516416666666, "is_disabled": 0, "fusion_lat": 0.0, "lat": 38.909772333333336, "bike_id": "cdc73a601f4932da56dd7267f250f825", "fusion_lon": 0.0}, {"rental_uris": {"ios": "https://dc.lft.to/lastmile_qr_scan", "android": "https://dc.lft.to/lastmile_qr_scan"}, "type": "electric_bike", "name": "1e8f2e5c4eb68ff1ff696cb16064da2e", "is_reserved": 0, "lon": -77.21665716666666, "is_disabled": 0, "fusion_lat": 0.0, "lat": 38.89507416666667, "bike_id": "1e8f2e5c4eb68ff1ff696cb16064da2e", "fusion_lon": 0.0}, {"rental_uris": {"ios": "https://dc.lft.to/lastmile_qr_scan", "android": "https://dc.lft.to/lastmile_qr_scan"}, "type": "electric_scooter", "name": "1bd18bffd642fd3de9edb8f16c9bc21f", "is_reserved": 0, "lon": -77.0260415, "is_disabled": 0, "fusion_lat": 0.0, "lat": 38.94611233333333, "bike_id": "1bd18bffd642fd3de9edb8f16c9bc21f", "fusion_lon": 0.0}, {"rental_uris": {"ios": "https://dc.lft.to/lastmile_qr_scan", "android": "https://dc.lft.to/lastmile_qr_scan"}, "type": "electric_scooter", "name": "568f36e501e890fd3b86ab655825dba0", "is_reserved": 0, "lon": -77.0412865, "is_disabled": 0, "fusion_lat": 0.0, "lat": 38.933894333333335, "bike_id": "568f36e501e890fd3b86ab655825dba0", "fusion_lon": 0.0}, {"rental_uris": {"ios": "https://dc.lft.to/lastmile_qr_scan", "android": "https://dc.lft.to/lastmile_qr_scan"}, "type": "electric_scooter", "name": "0804598f2bff9426bb60f6dfd30a8b60", "is_reserved": 0, "lon": -77.055114, "is_disabled": 0, "fusion_lat": 0.0, "lat": 38.928316, "bike_id": "0804598f2bff9426bb60f6dfd30a8b60", "fusion_lon": 0.0}, {"rental_uris": {"ios": "https://dc.lft.to/lastmile_qr_scan", "android": "https://dc.lft.to/lastmile_qr_scan"}, "type": "electric_scooter", "name": "d49247685d6b9d92a1af456b94bde92b", "is_reserved": 0, "lon": -77.01558433333334, "is_disabled": 0, "fusion_lat": 0.0, "lat": 38.876159, "bike_id": "d49247685d6b9d92a1af456b94bde92b", "fusion_lon": 0.0}, {"rental_uris": {"ios": "https://dc.lft.to/lastmile_qr_scan", "android": "https://dc.lft.to/lastmile_qr_scan"}, "type": "electric_scooter", "name": "0260a49b6c85115b95fbbc163984310f", "is_reserved": 0, "lon": -77.04090866666667, "is_disabled": 0, "fusion_lat": 0.0, "lat": 38.9056515, "bike_id": "0260a49b6c85115b95fbbc163984310f", "fusion_lon": 0.0}, {"rental_uris": {"ios": "https://dc.lft.to/lastmile_qr_scan", "android": "https://dc.lft.to/lastmile_qr_scan"}, "type": "electric_bike", "name": "daf223593f3aaf78ffb666b911a7c9f1", "is_reserved": 0, "lon": -77.06532233333333, "is_disabled": 0, "fusion_lat": 0.0, "lat": 38.992375, "bike_id": "daf223593f3aaf78ffb666b911a7c9f1", "fusion_lon": 0.0}, {"rental_uris": {"ios": "https://dc.lft.to/lastmile_qr_scan", "android": "https://dc.lft.to/lastmile_qr_scan"}, "type": "electric_scooter", "name": "673a82a7b71379e7b5cd35438be2d535", "is_reserved": 0, "lon": -76.996234, "is_disabled": 0, "fusion_lat": 0.0, "lat": 38.904483666666664, "bike_id": "673a82a7b71379e7b5cd35438be2d535", "fusion_lon": 0.0}, {"rental_uris": {"ios": "https://dc.lft.to/lastmile_qr_scan", "android": "https://dc.lft.to/lastmile_qr_scan"}, "type": "electric_bike", "name": "6aaa6ed0d31f194f15509d94ee2a8eef", "is_reserved": 0, "lon": -76.95062783333333, "is_disabled": 0, "fusion_lat": 0.0, "lat": 39.08511716666667, "bike_id": "6aaa6ed0d31f194f15509d94ee2a8eef", "fusion_lon": 0.0}, {"rental_uris": {"ios": "https://dc.lft.to/lastmile_qr_scan", "android": "https://dc.lft.to/lastmile_qr_scan"}, "type": "electric_scooter", "name": "f574de27e83ecb8541f7c1f38d6ff785", "is_reserved": 0, "lon": -77.02405983333334, "is_disabled": 0, "fusion_lat": 0.0, "lat": 38.927543166666666, "bike_id": "f574de27e83ecb8541f7c1f38d6ff785", "fusion_lon": 0.0}, {"rental_uris": {"ios": "https://dc.lft.to/lastmile_qr_scan", "android": "https://dc.lft.to/lastmile_qr_scan"}, "type": "electric_bike", "name": "a7637554378907a9d0cbc63c62098dc7", "is_reserved": 0, "lon": -77.11322416666667, "is_disabled": 0, "fusion_lat": 0.0, "lat": 38.85583, "bike_id": "a7637554378907a9d0cbc63c62098dc7", "fusion_lon": 0.0}, {"rental_uris": {"ios": "https://dc.lft.to/lastmile_qr_scan", "android": "https://dc.lft.to/lastmile_qr_scan"}, "type": "electric_scooter", "name": "dc193f260fde1711273750d31290226d", "is_reserved": 0, "lon": -77.074069, "is_disabled": 0, "fusion_lat": 0.0, "lat": 38.93752, "bike_id": "dc193f260fde1711273750d31290226d", "fusion_lon": 0.0}, {"rental_uris": {"ios": "https://dc.lft.to/lastmile_qr_scan", "android": "https://dc.lft.to/lastmile_qr_scan"}, "type": "electric_scooter", "name": "ada653f7736f641eb27485c7dc1337f0", "is_reserved": 0, "lon": -77.02873233333334, "is_disabled": 0, "fusion_lat": 0.0, "lat": 38.916917833333336, "bike_id": "ada653f7736f641eb27485c7dc1337f0", "fusion_lon": 0.0}, {"rental_uris": {"ios": "https://dc.lft.to/lastmile_qr_scan", "android": "https://dc.lft.to/lastmile_qr_scan"}, "type": "electric_scooter", "name": "e503aeee91e0399afa5fcf416d036fdc", "is_reserved": 0, "lon": -76.99387633333333, "is_disabled": 0, "fusion_lat": 0.0, "lat": 38.91014233333333, "bike_id": "e503aeee91e0399afa5fcf416d036fdc", "fusion_lon": 0.0}, {"rental_uris": {"ios": "https://dc.lft.to/lastmile_qr_scan", "android": "https://dc.lft.to/lastmile_qr_scan"}, "type": "electric_scooter", "name": "333bc178338a357248606bc40c3510ba", "is_reserved": 0, "lon": -77.03973416666666, "is_disabled": 0, "fusion_lat": 0.0, "lat": 38.91342066666667, "bike_id": "333bc178338a357248606bc40c3510ba", "fusion_lon": 0.0}, {"rental_uris": {"ios": "https://dc.lft.to/lastmile_qr_scan", "android": "https://dc.lft.to/lastmile_qr_scan"}, "type": "electric_scooter", "name": "2d3c740e4acdc4eb76b0ac348a96a101", "is_reserved": 0, "lon": -77.04995666666667, "is_disabled": 0, "fusion_lat": 0.0, "lat": 38.897728, "bike_id": "2d3c740e4acdc4eb76b0ac348a96a101", "fusion_lon": 0.0}, {"rental_uris": {"ios": "https://dc.lft.to/lastmile_qr_scan", "android": "https://dc.lft.to/lastmile_qr_scan"}, "type": "electric_scooter", "name": "23e6d767eef2b789a7b9635754a83338", "is_reserved": 0, "lon": -77.04331666666667, "is_disabled": 0, "fusion_lat": 0.0, "lat": 38.899716, "bike_id": "23e6d767eef2b789a7b9635754a83338", "fusion_lon": 0.0}, {"rental_uris": {"ios": "https://dc.lft.to/lastmile_qr_scan", "android": "https://dc.lft.to/lastmile_qr_scan"}, "type": "electric_scooter", "name": "8bda951a82ed4986b1223638951ae48b", "is_reserved": 0, "lon": -77.02181683333333, "is_disabled": 0, "fusion_lat": 0.0, "lat": 38.9180955, "bike_id": "8bda951a82ed4986b1223638951ae48b", "fusion_lon": 0.0}, {"rental_uris": {"ios": "https://dc.lft.to/lastmile_qr_scan", "android": "https://dc.lft.to/lastmile_qr_scan"}, "type": "electric_scooter", "name": "fe33c3a7f752c01da262aeda34fa48c0", "is_reserved": 0, "lon": -77.03267983333333, "is_disabled": 0, "fusion_lat": 0.0, "lat": 38.93885683333333, "bike_id": "fe33c3a7f752c01da262aeda34fa48c0", "fusion_lon": 0.0}, {"rental_uris": {"ios": "https://dc.lft.to/lastmile_qr_scan", "android": "https://dc.lft.to/lastmile_qr_scan"}, "type": "electric_scooter", "name": "bbdf754958a92d8ab017a7bcc61996a9", "is_reserved": 0, "lon": -77.02458366666667, "is_disabled": 0, "fusion_lat": 0.0, "lat": 38.916907, "bike_id": "bbdf754958a92d8ab017a7bcc61996a9", "fusion_lon": 0.0}, {"rental_uris": {"ios": "https://dc.lft.to/lastmile_qr_scan", "android": "https://dc.lft.to/lastmile_qr_scan"}, "type": "electric_scooter", "name": "cb363da70fb1738c1c9a4168e11ea0da", "is_reserved": 0, "lon": -77.03444016666667, "is_disabled": 0, "fusion_lat": 0.0, "lat": 38.91678183333333, "bike_id": "cb363da70fb1738c1c9a4168e11ea0da", "fusion_lon": 0.0}, {"rental_uris": {"ios": "https://dc.lft.to/lastmile_qr_scan", "android": "https://dc.lft.to/lastmile_qr_scan"}, "type": "electric_scooter", "name": "254f622aae59f5bb9567d379b7f3222d", "is_reserved": 0, "lon": -77.028056, "is_disabled": 0, "fusion_lat": 0.0, "lat": 38.90738183333333, "bike_id": "254f622aae59f5bb9567d379b7f3222d", "fusion_lon": 0.0}, {"rental_uris": {"ios": "https://dc.lft.to/lastmile_qr_scan", "android": "https://dc.lft.to/lastmile_qr_scan"}, "type": "electric_scooter", "name": "5520ea44df9466c188fd8f2cbd49ac49", "is_reserved": 0, "lon": -77.030848, "is_disabled": 0, "fusion_lat": 0.0, "lat": 38.93879, "bike_id": "5520ea44df9466c188fd8f2cbd49ac49", "fusion_lon": 0.0}, {"rental_uris": {"ios": "https://dc.lft.to/lastmile_qr_scan", "android": "https://dc.lft.to/lastmile_qr_scan"}, "type": "electric_scooter", "name": "68138b3374ca5d3d3e33faf656d773b8", "is_reserved": 0, "lon": -77.02689366666667, "is_disabled": 0, "fusion_lat": 0.0, "lat": 38.89984116666667, "bike_id": "68138b3374ca5d3d3e33faf656d773b8", "fusion_lon": 0.0}, {"rental_uris": {"ios": "https://dc.lft.to/lastmile_qr_scan", "android": "https://dc.lft.to/lastmile_qr_scan"}, "type": "electric_scooter", "name": "54b953fcc22b84c5a2dbd86ad6e20389", "is_reserved": 0, "lon": -77.03794133333334, "is_disabled": 0, "fusion_lat": 0.0, "lat": 38.9359815, "bike_id": "54b953fcc22b84c5a2dbd86ad6e20389", "fusion_lon": 0.0}, {"rental_uris": {"ios": "https://dc.lft.to/lastmile_qr_scan", "android": "https://dc.lft.to/lastmile_qr_scan"}, "type": "electric_scooter", "name": "107943a060eaee50ab44bb5d28030128", "is_reserved": 0, "lon": -77.03261183333333, "is_disabled": 0, "fusion_lat": 0.0, "lat": 38.91402683333333, "bike_id": "107943a060eaee50ab44bb5d28030128", "fusion_lon": 0.0}, {"rental_uris": {"ios": "https://dc.lft.to/lastmile_qr_scan", "android": "https://dc.lft.to/lastmile_qr_scan"}, "type": "electric_scooter", "name": "a89c8536beb6fcc6143676fd040cbe90", "is_reserved": 0, "lon": -77.0007345, "is_disabled": 0, "fusion_lat": 0.0, "lat": 38.876929833333335, "bike_id": "a89c8536beb6fcc6143676fd040cbe90", "fusion_lon": 0.0}, {"rental_uris": {"ios": "https://dc.lft.to/lastmile_qr_scan", "android": "https://dc.lft.to/lastmile_qr_scan"}, "type": "electric_scooter", "name": "54dfce98951aebd78654059c9beb1644", "is_reserved": 0, "lon": -76.98079166666666, "is_disabled": 0, "fusion_lat": 0.0, "lat": 38.90412283333333, "bike_id": "54dfce98951aebd78654059c9beb1644", "fusion_lon": 0.0}, {"rental_uris": {"ios": "https://dc.lft.to/lastmile_qr_scan", "android": "https://dc.lft.to/lastmile_qr_scan"}, "type": "electric_scooter", "name": "408ed40ac431ce7a37229be78685638e", "is_reserved": 0, "lon": -77.017601, "is_disabled": 0, "fusion_lat": 0.0, "lat": 38.9038795, "bike_id": "408ed40ac431ce7a37229be78685638e", "fusion_lon": 0.0}, {"rental_uris": {"ios": "https://dc.lft.to/lastmile_qr_scan", "android": "https://dc.lft.to/lastmile_qr_scan"}, "type": "electric_scooter", "name": "9f711c963c4e411c7153e633035975dc", "is_reserved": 0, "lon": -77.0424685, "is_disabled": 0, "fusion_lat": 0.0, "lat": 38.92441816666667, "bike_id": "9f711c963c4e411c7153e633035975dc", "fusion_lon": 0.0}, {"rental_uris": {"ios": "https://dc.lft.to/lastmile_qr_scan", "android": "https://dc.lft.to/lastmile_qr_scan"}, "type": "electric_scooter", "name": "78d06aa5dd8f55cd9c0ad566f502047c", "is_reserved": 0, "lon": -77.0153345, "is_disabled": 0, "fusion_lat": 0.0, "lat": 38.887379, "bike_id": "78d06aa5dd8f55cd9c0ad566f502047c", "fusion_lon": 0.0}, {"rental_uris": {"ios": "https://dc.lft.to/lastmile_qr_scan", "android": "https://dc.lft.to/lastmile_qr_scan"}, "type": "electric_scooter", "name": "7cd8c61b5ee32fc3aa7f7ab13646bba9", "is_reserved": 0, "lon": -76.94854733333334, "is_disabled": 0, "fusion_lat": 0.0, "lat": 38.88298266666666, "bike_id": "7cd8c61b5ee32fc3aa7f7ab13646bba9", "fusion_lon": 0.0}, {"rental_uris": {"ios": "https://dc.lft.to/lastmile_qr_scan", "android": "https://dc.lft.to/lastmile_qr_scan"}, "type": "electric_scooter", "name": "48ca50e45caf332668ba7a094fa14ee6", "is_reserved": 0, "lon": -77.05413816666666, "is_disabled": 0, "fusion_lat": 0.0, "lat": 38.9282985, "bike_id": "48ca50e45caf332668ba7a094fa14ee6", "fusion_lon": 0.0}, {"rental_uris": {"ios": "https://dc.lft.to/lastmile_qr_scan", "android": "https://dc.lft.to/lastmile_qr_scan"}, "type": "electric_scooter", "name": "861b5ae3f4a65c10a6276ee397fe84ea", "is_reserved": 0, "lon": -77.03477833333334, "is_disabled": 0, "fusion_lat": 0.0, "lat": 38.9303355, "bike_id": "861b5ae3f4a65c10a6276ee397fe84ea", "fusion_lon": 0.0}, {"rental_uris": {"ios": "https://dc.lft.to/lastmile_qr_scan", "android": "https://dc.lft.to/lastmile_qr_scan"}, "type": "electric_scooter", "name": "61360db86356ed2d872dc8dba92d77e8", "is_reserved": 0, "lon": -77.00708383333334, "is_disabled": 0, "fusion_lat": 0.0, "lat": 38.878424833333334, "bike_id": "61360db86356ed2d872dc8dba92d77e8", "fusion_lon": 0.0}, {"rental_uris": {"ios": "https://dc.lft.to/lastmile_qr_scan", "android": "https://dc.lft.to/lastmile_qr_scan"}, "type": "electric_scooter", "name": "1c13600d41a248afa640b601b9fa0d7d", "is_reserved": 0, "lon": -77.02281116666667, "is_disabled": 0, "fusion_lat": 0.0, "lat": 38.926619333333335, "bike_id": "1c13600d41a248afa640b601b9fa0d7d", "fusion_lon": 0.0}, {"rental_uris": {"ios": "https://dc.lft.to/lastmile_qr_scan", "android": "https://dc.lft.to/lastmile_qr_scan"}, "type": "electric_bike", "name": "f608be1311b8f7d75a769a77105f05da", "is_reserved": 0, "lon": -77.0435445, "is_disabled": 0, "fusion_lat": 0.0, "lat": 38.897238, "bike_id": "f608be1311b8f7d75a769a77105f05da", "fusion_lon": 0.0}, {"rental_uris": {"ios": "https://dc.lft.to/lastmile_qr_scan", "android": "https://dc.lft.to/lastmile_qr_scan"}, "type": "electric_scooter", "name": "da3fe6b35ca43437f47fa2981ab26226", "is_reserved": 0, "lon": -77.02165916666667, "is_disabled": 0, "fusion_lat": 0.0, "lat": 38.92506383333333, "bike_id": "da3fe6b35ca43437f47fa2981ab26226", "fusion_lon": 0.0}, {"rental_uris": {"ios": "https://dc.lft.to/lastmile_qr_scan", "android": "https://dc.lft.to/lastmile_qr_scan"}, "type": "electric_scooter", "name": "86915e2cf3fcbda4a2f85a3bac9bf5ac", "is_reserved": 0, "lon": -77.03382616666667, "is_disabled": 0, "fusion_lat": 0.0, "lat": 38.93843066666667, "bike_id": "86915e2cf3fcbda4a2f85a3bac9bf5ac", "fusion_lon": 0.0}, {"rental_uris": {"ios": "https://dc.lft.to/lastmile_qr_scan", "android": "https://dc.lft.to/lastmile_qr_scan"}, "type": "electric_scooter", "name": "a3c25580b0e868a0b40bd64a60935e2c", "is_reserved": 0, "lon": -77.02395083333333, "is_disabled": 0, "fusion_lat": 0.0, "lat": 38.91956366666667, "bike_id": "a3c25580b0e868a0b40bd64a60935e2c", "fusion_lon": 0.0}, {"rental_uris": {"ios": "https://dc.lft.to/lastmile_qr_scan", "android": "https://dc.lft.to/lastmile_qr_scan"}, "type": "electric_scooter", "name": "1e5757439606f7d971c910d0e1672381", "is_reserved": 0, "lon": -77.02475533333333, "is_disabled": 0, "fusion_lat": 0.0, "lat": 38.931062833333336, "bike_id": "1e5757439606f7d971c910d0e1672381", "fusion_lon": 0.0}, {"rental_uris": {"ios": "https://dc.lft.to/lastmile_qr_scan", "android": "https://dc.lft.to/lastmile_qr_scan"}, "type": "electric_scooter", "name": "f152d490e66ea874487990b8af3a196a", "is_reserved": 0, "lon": -77.020788, "is_disabled": 0, "fusion_lat": 0.0, "lat": 38.92416216666667, "bike_id": "f152d490e66ea874487990b8af3a196a", "fusion_lon": 0.0}, {"rental_uris": {"ios": "https://dc.lft.to/lastmile_qr_scan", "android": "https://dc.lft.to/lastmile_qr_scan"}, "type": "electric_bike", "name": "933c9754c501a9de89b51c792601d104", "is_reserved": 0, "lon": -77.02974766666667, "is_disabled": 0, "fusion_lat": 0.0, "lat": 38.91734183333333, "bike_id": "933c9754c501a9de89b51c792601d104", "fusion_lon": 0.0}, {"rental_uris": {"ios": "https://dc.lft.to/lastmile_qr_scan", "android": "https://dc.lft.to/lastmile_qr_scan"}, "type": "electric_scooter", "name": "215743f926e080f2649b21dd8f104758", "is_reserved": 0, "lon": -77.02444566666667, "is_disabled": 0, "fusion_lat": 0.0, "lat": 38.9171085, "bike_id": "215743f926e080f2649b21dd8f104758", "fusion_lon": 0.0}, {"rental_uris": {"ios": "https://dc.lft.to/lastmile_qr_scan", "android": "https://dc.lft.to/lastmile_qr_scan"}, "type": "electric_scooter", "name": "bc0d3c380ee9369ef37d253a0c01cfe8", "is_reserved": 0, "lon": -77.0164005, "is_disabled": 0, "fusion_lat": 0.0, "lat": 38.903767, "bike_id": "bc0d3c380ee9369ef37d253a0c01cfe8", "fusion_lon": 0.0}, {"rental_uris": {"ios": "https://dc.lft.to/lastmile_qr_scan", "android": "https://dc.lft.to/lastmile_qr_scan"}, "type": "electric_bike", "name": "986bdb4d8a9008cf0c5b0572ba54735b", "is_reserved": 0, "lon": -77.10291983333333, "is_disabled": 0, "fusion_lat": 0.0, "lat": 38.852521, "bike_id": "986bdb4d8a9008cf0c5b0572ba54735b", "fusion_lon": 0.0}, {"rental_uris": {"ios": "https://dc.lft.to/lastmile_qr_scan", "android": "https://dc.lft.to/lastmile_qr_scan"}, "type": "electric_scooter", "name": "89e2da7300b003512b8d1e6c57bcb25d", "is_reserved": 0, "lon": -77.02456566666666, "is_disabled": 0, "fusion_lat": 0.0, "lat": 38.89731066666667, "bike_id": "89e2da7300b003512b8d1e6c57bcb25d", "fusion_lon": 0.0}, {"rental_uris": {"ios": "https://dc.lft.to/lastmile_qr_scan", "android": "https://dc.lft.to/lastmile_qr_scan"}, "type": "electric_bike", "name": "8d3a9be0d073021a88a20ad6fd0873d8", "is_reserved": 0, "lon": -77.2317825, "is_disabled": 0, "fusion_lat": 0.0, "lat": 38.9289605, "bike_id": "8d3a9be0d073021a88a20ad6fd0873d8", "fusion_lon": 0.0}, {"rental_uris": {"ios": "https://dc.lft.to/lastmile_qr_scan", "android": "https://dc.lft.to/lastmile_qr_scan"}, "type": "electric_scooter", "name": "030cf790529cdd60ba96173c9e31f2ee", "is_reserved": 0, "lon": -77.02655016666667, "is_disabled": 0, "fusion_lat": 0.0, "lat": 38.930989833333335, "bike_id": "030cf790529cdd60ba96173c9e31f2ee", "fusion_lon": 0.0}, {"rental_uris": {"ios": "https://dc.lft.to/lastmile_qr_scan", "android": "https://dc.lft.to/lastmile_qr_scan"}, "type": "electric_scooter", "name": "6a57ae0472240bfb09ea2ce278192e27", "is_reserved": 0, "lon": -77.03416833333333, "is_disabled": 0, "fusion_lat": 0.0, "lat": 38.901402833333336, "bike_id": "6a57ae0472240bfb09ea2ce278192e27", "fusion_lon": 0.0}, {"rental_uris": {"ios": "https://dc.lft.to/lastmile_qr_scan", "android": "https://dc.lft.to/lastmile_qr_scan"}, "type": "electric_scooter", "name": "a8d0cacba7a07dee83b9f550d1872cb8", "is_reserved": 0, "lon": -76.9230805, "is_disabled": 0, "fusion_lat": 0.0, "lat": 38.893897, "bike_id": "a8d0cacba7a07dee83b9f550d1872cb8", "fusion_lon": 0.0}, {"rental_uris": {"ios": "https://dc.lft.to/lastmile_qr_scan", "android": "https://dc.lft.to/lastmile_qr_scan"}, "type": "electric_scooter", "name": "32dfab2b761c547e8f74e9d05ae011c7", "is_reserved": 0, "lon": -77.02009183333334, "is_disabled": 0, "fusion_lat": 0.0, "lat": 38.928085, "bike_id": "32dfab2b761c547e8f74e9d05ae011c7", "fusion_lon": 0.0}, {"rental_uris": {"ios": "https://dc.lft.to/lastmile_qr_scan", "android": "https://dc.lft.to/lastmile_qr_scan"}, "type": "electric_bike", "name": "4dd1722270c1aa5394feec1a4eb2bb6e", "is_reserved": 0, "lon": -76.97935583333333, "is_disabled": 0, "fusion_lat": 0.0, "lat": 38.919989, "bike_id": "4dd1722270c1aa5394feec1a4eb2bb6e", "fusion_lon": 0.0}, {"rental_uris": {"ios": "https://dc.lft.to/lastmile_qr_scan", "android": "https://dc.lft.to/lastmile_qr_scan"}, "type": "electric_scooter", "name": "c494564f35eb7c3f34f831aeeaaaafbc", "is_reserved": 0, "lon": -77.0058715, "is_disabled": 0, "fusion_lat": 0.0, "lat": 38.87688883333333, "bike_id": "c494564f35eb7c3f34f831aeeaaaafbc", "fusion_lon": 0.0}, {"rental_uris": {"ios": "https://dc.lft.to/lastmile_qr_scan", "android": "https://dc.lft.to/lastmile_qr_scan"}, "type": "electric_scooter", "name": "1d3d49c60cb38c4cf589de8c2ac59ae7", "is_reserved": 0, "lon": -76.98651533333333, "is_disabled": 0, "fusion_lat": 0.0, "lat": 38.905413, "bike_id": "1d3d49c60cb38c4cf589de8c2ac59ae7", "fusion_lon": 0.0}, {"rental_uris": {"ios": "https://dc.lft.to/lastmile_qr_scan", "android": "https://dc.lft.to/lastmile_qr_scan"}, "type": "electric_scooter", "name": "4db76bd105c35a467b793fafaa9734a0", "is_reserved": 0, "lon": -77.02571616666667, "is_disabled": 0, "fusion_lat": 0.0, "lat": 38.948504666666665, "bike_id": "4db76bd105c35a467b793fafaa9734a0", "fusion_lon": 0.0}, {"rental_uris": {"ios": "https://dc.lft.to/lastmile_qr_scan", "android": "https://dc.lft.to/lastmile_qr_scan"}, "type": "electric_scooter", "name": "6db30ebdfcca5b41963240a18334c434", "is_reserved": 0, "lon": -77.021191, "is_disabled": 0, "fusion_lat": 0.0, "lat": 38.915569, "bike_id": "6db30ebdfcca5b41963240a18334c434", "fusion_lon": 0.0}, {"rental_uris": {"ios": "https://dc.lft.to/lastmile_qr_scan", "android": "https://dc.lft.to/lastmile_qr_scan"}, "type": "electric_scooter", "name": "8764eeaaefb5c7d695b5e9d3017c9620", "is_reserved": 0, "lon": -77.042295, "is_disabled": 0, "fusion_lat": 0.0, "lat": 38.92186216666666, "bike_id": "8764eeaaefb5c7d695b5e9d3017c9620", "fusion_lon": 0.0}, {"rental_uris": {"ios": "https://dc.lft.to/lastmile_qr_scan", "android": "https://dc.lft.to/lastmile_qr_scan"}, "type": "electric_scooter", "name": "b6ec40e5a4ea292aa3775749194a1de3", "is_reserved": 0, "lon": -77.0221545, "is_disabled": 0, "fusion_lat": 0.0, "lat": 38.9141745, "bike_id": "b6ec40e5a4ea292aa3775749194a1de3", "fusion_lon": 0.0}, {"rental_uris": {"ios": "https://dc.lft.to/lastmile_qr_scan", "android": "https://dc.lft.to/lastmile_qr_scan"}, "type": "electric_scooter", "name": "f2783f6d165393cdd57b2162468740a0", "is_reserved": 0, "lon": -76.988922, "is_disabled": 0, "fusion_lat": 0.0, "lat": 38.899547166666665, "bike_id": "f2783f6d165393cdd57b2162468740a0", "fusion_lon": 0.0}, {"rental_uris": {"ios": "https://dc.lft.to/lastmile_qr_scan", "android": "https://dc.lft.to/lastmile_qr_scan"}, "type": "electric_scooter", "name": "1ce9a76fd9ede12ebe2beaae08e7b2e2", "is_reserved": 0, "lon": -77.04158, "is_disabled": 0, "fusion_lat": 0.0, "lat": 38.901437666666666, "bike_id": "1ce9a76fd9ede12ebe2beaae08e7b2e2", "fusion_lon": 0.0}, {"rental_uris": {"ios": "https://dc.lft.to/lastmile_qr_scan", "android": "https://dc.lft.to/lastmile_qr_scan"}, "type": "electric_scooter", "name": "b2acf7add1b0b76d1688e8388bf4692f", "is_reserved": 0, "lon": -77.03116966666667, "is_disabled": 0, "fusion_lat": 0.0, "lat": 38.91861733333333, "bike_id": "b2acf7add1b0b76d1688e8388bf4692f", "fusion_lon": 0.0}, {"rental_uris": {"ios": "https://dc.lft.to/lastmile_qr_scan", "android": "https://dc.lft.to/lastmile_qr_scan"}, "type": "electric_scooter", "name": "dba639d2c485855c1b7d700d8b24d6fe", "is_reserved": 0, "lon": -76.99103816666667, "is_disabled": 0, "fusion_lat": 0.0, "lat": 38.857340666666666, "bike_id": "dba639d2c485855c1b7d700d8b24d6fe", "fusion_lon": 0.0}, {"rental_uris": {"ios": "https://dc.lft.to/lastmile_qr_scan", "android": "https://dc.lft.to/lastmile_qr_scan"}, "type": "electric_scooter", "name": "c39610d415415da5ac9aa4f9be3d3aea", "is_reserved": 0, "lon": -77.0155005, "is_disabled": 0, "fusion_lat": 0.0, "lat": 38.9026255, "bike_id": "c39610d415415da5ac9aa4f9be3d3aea", "fusion_lon": 0.0}, {"rental_uris": {"ios": "https://dc.lft.to/lastmile_qr_scan", "android": "https://dc.lft.to/lastmile_qr_scan"}, "type": "electric_scooter", "name": "0a20467030075fcf80437bebcff6abfd", "is_reserved": 0, "lon": -77.04338266666667, "is_disabled": 0, "fusion_lat": 0.0, "lat": 38.90335266666666, "bike_id": "0a20467030075fcf80437bebcff6abfd", "fusion_lon": 0.0}, {"rental_uris": {"ios": "https://dc.lft.to/lastmile_qr_scan", "android": "https://dc.lft.to/lastmile_qr_scan"}, "type": "electric_scooter", "name": "5eb883df36048ec8f54d70046dddbfc9", "is_reserved": 0, "lon": -76.94381216666666, "is_disabled": 0, "fusion_lat": 0.0, "lat": 38.891169833333336, "bike_id": "5eb883df36048ec8f54d70046dddbfc9", "fusion_lon": 0.0}, {"rental_uris": {"ios": "https://dc.lft.to/lastmile_qr_scan", "android": "https://dc.lft.to/lastmile_qr_scan"}, "type": "electric_scooter", "name": "40157adc369660dde4470128f7b4f90c", "is_reserved": 0, "lon": -77.0385495, "is_disabled": 0, "fusion_lat": 0.0, "lat": 38.910966333333334, "bike_id": "40157adc369660dde4470128f7b4f90c", "fusion_lon": 0.0}, {"rental_uris": {"ios": "https://dc.lft.to/lastmile_qr_scan", "android": "https://dc.lft.to/lastmile_qr_scan"}, "type": "electric_scooter", "name": "3dec403d3675c21d26a83039f5f48ce5", "is_reserved": 0, "lon": -76.952594, "is_disabled": 0, "fusion_lat": 0.0, "lat": 38.89273683333333, "bike_id": "3dec403d3675c21d26a83039f5f48ce5", "fusion_lon": 0.0}, {"rental_uris": {"ios": "https://dc.lft.to/lastmile_qr_scan", "android": "https://dc.lft.to/lastmile_qr_scan"}, "type": "electric_scooter", "name": "9a1023319adaffa8692473f71ce9bd5f", "is_reserved": 0, "lon": -77.02840066666667, "is_disabled": 0, "fusion_lat": 0.0, "lat": 38.89371883333333, "bike_id": "9a1023319adaffa8692473f71ce9bd5f", "fusion_lon": 0.0}, {"rental_uris": {"ios": "https://dc.lft.to/lastmile_qr_scan", "android": "https://dc.lft.to/lastmile_qr_scan"}, "type": "electric_scooter", "name": "c2b04c165b368159b3943edea61649bd", "is_reserved": 0, "lon": -77.065119, "is_disabled": 0, "fusion_lat": 0.0, "lat": 38.90515633333333, "bike_id": "c2b04c165b368159b3943edea61649bd", "fusion_lon": 0.0}, {"rental_uris": {"ios": "https://dc.lft.to/lastmile_qr_scan", "android": "https://dc.lft.to/lastmile_qr_scan"}, "type": "electric_scooter", "name": "10d18672b632fd0e6ff09a519effadd4", "is_reserved": 0, "lon": -77.04404116666667, "is_disabled": 0, "fusion_lat": 0.0, "lat": 38.929535666666666, "bike_id": "10d18672b632fd0e6ff09a519effadd4", "fusion_lon": 0.0}, {"rental_uris": {"ios": "https://dc.lft.to/lastmile_qr_scan", "android": "https://dc.lft.to/lastmile_qr_scan"}, "type": "electric_scooter", "name": "d20758e76cfe6f319ff42d1d975be5b4", "is_reserved": 0, "lon": -77.03662016666667, "is_disabled": 0, "fusion_lat": 0.0, "lat": 38.92289316666667, "bike_id": "d20758e76cfe6f319ff42d1d975be5b4", "fusion_lon": 0.0}, {"rental_uris": {"ios": "https://dc.lft.to/lastmile_qr_scan", "android": "https://dc.lft.to/lastmile_qr_scan"}, "type": "electric_bike", "name": "a99192fdac4e5e00b0bb382fdc9693ce", "is_reserved": 0, "lon": -77.0701395, "is_disabled": 0, "fusion_lat": 0.0, "lat": 38.841136, "bike_id": "a99192fdac4e5e00b0bb382fdc9693ce", "fusion_lon": 0.0}, {"rental_uris": {"ios": "https://dc.lft.to/lastmile_qr_scan", "android": "https://dc.lft.to/lastmile_qr_scan"}, "type": "electric_scooter", "name": "9cec81fe3df65582d4b379139fbf66dc", "is_reserved": 0, "lon": -77.039614, "is_disabled": 0, "fusion_lat": 0.0, "lat": 38.902745, "bike_id": "9cec81fe3df65582d4b379139fbf66dc", "fusion_lon": 0.0}, {"rental_uris": {"ios": "https://dc.lft.to/lastmile_qr_scan", "android": "https://dc.lft.to/lastmile_qr_scan"}, "type": "electric_scooter", "name": "f0cab561317a583205791c8de4ca9108", "is_reserved": 0, "lon": -77.05226216666667, "is_disabled": 0, "fusion_lat": 0.0, "lat": 38.903288833333335, "bike_id": "f0cab561317a583205791c8de4ca9108", "fusion_lon": 0.0}, {"rental_uris": {"ios": "https://dc.lft.to/lastmile_qr_scan", "android": "https://dc.lft.to/lastmile_qr_scan"}, "type": "electric_scooter", "name": "4adf392c444933776e1103dd384b0635", "is_reserved": 0, "lon": -77.02251716666666, "is_disabled": 0, "fusion_lat": 0.0, "lat": 38.91275266666667, "bike_id": "4adf392c444933776e1103dd384b0635", "fusion_lon": 0.0}, {"rental_uris": {"ios": "https://dc.lft.to/lastmile_qr_scan", "android": "https://dc.lft.to/lastmile_qr_scan"}, "type": "electric_scooter", "name": "19d7020a5235dc8b6c12940abaa79450", "is_reserved": 0, "lon": -77.07213966666667, "is_disabled": 0, "fusion_lat": 0.0, "lat": 38.906893, "bike_id": "19d7020a5235dc8b6c12940abaa79450", "fusion_lon": 0.0}, {"rental_uris": {"ios": "https://dc.lft.to/lastmile_qr_scan", "android": "https://dc.lft.to/lastmile_qr_scan"}, "type": "electric_scooter", "name": "4f90609c1d4d0037fbc5715fd64e6191", "is_reserved": 0, "lon": -77.04553533333333, "is_disabled": 0, "fusion_lat": 0.0, "lat": 38.89730516666667, "bike_id": "4f90609c1d4d0037fbc5715fd64e6191", "fusion_lon": 0.0}, {"rental_uris": {"ios": "https://dc.lft.to/lastmile_qr_scan", "android": "https://dc.lft.to/lastmile_qr_scan"}, "type": "electric_scooter", "name": "2b47fb2e07e4c78c5acbd6fd847dc951", "is_reserved": 0, "lon": -77.012634, "is_disabled": 0, "fusion_lat": 0.0, "lat": 38.897181833333335, "bike_id": "2b47fb2e07e4c78c5acbd6fd847dc951", "fusion_lon": 0.0}, {"rental_uris": {"ios": "https://dc.lft.to/lastmile_qr_scan", "android": "https://dc.lft.to/lastmile_qr_scan"}, "type": "electric_scooter", "name": "73abcdd5d02c7446ff851acb24abf998", "is_reserved": 0, "lon": -76.98663716666667, "is_disabled": 0, "fusion_lat": 0.0, "lat": 38.906194666666664, "bike_id": "73abcdd5d02c7446ff851acb24abf998", "fusion_lon": 0.0}, {"rental_uris": {"ios": "https://dc.lft.to/lastmile_qr_scan", "android": "https://dc.lft.to/lastmile_qr_scan"}, "type": "electric_scooter", "name": "5973cc319daa7539adb7fb6345fe7229", "is_reserved": 0, "lon": -77.02169283333333, "is_disabled": 0, "fusion_lat": 0.0, "lat": 38.8872805, "bike_id": "5973cc319daa7539adb7fb6345fe7229", "fusion_lon": 0.0}, {"rental_uris": {"ios": "https://dc.lft.to/lastmile_qr_scan", "android": "https://dc.lft.to/lastmile_qr_scan"}, "type": "electric_scooter", "name": "599924910ab7aa10e8f17e09a4bb71e8", "is_reserved": 0, "lon": -77.032397, "is_disabled": 0, "fusion_lat": 0.0, "lat": 38.91566666666667, "bike_id": "599924910ab7aa10e8f17e09a4bb71e8", "fusion_lon": 0.0}, {"rental_uris": {"ios": "https://dc.lft.to/lastmile_qr_scan", "android": "https://dc.lft.to/lastmile_qr_scan"}, "type": "electric_scooter", "name": "d2eb5ccd5a57a37a5e39fbbd099121dd", "is_reserved": 0, "lon": -77.028047, "is_disabled": 0, "fusion_lat": 0.0, "lat": 38.93052183333333, "bike_id": "d2eb5ccd5a57a37a5e39fbbd099121dd", "fusion_lon": 0.0}, {"rental_uris": {"ios": "https://dc.lft.to/lastmile_qr_scan", "android": "https://dc.lft.to/lastmile_qr_scan"}, "type": "electric_scooter", "name": "36644f71808a624cdac9aee27e796378", "is_reserved": 0, "lon": -77.0419355, "is_disabled": 0, "fusion_lat": 0.0, "lat": 38.9038775, "bike_id": "36644f71808a624cdac9aee27e796378", "fusion_lon": 0.0}, {"rental_uris": {"ios": "https://dc.lft.to/lastmile_qr_scan", "android": "https://dc.lft.to/lastmile_qr_scan"}, "type": "electric_scooter", "name": "8f80f2147606af07c9f4ae55e199ae51", "is_reserved": 0, "lon": -77.03189783333333, "is_disabled": 0, "fusion_lat": 0.0, "lat": 38.916421166666666, "bike_id": "8f80f2147606af07c9f4ae55e199ae51", "fusion_lon": 0.0}, {"rental_uris": {"ios": "https://dc.lft.to/lastmile_qr_scan", "android": "https://dc.lft.to/lastmile_qr_scan"}, "type": "electric_scooter", "name": "fd9f4eaded7b741fbeced791b8726b5b", "is_reserved": 0, "lon": -77.0322395, "is_disabled": 0, "fusion_lat": 0.0, "lat": 38.91994916666667, "bike_id": "fd9f4eaded7b741fbeced791b8726b5b", "fusion_lon": 0.0}, {"rental_uris": {"ios": "https://dc.lft.to/lastmile_qr_scan", "android": "https://dc.lft.to/lastmile_qr_scan"}, "type": "electric_scooter", "name": "2d43862a72ba599b39e1e525c8f29d7b", "is_reserved": 0, "lon": -77.01435883333333, "is_disabled": 0, "fusion_lat": 0.0, "lat": 38.887482166666665, "bike_id": "2d43862a72ba599b39e1e525c8f29d7b", "fusion_lon": 0.0}, {"rental_uris": {"ios": "https://dc.lft.to/lastmile_qr_scan", "android": "https://dc.lft.to/lastmile_qr_scan"}, "type": "electric_scooter", "name": "faa7a0b8543eea71d6a4b1f499ee3404", "is_reserved": 0, "lon": -77.038343, "is_disabled": 0, "fusion_lat": 0.0, "lat": 38.90838983333333, "bike_id": "faa7a0b8543eea71d6a4b1f499ee3404", "fusion_lon": 0.0}, {"rental_uris": {"ios": "https://dc.lft.to/lastmile_qr_scan", "android": "https://dc.lft.to/lastmile_qr_scan"}, "type": "electric_scooter", "name": "7c899bed34e5a942f125219fe54af5d6", "is_reserved": 0, "lon": -77.06652516666666, "is_disabled": 0, "fusion_lat": 0.0, "lat": 38.9373325, "bike_id": "7c899bed34e5a942f125219fe54af5d6", "fusion_lon": 0.0}, {"rental_uris": {"ios": "https://dc.lft.to/lastmile_qr_scan", "android": "https://dc.lft.to/lastmile_qr_scan"}, "type": "electric_scooter", "name": "4ec5904d73a1b57d2f519bd292e242cf", "is_reserved": 0, "lon": -77.02221633333333, "is_disabled": 0, "fusion_lat": 0.0, "lat": 38.899913, "bike_id": "4ec5904d73a1b57d2f519bd292e242cf", "fusion_lon": 0.0}, {"rental_uris": {"ios": "https://dc.lft.to/lastmile_qr_scan", "android": "https://dc.lft.to/lastmile_qr_scan"}, "type": "electric_scooter", "name": "a0c808b7d4117c0b62b4d6ed78d70a0f", "is_reserved": 0, "lon": -77.02812866666666, "is_disabled": 0, "fusion_lat": 0.0, "lat": 38.892327, "bike_id": "a0c808b7d4117c0b62b4d6ed78d70a0f", "fusion_lon": 0.0}, {"rental_uris": {"ios": "https://dc.lft.to/lastmile_qr_scan", "android": "https://dc.lft.to/lastmile_qr_scan"}, "type": "electric_scooter", "name": "b2ccb9c892d5303bf60dab4c62923690", "is_reserved": 0, "lon": -77.0068635, "is_disabled": 0, "fusion_lat": 0.0, "lat": 38.884292333333335, "bike_id": "b2ccb9c892d5303bf60dab4c62923690", "fusion_lon": 0.0}, {"rental_uris": {"ios": "https://dc.lft.to/lastmile_qr_scan", "android": "https://dc.lft.to/lastmile_qr_scan"}, "type": "electric_scooter", "name": "76f190c63968af273a6040d76fd48f93", "is_reserved": 0, "lon": -77.03268983333334, "is_disabled": 0, "fusion_lat": 0.0, "lat": 38.910375, "bike_id": "76f190c63968af273a6040d76fd48f93", "fusion_lon": 0.0}, {"rental_uris": {"ios": "https://dc.lft.to/lastmile_qr_scan", "android": "https://dc.lft.to/lastmile_qr_scan"}, "type": "electric_scooter", "name": "080ae544e83972d4f4d8491a40fc4894", "is_reserved": 0, "lon": -77.09549116666666, "is_disabled": 0, "fusion_lat": 0.0, "lat": 38.887311, "bike_id": "080ae544e83972d4f4d8491a40fc4894", "fusion_lon": 0.0}, {"rental_uris": {"ios": "https://dc.lft.to/lastmile_qr_scan", "android": "https://dc.lft.to/lastmile_qr_scan"}, "type": "electric_scooter", "name": "e77f2968261658ded0aec38d49e4b1fb", "is_reserved": 0, "lon": -77.0122715, "is_disabled": 0, "fusion_lat": 0.0, "lat": 38.86721083333333, "bike_id": "e77f2968261658ded0aec38d49e4b1fb", "fusion_lon": 0.0}, {"rental_uris": {"ios": "https://dc.lft.to/lastmile_qr_scan", "android": "https://dc.lft.to/lastmile_qr_scan"}, "type": "electric_scooter", "name": "96a9a8fb3ac2cbceef49e1e005bd97c3", "is_reserved": 0, "lon": -76.9923665, "is_disabled": 0, "fusion_lat": 0.0, "lat": 38.887523333333334, "bike_id": "96a9a8fb3ac2cbceef49e1e005bd97c3", "fusion_lon": 0.0}, {"rental_uris": {"ios": "https://dc.lft.to/lastmile_qr_scan", "android": "https://dc.lft.to/lastmile_qr_scan"}, "type": "electric_scooter", "name": "c7ca8283c0f38c9ae071ba90efa2e040", "is_reserved": 0, "lon": -77.04009033333334, "is_disabled": 0, "fusion_lat": 0.0, "lat": 38.904215, "bike_id": "c7ca8283c0f38c9ae071ba90efa2e040", "fusion_lon": 0.0}, {"rental_uris": {"ios": "https://dc.lft.to/lastmile_qr_scan", "android": "https://dc.lft.to/lastmile_qr_scan"}, "type": "electric_scooter", "name": "6a63d14c3b3a5322071064dc2e8fd724", "is_reserved": 0, "lon": -76.99913766666667, "is_disabled": 0, "fusion_lat": 0.0, "lat": 38.924588166666666, "bike_id": "6a63d14c3b3a5322071064dc2e8fd724", "fusion_lon": 0.0}, {"rental_uris": {"ios": "https://dc.lft.to/lastmile_qr_scan", "android": "https://dc.lft.to/lastmile_qr_scan"}, "type": "electric_scooter", "name": "42b7db213d8ffa42fc2db2e46f2c19c1", "is_reserved": 0, "lon": -77.00834516666667, "is_disabled": 0, "fusion_lat": 0.0, "lat": 38.9137315, "bike_id": "42b7db213d8ffa42fc2db2e46f2c19c1", "fusion_lon": 0.0}, {"rental_uris": {"ios": "https://dc.lft.to/lastmile_qr_scan", "android": "https://dc.lft.to/lastmile_qr_scan"}, "type": "electric_scooter", "name": "7e104a1bc9eb27565d1cee30683d28b1", "is_reserved": 0, "lon": -77.04591216666667, "is_disabled": 0, "fusion_lat": 0.0, "lat": 38.91723966666667, "bike_id": "7e104a1bc9eb27565d1cee30683d28b1", "fusion_lon": 0.0}, {"rental_uris": {"ios": "https://dc.lft.to/lastmile_qr_scan", "android": "https://dc.lft.to/lastmile_qr_scan"}, "type": "electric_scooter", "name": "5e304a24630688065719769a537fd94b", "is_reserved": 0, "lon": -77.02421333333334, "is_disabled": 0, "fusion_lat": 0.0, "lat": 38.919346166666664, "bike_id": "5e304a24630688065719769a537fd94b", "fusion_lon": 0.0}, {"rental_uris": {"ios": "https://dc.lft.to/lastmile_qr_scan", "android": "https://dc.lft.to/lastmile_qr_scan"}, "type": "electric_bike", "name": "d309a421fb21cd880c4dfe159dc4d45c", "is_reserved": 0, "lon": -76.90734916666666, "is_disabled": 0, "fusion_lat": 0.0, "lat": 38.896173, "bike_id": "d309a421fb21cd880c4dfe159dc4d45c", "fusion_lon": 0.0}, {"rental_uris": {"ios": "https://dc.lft.to/lastmile_qr_scan", "android": "https://dc.lft.to/lastmile_qr_scan"}, "type": "electric_scooter", "name": "265dd4ba6a3992d140f2e7ead17209da", "is_reserved": 0, "lon": -77.03661066666666, "is_disabled": 0, "fusion_lat": 0.0, "lat": 38.92356266666667, "bike_id": "265dd4ba6a3992d140f2e7ead17209da", "fusion_lon": 0.0}, {"rental_uris": {"ios": "https://dc.lft.to/lastmile_qr_scan", "android": "https://dc.lft.to/lastmile_qr_scan"}, "type": "electric_scooter", "name": "929f152c635f514d301746551b3c8da2", "is_reserved": 0, "lon": -77.03433233333334, "is_disabled": 0, "fusion_lat": 0.0, "lat": 38.900891666666666, "bike_id": "929f152c635f514d301746551b3c8da2", "fusion_lon": 0.0}, {"rental_uris": {"ios": "https://dc.lft.to/lastmile_qr_scan", "android": "https://dc.lft.to/lastmile_qr_scan"}, "type": "electric_scooter", "name": "e9f150b6ed570ed3687bba3ec82fc9ba", "is_reserved": 0, "lon": -76.997344, "is_disabled": 0, "fusion_lat": 0.0, "lat": 38.904365, "bike_id": "e9f150b6ed570ed3687bba3ec82fc9ba", "fusion_lon": 0.0}, {"rental_uris": {"ios": "https://dc.lft.to/lastmile_qr_scan", "android": "https://dc.lft.to/lastmile_qr_scan"}, "type": "electric_scooter", "name": "241b1328149608a63d05a6fa60b1b188", "is_reserved": 0, "lon": -77.04762883333333, "is_disabled": 0, "fusion_lat": 0.0, "lat": 38.941055166666665, "bike_id": "241b1328149608a63d05a6fa60b1b188", "fusion_lon": 0.0}, {"rental_uris": {"ios": "https://dc.lft.to/lastmile_qr_scan", "android": "https://dc.lft.to/lastmile_qr_scan"}, "type": "electric_scooter", "name": "eda825285dcc4519da8ca5dc3dd44dec", "is_reserved": 0, "lon": -77.05623933333334, "is_disabled": 0, "fusion_lat": 0.0, "lat": 38.906853166666664, "bike_id": "eda825285dcc4519da8ca5dc3dd44dec", "fusion_lon": 0.0}, {"rental_uris": {"ios": "https://dc.lft.to/lastmile_qr_scan", "android": "https://dc.lft.to/lastmile_qr_scan"}, "type": "electric_scooter", "name": "d0fe5b1fb5ac4a72d88fe0a037d954af", "is_reserved": 0, "lon": -76.93431, "is_disabled": 0, "fusion_lat": 0.0, "lat": 38.893480333333336, "bike_id": "d0fe5b1fb5ac4a72d88fe0a037d954af", "fusion_lon": 0.0}, {"rental_uris": {"ios": "https://dc.lft.to/lastmile_qr_scan", "android": "https://dc.lft.to/lastmile_qr_scan"}, "type": "electric_scooter", "name": "ab5fc5adf74413a2a7aac6d66dac4644", "is_reserved": 0, "lon": -77.068521, "is_disabled": 0, "fusion_lat": 0.0, "lat": 38.90413133333333, "bike_id": "ab5fc5adf74413a2a7aac6d66dac4644", "fusion_lon": 0.0}, {"rental_uris": {"ios": "https://dc.lft.to/lastmile_qr_scan", "android": "https://dc.lft.to/lastmile_qr_scan"}, "type": "electric_scooter", "name": "d0f039cd1268e19f82d04b908520195f", "is_reserved": 0, "lon": -77.02835816666666, "is_disabled": 0, "fusion_lat": 0.0, "lat": 38.910234333333335, "bike_id": "d0f039cd1268e19f82d04b908520195f", "fusion_lon": 0.0}, {"rental_uris": {"ios": "https://dc.lft.to/lastmile_qr_scan", "android": "https://dc.lft.to/lastmile_qr_scan"}, "type": "electric_scooter", "name": "73347d4d5814c91e2d00a232a5e40d90", "is_reserved": 0, "lon": -77.03374716666667, "is_disabled": 0, "fusion_lat": 0.0, "lat": 38.89914566666667, "bike_id": "73347d4d5814c91e2d00a232a5e40d90", "fusion_lon": 0.0}, {"rental_uris": {"ios": "https://dc.lft.to/lastmile_qr_scan", "android": "https://dc.lft.to/lastmile_qr_scan"}, "type": "electric_bike", "name": "07cce41f9eb72b385e4d683266b3d193", "is_reserved": 0, "lon": -77.08956116666667, "is_disabled": 0, "fusion_lat": 0.0, "lat": 38.849779166666664, "bike_id": "07cce41f9eb72b385e4d683266b3d193", "fusion_lon": 0.0}, {"rental_uris": {"ios": "https://dc.lft.to/lastmile_qr_scan", "android": "https://dc.lft.to/lastmile_qr_scan"}, "type": "electric_bike", "name": "eb431b469f3f02104a1bdd33c2d09bda", "is_reserved": 0, "lon": -77.01221733333334, "is_disabled": 0, "fusion_lat": 0.0, "lat": 38.95075816666667, "bike_id": "eb431b469f3f02104a1bdd33c2d09bda", "fusion_lon": 0.0}, {"rental_uris": {"ios": "https://dc.lft.to/lastmile_qr_scan", "android": "https://dc.lft.to/lastmile_qr_scan"}, "type": "electric_scooter", "name": "d4e72033b25f2e2de6ab349951f4b189", "is_reserved": 0, "lon": -77.0237975, "is_disabled": 0, "fusion_lat": 0.0, "lat": 38.920511833333336, "bike_id": "d4e72033b25f2e2de6ab349951f4b189", "fusion_lon": 0.0}, {"rental_uris": {"ios": "https://dc.lft.to/lastmile_qr_scan", "android": "https://dc.lft.to/lastmile_qr_scan"}, "type": "electric_scooter", "name": "2cc47e4a665d35f29a93b2e7b28581f3", "is_reserved": 0, "lon": -77.01762316666667, "is_disabled": 0, "fusion_lat": 0.0, "lat": 38.8769305, "bike_id": "2cc47e4a665d35f29a93b2e7b28581f3", "fusion_lon": 0.0}, {"rental_uris": {"ios": "https://dc.lft.to/lastmile_qr_scan", "android": "https://dc.lft.to/lastmile_qr_scan"}, "type": "electric_scooter", "name": "5728c48ecac0bfc2ea6b9a84fbb4cc9a", "is_reserved": 0, "lon": -77.0279435, "is_disabled": 0, "fusion_lat": 0.0, "lat": 38.901412, "bike_id": "5728c48ecac0bfc2ea6b9a84fbb4cc9a", "fusion_lon": 0.0}, {"rental_uris": {"ios": "https://dc.lft.to/lastmile_qr_scan", "android": "https://dc.lft.to/lastmile_qr_scan"}, "type": "electric_scooter", "name": "f91b7fca3830ee8a79a837c4add6a7eb", "is_reserved": 0, "lon": -77.0241325, "is_disabled": 0, "fusion_lat": 0.0, "lat": 38.91809166666667, "bike_id": "f91b7fca3830ee8a79a837c4add6a7eb", "fusion_lon": 0.0}, {"rental_uris": {"ios": "https://dc.lft.to/lastmile_qr_scan", "android": "https://dc.lft.to/lastmile_qr_scan"}, "type": "electric_bike", "name": "7ac212fcfeb45d9bf38dc469868d1568", "is_reserved": 0, "lon": -76.996794, "is_disabled": 0, "fusion_lat": 0.0, "lat": 38.8381735, "bike_id": "7ac212fcfeb45d9bf38dc469868d1568", "fusion_lon": 0.0}, {"rental_uris": {"ios": "https://dc.lft.to/lastmile_qr_scan", "android": "https://dc.lft.to/lastmile_qr_scan"}, "type": "electric_scooter", "name": "33abc2e33351b330c5df8cd4f6cbd2a2", "is_reserved": 0, "lon": -77.03415083333333, "is_disabled": 0, "fusion_lat": 0.0, "lat": 38.91924383333333, "bike_id": "33abc2e33351b330c5df8cd4f6cbd2a2", "fusion_lon": 0.0}, {"rental_uris": {"ios": "https://dc.lft.to/lastmile_qr_scan", "android": "https://dc.lft.to/lastmile_qr_scan"}, "type": "electric_scooter", "name": "57f6de14e7025042c122a69596bbcc4f", "is_reserved": 0, "lon": -77.02293666666667, "is_disabled": 0, "fusion_lat": 0.0, "lat": 38.91656366666667, "bike_id": "57f6de14e7025042c122a69596bbcc4f", "fusion_lon": 0.0}, {"rental_uris": {"ios": "https://dc.lft.to/lastmile_qr_scan", "android": "https://dc.lft.to/lastmile_qr_scan"}, "type": "electric_scooter", "name": "0c03c919b757eecb15785545c332b360", "is_reserved": 0, "lon": -77.02945183333334, "is_disabled": 0, "fusion_lat": 0.0, "lat": 38.916961666666666, "bike_id": "0c03c919b757eecb15785545c332b360", "fusion_lon": 0.0}, {"rental_uris": {"ios": "https://dc.lft.to/lastmile_qr_scan", "android": "https://dc.lft.to/lastmile_qr_scan"}, "type": "electric_scooter", "name": "496b1954a1810ded12b1b1c963cef45f", "is_reserved": 0, "lon": -77.06399316666666, "is_disabled": 0, "fusion_lat": 0.0, "lat": 38.908624833333334, "bike_id": "496b1954a1810ded12b1b1c963cef45f", "fusion_lon": 0.0}, {"rental_uris": {"ios": "https://dc.lft.to/lastmile_qr_scan", "android": "https://dc.lft.to/lastmile_qr_scan"}, "type": "electric_scooter", "name": "357a964b5a943ec7f9496c84a3168bed", "is_reserved": 0, "lon": -76.9914875, "is_disabled": 0, "fusion_lat": 0.0, "lat": 38.873401666666666, "bike_id": "357a964b5a943ec7f9496c84a3168bed", "fusion_lon": 0.0}, {"rental_uris": {"ios": "https://dc.lft.to/lastmile_qr_scan", "android": "https://dc.lft.to/lastmile_qr_scan"}, "type": "electric_scooter", "name": "d0494bdb42c89477e098ee7002d54a6f", "is_reserved": 0, "lon": -76.98542516666667, "is_disabled": 0, "fusion_lat": 0.0, "lat": 38.879713333333335, "bike_id": "d0494bdb42c89477e098ee7002d54a6f", "fusion_lon": 0.0}, {"rental_uris": {"ios": "https://dc.lft.to/lastmile_qr_scan", "android": "https://dc.lft.to/lastmile_qr_scan"}, "type": "electric_scooter", "name": "35becd10fa02fc44a51d96fa808e8d3b", "is_reserved": 0, "lon": -77.03247716666667, "is_disabled": 0, "fusion_lat": 0.0, "lat": 38.90854483333333, "bike_id": "35becd10fa02fc44a51d96fa808e8d3b", "fusion_lon": 0.0}, {"rental_uris": {"ios": "https://dc.lft.to/lastmile_qr_scan", "android": "https://dc.lft.to/lastmile_qr_scan"}, "type": "electric_scooter", "name": "6d7552dd964e02c0a699d1c69bdea5ef", "is_reserved": 0, "lon": -77.04235333333334, "is_disabled": 0, "fusion_lat": 0.0, "lat": 38.922769333333335, "bike_id": "6d7552dd964e02c0a699d1c69bdea5ef", "fusion_lon": 0.0}, {"rental_uris": {"ios": "https://dc.lft.to/lastmile_qr_scan", "android": "https://dc.lft.to/lastmile_qr_scan"}, "type": "electric_bike", "name": "e1d889c116eccd369a45619ed93b15b2", "is_reserved": 0, "lon": -77.128918, "is_disabled": 0, "fusion_lat": 0.0, "lat": 38.9061055, "bike_id": "e1d889c116eccd369a45619ed93b15b2", "fusion_lon": 0.0}, {"rental_uris": {"ios": "https://dc.lft.to/lastmile_qr_scan", "android": "https://dc.lft.to/lastmile_qr_scan"}, "type": "electric_scooter", "name": "2b5c59522c14dfd7ca969221017e53f7", "is_reserved": 0, "lon": -77.0672805, "is_disabled": 0, "fusion_lat": 0.0, "lat": 38.91460933333333, "bike_id": "2b5c59522c14dfd7ca969221017e53f7", "fusion_lon": 0.0}, {"rental_uris": {"ios": "https://dc.lft.to/lastmile_qr_scan", "android": "https://dc.lft.to/lastmile_qr_scan"}, "type": "electric_bike", "name": "3949c0acb8da904bdc3d0ea40929f730", "is_reserved": 0, "lon": -76.9688775, "is_disabled": 0, "fusion_lat": 0.0, "lat": 38.86985116666666, "bike_id": "3949c0acb8da904bdc3d0ea40929f730", "fusion_lon": 0.0}, {"rental_uris": {"ios": "https://dc.lft.to/lastmile_qr_scan", "android": "https://dc.lft.to/lastmile_qr_scan"}, "type": "electric_scooter", "name": "532a112ba1292b39e9c1401c7f488d76", "is_reserved": 0, "lon": -77.05317733333334, "is_disabled": 0, "fusion_lat": 0.0, "lat": 38.94099583333333, "bike_id": "532a112ba1292b39e9c1401c7f488d76", "fusion_lon": 0.0}, {"rental_uris": {"ios": "https://dc.lft.to/lastmile_qr_scan", "android": "https://dc.lft.to/lastmile_qr_scan"}, "type": "electric_scooter", "name": "161cf08caea61a2f1ac779d1e714f23e", "is_reserved": 0, "lon": -77.01891633333334, "is_disabled": 0, "fusion_lat": 0.0, "lat": 38.8748015, "bike_id": "161cf08caea61a2f1ac779d1e714f23e", "fusion_lon": 0.0}, {"rental_uris": {"ios": "https://dc.lft.to/lastmile_qr_scan", "android": "https://dc.lft.to/lastmile_qr_scan"}, "type": "electric_scooter", "name": "ed8293a2a74783a7b2f4903cfa37a73d", "is_reserved": 0, "lon": -77.04008683333333, "is_disabled": 0, "fusion_lat": 0.0, "lat": 38.93430866666667, "bike_id": "ed8293a2a74783a7b2f4903cfa37a73d", "fusion_lon": 0.0}, {"rental_uris": {"ios": "https://dc.lft.to/lastmile_qr_scan", "android": "https://dc.lft.to/lastmile_qr_scan"}, "type": "electric_scooter", "name": "1f536c0dd096bc85d6cf30ba10a3cb9f", "is_reserved": 0, "lon": -77.02837833333334, "is_disabled": 0, "fusion_lat": 0.0, "lat": 38.88736, "bike_id": "1f536c0dd096bc85d6cf30ba10a3cb9f", "fusion_lon": 0.0}, {"rental_uris": {"ios": "https://dc.lft.to/lastmile_qr_scan", "android": "https://dc.lft.to/lastmile_qr_scan"}, "type": "electric_scooter", "name": "54ec708d24eeb7b5b8df8935ddf99f29", "is_reserved": 0, "lon": -77.04652333333334, "is_disabled": 0, "fusion_lat": 0.0, "lat": 38.9001535, "bike_id": "54ec708d24eeb7b5b8df8935ddf99f29", "fusion_lon": 0.0}, {"rental_uris": {"ios": "https://dc.lft.to/lastmile_qr_scan", "android": "https://dc.lft.to/lastmile_qr_scan"}, "type": "electric_scooter", "name": "37b092a43908c21b9b264d0a66cfa3b5", "is_reserved": 0, "lon": -77.04474583333334, "is_disabled": 0, "fusion_lat": 0.0, "lat": 38.900552833333336, "bike_id": "37b092a43908c21b9b264d0a66cfa3b5", "fusion_lon": 0.0}, {"rental_uris": {"ios": "https://dc.lft.to/lastmile_qr_scan", "android": "https://dc.lft.to/lastmile_qr_scan"}, "type": "electric_scooter", "name": "948ec50db8af69885210cc8ac16e7ec3", "is_reserved": 0, "lon": -77.04497883333333, "is_disabled": 0, "fusion_lat": 0.0, "lat": 38.914534833333335, "bike_id": "948ec50db8af69885210cc8ac16e7ec3", "fusion_lon": 0.0}, {"rental_uris": {"ios": "https://dc.lft.to/lastmile_qr_scan", "android": "https://dc.lft.to/lastmile_qr_scan"}, "type": "electric_scooter", "name": "ea2f2af45cde4dc63bffcd1c6fe7543f", "is_reserved": 0, "lon": -77.02378083333333, "is_disabled": 0, "fusion_lat": 0.0, "lat": 38.90965216666667, "bike_id": "ea2f2af45cde4dc63bffcd1c6fe7543f", "fusion_lon": 0.0}, {"rental_uris": {"ios": "https://dc.lft.to/lastmile_qr_scan", "android": "https://dc.lft.to/lastmile_qr_scan"}, "type": "electric_scooter", "name": "48103c5a3d2840ff447980745be84ae7", "is_reserved": 0, "lon": -77.03396166666667, "is_disabled": 0, "fusion_lat": 0.0, "lat": 38.91918916666667, "bike_id": "48103c5a3d2840ff447980745be84ae7", "fusion_lon": 0.0}, {"rental_uris": {"ios": "https://dc.lft.to/lastmile_qr_scan", "android": "https://dc.lft.to/lastmile_qr_scan"}, "type": "electric_bike", "name": "d2d861872e0540043e8ba014616ee5ae", "is_reserved": 0, "lon": -77.052772, "is_disabled": 0, "fusion_lat": 0.0, "lat": 38.940931166666665, "bike_id": "d2d861872e0540043e8ba014616ee5ae", "fusion_lon": 0.0}, {"rental_uris": {"ios": "https://dc.lft.to/lastmile_qr_scan", "android": "https://dc.lft.to/lastmile_qr_scan"}, "type": "electric_scooter", "name": "d7c1af55d8c7f95e08ebd8aa3332fcb3", "is_reserved": 0, "lon": -77.03137616666666, "is_disabled": 0, "fusion_lat": 0.0, "lat": 38.92377833333333, "bike_id": "d7c1af55d8c7f95e08ebd8aa3332fcb3", "fusion_lon": 0.0}, {"rental_uris": {"ios": "https://dc.lft.to/lastmile_qr_scan", "android": "https://dc.lft.to/lastmile_qr_scan"}, "type": "electric_bike", "name": "51238402dcc09f9c7a06ca23b7bbd480", "is_reserved": 0, "lon": -77.01689883333333, "is_disabled": 0, "fusion_lat": 0.0, "lat": 38.975134833333335, "bike_id": "51238402dcc09f9c7a06ca23b7bbd480", "fusion_lon": 0.0}, {"rental_uris": {"ios": "https://dc.lft.to/lastmile_qr_scan", "android": "https://dc.lft.to/lastmile_qr_scan"}, "type": "electric_scooter", "name": "43dce955c5400f6ee8bce14bc194c87a", "is_reserved": 0, "lon": -77.01469716666666, "is_disabled": 0, "fusion_lat": 0.0, "lat": 38.879396, "bike_id": "43dce955c5400f6ee8bce14bc194c87a", "fusion_lon": 0.0}, {"rental_uris": {"ios": "https://dc.lft.to/lastmile_qr_scan", "android": "https://dc.lft.to/lastmile_qr_scan"}, "type": "electric_scooter", "name": "0d090d7532cd2b198ef5f787302370d8", "is_reserved": 0, "lon": -77.033696, "is_disabled": 0, "fusion_lat": 0.0, "lat": 38.93223533333333, "bike_id": "0d090d7532cd2b198ef5f787302370d8", "fusion_lon": 0.0}, {"rental_uris": {"ios": "https://dc.lft.to/lastmile_qr_scan", "android": "https://dc.lft.to/lastmile_qr_scan"}, "type": "electric_scooter", "name": "78a62ce1fcbd84c31b0eaf819f5c872d", "is_reserved": 0, "lon": -77.04014333333333, "is_disabled": 0, "fusion_lat": 0.0, "lat": 38.918009833333336, "bike_id": "78a62ce1fcbd84c31b0eaf819f5c872d", "fusion_lon": 0.0}, {"rental_uris": {"ios": "https://dc.lft.to/lastmile_qr_scan", "android": "https://dc.lft.to/lastmile_qr_scan"}, "type": "electric_scooter", "name": "dfd9b1ffeb4bf0039d8d093797e043e5", "is_reserved": 0, "lon": -77.03174216666666, "is_disabled": 0, "fusion_lat": 0.0, "lat": 38.91555116666667, "bike_id": "dfd9b1ffeb4bf0039d8d093797e043e5", "fusion_lon": 0.0}, {"rental_uris": {"ios": "https://dc.lft.to/lastmile_qr_scan", "android": "https://dc.lft.to/lastmile_qr_scan"}, "type": "electric_scooter", "name": "14f5e4da80a98718629f0cfe3b14517f", "is_reserved": 0, "lon": -77.01777466666667, "is_disabled": 0, "fusion_lat": 0.0, "lat": 38.879208166666665, "bike_id": "14f5e4da80a98718629f0cfe3b14517f", "fusion_lon": 0.0}, {"rental_uris": {"ios": "https://dc.lft.to/lastmile_qr_scan", "android": "https://dc.lft.to/lastmile_qr_scan"}, "type": "electric_scooter", "name": "bc1a1b3ecf1a9b5c80f2e2ade98e0602", "is_reserved": 0, "lon": -77.0076085, "is_disabled": 0, "fusion_lat": 0.0, "lat": 38.8712265, "bike_id": "bc1a1b3ecf1a9b5c80f2e2ade98e0602", "fusion_lon": 0.0}, {"rental_uris": {"ios": "https://dc.lft.to/lastmile_qr_scan", "android": "https://dc.lft.to/lastmile_qr_scan"}, "type": "electric_scooter", "name": "4a308468f4e1ad7c4ef67246d795e624", "is_reserved": 0, "lon": -77.04093083333333, "is_disabled": 0, "fusion_lat": 0.0, "lat": 38.920694166666664, "bike_id": "4a308468f4e1ad7c4ef67246d795e624", "fusion_lon": 0.0}, {"rental_uris": {"ios": "https://dc.lft.to/lastmile_qr_scan", "android": "https://dc.lft.to/lastmile_qr_scan"}, "type": "electric_bike", "name": "b529e51f597096d044dc7545eaf0540a", "is_reserved": 0, "lon": -77.06342816666667, "is_disabled": 0, "fusion_lat": 0.0, "lat": 38.86291, "bike_id": "b529e51f597096d044dc7545eaf0540a", "fusion_lon": 0.0}, {"rental_uris": {"ios": "https://dc.lft.to/lastmile_qr_scan", "android": "https://dc.lft.to/lastmile_qr_scan"}, "type": "electric_scooter", "name": "028f858c4032ab6acc19115ecc9f96e4", "is_reserved": 0, "lon": -77.02408266666667, "is_disabled": 0, "fusion_lat": 0.0, "lat": 38.909547333333336, "bike_id": "028f858c4032ab6acc19115ecc9f96e4", "fusion_lon": 0.0}, {"rental_uris": {"ios": "https://dc.lft.to/lastmile_qr_scan", "android": "https://dc.lft.to/lastmile_qr_scan"}, "type": "electric_scooter", "name": "4a7e1177f7d855645c8a12ab87833c4e", "is_reserved": 0, "lon": -76.94158266666666, "is_disabled": 0, "fusion_lat": 0.0, "lat": 38.901731166666664, "bike_id": "4a7e1177f7d855645c8a12ab87833c4e", "fusion_lon": 0.0}, {"rental_uris": {"ios": "https://dc.lft.to/lastmile_qr_scan", "android": "https://dc.lft.to/lastmile_qr_scan"}, "type": "electric_scooter", "name": "80ff0af7351ba4500ba69ef0b07a42f7", "is_reserved": 0, "lon": -76.97653766666667, "is_disabled": 0, "fusion_lat": 0.0, "lat": 38.90365166666667, "bike_id": "80ff0af7351ba4500ba69ef0b07a42f7", "fusion_lon": 0.0}, {"rental_uris": {"ios": "https://dc.lft.to/lastmile_qr_scan", "android": "https://dc.lft.to/lastmile_qr_scan"}, "type": "electric_scooter", "name": "22384e2755c9617b5fa68fc20cd06fec", "is_reserved": 0, "lon": -77.03267133333334, "is_disabled": 0, "fusion_lat": 0.0, "lat": 38.92157616666667, "bike_id": "22384e2755c9617b5fa68fc20cd06fec", "fusion_lon": 0.0}, {"rental_uris": {"ios": "https://dc.lft.to/lastmile_qr_scan", "android": "https://dc.lft.to/lastmile_qr_scan"}, "type": "electric_scooter", "name": "c73b4b6f136e195fa58f656f29267e0f", "is_reserved": 0, "lon": -77.0257555, "is_disabled": 0, "fusion_lat": 0.0, "lat": 38.91712316666667, "bike_id": "c73b4b6f136e195fa58f656f29267e0f", "fusion_lon": 0.0}, {"rental_uris": {"ios": "https://dc.lft.to/lastmile_qr_scan", "android": "https://dc.lft.to/lastmile_qr_scan"}, "type": "electric_scooter", "name": "dc39ff0170bb7b1adc920f81d3a6f834", "is_reserved": 0, "lon": -77.0059765, "is_disabled": 0, "fusion_lat": 0.0, "lat": 38.875564833333335, "bike_id": "dc39ff0170bb7b1adc920f81d3a6f834", "fusion_lon": 0.0}, {"rental_uris": {"ios": "https://dc.lft.to/lastmile_qr_scan", "android": "https://dc.lft.to/lastmile_qr_scan"}, "type": "electric_scooter", "name": "6972a24a444f6109c3c58ec11b11eac0", "is_reserved": 0, "lon": -77.04545833333333, "is_disabled": 0, "fusion_lat": 0.0, "lat": 38.9132965, "bike_id": "6972a24a444f6109c3c58ec11b11eac0", "fusion_lon": 0.0}, {"rental_uris": {"ios": "https://dc.lft.to/lastmile_qr_scan", "android": "https://dc.lft.to/lastmile_qr_scan"}, "type": "electric_scooter", "name": "9d190852f6694a49378cf96417243e12", "is_reserved": 0, "lon": -77.02753633333333, "is_disabled": 0, "fusion_lat": 0.0, "lat": 38.9577775, "bike_id": "9d190852f6694a49378cf96417243e12", "fusion_lon": 0.0}, {"rental_uris": {"ios": "https://dc.lft.to/lastmile_qr_scan", "android": "https://dc.lft.to/lastmile_qr_scan"}, "type": "electric_scooter", "name": "e24710d001a536bd3dd9586f76897b52", "is_reserved": 0, "lon": -76.92626816666667, "is_disabled": 0, "fusion_lat": 0.0, "lat": 38.88366083333333, "bike_id": "e24710d001a536bd3dd9586f76897b52", "fusion_lon": 0.0}, {"rental_uris": {"ios": "https://dc.lft.to/lastmile_qr_scan", "android": "https://dc.lft.to/lastmile_qr_scan"}, "type": "electric_scooter", "name": "0f9b11d27c684c64a48fb390b14336db", "is_reserved": 0, "lon": -77.03831866666667, "is_disabled": 0, "fusion_lat": 0.0, "lat": 38.91114733333333, "bike_id": "0f9b11d27c684c64a48fb390b14336db", "fusion_lon": 0.0}, {"rental_uris": {"ios": "https://dc.lft.to/lastmile_qr_scan", "android": "https://dc.lft.to/lastmile_qr_scan"}, "type": "electric_scooter", "name": "3bd2823b0b7d0a4d33fcbced71e98e1a", "is_reserved": 0, "lon": -76.94872766666667, "is_disabled": 0, "fusion_lat": 0.0, "lat": 38.89487183333333, "bike_id": "3bd2823b0b7d0a4d33fcbced71e98e1a", "fusion_lon": 0.0}, {"rental_uris": {"ios": "https://dc.lft.to/lastmile_qr_scan", "android": "https://dc.lft.to/lastmile_qr_scan"}, "type": "electric_scooter", "name": "5954716cdd4aed9957cc84d14e7e634d", "is_reserved": 0, "lon": -77.03325016666666, "is_disabled": 0, "fusion_lat": 0.0, "lat": 38.88777066666667, "bike_id": "5954716cdd4aed9957cc84d14e7e634d", "fusion_lon": 0.0}, {"rental_uris": {"ios": "https://dc.lft.to/lastmile_qr_scan", "android": "https://dc.lft.to/lastmile_qr_scan"}, "type": "electric_scooter", "name": "ef7a8dbf5a13a14ea70f2c8904d47c65", "is_reserved": 0, "lon": -76.98541433333334, "is_disabled": 0, "fusion_lat": 0.0, "lat": 38.91292883333333, "bike_id": "ef7a8dbf5a13a14ea70f2c8904d47c65", "fusion_lon": 0.0}, {"rental_uris": {"ios": "https://dc.lft.to/lastmile_qr_scan", "android": "https://dc.lft.to/lastmile_qr_scan"}, "type": "electric_scooter", "name": "8325045c4258a1c66f224e3c3bac6b10", "is_reserved": 0, "lon": -77.06631683333333, "is_disabled": 0, "fusion_lat": 0.0, "lat": 38.9052475, "bike_id": "8325045c4258a1c66f224e3c3bac6b10", "fusion_lon": 0.0}, {"rental_uris": {"ios": "https://dc.lft.to/lastmile_qr_scan", "android": "https://dc.lft.to/lastmile_qr_scan"}, "type": "electric_scooter", "name": "0e83613574fe497bb8d882ea7c2c470c", "is_reserved": 0, "lon": -77.0321445, "is_disabled": 0, "fusion_lat": 0.0, "lat": 38.9158245, "bike_id": "0e83613574fe497bb8d882ea7c2c470c", "fusion_lon": 0.0}, {"rental_uris": {"ios": "https://dc.lft.to/lastmile_qr_scan", "android": "https://dc.lft.to/lastmile_qr_scan"}, "type": "electric_scooter", "name": "ff564a0d924eff98a7d68a80a4c40861", "is_reserved": 0, "lon": -77.03418633333334, "is_disabled": 0, "fusion_lat": 0.0, "lat": 38.922082333333336, "bike_id": "ff564a0d924eff98a7d68a80a4c40861", "fusion_lon": 0.0}, {"rental_uris": {"ios": "https://dc.lft.to/lastmile_qr_scan", "android": "https://dc.lft.to/lastmile_qr_scan"}, "type": "electric_scooter", "name": "062e2c7356aa1dae3ae63f89883fffdf", "is_reserved": 0, "lon": -77.02502933333334, "is_disabled": 0, "fusion_lat": 0.0, "lat": 38.935483833333336, "bike_id": "062e2c7356aa1dae3ae63f89883fffdf", "fusion_lon": 0.0}, {"rental_uris": {"ios": "https://dc.lft.to/lastmile_qr_scan", "android": "https://dc.lft.to/lastmile_qr_scan"}, "type": "electric_scooter", "name": "13758b8c07583e0793e723de76499df0", "is_reserved": 0, "lon": -77.005489, "is_disabled": 0, "fusion_lat": 0.0, "lat": 38.876438, "bike_id": "13758b8c07583e0793e723de76499df0", "fusion_lon": 0.0}, {"rental_uris": {"ios": "https://dc.lft.to/lastmile_qr_scan", "android": "https://dc.lft.to/lastmile_qr_scan"}, "type": "electric_bike", "name": "c2cb0268b6afb08de2cc323154cd7192", "is_reserved": 0, "lon": -77.12656133333333, "is_disabled": 0, "fusion_lat": 0.0, "lat": 38.81914166666667, "bike_id": "c2cb0268b6afb08de2cc323154cd7192", "fusion_lon": 0.0}, {"rental_uris": {"ios": "https://dc.lft.to/lastmile_qr_scan", "android": "https://dc.lft.to/lastmile_qr_scan"}, "type": "electric_scooter", "name": "fecb4a1c210f01ff7e2d58fbdb898902", "is_reserved": 0, "lon": -77.05920983333333, "is_disabled": 0, "fusion_lat": 0.0, "lat": 38.90279483333333, "bike_id": "fecb4a1c210f01ff7e2d58fbdb898902", "fusion_lon": 0.0}, {"rental_uris": {"ios": "https://dc.lft.to/lastmile_qr_scan", "android": "https://dc.lft.to/lastmile_qr_scan"}, "type": "electric_bike", "name": "cabbe339f754734695ec85586a158c4c", "is_reserved": 0, "lon": -77.08525866666666, "is_disabled": 0, "fusion_lat": 0.0, "lat": 38.8564775, "bike_id": "cabbe339f754734695ec85586a158c4c", "fusion_lon": 0.0}, {"rental_uris": {"ios": "https://dc.lft.to/lastmile_qr_scan", "android": "https://dc.lft.to/lastmile_qr_scan"}, "type": "electric_scooter", "name": "ec0eb87f1db688f197ee4400252badd6", "is_reserved": 0, "lon": -76.98507916666667, "is_disabled": 0, "fusion_lat": 0.0, "lat": 38.88003666666667, "bike_id": "ec0eb87f1db688f197ee4400252badd6", "fusion_lon": 0.0}, {"rental_uris": {"ios": "https://dc.lft.to/lastmile_qr_scan", "android": "https://dc.lft.to/lastmile_qr_scan"}, "type": "electric_scooter", "name": "86787ecb0478854d76895fafbd495075", "is_reserved": 0, "lon": -77.041676, "is_disabled": 0, "fusion_lat": 0.0, "lat": 38.90624283333333, "bike_id": "86787ecb0478854d76895fafbd495075", "fusion_lon": 0.0}, {"rental_uris": {"ios": "https://dc.lft.to/lastmile_qr_scan", "android": "https://dc.lft.to/lastmile_qr_scan"}, "type": "electric_scooter", "name": "20aeb78dbd2be77fa2f8b2672435a9a0", "is_reserved": 0, "lon": -77.04156466666667, "is_disabled": 0, "fusion_lat": 0.0, "lat": 38.9256145, "bike_id": "20aeb78dbd2be77fa2f8b2672435a9a0", "fusion_lon": 0.0}, {"rental_uris": {"ios": "https://dc.lft.to/lastmile_qr_scan", "android": "https://dc.lft.to/lastmile_qr_scan"}, "type": "electric_scooter", "name": "5e46a7bc475a14a37e3ef760ae77ed55", "is_reserved": 0, "lon": -77.04049416666666, "is_disabled": 0, "fusion_lat": 0.0, "lat": 38.90405116666667, "bike_id": "5e46a7bc475a14a37e3ef760ae77ed55", "fusion_lon": 0.0}, {"rental_uris": {"ios": "https://dc.lft.to/lastmile_qr_scan", "android": "https://dc.lft.to/lastmile_qr_scan"}, "type": "electric_scooter", "name": "4d82138e2b2e3a123fcac2c1bc33f35a", "is_reserved": 0, "lon": -77.04002016666666, "is_disabled": 0, "fusion_lat": 0.0, "lat": 38.91814983333333, "bike_id": "4d82138e2b2e3a123fcac2c1bc33f35a", "fusion_lon": 0.0}, {"rental_uris": {"ios": "https://dc.lft.to/lastmile_qr_scan", "android": "https://dc.lft.to/lastmile_qr_scan"}, "type": "electric_bike", "name": "e4b96298955866e1a15b9bd959720030", "is_reserved": 0, "lon": -77.12841383333334, "is_disabled": 0, "fusion_lat": 0.0, "lat": 38.8005175, "bike_id": "e4b96298955866e1a15b9bd959720030", "fusion_lon": 0.0}, {"rental_uris": {"ios": "https://dc.lft.to/lastmile_qr_scan", "android": "https://dc.lft.to/lastmile_qr_scan"}, "type": "electric_scooter", "name": "5605774b78c02ca67c93d04492aa72e3", "is_reserved": 0, "lon": -77.00234283333333, "is_disabled": 0, "fusion_lat": 0.0, "lat": 38.90045333333333, "bike_id": "5605774b78c02ca67c93d04492aa72e3", "fusion_lon": 0.0}, {"rental_uris": {"ios": "https://dc.lft.to/lastmile_qr_scan", "android": "https://dc.lft.to/lastmile_qr_scan"}, "type": "electric_scooter", "name": "cce6f30936555236c0b38445da5cc483", "is_reserved": 0, "lon": -76.99121883333333, "is_disabled": 0, "fusion_lat": 0.0, "lat": 38.909001833333335, "bike_id": "cce6f30936555236c0b38445da5cc483", "fusion_lon": 0.0}, {"rental_uris": {"ios": "https://dc.lft.to/lastmile_qr_scan", "android": "https://dc.lft.to/lastmile_qr_scan"}, "type": "electric_scooter", "name": "39063287424c7f1efcf28aab4cf08357", "is_reserved": 0, "lon": -77.0386445, "is_disabled": 0, "fusion_lat": 0.0, "lat": 38.912676, "bike_id": "39063287424c7f1efcf28aab4cf08357", "fusion_lon": 0.0}, {"rental_uris": {"ios": "https://dc.lft.to/lastmile_qr_scan", "android": "https://dc.lft.to/lastmile_qr_scan"},