{"data": {"bikes": [{"lat": 38.95705066666667, "is_disabled": 0, "type": "electric_scooter", "lon": -77.02412433333333, "bike_id": "2c0923096e110bceabb3333e1465126d", "fusion_lat": 0.0, "name": "2c0923096e110bceabb3333e1465126d", "is_reserved": 0, "rental_uris": {"android": "https://dc.lft.to/lastmile_qr_scan", "ios": "https://dc.lft.to/lastmile_qr_scan"}, "fusion_lon": 0.0}, {"lat": 38.90415383333333, "is_disabled": 0, "type": "electric_scooter", "lon": -77.0507265, "bike_id": "1a761c59fe6bdb3e014202a20236cb5e", "fusion_lat": 0.0, "name": "1a761c59fe6bdb3e014202a20236cb5e", "is_reserved": 0, "rental_uris": {"android": "https://dc.lft.to/lastmile_qr_scan", "ios": "https://dc.lft.to/lastmile_qr_scan"}, "fusion_lon": 0.0}, {"lat": 38.92206866666667, "is_disabled": 0, "type": "electric_bike", "lon": -77.08207383333334, "bike_id": "8e54519cb6874b842cac238d30f25eeb", "fusion_lat": 0.0, "name": "8e54519cb6874b842cac238d30f25eeb", "is_reserved": 0, "rental_uris": {"android": "https://dc.lft.to/lastmile_qr_scan", "ios": "https://dc.lft.to/lastmile_qr_scan"}, "fusion_lon": 0.0}, {"lat": 38.90826583333333, "is_disabled": 0, "type": "electric_scooter", "lon": -77.02006766666666, "bike_id": "bfa79c0363ed08cde33927d21d7c7b66", "fusion_lat": 0.0, "name": "bfa79c0363ed08cde33927d21d7c7b66", "is_reserved": 0, "rental_uris": {"android": "https://dc.lft.to/lastmile_qr_scan", "ios": "https://dc.lft.to/lastmile_qr_scan"}, "fusion_lon": 0.0}, {"lat": 38.90666133333333, "is_disabled": 0, "type": "electric_scooter", "lon": -77.00804516666666, "bike_id": "b0edb9cba7a3e252047248b6a455c9fb", "fusion_lat": 0.0, "name": "b0edb9cba7a3e252047248b6a455c9fb", "is_reserved": 0, "rental_uris": {"android": "https://dc.lft.to/lastmile_qr_scan", "ios": "https://dc.lft.to/lastmile_qr_scan"}, "fusion_lon": 0.0}, {"lat": 38.90393366666667, "is_disabled": 0, "type": "electric_scooter", "lon": -76.99010816666667, "bike_id": "6102a2a208ce91630940b2d2369d5328", "fusion_lat": 0.0, "name": "6102a2a208ce91630940b2d2369d5328", "is_reserved": 0, "rental_uris": {"android": "https://dc.lft.to/lastmile_qr_scan", "ios": "https://dc.lft.to/lastmile_qr_scan"}, "fusion_lon": 0.0}, {"lat": 38.886148166666665, "is_disabled": 0, "type": "electric_scooter", "lon": -77.018888, "bike_id": "1ba1bc4a10415e66433f363bda620ca9", "fusion_lat": 0.0, "name": "1ba1bc4a10415e66433f363bda620ca9", "is_reserved": 0, "rental_uris": {"android": "https://dc.lft.to/lastmile_qr_scan", "ios": "https://dc.lft.to/lastmile_qr_scan"}, "fusion_lon": 0.0}, {"lat": 38.886754, "is_disabled": 0, "type": "electric_bike", "lon": -77.16240116666667, "bike_id": "0d2c7da037aa549c8e166bb0582f478c", "fusion_lat": 0.0, "name": "0d2c7da037aa549c8e166bb0582f478c", "is_reserved": 0, "rental_uris": {"android": "https://dc.lft.to/lastmile_qr_scan", "ios": "https://dc.lft.to/lastmile_qr_scan"}, "fusion_lon": 0.0}, {"lat": 38.9482265, "is_disabled": 0, "type": "electric_scooter", "lon": -76.999041, "bike_id": "4036f411a8e6009bd2ec791555055db3", "fusion_lat": 0.0, "name": "4036f411a8e6009bd2ec791555055db3", "is_reserved": 0, "rental_uris": {"android": "https://dc.lft.to/lastmile_qr_scan", "ios": "https://dc.lft.to/lastmile_qr_scan"}, "fusion_lon": 0.0}, {"lat": 38.91601516666667, "is_disabled": 0, "type": "electric_bike", "lon": -77.01357716666666, "bike_id": "823e773b9a696b9e83db1cfa7a603fde", "fusion_lat": 0.0, "name": "823e773b9a696b9e83db1cfa7a603fde", "is_reserved": 0, "rental_uris": {"android": "https://dc.lft.to/lastmile_qr_scan", "ios": "https://dc.lft.to/lastmile_qr_scan"}, "fusion_lon": 0.0}, {"lat": 38.919616166666664, "is_disabled": 0, "type": "electric_scooter", "lon": -77.0143705, "bike_id": "eaa3e2fe278d6ee05fae0d8582b050de", "fusion_lat": 0.0, "name": "eaa3e2fe278d6ee05fae0d8582b050de", "is_reserved": 0, "rental_uris": {"android": "https://dc.lft.to/lastmile_qr_scan", "ios": "https://dc.lft.to/lastmile_qr_scan"}, "fusion_lon": 0.0}, {"lat": 38.901445333333335, "is_disabled": 0, "type": "electric_scooter", "lon": -77.03984516666667, "bike_id": "c801fd4bc5b95a1f0fbca480bc6d464d", "fusion_lat": 0.0, "name": "c801fd4bc5b95a1f0fbca480bc6d464d", "is_reserved": 0, "rental_uris": {"android": "https://dc.lft.to/lastmile_qr_scan", "ios": "https://dc.lft.to/lastmile_qr_scan"}, "fusion_lon": 0.0}, {"lat": 38.885483666666666, "is_disabled": 0, "type": "electric_bike", "lon": -77.117853, "bike_id": "aa873a1d77ea39eb08dac465ea38e7a8", "fusion_lat": 0.0, "name": "aa873a1d77ea39eb08dac465ea38e7a8", "is_reserved": 0, "rental_uris": {"android": "https://dc.lft.to/lastmile_qr_scan", "ios": "https://dc.lft.to/lastmile_qr_scan"}, "fusion_lon": 0.0}, {"lat": 38.907014833333335, "is_disabled": 0, "type": "electric_scooter", "lon": -76.98700716666667, "bike_id": "6a66589b4c601fdb5c1f4f10426f80aa", "fusion_lat": 0.0, "name": "6a66589b4c601fdb5c1f4f10426f80aa", "is_reserved": 0, "rental_uris": {"android": "https://dc.lft.to/lastmile_qr_scan", "ios": "https://dc.lft.to/lastmile_qr_scan"}, "fusion_lon": 0.0}, {"lat": 38.946305, "is_disabled": 0, "type": "electric_scooter", "lon": -77.01847816666667, "bike_id": "0a2f164b39cdd9702311a3ad5ab51b60", "fusion_lat": 0.0, "name": "0a2f164b39cdd9702311a3ad5ab51b60", "is_reserved": 0, "rental_uris": {"android": "https://dc.lft.to/lastmile_qr_scan", "ios": "https://dc.lft.to/lastmile_qr_scan"}, "fusion_lon": 0.0}, {"lat": 38.86744566666667, "is_disabled": 0, "type": "electric_scooter", "lon": -76.976637, "bike_id": "727dd8985f6beb060a2583feefa7b2fa", "fusion_lat": 0.0, "name": "727dd8985f6beb060a2583feefa7b2fa", "is_reserved": 0, "rental_uris": {"android": "https://dc.lft.to/lastmile_qr_scan", "ios": "https://dc.lft.to/lastmile_qr_scan"}, "fusion_lon": 0.0}, {"lat": 38.877268, "is_disabled": 0, "type": "electric_bike", "lon": -77.1185385, "bike_id": "f581641426502e292448a54bc4343479", "fusion_lat": 0.0, "name": "f581641426502e292448a54bc4343479", "is_reserved": 0, "rental_uris": {"android": "https://dc.lft.to/lastmile_qr_scan", "ios": "https://dc.lft.to/lastmile_qr_scan"}, "fusion_lon": 0.0}, {"lat": 38.909221, "is_disabled": 0, "type": "electric_scooter", "lon": -77.0802655, "bike_id": "20b3ff1ad549ade7ee0e033173bb1070", "fusion_lat": 0.0, "name": "20b3ff1ad549ade7ee0e033173bb1070", "is_reserved": 0, "rental_uris": {"android": "https://dc.lft.to/lastmile_qr_scan", "ios": "https://dc.lft.to/lastmile_qr_scan"}, "fusion_lon": 0.0}, {"lat": 38.951837833333336, "is_disabled": 0, "type": "electric_bike", "lon": -76.93544266666666, "bike_id": "7c128916c562cb616247c59cdabb7430", "fusion_lat": 0.0, "name": "7c128916c562cb616247c59cdabb7430", "is_reserved": 0, "rental_uris": {"android": "https://dc.lft.to/lastmile_qr_scan", "ios": "https://dc.lft.to/lastmile_qr_scan"}, "fusion_lon": 0.0}, {"lat": 38.862512833333334, "is_disabled": 0, "type": "electric_scooter", "lon": -76.98700833333334, "bike_id": "db6fc972a017bc4985b8c3badb288f05", "fusion_lat": 0.0, "name": "db6fc972a017bc4985b8c3badb288f05", "is_reserved": 0, "rental_uris": {"android": "https://dc.lft.to/lastmile_qr_scan", "ios": "https://dc.lft.to/lastmile_qr_scan"}, "fusion_lon": 0.0}, {"lat": 38.89213816666667, "is_disabled": 0, "type": "electric_scooter", "lon": -76.99572416666666, "bike_id": "e8f50c0a5ae5545691e0f80a8afbd171", "fusion_lat": 0.0, "name": "e8f50c0a5ae5545691e0f80a8afbd171", "is_reserved": 0, "rental_uris": {"android": "https://dc.lft.to/lastmile_qr_scan", "ios": "https://dc.lft.to/lastmile_qr_scan"}, "fusion_lon": 0.0}, {"lat": 38.924641, "is_disabled": 0, "type": "electric_bike", "lon": -77.20837133333333, "bike_id": "6de7806cafd02f91ff911f77322b3f68", "fusion_lat": 0.0, "name": "6de7806cafd02f91ff911f77322b3f68", "is_reserved": 0, "rental_uris": {"android": "https://dc.lft.to/lastmile_qr_scan", "ios": "https://dc.lft.to/lastmile_qr_scan"}, "fusion_lon": 0.0}, {"lat": 38.916956, "is_disabled": 0, "type": "electric_scooter", "lon": -77.04274, "bike_id": "cfb5d22be6d9565faf2dd535f4af495b", "fusion_lat": 0.0, "name": "cfb5d22be6d9565faf2dd535f4af495b", "is_reserved": 0, "rental_uris": {"android": "https://dc.lft.to/lastmile_qr_scan", "ios": "https://dc.lft.to/lastmile_qr_scan"}, "fusion_lon": 0.0}, {"lat": 38.9099695, "is_disabled": 0, "type": "electric_scooter", "lon": -77.01510533333334, "bike_id": "7e8e8a4838fa33873674eedd0aff2aaf", "fusion_lat": 0.0, "name": "7e8e8a4838fa33873674eedd0aff2aaf", "is_reserved": 0, "rental_uris": {"android": "https://dc.lft.to/lastmile_qr_scan", "ios": "https://dc.lft.to/lastmile_qr_scan"}, "fusion_lon": 0.0}, {"lat": 38.84252016666667, "is_disabled": 0, "type": "electric_bike", "lon": -77.05833333333334, "bike_id": "14de9570d75e2180d325b4cf08eb4d9e", "fusion_lat": 0.0, "name": "14de9570d75e2180d325b4cf08eb4d9e", "is_reserved": 0, "rental_uris": {"android": "https://dc.lft.to/lastmile_qr_scan", "ios": "https://dc.lft.to/lastmile_qr_scan"}, "fusion_lon": 0.0}, {"lat": 38.90030866666667, "is_disabled": 0, "type": "electric_scooter", "lon": -77.00592366666666, "bike_id": "407f0e6b342230fde4427e2c8fbb6ef6", "fusion_lat": 0.0, "name": "407f0e6b342230fde4427e2c8fbb6ef6", "is_reserved": 0, "rental_uris": {"android": "https://dc.lft.to/lastmile_qr_scan", "ios": "https://dc.lft.to/lastmile_qr_scan"}, "fusion_lon": 0.0}, {"lat": 38.906889666666665, "is_disabled": 0, "type": "electric_scooter", "lon": -77.01011316666667, "bike_id": "84f714651e9f6edf5d02e27404866c77", "fusion_lat": 0.0, "name": "84f714651e9f6edf5d02e27404866c77", "is_reserved": 0, "rental_uris": {"android": "https://dc.lft.to/lastmile_qr_scan", "ios": "https://dc.lft.to/lastmile_qr_scan"}, "fusion_lon": 0.0}, {"lat": 38.92053033333333, "is_disabled": 0, "type": "electric_scooter", "lon": -77.03443066666667, "bike_id": "3989dabf3bbd597d4f74cb145ea81306", "fusion_lat": 0.0, "name": "3989dabf3bbd597d4f74cb145ea81306", "is_reserved": 0, "rental_uris": {"android": "https://dc.lft.to/lastmile_qr_scan", "ios": "https://dc.lft.to/lastmile_qr_scan"}, "fusion_lon": 0.0}, {"lat": 38.929734333333336, "is_disabled": 0, "type": "electric_scooter", "lon": -77.03266766666667, "bike_id": "6b0fabf6c147809c04bc947efab744bc", "fusion_lat": 0.0, "name": "6b0fabf6c147809c04bc947efab744bc", "is_reserved": 0, "rental_uris": {"android": "https://dc.lft.to/lastmile_qr_scan", "ios": "https://dc.lft.to/lastmile_qr_scan"}, "fusion_lon": 0.0}, {"lat": 38.908270333333334, "is_disabled": 0, "type": "electric_scooter", "lon": -76.99701916666666, "bike_id": "c375c96f03aa6e892ca0333c5ee185b2", "fusion_lat": 0.0, "name": "c375c96f03aa6e892ca0333c5ee185b2", "is_reserved": 0, "rental_uris": {"android": "https://dc.lft.to/lastmile_qr_scan", "ios": "https://dc.lft.to/lastmile_qr_scan"}, "fusion_lon": 0.0}, {"lat": 38.91706466666667, "is_disabled": 0, "type": "electric_scooter", "lon": -77.0324695, "bike_id": "27eb78534b8886ca77aed39a8c23bf30", "fusion_lat": 0.0, "name": "27eb78534b8886ca77aed39a8c23bf30", "is_reserved": 0, "rental_uris": {"android": "https://dc.lft.to/lastmile_qr_scan", "ios": "https://dc.lft.to/lastmile_qr_scan"}, "fusion_lon": 0.0}, {"lat": 38.91125183333333, "is_disabled": 0, "type": "electric_scooter", "lon": -77.0032575, "bike_id": "0bd0b334f516c733cc5b954d457b5242", "fusion_lat": 0.0, "name": "0bd0b334f516c733cc5b954d457b5242", "is_reserved": 0, "rental_uris": {"android": "https://dc.lft.to/lastmile_qr_scan", "ios": "https://dc.lft.to/lastmile_qr_scan"}, "fusion_lon": 0.0}, {"lat": 38.90415316666667, "is_disabled": 0, "type": "electric_scooter", "lon": -77.05344333333333, "bike_id": "efea4f4ab30ffdfe2f7b2bc6908521ca", "fusion_lat": 0.0, "name": "efea4f4ab30ffdfe2f7b2bc6908521ca", "is_reserved": 0, "rental_uris": {"android": "https://dc.lft.to/lastmile_qr_scan", "ios": "https://dc.lft.to/lastmile_qr_scan"}, "fusion_lon": 0.0}, {"lat": 38.9153965, "is_disabled": 0, "type": "electric_scooter", "lon": -77.02201666666667, "bike_id": "c60c7777583cfb2cbc98518a86861bb4", "fusion_lat": 0.0, "name": "c60c7777583cfb2cbc98518a86861bb4", "is_reserved": 0, "rental_uris": {"android": "https://dc.lft.to/lastmile_qr_scan", "ios": "https://dc.lft.to/lastmile_qr_scan"}, "fusion_lon": 0.0}, {"lat": 38.935605333333335, "is_disabled": 0, "type": "electric_bike", "lon": -77.036989, "bike_id": "cd88087760a3ab40e805eb2bde345e60", "fusion_lat": 0.0, "name": "cd88087760a3ab40e805eb2bde345e60", "is_reserved": 0, "rental_uris": {"android": "https://dc.lft.to/lastmile_qr_scan", "ios": "https://dc.lft.to/lastmile_qr_scan"}, "fusion_lon": 0.0}, {"lat": 38.916819, "is_disabled": 0, "type": "electric_scooter", "lon": -77.029756, "bike_id": "d3af4d6de853af3a51fe8978022fea74", "fusion_lat": 0.0, "name": "d3af4d6de853af3a51fe8978022fea74", "is_reserved": 0, "rental_uris": {"android": "https://dc.lft.to/lastmile_qr_scan", "ios": "https://dc.lft.to/lastmile_qr_scan"}, "fusion_lon": 0.0}, {"lat": 38.87062983333333, "is_disabled": 0, "type": "electric_scooter", "lon": -77.00840083333334, "bike_id": "527aeb15e4970c2ec2a091654618c4c3", "fusion_lat": 0.0, "name": "527aeb15e4970c2ec2a091654618c4c3", "is_reserved": 0, "rental_uris": {"android": "https://dc.lft.to/lastmile_qr_scan", "ios": "https://dc.lft.to/lastmile_qr_scan"}, "fusion_lon": 0.0}, {"lat": 38.91923366666666, "is_disabled": 0, "type": "electric_scooter", "lon": -77.03425066666667, "bike_id": "87757abf2526783281cf1466af47af16", "fusion_lat": 0.0, "name": "87757abf2526783281cf1466af47af16", "is_reserved": 0, "rental_uris": {"android": "https://dc.lft.to/lastmile_qr_scan", "ios": "https://dc.lft.to/lastmile_qr_scan"}, "fusion_lon": 0.0}, {"lat": 38.866775833333335, "is_disabled": 0, "type": "electric_scooter", "lon": -76.98540316666667, "bike_id": "e695e6c8fa1554692dd74878499d8e7b", "fusion_lat": 0.0, "name": "e695e6c8fa1554692dd74878499d8e7b", "is_reserved": 0, "rental_uris": {"android": "https://dc.lft.to/lastmile_qr_scan", "ios": "https://dc.lft.to/lastmile_qr_scan"}, "fusion_lon": 0.0}, {"lat": 38.86209083333333, "is_disabled": 0, "type": "electric_bike", "lon": -76.99776233333333, "bike_id": "12125ee1f2ae2e80e43b812e33fe557c", "fusion_lat": 0.0, "name": "12125ee1f2ae2e80e43b812e33fe557c", "is_reserved": 0, "rental_uris": {"android": "https://dc.lft.to/lastmile_qr_scan", "ios": "https://dc.lft.to/lastmile_qr_scan"}, "fusion_lon": 0.0}, {"lat": 38.8970445, "is_disabled": 0, "type": "electric_scooter", "lon": -77.00721833333333, "bike_id": "a8f401fb73f80a295b677aa3dc4ea1a4", "fusion_lat": 0.0, "name": "a8f401fb73f80a295b677aa3dc4ea1a4", "is_reserved": 0, "rental_uris": {"android": "https://dc.lft.to/lastmile_qr_scan", "ios": "https://dc.lft.to/lastmile_qr_scan"}, "fusion_lon": 0.0}, {"lat": 38.919951166666664, "is_disabled": 0, "type": "electric_scooter", "lon": -77.032306, "bike_id": "51711fdaf38650ee2b6e71820b0c8fc4", "fusion_lat": 0.0, "name": "51711fdaf38650ee2b6e71820b0c8fc4", "is_reserved": 0, "rental_uris": {"android": "https://dc.lft.to/lastmile_qr_scan", "ios": "https://dc.lft.to/lastmile_qr_scan"}, "fusion_lon": 0.0}, {"lat": 38.918714, "is_disabled": 0, "type": "electric_scooter", "lon": -77.03168616666666, "bike_id": "b5e57e7c02d210af79f1bb65cd6cf983", "fusion_lat": 0.0, "name": "b5e57e7c02d210af79f1bb65cd6cf983", "is_reserved": 0, "rental_uris": {"android": "https://dc.lft.to/lastmile_qr_scan", "ios": "https://dc.lft.to/lastmile_qr_scan"}, "fusion_lon": 0.0}, {"lat": 38.954840833333336, "is_disabled": 0, "type": "electric_scooter", "lon": -77.06564966666667, "bike_id": "8d08017abcc7871bd38523832da1b85f", "fusion_lat": 0.0, "name": "8d08017abcc7871bd38523832da1b85f", "is_reserved": 0, "rental_uris": {"android": "https://dc.lft.to/lastmile_qr_scan", "ios": "https://dc.lft.to/lastmile_qr_scan"}, "fusion_lon": 0.0}, {"lat": 38.91185333333333, "is_disabled": 0, "type": "electric_scooter", "lon": -77.03424866666667, "bike_id": "131fb1d7268c17f9e8e28f25124214b3", "fusion_lat": 0.0, "name": "131fb1d7268c17f9e8e28f25124214b3", "is_reserved": 0, "rental_uris": {"android": "https://dc.lft.to/lastmile_qr_scan", "ios": "https://dc.lft.to/lastmile_qr_scan"}, "fusion_lon": 0.0}, {"lat": 38.9006445, "is_disabled": 0, "type": "electric_scooter", "lon": -77.05036733333333, "bike_id": "1d88a96d93417010aa72a486feb3d599", "fusion_lat": 0.0, "name": "1d88a96d93417010aa72a486feb3d599", "is_reserved": 0, "rental_uris": {"android": "https://dc.lft.to/lastmile_qr_scan", "ios": "https://dc.lft.to/lastmile_qr_scan"}, "fusion_lon": 0.0}, {"lat": 38.9163005, "is_disabled": 0, "type": "electric_scooter", "lon": -77.02550333333333, "bike_id": "a4a30704f75b29027d0a87e0d4e3391d", "fusion_lat": 0.0, "name": "a4a30704f75b29027d0a87e0d4e3391d", "is_reserved": 0, "rental_uris": {"android": "https://dc.lft.to/lastmile_qr_scan", "ios": "https://dc.lft.to/lastmile_qr_scan"}, "fusion_lon": 0.0}, {"lat": 38.904900833333336, "is_disabled": 0, "type": "electric_scooter", "lon": -77.0481525, "bike_id": "d3c1179b507e0df6e4f255337cca4370", "fusion_lat": 0.0, "name": "d3c1179b507e0df6e4f255337cca4370", "is_reserved": 0, "rental_uris": {"android": "https://dc.lft.to/lastmile_qr_scan", "ios": "https://dc.lft.to/lastmile_qr_scan"}, "fusion_lon": 0.0}, {"lat": 38.934992333333334, "is_disabled": 0, "type": "electric_scooter", "lon": -77.02727566666667, "bike_id": "7874e237a41e5ae0cdb13b97c79a0bc8", "fusion_lat": 0.0, "name": "7874e237a41e5ae0cdb13b97c79a0bc8", "is_reserved": 0, "rental_uris": {"android": "https://dc.lft.to/lastmile_qr_scan", "ios": "https://dc.lft.to/lastmile_qr_scan"}, "fusion_lon": 0.0}, {"lat": 38.9228565, "is_disabled": 0, "type": "electric_scooter", "lon": -77.029672, "bike_id": "a64ec3bbd44d0bcea5552f0305d1e5b4", "fusion_lat": 0.0, "name": "a64ec3bbd44d0bcea5552f0305d1e5b4", "is_reserved": 0, "rental_uris": {"android": "https://dc.lft.to/lastmile_qr_scan", "ios": "https://dc.lft.to/lastmile_qr_scan"}, "fusion_lon": 0.0}, {"lat": 38.93092083333333, "is_disabled": 0, "type": "electric_scooter", "lon": -77.037436, "bike_id": "e0d01e1def151707fc1d06ca4b5764d1", "fusion_lat": 0.0, "name": "e0d01e1def151707fc1d06ca4b5764d1", "is_reserved": 0, "rental_uris": {"android": "https://dc.lft.to/lastmile_qr_scan", "ios": "https://dc.lft.to/lastmile_qr_scan"}, "fusion_lon": 0.0}, {"lat": 38.912014666666664, "is_disabled": 0, "type": "electric_scooter", "lon": -77.01465083333333, "bike_id": "b84826075a510125ec160d7dd5533acc", "fusion_lat": 0.0, "name": "b84826075a510125ec160d7dd5533acc", "is_reserved": 0, "rental_uris": {"android": "https://dc.lft.to/lastmile_qr_scan", "ios": "https://dc.lft.to/lastmile_qr_scan"}, "fusion_lon": 0.0}, {"lat": 38.8934675, "is_disabled": 0, "type": "electric_scooter", "lon": -77.0415595, "bike_id": "81d818c98be62dd2f59fc7b2ad2cf537", "fusion_lat": 0.0, "name": "81d818c98be62dd2f59fc7b2ad2cf537", "is_reserved": 0, "rental_uris": {"android": "https://dc.lft.to/lastmile_qr_scan", "ios": "https://dc.lft.to/lastmile_qr_scan"}, "fusion_lon": 0.0}, {"lat": 38.902786, "is_disabled": 0, "type": "electric_scooter", "lon": -77.03660233333333, "bike_id": "09d2c073bff3d9f2ccb68d657f6fb985", "fusion_lat": 0.0, "name": "09d2c073bff3d9f2ccb68d657f6fb985", "is_reserved": 0, "rental_uris": {"android": "https://dc.lft.to/lastmile_qr_scan", "ios": "https://dc.lft.to/lastmile_qr_scan"}, "fusion_lon": 0.0}, {"lat": 38.900661666666664, "is_disabled": 0, "type": "electric_scooter", "lon": -77.00203966666666, "bike_id": "cd8f0e3a7c22c96c5c064fc565d898fc", "fusion_lat": 0.0, "name": "cd8f0e3a7c22c96c5c064fc565d898fc", "is_reserved": 0, "rental_uris": {"android": "https://dc.lft.to/lastmile_qr_scan", "ios": "https://dc.lft.to/lastmile_qr_scan"}, "fusion_lon": 0.0}, {"lat": 38.85191016666667, "is_disabled": 0, "type": "electric_bike", "lon": -76.96109516666667, "bike_id": "1dfa2f73c28cb5a2c593514577ecadda", "fusion_lat": 0.0, "name": "1dfa2f73c28cb5a2c593514577ecadda", "is_reserved": 0, "rental_uris": {"android": "https://dc.lft.to/lastmile_qr_scan", "ios": "https://dc.lft.to/lastmile_qr_scan"}, "fusion_lon": 0.0}, {"lat": 38.922496333333335, "is_disabled": 0, "type": "electric_scooter", "lon": -77.03389316666667, "bike_id": "0ceef6635803ae3b32487936a93bf401", "fusion_lat": 0.0, "name": "0ceef6635803ae3b32487936a93bf401", "is_reserved": 0, "rental_uris": {"android": "https://dc.lft.to/lastmile_qr_scan", "ios": "https://dc.lft.to/lastmile_qr_scan"}, "fusion_lon": 0.0}, {"lat": 38.94094666666667, "is_disabled": 0, "type": "electric_scooter", "lon": -77.02109266666666, "bike_id": "b15755defcf84781a45417648d65c194", "fusion_lat": 0.0, "name": "b15755defcf84781a45417648d65c194", "is_reserved": 0, "rental_uris": {"android": "https://dc.lft.to/lastmile_qr_scan", "ios": "https://dc.lft.to/lastmile_qr_scan"}, "fusion_lon": 0.0}, {"lat": 38.908352, "is_disabled": 0, "type": "electric_scooter", "lon": -77.03835483333333, "bike_id": "9547f8ba951b97bdd85277d5b09a5f5b", "fusion_lat": 0.0, "name": "9547f8ba951b97bdd85277d5b09a5f5b", "is_reserved": 0, "rental_uris": {"android": "https://dc.lft.to/lastmile_qr_scan", "ios": "https://dc.lft.to/lastmile_qr_scan"}, "fusion_lon": 0.0}, {"lat": 38.85514966666667, "is_disabled": 0, "type": "electric_bike", "lon": -77.12015183333334, "bike_id": "0c0470cdbfb6c52715b1ff29ccfcf626", "fusion_lat": 0.0, "name": "0c0470cdbfb6c52715b1ff29ccfcf626", "is_reserved": 0, "rental_uris": {"android": "https://dc.lft.to/lastmile_qr_scan", "ios": "https://dc.lft.to/lastmile_qr_scan"}, "fusion_lon": 0.0}, {"lat": 38.9438785, "is_disabled": 0, "type": "electric_scooter", "lon": -77.01984866666666, "bike_id": "3a3a79da4bd2fe9128974ad6d6fd3d34", "fusion_lat": 0.0, "name": "3a3a79da4bd2fe9128974ad6d6fd3d34", "is_reserved": 0, "rental_uris": {"android": "https://dc.lft.to/lastmile_qr_scan", "ios": "https://dc.lft.to/lastmile_qr_scan"}, "fusion_lon": 0.0}, {"lat": 38.944332, "is_disabled": 0, "type": "electric_scooter", "lon": -77.01507066666667, "bike_id": "a35712664aa03da2753580c330df1e94", "fusion_lat": 0.0, "name": "a35712664aa03da2753580c330df1e94", "is_reserved": 0, "rental_uris": {"android": "https://dc.lft.to/lastmile_qr_scan", "ios": "https://dc.lft.to/lastmile_qr_scan"}, "fusion_lon": 0.0}, {"lat": 38.91711383333333, "is_disabled": 0, "type": "electric_scooter", "lon": -77.0295405, "bike_id": "a7fe8fedeed7dd3a0bf08408ce2a0f27", "fusion_lat": 0.0, "name": "a7fe8fedeed7dd3a0bf08408ce2a0f27", "is_reserved": 0, "rental_uris": {"android": "https://dc.lft.to/lastmile_qr_scan", "ios": "https://dc.lft.to/lastmile_qr_scan"}, "fusion_lon": 0.0}, {"lat": 38.901993166666664, "is_disabled": 0, "type": "electric_scooter", "lon": -77.026963, "bike_id": "dc9dbe7768fa9fdb11e7a8fb7024133d", "fusion_lat": 0.0, "name": "dc9dbe7768fa9fdb11e7a8fb7024133d", "is_reserved": 0, "rental_uris": {"android": "https://dc.lft.to/lastmile_qr_scan", "ios": "https://dc.lft.to/lastmile_qr_scan"}, "fusion_lon": 0.0}, {"lat": 38.941222833333335, "is_disabled": 0, "type": "electric_scooter", "lon": -77.00076983333334, "bike_id": "dc50398de2ffd63f4487f8779162df8d", "fusion_lat": 0.0, "name": "dc50398de2ffd63f4487f8779162df8d", "is_reserved": 0, "rental_uris": {"android": "https://dc.lft.to/lastmile_qr_scan", "ios": "https://dc.lft.to/lastmile_qr_scan"}, "fusion_lon": 0.0}, {"lat": 38.92530933333333, "is_disabled": 0, "type": "electric_scooter", "lon": -77.026378, "bike_id": "317e321061a7c648563dc7ef7d30aa52", "fusion_lat": 0.0, "name": "317e321061a7c648563dc7ef7d30aa52", "is_reserved": 0, "rental_uris": {"android": "https://dc.lft.to/lastmile_qr_scan", "ios": "https://dc.lft.to/lastmile_qr_scan"}, "fusion_lon": 0.0}, {"lat": 38.918875666666665, "is_disabled": 0, "type": "electric_scooter", "lon": -77.044708, "bike_id": "9151cffdacd781cab6d2d0e23ec40331", "fusion_lat": 0.0, "name": "9151cffdacd781cab6d2d0e23ec40331", "is_reserved": 0, "rental_uris": {"android": "https://dc.lft.to/lastmile_qr_scan", "ios": "https://dc.lft.to/lastmile_qr_scan"}, "fusion_lon": 0.0}, {"lat": 38.916806666666666, "is_disabled": 0, "type": "electric_scooter", "lon": -77.00193333333333, "bike_id": "c4e93765956fb1c68098d188f9308248", "fusion_lat": 0.0, "name": "c4e93765956fb1c68098d188f9308248", "is_reserved": 0, "rental_uris": {"android": "https://dc.lft.to/lastmile_qr_scan", "ios": "https://dc.lft.to/lastmile_qr_scan"}, "fusion_lon": 0.0}, {"lat": 38.9588555, "is_disabled": 0, "type": "electric_bike", "lon": -76.92477066666666, "bike_id": "7ca1b02896b528d0393741f9822cdb5e", "fusion_lat": 0.0, "name": "7ca1b02896b528d0393741f9822cdb5e", "is_reserved": 0, "rental_uris": {"android": "https://dc.lft.to/lastmile_qr_scan", "ios": "https://dc.lft.to/lastmile_qr_scan"}, "fusion_lon": 0.0}, {"lat": 38.883629166666665, "is_disabled": 0, "type": "electric_scooter", "lon": -76.941535, "bike_id": "0a25b2ed512f4c214ba6e48c582caccb", "fusion_lat": 0.0, "name": "0a25b2ed512f4c214ba6e48c582caccb", "is_reserved": 0, "rental_uris": {"android": "https://dc.lft.to/lastmile_qr_scan", "ios": "https://dc.lft.to/lastmile_qr_scan"}, "fusion_lon": 0.0}, {"lat": 38.93409116666667, "is_disabled": 0, "type": "electric_scooter", "lon": -77.032947, "bike_id": "ffd21aa46c5f0015dbe94f8cd0ad81bd", "fusion_lat": 0.0, "name": "ffd21aa46c5f0015dbe94f8cd0ad81bd", "is_reserved": 0, "rental_uris": {"android": "https://dc.lft.to/lastmile_qr_scan", "ios": "https://dc.lft.to/lastmile_qr_scan"}, "fusion_lon": 0.0}, {"lat": 38.88594583333333, "is_disabled": 0, "type": "electric_scooter", "lon": -77.02204133333333, "bike_id": "a4df893393deb62f5a707650d7ca8406", "fusion_lat": 0.0, "name": "a4df893393deb62f5a707650d7ca8406", "is_reserved": 0, "rental_uris": {"android": "https://dc.lft.to/lastmile_qr_scan", "ios": "https://dc.lft.to/lastmile_qr_scan"}, "fusion_lon": 0.0}, {"lat": 38.933781833333335, "is_disabled": 0, "type": "electric_scooter", "lon": -77.03252, "bike_id": "17af4868039dbf368632f9fe0c2d4ea2", "fusion_lat": 0.0, "name": "17af4868039dbf368632f9fe0c2d4ea2", "is_reserved": 0, "rental_uris": {"android": "https://dc.lft.to/lastmile_qr_scan", "ios": "https://dc.lft.to/lastmile_qr_scan"}, "fusion_lon": 0.0}, {"lat": 38.927282, "is_disabled": 0, "type": "electric_scooter", "lon": -77.02245016666667, "bike_id": "7248d3e6159e3346ffd5c0aec6687cea", "fusion_lat": 0.0, "name": "7248d3e6159e3346ffd5c0aec6687cea", "is_reserved": 0, "rental_uris": {"android": "https://dc.lft.to/lastmile_qr_scan", "ios": "https://dc.lft.to/lastmile_qr_scan"}, "fusion_lon": 0.0}, {"lat": 38.917546, "is_disabled": 0, "type": "electric_scooter", "lon": -77.03210033333333, "bike_id": "c41c1b74ef1e652beb28d38d3d1c24e2", "fusion_lat": 0.0, "name": "c41c1b74ef1e652beb28d38d3d1c24e2", "is_reserved": 0, "rental_uris": {"android": "https://dc.lft.to/lastmile_qr_scan", "ios": "https://dc.lft.to/lastmile_qr_scan"}, "fusion_lon": 0.0}, {"lat": 38.90715933333333, "is_disabled": 0, "type": "electric_scooter", "lon": -77.04503833333334, "bike_id": "2246cb5fc45a5c09b1feec98497e4291", "fusion_lat": 0.0, "name": "2246cb5fc45a5c09b1feec98497e4291", "is_reserved": 0, "rental_uris": {"android": "https://dc.lft.to/lastmile_qr_scan", "ios": "https://dc.lft.to/lastmile_qr_scan"}, "fusion_lon": 0.0}, {"lat": 38.91677766666667, "is_disabled": 0, "type": "electric_scooter", "lon": -77.03748383333334, "bike_id": "45ca4b55cba4b7af6d596f9507183505", "fusion_lat": 0.0, "name": "45ca4b55cba4b7af6d596f9507183505", "is_reserved": 0, "rental_uris": {"android": "https://dc.lft.to/lastmile_qr_scan", "ios": "https://dc.lft.to/lastmile_qr_scan"}, "fusion_lon": 0.0}, {"lat": 38.92160716666667, "is_disabled": 0, "type": "electric_scooter", "lon": -77.046907, "bike_id": "b69daf3c6a34403dae8bd17975fdec22", "fusion_lat": 0.0, "name": "b69daf3c6a34403dae8bd17975fdec22", "is_reserved": 0, "rental_uris": {"android": "https://dc.lft.to/lastmile_qr_scan", "ios": "https://dc.lft.to/lastmile_qr_scan"}, "fusion_lon": 0.0}, {"lat": 38.931118, "is_disabled": 0, "type": "electric_scooter", "lon": -77.020896, "bike_id": "f7ce566aa1b66807775da46e4da7c5b3", "fusion_lat": 0.0, "name": "f7ce566aa1b66807775da46e4da7c5b3", "is_reserved": 0, "rental_uris": {"android": "https://dc.lft.to/lastmile_qr_scan", "ios": "https://dc.lft.to/lastmile_qr_scan"}, "fusion_lon": 0.0}, {"lat": 38.926479, "is_disabled": 0, "type": "electric_scooter", "lon": -77.01519033333334, "bike_id": "a2873214bfe0232fe30c379ea074566a", "fusion_lat": 0.0, "name": "a2873214bfe0232fe30c379ea074566a", "is_reserved": 0, "rental_uris": {"android": "https://dc.lft.to/lastmile_qr_scan", "ios": "https://dc.lft.to/lastmile_qr_scan"}, "fusion_lon": 0.0}, {"lat": 38.928896333333334, "is_disabled": 0, "type": "electric_scooter", "lon": -77.03236766666667, "bike_id": "6275506f52826220a6648179b906aea1", "fusion_lat": 0.0, "name": "6275506f52826220a6648179b906aea1", "is_reserved": 0, "rental_uris": {"android": "https://dc.lft.to/lastmile_qr_scan", "ios": "https://dc.lft.to/lastmile_qr_scan"}, "fusion_lon": 0.0}, {"lat": 38.90727166666667, "is_disabled": 0, "type": "electric_scooter", "lon": -77.02972933333334, "bike_id": "dffe2de1f076776bb60d4a9569799cbe", "fusion_lat": 0.0, "name": "dffe2de1f076776bb60d4a9569799cbe", "is_reserved": 0, "rental_uris": {"android": "https://dc.lft.to/lastmile_qr_scan", "ios": "https://dc.lft.to/lastmile_qr_scan"}, "fusion_lon": 0.0}, {"lat": 38.90279266666667, "is_disabled": 0, "type": "electric_scooter", "lon": -77.04371283333333, "bike_id": "73829ec91cfc7da4500cadb7fc4253f8", "fusion_lat": 0.0, "name": "73829ec91cfc7da4500cadb7fc4253f8", "is_reserved": 0, "rental_uris": {"android": "https://dc.lft.to/lastmile_qr_scan", "ios": "https://dc.lft.to/lastmile_qr_scan"}, "fusion_lon": 0.0}, {"lat": 38.91174433333333, "is_disabled": 0, "type": "electric_scooter", "lon": -77.03187383333334, "bike_id": "76bffbd66b76084e784438126f40b27d", "fusion_lat": 0.0, "name": "76bffbd66b76084e784438126f40b27d", "is_reserved": 0, "rental_uris": {"android": "https://dc.lft.to/lastmile_qr_scan", "ios": "https://dc.lft.to/lastmile_qr_scan"}, "fusion_lon": 0.0}, {"lat": 38.927684, "is_disabled": 0, "type": "electric_scooter", "lon": -77.02706833333333, "bike_id": "8258c47a7ac811f261b90f42ee8ae56c", "fusion_lat": 0.0, "name": "8258c47a7ac811f261b90f42ee8ae56c", "is_reserved": 0, "rental_uris": {"android": "https://dc.lft.to/lastmile_qr_scan", "ios": "https://dc.lft.to/lastmile_qr_scan"}, "fusion_lon": 0.0}, {"lat": 38.91262416666667, "is_disabled": 0, "type": "electric_bike", "lon": -77.04573516666666, "bike_id": "c46bf5fa5bcd86c506f22484ce1f6353", "fusion_lat": 0.0, "name": "c46bf5fa5bcd86c506f22484ce1f6353", "is_reserved": 0, "rental_uris": {"android": "https://dc.lft.to/lastmile_qr_scan", "ios": "https://dc.lft.to/lastmile_qr_scan"}, "fusion_lon": 0.0}, {"lat": 38.917994166666666, "is_disabled": 0, "type": "electric_bike", "lon": -77.223378, "bike_id": "b38ab9aa8cf8f0d967c60ec33dcc6eb1", "fusion_lat": 0.0, "name": "b38ab9aa8cf8f0d967c60ec33dcc6eb1", "is_reserved": 0, "rental_uris": {"android": "https://dc.lft.to/lastmile_qr_scan", "ios": "https://dc.lft.to/lastmile_qr_scan"}, "fusion_lon": 0.0}, {"lat": 38.9084865, "is_disabled": 0, "type": "electric_scooter", "lon": -77.0062505, "bike_id": "16e35c31afae5387803fe6cc9a4baa1e", "fusion_lat": 0.0, "name": "16e35c31afae5387803fe6cc9a4baa1e", "is_reserved": 0, "rental_uris": {"android": "https://dc.lft.to/lastmile_qr_scan", "ios": "https://dc.lft.to/lastmile_qr_scan"}, "fusion_lon": 0.0}, {"lat": 38.92890366666666, "is_disabled": 0, "type": "electric_scooter", "lon": -77.03325633333333, "bike_id": "65da4dc3de265ef9b329d4c7f6192584", "fusion_lat": 0.0, "name": "65da4dc3de265ef9b329d4c7f6192584", "is_reserved": 0, "rental_uris": {"android": "https://dc.lft.to/lastmile_qr_scan", "ios": "https://dc.lft.to/lastmile_qr_scan"}, "fusion_lon": 0.0}, {"lat": 38.920171833333335, "is_disabled": 0, "type": "electric_scooter", "lon": -77.0142865, "bike_id": "72b2b03e028c4d55551aed4e64858926", "fusion_lat": 0.0, "name": "72b2b03e028c4d55551aed4e64858926", "is_reserved": 0, "rental_uris": {"android": "https://dc.lft.to/lastmile_qr_scan", "ios": "https://dc.lft.to/lastmile_qr_scan"}, "fusion_lon": 0.0}, {"lat": 38.937567666666666, "is_disabled": 0, "type": "electric_scooter", "lon": -77.02138816666667, "bike_id": "227f01557d726c79da3ecbe35ea773a2", "fusion_lat": 0.0, "name": "227f01557d726c79da3ecbe35ea773a2", "is_reserved": 0, "rental_uris": {"android": "https://dc.lft.to/lastmile_qr_scan", "ios": "https://dc.lft.to/lastmile_qr_scan"}, "fusion_lon": 0.0}, {"lat": 38.896755166666665, "is_disabled": 0, "type": "electric_scooter", "lon": -77.0512915, "bike_id": "f210744a1ff3a49a8f707d14a7c90b81", "fusion_lat": 0.0, "name": "f210744a1ff3a49a8f707d14a7c90b81", "is_reserved": 0, "rental_uris": {"android": "https://dc.lft.to/lastmile_qr_scan", "ios": "https://dc.lft.to/lastmile_qr_scan"}, "fusion_lon": 0.0}, {"lat": 38.958777, "is_disabled": 0, "type": "electric_bike", "lon": -77.01034983333334, "bike_id": "9b6f1f20bef9eae0cdf0f6684b17613e", "fusion_lat": 0.0, "name": "9b6f1f20bef9eae0cdf0f6684b17613e", "is_reserved": 0, "rental_uris": {"android": "https://dc.lft.to/lastmile_qr_scan", "ios": "https://dc.lft.to/lastmile_qr_scan"}, "fusion_lon": 0.0}, {"lat": 38.91045666666667, "is_disabled": 0, "type": "electric_scooter", "lon": -77.02756716666667, "bike_id": "2c1614a880e3b37f8cf2fc7a2980267c", "fusion_lat": 0.0, "name": "2c1614a880e3b37f8cf2fc7a2980267c", "is_reserved": 0, "rental_uris": {"android": "https://dc.lft.to/lastmile_qr_scan", "ios": "https://dc.lft.to/lastmile_qr_scan"}, "fusion_lon": 0.0}, {"lat": 38.91897216666667, "is_disabled": 0, "type": "electric_scooter", "lon": -77.023938, "bike_id": "a8ad41b4ec977af03f392ff369f7b6b4", "fusion_lat": 0.0, "name": "a8ad41b4ec977af03f392ff369f7b6b4", "is_reserved": 0, "rental_uris": {"android": "https://dc.lft.to/lastmile_qr_scan", "ios": "https://dc.lft.to/lastmile_qr_scan"}, "fusion_lon": 0.0}, {"lat": 38.859073, "is_disabled": 0, "type": "electric_scooter", "lon": -76.9914945, "bike_id": "4988f7d3f6ce84507a2b12a0d745a563", "fusion_lat": 0.0, "name": "4988f7d3f6ce84507a2b12a0d745a563", "is_reserved": 0, "rental_uris": {"android": "https://dc.lft.to/lastmile_qr_scan", "ios": "https://dc.lft.to/lastmile_qr_scan"}, "fusion_lon": 0.0}, {"lat": 38.90860333333333, "is_disabled": 0, "type": "electric_scooter", "lon": -76.991636, "bike_id": "0c137339b670d3ce5f2e2fcaf77c63be", "fusion_lat": 0.0, "name": "0c137339b670d3ce5f2e2fcaf77c63be", "is_reserved": 0, "rental_uris": {"android": "https://dc.lft.to/lastmile_qr_scan", "ios": "https://dc.lft.to/lastmile_qr_scan"}, "fusion_lon": 0.0}, {"lat": 38.8911255, "is_disabled": 0, "type": "electric_scooter", "lon": -76.94386083333333, "bike_id": "87ab73cb87c6970dd735a9c0f16656e0", "fusion_lat": 0.0, "name": "87ab73cb87c6970dd735a9c0f16656e0", "is_reserved": 0, "rental_uris": {"android": "https://dc.lft.to/lastmile_qr_scan", "ios": "https://dc.lft.to/lastmile_qr_scan"}, "fusion_lon": 0.0}, {"lat": 38.93887216666667, "is_disabled": 0, "type": "electric_bike", "lon": -76.9949945, "bike_id": "6a38be3428a0923b4b3a94d63444b859", "fusion_lat": 0.0, "name": "6a38be3428a0923b4b3a94d63444b859", "is_reserved": 0, "rental_uris": {"android": "https://dc.lft.to/lastmile_qr_scan", "ios": "https://dc.lft.to/lastmile_qr_scan"}, "fusion_lon": 0.0}, {"lat": 38.952722333333334, "is_disabled": 0, "type": "electric_scooter", "lon": -77.06886233333333, "bike_id": "d865754a01a5af3d69e2a31787eebbac", "fusion_lat": 0.0, "name": "d865754a01a5af3d69e2a31787eebbac", "is_reserved": 0, "rental_uris": {"android": "https://dc.lft.to/lastmile_qr_scan", "ios": "https://dc.lft.to/lastmile_qr_scan"}, "fusion_lon": 0.0}, {"lat": 38.90038166666667, "is_disabled": 0, "type": "electric_scooter", "lon": -76.9938465, "bike_id": "faf54e1f421281b6e252131c109125a1", "fusion_lat": 0.0, "name": "faf54e1f421281b6e252131c109125a1", "is_reserved": 0, "rental_uris": {"android": "https://dc.lft.to/lastmile_qr_scan", "ios": "https://dc.lft.to/lastmile_qr_scan"}, "fusion_lon": 0.0}, {"lat": 38.8663905, "is_disabled": 0, "type": "electric_scooter", "lon": -76.988869, "bike_id": "7551675722fca82fcae6449ec295a711", "fusion_lat": 0.0, "name": "7551675722fca82fcae6449ec295a711", "is_reserved": 0, "rental_uris": {"android": "https://dc.lft.to/lastmile_qr_scan", "ios": "https://dc.lft.to/lastmile_qr_scan"}, "fusion_lon": 0.0}, {"lat": 38.899074, "is_disabled": 0, "type": "electric_scooter", "lon": -76.93355816666667, "bike_id": "41913d7e2691970043a34e3c977c82e1", "fusion_lat": 0.0, "name": "41913d7e2691970043a34e3c977c82e1", "is_reserved": 0, "rental_uris": {"android": "https://dc.lft.to/lastmile_qr_scan", "ios": "https://dc.lft.to/lastmile_qr_scan"}, "fusion_lon": 0.0}, {"lat": 39.05202083333333, "is_disabled": 0, "type": "electric_bike", "lon": -77.10912233333333, "bike_id": "86af9458e109f5d562910ce34209835f", "fusion_lat": 0.0, "name": "86af9458e109f5d562910ce34209835f", "is_reserved": 0, "rental_uris": {"android": "https://dc.lft.to/lastmile_qr_scan", "ios": "https://dc.lft.to/lastmile_qr_scan"}, "fusion_lon": 0.0}, {"lat": 38.900341166666664, "is_disabled": 0, "type": "electric_scooter", "lon": -77.00199433333333, "bike_id": "c08e970187d6c32fa51fbeae0a51eb09", "fusion_lat": 0.0, "name": "c08e970187d6c32fa51fbeae0a51eb09", "is_reserved": 0, "rental_uris": {"android": "https://dc.lft.to/lastmile_qr_scan", "ios": "https://dc.lft.to/lastmile_qr_scan"}, "fusion_lon": 0.0}, {"lat": 38.896209999999996, "is_disabled": 0, "type": "electric_scooter", "lon": -77.0450645, "bike_id": "101da95b890a6a85168e2afbd31be4e8", "fusion_lat": 0.0, "name": "101da95b890a6a85168e2afbd31be4e8", "is_reserved": 0, "rental_uris": {"android": "https://dc.lft.to/lastmile_qr_scan", "ios": "https://dc.lft.to/lastmile_qr_scan"}, "fusion_lon": 0.0}, {"lat": 38.91546983333333, "is_disabled": 0, "type": "electric_scooter", "lon": -77.05321116666667, "bike_id": "7c50af1dca3874245acd32212816161b", "fusion_lat": 0.0, "name": "7c50af1dca3874245acd32212816161b", "is_reserved": 0, "rental_uris": {"android": "https://dc.lft.to/lastmile_qr_scan", "ios": "https://dc.lft.to/lastmile_qr_scan"}, "fusion_lon": 0.0}, {"lat": 38.89735683333333, "is_disabled": 0, "type": "electric_scooter", "lon": -77.00782666666667, "bike_id": "e02d5f7580a2649831958ed4a0a83845", "fusion_lat": 0.0, "name": "e02d5f7580a2649831958ed4a0a83845", "is_reserved": 0, "rental_uris": {"android": "https://dc.lft.to/lastmile_qr_scan", "ios": "https://dc.lft.to/lastmile_qr_scan"}, "fusion_lon": 0.0}, {"lat": 38.922861833333336, "is_disabled": 0, "type": "electric_scooter", "lon": -77.04260583333334, "bike_id": "b3d438018cd3084eb40cae9c111aa2cc", "fusion_lat": 0.0, "name": "b3d438018cd3084eb40cae9c111aa2cc", "is_reserved": 0, "rental_uris": {"android": "https://dc.lft.to/lastmile_qr_scan", "ios": "https://dc.lft.to/lastmile_qr_scan"}, "fusion_lon": 0.0}, {"lat": 38.905226666666664, "is_disabled": 0, "type": "electric_scooter", "lon": -77.0624225, "bike_id": "85030fa55063cd0596b18604debd318a", "fusion_lat": 0.0, "name": "85030fa55063cd0596b18604debd318a", "is_reserved": 0, "rental_uris": {"android": "https://dc.lft.to/lastmile_qr_scan", "ios": "https://dc.lft.to/lastmile_qr_scan"}, "fusion_lon": 0.0}, {"lat": 38.933227, "is_disabled": 0, "type": "electric_scooter", "lon": -77.043679, "bike_id": "430209ef6d9a653677ede33cf2d4a6f8", "fusion_lat": 0.0, "name": "430209ef6d9a653677ede33cf2d4a6f8", "is_reserved": 0, "rental_uris": {"android": "https://dc.lft.to/lastmile_qr_scan", "ios": "https://dc.lft.to/lastmile_qr_scan"}, "fusion_lon": 0.0}, {"lat": 38.90231433333334, "is_disabled": 0, "type": "electric_scooter", "lon": -77.06048283333334, "bike_id": "b88800333946a6dec0e30e6cc75b4db7", "fusion_lat": 0.0, "name": "b88800333946a6dec0e30e6cc75b4db7", "is_reserved": 0, "rental_uris": {"android": "https://dc.lft.to/lastmile_qr_scan", "ios": "https://dc.lft.to/lastmile_qr_scan"}, "fusion_lon": 0.0}, {"lat": 38.919512833333336, "is_disabled": 0, "type": "electric_scooter", "lon": -76.98076116666667, "bike_id": "71d8a3fac154133cc010e7e99710f37f", "fusion_lat": 0.0, "name": "71d8a3fac154133cc010e7e99710f37f", "is_reserved": 0, "rental_uris": {"android": "https://dc.lft.to/lastmile_qr_scan", "ios": "https://dc.lft.to/lastmile_qr_scan"}, "fusion_lon": 0.0}, {"lat": 38.85571016666667, "is_disabled": 0, "type": "electric_bike", "lon": -77.111455, "bike_id": "4faee9fe85461e12bbaeb4b5b4af0bd8", "fusion_lat": 0.0, "name": "4faee9fe85461e12bbaeb4b5b4af0bd8", "is_reserved": 0, "rental_uris": {"android": "https://dc.lft.to/lastmile_qr_scan", "ios": "https://dc.lft.to/lastmile_qr_scan"}, "fusion_lon": 0.0}, {"lat": 38.91467266666667, "is_disabled": 0, "type": "electric_scooter", "lon": -77.00367733333333, "bike_id": "db157481d0e0e7347c33224a34addb60", "fusion_lat": 0.0, "name": "db157481d0e0e7347c33224a34addb60", "is_reserved": 0, "rental_uris": {"android": "https://dc.lft.to/lastmile_qr_scan", "ios": "https://dc.lft.to/lastmile_qr_scan"}, "fusion_lon": 0.0}, {"lat": 38.98647716666667, "is_disabled": 0, "type": "electric_bike", "lon": -77.0563235, "bike_id": "f4e17c1b666d86983f366eff2cb99817", "fusion_lat": 0.0, "name": "f4e17c1b666d86983f366eff2cb99817", "is_reserved": 0, "rental_uris": {"android": "https://dc.lft.to/lastmile_qr_scan", "ios": "https://dc.lft.to/lastmile_qr_scan"}, "fusion_lon": 0.0}, {"lat": 38.90089583333334, "is_disabled": 0, "type": "electric_scooter", "lon": -76.9949575, "bike_id": "b28b2ebd393c41a09c67d1c33683a19e", "fusion_lat": 0.0, "name": "b28b2ebd393c41a09c67d1c33683a19e", "is_reserved": 0, "rental_uris": {"android": "https://dc.lft.to/lastmile_qr_scan", "ios": "https://dc.lft.to/lastmile_qr_scan"}, "fusion_lon": 0.0}, {"lat": 38.844237166666666, "is_disabled": 0, "type": "electric_scooter", "lon": -76.997827, "bike_id": "08d4cf107f7c09d82a6f0dcb1d55806b", "fusion_lat": 0.0, "name": "08d4cf107f7c09d82a6f0dcb1d55806b", "is_reserved": 0, "rental_uris": {"android": "https://dc.lft.to/lastmile_qr_scan", "ios": "https://dc.lft.to/lastmile_qr_scan"}, "fusion_lon": 0.0}, {"lat": 38.914513666666664, "is_disabled": 0, "type": "electric_scooter", "lon": -77.03222666666667, "bike_id": "302af019637fc0c924599e60554aeeac", "fusion_lat": 0.0, "name": "302af019637fc0c924599e60554aeeac", "is_reserved": 0, "rental_uris": {"android": "https://dc.lft.to/lastmile_qr_scan", "ios": "https://dc.lft.to/lastmile_qr_scan"}, "fusion_lon": 0.0}, {"lat": 38.92186, "is_disabled": 0, "type": "electric_scooter", "lon": -77.03982833333333, "bike_id": "951198282001919066decb8562fe668f", "fusion_lat": 0.0, "name": "951198282001919066decb8562fe668f", "is_reserved": 0, "rental_uris": {"android": "https://dc.lft.to/lastmile_qr_scan", "ios": "https://dc.lft.to/lastmile_qr_scan"}, "fusion_lon": 0.0}, {"lat": 38.9247835, "is_disabled": 0, "type": "electric_scooter", "lon": -77.02836183333334, "bike_id": "7fa964ff40082c9780bfb2b31af6fc73", "fusion_lat": 0.0, "name": "7fa964ff40082c9780bfb2b31af6fc73", "is_reserved": 0, "rental_uris": {"android": "https://dc.lft.to/lastmile_qr_scan", "ios": "https://dc.lft.to/lastmile_qr_scan"}, "fusion_lon": 0.0}, {"lat": 38.919203, "is_disabled": 0, "type": "electric_scooter", "lon": -77.03389783333333, "bike_id": "76311d1e744c06e9308dfa06451eb480", "fusion_lat": 0.0, "name": "76311d1e744c06e9308dfa06451eb480", "is_reserved": 0, "rental_uris": {"android": "https://dc.lft.to/lastmile_qr_scan", "ios": "https://dc.lft.to/lastmile_qr_scan"}, "fusion_lon": 0.0}, {"lat": 38.827793666666665, "is_disabled": 0, "type": "electric_bike", "lon": -77.0091535, "bike_id": "4fcf69c6f94d9dba335a897790fdf754", "fusion_lat": 0.0, "name": "4fcf69c6f94d9dba335a897790fdf754", "is_reserved": 0, "rental_uris": {"android": "https://dc.lft.to/lastmile_qr_scan", "ios": "https://dc.lft.to/lastmile_qr_scan"}, "fusion_lon": 0.0}, {"lat": 38.913085, "is_disabled": 0, "type": "electric_scooter", "lon": -77.02402633333334, "bike_id": "eb10361f13097a9d85a5254c356d21e4", "fusion_lat": 0.0, "name": "eb10361f13097a9d85a5254c356d21e4", "is_reserved": 0, "rental_uris": {"android": "https://dc.lft.to/lastmile_qr_scan", "ios": "https://dc.lft.to/lastmile_qr_scan"}, "fusion_lon": 0.0}, {"lat": 38.907349833333335, "is_disabled": 0, "type": "electric_scooter", "lon": -77.034622, "bike_id": "9c51a4d61e50cdb73146501292b748a0", "fusion_lat": 0.0, "name": "9c51a4d61e50cdb73146501292b748a0", "is_reserved": 0, "rental_uris": {"android": "https://dc.lft.to/lastmile_qr_scan", "ios": "https://dc.lft.to/lastmile_qr_scan"}, "fusion_lon": 0.0}, {"lat": 38.90353866666667, "is_disabled": 0, "type": "electric_scooter", "lon": -77.04491233333333, "bike_id": "7233bd012b8225ad92bbadc9d6efd456", "fusion_lat": 0.0, "name": "7233bd012b8225ad92bbadc9d6efd456", "is_reserved": 0, "rental_uris": {"android": "https://dc.lft.to/lastmile_qr_scan", "ios": "https://dc.lft.to/lastmile_qr_scan"}, "fusion_lon": 0.0}, {"lat": 38.902597, "is_disabled": 0, "type": "electric_scooter", "lon": -77.03970766666667, "bike_id": "18a4e4270ca57b70112f4a76d2ff0c89", "fusion_lat": 0.0, "name": "18a4e4270ca57b70112f4a76d2ff0c89", "is_reserved": 0, "rental_uris": {"android": "https://dc.lft.to/lastmile_qr_scan", "ios": "https://dc.lft.to/lastmile_qr_scan"}, "fusion_lon": 0.0}, {"lat": 38.88147083333333, "is_disabled": 0, "type": "electric_scooter", "lon": -77.027394, "bike_id": "6ad2f4091c2e05175edaa9bf755a23e6", "fusion_lat": 0.0, "name": "6ad2f4091c2e05175edaa9bf755a23e6", "is_reserved": 0, "rental_uris": {"android": "https://dc.lft.to/lastmile_qr_scan", "ios": "https://dc.lft.to/lastmile_qr_scan"}, "fusion_lon": 0.0}, {"lat": 38.933577166666666, "is_disabled": 0, "type": "electric_bike", "lon": -77.09962416666667, "bike_id": "cbc39d50b9133123e08e1bd6a98bcd06", "fusion_lat": 0.0, "name": "cbc39d50b9133123e08e1bd6a98bcd06", "is_reserved": 0, "rental_uris": {"android": "https://dc.lft.to/lastmile_qr_scan", "ios": "https://dc.lft.to/lastmile_qr_scan"}, "fusion_lon": 0.0}, {"lat": 38.9187055, "is_disabled": 0, "type": "electric_scooter", "lon": -77.0121675, "bike_id": "459293f5e5bf83b8ee25c568d4f33523", "fusion_lat": 0.0, "name": "459293f5e5bf83b8ee25c568d4f33523", "is_reserved": 0, "rental_uris": {"android": "https://dc.lft.to/lastmile_qr_scan", "ios": "https://dc.lft.to/lastmile_qr_scan"}, "fusion_lon": 0.0}, {"lat": 38.90072416666667, "is_disabled": 0, "type": "electric_scooter", "lon": -77.0020905, "bike_id": "26ab4b26603b1b1ce81399c5f6592e86", "fusion_lat": 0.0, "name": "26ab4b26603b1b1ce81399c5f6592e86", "is_reserved": 0, "rental_uris": {"android": "https://dc.lft.to/lastmile_qr_scan", "ios": "https://dc.lft.to/lastmile_qr_scan"}, "fusion_lon": 0.0}, {"lat": 38.957862666666664, "is_disabled": 0, "type": "electric_bike", "lon": -76.9797215, "bike_id": "24a06466d079d9127e51a07ef38c3903", "fusion_lat": 0.0, "name": "24a06466d079d9127e51a07ef38c3903", "is_reserved": 0, "rental_uris": {"android": "https://dc.lft.to/lastmile_qr_scan", "ios": "https://dc.lft.to/lastmile_qr_scan"}, "fusion_lon": 0.0}, {"lat": 38.909712, "is_disabled": 0, "type": "electric_scooter", "lon": -77.04620533333333, "bike_id": "fbf64872030f5ac249ee4a35bbd1b0bc", "fusion_lat": 0.0, "name": "fbf64872030f5ac249ee4a35bbd1b0bc", "is_reserved": 0, "rental_uris": {"android": "https://dc.lft.to/lastmile_qr_scan", "ios": "https://dc.lft.to/lastmile_qr_scan"}, "fusion_lon": 0.0}, {"lat": 38.90512483333333, "is_disabled": 0, "type": "electric_scooter", "lon": -77.06183983333334, "bike_id": "ecc984bd46378b3ce9907db062e4924f", "fusion_lat": 0.0, "name": "ecc984bd46378b3ce9907db062e4924f", "is_reserved": 0, "rental_uris": {"android": "https://dc.lft.to/lastmile_qr_scan", "ios": "https://dc.lft.to/lastmile_qr_scan"}, "fusion_lon": 0.0}, {"lat": 38.9310275, "is_disabled": 0, "type": "electric_scooter", "lon": -77.024712, "bike_id": "16527cc03719656082df7367388cca7a", "fusion_lat": 0.0, "name": "16527cc03719656082df7367388cca7a", "is_reserved": 0, "rental_uris": {"android": "https://dc.lft.to/lastmile_qr_scan", "ios": "https://dc.lft.to/lastmile_qr_scan"}, "fusion_lon": 0.0}, {"lat": 38.9373325, "is_disabled": 0, "type": "electric_scooter", "lon": -77.03616783333334, "bike_id": "37ede39d783013018734175161131e5a", "fusion_lat": 0.0, "name": "37ede39d783013018734175161131e5a", "is_reserved": 0, "rental_uris": {"android": "https://dc.lft.to/lastmile_qr_scan", "ios": "https://dc.lft.to/lastmile_qr_scan"}, "fusion_lon": 0.0}, {"lat": 38.911162166666664, "is_disabled": 0, "type": "electric_scooter", "lon": -77.04363, "bike_id": "ffe5403dd43189a7d0e817e6ba7c23d5", "fusion_lat": 0.0, "name": "ffe5403dd43189a7d0e817e6ba7c23d5", "is_reserved": 0, "rental_uris": {"android": "https://dc.lft.to/lastmile_qr_scan", "ios": "https://dc.lft.to/lastmile_qr_scan"}, "fusion_lon": 0.0}, {"lat": 38.851885833333334, "is_disabled": 0, "type": "electric_scooter", "lon": -76.97619716666667, "bike_id": "a7f373c28ddd2a9615978251e4530799", "fusion_lat": 0.0, "name": "a7f373c28ddd2a9615978251e4530799", "is_reserved": 0, "rental_uris": {"android": "https://dc.lft.to/lastmile_qr_scan", "ios": "https://dc.lft.to/lastmile_qr_scan"}, "fusion_lon": 0.0}, {"lat": 38.84426783333333, "is_disabled": 0, "type": "electric_scooter", "lon": -76.99657916666666, "bike_id": "bdcec9260dd0432ef5554556ab7dc74c", "fusion_lat": 0.0, "name": "bdcec9260dd0432ef5554556ab7dc74c", "is_reserved": 0, "rental_uris": {"android": "https://dc.lft.to/lastmile_qr_scan", "ios": "https://dc.lft.to/lastmile_qr_scan"}, "fusion_lon": 0.0}, {"lat": 38.8906865, "is_disabled": 0, "type": "electric_scooter", "lon": -76.9883735, "bike_id": "92d117cbc48fb40d81282c0f994bd1e3", "fusion_lat": 0.0, "name": "92d117cbc48fb40d81282c0f994bd1e3", "is_reserved": 0, "rental_uris": {"android": "https://dc.lft.to/lastmile_qr_scan", "ios": "https://dc.lft.to/lastmile_qr_scan"}, "fusion_lon": 0.0}, {"lat": 38.90113, "is_disabled": 0, "type": "electric_scooter", "lon": -77.0436335, "bike_id": "d4f3cfd9d05b808f9c0b6d5d63d32efb", "fusion_lat": 0.0, "name": "d4f3cfd9d05b808f9c0b6d5d63d32efb", "is_reserved": 0, "rental_uris": {"android": "https://dc.lft.to/lastmile_qr_scan", "ios": "https://dc.lft.to/lastmile_qr_scan"}, "fusion_lon": 0.0}, {"lat": 38.90067066666667, "is_disabled": 0, "type": "electric_scooter", "lon": -77.0490035, "bike_id": "491d700fc45f3f7315c3461850d598d4", "fusion_lat": 0.0, "name": "491d700fc45f3f7315c3461850d598d4", "is_reserved": 0, "rental_uris": {"android": "https://dc.lft.to/lastmile_qr_scan", "ios": "https://dc.lft.to/lastmile_qr_scan"}, "fusion_lon": 0.0}, {"lat": 38.936542, "is_disabled": 0, "type": "electric_bike", "lon": -76.952235, "bike_id": "0f03a6c8bab353a4b00552c6dbd35727", "fusion_lat": 0.0, "name": "0f03a6c8bab353a4b00552c6dbd35727", "is_reserved": 0, "rental_uris": {"android": "https://dc.lft.to/lastmile_qr_scan", "ios": "https://dc.lft.to/lastmile_qr_scan"}, "fusion_lon": 0.0}, {"lat": 38.945523666666666, "is_disabled": 0, "type": "electric_bike", "lon": -76.89536316666667, "bike_id": "51e7cd5b96c72ecb2d675f442b329e5e", "fusion_lat": 0.0, "name": "51e7cd5b96c72ecb2d675f442b329e5e", "is_reserved": 0, "rental_uris": {"android": "https://dc.lft.to/lastmile_qr_scan", "ios": "https://dc.lft.to/lastmile_qr_scan"}, "fusion_lon": 0.0}, {"lat": 38.99250716666667, "is_disabled": 0, "type": "electric_scooter", "lon": -77.03656716666667, "bike_id": "c7a7544b68e75ed6613a7d7b15ddfe92", "fusion_lat": 0.0, "name": "c7a7544b68e75ed6613a7d7b15ddfe92", "is_reserved": 0, "rental_uris": {"android": "https://dc.lft.to/lastmile_qr_scan", "ios": "https://dc.lft.to/lastmile_qr_scan"}, "fusion_lon": 0.0}, {"lat": 38.857155, "is_disabled": 0, "type": "electric_scooter", "lon": -76.98674916666667, "bike_id": "37fadf1e0812869c9527a0f1929b0874", "fusion_lat": 0.0, "name": "37fadf1e0812869c9527a0f1929b0874", "is_reserved": 0, "rental_uris": {"android": "https://dc.lft.to/lastmile_qr_scan", "ios": "https://dc.lft.to/lastmile_qr_scan"}, "fusion_lon": 0.0}, {"lat": 39.03427283333333, "is_disabled": 0, "type": "electric_bike", "lon": -77.04328433333333, "bike_id": "e0462f5ac108a6f0873c2fd5eaf606aa", "fusion_lat": 0.0, "name": "e0462f5ac108a6f0873c2fd5eaf606aa", "is_reserved": 0, "rental_uris": {"android": "https://dc.lft.to/lastmile_qr_scan", "ios": "https://dc.lft.to/lastmile_qr_scan"}, "fusion_lon": 0.0}, {"lat": 38.8934135, "is_disabled": 0, "type": "electric_scooter", "lon": -77.04143283333333, "bike_id": "54701a83ac88a35c62535e612f039fff", "fusion_lat": 0.0, "name": "54701a83ac88a35c62535e612f039fff", "is_reserved": 0, "rental_uris": {"android": "https://dc.lft.to/lastmile_qr_scan", "ios": "https://dc.lft.to/lastmile_qr_scan"}, "fusion_lon": 0.0}, {"lat": 38.9258095, "is_disabled": 0, "type": "electric_scooter", "lon": -77.04410266666666, "bike_id": "2d324eaceffa699f0238df9fbae76ebb", "fusion_lat": 0.0, "name": "2d324eaceffa699f0238df9fbae76ebb", "is_reserved": 0, "rental_uris": {"android": "https://dc.lft.to/lastmile_qr_scan", "ios": "https://dc.lft.to/lastmile_qr_scan"}, "fusion_lon": 0.0}, {"lat": 38.9147955, "is_disabled": 0, "type": "electric_scooter", "lon": -76.98361633333333, "bike_id": "57492552623cad0e044947023dc38ec0", "fusion_lat": 0.0, "name": "57492552623cad0e044947023dc38ec0", "is_reserved": 0, "rental_uris": {"android": "https://dc.lft.to/lastmile_qr_scan", "ios": "https://dc.lft.to/lastmile_qr_scan"}, "fusion_lon": 0.0}, {"lat": 38.93199216666667, "is_disabled": 0, "type": "electric_scooter", "lon": -77.04428783333333, "bike_id": "2993cdb32811402fc9b5b455fbcb8607", "fusion_lat": 0.0, "name": "2993cdb32811402fc9b5b455fbcb8607", "is_reserved": 0, "rental_uris": {"android": "https://dc.lft.to/lastmile_qr_scan", "ios": "https://dc.lft.to/lastmile_qr_scan"}, "fusion_lon": 0.0}, {"lat": 38.87625516666667, "is_disabled": 0, "type": "electric_scooter", "lon": -76.96527083333334, "bike_id": "e9cc9fae2802f574133d2d34d03d44ba", "fusion_lat": 0.0, "name": "e9cc9fae2802f574133d2d34d03d44ba", "is_reserved": 0, "rental_uris": {"android": "https://dc.lft.to/lastmile_qr_scan", "ios": "https://dc.lft.to/lastmile_qr_scan"}, "fusion_lon": 0.0}, {"lat": 38.914163, "is_disabled": 0, "type": "electric_scooter", "lon": -77.0241145, "bike_id": "775dd57ddd0fe26d9453b58f2bd46942", "fusion_lat": 0.0, "name": "775dd57ddd0fe26d9453b58f2bd46942", "is_reserved": 0, "rental_uris": {"android": "https://dc.lft.to/lastmile_qr_scan", "ios": "https://dc.lft.to/lastmile_qr_scan"}, "fusion_lon": 0.0}, {"lat": 39.034251833333336, "is_disabled": 0, "type": "electric_bike", "lon": -77.04250233333333, "bike_id": "0999d3c47a31e200caf36926368d9b9b", "fusion_lat": 0.0, "name": "0999d3c47a31e200caf36926368d9b9b", "is_reserved": 0, "rental_uris": {"android": "https://dc.lft.to/lastmile_qr_scan", "ios": "https://dc.lft.to/lastmile_qr_scan"}, "fusion_lon": 0.0}, {"lat": 38.897502833333334, "is_disabled": 0, "type": "electric_scooter", "lon": -77.05497883333334, "bike_id": "c7e20d24aa8c3d9c15cf61fed1560710", "fusion_lat": 0.0, "name": "c7e20d24aa8c3d9c15cf61fed1560710", "is_reserved": 0, "rental_uris": {"android": "https://dc.lft.to/lastmile_qr_scan", "ios": "https://dc.lft.to/lastmile_qr_scan"}, "fusion_lon": 0.0}, {"lat": 38.922063, "is_disabled": 0, "type": "electric_bike", "lon": -76.98793233333333, "bike_id": "ddd875be3aacb151161a448a00d610c4", "fusion_lat": 0.0, "name": "ddd875be3aacb151161a448a00d610c4", "is_reserved": 0, "rental_uris": {"android": "https://dc.lft.to/lastmile_qr_scan", "ios": "https://dc.lft.to/lastmile_qr_scan"}, "fusion_lon": 0.0}, {"lat": 38.900256166666665, "is_disabled": 0, "type": "electric_scooter", "lon": -77.00693566666666, "bike_id": "d02dd3f32dfecf7916e53d595a5a2f8c", "fusion_lat": 0.0, "name": "d02dd3f32dfecf7916e53d595a5a2f8c", "is_reserved": 0, "rental_uris": {"android": "https://dc.lft.to/lastmile_qr_scan", "ios": "https://dc.lft.to/lastmile_qr_scan"}, "fusion_lon": 0.0}, {"lat": 38.90222933333333, "is_disabled": 0, "type": "electric_scooter", "lon": -77.05902, "bike_id": "628459a3414c75af35e814fcd9e51e5c", "fusion_lat": 0.0, "name": "628459a3414c75af35e814fcd9e51e5c", "is_reserved": 0, "rental_uris": {"android": "https://dc.lft.to/lastmile_qr_scan", "ios": "https://dc.lft.to/lastmile_qr_scan"}, "fusion_lon": 0.0}, {"lat": 38.917432166666664, "is_disabled": 0, "type": "electric_scooter", "lon": -77.03600316666666, "bike_id": "3a03611d08bd2d76676e091717b770a1", "fusion_lat": 0.0, "name": "3a03611d08bd2d76676e091717b770a1", "is_reserved": 0, "rental_uris": {"android": "https://dc.lft.to/lastmile_qr_scan", "ios": "https://dc.lft.to/lastmile_qr_scan"}, "fusion_lon": 0.0}, {"lat": 38.8650485, "is_disabled": 0, "type": "electric_scooter", "lon": -76.99004433333333, "bike_id": "c52951b978498d1daff0cf5498fb0ae4", "fusion_lat": 0.0, "name": "c52951b978498d1daff0cf5498fb0ae4", "is_reserved": 0, "rental_uris": {"android": "https://dc.lft.to/lastmile_qr_scan", "ios": "https://dc.lft.to/lastmile_qr_scan"}, "fusion_lon": 0.0}, {"lat": 38.89220733333333, "is_disabled": 0, "type": "electric_scooter", "lon": -76.932989, "bike_id": "f9c5a9b70e00ab70fa834411cb4c063a", "fusion_lat": 0.0, "name": "f9c5a9b70e00ab70fa834411cb4c063a", "is_reserved": 0, "rental_uris": {"android": "https://dc.lft.to/lastmile_qr_scan", "ios": "https://dc.lft.to/lastmile_qr_scan"}, "fusion_lon": 0.0}, {"lat": 38.900319333333336, "is_disabled": 0, "type": "electric_scooter", "lon": -77.03308816666667, "bike_id": "ead796d2a07d94ead4fb402d5d7e108d", "fusion_lat": 0.0, "name": "ead796d2a07d94ead4fb402d5d7e108d", "is_reserved": 0, "rental_uris": {"android": "https://dc.lft.to/lastmile_qr_scan", "ios": "https://dc.lft.to/lastmile_qr_scan"}, "fusion_lon": 0.0}, {"lat": 38.915689, "is_disabled": 0, "type": "electric_scooter", "lon": -77.02292166666666, "bike_id": "7f945dc85103b3cd7944ae7196c9a981", "fusion_lat": 0.0, "name": "7f945dc85103b3cd7944ae7196c9a981", "is_reserved": 0, "rental_uris": {"android": "https://dc.lft.to/lastmile_qr_scan", "ios": "https://dc.lft.to/lastmile_qr_scan"}, "fusion_lon": 0.0}, {"lat": 38.90089733333333, "is_disabled": 0, "type": "electric_scooter", "lon": -77.0560185, "bike_id": "48819549c0227dd2e8fd57310a5e23a8", "fusion_lat": 0.0, "name": "48819549c0227dd2e8fd57310a5e23a8", "is_reserved": 0, "rental_uris": {"android": "https://dc.lft.to/lastmile_qr_scan", "ios": "https://dc.lft.to/lastmile_qr_scan"}, "fusion_lon": 0.0}, {"lat": 38.91365533333333, "is_disabled": 0, "type": "electric_scooter", "lon": -77.03363366666666, "bike_id": "c93eda91b5364e0f19ba742f3bc84f8f", "fusion_lat": 0.0, "name": "c93eda91b5364e0f19ba742f3bc84f8f", "is_reserved": 0, "rental_uris": {"android": "https://dc.lft.to/lastmile_qr_scan", "ios": "https://dc.lft.to/lastmile_qr_scan"}, "fusion_lon": 0.0}, {"lat": 38.9049105, "is_disabled": 0, "type": "electric_scooter", "lon": -77.0486685, "bike_id": "6e9b441c22a85fe1f25b1158b8b78c0d", "fusion_lat": 0.0, "name": "6e9b441c22a85fe1f25b1158b8b78c0d", "is_reserved": 0, "rental_uris": {"android": "https://dc.lft.to/lastmile_qr_scan", "ios": "https://dc.lft.to/lastmile_qr_scan"}, "fusion_lon": 0.0}, {"lat": 38.9143695, "is_disabled": 0, "type": "electric_scooter", "lon": -77.04493816666667, "bike_id": "484402b40d99ec8202397353d5aba396", "fusion_lat": 0.0, "name": "484402b40d99ec8202397353d5aba396", "is_reserved": 0, "rental_uris": {"android": "https://dc.lft.to/lastmile_qr_scan", "ios": "https://dc.lft.to/lastmile_qr_scan"}, "fusion_lon": 0.0}, {"lat": 38.95072616666667, "is_disabled": 0, "type": "electric_scooter", "lon": -77.02717066666666, "bike_id": "f3c3ea2481461c4c6308dbb7bc1ded3c", "fusion_lat": 0.0, "name": "f3c3ea2481461c4c6308dbb7bc1ded3c", "is_reserved": 0, "rental_uris": {"android": "https://dc.lft.to/lastmile_qr_scan", "ios": "https://dc.lft.to/lastmile_qr_scan"}, "fusion_lon": 0.0}, {"lat": 38.914185833333335, "is_disabled": 0, "type": "electric_scooter", "lon": -77.01616366666667, "bike_id": "5796e200699cf8e05de6a1587a81de3f", "fusion_lat": 0.0, "name": "5796e200699cf8e05de6a1587a81de3f", "is_reserved": 0, "rental_uris": {"android": "https://dc.lft.to/lastmile_qr_scan", "ios": "https://dc.lft.to/lastmile_qr_scan"}, "fusion_lon": 0.0}, {"lat": 38.88647683333333, "is_disabled": 0, "type": "electric_scooter", "lon": -77.02161233333334, "bike_id": "cf4e02135b84e3b01eba7113874781b6", "fusion_lat": 0.0, "name": "cf4e02135b84e3b01eba7113874781b6", "is_reserved": 0, "rental_uris": {"android": "https://dc.lft.to/lastmile_qr_scan", "ios": "https://dc.lft.to/lastmile_qr_scan"}, "fusion_lon": 0.0}, {"lat": 38.921608166666665, "is_disabled": 0, "type": "electric_scooter", "lon": -77.03514716666666, "bike_id": "351f63ec09c5bd4929955e3369912d32", "fusion_lat": 0.0, "name": "351f63ec09c5bd4929955e3369912d32", "is_reserved": 0, "rental_uris": {"android": "https://dc.lft.to/lastmile_qr_scan", "ios": "https://dc.lft.to/lastmile_qr_scan"}, "fusion_lon": 0.0}, {"lat": 38.928018, "is_disabled": 0, "type": "electric_scooter", "lon": -77.054353, "bike_id": "f883dda7ce0fd5804cf45db6ef203668", "fusion_lat": 0.0, "name": "f883dda7ce0fd5804cf45db6ef203668", "is_reserved": 0, "rental_uris": {"android": "https://dc.lft.to/lastmile_qr_scan", "ios": "https://dc.lft.to/lastmile_qr_scan"}, "fusion_lon": 0.0}, {"lat": 38.85583316666666, "is_disabled": 0, "type": "electric_bike", "lon": -77.11321966666667, "bike_id": "b9697f95682d39064d83d52a018817a9", "fusion_lat": 0.0, "name": "b9697f95682d39064d83d52a018817a9", "is_reserved": 0, "rental_uris": {"android": "https://dc.lft.to/lastmile_qr_scan", "ios": "https://dc.lft.to/lastmile_qr_scan"}, "fusion_lon": 0.0}, {"lat": 38.912473166666665, "is_disabled": 0, "type": "electric_scooter", "lon": -77.020023, "bike_id": "d6c492f59890b8d67eac30e6a7632f37", "fusion_lat": 0.0, "name": "d6c492f59890b8d67eac30e6a7632f37", "is_reserved": 0, "rental_uris": {"android": "https://dc.lft.to/lastmile_qr_scan", "ios": "https://dc.lft.to/lastmile_qr_scan"}, "fusion_lon": 0.0}, {"lat": 38.917472, "is_disabled": 0, "type": "electric_scooter", "lon": -77.02407733333334, "bike_id": "e277739739f7d837baff425d15a5bb27", "fusion_lat": 0.0, "name": "e277739739f7d837baff425d15a5bb27", "is_reserved": 0, "rental_uris": {"android": "https://dc.lft.to/lastmile_qr_scan", "ios": "https://dc.lft.to/lastmile_qr_scan"}, "fusion_lon": 0.0}, {"lat": 38.902135, "is_disabled": 0, "type": "electric_scooter", "lon": -76.94592816666666, "bike_id": "7a3ae12bcc7361dd31c040a2e47ba6dc", "fusion_lat": 0.0, "name": "7a3ae12bcc7361dd31c040a2e47ba6dc", "is_reserved": 0, "rental_uris": {"android": "https://dc.lft.to/lastmile_qr_scan", "ios": "https://dc.lft.to/lastmile_qr_scan"}, "fusion_lon": 0.0}, {"lat": 38.917624333333336, "is_disabled": 0, "type": "electric_scooter", "lon": -77.03197783333333, "bike_id": "f6599b7ecf3715bf24be26dbba9d6c35", "fusion_lat": 0.0, "name": "f6599b7ecf3715bf24be26dbba9d6c35", "is_reserved": 0, "rental_uris": {"android": "https://dc.lft.to/lastmile_qr_scan", "ios": "https://dc.lft.to/lastmile_qr_scan"}, "fusion_lon": 0.0}, {"lat": 38.912081666666666, "is_disabled": 0, "type": "electric_scooter", "lon": -77.02754816666666, "bike_id": "2d15c2e94c27386197808069342bf7c7", "fusion_lat": 0.0, "name": "2d15c2e94c27386197808069342bf7c7", "is_reserved": 0, "rental_uris": {"android": "https://dc.lft.to/lastmile_qr_scan", "ios": "https://dc.lft.to/lastmile_qr_scan"}, "fusion_lon": 0.0}, {"lat": 38.947192333333334, "is_disabled": 0, "type": "electric_scooter", "lon": -77.022636, "bike_id": "f6315606d487ef892676949e9466db4a", "fusion_lat": 0.0, "name": "f6315606d487ef892676949e9466db4a", "is_reserved": 0, "rental_uris": {"android": "https://dc.lft.to/lastmile_qr_scan", "ios": "https://dc.lft.to/lastmile_qr_scan"}, "fusion_lon": 0.0}, {"lat": 38.919556166666666, "is_disabled": 0, "type": "electric_bike", "lon": -76.972701, "bike_id": "7b62ededb1069e88f59c121159852a9c", "fusion_lat": 0.0, "name": "7b62ededb1069e88f59c121159852a9c", "is_reserved": 0, "rental_uris": {"android": "https://dc.lft.to/lastmile_qr_scan", "ios": "https://dc.lft.to/lastmile_qr_scan"}, "fusion_lon": 0.0}, {"lat": 38.901427166666664, "is_disabled": 0, "type": "electric_scooter", "lon": -77.03979633333333, "bike_id": "8eeb353d1ca1616b9e0f8fb752311d9b", "fusion_lat": 0.0, "name": "8eeb353d1ca1616b9e0f8fb752311d9b", "is_reserved": 0, "rental_uris": {"android": "https://dc.lft.to/lastmile_qr_scan", "ios": "https://dc.lft.to/lastmile_qr_scan"}, "fusion_lon": 0.0}, {"lat": 38.914197333333334, "is_disabled": 0, "type": "electric_scooter", "lon": -77.0050515, "bike_id": "ae084825965f5854374bc35df402e916", "fusion_lat": 0.0, "name": "ae084825965f5854374bc35df402e916", "is_reserved": 0, "rental_uris": {"android": "https://dc.lft.to/lastmile_qr_scan", "ios": "https://dc.lft.to/lastmile_qr_scan"}, "fusion_lon": 0.0}, {"lat": 38.91267933333334, "is_disabled": 0, "type": "electric_scooter", "lon": -77.03940166666666, "bike_id": "e0e1e32299882cdceb39e37c1659f67c", "fusion_lat": 0.0, "name": "e0e1e32299882cdceb39e37c1659f67c", "is_reserved": 0, "rental_uris": {"android": "https://dc.lft.to/lastmile_qr_scan", "ios": "https://dc.lft.to/lastmile_qr_scan"}, "fusion_lon": 0.0}, {"lat": 38.93667416666667, "is_disabled": 0, "type": "electric_bike", "lon": -76.952052, "bike_id": "8dee307f33d47fcea1c1c917d419c784", "fusion_lat": 0.0, "name": "8dee307f33d47fcea1c1c917d419c784", "is_reserved": 0, "rental_uris": {"android": "https://dc.lft.to/lastmile_qr_scan", "ios": "https://dc.lft.to/lastmile_qr_scan"}, "fusion_lon": 0.0}, {"lat": 38.93008066666667, "is_disabled": 0, "type": "electric_bike", "lon": -77.21646966666667, "bike_id": "8c0171c28188a40c8bfb19ed3a8a331e", "fusion_lat": 0.0, "name": "8c0171c28188a40c8bfb19ed3a8a331e", "is_reserved": 0, "rental_uris": {"android": "https://dc.lft.to/lastmile_qr_scan", "ios": "https://dc.lft.to/lastmile_qr_scan"}, "fusion_lon": 0.0}, {"lat": 38.9327675, "is_disabled": 0, "type": "electric_scooter", "lon": -77.0254335, "bike_id": "fb9a88516f375a47ffc7c53d94d6b905", "fusion_lat": 0.0, "name": "fb9a88516f375a47ffc7c53d94d6b905", "is_reserved": 0, "rental_uris": {"android": "https://dc.lft.to/lastmile_qr_scan", "ios": "https://dc.lft.to/lastmile_qr_scan"}, "fusion_lon": 0.0}, {"lat": 38.93254533333333, "is_disabled": 0, "type": "electric_scooter", "lon": -77.03466133333333, "bike_id": "5190d92b9865bfc7ffe0934be7e194bf", "fusion_lat": 0.0, "name": "5190d92b9865bfc7ffe0934be7e194bf", "is_reserved": 0, "rental_uris": {"android": "https://dc.lft.to/lastmile_qr_scan", "ios": "https://dc.lft.to/lastmile_qr_scan"}, "fusion_lon": 0.0}, {"lat": 38.92569133333333, "is_disabled": 0, "type": "electric_scooter", "lon": -77.0283095, "bike_id": "c0b84b3bbea609a50e100d3d2eed6ebf", "fusion_lat": 0.0, "name": "c0b84b3bbea609a50e100d3d2eed6ebf", "is_reserved": 0, "rental_uris": {"android": "https://dc.lft.to/lastmile_qr_scan", "ios": "https://dc.lft.to/lastmile_qr_scan"}, "fusion_lon": 0.0}, {"lat": 38.897031166666665, "is_disabled": 0, "type": "electric_scooter", "lon": -77.00842016666667, "bike_id": "7aef1e242f61db91d0a4e08d093ddc09", "fusion_lat": 0.0, "name": "7aef1e242f61db91d0a4e08d093ddc09", "is_reserved": 0, "rental_uris": {"android": "https://dc.lft.to/lastmile_qr_scan", "ios": "https://dc.lft.to/lastmile_qr_scan"}, "fusion_lon": 0.0}, {"lat": 38.930162833333334, "is_disabled": 0, "type": "electric_scooter", "lon": -77.04454416666667, "bike_id": "345c2992b9c295a57f0f098e777136db", "fusion_lat": 0.0, "name": "345c2992b9c295a57f0f098e777136db", "is_reserved": 0, "rental_uris": {"android": "https://dc.lft.to/lastmile_qr_scan", "ios": "https://dc.lft.to/lastmile_qr_scan"}, "fusion_lon": 0.0}, {"lat": 38.91401466666667, "is_disabled": 0, "type": "electric_scooter", "lon": -77.03152783333333, "bike_id": "f55ded7f762d937f98d29bc6ad0f831c", "fusion_lat": 0.0, "name": "f55ded7f762d937f98d29bc6ad0f831c", "is_reserved": 0, "rental_uris": {"android": "https://dc.lft.to/lastmile_qr_scan", "ios": "https://dc.lft.to/lastmile_qr_scan"}, "fusion_lon": 0.0}, {"lat": 38.89699866666667, "is_disabled": 0, "type": "electric_scooter", "lon": -77.04894183333333, "bike_id": "e4cf1d46c023a55f4491688e482bf10c", "fusion_lat": 0.0, "name": "e4cf1d46c023a55f4491688e482bf10c", "is_reserved": 0, "rental_uris": {"android": "https://dc.lft.to/lastmile_qr_scan", "ios": "https://dc.lft.to/lastmile_qr_scan"}, "fusion_lon": 0.0}, {"lat": 38.9434795, "is_disabled": 0, "type": "electric_scooter", "lon": -77.002186, "bike_id": "351caad1a2e08e5dc0992d4bebd06b34", "fusion_lat": 0.0, "name": "351caad1a2e08e5dc0992d4bebd06b34", "is_reserved": 0, "rental_uris": {"android": "https://dc.lft.to/lastmile_qr_scan", "ios": "https://dc.lft.to/lastmile_qr_scan"}, "fusion_lon": 0.0}, {"lat": 38.89548383333333, "is_disabled": 0, "type": "electric_scooter", "lon": -77.00926116666666, "bike_id": "d7841bcbe46a6ed007869596c1c10dcc", "fusion_lat": 0.0, "name": "d7841bcbe46a6ed007869596c1c10dcc", "is_reserved": 0, "rental_uris": {"android": "https://dc.lft.to/lastmile_qr_scan", "ios": "https://dc.lft.to/lastmile_qr_scan"}, "fusion_lon": 0.0}, {"lat": 38.91527933333333, "is_disabled": 0, "type": "electric_scooter", "lon": -77.03210233333333, "bike_id": "aa7e62e01115941beb97c7068202a0e6", "fusion_lat": 0.0, "name": "aa7e62e01115941beb97c7068202a0e6", "is_reserved": 0, "rental_uris": {"android": "https://dc.lft.to/lastmile_qr_scan", "ios": "https://dc.lft.to/lastmile_qr_scan"}, "fusion_lon": 0.0}, {"lat": 38.911828666666665, "is_disabled": 0, "type": "electric_scooter", "lon": -77.010705, "bike_id": "31cfb0e547061d464c124d59f5b234e3", "fusion_lat": 0.0, "name": "31cfb0e547061d464c124d59f5b234e3", "is_reserved": 0, "rental_uris": {"android": "https://dc.lft.to/lastmile_qr_scan", "ios": "https://dc.lft.to/lastmile_qr_scan"}, "fusion_lon": 0.0}, {"lat": 38.935703333333336, "is_disabled": 0, "type": "electric_scooter", "lon": -77.03267466666667, "bike_id": "659ab721f7150d1fca5947403b8dcd2f", "fusion_lat": 0.0, "name": "659ab721f7150d1fca5947403b8dcd2f", "is_reserved": 0, "rental_uris": {"android": "https://dc.lft.to/lastmile_qr_scan", "ios": "https://dc.lft.to/lastmile_qr_scan"}, "fusion_lon": 0.0}, {"lat": 38.93135216666667, "is_disabled": 0, "type": "electric_scooter", "lon": -77.02152633333333, "bike_id": "f3d7a29e2029f03f715a16691a4c72d7", "fusion_lat": 0.0, "name": "f3d7a29e2029f03f715a16691a4c72d7", "is_reserved": 0, "rental_uris": {"android": "https://dc.lft.to/lastmile_qr_scan", "ios": "https://dc.lft.to/lastmile_qr_scan"}, "fusion_lon": 0.0}, {"lat": 38.90561833333334, "is_disabled": 0, "type": "electric_scooter", "lon": -77.01309383333333, "bike_id": "1ab62b08dc1116abc55545cafb198b24", "fusion_lat": 0.0, "name": "1ab62b08dc1116abc55545cafb198b24", "is_reserved": 0, "rental_uris": {"android": "https://dc.lft.to/lastmile_qr_scan", "ios": "https://dc.lft.to/lastmile_qr_scan"}, "fusion_lon": 0.0}, {"lat": 38.91116, "is_disabled": 0, "type": "electric_scooter", "lon": -77.03761933333334, "bike_id": "218d7a57c614d7f41331f1a116a6a1ee", "fusion_lat": 0.0, "name": "218d7a57c614d7f41331f1a116a6a1ee", "is_reserved": 0, "rental_uris": {"android": "https://dc.lft.to/lastmile_qr_scan", "ios": "https://dc.lft.to/lastmile_qr_scan"}, "fusion_lon": 0.0}, {"lat": 38.92165883333333, "is_disabled": 0, "type": "electric_scooter", "lon": -77.03208383333333, "bike_id": "0465343f776b85b13b97f6038c4f4672", "fusion_lat": 0.0, "name": "0465343f776b85b13b97f6038c4f4672", "is_reserved": 0, "rental_uris": {"android": "https://dc.lft.to/lastmile_qr_scan", "ios": "https://dc.lft.to/lastmile_qr_scan"}, "fusion_lon": 0.0}, {"lat": 38.945222333333334, "is_disabled": 0, "type": "electric_scooter", "lon": -76.97954866666667, "bike_id": "a381cc0f579c6cbbdbe4fd439a864cc4", "fusion_lat": 0.0, "name": "a381cc0f579c6cbbdbe4fd439a864cc4", "is_reserved": 0, "rental_uris": {"android": "https://dc.lft.to/lastmile_qr_scan", "ios": "https://dc.lft.to/lastmile_qr_scan"}, "fusion_lon": 0.0}, {"lat": 38.9174065, "is_disabled": 0, "type": "electric_scooter", "lon": -77.0320715, "bike_id": "62a1dc51c2f185724fa1dfb52504b84f", "fusion_lat": 0.0, "name": "62a1dc51c2f185724fa1dfb52504b84f", "is_reserved": 0, "rental_uris": {"android": "https://dc.lft.to/lastmile_qr_scan", "ios": "https://dc.lft.to/lastmile_qr_scan"}, "fusion_lon": 0.0}, {"lat": 38.8990825, "is_disabled": 0, "type": "electric_scooter", "lon": -77.00349983333334, "bike_id": "446bbe9f5be800d8cc3da0db058fdefa", "fusion_lat": 0.0, "name": "446bbe9f5be800d8cc3da0db058fdefa", "is_reserved": 0, "rental_uris": {"android": "https://dc.lft.to/lastmile_qr_scan", "ios": "https://dc.lft.to/lastmile_qr_scan"}, "fusion_lon": 0.0}, {"lat": 38.902595, "is_disabled": 0, "type": "electric_scooter", "lon": -77.05260416666667, "bike_id": "e9f5df5ed2d6ed16e5ab1215712347ca", "fusion_lat": 0.0, "name": "e9f5df5ed2d6ed16e5ab1215712347ca", "is_reserved": 0, "rental_uris": {"android": "https://dc.lft.to/lastmile_qr_scan", "ios": "https://dc.lft.to/lastmile_qr_scan"}, "fusion_lon": 0.0}, {"lat": 38.85021016666666, "is_disabled": 0, "type": "electric_bike", "lon": -77.0981315, "bike_id": "aa6cb5b5beeab253004a60b559f0c4cd", "fusion_lat": 0.0, "name": "aa6cb5b5beeab253004a60b559f0c4cd", "is_reserved": 0, "rental_uris": {"android": "https://dc.lft.to/lastmile_qr_scan", "ios": "https://dc.lft.to/lastmile_qr_scan"}, "fusion_lon": 0.0}, {"lat": 38.884785666666666, "is_disabled": 0, "type": "electric_scooter", "lon": -76.945281, "bike_id": "acce56daa0ac2eac44a373bd29480681", "fusion_lat": 0.0, "name": "acce56daa0ac2eac44a373bd29480681", "is_reserved": 0, "rental_uris": {"android": "https://dc.lft.to/lastmile_qr_scan", "ios": "https://dc.lft.to/lastmile_qr_scan"}, "fusion_lon": 0.0}, {"lat": 38.91728916666667, "is_disabled": 0, "type": "electric_scooter", "lon": -77.032214, "bike_id": "dfe0667a78ba0b00d8fc326ccf6345be", "fusion_lat": 0.0, "name": "dfe0667a78ba0b00d8fc326ccf6345be", "is_reserved": 0, "rental_uris": {"android": "https://dc.lft.to/lastmile_qr_scan", "ios": "https://dc.lft.to/lastmile_qr_scan"}, "fusion_lon": 0.0}, {"lat": 38.93076533333333, "is_disabled": 0, "type": "electric_scooter", "lon": -77.07762216666667, "bike_id": "54d13a4541feee1754caa52fab618637", "fusion_lat": 0.0, "name": "54d13a4541feee1754caa52fab618637", "is_reserved": 0, "rental_uris": {"android": "https://dc.lft.to/lastmile_qr_scan", "ios": "https://dc.lft.to/lastmile_qr_scan"}, "fusion_lon": 0.0}, {"lat": 38.90552916666667, "is_disabled": 0, "type": "electric_scooter", "lon": -77.02685016666666, "bike_id": "10453fb63ce712d2f78a21267b7ea5de", "fusion_lat": 0.0, "name": "10453fb63ce712d2f78a21267b7ea5de", "is_reserved": 0, "rental_uris": {"android": "https://dc.lft.to/lastmile_qr_scan", "ios": "https://dc.lft.to/lastmile_qr_scan"}, "fusion_lon": 0.0}, {"lat": 38.917685666666664, "is_disabled": 0, "type": "electric_scooter", "lon": -77.031876, "bike_id": "77cbc5fb8e2b7a8d93113d9ea4321cc5", "fusion_lat": 0.0, "name": "77cbc5fb8e2b7a8d93113d9ea4321cc5", "is_reserved": 0, "rental_uris": {"android": "https://dc.lft.to/lastmile_qr_scan", "ios": "https://dc.lft.to/lastmile_qr_scan"}, "fusion_lon": 0.0}, {"lat": 38.9028695, "is_disabled": 0, "type": "electric_scooter", "lon": -77.038641, "bike_id": "9b2453edfe0ebd37ce62ee0bda9c41e1", "fusion_lat": 0.0, "name": "9b2453edfe0ebd37ce62ee0bda9c41e1", "is_reserved": 0, "rental_uris": {"android": "https://dc.lft.to/lastmile_qr_scan", "ios": "https://dc.lft.to/lastmile_qr_scan"}, "fusion_lon": 0.0}, {"lat": 38.8955505, "is_disabled": 0, "type": "electric_scooter", "lon": -76.93077733333334, "bike_id": "cc9cad534b0cd4e327a8118918fcd824", "fusion_lat": 0.0, "name": "cc9cad534b0cd4e327a8118918fcd824", "is_reserved": 0, "rental_uris": {"android": "https://dc.lft.to/lastmile_qr_scan", "ios": "https://dc.lft.to/lastmile_qr_scan"}, "fusion_lon": 0.0}, {"lat": 38.911285166666666, "is_disabled": 0, "type": "electric_bike", "lon": -77.00885666666667, "bike_id": "d3179e15f8c3d898aceb4949207fefb4", "fusion_lat": 0.0, "name": "d3179e15f8c3d898aceb4949207fefb4", "is_reserved": 0, "rental_uris": {"android": "https://dc.lft.to/lastmile_qr_scan", "ios": "https://dc.lft.to/lastmile_qr_scan"}, "fusion_lon": 0.0}, {"lat": 38.903584, "is_disabled": 0, "type": "electric_scooter", "lon": -77.04476016666666, "bike_id": "95aa5d65534b6f5a553f658e05f259c5", "fusion_lat": 0.0, "name": "95aa5d65534b6f5a553f658e05f259c5", "is_reserved": 0, "rental_uris": {"android": "https://dc.lft.to/lastmile_qr_scan", "ios": "https://dc.lft.to/lastmile_qr_scan"}, "fusion_lon": 0.0}, {"lat": 38.9133005, "is_disabled": 0, "type": "electric_scooter", "lon": -77.04728283333333, "bike_id": "26dca1443a09b50cfb8ff7770f1ecdc0", "fusion_lat": 0.0, "name": "26dca1443a09b50cfb8ff7770f1ecdc0", "is_reserved": 0, "rental_uris": {"android": "https://dc.lft.to/lastmile_qr_scan", "ios": "https://dc.lft.to/lastmile_qr_scan"}, "fusion_lon": 0.0}, {"lat": 38.9529015, "is_disabled": 0, "type": "electric_bike", "lon": -76.94604866666667, "bike_id": "44fcf78db6d288f5932ae6e5c6a627f3", "fusion_lat": 0.0, "name": "44fcf78db6d288f5932ae6e5c6a627f3", "is_reserved": 0, "rental_uris": {"android": "https://dc.lft.to/lastmile_qr_scan", "ios": "https://dc.lft.to/lastmile_qr_scan"}, "fusion_lon": 0.0}, {"lat": 38.9358775, "is_disabled": 0, "type": "electric_scooter", "lon": -77.03747, "bike_id": "a900de8592fc6958d7c5aaf799b35c2d", "fusion_lat": 0.0, "name": "a900de8592fc6958d7c5aaf799b35c2d", "is_reserved": 0, "rental_uris": {"android": "https://dc.lft.to/lastmile_qr_scan", "ios": "https://dc.lft.to/lastmile_qr_scan"}, "fusion_lon": 0.0}, {"lat": 38.9899745, "is_disabled": 0, "type": "electric_bike", "lon": -77.00441733333334, "bike_id": "ed490a981a048b3f765857c28da8af70", "fusion_lat": 0.0, "name": "ed490a981a048b3f765857c28da8af70", "is_reserved": 0, "rental_uris": {"android": "https://dc.lft.to/lastmile_qr_scan", "ios": "https://dc.lft.to/lastmile_qr_scan"}, "fusion_lon": 0.0}, {"lat": 38.930807333333334, "is_disabled": 0, "type": "electric_scooter", "lon": -77.025581, "bike_id": "c45f4752ad2ec699b09981303b7e1277", "fusion_lat": 0.0, "name": "c45f4752ad2ec699b09981303b7e1277", "is_reserved": 0, "rental_uris": {"android": "https://dc.lft.to/lastmile_qr_scan", "ios": "https://dc.lft.to/lastmile_qr_scan"}, "fusion_lon": 0.0}, {"lat": 38.93950383333333, "is_disabled": 0, "type": "electric_bike", "lon": -77.36098116666666, "bike_id": "ea0f0f5c7d60340b5c806e7eb38ca6ca", "fusion_lat": 0.0, "name": "ea0f0f5c7d60340b5c806e7eb38ca6ca", "is_reserved": 0, "rental_uris": {"android": "https://dc.lft.to/lastmile_qr_scan", "ios": "https://dc.lft.to/lastmile_qr_scan"}, "fusion_lon": 0.0}, {"lat": 38.899668, "is_disabled": 0, "type": "electric_scooter", "lon": -76.92731333333333, "bike_id": "5ed8e894f6d7d58f46b87b2fd5cba589", "fusion_lat": 0.0, "name": "5ed8e894f6d7d58f46b87b2fd5cba589", "is_reserved": 0, "rental_uris": {"android": "https://dc.lft.to/lastmile_qr_scan", "ios": "https://dc.lft.to/lastmile_qr_scan"}, "fusion_lon": 0.0}, {"lat": 38.92992783333333, "is_disabled": 0, "type": "electric_scooter", "lon": -77.0262805, "bike_id": "0f901bcf268fd1986a74a00a43159e85", "fusion_lat": 0.0, "name": "0f901bcf268fd1986a74a00a43159e85", "is_reserved": 0, "rental_uris": {"android": "https://dc.lft.to/lastmile_qr_scan", "ios": "https://dc.lft.to/lastmile_qr_scan"}, "fusion_lon": 0.0}, {"lat": 38.917058, "is_disabled": 0, "type": "electric_scooter", "lon": -77.038781, "bike_id": "0b75a93e00fd98307263d0bf0805fc03", "fusion_lat": 0.0, "name": "0b75a93e00fd98307263d0bf0805fc03", "is_reserved": 0, "rental_uris": {"android": "https://dc.lft.to/lastmile_qr_scan", "ios": "https://dc.lft.to/lastmile_qr_scan"}, "fusion_lon": 0.0}, {"lat": 38.90959266666667, "is_disabled": 0, "type": "electric_scooter", "lon": -77.02280516666667, "bike_id": "11aa16da0dbecf780784cc2b4bb5b95b", "fusion_lat": 0.0, "name": "11aa16da0dbecf780784cc2b4bb5b95b", "is_reserved": 0, "rental_uris": {"android": "https://dc.lft.to/lastmile_qr_scan", "ios": "https://dc.lft.to/lastmile_qr_scan"}, "fusion_lon": 0.0}, {"lat": 38.88606683333333, "is_disabled": 0, "type": "electric_scooter", "lon": -77.04511583333333, "bike_id": "8accfa1b435757e57b8c099dbfd2c263", "fusion_lat": 0.0, "name": "8accfa1b435757e57b8c099dbfd2c263", "is_reserved": 0, "rental_uris": {"android": "https://dc.lft.to/lastmile_qr_scan", "ios": "https://dc.lft.to/lastmile_qr_scan"}, "fusion_lon": 0.0}, {"lat": 38.902683, "is_disabled": 0, "type": "electric_scooter", "lon": -77.03853666666667, "bike_id": "c6f152fca2121b6733dbf609a1f63dc3", "fusion_lat": 0.0, "name": "c6f152fca2121b6733dbf609a1f63dc3", "is_reserved": 0, "rental_uris": {"android": "https://dc.lft.to/lastmile_qr_scan", "ios": "https://dc.lft.to/lastmile_qr_scan"}, "fusion_lon": 0.0}, {"lat": 38.9167855, "is_disabled": 0, "type": "electric_scooter", "lon": -77.02712666666666, "bike_id": "bf18af0bd9c00f371d3f3deb794a1539", "fusion_lat": 0.0, "name": "bf18af0bd9c00f371d3f3deb794a1539", "is_reserved": 0, "rental_uris": {"android": "https://dc.lft.to/lastmile_qr_scan", "ios": "https://dc.lft.to/lastmile_qr_scan"}, "fusion_lon": 0.0}, {"lat": 38.9032805, "is_disabled": 0, "type": "electric_scooter", "lon": -77.01175266666667, "bike_id": "0a18a979496afe0ad1cebc371856b8c6", "fusion_lat": 0.0, "name": "0a18a979496afe0ad1cebc371856b8c6", "is_reserved": 0, "rental_uris": {"android": "https://dc.lft.to/lastmile_qr_scan", "ios": "https://dc.lft.to/lastmile_qr_scan"}, "fusion_lon": 0.0}, {"lat": 38.918778333333336, "is_disabled": 0, "type": "electric_scooter", "lon": -77.04440383333333, "bike_id": "aad29f9ea5ed15fc53bca5b254a60097", "fusion_lat": 0.0, "name": "aad29f9ea5ed15fc53bca5b254a60097", "is_reserved": 0, "rental_uris": {"android": "https://dc.lft.to/lastmile_qr_scan", "ios": "https://dc.lft.to/lastmile_qr_scan"}, "fusion_lon": 0.0}, {"lat": 38.902406666666664, "is_disabled": 0, "type": "electric_scooter", "lon": -77.03975316666667, "bike_id": "5d576faeeee8a20b8f299aea16b058f2", "fusion_lat": 0.0, "name": "5d576faeeee8a20b8f299aea16b058f2", "is_reserved": 0, "rental_uris": {"android": "https://dc.lft.to/lastmile_qr_scan", "ios": "https://dc.lft.to/lastmile_qr_scan"}, "fusion_lon": 0.0}, {"lat": 38.93745366666667, "is_disabled": 0, "type": "electric_scooter", "lon": -77.034545, "bike_id": "fc0cd10021693f96abdb87bf8d00886c", "fusion_lat": 0.0, "name": "fc0cd10021693f96abdb87bf8d00886c", "is_reserved": 0, "rental_uris": {"android": "https://dc.lft.to/lastmile_qr_scan", "ios": "https://dc.lft.to/lastmile_qr_scan"}, "fusion_lon": 0.0}, {"lat": 38.89497333333333, "is_disabled": 0, "type": "electric_scooter", "lon": -77.00212816666667, "bike_id": "23b4ff042d2a898bd5690fd8879af928", "fusion_lat": 0.0, "name": "23b4ff042d2a898bd5690fd8879af928", "is_reserved": 0, "rental_uris": {"android": "https://dc.lft.to/lastmile_qr_scan", "ios": "https://dc.lft.to/lastmile_qr_scan"}, "fusion_lon": 0.0}, {"lat": 38.920202, "is_disabled": 0, "type": "electric_scooter", "lon": -77.0132365, "bike_id": "f9064000bca63896a33f0363d636e2c2", "fusion_lat": 0.0, "name": "f9064000bca63896a33f0363d636e2c2", "is_reserved": 0, "rental_uris": {"android": "https://dc.lft.to/lastmile_qr_scan", "ios": "https://dc.lft.to/lastmile_qr_scan"}, "fusion_lon": 0.0}, {"lat": 38.944294, "is_disabled": 0, "type": "electric_scooter", "lon": -77.06262316666667, "bike_id": "f97748f16cdaa68619aea7513b6e8780", "fusion_lat": 0.0, "name": "f97748f16cdaa68619aea7513b6e8780", "is_reserved": 0, "rental_uris": {"android": "https://dc.lft.to/lastmile_qr_scan", "ios": "https://dc.lft.to/lastmile_qr_scan"}, "fusion_lon": 0.0}, {"lat": 38.92617333333333, "is_disabled": 0, "type": "electric_scooter", "lon": -77.04184583333333, "bike_id": "f447998d54f604bcc462f48ac20f1a7d", "fusion_lat": 0.0, "name": "f447998d54f604bcc462f48ac20f1a7d", "is_reserved": 0, "rental_uris": {"android": "https://dc.lft.to/lastmile_qr_scan", "ios": "https://dc.lft.to/lastmile_qr_scan"}, "fusion_lon": 0.0}, {"lat": 38.907471, "is_disabled": 0, "type": "electric_scooter", "lon": -76.99908683333334, "bike_id": "638310af3e96c97d742f98a9a6e502a9", "fusion_lat": 0.0, "name": "638310af3e96c97d742f98a9a6e502a9", "is_reserved": 0, "rental_uris": {"android": "https://dc.lft.to/lastmile_qr_scan", "ios": "https://dc.lft.to/lastmile_qr_scan"}, "fusion_lon": 0.0}, {"lat": 38.92715233333333, "is_disabled": 0, "type": "electric_bike", "lon": -77.0297515, "bike_id": "2f5a1d5c93682b7fe2174a7a1a488191", "fusion_lat": 0.0, "name": "2f5a1d5c93682b7fe2174a7a1a488191", "is_reserved": 0, "rental_uris": {"android": "https://dc.lft.to/lastmile_qr_scan", "ios": "https://dc.lft.to/lastmile_qr_scan"}, "fusion_lon": 0.0}, {"lat": 38.896150666666664, "is_disabled": 0, "type": "electric_scooter", "lon": -77.04493233333334, "bike_id": "68117bf418b9aced669054ecfb4efd30", "fusion_lat": 0.0, "name": "68117bf418b9aced669054ecfb4efd30", "is_reserved": 0, "rental_uris": {"android": "https://dc.lft.to/lastmile_qr_scan", "ios": "https://dc.lft.to/lastmile_qr_scan"}, "fusion_lon": 0.0}, {"lat": 38.84269466666667, "is_disabled": 0, "type": "electric_bike", "lon": -76.9885175, "bike_id": "372185a1237bf1a5d720de03c02f7379", "fusion_lat": 0.0, "name": "372185a1237bf1a5d720de03c02f7379", "is_reserved": 0, "rental_uris": {"android": "https://dc.lft.to/lastmile_qr_scan", "ios": "https://dc.lft.to/lastmile_qr_scan"}, "fusion_lon": 0.0}, {"lat": 38.895479333333334, "is_disabled": 0, "type": "electric_scooter", "lon": -77.0044235, "bike_id": "96bc295b553a34e5eadb9c9b852fa1c3", "fusion_lat": 0.0, "name": "96bc295b553a34e5eadb9c9b852fa1c3", "is_reserved": 0, "rental_uris": {"android": "https://dc.lft.to/lastmile_qr_scan", "ios": "https://dc.lft.to/lastmile_qr_scan"}, "fusion_lon": 0.0}, {"lat": 38.93601316666667, "is_disabled": 0, "type": "electric_scooter", "lon": -77.02528716666667, "bike_id": "292156cb4315c5219f28b305d8e6fb10", "fusion_lat": 0.0, "name": "292156cb4315c5219f28b305d8e6fb10", "is_reserved": 0, "rental_uris": {"android": "https://dc.lft.to/lastmile_qr_scan", "ios": "https://dc.lft.to/lastmile_qr_scan"}, "fusion_lon": 0.0}, {"lat": 38.93407233333333, "is_disabled": 0, "type": "electric_scooter", "lon": -77.02468766666667, "bike_id": "e264c0907b7d1378d3f25800f1c30de8", "fusion_lat": 0.0, "name": "e264c0907b7d1378d3f25800f1c30de8", "is_reserved": 0, "rental_uris": {"android": "https://dc.lft.to/lastmile_qr_scan", "ios": "https://dc.lft.to/lastmile_qr_scan"}, "fusion_lon": 0.0}, {"lat": 38.92164983333333, "is_disabled": 0, "type": "electric_scooter", "lon": -77.03207833333333, "bike_id": "c944a3476478a7433ddb1c551b51d2cc", "fusion_lat": 0.0, "name": "c944a3476478a7433ddb1c551b51d2cc", "is_reserved": 0, "rental_uris": {"android": "https://dc.lft.to/lastmile_qr_scan", "ios": "https://dc.lft.to/lastmile_qr_scan"}, "fusion_lon": 0.0}, {"lat": 38.92038016666667, "is_disabled": 0, "type": "electric_scooter", "lon": -76.99340283333333, "bike_id": "232ace1566398623dd9a9c9e5f016dc3", "fusion_lat": 0.0, "name": "232ace1566398623dd9a9c9e5f016dc3", "is_reserved": 0, "rental_uris": {"android": "https://dc.lft.to/lastmile_qr_scan", "ios": "https://dc.lft.to/lastmile_qr_scan"}, "fusion_lon": 0.0}, {"lat": 38.917642666666666, "is_disabled": 0, "type": "electric_scooter", "lon": -77.01878166666667, "bike_id": "6470a6310753ecefe1d8f51493c9d473", "fusion_lat": 0.0, "name": "6470a6310753ecefe1d8f51493c9d473", "is_reserved": 0, "rental_uris": {"android": "https://dc.lft.to/lastmile_qr_scan", "ios": "https://dc.lft.to/lastmile_qr_scan"}, "fusion_lon": 0.0}, {"lat": 38.8372665, "is_disabled": 0, "type": "electric_bike", "lon": -76.99758233333333, "bike_id": "f55e215ac695f331fa0d5922c2a394fa", "fusion_lat": 0.0, "name": "f55e215ac695f331fa0d5922c2a394fa", "is_reserved": 0, "rental_uris": {"android": "https://dc.lft.to/lastmile_qr_scan", "ios": "https://dc.lft.to/lastmile_qr_scan"}, "fusion_lon": 0.0}, {"lat": 38.9368265, "is_disabled": 0, "type": "electric_bike", "lon": -77.05648716666667, "bike_id": "65085f2784703e4ed2339998b895b3eb", "fusion_lat": 0.0, "name": "65085f2784703e4ed2339998b895b3eb", "is_reserved": 0, "rental_uris": {"android": "https://dc.lft.to/lastmile_qr_scan", "ios": "https://dc.lft.to/lastmile_qr_scan"}, "fusion_lon": 0.0}, {"lat": 38.902683833333334, "is_disabled": 0, "type": "electric_scooter", "lon": -77.00350816666666, "bike_id": "7069d8207cf026c2d6cecca2558adea0", "fusion_lat": 0.0, "name": "7069d8207cf026c2d6cecca2558adea0", "is_reserved": 0, "rental_uris": {"android": "https://dc.lft.to/lastmile_qr_scan", "ios": "https://dc.lft.to/lastmile_qr_scan"}, "fusion_lon": 0.0}, {"lat": 38.86507983333333, "is_disabled": 0, "type": "electric_scooter", "lon": -76.9900575, "bike_id": "57f0d1c5410da0ea4312ad8b45fb6ee2", "fusion_lat": 0.0, "name": "57f0d1c5410da0ea4312ad8b45fb6ee2", "is_reserved": 0, "rental_uris": {"android": "https://dc.lft.to/lastmile_qr_scan", "ios": "https://dc.lft.to/lastmile_qr_scan"}, "fusion_lon": 0.0}, {"lat": 38.903237, "is_disabled": 0, "type": "electric_scooter", "lon": -77.02878616666666, "bike_id": "12244c212664e8300010b254cb0ed310", "fusion_lat": 0.0, "name": "12244c212664e8300010b254cb0ed310", "is_reserved": 0, "rental_uris": {"android": "https://dc.lft.to/lastmile_qr_scan", "ios": "https://dc.lft.to/lastmile_qr_scan"}, "fusion_lon": 0.0}, {"lat": 38.89979733333333, "is_disabled": 0, "type": "electric_scooter", "lon": -77.02070716666667, "bike_id": "5da4ce2150b9b62ec32a559265bff306", "fusion_lat": 0.0, "name": "5da4ce2150b9b62ec32a559265bff306", "is_reserved": 0, "rental_uris": {"android": "https://dc.lft.to/lastmile_qr_scan", "ios": "https://dc.lft.to/lastmile_qr_scan"}, "fusion_lon": 0.0}, {"lat": 38.881052833333335, "is_disabled": 0, "type": "electric_scooter", "lon": -77.026382, "bike_id": "79a2e304444e638027e63912b0cd2a47", "fusion_lat": 0.0, "name": "79a2e304444e638027e63912b0cd2a47", "is_reserved": 0, "rental_uris": {"android": "https://dc.lft.to/lastmile_qr_scan", "ios": "https://dc.lft.to/lastmile_qr_scan"}, "fusion_lon": 0.0}, {"lat": 38.85673666666667, "is_disabled": 0, "type": "electric_scooter", "lon": -76.98184583333334, "bike_id": "895d3f0f0dd7cc11a89351dda422dde8", "fusion_lat": 0.0, "name": "895d3f0f0dd7cc11a89351dda422dde8", "is_reserved": 0, "rental_uris": {"android": "https://dc.lft.to/lastmile_qr_scan", "ios": "https://dc.lft.to/lastmile_qr_scan"}, "fusion_lon": 0.0}, {"lat": 38.91249916666666, "is_disabled": 0, "type": "electric_scooter", "lon": -77.0221295, "bike_id": "a5ebbdfae785a1e13658f96bf2b3500a", "fusion_lat": 0.0, "name": "a5ebbdfae785a1e13658f96bf2b3500a", "is_reserved": 0, "rental_uris": {"android": "https://dc.lft.to/lastmile_qr_scan", "ios": "https://dc.lft.to/lastmile_qr_scan"}, "fusion_lon": 0.0}, {"lat": 38.900576666666666, "is_disabled": 0, "type": "electric_scooter", "lon": -77.00209416666667, "bike_id": "3e6a99201a38b68afc0830a60ad107e1", "fusion_lat": 0.0, "name": "3e6a99201a38b68afc0830a60ad107e1", "is_reserved": 0, "rental_uris": {"android": "https://dc.lft.to/lastmile_qr_scan", "ios": "https://dc.lft.to/lastmile_qr_scan"}, "fusion_lon": 0.0}, {"lat": 38.9104775, "is_disabled": 0, "type": "electric_scooter", "lon": -77.05585133333334, "bike_id": "6ca5b3c40cec60a08d942a9addb4fe11", "fusion_lat": 0.0, "name": "6ca5b3c40cec60a08d942a9addb4fe11", "is_reserved": 0, "rental_uris": {"android": "https://dc.lft.to/lastmile_qr_scan", "ios": "https://dc.lft.to/lastmile_qr_scan"}, "fusion_lon": 0.0}, {"lat": 38.9085725, "is_disabled": 0, "type": "electric_scooter", "lon": -77.04589166666666, "bike_id": "f3b3893691d76bb0dd9ea7814b86d570", "fusion_lat": 0.0, "name": "f3b3893691d76bb0dd9ea7814b86d570", "is_reserved": 0, "rental_uris": {"android": "https://dc.lft.to/lastmile_qr_scan", "ios": "https://dc.lft.to/lastmile_qr_scan"}, "fusion_lon": 0.0}, {"lat": 38.9177145, "is_disabled": 0, "type": "electric_scooter", "lon": -77.024185, "bike_id": "23d239cb59c379458890be2294ccceca", "fusion_lat": 0.0, "name": "23d239cb59c379458890be2294ccceca", "is_reserved": 0, "rental_uris": {"android": "https://dc.lft.to/lastmile_qr_scan", "ios": "https://dc.lft.to/lastmile_qr_scan"}, "fusion_lon": 0.0}, {"lat": 38.836772333333336, "is_disabled": 0, "type": "electric_scooter", "lon": -77.00571433333333, "bike_id": "947cde8cc6e6b1e8c9cdbfa61cd1d2e8", "fusion_lat": 0.0, "name": "947cde8cc6e6b1e8c9cdbfa61cd1d2e8", "is_reserved": 0, "rental_uris": {"android": "https://dc.lft.to/lastmile_qr_scan", "ios": "https://dc.lft.to/lastmile_qr_scan"}, "fusion_lon": 0.0}, {"lat": 38.9081775, "is_disabled": 0, "type": "electric_scooter", "lon": -77.0179805, "bike_id": "9356ce9e43bcd2c7b4977af2a624e4e1", "fusion_lat": 0.0, "name": "9356ce9e43bcd2c7b4977af2a624e4e1", "is_reserved": 0, "rental_uris": {"android": "https://dc.lft.to/lastmile_qr_scan", "ios": "https://dc.lft.to/lastmile_qr_scan"}, "fusion_lon": 0.0}, {"lat": 38.90850183333333, "is_disabled": 0, "type": "electric_scooter", "lon": -77.0476815, "bike_id": "63c451aa24a90adcfee2e377bf6218f0", "fusion_lat": 0.0, "name": "63c451aa24a90adcfee2e377bf6218f0", "is_reserved": 0, "rental_uris": {"android": "https://dc.lft.to/lastmile_qr_scan", "ios": "https://dc.lft.to/lastmile_qr_scan"}, "fusion_lon": 0.0}, {"lat": 38.8999055, "is_disabled": 0, "type": "electric_scooter", "lon": -76.99478883333333, "bike_id": "6133f296abd64ea548757ae7a47c50dd", "fusion_lat": 0.0, "name": "6133f296abd64ea548757ae7a47c50dd", "is_reserved": 0, "rental_uris": {"android": "https://dc.lft.to/lastmile_qr_scan", "ios": "https://dc.lft.to/lastmile_qr_scan"}, "fusion_lon": 0.0}, {"lat": 38.9109375, "is_disabled": 0, "type": "electric_scooter", "lon": -77.03178583333333, "bike_id": "e541cbaf7470afbe4e6a597e7d80893d", "fusion_lat": 0.0, "name": "e541cbaf7470afbe4e6a597e7d80893d", "is_reserved": 0, "rental_uris": {"android": "https://dc.lft.to/lastmile_qr_scan", "ios": "https://dc.lft.to/lastmile_qr_scan"}, "fusion_lon": 0.0}, {"lat": 38.865562, "is_disabled": 0, "type": "electric_scooter", "lon": -76.9739135, "bike_id": "12b0814b2cc977f90c6c957e7d71e370", "fusion_lat": 0.0, "name": "12b0814b2cc977f90c6c957e7d71e370", "is_reserved": 0, "rental_uris": {"android": "https://dc.lft.to/lastmile_qr_scan", "ios": "https://dc.lft.to/lastmile_qr_scan"}, "fusion_lon": 0.0}, {"lat": 38.953332, "is_disabled": 0, "type": "electric_bike", "lon": -76.973631, "bike_id": "14ed249219101defb9c49de6d3b058ad", "fusion_lat": 0.0, "name": "14ed249219101defb9c49de6d3b058ad", "is_reserved": 0, "rental_uris": {"android": "https://dc.lft.to/lastmile_qr_scan", "ios": "https://dc.lft.to/lastmile_qr_scan"}, "fusion_lon": 0.0}, {"lat": 38.938368833333335, "is_disabled": 0, "type": "electric_scooter", "lon": -77.03399233333333, "bike_id": "903204aeb735b9d1c4320b1e42201f38", "fusion_lat": 0.0, "name": "903204aeb735b9d1c4320b1e42201f38", "is_reserved": 0, "rental_uris": {"android": "https://dc.lft.to/lastmile_qr_scan", "ios": "https://dc.lft.to/lastmile_qr_scan"}, "fusion_lon": 0.0}, {"lat": 38.934575833333334, "is_disabled": 0, "type": "electric_scooter", "lon": -77.061987, "bike_id": "82a5e39e95e86d230e481267b120d362", "fusion_lat": 0.0, "name": "82a5e39e95e86d230e481267b120d362", "is_reserved": 0, "rental_uris": {"android": "https://dc.lft.to/lastmile_qr_scan", "ios": "https://dc.lft.to/lastmile_qr_scan"}, "fusion_lon": 0.0}, {"lat": 38.941724, "is_disabled": 0, "type": "electric_scooter", "lon": -77.0413035, "bike_id": "defa5fbfa6559bd32f9bbaf4e382d039", "fusion_lat": 0.0, "name": "defa5fbfa6559bd32f9bbaf4e382d039", "is_reserved": 0, "rental_uris": {"android": "https://dc.lft.to/lastmile_qr_scan", "ios": "https://dc.lft.to/lastmile_qr_scan"}, "fusion_lon": 0.0}, {"lat": 38.9009915, "is_disabled": 0, "type": "electric_scooter", "lon": -77.048975, "bike_id": "6606dc1cf5c766bd8769da7271e37cf3", "fusion_lat": 0.0, "name": "6606dc1cf5c766bd8769da7271e37cf3", "is_reserved": 0, "rental_uris": {"android": "https://dc.lft.to/lastmile_qr_scan", "ios": "https://dc.lft.to/lastmile_qr_scan"}, "fusion_lon": 0.0}, {"lat": 38.86386233333333, "is_disabled": 0, "type": "electric_bike", "lon": -76.98990483333333, "bike_id": "ad0caad5049371ab0bd20ef7b82976f0", "fusion_lat": 0.0, "name": "ad0caad5049371ab0bd20ef7b82976f0", "is_reserved": 0, "rental_uris": {"android": "https://dc.lft.to/lastmile_qr_scan", "ios": "https://dc.lft.to/lastmile_qr_scan"}, "fusion_lon": 0.0}, {"lat": 39.00014933333333, "is_disabled": 0, "type": "electric_bike", "lon": -76.910789, "bike_id": "20fd77040d58a9cc46bb716fc2aad3ad", "fusion_lat": 0.0, "name": "20fd77040d58a9cc46bb716fc2aad3ad", "is_reserved": 0, "rental_uris": {"android": "https://dc.lft.to/lastmile_qr_scan", "ios": "https://dc.lft.to/lastmile_qr_scan"}, "fusion_lon": 0.0}, {"lat": 38.927535166666665, "is_disabled": 0, "type": "electric_scooter", "lon": -77.02965216666666, "bike_id": "501dc9c1f406c6e5c19ca3c54936e8de", "fusion_lat": 0.0, "name": "501dc9c1f406c6e5c19ca3c54936e8de", "is_reserved": 0, "rental_uris": {"android": "https://dc.lft.to/lastmile_qr_scan", "ios": "https://dc.lft.to/lastmile_qr_scan"}, "fusion_lon": 0.0}, {"lat": 38.914268166666666, "is_disabled": 0, "type": "electric_scooter", "lon": -77.031806, "bike_id": "28b8464701c080db13c13bc09672a664", "fusion_lat": 0.0, "name": "28b8464701c080db13c13bc09672a664", "is_reserved": 0, "rental_uris": {"android": "https://dc.lft.to/lastmile_qr_scan", "ios": "https://dc.lft.to/lastmile_qr_scan"}, "fusion_lon": 0.0}, {"lat": 38.880343333333336, "is_disabled": 0, "type": "electric_scooter", "lon": -77.0036725, "bike_id": "5988085392ed9e332305dc9ae1b4baed", "fusion_lat": 0.0, "name": "5988085392ed9e332305dc9ae1b4baed", "is_reserved": 0, "rental_uris": {"android": "https://dc.lft.to/lastmile_qr_scan", "ios": "https://dc.lft.to/lastmile_qr_scan"}, "fusion_lon": 0.0}, {"lat": 38.861129166666665, "is_disabled": 0, "type": "electric_scooter", "lon": -76.967649, "bike_id": "e158d4fc634fbd536c653b6d1f1f19fa", "fusion_lat": 0.0, "name": "e158d4fc634fbd536c653b6d1f1f19fa", "is_reserved": 0, "rental_uris": {"android": "https://dc.lft.to/lastmile_qr_scan", "ios": "https://dc.lft.to/lastmile_qr_scan"}, "fusion_lon": 0.0}, {"lat": 38.91319133333333, "is_disabled": 0, "type": "electric_scooter", "lon": -77.03996966666666, "bike_id": "eef36f3ee9197d2ac9c97a992741ed23", "fusion_lat": 0.0, "name": "eef36f3ee9197d2ac9c97a992741ed23", "is_reserved": 0, "rental_uris": {"android": "https://dc.lft.to/lastmile_qr_scan", "ios": "https://dc.lft.to/lastmile_qr_scan"}, "fusion_lon": 0.0}, {"lat": 38.922721833333334, "is_disabled": 0, "type": "electric_scooter", "lon": -77.04483033333334, "bike_id": "941ce29b0dbfd5fccdf13de61a1486c6", "fusion_lat": 0.0, "name": "941ce29b0dbfd5fccdf13de61a1486c6", "is_reserved": 0, "rental_uris": {"android": "https://dc.lft.to/lastmile_qr_scan", "ios": "https://dc.lft.to/lastmile_qr_scan"}, "fusion_lon": 0.0}, {"lat": 38.9065435, "is_disabled": 0, "type": "electric_scooter", "lon": -77.07435016666666, "bike_id": "8f36b5768b50b140afc39b011217e62e", "fusion_lat": 0.0, "name": "8f36b5768b50b140afc39b011217e62e", "is_reserved": 0, "rental_uris": {"android": "https://dc.lft.to/lastmile_qr_scan", "ios": "https://dc.lft.to/lastmile_qr_scan"}, "fusion_lon": 0.0}, {"lat": 38.923898, "is_disabled": 0, "type": "electric_scooter", "lon": -77.0355445, "bike_id": "fb7db00c27b987ba53edbe3f2297e0de", "fusion_lat": 0.0, "name": "fb7db00c27b987ba53edbe3f2297e0de", "is_reserved": 0, "rental_uris": {"android": "https://dc.lft.to/lastmile_qr_scan", "ios": "https://dc.lft.to/lastmile_qr_scan"}, "fusion_lon": 0.0}, {"lat": 38.900581833333334, "is_disabled": 0, "type": "electric_scooter", "lon": -77.050198, "bike_id": "483f2ec6910421d16afcce84c0ffb5c9", "fusion_lat": 0.0, "name": "483f2ec6910421d16afcce84c0ffb5c9", "is_reserved": 0, "rental_uris": {"android": "https://dc.lft.to/lastmile_qr_scan", "ios": "https://dc.lft.to/lastmile_qr_scan"}, "fusion_lon": 0.0}, {"lat": 38.918677, "is_disabled": 0, "type": "electric_scooter", "lon": -77.04055216666667, "bike_id": "4ddfbb601aa677a7f356f3f27c82ba56", "fusion_lat": 0.0, "name": "4ddfbb601aa677a7f356f3f27c82ba56", "is_reserved": 0, "rental_uris": {"android": "https://dc.lft.to/lastmile_qr_scan", "ios": "https://dc.lft.to/lastmile_qr_scan"}, "fusion_lon": 0.0},