{"data": {"bikes": [{"fusion_lat": 0.0, "name": "10585c2f0051a3050282807f2684f6e8", "is_disabled": 0, "rental_uris": {"android": "https://dc.lft.to/lastmile_qr_scan", "ios": "https://dc.lft.to/lastmile_qr_scan"}, "fusion_lon": 0.0, "lat": 38.915614166666664, "bike_id": "10585c2f0051a3050282807f2684f6e8", "type": "electric_scooter", "is_reserved": 0, "lon": -77.02459633333333}, {"fusion_lat": 0.0, "name": "f194841d506a810f91853d07b46815c9", "is_disabled": 0, "rental_uris": {"android": "https://dc.lft.to/lastmile_qr_scan", "ios": "https://dc.lft.to/lastmile_qr_scan"}, "fusion_lon": 0.0, "lat": 38.887501, "bike_id": "f194841d506a810f91853d07b46815c9", "type": "electric_scooter", "is_reserved": 0, "lon": -77.03160916666667}, {"fusion_lat": 0.0, "name": "f074b8402776bde55c839a7ddbc58aad", "is_disabled": 0, "rental_uris": {"android": "https://dc.lft.to/lastmile_qr_scan", "ios": "https://dc.lft.to/lastmile_qr_scan"}, "fusion_lon": 0.0, "lat": 38.89758583333333, "bike_id": "f074b8402776bde55c839a7ddbc58aad", "type": "electric_scooter", "is_reserved": 0, "lon": -77.0251125}, {"fusion_lat": 0.0, "name": "3f92655d70da7624ae8f8df99c517ee0", "is_disabled": 0, "rental_uris": {"android": "https://dc.lft.to/lastmile_qr_scan", "ios": "https://dc.lft.to/lastmile_qr_scan"}, "fusion_lon": 0.0, "lat": 38.90685833333333, "bike_id": "3f92655d70da7624ae8f8df99c517ee0", "type": "electric_bike", "is_reserved": 0, "lon": -76.94493083333333}, {"fusion_lat": 0.0, "name": "752400524eac1bc5de3b595ec8b8d079", "is_disabled": 0, "rental_uris": {"android": "https://dc.lft.to/lastmile_qr_scan", "ios": "https://dc.lft.to/lastmile_qr_scan"}, "fusion_lon": 0.0, "lat": 38.88766966666667, "bike_id": "752400524eac1bc5de3b595ec8b8d079", "type": "electric_scooter", "is_reserved": 0, "lon": -76.97743733333333}, {"fusion_lat": 0.0, "name": "44d57cd933b1d0d3c091096489d983d8", "is_disabled": 0, "rental_uris": {"android": "https://dc.lft.to/lastmile_qr_scan", "ios": "https://dc.lft.to/lastmile_qr_scan"}, "fusion_lon": 0.0, "lat": 38.92869316666667, "bike_id": "44d57cd933b1d0d3c091096489d983d8", "type": "electric_scooter", "is_reserved": 0, "lon": -77.0303875}, {"fusion_lat": 0.0, "name": "3770f0fedd2f6d2e942e944b45007325", "is_disabled": 0, "rental_uris": {"android": "https://dc.lft.to/lastmile_qr_scan", "ios": "https://dc.lft.to/lastmile_qr_scan"}, "fusion_lon": 0.0, "lat": 38.928113, "bike_id": "3770f0fedd2f6d2e942e944b45007325", "type": "electric_scooter", "is_reserved": 0, "lon": -77.04362733333333}, {"fusion_lat": 0.0, "name": "e2816d68746361872ea315b2665870b6", "is_disabled": 0, "rental_uris": {"android": "https://dc.lft.to/lastmile_qr_scan", "ios": "https://dc.lft.to/lastmile_qr_scan"}, "fusion_lon": 0.0, "lat": 38.90151983333333, "bike_id": "e2816d68746361872ea315b2665870b6", "type": "electric_scooter", "is_reserved": 0, "lon": -76.93065216666666}, {"fusion_lat": 0.0, "name": "bda60d0be3de35a2787099be56b1510e", "is_disabled": 0, "rental_uris": {"android": "https://dc.lft.to/lastmile_qr_scan", "ios": "https://dc.lft.to/lastmile_qr_scan"}, "fusion_lon": 0.0, "lat": 38.91243983333333, "bike_id": "bda60d0be3de35a2787099be56b1510e", "type": "electric_scooter", "is_reserved": 0, "lon": -77.006459}, {"fusion_lat": 0.0, "name": "8257912a4d47912042bf27aacaf1f9e5", "is_disabled": 0, "rental_uris": {"android": "https://dc.lft.to/lastmile_qr_scan", "ios": "https://dc.lft.to/lastmile_qr_scan"}, "fusion_lon": 0.0, "lat": 38.921928333333334, "bike_id": "8257912a4d47912042bf27aacaf1f9e5", "type": "electric_scooter", "is_reserved": 0, "lon": -77.0424685}, {"fusion_lat": 0.0, "name": "8aeb0d95c43fe5e1c12a0fdbe7b1cb3e", "is_disabled": 0, "rental_uris": {"android": "https://dc.lft.to/lastmile_qr_scan", "ios": "https://dc.lft.to/lastmile_qr_scan"}, "fusion_lon": 0.0, "lat": 38.86917533333333, "bike_id": "8aeb0d95c43fe5e1c12a0fdbe7b1cb3e", "type": "electric_bike", "is_reserved": 0, "lon": -76.97496566666666}, {"fusion_lat": 0.0, "name": "4202388d7c360abdf739931253d8d5b8", "is_disabled": 0, "rental_uris": {"android": "https://dc.lft.to/lastmile_qr_scan", "ios": "https://dc.lft.to/lastmile_qr_scan"}, "fusion_lon": 0.0, "lat": 38.9093585, "bike_id": "4202388d7c360abdf739931253d8d5b8", "type": "electric_scooter", "is_reserved": 0, "lon": -77.01844466666667}, {"fusion_lat": 0.0, "name": "7ca67bce4dfff58daceca627f627c92e", "is_disabled": 0, "rental_uris": {"android": "https://dc.lft.to/lastmile_qr_scan", "ios": "https://dc.lft.to/lastmile_qr_scan"}, "fusion_lon": 0.0, "lat": 38.9170215, "bike_id": "7ca67bce4dfff58daceca627f627c92e", "type": "electric_scooter", "is_reserved": 0, "lon": -77.02483933333333}, {"fusion_lat": 0.0, "name": "3b4163272286b5fdfd9ec1220c771852", "is_disabled": 0, "rental_uris": {"android": "https://dc.lft.to/lastmile_qr_scan", "ios": "https://dc.lft.to/lastmile_qr_scan"}, "fusion_lon": 0.0, "lat": 38.92795783333333, "bike_id": "3b4163272286b5fdfd9ec1220c771852", "type": "electric_scooter", "is_reserved": 0, "lon": -76.955558}, {"fusion_lat": 0.0, "name": "fb2a9d0b3b9ee4b0f9661c48a9d46ff8", "is_disabled": 0, "rental_uris": {"android": "https://dc.lft.to/lastmile_qr_scan", "ios": "https://dc.lft.to/lastmile_qr_scan"}, "fusion_lon": 0.0, "lat": 38.916203833333334, "bike_id": "fb2a9d0b3b9ee4b0f9661c48a9d46ff8", "type": "electric_scooter", "is_reserved": 0, "lon": -77.03188166666666}, {"fusion_lat": 0.0, "name": "60e65b6893da40f658a1d25f70881037", "is_disabled": 0, "rental_uris": {"android": "https://dc.lft.to/lastmile_qr_scan", "ios": "https://dc.lft.to/lastmile_qr_scan"}, "fusion_lon": 0.0, "lat": 38.924003166666665, "bike_id": "60e65b6893da40f658a1d25f70881037", "type": "electric_scooter", "is_reserved": 0, "lon": -77.042735}, {"fusion_lat": 0.0, "name": "0bbcf544f33555eb356b03198661aac6", "is_disabled": 0, "rental_uris": {"android": "https://dc.lft.to/lastmile_qr_scan", "ios": "https://dc.lft.to/lastmile_qr_scan"}, "fusion_lon": 0.0, "lat": 38.90487233333333, "bike_id": "0bbcf544f33555eb356b03198661aac6", "type": "electric_scooter", "is_reserved": 0, "lon": -76.94957733333334}, {"fusion_lat": 0.0, "name": "6ebc5a01eae448bf237b5c668ca5ae9a", "is_disabled": 0, "rental_uris": {"android": "https://dc.lft.to/lastmile_qr_scan", "ios": "https://dc.lft.to/lastmile_qr_scan"}, "fusion_lon": 0.0, "lat": 38.907674, "bike_id": "6ebc5a01eae448bf237b5c668ca5ae9a", "type": "electric_scooter", "is_reserved": 0, "lon": -77.062301}, {"fusion_lat": 0.0, "name": "65b6d027f6e2799491db9cafa3b145ce", "is_disabled": 0, "rental_uris": {"android": "https://dc.lft.to/lastmile_qr_scan", "ios": "https://dc.lft.to/lastmile_qr_scan"}, "fusion_lon": 0.0, "lat": 38.94921516666667, "bike_id": "65b6d027f6e2799491db9cafa3b145ce", "type": "electric_scooter", "is_reserved": 0, "lon": -77.01859183333333}, {"fusion_lat": 0.0, "name": "d2aaa7202ad6c722745303f16c403af3", "is_disabled": 0, "rental_uris": {"android": "https://dc.lft.to/lastmile_qr_scan", "ios": "https://dc.lft.to/lastmile_qr_scan"}, "fusion_lon": 0.0, "lat": 38.91766283333333, "bike_id": "d2aaa7202ad6c722745303f16c403af3", "type": "electric_scooter", "is_reserved": 0, "lon": -77.03640833333333}, {"fusion_lat": 0.0, "name": "1c0c59a24e03cfecde3fd20fd9ea63ed", "is_disabled": 0, "rental_uris": {"android": "https://dc.lft.to/lastmile_qr_scan", "ios": "https://dc.lft.to/lastmile_qr_scan"}, "fusion_lon": 0.0, "lat": 38.929162166666664, "bike_id": "1c0c59a24e03cfecde3fd20fd9ea63ed", "type": "electric_scooter", "is_reserved": 0, "lon": -77.031519}, {"fusion_lat": 0.0, "name": "a8d69a501f982db08686a0e7fd1e514b", "is_disabled": 0, "rental_uris": {"android": "https://dc.lft.to/lastmile_qr_scan", "ios": "https://dc.lft.to/lastmile_qr_scan"}, "fusion_lon": 0.0, "lat": 38.92773416666667, "bike_id": "a8d69a501f982db08686a0e7fd1e514b", "type": "electric_scooter", "is_reserved": 0, "lon": -77.0362825}, {"fusion_lat": 0.0, "name": "69fa1f8847fa3c5d38e37cdd61f33145", "is_disabled": 0, "rental_uris": {"android": "https://dc.lft.to/lastmile_qr_scan", "ios": "https://dc.lft.to/lastmile_qr_scan"}, "fusion_lon": 0.0, "lat": 38.93057233333333, "bike_id": "69fa1f8847fa3c5d38e37cdd61f33145", "type": "electric_scooter", "is_reserved": 0, "lon": -77.03941366666666}, {"fusion_lat": 0.0, "name": "f32a005d7b53d9c2432999d43beac349", "is_disabled": 0, "rental_uris": {"android": "https://dc.lft.to/lastmile_qr_scan", "ios": "https://dc.lft.to/lastmile_qr_scan"}, "fusion_lon": 0.0, "lat": 38.92574033333333, "bike_id": "f32a005d7b53d9c2432999d43beac349", "type": "electric_scooter", "is_reserved": 0, "lon": -77.03741233333334}, {"fusion_lat": 0.0, "name": "b3aab4245989de659366d72fb2c127f2", "is_disabled": 0, "rental_uris": {"android": "https://dc.lft.to/lastmile_qr_scan", "ios": "https://dc.lft.to/lastmile_qr_scan"}, "fusion_lon": 0.0, "lat": 38.89705166666667, "bike_id": "b3aab4245989de659366d72fb2c127f2", "type": "electric_scooter", "is_reserved": 0, "lon": -77.02159}, {"fusion_lat": 0.0, "name": "35ee7b9c940be4ae9b771db6275670cd", "is_disabled": 0, "rental_uris": {"android": "https://dc.lft.to/lastmile_qr_scan", "ios": "https://dc.lft.to/lastmile_qr_scan"}, "fusion_lon": 0.0, "lat": 38.8990825, "bike_id": "35ee7b9c940be4ae9b771db6275670cd", "type": "electric_scooter", "is_reserved": 0, "lon": -76.933529}, {"fusion_lat": 0.0, "name": "57d024278663603df7947c3d0640ec4d", "is_disabled": 0, "rental_uris": {"android": "https://dc.lft.to/lastmile_qr_scan", "ios": "https://dc.lft.to/lastmile_qr_scan"}, "fusion_lon": 0.0, "lat": 38.90371183333333, "bike_id": "57d024278663603df7947c3d0640ec4d", "type": "electric_scooter", "is_reserved": 0, "lon": -77.06009183333333}, {"fusion_lat": 0.0, "name": "cf92d23c0290561c70c9788181c1b19f", "is_disabled": 0, "rental_uris": {"android": "https://dc.lft.to/lastmile_qr_scan", "ios": "https://dc.lft.to/lastmile_qr_scan"}, "fusion_lon": 0.0, "lat": 38.9003735, "bike_id": "cf92d23c0290561c70c9788181c1b19f", "type": "electric_scooter", "is_reserved": 0, "lon": -77.02378216666666}, {"fusion_lat": 0.0, "name": "7621c4ec8098e4b0a55b523b590d09ac", "is_disabled": 0, "rental_uris": {"android": "https://dc.lft.to/lastmile_qr_scan", "ios": "https://dc.lft.to/lastmile_qr_scan"}, "fusion_lon": 0.0, "lat": 38.93415616666667, "bike_id": "7621c4ec8098e4b0a55b523b590d09ac", "type": "electric_scooter", "is_reserved": 0, "lon": -77.041624}, {"fusion_lat": 0.0, "name": "417e5ca5314f13b2571c023b7a2d5ac1", "is_disabled": 0, "rental_uris": {"android": "https://dc.lft.to/lastmile_qr_scan", "ios": "https://dc.lft.to/lastmile_qr_scan"}, "fusion_lon": 0.0, "lat": 38.892504, "bike_id": "417e5ca5314f13b2571c023b7a2d5ac1", "type": "electric_scooter", "is_reserved": 0, "lon": -77.019621}, {"fusion_lat": 0.0, "name": "3fc58d3a82df3c9a31254c8971d35c17", "is_disabled": 0, "rental_uris": {"android": "https://dc.lft.to/lastmile_qr_scan", "ios": "https://dc.lft.to/lastmile_qr_scan"}, "fusion_lon": 0.0, "lat": 38.89831, "bike_id": "3fc58d3a82df3c9a31254c8971d35c17", "type": "electric_scooter", "is_reserved": 0, "lon": -77.02703366666667}, {"fusion_lat": 0.0, "name": "22c64eca9ff29b9d4d99bff8570cf9c7", "is_disabled": 0, "rental_uris": {"android": "https://dc.lft.to/lastmile_qr_scan", "ios": "https://dc.lft.to/lastmile_qr_scan"}, "fusion_lon": 0.0, "lat": 38.89877583333333, "bike_id": "22c64eca9ff29b9d4d99bff8570cf9c7", "type": "electric_scooter", "is_reserved": 0, "lon": -76.93185433333333}, {"fusion_lat": 0.0, "name": "6a8ea47a1956e8bdc807da0c80b6104e", "is_disabled": 0, "rental_uris": {"android": "https://dc.lft.to/lastmile_qr_scan", "ios": "https://dc.lft.to/lastmile_qr_scan"}, "fusion_lon": 0.0, "lat": 38.911358166666666, "bike_id": "6a8ea47a1956e8bdc807da0c80b6104e", "type": "electric_scooter", "is_reserved": 0, "lon": -77.04349866666666}, {"fusion_lat": 0.0, "name": "e74035235a9704d53bc46c656f841b9a", "is_disabled": 0, "rental_uris": {"android": "https://dc.lft.to/lastmile_qr_scan", "ios": "https://dc.lft.to/lastmile_qr_scan"}, "fusion_lon": 0.0, "lat": 38.902857166666664, "bike_id": "e74035235a9704d53bc46c656f841b9a", "type": "electric_scooter", "is_reserved": 0, "lon": -77.03938383333333}, {"fusion_lat": 0.0, "name": "e89f4137638e23ad738cd89bfb07945a", "is_disabled": 0, "rental_uris": {"android": "https://dc.lft.to/lastmile_qr_scan", "ios": "https://dc.lft.to/lastmile_qr_scan"}, "fusion_lon": 0.0, "lat": 38.877101, "bike_id": "e89f4137638e23ad738cd89bfb07945a", "type": "electric_scooter", "is_reserved": 0, "lon": -76.99382783333333}, {"fusion_lat": 0.0, "name": "2407ef5b27610b174e8c49415b7debd3", "is_disabled": 0, "rental_uris": {"android": "https://dc.lft.to/lastmile_qr_scan", "ios": "https://dc.lft.to/lastmile_qr_scan"}, "fusion_lon": 0.0, "lat": 38.886136, "bike_id": "2407ef5b27610b174e8c49415b7debd3", "type": "electric_scooter", "is_reserved": 0, "lon": -77.01554166666666}, {"fusion_lat": 0.0, "name": "4d7c92e38852de7412b75d7f9ad1fafb", "is_disabled": 0, "rental_uris": {"android": "https://dc.lft.to/lastmile_qr_scan", "ios": "https://dc.lft.to/lastmile_qr_scan"}, "fusion_lon": 0.0, "lat": 38.89215683333333, "bike_id": "4d7c92e38852de7412b75d7f9ad1fafb", "type": "electric_scooter", "is_reserved": 0, "lon": -77.01717783333334}, {"fusion_lat": 0.0, "name": "ab2c2bdf59c08a5c73ae13534dfe873b", "is_disabled": 0, "rental_uris": {"android": "https://dc.lft.to/lastmile_qr_scan", "ios": "https://dc.lft.to/lastmile_qr_scan"}, "fusion_lon": 0.0, "lat": 38.9276855, "bike_id": "ab2c2bdf59c08a5c73ae13534dfe873b", "type": "electric_scooter", "is_reserved": 0, "lon": -77.0363545}, {"fusion_lat": 0.0, "name": "fbc71f4d6482134ddab9219ccf17d0e3", "is_disabled": 0, "rental_uris": {"android": "https://dc.lft.to/lastmile_qr_scan", "ios": "https://dc.lft.to/lastmile_qr_scan"}, "fusion_lon": 0.0, "lat": 38.899130666666665, "bike_id": "fbc71f4d6482134ddab9219ccf17d0e3", "type": "electric_scooter", "is_reserved": 0, "lon": -76.9458655}, {"fusion_lat": 0.0, "name": "63e2c21b602a191652ac97b4fe17dd77", "is_disabled": 0, "rental_uris": {"android": "https://dc.lft.to/lastmile_qr_scan", "ios": "https://dc.lft.to/lastmile_qr_scan"}, "fusion_lon": 0.0, "lat": 38.9329375, "bike_id": "63e2c21b602a191652ac97b4fe17dd77", "type": "electric_scooter", "is_reserved": 0, "lon": -77.028321}, {"fusion_lat": 0.0, "name": "418f680f284429834cfa5c145979cf03", "is_disabled": 0, "rental_uris": {"android": "https://dc.lft.to/lastmile_qr_scan", "ios": "https://dc.lft.to/lastmile_qr_scan"}, "fusion_lon": 0.0, "lat": 38.88528266666667, "bike_id": "418f680f284429834cfa5c145979cf03", "type": "electric_scooter", "is_reserved": 0, "lon": -76.929189}, {"fusion_lat": 0.0, "name": "e1a6fbea3d0ad1b8e5abcf67917485ea", "is_disabled": 0, "rental_uris": {"android": "https://dc.lft.to/lastmile_qr_scan", "ios": "https://dc.lft.to/lastmile_qr_scan"}, "fusion_lon": 0.0, "lat": 38.8922025, "bike_id": "e1a6fbea3d0ad1b8e5abcf67917485ea", "type": "electric_scooter", "is_reserved": 0, "lon": -77.02373633333333}, {"fusion_lat": 0.0, "name": "cb2a9881ddc814420b1b720473934062", "is_disabled": 0, "rental_uris": {"android": "https://dc.lft.to/lastmile_qr_scan", "ios": "https://dc.lft.to/lastmile_qr_scan"}, "fusion_lon": 0.0, "lat": 38.91565666666666, "bike_id": "cb2a9881ddc814420b1b720473934062", "type": "electric_scooter", "is_reserved": 0, "lon": -77.031604}, {"fusion_lat": 0.0, "name": "081b32556950870a0a15989dd2b3b5cb", "is_disabled": 0, "rental_uris": {"android": "https://dc.lft.to/lastmile_qr_scan", "ios": "https://dc.lft.to/lastmile_qr_scan"}, "fusion_lon": 0.0, "lat": 38.91620866666667, "bike_id": "081b32556950870a0a15989dd2b3b5cb", "type": "electric_scooter", "is_reserved": 0, "lon": -77.003313}, {"fusion_lat": 0.0, "name": "680fa82d9df1c1a62fdf118e8c854f66", "is_disabled": 0, "rental_uris": {"android": "https://dc.lft.to/lastmile_qr_scan", "ios": "https://dc.lft.to/lastmile_qr_scan"}, "fusion_lon": 0.0, "lat": 38.875806833333336, "bike_id": "680fa82d9df1c1a62fdf118e8c854f66", "type": "electric_bike", "is_reserved": 0, "lon": -77.23410383333334}, {"fusion_lat": 0.0, "name": "f646966222df2ce3c2c331d94ad97947", "is_disabled": 0, "rental_uris": {"android": "https://dc.lft.to/lastmile_qr_scan", "ios": "https://dc.lft.to/lastmile_qr_scan"}, "fusion_lon": 0.0, "lat": 38.92843633333333, "bike_id": "f646966222df2ce3c2c331d94ad97947", "type": "electric_scooter", "is_reserved": 0, "lon": -77.01584166666666}, {"fusion_lat": 0.0, "name": "7b6eac15fc229a68209bb86a28b16c09", "is_disabled": 0, "rental_uris": {"android": "https://dc.lft.to/lastmile_qr_scan", "ios": "https://dc.lft.to/lastmile_qr_scan"}, "fusion_lon": 0.0, "lat": 38.93044033333334, "bike_id": "7b6eac15fc229a68209bb86a28b16c09", "type": "electric_scooter", "is_reserved": 0, "lon": -77.03302133333334}, {"fusion_lat": 0.0, "name": "c4c19361865bc6b36420ba0f93aa6523", "is_disabled": 0, "rental_uris": {"android": "https://dc.lft.to/lastmile_qr_scan", "ios": "https://dc.lft.to/lastmile_qr_scan"}, "fusion_lon": 0.0, "lat": 38.93531683333333, "bike_id": "c4c19361865bc6b36420ba0f93aa6523", "type": "electric_scooter", "is_reserved": 0, "lon": -77.02354183333334}, {"fusion_lat": 0.0, "name": "3af2ca31a9bef1fc55be35dcd90c5e2d", "is_disabled": 0, "rental_uris": {"android": "https://dc.lft.to/lastmile_qr_scan", "ios": "https://dc.lft.to/lastmile_qr_scan"}, "fusion_lon": 0.0, "lat": 38.899053333333335, "bike_id": "3af2ca31a9bef1fc55be35dcd90c5e2d", "type": "electric_scooter", "is_reserved": 0, "lon": -76.933586}, {"fusion_lat": 0.0, "name": "da33a988bcd3be1a7c1e7cf2df08d195", "is_disabled": 0, "rental_uris": {"android": "https://dc.lft.to/lastmile_qr_scan", "ios": "https://dc.lft.to/lastmile_qr_scan"}, "fusion_lon": 0.0, "lat": 38.963135333333334, "bike_id": "da33a988bcd3be1a7c1e7cf2df08d195", "type": "electric_scooter", "is_reserved": 0, "lon": -77.07493916666667}, {"fusion_lat": 0.0, "name": "d859fa94422fa02b1b2ddf361030c5b5", "is_disabled": 0, "rental_uris": {"android": "https://dc.lft.to/lastmile_qr_scan", "ios": "https://dc.lft.to/lastmile_qr_scan"}, "fusion_lon": 0.0, "lat": 38.93874733333333, "bike_id": "d859fa94422fa02b1b2ddf361030c5b5", "type": "electric_scooter", "is_reserved": 0, "lon": -77.032924}, {"fusion_lat": 0.0, "name": "8a05ad425972f18123bb6ebad8062b02", "is_disabled": 0, "rental_uris": {"android": "https://dc.lft.to/lastmile_qr_scan", "ios": "https://dc.lft.to/lastmile_qr_scan"}, "fusion_lon": 0.0, "lat": 38.914863833333335, "bike_id": "8a05ad425972f18123bb6ebad8062b02", "type": "electric_scooter", "is_reserved": 0, "lon": -77.03256183333333}, {"fusion_lat": 0.0, "name": "943bc9f61abcfe9ce5f925a0bf29e824", "is_disabled": 0, "rental_uris": {"android": "https://dc.lft.to/lastmile_qr_scan", "ios": "https://dc.lft.to/lastmile_qr_scan"}, "fusion_lon": 0.0, "lat": 38.919264, "bike_id": "943bc9f61abcfe9ce5f925a0bf29e824", "type": "electric_scooter", "is_reserved": 0, "lon": -77.012102}, {"fusion_lat": 0.0, "name": "6293f9cab277da91378f7e7435fc99a5", "is_disabled": 0, "rental_uris": {"android": "https://dc.lft.to/lastmile_qr_scan", "ios": "https://dc.lft.to/lastmile_qr_scan"}, "fusion_lon": 0.0, "lat": 38.9255985, "bike_id": "6293f9cab277da91378f7e7435fc99a5", "type": "electric_scooter", "is_reserved": 0, "lon": -77.02279666666666}, {"fusion_lat": 0.0, "name": "04c62ecedd677a22124c4aacfc65ec38", "is_disabled": 0, "rental_uris": {"android": "https://dc.lft.to/lastmile_qr_scan", "ios": "https://dc.lft.to/lastmile_qr_scan"}, "fusion_lon": 0.0, "lat": 38.90954883333333, "bike_id": "04c62ecedd677a22124c4aacfc65ec38", "type": "electric_scooter", "is_reserved": 0, "lon": -77.04859016666667}, {"fusion_lat": 0.0, "name": "645802b9a50113a1b72c232a9fa1a89e", "is_disabled": 0, "rental_uris": {"android": "https://dc.lft.to/lastmile_qr_scan", "ios": "https://dc.lft.to/lastmile_qr_scan"}, "fusion_lon": 0.0, "lat": 38.95632533333333, "bike_id": "645802b9a50113a1b72c232a9fa1a89e", "type": "electric_bike", "is_reserved": 0, "lon": -76.9387925}, {"fusion_lat": 0.0, "name": "3bf9fa02d8f78309d672ef7b20c8e855", "is_disabled": 0, "rental_uris": {"android": "https://dc.lft.to/lastmile_qr_scan", "ios": "https://dc.lft.to/lastmile_qr_scan"}, "fusion_lon": 0.0, "lat": 39.0107635, "bike_id": "3bf9fa02d8f78309d672ef7b20c8e855", "type": "electric_bike", "is_reserved": 0, "lon": -76.91065316666666}, {"fusion_lat": 0.0, "name": "bb4603884fc4ad1b462a234fe60a6f68", "is_disabled": 0, "rental_uris": {"android": "https://dc.lft.to/lastmile_qr_scan", "ios": "https://dc.lft.to/lastmile_qr_scan"}, "fusion_lon": 0.0, "lat": 38.945269833333334, "bike_id": "bb4603884fc4ad1b462a234fe60a6f68", "type": "electric_scooter", "is_reserved": 0, "lon": -77.02090133333333}, {"fusion_lat": 0.0, "name": "c1486ac19630cb650903b35769825efc", "is_disabled": 0, "rental_uris": {"android": "https://dc.lft.to/lastmile_qr_scan", "ios": "https://dc.lft.to/lastmile_qr_scan"}, "fusion_lon": 0.0, "lat": 38.91685, "bike_id": "c1486ac19630cb650903b35769825efc", "type": "electric_scooter", "is_reserved": 0, "lon": -77.02967633333333}, {"fusion_lat": 0.0, "name": "27f8c25bde5bc9cdb51ea36faaffc6f6", "is_disabled": 0, "rental_uris": {"android": "https://dc.lft.to/lastmile_qr_scan", "ios": "https://dc.lft.to/lastmile_qr_scan"}, "fusion_lon": 0.0, "lat": 38.88163433333333, "bike_id": "27f8c25bde5bc9cdb51ea36faaffc6f6", "type": "electric_scooter", "is_reserved": 0, "lon": -77.02768533333334}, {"fusion_lat": 0.0, "name": "133aca561a2a5da79f708840656bc7fa", "is_disabled": 0, "rental_uris": {"android": "https://dc.lft.to/lastmile_qr_scan", "ios": "https://dc.lft.to/lastmile_qr_scan"}, "fusion_lon": 0.0, "lat": 38.89491366666667, "bike_id": "133aca561a2a5da79f708840656bc7fa", "type": "electric_scooter", "is_reserved": 0, "lon": -77.01084483333334}, {"fusion_lat": 0.0, "name": "28b8cbd838dec2f54b33d9bce1cf7f61", "is_disabled": 0, "rental_uris": {"android": "https://dc.lft.to/lastmile_qr_scan", "ios": "https://dc.lft.to/lastmile_qr_scan"}, "fusion_lon": 0.0, "lat": 38.930513, "bike_id": "28b8cbd838dec2f54b33d9bce1cf7f61", "type": "electric_scooter", "is_reserved": 0, "lon": -77.04063466666666}, {"fusion_lat": 0.0, "name": "bd8dcb05106a049e753a60e4211bc197", "is_disabled": 0, "rental_uris": {"android": "https://dc.lft.to/lastmile_qr_scan", "ios": "https://dc.lft.to/lastmile_qr_scan"}, "fusion_lon": 0.0, "lat": 38.865203, "bike_id": "bd8dcb05106a049e753a60e4211bc197", "type": "electric_bike", "is_reserved": 0, "lon": -76.97331716666666}, {"fusion_lat": 0.0, "name": "2fef131ac9f6b9dbacfd0db07f1d91de", "is_disabled": 0, "rental_uris": {"android": "https://dc.lft.to/lastmile_qr_scan", "ios": "https://dc.lft.to/lastmile_qr_scan"}, "fusion_lon": 0.0, "lat": 38.87698416666667, "bike_id": "2fef131ac9f6b9dbacfd0db07f1d91de", "type": "electric_scooter", "is_reserved": 0, "lon": -77.00730866666666}, {"fusion_lat": 0.0, "name": "b87689ede9ed2694cc0f7bd8ce77e77e", "is_disabled": 0, "rental_uris": {"android": "https://dc.lft.to/lastmile_qr_scan", "ios": "https://dc.lft.to/lastmile_qr_scan"}, "fusion_lon": 0.0, "lat": 38.849103666666664, "bike_id": "b87689ede9ed2694cc0f7bd8ce77e77e", "type": "electric_bike", "is_reserved": 0, "lon": -77.09978583333333}, {"fusion_lat": 0.0, "name": "8ae4a858922758562f348cb3489fbcba", "is_disabled": 0, "rental_uris": {"android": "https://dc.lft.to/lastmile_qr_scan", "ios": "https://dc.lft.to/lastmile_qr_scan"}, "fusion_lon": 0.0, "lat": 38.969298, "bike_id": "8ae4a858922758562f348cb3489fbcba", "type": "electric_bike", "is_reserved": 0, "lon": -77.02614516666667}, {"fusion_lat": 0.0, "name": "589fe4b3e07ac02b1899f74b42a48ab3", "is_disabled": 0, "rental_uris": {"android": "https://dc.lft.to/lastmile_qr_scan", "ios": "https://dc.lft.to/lastmile_qr_scan"}, "fusion_lon": 0.0, "lat": 38.92812633333333, "bike_id": "589fe4b3e07ac02b1899f74b42a48ab3", "type": "electric_scooter", "is_reserved": 0, "lon": -77.04358333333333}, {"fusion_lat": 0.0, "name": "df09aba907ac563ad8e404a0d3a7b108", "is_disabled": 0, "rental_uris": {"android": "https://dc.lft.to/lastmile_qr_scan", "ios": "https://dc.lft.to/lastmile_qr_scan"}, "fusion_lon": 0.0, "lat": 38.903583833333336, "bike_id": "df09aba907ac563ad8e404a0d3a7b108", "type": "electric_scooter", "is_reserved": 0, "lon": -77.062708}, {"fusion_lat": 0.0, "name": "21b2f6bc1d3369dcbb1749d1f4fbc3d3", "is_disabled": 0, "rental_uris": {"android": "https://dc.lft.to/lastmile_qr_scan", "ios": "https://dc.lft.to/lastmile_qr_scan"}, "fusion_lon": 0.0, "lat": 38.8765515, "bike_id": "21b2f6bc1d3369dcbb1749d1f4fbc3d3", "type": "electric_scooter", "is_reserved": 0, "lon": -77.00721316666667}, {"fusion_lat": 0.0, "name": "1b2be752243290668c15368252b60e50", "is_disabled": 0, "rental_uris": {"android": "https://dc.lft.to/lastmile_qr_scan", "ios": "https://dc.lft.to/lastmile_qr_scan"}, "fusion_lon": 0.0, "lat": 38.90386066666667, "bike_id": "1b2be752243290668c15368252b60e50", "type": "electric_scooter", "is_reserved": 0, "lon": -77.033101}, {"fusion_lat": 0.0, "name": "838fdafb9fcc0c57ca5d9436d85a6cb1", "is_disabled": 0, "rental_uris": {"android": "https://dc.lft.to/lastmile_qr_scan", "ios": "https://dc.lft.to/lastmile_qr_scan"}, "fusion_lon": 0.0, "lat": 38.9412315, "bike_id": "838fdafb9fcc0c57ca5d9436d85a6cb1", "type": "electric_bike", "is_reserved": 0, "lon": -76.99030933333333}, {"fusion_lat": 0.0, "name": "7a3f2fdb75eed0cbeed2957c14c913dd", "is_disabled": 0, "rental_uris": {"android": "https://dc.lft.to/lastmile_qr_scan", "ios": "https://dc.lft.to/lastmile_qr_scan"}, "fusion_lon": 0.0, "lat": 38.91703483333333, "bike_id": "7a3f2fdb75eed0cbeed2957c14c913dd", "type": "electric_scooter", "is_reserved": 0, "lon": -77.04169533333334}, {"fusion_lat": 0.0, "name": "aa6d7e8bf62045b612ec65b1e62f4253", "is_disabled": 0, "rental_uris": {"android": "https://dc.lft.to/lastmile_qr_scan", "ios": "https://dc.lft.to/lastmile_qr_scan"}, "fusion_lon": 0.0, "lat": 38.933629, "bike_id": "aa6d7e8bf62045b612ec65b1e62f4253", "type": "electric_scooter", "is_reserved": 0, "lon": -77.02427933333334}, {"fusion_lat": 0.0, "name": "6d5d76601967d493bd47fae7c8bb85d7", "is_disabled": 0, "rental_uris": {"android": "https://dc.lft.to/lastmile_qr_scan", "ios": "https://dc.lft.to/lastmile_qr_scan"}, "fusion_lon": 0.0, "lat": 38.90059766666667, "bike_id": "6d5d76601967d493bd47fae7c8bb85d7", "type": "electric_scooter", "is_reserved": 0, "lon": -77.01432716666666}, {"fusion_lat": 0.0, "name": "c9ed9ed9357a5ad34dc10c953638fb86", "is_disabled": 0, "rental_uris": {"android": "https://dc.lft.to/lastmile_qr_scan", "ios": "https://dc.lft.to/lastmile_qr_scan"}, "fusion_lon": 0.0, "lat": 38.91108166666667, "bike_id": "c9ed9ed9357a5ad34dc10c953638fb86", "type": "electric_scooter", "is_reserved": 0, "lon": -77.04477366666667}, {"fusion_lat": 0.0, "name": "5bd71dc0af166d0c33d33947ba3ea285", "is_disabled": 0, "rental_uris": {"android": "https://dc.lft.to/lastmile_qr_scan", "ios": "https://dc.lft.to/lastmile_qr_scan"}, "fusion_lon": 0.0, "lat": 38.909775, "bike_id": "5bd71dc0af166d0c33d33947ba3ea285", "type": "electric_scooter", "is_reserved": 0, "lon": -77.04497016666667}, {"fusion_lat": 0.0, "name": "d77834b395a77f8319d080792d75aed5", "is_disabled": 0, "rental_uris": {"android": "https://dc.lft.to/lastmile_qr_scan", "ios": "https://dc.lft.to/lastmile_qr_scan"}, "fusion_lon": 0.0, "lat": 38.9712495, "bike_id": "d77834b395a77f8319d080792d75aed5", "type": "electric_bike", "is_reserved": 0, "lon": -77.020905}, {"fusion_lat": 0.0, "name": "e9da7a5c6d43f1e763f096187cc195fc", "is_disabled": 0, "rental_uris": {"android": "https://dc.lft.to/lastmile_qr_scan", "ios": "https://dc.lft.to/lastmile_qr_scan"}, "fusion_lon": 0.0, "lat": 38.919692833333336, "bike_id": "e9da7a5c6d43f1e763f096187cc195fc", "type": "electric_scooter", "is_reserved": 0, "lon": -77.01835033333333}, {"fusion_lat": 0.0, "name": "d1d0b3895d7bbdfbe983130dd8f1a17b", "is_disabled": 0, "rental_uris": {"android": "https://dc.lft.to/lastmile_qr_scan", "ios": "https://dc.lft.to/lastmile_qr_scan"}, "fusion_lon": 0.0, "lat": 38.92789716666667, "bike_id": "d1d0b3895d7bbdfbe983130dd8f1a17b", "type": "electric_scooter", "is_reserved": 0, "lon": -77.03149983333333}, {"fusion_lat": 0.0, "name": "1a4d682c4fa265217a45496be11d6381", "is_disabled": 0, "rental_uris": {"android": "https://dc.lft.to/lastmile_qr_scan", "ios": "https://dc.lft.to/lastmile_qr_scan"}, "fusion_lon": 0.0, "lat": 38.93389283333333, "bike_id": "1a4d682c4fa265217a45496be11d6381", "type": "electric_scooter", "is_reserved": 0, "lon": -77.024126}, {"fusion_lat": 0.0, "name": "029a424ac4167139b644f585b7b2fcd3", "is_disabled": 0, "rental_uris": {"android": "https://dc.lft.to/lastmile_qr_scan", "ios": "https://dc.lft.to/lastmile_qr_scan"}, "fusion_lon": 0.0, "lat": 38.89331516666667, "bike_id": "029a424ac4167139b644f585b7b2fcd3", "type": "electric_scooter", "is_reserved": 0, "lon": -77.02243683333333}, {"fusion_lat": 0.0, "name": "268ed4e3fdb4d3be71d939a36fa57cff", "is_disabled": 0, "rental_uris": {"android": "https://dc.lft.to/lastmile_qr_scan", "ios": "https://dc.lft.to/lastmile_qr_scan"}, "fusion_lon": 0.0, "lat": 38.8872595, "bike_id": "268ed4e3fdb4d3be71d939a36fa57cff", "type": "electric_scooter", "is_reserved": 0, "lon": -76.983577}, {"fusion_lat": 0.0, "name": "dd00f6a1b4c9cb399d892889fad74de3", "is_disabled": 0, "rental_uris": {"android": "https://dc.lft.to/lastmile_qr_scan", "ios": "https://dc.lft.to/lastmile_qr_scan"}, "fusion_lon": 0.0, "lat": 38.9364995, "bike_id": "dd00f6a1b4c9cb399d892889fad74de3", "type": "electric_scooter", "is_reserved": 0, "lon": -77.03049833333333}, {"fusion_lat": 0.0, "name": "323744e95a8247fee159be61734487ba", "is_disabled": 0, "rental_uris": {"android": "https://dc.lft.to/lastmile_qr_scan", "ios": "https://dc.lft.to/lastmile_qr_scan"}, "fusion_lon": 0.0, "lat": 38.91916066666667, "bike_id": "323744e95a8247fee159be61734487ba", "type": "electric_bike", "is_reserved": 0, "lon": -77.079649}, {"fusion_lat": 0.0, "name": "6492316b9f7969753661b1db5d803283", "is_disabled": 0, "rental_uris": {"android": "https://dc.lft.to/lastmile_qr_scan", "ios": "https://dc.lft.to/lastmile_qr_scan"}, "fusion_lon": 0.0, "lat": 38.899713166666665, "bike_id": "6492316b9f7969753661b1db5d803283", "type": "electric_scooter", "is_reserved": 0, "lon": -76.987124}, {"fusion_lat": 0.0, "name": "ea2b070df5b1f4d0106d9de5bc266acd", "is_disabled": 0, "rental_uris": {"android": "https://dc.lft.to/lastmile_qr_scan", "ios": "https://dc.lft.to/lastmile_qr_scan"}, "fusion_lon": 0.0, "lat": 38.8873985, "bike_id": "ea2b070df5b1f4d0106d9de5bc266acd", "type": "electric_scooter", "is_reserved": 0, "lon": -77.02212616666667}, {"fusion_lat": 0.0, "name": "fdc4a886cb119b073a7b8019267ce357", "is_disabled": 0, "rental_uris": {"android": "https://dc.lft.to/lastmile_qr_scan", "ios": "https://dc.lft.to/lastmile_qr_scan"}, "fusion_lon": 0.0, "lat": 38.942299, "bike_id": "fdc4a886cb119b073a7b8019267ce357", "type": "electric_scooter", "is_reserved": 0, "lon": -77.013838}, {"fusion_lat": 0.0, "name": "ca2681630d7bcf33466bad8322d496e1", "is_disabled": 0, "rental_uris": {"android": "https://dc.lft.to/lastmile_qr_scan", "ios": "https://dc.lft.to/lastmile_qr_scan"}, "fusion_lon": 0.0, "lat": 38.91624616666667, "bike_id": "ca2681630d7bcf33466bad8322d496e1", "type": "electric_scooter", "is_reserved": 0, "lon": -77.02812066666667}, {"fusion_lat": 0.0, "name": "a6391d9b186a341ec2f6f7d22947c842", "is_disabled": 0, "rental_uris": {"android": "https://dc.lft.to/lastmile_qr_scan", "ios": "https://dc.lft.to/lastmile_qr_scan"}, "fusion_lon": 0.0, "lat": 38.887169666666665, "bike_id": "a6391d9b186a341ec2f6f7d22947c842", "type": "electric_scooter", "is_reserved": 0, "lon": -77.017759}, {"fusion_lat": 0.0, "name": "ecc90c46a42e23f1d154580b25f01f3f", "is_disabled": 0, "rental_uris": {"android": "https://dc.lft.to/lastmile_qr_scan", "ios": "https://dc.lft.to/lastmile_qr_scan"}, "fusion_lon": 0.0, "lat": 38.92079233333333, "bike_id": "ecc90c46a42e23f1d154580b25f01f3f", "type": "electric_bike", "is_reserved": 0, "lon": -76.98949833333333}, {"fusion_lat": 0.0, "name": "95b0211caceaeb11dc91a68ccf6265e5", "is_disabled": 0, "rental_uris": {"android": "https://dc.lft.to/lastmile_qr_scan", "ios": "https://dc.lft.to/lastmile_qr_scan"}, "fusion_lon": 0.0, "lat": 38.915925666666666, "bike_id": "95b0211caceaeb11dc91a68ccf6265e5", "type": "electric_scooter", "is_reserved": 0, "lon": -77.04549016666667}, {"fusion_lat": 0.0, "name": "218976fa31c51de7f4c633f8460268ec", "is_disabled": 0, "rental_uris": {"android": "https://dc.lft.to/lastmile_qr_scan", "ios": "https://dc.lft.to/lastmile_qr_scan"}, "fusion_lon": 0.0, "lat": 38.92292916666667, "bike_id": "218976fa31c51de7f4c633f8460268ec", "type": "electric_scooter", "is_reserved": 0, "lon": -77.04249683333333}, {"fusion_lat": 0.0, "name": "9ed43e522e78050a86e5427c0eee0177", "is_disabled": 0, "rental_uris": {"android": "https://dc.lft.to/lastmile_qr_scan", "ios": "https://dc.lft.to/lastmile_qr_scan"}, "fusion_lon": 0.0, "lat": 38.877485666666665, "bike_id": "9ed43e522e78050a86e5427c0eee0177", "type": "electric_scooter", "is_reserved": 0, "lon": -77.0033865}, {"fusion_lat": 0.0, "name": "f77195c7569fe19432ecf82ef0296579", "is_disabled": 0, "rental_uris": {"android": "https://dc.lft.to/lastmile_qr_scan", "ios": "https://dc.lft.to/lastmile_qr_scan"}, "fusion_lon": 0.0, "lat": 38.89680216666667, "bike_id": "f77195c7569fe19432ecf82ef0296579", "type": "electric_scooter", "is_reserved": 0, "lon": -77.05179366666667}, {"fusion_lat": 0.0, "name": "a628dc956f267f26ed8e975c118be301", "is_disabled": 0, "rental_uris": {"android": "https://dc.lft.to/lastmile_qr_scan", "ios": "https://dc.lft.to/lastmile_qr_scan"}, "fusion_lon": 0.0, "lat": 38.8954655, "bike_id": "a628dc956f267f26ed8e975c118be301", "type": "electric_scooter", "is_reserved": 0, "lon": -76.94946616666667}, {"fusion_lat": 0.0, "name": "7f6349cefe56524368ffeee419c6d2bd", "is_disabled": 0, "rental_uris": {"android": "https://dc.lft.to/lastmile_qr_scan", "ios": "https://dc.lft.to/lastmile_qr_scan"}, "fusion_lon": 0.0, "lat": 38.905318333333334, "bike_id": "7f6349cefe56524368ffeee419c6d2bd", "type": "electric_scooter", "is_reserved": 0, "lon": -77.05878566666667}, {"fusion_lat": 0.0, "name": "1c0b4e80c4c47129dc1d4e32f3fa6f7a", "is_disabled": 0, "rental_uris": {"android": "https://dc.lft.to/lastmile_qr_scan", "ios": "https://dc.lft.to/lastmile_qr_scan"}, "fusion_lon": 0.0, "lat": 38.92479383333333, "bike_id": "1c0b4e80c4c47129dc1d4e32f3fa6f7a", "type": "electric_scooter", "is_reserved": 0, "lon": -77.03912966666667}, {"fusion_lat": 0.0, "name": "331000cbc76a8e22fdbcae3d8536c40a", "is_disabled": 0, "rental_uris": {"android": "https://dc.lft.to/lastmile_qr_scan", "ios": "https://dc.lft.to/lastmile_qr_scan"}, "fusion_lon": 0.0, "lat": 38.876633, "bike_id": "331000cbc76a8e22fdbcae3d8536c40a", "type": "electric_scooter", "is_reserved": 0, "lon": -76.996301}, {"fusion_lat": 0.0, "name": "9921929fb2a86f3aa962e76321fcee5c", "is_disabled": 0, "rental_uris": {"android": "https://dc.lft.to/lastmile_qr_scan", "ios": "https://dc.lft.to/lastmile_qr_scan"}, "fusion_lon": 0.0, "lat": 38.91402166666666, "bike_id": "9921929fb2a86f3aa962e76321fcee5c", "type": "electric_scooter", "is_reserved": 0, "lon": -77.016807}, {"fusion_lat": 0.0, "name": "f58627550d3f35c9fd8f77aae67039e7", "is_disabled": 0, "rental_uris": {"android": "https://dc.lft.to/lastmile_qr_scan", "ios": "https://dc.lft.to/lastmile_qr_scan"}, "fusion_lon": 0.0, "lat": 38.90618416666667, "bike_id": "f58627550d3f35c9fd8f77aae67039e7", "type": "electric_scooter", "is_reserved": 0, "lon": -77.062748}, {"fusion_lat": 0.0, "name": "8ca32ca3c97a332f6f4ae562b7973157", "is_disabled": 0, "rental_uris": {"android": "https://dc.lft.to/lastmile_qr_scan", "ios": "https://dc.lft.to/lastmile_qr_scan"}, "fusion_lon": 0.0, "lat": 38.917854166666665, "bike_id": "8ca32ca3c97a332f6f4ae562b7973157", "type": "electric_scooter", "is_reserved": 0, "lon": -77.04022766666667}, {"fusion_lat": 0.0, "name": "1c1bc68e2e295100a8d8c02f4a57bf3d", "is_disabled": 0, "rental_uris": {"android": "https://dc.lft.to/lastmile_qr_scan", "ios": "https://dc.lft.to/lastmile_qr_scan"}, "fusion_lon": 0.0, "lat": 38.90067533333333, "bike_id": "1c1bc68e2e295100a8d8c02f4a57bf3d", "type": "electric_scooter", "is_reserved": 0, "lon": -76.92743966666667}, {"fusion_lat": 0.0, "name": "f0ba2dea917ffd5f31b78e6438584da4", "is_disabled": 0, "rental_uris": {"android": "https://dc.lft.to/lastmile_qr_scan", "ios": "https://dc.lft.to/lastmile_qr_scan"}, "fusion_lon": 0.0, "lat": 38.87751516666667, "bike_id": "f0ba2dea917ffd5f31b78e6438584da4", "type": "electric_scooter", "is_reserved": 0, "lon": -77.014283}, {"fusion_lat": 0.0, "name": "199b55d4e4680a3b9555b9acac221f12", "is_disabled": 0, "rental_uris": {"android": "https://dc.lft.to/lastmile_qr_scan", "ios": "https://dc.lft.to/lastmile_qr_scan"}, "fusion_lon": 0.0, "lat": 38.91456066666667, "bike_id": "199b55d4e4680a3b9555b9acac221f12", "type": "electric_scooter", "is_reserved": 0, "lon": -77.07222583333333}, {"fusion_lat": 0.0, "name": "b353596b23663da9b24d2ab968cfa40d", "is_disabled": 0, "rental_uris": {"android": "https://dc.lft.to/lastmile_qr_scan", "ios": "https://dc.lft.to/lastmile_qr_scan"}, "fusion_lon": 0.0, "lat": 38.9205505, "bike_id": "b353596b23663da9b24d2ab968cfa40d", "type": "electric_scooter", "is_reserved": 0, "lon": -77.0440885}, {"fusion_lat": 0.0, "name": "f1ab44aa3157be279e4b9963e44b5c5e", "is_disabled": 0, "rental_uris": {"android": "https://dc.lft.to/lastmile_qr_scan", "ios": "https://dc.lft.to/lastmile_qr_scan"}, "fusion_lon": 0.0, "lat": 38.875340333333334, "bike_id": "f1ab44aa3157be279e4b9963e44b5c5e", "type": "electric_scooter", "is_reserved": 0, "lon": -77.00506966666667}, {"fusion_lat": 0.0, "name": "be4d3c16f0de6d5f7a5e7e3533e24753", "is_disabled": 0, "rental_uris": {"android": "https://dc.lft.to/lastmile_qr_scan", "ios": "https://dc.lft.to/lastmile_qr_scan"}, "fusion_lon": 0.0, "lat": 38.89757133333333, "bike_id": "be4d3c16f0de6d5f7a5e7e3533e24753", "type": "electric_scooter", "is_reserved": 0, "lon": -77.0514135}, {"fusion_lat": 0.0, "name": "838320b15220412dadf33de786445dad", "is_disabled": 0, "rental_uris": {"android": "https://dc.lft.to/lastmile_qr_scan", "ios": "https://dc.lft.to/lastmile_qr_scan"}, "fusion_lon": 0.0, "lat": 38.9016175, "bike_id": "838320b15220412dadf33de786445dad", "type": "electric_scooter", "is_reserved": 0, "lon": -77.02013883333333}, {"fusion_lat": 0.0, "name": "2e057b2afcf4e82902ca411f49feba50", "is_disabled": 0, "rental_uris": {"android": "https://dc.lft.to/lastmile_qr_scan", "ios": "https://dc.lft.to/lastmile_qr_scan"}, "fusion_lon": 0.0, "lat": 38.9154265, "bike_id": "2e057b2afcf4e82902ca411f49feba50", "type": "electric_scooter", "is_reserved": 0, "lon": -77.03791366666667}, {"fusion_lat": 0.0, "name": "19370be2ee8e33e6aac2f250913d279c", "is_disabled": 0, "rental_uris": {"android": "https://dc.lft.to/lastmile_qr_scan", "ios": "https://dc.lft.to/lastmile_qr_scan"}, "fusion_lon": 0.0, "lat": 38.862188, "bike_id": "19370be2ee8e33e6aac2f250913d279c", "type": "electric_bike", "is_reserved": 0, "lon": -76.99544666666667}, {"fusion_lat": 0.0, "name": "81539ff3948368854620f5d98ffeec28", "is_disabled": 0, "rental_uris": {"android": "https://dc.lft.to/lastmile_qr_scan", "ios": "https://dc.lft.to/lastmile_qr_scan"}, "fusion_lon": 0.0, "lat": 38.904112833333336, "bike_id": "81539ff3948368854620f5d98ffeec28", "type": "electric_scooter", "is_reserved": 0, "lon": -76.973293}, {"fusion_lat": 0.0, "name": "fc61850ac161191dbccead1525602516", "is_disabled": 0, "rental_uris": {"android": "https://dc.lft.to/lastmile_qr_scan", "ios": "https://dc.lft.to/lastmile_qr_scan"}, "fusion_lon": 0.0, "lat": 38.88441066666667, "bike_id": "fc61850ac161191dbccead1525602516", "type": "electric_scooter", "is_reserved": 0, "lon": -77.00346033333334}, {"fusion_lat": 0.0, "name": "6a13fd86ef56fee2e35f7d8f5df50f59", "is_disabled": 0, "rental_uris": {"android": "https://dc.lft.to/lastmile_qr_scan", "ios": "https://dc.lft.to/lastmile_qr_scan"}, "fusion_lon": 0.0, "lat": 38.9225165, "bike_id": "6a13fd86ef56fee2e35f7d8f5df50f59", "type": "electric_scooter", "is_reserved": 0, "lon": -77.03382933333333}, {"fusion_lat": 0.0, "name": "89741ab78bbf2617532cf4e9639f566f", "is_disabled": 0, "rental_uris": {"android": "https://dc.lft.to/lastmile_qr_scan", "ios": "https://dc.lft.to/lastmile_qr_scan"}, "fusion_lon": 0.0, "lat": 38.9357605, "bike_id": "89741ab78bbf2617532cf4e9639f566f", "type": "electric_scooter", "is_reserved": 0, "lon": -77.0192985}, {"fusion_lat": 0.0, "name": "30739c16bc1ef1fe29b5b3b87b8943af", "is_disabled": 0, "rental_uris": {"android": "https://dc.lft.to/lastmile_qr_scan", "ios": "https://dc.lft.to/lastmile_qr_scan"}, "fusion_lon": 0.0, "lat": 38.80496816666667, "bike_id": "30739c16bc1ef1fe29b5b3b87b8943af", "type": "electric_bike", "is_reserved": 0, "lon": -77.10158033333333}, {"fusion_lat": 0.0, "name": "2be925b062b6b0ddbb50f9fb21ee5b23", "is_disabled": 0, "rental_uris": {"android": "https://dc.lft.to/lastmile_qr_scan", "ios": "https://dc.lft.to/lastmile_qr_scan"}, "fusion_lon": 0.0, "lat": 38.920405333333335, "bike_id": "2be925b062b6b0ddbb50f9fb21ee5b23", "type": "electric_scooter", "is_reserved": 0, "lon": -77.0172565}, {"fusion_lat": 0.0, "name": "2edb01c8e44ec5fb94d7ded7581acbb9", "is_disabled": 0, "rental_uris": {"android": "https://dc.lft.to/lastmile_qr_scan", "ios": "https://dc.lft.to/lastmile_qr_scan"}, "fusion_lon": 0.0, "lat": 38.892849166666664, "bike_id": "2edb01c8e44ec5fb94d7ded7581acbb9", "type": "electric_scooter", "is_reserved": 0, "lon": -76.98306933333333}, {"fusion_lat": 0.0, "name": "3848398a634a9389a510d2520c46a030", "is_disabled": 0, "rental_uris": {"android": "https://dc.lft.to/lastmile_qr_scan", "ios": "https://dc.lft.to/lastmile_qr_scan"}, "fusion_lon": 0.0, "lat": 38.90716, "bike_id": "3848398a634a9389a510d2520c46a030", "type": "electric_scooter", "is_reserved": 0, "lon": -77.03197216666666}, {"fusion_lat": 0.0, "name": "fb7511e9b29ae7fd9458fb3b185c3c48", "is_disabled": 0, "rental_uris": {"android": "https://dc.lft.to/lastmile_qr_scan", "ios": "https://dc.lft.to/lastmile_qr_scan"}, "fusion_lon": 0.0, "lat": 38.937676833333335, "bike_id": "fb7511e9b29ae7fd9458fb3b185c3c48", "type": "electric_scooter", "is_reserved": 0, "lon": -77.03258766666667}, {"fusion_lat": 0.0, "name": "46306a96830a9c83cbed09e3256b0324", "is_disabled": 0, "rental_uris": {"android": "https://dc.lft.to/lastmile_qr_scan", "ios": "https://dc.lft.to/lastmile_qr_scan"}, "fusion_lon": 0.0, "lat": 38.92782316666667, "bike_id": "46306a96830a9c83cbed09e3256b0324", "type": "electric_scooter", "is_reserved": 0, "lon": -77.0320535}, {"fusion_lat": 0.0, "name": "69950d84f98b7b0bebca660eaf051734", "is_disabled": 0, "rental_uris": {"android": "https://dc.lft.to/lastmile_qr_scan", "ios": "https://dc.lft.to/lastmile_qr_scan"}, "fusion_lon": 0.0, "lat": 38.878319166666664, "bike_id": "69950d84f98b7b0bebca660eaf051734", "type": "electric_scooter", "is_reserved": 0, "lon": -76.96321416666666}, {"fusion_lat": 0.0, "name": "1ea9df52ecf445a8d40ac1caf7c45c70", "is_disabled": 0, "rental_uris": {"android": "https://dc.lft.to/lastmile_qr_scan", "ios": "https://dc.lft.to/lastmile_qr_scan"}, "fusion_lon": 0.0, "lat": 38.92552466666667, "bike_id": "1ea9df52ecf445a8d40ac1caf7c45c70", "type": "electric_scooter", "is_reserved": 0, "lon": -77.07764366666666}, {"fusion_lat": 0.0, "name": "447d8013b997571a2d6f7b712dda9050", "is_disabled": 0, "rental_uris": {"android": "https://dc.lft.to/lastmile_qr_scan", "ios": "https://dc.lft.to/lastmile_qr_scan"}, "fusion_lon": 0.0, "lat": 38.919346166666664, "bike_id": "447d8013b997571a2d6f7b712dda9050", "type": "electric_scooter", "is_reserved": 0, "lon": -77.070682}, {"fusion_lat": 0.0, "name": "1af9898dcc48880f8a80c07daf96176b", "is_disabled": 0, "rental_uris": {"android": "https://dc.lft.to/lastmile_qr_scan", "ios": "https://dc.lft.to/lastmile_qr_scan"}, "fusion_lon": 0.0, "lat": 38.91303516666667, "bike_id": "1af9898dcc48880f8a80c07daf96176b", "type": "electric_scooter", "is_reserved": 0, "lon": -77.04876416666667}, {"fusion_lat": 0.0, "name": "17b8a1403ed32a52f06bb901957d38e8", "is_disabled": 0, "rental_uris": {"android": "https://dc.lft.to/lastmile_qr_scan", "ios": "https://dc.lft.to/lastmile_qr_scan"}, "fusion_lon": 0.0, "lat": 38.919757833333335, "bike_id": "17b8a1403ed32a52f06bb901957d38e8", "type": "electric_scooter", "is_reserved": 0, "lon": -77.02320083333333}, {"fusion_lat": 0.0, "name": "1e6674670991b9d4a49ca1ab981a7441", "is_disabled": 0, "rental_uris": {"android": "https://dc.lft.to/lastmile_qr_scan", "ios": "https://dc.lft.to/lastmile_qr_scan"}, "fusion_lon": 0.0, "lat": 38.92339166666667, "bike_id": "1e6674670991b9d4a49ca1ab981a7441", "type": "electric_scooter", "is_reserved": 0, "lon": -77.0419055}, {"fusion_lat": 0.0, "name": "6d0ac46eafa4a86a340202b06f597206", "is_disabled": 0, "rental_uris": {"android": "https://dc.lft.to/lastmile_qr_scan", "ios": "https://dc.lft.to/lastmile_qr_scan"}, "fusion_lon": 0.0, "lat": 38.87472133333333, "bike_id": "6d0ac46eafa4a86a340202b06f597206", "type": "electric_scooter", "is_reserved": 0, "lon": -77.01695666666667}, {"fusion_lat": 0.0, "name": "cbdd666591524ee4d29e63becf34541f", "is_disabled": 0, "rental_uris": {"android": "https://dc.lft.to/lastmile_qr_scan", "ios": "https://dc.lft.to/lastmile_qr_scan"}, "fusion_lon": 0.0, "lat": 38.922252666666665, "bike_id": "cbdd666591524ee4d29e63becf34541f", "type": "electric_scooter", "is_reserved": 0, "lon": -77.0433585}, {"fusion_lat": 0.0, "name": "84e648b1da3c2283f8754c9fa1618758", "is_disabled": 0, "rental_uris": {"android": "https://dc.lft.to/lastmile_qr_scan", "ios": "https://dc.lft.to/lastmile_qr_scan"}, "fusion_lon": 0.0, "lat": 38.900257833333335, "bike_id": "84e648b1da3c2283f8754c9fa1618758", "type": "electric_scooter", "is_reserved": 0, "lon": -77.00203316666666}, {"fusion_lat": 0.0, "name": "5cfc6996ab8084810bbbf16bd0c33f1c", "is_disabled": 0, "rental_uris": {"android": "https://dc.lft.to/lastmile_qr_scan", "ios": "https://dc.lft.to/lastmile_qr_scan"}, "fusion_lon": 0.0, "lat": 38.8651415, "bike_id": "5cfc6996ab8084810bbbf16bd0c33f1c", "type": "electric_bike", "is_reserved": 0, "lon": -77.12942566666666}, {"fusion_lat": 0.0, "name": "544275ae961a9540bab184fe91094f11", "is_disabled": 0, "rental_uris": {"android": "https://dc.lft.to/lastmile_qr_scan", "ios": "https://dc.lft.to/lastmile_qr_scan"}, "fusion_lon": 0.0, "lat": 38.92451333333333, "bike_id": "544275ae961a9540bab184fe91094f11", "type": "electric_bike", "is_reserved": 0, "lon": -77.00208766666667}, {"fusion_lat": 0.0, "name": "005f972bd74f5fcfb8d5583bf08dd2af", "is_disabled": 0, "rental_uris": {"android": "https://dc.lft.to/lastmile_qr_scan", "ios": "https://dc.lft.to/lastmile_qr_scan"}, "fusion_lon": 0.0, "lat": 38.8845375, "bike_id": "005f972bd74f5fcfb8d5583bf08dd2af", "type": "electric_scooter", "is_reserved": 0, "lon": -77.03352416666667}, {"fusion_lat": 0.0, "name": "ff572ae5925052e63665f16fe212e56b", "is_disabled": 0, "rental_uris": {"android": "https://dc.lft.to/lastmile_qr_scan", "ios": "https://dc.lft.to/lastmile_qr_scan"}, "fusion_lon": 0.0, "lat": 38.9527415, "bike_id": "ff572ae5925052e63665f16fe212e56b", "type": "electric_scooter", "is_reserved": 0, "lon": -77.06888833333333}, {"fusion_lat": 0.0, "name": "8e3a5edc8b05fbb15f8b3c752c9e9d94", "is_disabled": 0, "rental_uris": {"android": "https://dc.lft.to/lastmile_qr_scan", "ios": "https://dc.lft.to/lastmile_qr_scan"}, "fusion_lon": 0.0, "lat": 38.92731033333333, "bike_id": "8e3a5edc8b05fbb15f8b3c752c9e9d94", "type": "electric_scooter", "is_reserved": 0, "lon": -77.02699233333334}, {"fusion_lat": 0.0, "name": "866d378d2aeb0feff27a92d733fb3edb", "is_disabled": 0, "rental_uris": {"android": "https://dc.lft.to/lastmile_qr_scan", "ios": "https://dc.lft.to/lastmile_qr_scan"}, "fusion_lon": 0.0, "lat": 38.904355333333335, "bike_id": "866d378d2aeb0feff27a92d733fb3edb", "type": "electric_scooter", "is_reserved": 0, "lon": -76.98275533333333}, {"fusion_lat": 0.0, "name": "7c185540bb428d93a3b1ba42f6ef56b7", "is_disabled": 0, "rental_uris": {"android": "https://dc.lft.to/lastmile_qr_scan", "ios": "https://dc.lft.to/lastmile_qr_scan"}, "fusion_lon": 0.0, "lat": 38.9737805, "bike_id": "7c185540bb428d93a3b1ba42f6ef56b7", "type": "electric_scooter", "is_reserved": 0, "lon": -77.01284516666666}, {"fusion_lat": 0.0, "name": "c590a451f054b5b129ec8260ca3794a4", "is_disabled": 0, "rental_uris": {"android": "https://dc.lft.to/lastmile_qr_scan", "ios": "https://dc.lft.to/lastmile_qr_scan"}, "fusion_lon": 0.0, "lat": 38.92438083333333, "bike_id": "c590a451f054b5b129ec8260ca3794a4", "type": "electric_scooter", "is_reserved": 0, "lon": -77.04454783333334}, {"fusion_lat": 0.0, "name": "f724871a711a8b7145b2fedbe7293051", "is_disabled": 0, "rental_uris": {"android": "https://dc.lft.to/lastmile_qr_scan", "ios": "https://dc.lft.to/lastmile_qr_scan"}, "fusion_lon": 0.0, "lat": 38.90851033333333, "bike_id": "f724871a711a8b7145b2fedbe7293051", "type": "electric_scooter", "is_reserved": 0, "lon": -77.003707}, {"fusion_lat": 0.0, "name": "f406c1858344e229d52c870c1a0f65f7", "is_disabled": 0, "rental_uris": {"android": "https://dc.lft.to/lastmile_qr_scan", "ios": "https://dc.lft.to/lastmile_qr_scan"}, "fusion_lon": 0.0, "lat": 38.961870166666664, "bike_id": "f406c1858344e229d52c870c1a0f65f7", "type": "electric_bike", "is_reserved": 0, "lon": -77.05266466666667}, {"fusion_lat": 0.0, "name": "2c1581f53f8deaa644907ec29d83b7b4", "is_disabled": 0, "rental_uris": {"android": "https://dc.lft.to/lastmile_qr_scan", "ios": "https://dc.lft.to/lastmile_qr_scan"}, "fusion_lon": 0.0, "lat": 38.91252716666666, "bike_id": "2c1581f53f8deaa644907ec29d83b7b4", "type": "electric_scooter", "is_reserved": 0, "lon": -77.02952116666667}, {"fusion_lat": 0.0, "name": "8ee2db34163c8ae2e7a0d35e83cc8b3a", "is_disabled": 0, "rental_uris": {"android": "https://dc.lft.to/lastmile_qr_scan", "ios": "https://dc.lft.to/lastmile_qr_scan"}, "fusion_lon": 0.0, "lat": 38.897074, "bike_id": "8ee2db34163c8ae2e7a0d35e83cc8b3a", "type": "electric_scooter", "is_reserved": 0, "lon": -77.0129725}, {"fusion_lat": 0.0, "name": "2b802e3aa4d1230ad9c1e7edced50645", "is_disabled": 0, "rental_uris": {"android": "https://dc.lft.to/lastmile_qr_scan", "ios": "https://dc.lft.to/lastmile_qr_scan"}, "fusion_lon": 0.0, "lat": 38.891237833333335, "bike_id": "2b802e3aa4d1230ad9c1e7edced50645", "type": "electric_scooter", "is_reserved": 0, "lon": -76.94381983333334}, {"fusion_lat": 0.0, "name": "f3da4643a0b019006521dccb5d7d7647", "is_disabled": 0, "rental_uris": {"android": "https://dc.lft.to/lastmile_qr_scan", "ios": "https://dc.lft.to/lastmile_qr_scan"}, "fusion_lon": 0.0, "lat": 38.90423783333333, "bike_id": "f3da4643a0b019006521dccb5d7d7647", "type": "electric_scooter", "is_reserved": 0, "lon": -77.0188125}, {"fusion_lat": 0.0, "name": "14a0f73e91796aa342722ec5bb1cfaaf", "is_disabled": 0, "rental_uris": {"android": "https://dc.lft.to/lastmile_qr_scan", "ios": "https://dc.lft.to/lastmile_qr_scan"}, "fusion_lon": 0.0, "lat": 38.9268115, "bike_id": "14a0f73e91796aa342722ec5bb1cfaaf", "type": "electric_scooter", "is_reserved": 0, "lon": -77.03143766666666}, {"fusion_lat": 0.0, "name": "80f40068a48b693a1d50fc880b7fc4e4", "is_disabled": 0, "rental_uris": {"android": "https://dc.lft.to/lastmile_qr_scan", "ios": "https://dc.lft.to/lastmile_qr_scan"}, "fusion_lon": 0.0, "lat": 38.94316083333333, "bike_id": "80f40068a48b693a1d50fc880b7fc4e4", "type": "electric_scooter", "is_reserved": 0, "lon": -77.0200645}, {"fusion_lat": 0.0, "name": "9a588a0c9475d2a7181323a8e03dddba", "is_disabled": 0, "rental_uris": {"android": "https://dc.lft.to/lastmile_qr_scan", "ios": "https://dc.lft.to/lastmile_qr_scan"}, "fusion_lon": 0.0, "lat": 38.91347283333333, "bike_id": "9a588a0c9475d2a7181323a8e03dddba", "type": "electric_bike", "is_reserved": 0, "lon": -76.98901866666667}, {"fusion_lat": 0.0, "name": "98eaeef351b79c4897bb1abc811f1102", "is_disabled": 0, "rental_uris": {"android": "https://dc.lft.to/lastmile_qr_scan", "ios": "https://dc.lft.to/lastmile_qr_scan"}, "fusion_lon": 0.0, "lat": 38.90297133333333, "bike_id": "98eaeef351b79c4897bb1abc811f1102", "type": "electric_scooter", "is_reserved": 0, "lon": -76.99257666666666}, {"fusion_lat": 0.0, "name": "ee4378ec2419674048a921a48dddbf5a", "is_disabled": 0, "rental_uris": {"android": "https://dc.lft.to/lastmile_qr_scan", "ios": "https://dc.lft.to/lastmile_qr_scan"}, "fusion_lon": 0.0, "lat": 38.924202, "bike_id": "ee4378ec2419674048a921a48dddbf5a", "type": "electric_scooter", "is_reserved": 0, "lon": -77.02009966666667}, {"fusion_lat": 0.0, "name": "8adc9d7f7482d2e33eaac3b42e9fa540", "is_disabled": 0, "rental_uris": {"android": "https://dc.lft.to/lastmile_qr_scan", "ios": "https://dc.lft.to/lastmile_qr_scan"}, "fusion_lon": 0.0, "lat": 38.888114, "bike_id": "8adc9d7f7482d2e33eaac3b42e9fa540", "type": "electric_scooter", "is_reserved": 0, "lon": -76.9836085}, {"fusion_lat": 0.0, "name": "564ac2897f5a1a827afdf2e96a1e1603", "is_disabled": 0, "rental_uris": {"android": "https://dc.lft.to/lastmile_qr_scan", "ios": "https://dc.lft.to/lastmile_qr_scan"}, "fusion_lon": 0.0, "lat": 38.89942166666667, "bike_id": "564ac2897f5a1a827afdf2e96a1e1603", "type": "electric_scooter", "is_reserved": 0, "lon": -77.05355116666667}, {"fusion_lat": 0.0, "name": "fe3433b5fc6f6c37be67310507dd61a0", "is_disabled": 0, "rental_uris": {"android": "https://dc.lft.to/lastmile_qr_scan", "ios": "https://dc.lft.to/lastmile_qr_scan"}, "fusion_lon": 0.0, "lat": 38.886628333333334, "bike_id": "fe3433b5fc6f6c37be67310507dd61a0", "type": "electric_scooter", "is_reserved": 0, "lon": -77.03385783333333}, {"fusion_lat": 0.0, "name": "a57928dc393e5530c822b08807c5e3f4", "is_disabled": 0, "rental_uris": {"android": "https://dc.lft.to/lastmile_qr_scan", "ios": "https://dc.lft.to/lastmile_qr_scan"}, "fusion_lon": 0.0, "lat": 38.88745083333333, "bike_id": "a57928dc393e5530c822b08807c5e3f4", "type": "electric_scooter", "is_reserved": 0, "lon": -76.9836275}, {"fusion_lat": 0.0, "name": "e348c5f8e0e26b65a96cd30e35d7a5a5", "is_disabled": 0, "rental_uris": {"android": "https://dc.lft.to/lastmile_qr_scan", "ios": "https://dc.lft.to/lastmile_qr_scan"}, "fusion_lon": 0.0, "lat": 38.900862333333336, "bike_id": "e348c5f8e0e26b65a96cd30e35d7a5a5", "type": "electric_scooter", "is_reserved": 0, "lon": -76.98341}, {"fusion_lat": 0.0, "name": "1707d9904c4a07f06c6a78737f90cf9c", "is_disabled": 0, "rental_uris": {"android": "https://dc.lft.to/lastmile_qr_scan", "ios": "https://dc.lft.to/lastmile_qr_scan"}, "fusion_lon": 0.0, "lat": 38.910419166666664, "bike_id": "1707d9904c4a07f06c6a78737f90cf9c", "type": "electric_scooter", "is_reserved": 0, "lon": -77.00829383333334}, {"fusion_lat": 0.0, "name": "59fbd67cee1445660735d6103504a1f8", "is_disabled": 0, "rental_uris": {"android": "https://dc.lft.to/lastmile_qr_scan", "ios": "https://dc.lft.to/lastmile_qr_scan"}, "fusion_lon": 0.0, "lat": 38.922244, "bike_id": "59fbd67cee1445660735d6103504a1f8", "type": "electric_scooter", "is_reserved": 0, "lon": -77.042419}, {"fusion_lat": 0.0, "name": "04b9f3139f0799453005a7012ccc1ff8", "is_disabled": 0, "rental_uris": {"android": "https://dc.lft.to/lastmile_qr_scan", "ios": "https://dc.lft.to/lastmile_qr_scan"}, "fusion_lon": 0.0, "lat": 38.915702333333336, "bike_id": "04b9f3139f0799453005a7012ccc1ff8", "type": "electric_scooter", "is_reserved": 0, "lon": -77.03844433333333}, {"fusion_lat": 0.0, "name": "dbc9dd7c5746a43f6c57c004da57ae15", "is_disabled": 0, "rental_uris": {"android": "https://dc.lft.to/lastmile_qr_scan", "ios": "https://dc.lft.to/lastmile_qr_scan"}, "fusion_lon": 0.0, "lat": 38.925486, "bike_id": "dbc9dd7c5746a43f6c57c004da57ae15", "type": "electric_scooter", "is_reserved": 0, "lon": -77.03827833333334}, {"fusion_lat": 0.0, "name": "c5c87996d9e3ab524d49d87c31d73ae4", "is_disabled": 0, "rental_uris": {"android": "https://dc.lft.to/lastmile_qr_scan", "ios": "https://dc.lft.to/lastmile_qr_scan"}, "fusion_lon": 0.0, "lat": 38.9064125, "bike_id": "c5c87996d9e3ab524d49d87c31d73ae4", "type": "electric_scooter", "is_reserved": 0, "lon": -77.03700083333334}, {"fusion_lat": 0.0, "name": "60e2d8213e1681320ffbe60467743534", "is_disabled": 0, "rental_uris": {"android": "https://dc.lft.to/lastmile_qr_scan", "ios": "https://dc.lft.to/lastmile_qr_scan"}, "fusion_lon": 0.0, "lat": 38.93872733333333, "bike_id": "60e2d8213e1681320ffbe60467743534", "type": "electric_scooter", "is_reserved": 0, "lon": -77.0247155}, {"fusion_lat": 0.0, "name": "b92b962ea53100ca973b3374c0633a5b", "is_disabled": 0, "rental_uris": {"android": "https://dc.lft.to/lastmile_qr_scan", "ios": "https://dc.lft.to/lastmile_qr_scan"}, "fusion_lon": 0.0, "lat": 38.898985, "bike_id": "b92b962ea53100ca973b3374c0633a5b", "type": "electric_scooter", "is_reserved": 0, "lon": -77.015166}, {"fusion_lat": 0.0, "name": "a30ca522db249d84a106181fe440fb55", "is_disabled": 0, "rental_uris": {"android": "https://dc.lft.to/lastmile_qr_scan", "ios": "https://dc.lft.to/lastmile_qr_scan"}, "fusion_lon": 0.0, "lat": 38.892227, "bike_id": "a30ca522db249d84a106181fe440fb55", "type": "electric_scooter", "is_reserved": 0, "lon": -77.03141233333334}, {"fusion_lat": 0.0, "name": "e1886d11dd4ecdf630d0464ccf5a6ecf", "is_disabled": 0, "rental_uris": {"android": "https://dc.lft.to/lastmile_qr_scan", "ios": "https://dc.lft.to/lastmile_qr_scan"}, "fusion_lon": 0.0, "lat": 38.928964666666666, "bike_id": "e1886d11dd4ecdf630d0464ccf5a6ecf", "type": "electric_bike", "is_reserved": 0, "lon": -77.23177016666666}, {"fusion_lat": 0.0, "name": "31ad9146fd1904bd6bf4f145a30f39a4", "is_disabled": 0, "rental_uris": {"android": "https://dc.lft.to/lastmile_qr_scan", "ios": "https://dc.lft.to/lastmile_qr_scan"}, "fusion_lon": 0.0, "lat": 38.91791166666667, "bike_id": "31ad9146fd1904bd6bf4f145a30f39a4", "type": "electric_scooter", "is_reserved": 0, "lon": -77.0231175}, {"fusion_lat": 0.0, "name": "a8190f8a333f4c9ae5430b1f4c9a97d8", "is_disabled": 0, "rental_uris": {"android": "https://dc.lft.to/lastmile_qr_scan", "ios": "https://dc.lft.to/lastmile_qr_scan"}, "fusion_lon": 0.0, "lat": 38.938813333333336, "bike_id": "a8190f8a333f4c9ae5430b1f4c9a97d8", "type": "electric_scooter", "is_reserved": 0, "lon": -77.02465083333334}, {"fusion_lat": 0.0, "name": "f54e07a899a49798fbef0164511268ca", "is_disabled": 0, "rental_uris": {"android": "https://dc.lft.to/lastmile_qr_scan", "ios": "https://dc.lft.to/lastmile_qr_scan"}, "fusion_lon": 0.0, "lat": 38.91792316666667, "bike_id": "f54e07a899a49798fbef0164511268ca", "type": "electric_scooter", "is_reserved": 0, "lon": -77.04023566666666}, {"fusion_lat": 0.0, "name": "1640844444dda7e825f212122a52d2de", "is_disabled": 0, "rental_uris": {"android": "https://dc.lft.to/lastmile_qr_scan", "ios": "https://dc.lft.to/lastmile_qr_scan"}, "fusion_lon": 0.0, "lat": 38.897170833333334, "bike_id": "1640844444dda7e825f212122a52d2de", "type": "electric_scooter", "is_reserved": 0, "lon": -77.0214415}, {"fusion_lat": 0.0, "name": "d7318cd6fa01350d347ccfe775ffb687", "is_disabled": 0, "rental_uris": {"android": "https://dc.lft.to/lastmile_qr_scan", "ios": "https://dc.lft.to/lastmile_qr_scan"}, "fusion_lon": 0.0, "lat": 38.92422933333334, "bike_id": "d7318cd6fa01350d347ccfe775ffb687", "type": "electric_scooter", "is_reserved": 0, "lon": -77.01956066666666}, {"fusion_lat": 0.0, "name": "d8197bc09eb4c516acf7f5672c24f453", "is_disabled": 0, "rental_uris": {"android": "https://dc.lft.to/lastmile_qr_scan", "ios": "https://dc.lft.to/lastmile_qr_scan"}, "fusion_lon": 0.0, "lat": 38.91501916666667, "bike_id": "d8197bc09eb4c516acf7f5672c24f453", "type": "electric_scooter", "is_reserved": 0, "lon": -77.03210816666666}, {"fusion_lat": 0.0, "name": "9d80b4484b051dbf81b6d7df546fe39f", "is_disabled": 0, "rental_uris": {"android": "https://dc.lft.to/lastmile_qr_scan", "ios": "https://dc.lft.to/lastmile_qr_scan"}, "fusion_lon": 0.0, "lat": 38.913146, "bike_id": "9d80b4484b051dbf81b6d7df546fe39f", "type": "electric_scooter", "is_reserved": 0, "lon": -77.02138383333333}, {"fusion_lat": 0.0, "name": "901b773c3015b86c8cea7137fccb69f9", "is_disabled": 0, "rental_uris": {"android": "https://dc.lft.to/lastmile_qr_scan", "ios": "https://dc.lft.to/lastmile_qr_scan"}, "fusion_lon": 0.0, "lat": 38.900409333333336, "bike_id": "901b773c3015b86c8cea7137fccb69f9", "type": "electric_scooter", "is_reserved": 0, "lon": -76.98553083333333}, {"fusion_lat": 0.0, "name": "a1ec79f6de03805d267faf4388d04870", "is_disabled": 0, "rental_uris": {"android": "https://dc.lft.to/lastmile_qr_scan", "ios": "https://dc.lft.to/lastmile_qr_scan"}, "fusion_lon": 0.0, "lat": 38.87968733333334, "bike_id": "a1ec79f6de03805d267faf4388d04870", "type": "electric_bike", "is_reserved": 0, "lon": -76.916155}, {"fusion_lat": 0.0, "name": "57906df708162ae07f7a05f8cd8d22da", "is_disabled": 0, "rental_uris": {"android": "https://dc.lft.to/lastmile_qr_scan", "ios": "https://dc.lft.to/lastmile_qr_scan"}, "fusion_lon": 0.0, "lat": 38.88417316666666, "bike_id": "57906df708162ae07f7a05f8cd8d22da", "type": "electric_scooter", "is_reserved": 0, "lon": -77.01985416666666}, {"fusion_lat": 0.0, "name": "cef01d74ce6695648888cea543062427", "is_disabled": 0, "rental_uris": {"android": "https://dc.lft.to/lastmile_qr_scan", "ios": "https://dc.lft.to/lastmile_qr_scan"}, "fusion_lon": 0.0, "lat": 38.90685416666667, "bike_id": "cef01d74ce6695648888cea543062427", "type": "electric_scooter", "is_reserved": 0, "lon": -77.02201533333333}, {"fusion_lat": 0.0, "name": "dfe0170f9c527facdc96c61104ad6495", "is_disabled": 0, "rental_uris": {"android": "https://dc.lft.to/lastmile_qr_scan", "ios": "https://dc.lft.to/lastmile_qr_scan"}, "fusion_lon": 0.0, "lat": 38.910305, "bike_id": "dfe0170f9c527facdc96c61104ad6495", "type": "electric_scooter", "is_reserved": 0, "lon": -77.00759166666667}, {"fusion_lat": 0.0, "name": "369e779821248ea5918ed466733fcb2b", "is_disabled": 0, "rental_uris": {"android": "https://dc.lft.to/lastmile_qr_scan", "ios": "https://dc.lft.to/lastmile_qr_scan"}, "fusion_lon": 0.0, "lat": 38.9325075, "bike_id": "369e779821248ea5918ed466733fcb2b", "type": "electric_scooter", "is_reserved": 0, "lon": -76.9973235}, {"fusion_lat": 0.0, "name": "f0bc80f9d618c7d9dfda8aeebd4b6dfc", "is_disabled": 0, "rental_uris": {"android": "https://dc.lft.to/lastmile_qr_scan", "ios": "https://dc.lft.to/lastmile_qr_scan"}, "fusion_lon": 0.0, "lat": 38.9002725, "bike_id": "f0bc80f9d618c7d9dfda8aeebd4b6dfc", "type": "electric_scooter", "is_reserved": 0, "lon": -76.9913945}, {"fusion_lat": 0.0, "name": "f8062da369bfa433f7c728244ad11b6a", "is_disabled": 0, "rental_uris": {"android": "https://dc.lft.to/lastmile_qr_scan", "ios": "https://dc.lft.to/lastmile_qr_scan"}, "fusion_lon": 0.0, "lat": 38.89235, "bike_id": "f8062da369bfa433f7c728244ad11b6a", "type": "electric_scooter", "is_reserved": 0, "lon": -77.0241365}, {"fusion_lat": 0.0, "name": "d33dae8462573bf073cdb50f332ca904", "is_disabled": 0, "rental_uris": {"android": "https://dc.lft.to/lastmile_qr_scan", "ios": "https://dc.lft.to/lastmile_qr_scan"}, "fusion_lon": 0.0, "lat": 38.9006595, "bike_id": "d33dae8462573bf073cdb50f332ca904", "type": "electric_scooter", "is_reserved": 0, "lon": -76.93384466666667}, {"fusion_lat": 0.0, "name": "794d127017715cc30ae0e98db3aacd8d", "is_disabled": 0, "rental_uris": {"android": "https://dc.lft.to/lastmile_qr_scan", "ios": "https://dc.lft.to/lastmile_qr_scan"}, "fusion_lon": 0.0, "lat": 38.903898, "bike_id": "794d127017715cc30ae0e98db3aacd8d", "type": "electric_scooter", "is_reserved": 0, "lon": -77.061402}, {"fusion_lat": 0.0, "name": "4b4bf9bb48e12ca831ba3f9990ba4d5e", "is_disabled": 0, "rental_uris": {"android": "https://dc.lft.to/lastmile_qr_scan", "ios": "https://dc.lft.to/lastmile_qr_scan"}, "fusion_lon": 0.0, "lat": 38.93754916666666, "bike_id": "4b4bf9bb48e12ca831ba3f9990ba4d5e", "type": "electric_scooter", "is_reserved": 0, "lon": -77.02531316666666}, {"fusion_lat": 0.0, "name": "0f32c53ce07bacb02792187ae3344906", "is_disabled": 0, "rental_uris": {"android": "https://dc.lft.to/lastmile_qr_scan", "ios": "https://dc.lft.to/lastmile_qr_scan"}, "fusion_lon": 0.0, "lat": 38.8960735, "bike_id": "0f32c53ce07bacb02792187ae3344906", "type": "electric_scooter", "is_reserved": 0, "lon": -77.049763}, {"fusion_lat": 0.0, "name": "b00b6d6bb53c33e0fb36384c2241b5b1", "is_disabled": 0, "rental_uris": {"android": "https://dc.lft.to/lastmile_qr_scan", "ios": "https://dc.lft.to/lastmile_qr_scan"}, "fusion_lon": 0.0, "lat": 38.94266366666667, "bike_id": "b00b6d6bb53c33e0fb36384c2241b5b1", "type": "electric_bike", "is_reserved": 0, "lon": -76.985138}, {"fusion_lat": 0.0, "name": "95edc1fef3911dbf36eeafd705bc212d", "is_disabled": 0, "rental_uris": {"android": "https://dc.lft.to/lastmile_qr_scan", "ios": "https://dc.lft.to/lastmile_qr_scan"}, "fusion_lon": 0.0, "lat": 38.8985045, "bike_id": "95edc1fef3911dbf36eeafd705bc212d", "type": "electric_scooter", "is_reserved": 0, "lon": -77.02429266666667}, {"fusion_lat": 0.0, "name": "540e820f9855b9d288685e21fec955cc", "is_disabled": 0, "rental_uris": {"android": "https://dc.lft.to/lastmile_qr_scan", "ios": "https://dc.lft.to/lastmile_qr_scan"}, "fusion_lon": 0.0, "lat": 38.84051916666667, "bike_id": "540e820f9855b9d288685e21fec955cc", "type": "electric_scooter", "is_reserved": 0, "lon": -76.97666316666667}, {"fusion_lat": 0.0, "name": "1935942fe11d8b5f50b874e8468ef2e8", "is_disabled": 0, "rental_uris": {"android": "https://dc.lft.to/lastmile_qr_scan", "ios": "https://dc.lft.to/lastmile_qr_scan"}, "fusion_lon": 0.0, "lat": 38.89568333333333, "bike_id": "1935942fe11d8b5f50b874e8468ef2e8", "type": "electric_bike", "is_reserved": 0, "lon": -77.127386}, {"fusion_lat": 0.0, "name": "1f5094f44614956abbdf8575c7554627", "is_disabled": 0, "rental_uris": {"android": "https://dc.lft.to/lastmile_qr_scan", "ios": "https://dc.lft.to/lastmile_qr_scan"}, "fusion_lon": 0.0, "lat": 38.89707833333333, "bike_id": "1f5094f44614956abbdf8575c7554627", "type": "electric_scooter", "is_reserved": 0, "lon": -77.025924}, {"fusion_lat": 0.0, "name": "d555faf253fae1d0178e0332a67b14eb", "is_disabled": 0, "rental_uris": {"android": "https://dc.lft.to/lastmile_qr_scan", "ios": "https://dc.lft.to/lastmile_qr_scan"}, "fusion_lon": 0.0, "lat": 38.9271885, "bike_id": "d555faf253fae1d0178e0332a67b14eb", "type": "electric_scooter", "is_reserved": 0, "lon": -77.02044283333333}, {"fusion_lat": 0.0, "name": "7be59bc33e11baf51566317ddbe66851", "is_disabled": 0, "rental_uris": {"android": "https://dc.lft.to/lastmile_qr_scan", "ios": "https://dc.lft.to/lastmile_qr_scan"}, "fusion_lon": 0.0, "lat": 38.942818333333335, "bike_id": "7be59bc33e11baf51566317ddbe66851", "type": "electric_scooter", "is_reserved": 0, "lon": -77.02005633333333}, {"fusion_lat": 0.0, "name": "00f3fe5600b446586771cee9a0e1ec28", "is_disabled": 0, "rental_uris": {"android": "https://dc.lft.to/lastmile_qr_scan", "ios": "https://dc.lft.to/lastmile_qr_scan"}, "fusion_lon": 0.0, "lat": 38.90184383333333, "bike_id": "00f3fe5600b446586771cee9a0e1ec28", "type": "electric_scooter", "is_reserved": 0, "lon": -77.05006766666666}, {"fusion_lat": 0.0, "name": "e7e3c35844138458203376801f1c58e4", "is_disabled": 0, "rental_uris": {"android": "https://dc.lft.to/lastmile_qr_scan", "ios": "https://dc.lft.to/lastmile_qr_scan"}, "fusion_lon": 0.0, "lat": 38.948397, "bike_id": "e7e3c35844138458203376801f1c58e4", "type": "electric_scooter", "is_reserved": 0, "lon": -77.07987866666667}, {"fusion_lat": 0.0, "name": "c3721bae39b06f187204888de5d44dc1", "is_disabled": 0, "rental_uris": {"android": "https://dc.lft.to/lastmile_qr_scan", "ios": "https://dc.lft.to/lastmile_qr_scan"}, "fusion_lon": 0.0, "lat": 38.883904, "bike_id": "c3721bae39b06f187204888de5d44dc1", "type": "electric_scooter", "is_reserved": 0, "lon": -76.93043983333334}, {"fusion_lat": 0.0, "name": "62c973ec462cc7d925124443dc6f1185", "is_disabled": 0, "rental_uris": {"android": "https://dc.lft.to/lastmile_qr_scan", "ios": "https://dc.lft.to/lastmile_qr_scan"}, "fusion_lon": 0.0, "lat": 38.905183666666666, "bike_id": "62c973ec462cc7d925124443dc6f1185", "type": "electric_scooter", "is_reserved": 0, "lon": -77.063767}, {"fusion_lat": 0.0, "name": "3c7bc7c17ef5325c2d2438498481c9a5", "is_disabled": 0, "rental_uris": {"android": "https://dc.lft.to/lastmile_qr_scan", "ios": "https://dc.lft.to/lastmile_qr_scan"}, "fusion_lon": 0.0, "lat": 38.940902, "bike_id": "3c7bc7c17ef5325c2d2438498481c9a5", "type": "electric_scooter", "is_reserved": 0, "lon": -77.06175966666666}, {"fusion_lat": 0.0, "name": "8d2be629156a8ed45d9fc791fe651a1a", "is_disabled": 0, "rental_uris": {"android": "https://dc.lft.to/lastmile_qr_scan", "ios": "https://dc.lft.to/lastmile_qr_scan"}, "fusion_lon": 0.0, "lat": 38.895421166666665, "bike_id": "8d2be629156a8ed45d9fc791fe651a1a", "type": "electric_scooter", "is_reserved": 0, "lon": -77.010954}, {"fusion_lat": 0.0, "name": "cfdd010e89866ad38a747fcae8b0f7c0", "is_disabled": 0, "rental_uris": {"android": "https://dc.lft.to/lastmile_qr_scan", "ios": "https://dc.lft.to/lastmile_qr_scan"}, "fusion_lon": 0.0, "lat": 38.857646333333335, "bike_id": "cfdd010e89866ad38a747fcae8b0f7c0", "type": "electric_bike", "is_reserved": 0, "lon": -76.98760266666666}, {"fusion_lat": 0.0, "name": "abc0ac6f19f3ae8dd7675d82c74d0f1a", "is_disabled": 0, "rental_uris": {"android": "https://dc.lft.to/lastmile_qr_scan", "ios": "https://dc.lft.to/lastmile_qr_scan"}, "fusion_lon": 0.0, "lat": 38.897319, "bike_id": "abc0ac6f19f3ae8dd7675d82c74d0f1a", "type": "electric_scooter", "is_reserved": 0, "lon": -77.05519166666667}, {"fusion_lat": 0.0, "name": "9c10cc958ebfa3a4e779a66d71d7ce23", "is_disabled": 0, "rental_uris": {"android": "https://dc.lft.to/lastmile_qr_scan", "ios": "https://dc.lft.to/lastmile_qr_scan"}, "fusion_lon": 0.0, "lat": 38.910547333333334, "bike_id": "9c10cc958ebfa3a4e779a66d71d7ce23", "type": "electric_scooter", "is_reserved": 0, "lon": -77.043466}, {"fusion_lat": 0.0, "name": "2246855cc80d737fecc8534557c65948", "is_disabled": 0, "rental_uris": {"android": "https://dc.lft.to/lastmile_qr_scan", "ios": "https://dc.lft.to/lastmile_qr_scan"}, "fusion_lon": 0.0, "lat": 38.898414333333335, "bike_id": "2246855cc80d737fecc8534557c65948", "type": "electric_scooter", "is_reserved": 0, "lon": -77.02627083333333}, {"fusion_lat": 0.0, "name": "4ad31ea08267cd2190e75ae753d60c1d", "is_disabled": 0, "rental_uris": {"android": "https://dc.lft.to/lastmile_qr_scan", "ios": "https://dc.lft.to/lastmile_qr_scan"}, "fusion_lon": 0.0, "lat": 38.842977833333336, "bike_id": "4ad31ea08267cd2190e75ae753d60c1d", "type": "electric_bike", "is_reserved": 0, "lon": -77.10865483333333}, {"fusion_lat": 0.0, "name": "d38f626ba7ad22a1b66f025cf932ffe4", "is_disabled": 0, "rental_uris": {"android": "https://dc.lft.to/lastmile_qr_scan", "ios": "https://dc.lft.to/lastmile_qr_scan"}, "fusion_lon": 0.0, "lat": 38.91094866666667, "bike_id": "d38f626ba7ad22a1b66f025cf932ffe4", "type": "electric_bike", "is_reserved": 0, "lon": -76.98471}, {"fusion_lat": 0.0, "name": "910e0a317e9d7e146a9bf80aa9739f77", "is_disabled": 0, "rental_uris": {"android": "https://dc.lft.to/lastmile_qr_scan", "ios": "https://dc.lft.to/lastmile_qr_scan"}, "fusion_lon": 0.0, "lat": 38.90952033333333, "bike_id": "910e0a317e9d7e146a9bf80aa9739f77", "type": "electric_scooter", "is_reserved": 0, "lon": -76.98536583333333}, {"fusion_lat": 0.0, "name": "39cf19e03bdb56a6d2dbc323d0dc4c5b", "is_disabled": 0, "rental_uris": {"android": "https://dc.lft.to/lastmile_qr_scan", "ios": "https://dc.lft.to/lastmile_qr_scan"}, "fusion_lon": 0.0, "lat": 38.923535, "bike_id": "39cf19e03bdb56a6d2dbc323d0dc4c5b", "type": "electric_scooter", "is_reserved": 0, "lon": -77.04393166666667}, {"fusion_lat": 0.0, "name": "0701f9dfb96e9fcafe6853ba157c9152", "is_disabled": 0, "rental_uris": {"android": "https://dc.lft.to/lastmile_qr_scan", "ios": "https://dc.lft.to/lastmile_qr_scan"}, "fusion_lon": 0.0, "lat": 38.90017733333333, "bike_id": "0701f9dfb96e9fcafe6853ba157c9152", "type": "electric_scooter", "is_reserved": 0, "lon": -77.02394583333333}, {"fusion_lat": 0.0, "name": "a933b0aee28e455b30132922f22404c9", "is_disabled": 0, "rental_uris": {"android": "https://dc.lft.to/lastmile_qr_scan", "ios": "https://dc.lft.to/lastmile_qr_scan"}, "fusion_lon": 0.0, "lat": 38.9162255, "bike_id": "a933b0aee28e455b30132922f22404c9", "type": "electric_scooter", "is_reserved": 0, "lon": -77.038546}, {"fusion_lat": 0.0, "name": "594acef77b7b87095fafe714509a4715", "is_disabled": 0, "rental_uris": {"android": "https://dc.lft.to/lastmile_qr_scan", "ios": "https://dc.lft.to/lastmile_qr_scan"}, "fusion_lon": 0.0, "lat": 38.87476066666667, "bike_id": "594acef77b7b87095fafe714509a4715", "type": "electric_scooter", "is_reserved": 0, "lon": -77.0189715}, {"fusion_lat": 0.0, "name": "d6ef73de2e665bce1a7cf17a8794e6cd", "is_disabled": 0, "rental_uris": {"android": "https://dc.lft.to/lastmile_qr_scan", "ios": "https://dc.lft.to/lastmile_qr_scan"}, "fusion_lon": 0.0, "lat": 38.887645, "bike_id": "d6ef73de2e665bce1a7cf17a8794e6cd", "type": "electric_scooter", "is_reserved": 0, "lon": -76.977537}, {"fusion_lat": 0.0, "name": "80497018981eab611d15b967b8dc5c2c", "is_disabled": 0, "rental_uris": {"android": "https://dc.lft.to/lastmile_qr_scan", "ios": "https://dc.lft.to/lastmile_qr_scan"}, "fusion_lon": 0.0, "lat": 38.899113666666665, "bike_id": "80497018981eab611d15b967b8dc5c2c", "type": "electric_scooter", "is_reserved": 0, "lon": -76.945509}, {"fusion_lat": 0.0, "name": "e237374e192d38fbe6c013d1add23ea2", "is_disabled": 0, "rental_uris": {"android": "https://dc.lft.to/lastmile_qr_scan", "ios": "https://dc.lft.to/lastmile_qr_scan"}, "fusion_lon": 0.0, "lat": 38.910058666666664, "bike_id": "e237374e192d38fbe6c013d1add23ea2", "type": "electric_scooter", "is_reserved": 0, "lon": -77.00719666666667}, {"fusion_lat": 0.0, "name": "78f40161aa58730d14f2faa3257ccc5f", "is_disabled": 0, "rental_uris": {"android": "https://dc.lft.to/lastmile_qr_scan", "ios": "https://dc.lft.to/lastmile_qr_scan"}, "fusion_lon": 0.0, "lat": 38.89674316666667, "bike_id": "78f40161aa58730d14f2faa3257ccc5f", "type": "electric_scooter", "is_reserved": 0, "lon": -77.04978333333334}, {"fusion_lat": 0.0, "name": "3ada1011b8fc91d6c038ff8e0872ad94", "is_disabled": 0, "rental_uris": {"android": "https://dc.lft.to/lastmile_qr_scan", "ios": "https://dc.lft.to/lastmile_qr_scan"}, "fusion_lon": 0.0, "lat": 38.82458583333333, "bike_id": "3ada1011b8fc91d6c038ff8e0872ad94", "type": "electric_bike", "is_reserved": 0, "lon": -77.00791716666667}, {"fusion_lat": 0.0, "name": "55262e61b1275b305cc2a1ff4192dd69", "is_disabled": 0, "rental_uris": {"android": "https://dc.lft.to/lastmile_qr_scan", "ios": "https://dc.lft.to/lastmile_qr_scan"}, "fusion_lon": 0.0, "lat": 38.9306205, "bike_id": "55262e61b1275b305cc2a1ff4192dd69", "type": "electric_scooter", "is_reserved": 0, "lon": -77.0320915}, {"fusion_lat": 0.0, "name": "9c4d109ed65fb852f44707d75fa19266", "is_disabled": 0, "rental_uris": {"android": "https://dc.lft.to/lastmile_qr_scan", "ios": "https://dc.lft.to/lastmile_qr_scan"}, "fusion_lon": 0.0, "lat": 38.93530166666667, "bike_id": "9c4d109ed65fb852f44707d75fa19266", "type": "electric_scooter", "is_reserved": 0, "lon": -77.02851566666666}, {"fusion_lat": 0.0, "name": "20c40515784ea9c79c797443fd1b1d59", "is_disabled": 0, "rental_uris": {"android": "https://dc.lft.to/lastmile_qr_scan", "ios": "https://dc.lft.to/lastmile_qr_scan"}, "fusion_lon": 0.0, "lat": 38.92111, "bike_id": "20c40515784ea9c79c797443fd1b1d59", "type": "electric_scooter", "is_reserved": 0, "lon": -77.018057}, {"fusion_lat": 0.0, "name": "daa844c2b9747c204f3f4f1015e74e54", "is_disabled": 0, "rental_uris": {"android": "https://dc.lft.to/lastmile_qr_scan", "ios": "https://dc.lft.to/lastmile_qr_scan"}, "fusion_lon": 0.0, "lat": 38.90515883333333, "bike_id": "daa844c2b9747c204f3f4f1015e74e54", "type": "electric_scooter", "is_reserved": 0, "lon": -77.06385583333333}, {"fusion_lat": 0.0, "name": "6b0f5fda02d7b51bd7d12b4bbebd915e", "is_disabled": 0, "rental_uris": {"android": "https://dc.lft.to/lastmile_qr_scan", "ios": "https://dc.lft.to/lastmile_qr_scan"}, "fusion_lon": 0.0, "lat": 38.910280666666665, "bike_id": "6b0f5fda02d7b51bd7d12b4bbebd915e", "type": "electric_scooter", "is_reserved": 0, "lon": -77.0291395}, {"fusion_lat": 0.0, "name": "e483451bad2ab8beb66a83b532459235", "is_disabled": 0, "rental_uris": {"android": "https://dc.lft.to/lastmile_qr_scan", "ios": "https://dc.lft.to/lastmile_qr_scan"}, "fusion_lon": 0.0, "lat": 38.924748, "bike_id": "e483451bad2ab8beb66a83b532459235", "type": "electric_scooter", "is_reserved": 0, "lon": -77.02073766666666}, {"fusion_lat": 0.0, "name": "659ecfffd74cac024e3d5253ac476d52", "is_disabled": 0, "rental_uris": {"android": "https://dc.lft.to/lastmile_qr_scan", "ios": "https://dc.lft.to/lastmile_qr_scan"}, "fusion_lon": 0.0, "lat": 38.901053166666664, "bike_id": "659ecfffd74cac024e3d5253ac476d52", "type": "electric_scooter", "is_reserved": 0, "lon": -76.93047133333333}, {"fusion_lat": 0.0, "name": "8b3de81925e4af76db4aba2dd6d7d928", "is_disabled": 0, "rental_uris": {"android": "https://dc.lft.to/lastmile_qr_scan", "ios": "https://dc.lft.to/lastmile_qr_scan"}, "fusion_lon": 0.0, "lat": 38.90731066666667, "bike_id": "8b3de81925e4af76db4aba2dd6d7d928", "type": "electric_scooter", "is_reserved": 0, "lon": -77.04764316666666}, {"fusion_lat": 0.0, "name": "d24006b19a2cb99edbf83fa9df9af1c4", "is_disabled": 0, "rental_uris": {"android": "https://dc.lft.to/lastmile_qr_scan", "ios": "https://dc.lft.to/lastmile_qr_scan"}, "fusion_lon": 0.0, "lat": 38.90558333333333, "bike_id": "d24006b19a2cb99edbf83fa9df9af1c4", "type": "electric_scooter", "is_reserved": 0, "lon": -77.0048535}, {"fusion_lat": 0.0, "name": "8ec797c4aa5a949f74e07568dda10d8f", "is_disabled": 0, "rental_uris": {"android": "https://dc.lft.to/lastmile_qr_scan", "ios": "https://dc.lft.to/lastmile_qr_scan"}, "fusion_lon": 0.0, "lat": 38.916718833333334, "bike_id": "8ec797c4aa5a949f74e07568dda10d8f", "type": "electric_scooter", "is_reserved": 0, "lon": -77.032085}, {"fusion_lat": 0.0, "name": "c18eabb8c50f5fc20c330a6f8b19edf7", "is_disabled": 0, "rental_uris": {"android": "https://dc.lft.to/lastmile_qr_scan", "ios": "https://dc.lft.to/lastmile_qr_scan"}, "fusion_lon": 0.0, "lat": 38.91790483333333, "bike_id": "c18eabb8c50f5fc20c330a6f8b19edf7", "type": "electric_scooter", "is_reserved": 0, "lon": -77.04034283333333}, {"fusion_lat": 0.0, "name": "d1418e47c9f53540121a50b9765b45ac", "is_disabled": 0, "rental_uris": {"android": "https://dc.lft.to/lastmile_qr_scan", "ios": "https://dc.lft.to/lastmile_qr_scan"}, "fusion_lon": 0.0, "lat": 38.90721683333334, "bike_id": "d1418e47c9f53540121a50b9765b45ac", "type": "electric_scooter", "is_reserved": 0, "lon": -77.0289345}, {"fusion_lat": 0.0, "name": "c3582ff2974a2c3f927b449d144aa587", "is_disabled": 0, "rental_uris": {"android": "https://dc.lft.to/lastmile_qr_scan", "ios": "https://dc.lft.to/lastmile_qr_scan"}, "fusion_lon": 0.0, "lat": 38.932204166666665, "bike_id": "c3582ff2974a2c3f927b449d144aa587", "type": "electric_scooter", "is_reserved": 0, "lon": -77.044092}, {"fusion_lat": 0.0, "name": "3ad000b0a886a79856869dfd42642d53", "is_disabled": 0, "rental_uris": {"android": "https://dc.lft.to/lastmile_qr_scan", "ios": "https://dc.lft.to/lastmile_qr_scan"}, "fusion_lon": 0.0, "lat": 38.84277133333333, "bike_id": "3ad000b0a886a79856869dfd42642d53", "type": "electric_bike", "is_reserved": 0, "lon": -76.9884285}, {"fusion_lat": 0.0, "name": "81fea137fbe5f11b67b3fa34190a7835", "is_disabled": 0, "rental_uris": {"android": "https://dc.lft.to/lastmile_qr_scan", "ios": "https://dc.lft.to/lastmile_qr_scan"}, "fusion_lon": 0.0, "lat": 38.93872966666667, "bike_id": "81fea137fbe5f11b67b3fa34190a7835", "type": "electric_scooter", "is_reserved": 0, "lon": -77.032298}, {"fusion_lat": 0.0, "name": "570dde4eaecbb7f244dda92e606362d2", "is_disabled": 0, "rental_uris": {"android": "https://dc.lft.to/lastmile_qr_scan", "ios": "https://dc.lft.to/lastmile_qr_scan"}, "fusion_lon": 0.0, "lat": 38.9216475, "bike_id": "570dde4eaecbb7f244dda92e606362d2", "type": "electric_scooter", "is_reserved": 0, "lon": -77.03639266666667}, {"fusion_lat": 0.0, "name": "82aeb95e49b3333aafb71bc62e686dc5", "is_disabled": 0, "rental_uris": {"android": "https://dc.lft.to/lastmile_qr_scan", "ios": "https://dc.lft.to/lastmile_qr_scan"}, "fusion_lon": 0.0, "lat": 38.899798833333335, "bike_id": "82aeb95e49b3333aafb71bc62e686dc5", "type": "electric_scooter", "is_reserved": 0, "lon": -77.0406415}, {"fusion_lat": 0.0, "name": "c7e4864b52914f875f22f547c2c93273", "is_disabled": 0, "rental_uris": {"android": "https://dc.lft.to/lastmile_qr_scan", "ios": "https://dc.lft.to/lastmile_qr_scan"}, "fusion_lon": 0.0, "lat": 38.91119116666667, "bike_id": "c7e4864b52914f875f22f547c2c93273", "type": "electric_scooter", "is_reserved": 0, "lon": -77.0325195}, {"fusion_lat": 0.0, "name": "20428fea8452d685d1ffa77ab9477f04", "is_disabled": 0, "rental_uris": {"android": "https://dc.lft.to/lastmile_qr_scan", "ios": "https://dc.lft.to/lastmile_qr_scan"}, "fusion_lon": 0.0, "lat": 38.88750533333334, "bike_id": "20428fea8452d685d1ffa77ab9477f04", "type": "electric_scooter", "is_reserved": 0, "lon": -76.99614066666666}, {"fusion_lat": 0.0, "name": "a6bb7e8b75d13008f0d2549422b1cbde", "is_disabled": 0, "rental_uris": {"android": "https://dc.lft.to/lastmile_qr_scan", "ios": "https://dc.lft.to/lastmile_qr_scan"}, "fusion_lon": 0.0, "lat": 38.942046833333336, "bike_id": "a6bb7e8b75d13008f0d2549422b1cbde", "type": "electric_scooter", "is_reserved": 0, "lon": -77.025915}, {"fusion_lat": 0.0, "name": "c3aeef3f33c5f7df6af05bfac3563d62", "is_disabled": 0, "rental_uris": {"android": "https://dc.lft.to/lastmile_qr_scan", "ios": "https://dc.lft.to/lastmile_qr_scan"}, "fusion_lon": 0.0, "lat": 38.91557683333333, "bike_id": "c3aeef3f33c5f7df6af05bfac3563d62", "type": "electric_scooter", "is_reserved": 0, "lon": -77.032278}, {"fusion_lat": 0.0, "name": "8e4087cb917c77939ae5443666ed9217", "is_disabled": 0, "rental_uris": {"android": "https://dc.lft.to/lastmile_qr_scan", "ios": "https://dc.lft.to/lastmile_qr_scan"}, "fusion_lon": 0.0, "lat": 38.9345275, "bike_id": "8e4087cb917c77939ae5443666ed9217", "type": "electric_scooter", "is_reserved": 0, "lon": -77.03870866666666}, {"fusion_lat": 0.0, "name": "971a7b28afa01e2f1be368406c54c1d1", "is_disabled": 0, "rental_uris": {"android": "https://dc.lft.to/lastmile_qr_scan", "ios": "https://dc.lft.to/lastmile_qr_scan"}, "fusion_lon": 0.0, "lat": 38.918139333333336, "bike_id": "971a7b28afa01e2f1be368406c54c1d1", "type": "electric_scooter", "is_reserved": 0, "lon": -77.03933883333333}, {"fusion_lat": 0.0, "name": "392889f09d48268bfa3154f5b41d78c4", "is_disabled": 0, "rental_uris": {"android": "https://dc.lft.to/lastmile_qr_scan", "ios": "https://dc.lft.to/lastmile_qr_scan"}, "fusion_lon": 0.0, "lat": 38.879481166666665, "bike_id": "392889f09d48268bfa3154f5b41d78c4", "type": "electric_scooter", "is_reserved": 0, "lon": -77.00844566666666}, {"fusion_lat": 0.0, "name": "913535222c3d1636e95cef5a39fd5826", "is_disabled": 0, "rental_uris": {"android": "https://dc.lft.to/lastmile_qr_scan", "ios": "https://dc.lft.to/lastmile_qr_scan"}, "fusion_lon": 0.0, "lat": 38.92041866666667, "bike_id": "913535222c3d1636e95cef5a39fd5826", "type": "electric_scooter", "is_reserved": 0, "lon": -77.0419525}, {"fusion_lat": 0.0, "name": "1359a10aea7a0f653faaac96ab0f3b90", "is_disabled": 0, "rental_uris": {"android": "https://dc.lft.to/lastmile_qr_scan", "ios": "https://dc.lft.to/lastmile_qr_scan"}, "fusion_lon": 0.0, "lat": 38.917267833333334, "bike_id": "1359a10aea7a0f653faaac96ab0f3b90", "type": "electric_scooter", "is_reserved": 0, "lon": -77.03656983333333}, {"fusion_lat": 0.0, "name": "21db5dbf6d019e2aa0fe62a7eb731000", "is_disabled": 0, "rental_uris": {"android": "https://dc.lft.to/lastmile_qr_scan", "ios": "https://dc.lft.to/lastmile_qr_scan"}, "fusion_lon": 0.0, "lat": 38.920046, "bike_id": "21db5dbf6d019e2aa0fe62a7eb731000", "type": "electric_scooter", "is_reserved": 0, "lon": -77.041742}, {"fusion_lat": 0.0, "name": "5e3d0c17754c20215ea5edefe2728a52", "is_disabled": 0, "rental_uris": {"android": "https://dc.lft.to/lastmile_qr_scan", "ios": "https://dc.lft.to/lastmile_qr_scan"}, "fusion_lon": 0.0, "lat": 38.9568385, "bike_id": "5e3d0c17754c20215ea5edefe2728a52", "type": "electric_scooter", "is_reserved": 0, "lon": -77.032475}, {"fusion_lat": 0.0, "name": "79c6ac933af40967a87c863e421d8e8d", "is_disabled": 0, "rental_uris": {"android": "https://dc.lft.to/lastmile_qr_scan", "ios": "https://dc.lft.to/lastmile_qr_scan"}, "fusion_lon": 0.0, "lat": 38.866851, "bike_id": "79c6ac933af40967a87c863e421d8e8d", "type": "electric_bike", "is_reserved": 0, "lon": -76.98235333333334}, {"fusion_lat": 0.0, "name": "c7c38d9d32b12d02307d80ef60c90523", "is_disabled": 0, "rental_uris": {"android": "https://dc.lft.to/lastmile_qr_scan", "ios": "https://dc.lft.to/lastmile_qr_scan"}, "fusion_lon": 0.0, "lat": 38.9097395, "bike_id": "c7c38d9d32b12d02307d80ef60c90523", "type": "electric_scooter", "is_reserved": 0, "lon": -77.0451195}, {"fusion_lat": 0.0, "name": "205a386e9f8e226cb49a4dd3a02ee39d", "is_disabled": 0, "rental_uris": {"android": "https://dc.lft.to/lastmile_qr_scan", "ios": "https://dc.lft.to/lastmile_qr_scan"}, "fusion_lon": 0.0, "lat": 38.9027975, "bike_id": "205a386e9f8e226cb49a4dd3a02ee39d", "type": "electric_scooter", "is_reserved": 0, "lon": -77.02278116666666}, {"fusion_lat": 0.0, "name": "f66fb71047ed06b8f1e36b515d1cab4b", "is_disabled": 0, "rental_uris": {"android": "https://dc.lft.to/lastmile_qr_scan", "ios": "https://dc.lft.to/lastmile_qr_scan"}, "fusion_lon": 0.0, "lat": 38.96234366666667, "bike_id": "f66fb71047ed06b8f1e36b515d1cab4b", "type": "electric_bike", "is_reserved": 0, "lon": -76.92781583333333}, {"fusion_lat": 0.0, "name": "f57cc216890cf45d2c990fe11a8f6060", "is_disabled": 0, "rental_uris": {"android": "https://dc.lft.to/lastmile_qr_scan", "ios": "https://dc.lft.to/lastmile_qr_scan"}, "fusion_lon": 0.0, "lat": 38.923534, "bike_id": "f57cc216890cf45d2c990fe11a8f6060", "type": "electric_scooter", "is_reserved": 0, "lon": -77.03399266666666}, {"fusion_lat": 0.0, "name": "f2b146fdf1338983124dfdaf37cc69dc", "is_disabled": 0, "rental_uris": {"android": "https://dc.lft.to/lastmile_qr_scan", "ios": "https://dc.lft.to/lastmile_qr_scan"}, "fusion_lon": 0.0, "lat": 38.9351715, "bike_id": "f2b146fdf1338983124dfdaf37cc69dc", "type": "electric_scooter", "is_reserved": 0, "lon": -77.02417183333333}, {"fusion_lat": 0.0, "name": "70431819764dd6bb7579c1cdbe3d02a3", "is_disabled": 0, "rental_uris": {"android": "https://dc.lft.to/lastmile_qr_scan", "ios": "https://dc.lft.to/lastmile_qr_scan"}, "fusion_lon": 0.0, "lat": 38.95666333333333, "bike_id": "70431819764dd6bb7579c1cdbe3d02a3", "type": "electric_bike", "is_reserved": 0, "lon": -77.01129266666666}, {"fusion_lat": 0.0, "name": "e987dd53a2372ed68013c2be4c960762", "is_disabled": 0, "rental_uris": {"android": "https://dc.lft.to/lastmile_qr_scan", "ios": "https://dc.lft.to/lastmile_qr_scan"}, "fusion_lon": 0.0, "lat": 38.907272166666665, "bike_id": "e987dd53a2372ed68013c2be4c960762", "type": "electric_scooter", "is_reserved": 0, "lon": -77.005104}, {"fusion_lat": 0.0, "name": "8342c891cff91b91333e22ceb7330ba3", "is_disabled": 0, "rental_uris": {"android": "https://dc.lft.to/lastmile_qr_scan", "ios": "https://dc.lft.to/lastmile_qr_scan"}, "fusion_lon": 0.0, "lat": 38.924120333333335, "bike_id": "8342c891cff91b91333e22ceb7330ba3", "type": "electric_scooter", "is_reserved": 0, "lon": -77.02275816666666}, {"fusion_lat": 0.0, "name": "44150590d3e1468b3a485bc7556922b6", "is_disabled": 0, "rental_uris": {"android": "https://dc.lft.to/lastmile_qr_scan", "ios": "https://dc.lft.to/lastmile_qr_scan"}, "fusion_lon": 0.0, "lat": 38.915414166666665, "bike_id": "44150590d3e1468b3a485bc7556922b6", "type": "electric_scooter", "is_reserved": 0, "lon": -77.03204183333334}, {"fusion_lat": 0.0, "name": "e24a48f1fff5fc2d7073869cc29fe330", "is_disabled": 0, "rental_uris": {"android": "https://dc.lft.to/lastmile_qr_scan", "ios": "https://dc.lft.to/lastmile_qr_scan"}, "fusion_lon": 0.0, "lat": 38.897369, "bike_id": "e24a48f1fff5fc2d7073869cc29fe330", "type": "electric_scooter", "is_reserved": 0, "lon": -77.0484585}, {"fusion_lat": 0.0, "name": "f33e2b9f25b62e5cbee029759bba9abf", "is_disabled": 0, "rental_uris": {"android": "https://dc.lft.to/lastmile_qr_scan", "ios": "https://dc.lft.to/lastmile_qr_scan"}, "fusion_lon": 0.0, "lat": 38.906501, "bike_id": "f33e2b9f25b62e5cbee029759bba9abf", "type": "electric_scooter", "is_reserved": 0, "lon": -77.02410333333333}, {"fusion_lat": 0.0, "name": "9d89a40caaa239d3095216bcfdd24d5a", "is_disabled": 0, "rental_uris": {"android": "https://dc.lft.to/lastmile_qr_scan", "ios": "https://dc.lft.to/lastmile_qr_scan"}, "fusion_lon": 0.0, "lat": 38.95956366666667, "bike_id": "9d89a40caaa239d3095216bcfdd24d5a", "type": "electric_scooter", "is_reserved": 0, "lon": -77.00894916666667}, {"fusion_lat": 0.0, "name": "8b6717129b939a093e3e798e82bf6d70", "is_disabled": 0, "rental_uris": {"android": "https://dc.lft.to/lastmile_qr_scan", "ios": "https://dc.lft.to/lastmile_qr_scan"}, "fusion_lon": 0.0, "lat": 38.925561333333334, "bike_id": "8b6717129b939a093e3e798e82bf6d70", "type": "electric_scooter", "is_reserved": 0, "lon": -77.02277716666667}, {"fusion_lat": 0.0, "name": "d947ffaf2834fe34ff3332c53a6116b5", "is_disabled": 0, "rental_uris": {"android": "https://dc.lft.to/lastmile_qr_scan", "ios": "https://dc.lft.to/lastmile_qr_scan"}, "fusion_lon": 0.0, "lat": 38.9073755, "bike_id": "d947ffaf2834fe34ff3332c53a6116b5", "type": "electric_scooter", "is_reserved": 0, "lon": -77.04819033333334}, {"fusion_lat": 0.0, "name": "76f2f9c7951af21498a8dc5eef2a6c38", "is_disabled": 0, "rental_uris": {"android": "https://dc.lft.to/lastmile_qr_scan", "ios": "https://dc.lft.to/lastmile_qr_scan"}, "fusion_lon": 0.0, "lat": 38.936851833333336, "bike_id": "76f2f9c7951af21498a8dc5eef2a6c38", "type": "electric_scooter", "is_reserved": 0, "lon": -77.03625183333334}, {"fusion_lat": 0.0, "name": "a4fc45390e61e582ed55a701e3d8db60", "is_disabled": 0, "rental_uris": {"android": "https://dc.lft.to/lastmile_qr_scan", "ios": "https://dc.lft.to/lastmile_qr_scan"}, "fusion_lon": 0.0, "lat": 38.92324933333333, "bike_id": "a4fc45390e61e582ed55a701e3d8db60", "type": "electric_scooter", "is_reserved": 0, "lon": -77.02076366666667}, {"fusion_lat": 0.0, "name": "25d5648ba6ab6bcd710b14546502a526", "is_disabled": 0, "rental_uris": {"android": "https://dc.lft.to/lastmile_qr_scan", "ios": "https://dc.lft.to/lastmile_qr_scan"}, "fusion_lon": 0.0, "lat": 38.90243866666667, "bike_id": "25d5648ba6ab6bcd710b14546502a526", "type": "electric_scooter", "is_reserved": 0, "lon": -77.04384683333333}, {"fusion_lat": 0.0, "name": "50e6c5c7a2b3d9688e765676c1bc3d83", "is_disabled": 0, "rental_uris": {"android": "https://dc.lft.to/lastmile_qr_scan", "ios": "https://dc.lft.to/lastmile_qr_scan"}, "fusion_lon": 0.0, "lat": 38.94071366666667, "bike_id": "50e6c5c7a2b3d9688e765676c1bc3d83", "type": "electric_bike", "is_reserved": 0, "lon": -76.99457366666667}, {"fusion_lat": 0.0, "name": "ad20dbc4de2e2a84f83b09747dc2afa2", "is_disabled": 0, "rental_uris": {"android": "https://dc.lft.to/lastmile_qr_scan", "ios": "https://dc.lft.to/lastmile_qr_scan"}, "fusion_lon": 0.0, "lat": 38.88974733333333, "bike_id": "ad20dbc4de2e2a84f83b09747dc2afa2", "type": "electric_scooter", "is_reserved": 0, "lon": -76.99936416666667}, {"fusion_lat": 0.0, "name": "01c339e0413ea5d229de52585a9f3cf8", "is_disabled": 0, "rental_uris": {"android": "https://dc.lft.to/lastmile_qr_scan", "ios": "https://dc.lft.to/lastmile_qr_scan"}, "fusion_lon": 0.0, "lat": 38.93149966666667, "bike_id": "01c339e0413ea5d229de52585a9f3cf8", "type": "electric_scooter", "is_reserved": 0, "lon": -77.07845816666666}, {"fusion_lat": 0.0, "name": "29c0fb11f4e1c9c832d252ce9374f364", "is_disabled": 0, "rental_uris": {"android": "https://dc.lft.to/lastmile_qr_scan", "ios": "https://dc.lft.to/lastmile_qr_scan"}, "fusion_lon": 0.0, "lat": 39.0525755, "bike_id": "29c0fb11f4e1c9c832d252ce9374f364", "type": "electric_bike", "is_reserved": 0, "lon": -77.08062883333334}, {"fusion_lat": 0.0, "name": "2980f7a9fbae315a388a509f372f6e18", "is_disabled": 0, "rental_uris": {"android": "https://dc.lft.to/lastmile_qr_scan", "ios": "https://dc.lft.to/lastmile_qr_scan"}, "fusion_lon": 0.0, "lat": 38.935246, "bike_id": "2980f7a9fbae315a388a509f372f6e18", "type": "electric_scooter", "is_reserved": 0, "lon": -77.07262183333333}, {"fusion_lat": 0.0, "name": "74fe5479945e842d6895621bc157cbb7", "is_disabled": 0, "rental_uris": {"android": "https://dc.lft.to/lastmile_qr_scan", "ios": "https://dc.lft.to/lastmile_qr_scan"}, "fusion_lon": 0.0, "lat": 38.91572083333333, "bike_id": "74fe5479945e842d6895621bc157cbb7", "type": "electric_scooter", "is_reserved": 0, "lon": -77.03851366666666}, {"fusion_lat": 0.0, "name": "ccae96cb60fe778f80840fdc365c02dd", "is_disabled": 0, "rental_uris": {"android": "https://dc.lft.to/lastmile_qr_scan", "ios": "https://dc.lft.to/lastmile_qr_scan"}, "fusion_lon": 0.0, "lat": 38.8944625, "bike_id": "ccae96cb60fe778f80840fdc365c02dd", "type": "electric_scooter", "is_reserved": 0, "lon": -76.93677666666666}, {"fusion_lat": 0.0, "name": "7066a74ef613b759c56a04d04e518f8b", "is_disabled": 0, "rental_uris": {"android": "https://dc.lft.to/lastmile_qr_scan", "ios": "https://dc.lft.to/lastmile_qr_scan"}, "fusion_lon": 0.0, "lat": 38.8475605, "bike_id": "7066a74ef613b759c56a04d04e518f8b", "type": "electric_scooter", "is_reserved": 0, "lon": -76.9950035}, {"fusion_lat": 0.0, "name": "df63a64fa34bb036c23ea39d1c254007", "is_disabled": 0, "rental_uris": {"android": "https://dc.lft.to/lastmile_qr_scan", "ios": "https://dc.lft.to/lastmile_qr_scan"}, "fusion_lon": 0.0, "lat": 38.89224316666667, "bike_id": "df63a64fa34bb036c23ea39d1c254007", "type": "electric_scooter", "is_reserved": 0, "lon": -77.032196}, {"fusion_lat": 0.0, "name": "6273e2b9f863cbccbc1148ac94575f35", "is_disabled": 0, "rental_uris": {"android": "https://dc.lft.to/lastmile_qr_scan", "ios": "https://dc.lft.to/lastmile_qr_scan"}, "fusion_lon": 0.0, "lat": 38.9073205, "bike_id": "6273e2b9f863cbccbc1148ac94575f35", "type": "electric_scooter", "is_reserved": 0, "lon": -77.0451405}, {"fusion_lat": 0.0, "name": "a3412378d01822196ae6c39fc1b3f839", "is_disabled": 0, "rental_uris": {"android": "https://dc.lft.to/lastmile_qr_scan", "ios": "https://dc.lft.to/lastmile_qr_scan"}, "fusion_lon": 0.0, "lat": 38.89853083333333, "bike_id": "a3412378d01822196ae6c39fc1b3f839", "type": "electric_scooter", "is_reserved": 0, "lon": -76.99029866666666}, {"fusion_lat": 0.0, "name": "eb42819a6f067fcebc009d83b043c778", "is_disabled": 0, "rental_uris": {"android": "https://dc.lft.to/lastmile_qr_scan", "ios": "https://dc.lft.to/lastmile_qr_scan"}, "fusion_lon": 0.0, "lat": 38.914145833333336, "bike_id": "eb42819a6f067fcebc009d83b043c778", "type": "electric_scooter", "is_reserved": 0, "lon": -77.028295}, {"fusion_lat": 0.0, "name": "5cc3528cbce167742cb71fd64a658a68", "is_disabled": 0, "rental_uris": {"android": "https://dc.lft.to/lastmile_qr_scan", "ios": "https://dc.lft.to/lastmile_qr_scan"}, "fusion_lon": 0.0, "lat": 38.89221166666667, "bike_id": "5cc3528cbce167742cb71fd64a658a68", "type": "electric_scooter", "is_reserved": 0, "lon": -77.02781016666667}, {"fusion_lat": 0.0, "name": "9457ce1a580e389ca42c530990ea9a1a", "is_disabled": 0, "rental_uris": {"android": "https://dc.lft.to/lastmile_qr_scan", "ios": "https://dc.lft.to/lastmile_qr_scan"}, "fusion_lon": 0.0, "lat": 38.90765733333333, "bike_id": "9457ce1a580e389ca42c530990ea9a1a", "type": "electric_scooter", "is_reserved": 0, "lon": -77.05014583333333}, {"fusion_lat": 0.0, "name": "39392339d154f8312af9154d7cade43a", "is_disabled": 0, "rental_uris": {"android": "https://dc.lft.to/lastmile_qr_scan", "ios": "https://dc.lft.to/lastmile_qr_scan"}, "fusion_lon": 0.0, "lat": 38.89873633333333, "bike_id": "39392339d154f8312af9154d7cade43a", "type": "electric_scooter", "is_reserved": 0, "lon": -76.93185066666666}, {"fusion_lat": 0.0, "name": "7e265b2a40a2a154a632f8e86f403ee4", "is_disabled": 0, "rental_uris": {"android": "https://dc.lft.to/lastmile_qr_scan", "ios": "https://dc.lft.to/lastmile_qr_scan"}, "fusion_lon": 0.0, "lat": 38.88694366666667, "bike_id": "7e265b2a40a2a154a632f8e86f403ee4", "type": "electric_scooter", "is_reserved": 0, "lon": -77.03171283333333}, {"fusion_lat": 0.0, "name": "796ab875c134597a585820d8c8816e66", "is_disabled": 0, "rental_uris": {"android": "https://dc.lft.to/lastmile_qr_scan", "ios": "https://dc.lft.to/lastmile_qr_scan"}, "fusion_lon": 0.0, "lat": 38.89545116666667, "bike_id": "796ab875c134597a585820d8c8816e66", "type": "electric_scooter", "is_reserved": 0, "lon": -77.01081483333333}, {"fusion_lat": 0.0, "name": "30583e620d0d34fb0bc9685f45b729a6", "is_disabled": 0, "rental_uris": {"android": "https://dc.lft.to/lastmile_qr_scan", "ios": "https://dc.lft.to/lastmile_qr_scan"}, "fusion_lon": 0.0, "lat": 38.91966016666667, "bike_id": "30583e620d0d34fb0bc9685f45b729a6", "type": "electric_scooter", "is_reserved": 0, "lon": -77.02298516666667}, {"fusion_lat": 0.0, "name": "6bae4a3448e73a158e81d1e507e80bd5", "is_disabled": 0, "rental_uris": {"android": "https://dc.lft.to/lastmile_qr_scan", "ios": "https://dc.lft.to/lastmile_qr_scan"}, "fusion_lon": 0.0, "lat": 38.921806333333336, "bike_id": "6bae4a3448e73a158e81d1e507e80bd5", "type": "electric_scooter", "is_reserved": 0, "lon": -77.02663516666667}, {"fusion_lat": 0.0, "name": "4f794e843b676361d6eca627c5cc9c19", "is_disabled": 0, "rental_uris": {"android": "https://dc.lft.to/lastmile_qr_scan", "ios": "https://dc.lft.to/lastmile_qr_scan"}, "fusion_lon": 0.0, "lat": 38.90295283333333, "bike_id": "4f794e843b676361d6eca627c5cc9c19", "type": "electric_scooter", "is_reserved": 0, "lon": -77.01686766666667}, {"fusion_lat": 0.0, "name": "aab4bd8ff8bd0eee919bc9afd5cc43f7", "is_disabled": 0, "rental_uris": {"android": "https://dc.lft.to/lastmile_qr_scan", "ios": "https://dc.lft.to/lastmile_qr_scan"}, "fusion_lon": 0.0, "lat": 38.835983166666665, "bike_id": "aab4bd8ff8bd0eee919bc9afd5cc43f7", "type": "electric_bike", "is_reserved": 0, "lon": -77.0037865}, {"fusion_lat": 0.0, "name": "cc4585130f3e4b4c71890c9e6d6d9e59", "is_disabled": 0, "rental_uris": {"android": "https://dc.lft.to/lastmile_qr_scan", "ios": "https://dc.lft.to/lastmile_qr_scan"}, "fusion_lon": 0.0, "lat": 38.9080725, "bike_id": "cc4585130f3e4b4c71890c9e6d6d9e59", "type": "electric_scooter", "is_reserved": 0, "lon": -77.043317}, {"fusion_lat": 0.0, "name": "eed94ee28a73df74a35ed011f967ae0b", "is_disabled": 0, "rental_uris": {"android": "https://dc.lft.to/lastmile_qr_scan", "ios": "https://dc.lft.to/lastmile_qr_scan"}, "fusion_lon": 0.0, "lat": 38.916493833333334, "bike_id": "eed94ee28a73df74a35ed011f967ae0b", "type": "electric_scooter", "is_reserved": 0, "lon": -77.02289866666666}, {"fusion_lat": 0.0, "name": "80f1e21a59ba22e89b64d623b7908a99", "is_disabled": 0, "rental_uris": {"android": "https://dc.lft.to/lastmile_qr_scan", "ios": "https://dc.lft.to/lastmile_qr_scan"}, "fusion_lon": 0.0, "lat": 38.88799066666667, "bike_id": "80f1e21a59ba22e89b64d623b7908a99", "type": "electric_bike", "is_reserved": 0, "lon": -76.929958}, {"fusion_lat": 0.0, "name": "88e07356f6460cc6242126512c008f07", "is_disabled": 0, "rental_uris": {"android": "https://dc.lft.to/lastmile_qr_scan", "ios": "https://dc.lft.to/lastmile_qr_scan"}, "fusion_lon": 0.0, "lat": 38.917008, "bike_id": "88e07356f6460cc6242126512c008f07", "type": "electric_scooter", "is_reserved": 0, "lon": -77.03750583333333}, {"fusion_lat": 0.0, "name": "65050c487ee90738287ab7ef9433b811", "is_disabled": 0, "rental_uris": {"android": "https://dc.lft.to/lastmile_qr_scan", "ios": "https://dc.lft.to/lastmile_qr_scan"}, "fusion_lon": 0.0, "lat": 38.90776866666667, "bike_id": "65050c487ee90738287ab7ef9433b811", "type": "electric_scooter", "is_reserved": 0, "lon": -77.071714}, {"fusion_lat": 0.0, "name": "f15cc48852b6ddf28ef74e5fb79832a9", "is_disabled": 0, "rental_uris": {"android": "https://dc.lft.to/lastmile_qr_scan", "ios": "https://dc.lft.to/lastmile_qr_scan"},