{"data": {"bikes": [{"lat": 38.92354133333333, "fusion_lat": 0.0, "type": "electric_scooter", "name": "b533b83a42a792e4d1e6c3d8551863d8", "is_disabled": 0, "bike_id": "b533b83a42a792e4d1e6c3d8551863d8", "lon": -77.05114, "rental_uris": {"android": "https://dc.lft.to/lastmile_qr_scan", "ios": "https://dc.lft.to/lastmile_qr_scan"}, "fusion_lon": 0.0, "is_reserved": 0}, {"lat": 38.913481, "fusion_lat": 0.0, "type": "electric_scooter", "name": "2930463a8f47b16b984fd5185f44fa6f", "is_disabled": 0, "bike_id": "2930463a8f47b16b984fd5185f44fa6f", "lon": -77.04400233333334, "rental_uris": {"android": "https://dc.lft.to/lastmile_qr_scan", "ios": "https://dc.lft.to/lastmile_qr_scan"}, "fusion_lon": 0.0, "is_reserved": 0}, {"lat": 38.9213135, "fusion_lat": 0.0, "type": "electric_scooter", "name": "e4bcb49c8a7dfaf8788cc1c6a4c5ced6", "is_disabled": 0, "bike_id": "e4bcb49c8a7dfaf8788cc1c6a4c5ced6", "lon": -77.01175266666667, "rental_uris": {"android": "https://dc.lft.to/lastmile_qr_scan", "ios": "https://dc.lft.to/lastmile_qr_scan"}, "fusion_lon": 0.0, "is_reserved": 0}, {"lat": 38.8980675, "fusion_lat": 0.0, "type": "electric_scooter", "name": "69b4ed01a048762b0eae24a70c8c857b", "is_disabled": 0, "bike_id": "69b4ed01a048762b0eae24a70c8c857b", "lon": -77.03312116666666, "rental_uris": {"android": "https://dc.lft.to/lastmile_qr_scan", "ios": "https://dc.lft.to/lastmile_qr_scan"}, "fusion_lon": 0.0, "is_reserved": 0}, {"lat": 38.857841666666666, "fusion_lat": 0.0, "type": "electric_bike", "name": "291ed39d1d8092afb4a42fe0651911d8", "is_disabled": 0, "bike_id": "291ed39d1d8092afb4a42fe0651911d8", "lon": -77.12016933333334, "rental_uris": {"android": "https://dc.lft.to/lastmile_qr_scan", "ios": "https://dc.lft.to/lastmile_qr_scan"}, "fusion_lon": 0.0, "is_reserved": 0}, {"lat": 38.92840966666667, "fusion_lat": 0.0, "type": "electric_scooter", "name": "67c78e1468cc88b40456df3ba206d1dc", "is_disabled": 0, "bike_id": "67c78e1468cc88b40456df3ba206d1dc", "lon": -77.03283866666666, "rental_uris": {"android": "https://dc.lft.to/lastmile_qr_scan", "ios": "https://dc.lft.to/lastmile_qr_scan"}, "fusion_lon": 0.0, "is_reserved": 0}, {"lat": 38.992102, "fusion_lat": 0.0, "type": "electric_bike", "name": "7e06128018b8750787fb71f88825e4dc", "is_disabled": 0, "bike_id": "7e06128018b8750787fb71f88825e4dc", "lon": -76.9444425, "rental_uris": {"android": "https://dc.lft.to/lastmile_qr_scan", "ios": "https://dc.lft.to/lastmile_qr_scan"}, "fusion_lon": 0.0, "is_reserved": 0}, {"lat": 38.855236833333336, "fusion_lat": 0.0, "type": "electric_bike", "name": "b632d4c0d71137097a71b2ed7e9285d2", "is_disabled": 0, "bike_id": "b632d4c0d71137097a71b2ed7e9285d2", "lon": -77.12050783333333, "rental_uris": {"android": "https://dc.lft.to/lastmile_qr_scan", "ios": "https://dc.lft.to/lastmile_qr_scan"}, "fusion_lon": 0.0, "is_reserved": 0}, {"lat": 38.89562133333333, "fusion_lat": 0.0, "type": "electric_scooter", "name": "1b34a966ca342a38b3dcb082c160dfb8", "is_disabled": 0, "bike_id": "1b34a966ca342a38b3dcb082c160dfb8", "lon": -77.0255995, "rental_uris": {"android": "https://dc.lft.to/lastmile_qr_scan", "ios": "https://dc.lft.to/lastmile_qr_scan"}, "fusion_lon": 0.0, "is_reserved": 0}, {"lat": 38.93610533333333, "fusion_lat": 0.0, "type": "electric_scooter", "name": "112d0473ad840f761f8667ab5963f984", "is_disabled": 0, "bike_id": "112d0473ad840f761f8667ab5963f984", "lon": -77.0586125, "rental_uris": {"android": "https://dc.lft.to/lastmile_qr_scan", "ios": "https://dc.lft.to/lastmile_qr_scan"}, "fusion_lon": 0.0, "is_reserved": 0}, {"lat": 38.9050415, "fusion_lat": 0.0, "type": "electric_scooter", "name": "1691aae013b8f0c0075d96a2a56c73d8", "is_disabled": 0, "bike_id": "1691aae013b8f0c0075d96a2a56c73d8", "lon": -77.01420516666667, "rental_uris": {"android": "https://dc.lft.to/lastmile_qr_scan", "ios": "https://dc.lft.to/lastmile_qr_scan"}, "fusion_lon": 0.0, "is_reserved": 0}, {"lat": 38.907071333333334, "fusion_lat": 0.0, "type": "electric_scooter", "name": "589b0d7a30b5b0f13d83c3c49f94601e", "is_disabled": 0, "bike_id": "589b0d7a30b5b0f13d83c3c49f94601e", "lon": -77.03845266666667, "rental_uris": {"android": "https://dc.lft.to/lastmile_qr_scan", "ios": "https://dc.lft.to/lastmile_qr_scan"}, "fusion_lon": 0.0, "is_reserved": 0}, {"lat": 38.9026485, "fusion_lat": 0.0, "type": "electric_scooter", "name": "282faee0ea7ee733aedb98454351adfd", "is_disabled": 0, "bike_id": "282faee0ea7ee733aedb98454351adfd", "lon": -77.03997966666667, "rental_uris": {"android": "https://dc.lft.to/lastmile_qr_scan", "ios": "https://dc.lft.to/lastmile_qr_scan"}, "fusion_lon": 0.0, "is_reserved": 0}, {"lat": 38.875614666666664, "fusion_lat": 0.0, "type": "electric_scooter", "name": "b8356ffd0d16254893ffb320fafcd7ab", "is_disabled": 0, "bike_id": "b8356ffd0d16254893ffb320fafcd7ab", "lon": -77.00601533333334, "rental_uris": {"android": "https://dc.lft.to/lastmile_qr_scan", "ios": "https://dc.lft.to/lastmile_qr_scan"}, "fusion_lon": 0.0, "is_reserved": 0}, {"lat": 38.886432166666665, "fusion_lat": 0.0, "type": "electric_scooter", "name": "6d5ef495cff67edc34bec34773f5e1c2", "is_disabled": 0, "bike_id": "6d5ef495cff67edc34bec34773f5e1c2", "lon": -77.01755666666666, "rental_uris": {"android": "https://dc.lft.to/lastmile_qr_scan", "ios": "https://dc.lft.to/lastmile_qr_scan"}, "fusion_lon": 0.0, "is_reserved": 0}, {"lat": 38.967371166666666, "fusion_lat": 0.0, "type": "electric_bike", "name": "5131af127b1c141d97e82a928fd1fec7", "is_disabled": 0, "bike_id": "5131af127b1c141d97e82a928fd1fec7", "lon": -76.96043483333334, "rental_uris": {"android": "https://dc.lft.to/lastmile_qr_scan", "ios": "https://dc.lft.to/lastmile_qr_scan"}, "fusion_lon": 0.0, "is_reserved": 0}, {"lat": 38.8559155, "fusion_lat": 0.0, "type": "electric_scooter", "name": "416b1357b8fdd3b141117110d82f7354", "is_disabled": 0, "bike_id": "416b1357b8fdd3b141117110d82f7354", "lon": -76.98720466666667, "rental_uris": {"android": "https://dc.lft.to/lastmile_qr_scan", "ios": "https://dc.lft.to/lastmile_qr_scan"}, "fusion_lon": 0.0, "is_reserved": 0}, {"lat": 38.913555333333335, "fusion_lat": 0.0, "type": "electric_scooter", "name": "e7b5c007b070c103279c049ee5616169", "is_disabled": 0, "bike_id": "e7b5c007b070c103279c049ee5616169", "lon": -77.045021, "rental_uris": {"android": "https://dc.lft.to/lastmile_qr_scan", "ios": "https://dc.lft.to/lastmile_qr_scan"}, "fusion_lon": 0.0, "is_reserved": 0}, {"lat": 38.93067933333333, "fusion_lat": 0.0, "type": "electric_scooter", "name": "5aab4d96d5bf68e36058b7343dafab4d", "is_disabled": 0, "bike_id": "5aab4d96d5bf68e36058b7343dafab4d", "lon": -77.0363185, "rental_uris": {"android": "https://dc.lft.to/lastmile_qr_scan", "ios": "https://dc.lft.to/lastmile_qr_scan"}, "fusion_lon": 0.0, "is_reserved": 0}, {"lat": 38.914472333333336, "fusion_lat": 0.0, "type": "electric_scooter", "name": "79e8532d7419b9835e07b683c2625c3b", "is_disabled": 0, "bike_id": "79e8532d7419b9835e07b683c2625c3b", "lon": -77.02208333333333, "rental_uris": {"android": "https://dc.lft.to/lastmile_qr_scan", "ios": "https://dc.lft.to/lastmile_qr_scan"}, "fusion_lon": 0.0, "is_reserved": 0}, {"lat": 38.846131666666665, "fusion_lat": 0.0, "type": "electric_bike", "name": "081852ec08bef391637cd78d1f684dca", "is_disabled": 0, "bike_id": "081852ec08bef391637cd78d1f684dca", "lon": -76.9691225, "rental_uris": {"android": "https://dc.lft.to/lastmile_qr_scan", "ios": "https://dc.lft.to/lastmile_qr_scan"}, "fusion_lon": 0.0, "is_reserved": 0}, {"lat": 38.92082, "fusion_lat": 0.0, "type": "electric_scooter", "name": "d3ed02668c873ba5a5698952e40f503e", "is_disabled": 0, "bike_id": "d3ed02668c873ba5a5698952e40f503e", "lon": -77.02546816666667, "rental_uris": {"android": "https://dc.lft.to/lastmile_qr_scan", "ios": "https://dc.lft.to/lastmile_qr_scan"}, "fusion_lon": 0.0, "is_reserved": 0}, {"lat": 38.9057315, "fusion_lat": 0.0, "type": "electric_scooter", "name": "0029f42c8579a3f114342687db4310d1", "is_disabled": 0, "bike_id": "0029f42c8579a3f114342687db4310d1", "lon": -77.03753083333334, "rental_uris": {"android": "https://dc.lft.to/lastmile_qr_scan", "ios": "https://dc.lft.to/lastmile_qr_scan"}, "fusion_lon": 0.0, "is_reserved": 0}, {"lat": 38.91226733333333, "fusion_lat": 0.0, "type": "electric_scooter", "name": "43fe67f1d3a16a588a5d8cc72c36fbdc", "is_disabled": 0, "bike_id": "43fe67f1d3a16a588a5d8cc72c36fbdc", "lon": -77.02302333333333, "rental_uris": {"android": "https://dc.lft.to/lastmile_qr_scan", "ios": "https://dc.lft.to/lastmile_qr_scan"}, "fusion_lon": 0.0, "is_reserved": 0}, {"lat": 38.929817, "fusion_lat": 0.0, "type": "electric_scooter", "name": "161ac6b6b57c69efd6d4082897ef031a", "is_disabled": 0, "bike_id": "161ac6b6b57c69efd6d4082897ef031a", "lon": -77.012994, "rental_uris": {"android": "https://dc.lft.to/lastmile_qr_scan", "ios": "https://dc.lft.to/lastmile_qr_scan"}, "fusion_lon": 0.0, "is_reserved": 0}, {"lat": 38.896188, "fusion_lat": 0.0, "type": "electric_scooter", "name": "8a2c64108d7f8fbae193b2d4b06311dd", "is_disabled": 0, "bike_id": "8a2c64108d7f8fbae193b2d4b06311dd", "lon": -77.01168716666666, "rental_uris": {"android": "https://dc.lft.to/lastmile_qr_scan", "ios": "https://dc.lft.to/lastmile_qr_scan"}, "fusion_lon": 0.0, "is_reserved": 0}, {"lat": 38.887362833333334, "fusion_lat": 0.0, "type": "electric_scooter", "name": "c68dccca36417a9b92bd0e38386ddec1", "is_disabled": 0, "bike_id": "c68dccca36417a9b92bd0e38386ddec1", "lon": -77.0285865, "rental_uris": {"android": "https://dc.lft.to/lastmile_qr_scan", "ios": "https://dc.lft.to/lastmile_qr_scan"}, "fusion_lon": 0.0, "is_reserved": 0}, {"lat": 39.0423205, "fusion_lat": 0.0, "type": "electric_bike", "name": "221a6e32222e88ee714d55d5cf28d8ff", "is_disabled": 0, "bike_id": "221a6e32222e88ee714d55d5cf28d8ff", "lon": -76.99738, "rental_uris": {"android": "https://dc.lft.to/lastmile_qr_scan", "ios": "https://dc.lft.to/lastmile_qr_scan"}, "fusion_lon": 0.0, "is_reserved": 0}, {"lat": 38.90393816666667, "fusion_lat": 0.0, "type": "electric_scooter", "name": "31aa556ac41dfa921fa59fc77cf56504", "is_disabled": 0, "bike_id": "31aa556ac41dfa921fa59fc77cf56504", "lon": -76.984656, "rental_uris": {"android": "https://dc.lft.to/lastmile_qr_scan", "ios": "https://dc.lft.to/lastmile_qr_scan"}, "fusion_lon": 0.0, "is_reserved": 0}, {"lat": 38.887412, "fusion_lat": 0.0, "type": "electric_scooter", "name": "8669f43b8c58e1e21f55b22db9f7beb7", "is_disabled": 0, "bike_id": "8669f43b8c58e1e21f55b22db9f7beb7", "lon": -77.02627083333333, "rental_uris": {"android": "https://dc.lft.to/lastmile_qr_scan", "ios": "https://dc.lft.to/lastmile_qr_scan"}, "fusion_lon": 0.0, "is_reserved": 0}, {"lat": 38.89995616666667, "fusion_lat": 0.0, "type": "electric_scooter", "name": "b7a9ad10db828f1b6b02048d91116508", "is_disabled": 0, "bike_id": "b7a9ad10db828f1b6b02048d91116508", "lon": -77.0556815, "rental_uris": {"android": "https://dc.lft.to/lastmile_qr_scan", "ios": "https://dc.lft.to/lastmile_qr_scan"}, "fusion_lon": 0.0, "is_reserved": 0}, {"lat": 38.915505833333334, "fusion_lat": 0.0, "type": "electric_scooter", "name": "f36a8ae339ff3173c686ccd29461e2b2", "is_disabled": 0, "bike_id": "f36a8ae339ff3173c686ccd29461e2b2", "lon": -77.03252883333333, "rental_uris": {"android": "https://dc.lft.to/lastmile_qr_scan", "ios": "https://dc.lft.to/lastmile_qr_scan"}, "fusion_lon": 0.0, "is_reserved": 0}, {"lat": 38.91671483333333, "fusion_lat": 0.0, "type": "electric_scooter", "name": "c9b6235a738b493c2ea7ae48f28d4eb1", "is_disabled": 0, "bike_id": "c9b6235a738b493c2ea7ae48f28d4eb1", "lon": -77.03196433333333, "rental_uris": {"android": "https://dc.lft.to/lastmile_qr_scan", "ios": "https://dc.lft.to/lastmile_qr_scan"}, "fusion_lon": 0.0, "is_reserved": 0}, {"lat": 38.91815533333333, "fusion_lat": 0.0, "type": "electric_scooter", "name": "420104bb80d530ac931a01881e028c3b", "is_disabled": 0, "bike_id": "420104bb80d530ac931a01881e028c3b", "lon": -77.03697733333334, "rental_uris": {"android": "https://dc.lft.to/lastmile_qr_scan", "ios": "https://dc.lft.to/lastmile_qr_scan"}, "fusion_lon": 0.0, "is_reserved": 0}, {"lat": 38.8651405, "fusion_lat": 0.0, "type": "electric_scooter", "name": "09bde42f3d013ec420a57ce33a15d884", "is_disabled": 0, "bike_id": "09bde42f3d013ec420a57ce33a15d884", "lon": -76.97343833333333, "rental_uris": {"android": "https://dc.lft.to/lastmile_qr_scan", "ios": "https://dc.lft.to/lastmile_qr_scan"}, "fusion_lon": 0.0, "is_reserved": 0}, {"lat": 38.89079816666667, "fusion_lat": 0.0, "type": "electric_scooter", "name": "b69a0b573e28078fa546a9e55c873dd5", "is_disabled": 0, "bike_id": "b69a0b573e28078fa546a9e55c873dd5", "lon": -76.988307, "rental_uris": {"android": "https://dc.lft.to/lastmile_qr_scan", "ios": "https://dc.lft.to/lastmile_qr_scan"}, "fusion_lon": 0.0, "is_reserved": 0}, {"lat": 38.912624666666666, "fusion_lat": 0.0, "type": "electric_scooter", "name": "cfa66a78538264b213d6592fde565bc4", "is_disabled": 0, "bike_id": "cfa66a78538264b213d6592fde565bc4", "lon": -77.042577, "rental_uris": {"android": "https://dc.lft.to/lastmile_qr_scan", "ios": "https://dc.lft.to/lastmile_qr_scan"}, "fusion_lon": 0.0, "is_reserved": 0}, {"lat": 38.929952, "fusion_lat": 0.0, "type": "electric_bike", "name": "b36eebdb050869f14b108f1b238f3398", "is_disabled": 0, "bike_id": "b36eebdb050869f14b108f1b238f3398", "lon": -77.079689, "rental_uris": {"android": "https://dc.lft.to/lastmile_qr_scan", "ios": "https://dc.lft.to/lastmile_qr_scan"}, "fusion_lon": 0.0, "is_reserved": 0}, {"lat": 38.919476333333336, "fusion_lat": 0.0, "type": "electric_scooter", "name": "8cbd2646557a3b33260a181a9757b4fb", "is_disabled": 0, "bike_id": "8cbd2646557a3b33260a181a9757b4fb", "lon": -77.01354716666667, "rental_uris": {"android": "https://dc.lft.to/lastmile_qr_scan", "ios": "https://dc.lft.to/lastmile_qr_scan"}, "fusion_lon": 0.0, "is_reserved": 0}, {"lat": 38.923071166666666, "fusion_lat": 0.0, "type": "electric_scooter", "name": "a0cf09e97f0d467549c99a02334621d5", "is_disabled": 0, "bike_id": "a0cf09e97f0d467549c99a02334621d5", "lon": -77.04741516666667, "rental_uris": {"android": "https://dc.lft.to/lastmile_qr_scan", "ios": "https://dc.lft.to/lastmile_qr_scan"}, "fusion_lon": 0.0, "is_reserved": 0}, {"lat": 38.892222833333335, "fusion_lat": 0.0, "type": "electric_scooter", "name": "2c2c0e287af001e58ded5edfa73cab87", "is_disabled": 0, "bike_id": "2c2c0e287af001e58ded5edfa73cab87", "lon": -77.04639533333334, "rental_uris": {"android": "https://dc.lft.to/lastmile_qr_scan", "ios": "https://dc.lft.to/lastmile_qr_scan"}, "fusion_lon": 0.0, "is_reserved": 0}, {"lat": 38.90061433333333, "fusion_lat": 0.0, "type": "electric_scooter", "name": "1df5bb9c045d3a1cc91fe3c6b0f51a09", "is_disabled": 0, "bike_id": "1df5bb9c045d3a1cc91fe3c6b0f51a09", "lon": -76.99621583333334, "rental_uris": {"android": "https://dc.lft.to/lastmile_qr_scan", "ios": "https://dc.lft.to/lastmile_qr_scan"}, "fusion_lon": 0.0, "is_reserved": 0}, {"lat": 38.91692183333333, "fusion_lat": 0.0, "type": "electric_scooter", "name": "9f1f70cb3e853ac877640e6b3a95e993", "is_disabled": 0, "bike_id": "9f1f70cb3e853ac877640e6b3a95e993", "lon": -77.02761383333333, "rental_uris": {"android": "https://dc.lft.to/lastmile_qr_scan", "ios": "https://dc.lft.to/lastmile_qr_scan"}, "fusion_lon": 0.0, "is_reserved": 0}, {"lat": 38.90535033333333, "fusion_lat": 0.0, "type": "electric_scooter", "name": "9a7688c6b24fa3f465bd7b2855a3bf79", "is_disabled": 0, "bike_id": "9a7688c6b24fa3f465bd7b2855a3bf79", "lon": -77.04430333333333, "rental_uris": {"android": "https://dc.lft.to/lastmile_qr_scan", "ios": "https://dc.lft.to/lastmile_qr_scan"}, "fusion_lon": 0.0, "is_reserved": 0}, {"lat": 38.937523, "fusion_lat": 0.0, "type": "electric_scooter", "name": "8f8906184574262f2381b7b54f44fe5d", "is_disabled": 0, "bike_id": "8f8906184574262f2381b7b54f44fe5d", "lon": -77.085746, "rental_uris": {"android": "https://dc.lft.to/lastmile_qr_scan", "ios": "https://dc.lft.to/lastmile_qr_scan"}, "fusion_lon": 0.0, "is_reserved": 0}, {"lat": 38.8811705, "fusion_lat": 0.0, "type": "electric_scooter", "name": "b8674eccdbdb4f9b8b870ada4c0b43da", "is_disabled": 0, "bike_id": "b8674eccdbdb4f9b8b870ada4c0b43da", "lon": -76.98708383333333, "rental_uris": {"android": "https://dc.lft.to/lastmile_qr_scan", "ios": "https://dc.lft.to/lastmile_qr_scan"}, "fusion_lon": 0.0, "is_reserved": 0}, {"lat": 38.9243425, "fusion_lat": 0.0, "type": "electric_scooter", "name": "e711bd22b91ffdffefda703236f157ad", "is_disabled": 0, "bike_id": "e711bd22b91ffdffefda703236f157ad", "lon": -77.03399016666667, "rental_uris": {"android": "https://dc.lft.to/lastmile_qr_scan", "ios": "https://dc.lft.to/lastmile_qr_scan"}, "fusion_lon": 0.0, "is_reserved": 0}, {"lat": 38.877378, "fusion_lat": 0.0, "type": "electric_scooter", "name": "8e014af3dd6fd323c458f18d4133cbfd", "is_disabled": 0, "bike_id": "8e014af3dd6fd323c458f18d4133cbfd", "lon": -77.00723033333334, "rental_uris": {"android": "https://dc.lft.to/lastmile_qr_scan", "ios": "https://dc.lft.to/lastmile_qr_scan"}, "fusion_lon": 0.0, "is_reserved": 0}, {"lat": 38.91646716666666, "fusion_lat": 0.0, "type": "electric_scooter", "name": "f88780262428a0eb8accf61f778a7451", "is_disabled": 0, "bike_id": "f88780262428a0eb8accf61f778a7451", "lon": -77.02806416666667, "rental_uris": {"android": "https://dc.lft.to/lastmile_qr_scan", "ios": "https://dc.lft.to/lastmile_qr_scan"}, "fusion_lon": 0.0, "is_reserved": 0}, {"lat": 38.90108883333333, "fusion_lat": 0.0, "type": "electric_scooter", "name": "fa013d07eb4097d5a8f52c79f49b989a", "is_disabled": 0, "bike_id": "fa013d07eb4097d5a8f52c79f49b989a", "lon": -77.032116, "rental_uris": {"android": "https://dc.lft.to/lastmile_qr_scan", "ios": "https://dc.lft.to/lastmile_qr_scan"}, "fusion_lon": 0.0, "is_reserved": 0}, {"lat": 38.89949333333333, "fusion_lat": 0.0, "type": "electric_scooter", "name": "72a74dc22b782c312bedf6df2e243fd5", "is_disabled": 0, "bike_id": "72a74dc22b782c312bedf6df2e243fd5", "lon": -77.04851483333333, "rental_uris": {"android": "https://dc.lft.to/lastmile_qr_scan", "ios": "https://dc.lft.to/lastmile_qr_scan"}, "fusion_lon": 0.0, "is_reserved": 0}, {"lat": 38.938615, "fusion_lat": 0.0, "type": "electric_scooter", "name": "8beb1762074ae88bb422e8d4d62cc5b8", "is_disabled": 0, "bike_id": "8beb1762074ae88bb422e8d4d62cc5b8", "lon": -77.026484, "rental_uris": {"android": "https://dc.lft.to/lastmile_qr_scan", "ios": "https://dc.lft.to/lastmile_qr_scan"}, "fusion_lon": 0.0, "is_reserved": 0}, {"lat": 38.91564416666667, "fusion_lat": 0.0, "type": "electric_scooter", "name": "c38c8a614d4db22a9e2c5b245e52fc96", "is_disabled": 0, "bike_id": "c38c8a614d4db22a9e2c5b245e52fc96", "lon": -77.011912, "rental_uris": {"android": "https://dc.lft.to/lastmile_qr_scan", "ios": "https://dc.lft.to/lastmile_qr_scan"}, "fusion_lon": 0.0, "is_reserved": 0}, {"lat": 38.90592783333334, "fusion_lat": 0.0, "type": "electric_scooter", "name": "85d100dd46fe4105082160eaddd29c52", "is_disabled": 0, "bike_id": "85d100dd46fe4105082160eaddd29c52", "lon": -77.03470033333333, "rental_uris": {"android": "https://dc.lft.to/lastmile_qr_scan", "ios": "https://dc.lft.to/lastmile_qr_scan"}, "fusion_lon": 0.0, "is_reserved": 0}, {"lat": 38.931099333333336, "fusion_lat": 0.0, "type": "electric_scooter", "name": "1a33671112c0ef13c19e638863d3adbb", "is_disabled": 0, "bike_id": "1a33671112c0ef13c19e638863d3adbb", "lon": -77.03024033333334, "rental_uris": {"android": "https://dc.lft.to/lastmile_qr_scan", "ios": "https://dc.lft.to/lastmile_qr_scan"}, "fusion_lon": 0.0, "is_reserved": 0}, {"lat": 38.89485066666667, "fusion_lat": 0.0, "type": "electric_scooter", "name": "07757e1e2ab302a4e520b1ac95f29aac", "is_disabled": 0, "bike_id": "07757e1e2ab302a4e520b1ac95f29aac", "lon": -77.02290483333333, "rental_uris": {"android": "https://dc.lft.to/lastmile_qr_scan", "ios": "https://dc.lft.to/lastmile_qr_scan"}, "fusion_lon": 0.0, "is_reserved": 0}, {"lat": 38.9009215, "fusion_lat": 0.0, "type": "electric_scooter", "name": "31764235d256ac227a3187e51e62cbba", "is_disabled": 0, "bike_id": "31764235d256ac227a3187e51e62cbba", "lon": -77.04763, "rental_uris": {"android": "https://dc.lft.to/lastmile_qr_scan", "ios": "https://dc.lft.to/lastmile_qr_scan"}, "fusion_lon": 0.0, "is_reserved": 0}, {"lat": 38.897129166666666, "fusion_lat": 0.0, "type": "electric_scooter", "name": "538caf1b98bda62abf9e72ebfd0559d8", "is_disabled": 0, "bike_id": "538caf1b98bda62abf9e72ebfd0559d8", "lon": -77.05022766666667, "rental_uris": {"android": "https://dc.lft.to/lastmile_qr_scan", "ios": "https://dc.lft.to/lastmile_qr_scan"}, "fusion_lon": 0.0, "is_reserved": 0}, {"lat": 38.892217, "fusion_lat": 0.0, "type": "electric_scooter", "name": "934004f5d3a812dc8a98a9f99041189e", "is_disabled": 0, "bike_id": "934004f5d3a812dc8a98a9f99041189e", "lon": -76.979689, "rental_uris": {"android": "https://dc.lft.to/lastmile_qr_scan", "ios": "https://dc.lft.to/lastmile_qr_scan"}, "fusion_lon": 0.0, "is_reserved": 0}, {"lat": 38.8768275, "fusion_lat": 0.0, "type": "electric_scooter", "name": "0092c119961520a3c5b0011ac9d91841", "is_disabled": 0, "bike_id": "0092c119961520a3c5b0011ac9d91841", "lon": -77.00061083333334, "rental_uris": {"android": "https://dc.lft.to/lastmile_qr_scan", "ios": "https://dc.lft.to/lastmile_qr_scan"}, "fusion_lon": 0.0, "is_reserved": 0}, {"lat": 38.923108666666664, "fusion_lat": 0.0, "type": "electric_scooter", "name": "cf81a69c71d60ce60e7e82d88d1a9977", "is_disabled": 0, "bike_id": "cf81a69c71d60ce60e7e82d88d1a9977", "lon": -77.02124433333333, "rental_uris": {"android": "https://dc.lft.to/lastmile_qr_scan", "ios": "https://dc.lft.to/lastmile_qr_scan"}, "fusion_lon": 0.0, "is_reserved": 0}, {"lat": 38.897819166666665, "fusion_lat": 0.0, "type": "electric_scooter", "name": "b00929849cffb65fec19159727df7096", "is_disabled": 0, "bike_id": "b00929849cffb65fec19159727df7096", "lon": -77.02005183333333, "rental_uris": {"android": "https://dc.lft.to/lastmile_qr_scan", "ios": "https://dc.lft.to/lastmile_qr_scan"}, "fusion_lon": 0.0, "is_reserved": 0}, {"lat": 38.919159, "fusion_lat": 0.0, "type": "electric_scooter", "name": "512dea23a307358caf7fa5aa74e4ca33", "is_disabled": 0, "bike_id": "512dea23a307358caf7fa5aa74e4ca33", "lon": -77.01352083333333, "rental_uris": {"android": "https://dc.lft.to/lastmile_qr_scan", "ios": "https://dc.lft.to/lastmile_qr_scan"}, "fusion_lon": 0.0, "is_reserved": 0}, {"lat": 38.9190755, "fusion_lat": 0.0, "type": "electric_scooter", "name": "2fd11169640f105d5ef08fd101a8322b", "is_disabled": 0, "bike_id": "2fd11169640f105d5ef08fd101a8322b", "lon": -76.98697783333333, "rental_uris": {"android": "https://dc.lft.to/lastmile_qr_scan", "ios": "https://dc.lft.to/lastmile_qr_scan"}, "fusion_lon": 0.0, "is_reserved": 0}, {"lat": 38.92132683333333, "fusion_lat": 0.0, "type": "electric_bike", "name": "c40f803f3461ef166ace349123f3ba37", "is_disabled": 0, "bike_id": "c40f803f3461ef166ace349123f3ba37", "lon": -77.02874833333334, "rental_uris": {"android": "https://dc.lft.to/lastmile_qr_scan", "ios": "https://dc.lft.to/lastmile_qr_scan"}, "fusion_lon": 0.0, "is_reserved": 0}, {"lat": 38.91469983333333, "fusion_lat": 0.0, "type": "electric_scooter", "name": "1ae2efe23a2f85a2554cb8d3067f493d", "is_disabled": 0, "bike_id": "1ae2efe23a2f85a2554cb8d3067f493d", "lon": -76.98111266666666, "rental_uris": {"android": "https://dc.lft.to/lastmile_qr_scan", "ios": "https://dc.lft.to/lastmile_qr_scan"}, "fusion_lon": 0.0, "is_reserved": 0}, {"lat": 38.910320166666665, "fusion_lat": 0.0, "type": "electric_scooter", "name": "2befaaa7cfae6d3a62a5ca0b2d62fddf", "is_disabled": 0, "bike_id": "2befaaa7cfae6d3a62a5ca0b2d62fddf", "lon": -76.99338466666667, "rental_uris": {"android": "https://dc.lft.to/lastmile_qr_scan", "ios": "https://dc.lft.to/lastmile_qr_scan"}, "fusion_lon": 0.0, "is_reserved": 0}, {"lat": 38.920772166666666, "fusion_lat": 0.0, "type": "electric_scooter", "name": "249404a16da70a840ebaee109415fa17", "is_disabled": 0, "bike_id": "249404a16da70a840ebaee109415fa17", "lon": -77.0255235, "rental_uris": {"android": "https://dc.lft.to/lastmile_qr_scan", "ios": "https://dc.lft.to/lastmile_qr_scan"}, "fusion_lon": 0.0, "is_reserved": 0}, {"lat": 38.892415, "fusion_lat": 0.0, "type": "electric_scooter", "name": "3de2d22357475670e338dd4237604bd1", "is_disabled": 0, "bike_id": "3de2d22357475670e338dd4237604bd1", "lon": -77.03351333333333, "rental_uris": {"android": "https://dc.lft.to/lastmile_qr_scan", "ios": "https://dc.lft.to/lastmile_qr_scan"}, "fusion_lon": 0.0, "is_reserved": 0}, {"lat": 38.903915166666664, "fusion_lat": 0.0, "type": "electric_scooter", "name": "afe3be2dfff71cab0d101a9b802b2bb9", "is_disabled": 0, "bike_id": "afe3be2dfff71cab0d101a9b802b2bb9", "lon": -77.042114, "rental_uris": {"android": "https://dc.lft.to/lastmile_qr_scan", "ios": "https://dc.lft.to/lastmile_qr_scan"}, "fusion_lon": 0.0, "is_reserved": 0}, {"lat": 38.976105833333335, "fusion_lat": 0.0, "type": "electric_bike", "name": "be108e995a720729b414e11fc43c0e17", "is_disabled": 0, "bike_id": "be108e995a720729b414e11fc43c0e17", "lon": -77.02654866666667, "rental_uris": {"android": "https://dc.lft.to/lastmile_qr_scan", "ios": "https://dc.lft.to/lastmile_qr_scan"}, "fusion_lon": 0.0, "is_reserved": 0}, {"lat": 38.93159416666667, "fusion_lat": 0.0, "type": "electric_scooter", "name": "77150dd3e4893acd423bd470ab34ec3e", "is_disabled": 0, "bike_id": "77150dd3e4893acd423bd470ab34ec3e", "lon": -77.034958, "rental_uris": {"android": "https://dc.lft.to/lastmile_qr_scan", "ios": "https://dc.lft.to/lastmile_qr_scan"}, "fusion_lon": 0.0, "is_reserved": 0}, {"lat": 38.984374333333335, "fusion_lat": 0.0, "type": "electric_scooter", "name": "d337fa852e84879e317138abba81f494", "is_disabled": 0, "bike_id": "d337fa852e84879e317138abba81f494", "lon": -77.02646416666667, "rental_uris": {"android": "https://dc.lft.to/lastmile_qr_scan", "ios": "https://dc.lft.to/lastmile_qr_scan"}, "fusion_lon": 0.0, "is_reserved": 0}, {"lat": 38.89228766666667, "fusion_lat": 0.0, "type": "electric_scooter", "name": "a20e3046e38e39f27de153dae9c6c57c", "is_disabled": 0, "bike_id": "a20e3046e38e39f27de153dae9c6c57c", "lon": -77.02592866666667, "rental_uris": {"android": "https://dc.lft.to/lastmile_qr_scan", "ios": "https://dc.lft.to/lastmile_qr_scan"}, "fusion_lon": 0.0, "is_reserved": 0}, {"lat": 38.921463333333335, "fusion_lat": 0.0, "type": "electric_scooter", "name": "dff8abed1197945a6ec29993f0c0710a", "is_disabled": 0, "bike_id": "dff8abed1197945a6ec29993f0c0710a", "lon": -77.03444866666666, "rental_uris": {"android": "https://dc.lft.to/lastmile_qr_scan", "ios": "https://dc.lft.to/lastmile_qr_scan"}, "fusion_lon": 0.0, "is_reserved": 0}, {"lat": 38.915428, "fusion_lat": 0.0, "type": "electric_scooter", "name": "b8ded96384578970eb2c9e2b9a8d355e", "is_disabled": 0, "bike_id": "b8ded96384578970eb2c9e2b9a8d355e", "lon": -77.02360416666667, "rental_uris": {"android": "https://dc.lft.to/lastmile_qr_scan", "ios": "https://dc.lft.to/lastmile_qr_scan"}, "fusion_lon": 0.0, "is_reserved": 0}, {"lat": 38.916858500000004, "fusion_lat": 0.0, "type": "electric_scooter", "name": "1ee22230b0bcb30a13afdbd8aaf5656b", "is_disabled": 0, "bike_id": "1ee22230b0bcb30a13afdbd8aaf5656b", "lon": -77.02326033333334, "rental_uris": {"android": "https://dc.lft.to/lastmile_qr_scan", "ios": "https://dc.lft.to/lastmile_qr_scan"}, "fusion_lon": 0.0, "is_reserved": 0}, {"lat": 38.924385666666666, "fusion_lat": 0.0, "type": "electric_scooter", "name": "62cc5c6a1923df9d6eaac8908330712a", "is_disabled": 0, "bike_id": "62cc5c6a1923df9d6eaac8908330712a", "lon": -77.03406433333333, "rental_uris": {"android": "https://dc.lft.to/lastmile_qr_scan", "ios": "https://dc.lft.to/lastmile_qr_scan"}, "fusion_lon": 0.0, "is_reserved": 0}, {"lat": 38.887316, "fusion_lat": 0.0, "type": "electric_scooter", "name": "231557f50bd271150ea5bc27e4a010fa", "is_disabled": 0, "bike_id": "231557f50bd271150ea5bc27e4a010fa", "lon": -77.02828866666667, "rental_uris": {"android": "https://dc.lft.to/lastmile_qr_scan", "ios": "https://dc.lft.to/lastmile_qr_scan"}, "fusion_lon": 0.0, "is_reserved": 0}, {"lat": 38.905465666666665, "fusion_lat": 0.0, "type": "electric_scooter", "name": "b821e33684b588e14fb917709444f31f", "is_disabled": 0, "bike_id": "b821e33684b588e14fb917709444f31f", "lon": -77.03984416666667, "rental_uris": {"android": "https://dc.lft.to/lastmile_qr_scan", "ios": "https://dc.lft.to/lastmile_qr_scan"}, "fusion_lon": 0.0, "is_reserved": 0}, {"lat": 38.93770416666667, "fusion_lat": 0.0, "type": "electric_scooter", "name": "4ffc59018e765d6938ed2fc998e504de", "is_disabled": 0, "bike_id": "4ffc59018e765d6938ed2fc998e504de", "lon": -77.03265066666667, "rental_uris": {"android": "https://dc.lft.to/lastmile_qr_scan", "ios": "https://dc.lft.to/lastmile_qr_scan"}, "fusion_lon": 0.0, "is_reserved": 0}, {"lat": 38.9235595, "fusion_lat": 0.0, "type": "electric_scooter", "name": "e53ff254fc555c5e11fddffb26f45a28", "is_disabled": 0, "bike_id": "e53ff254fc555c5e11fddffb26f45a28", "lon": -77.03370233333334, "rental_uris": {"android": "https://dc.lft.to/lastmile_qr_scan", "ios": "https://dc.lft.to/lastmile_qr_scan"}, "fusion_lon": 0.0, "is_reserved": 0}, {"lat": 38.89227833333333, "fusion_lat": 0.0, "type": "electric_scooter", "name": "2112a2b609f86891e3f1a57bed159c11", "is_disabled": 0, "bike_id": "2112a2b609f86891e3f1a57bed159c11", "lon": -77.0238585, "rental_uris": {"android": "https://dc.lft.to/lastmile_qr_scan", "ios": "https://dc.lft.to/lastmile_qr_scan"}, "fusion_lon": 0.0, "is_reserved": 0}, {"lat": 38.88766566666666, "fusion_lat": 0.0, "type": "electric_scooter", "name": "9367615be512e534e443c38110b2879f", "is_disabled": 0, "bike_id": "9367615be512e534e443c38110b2879f", "lon": -77.02228466666666, "rental_uris": {"android": "https://dc.lft.to/lastmile_qr_scan", "ios": "https://dc.lft.to/lastmile_qr_scan"}, "fusion_lon": 0.0, "is_reserved": 0}, {"lat": 38.92357066666667, "fusion_lat": 0.0, "type": "electric_scooter", "name": "7a836f38d593152784acd8d92121c8de", "is_disabled": 0, "bike_id": "7a836f38d593152784acd8d92121c8de", "lon": -77.05114216666666, "rental_uris": {"android": "https://dc.lft.to/lastmile_qr_scan", "ios": "https://dc.lft.to/lastmile_qr_scan"}, "fusion_lon": 0.0, "is_reserved": 0}, {"lat": 38.886919166666665, "fusion_lat": 0.0, "type": "electric_scooter", "name": "76546880a7a90ff052886f2e699e0f44", "is_disabled": 0, "bike_id": "76546880a7a90ff052886f2e699e0f44", "lon": -77.03375483333333, "rental_uris": {"android": "https://dc.lft.to/lastmile_qr_scan", "ios": "https://dc.lft.to/lastmile_qr_scan"}, "fusion_lon": 0.0, "is_reserved": 0}, {"lat": 38.9106305, "fusion_lat": 0.0, "type": "electric_scooter", "name": "b4901071f119ed5d1f6741267a16cb42", "is_disabled": 0, "bike_id": "b4901071f119ed5d1f6741267a16cb42", "lon": -77.053145, "rental_uris": {"android": "https://dc.lft.to/lastmile_qr_scan", "ios": "https://dc.lft.to/lastmile_qr_scan"}, "fusion_lon": 0.0, "is_reserved": 0}, {"lat": 38.917018666666664, "fusion_lat": 0.0, "type": "electric_scooter", "name": "71de47ee5bb22e45cef5c49275dcdeb4", "is_disabled": 0, "bike_id": "71de47ee5bb22e45cef5c49275dcdeb4", "lon": -77.03208633333334, "rental_uris": {"android": "https://dc.lft.to/lastmile_qr_scan", "ios": "https://dc.lft.to/lastmile_qr_scan"}, "fusion_lon": 0.0, "is_reserved": 0}, {"lat": 38.960436, "fusion_lat": 0.0, "type": "electric_scooter", "name": "052c0f873ee635199d8b7335f89c77d6", "is_disabled": 0, "bike_id": "052c0f873ee635199d8b7335f89c77d6", "lon": -77.02797466666667, "rental_uris": {"android": "https://dc.lft.to/lastmile_qr_scan", "ios": "https://dc.lft.to/lastmile_qr_scan"}, "fusion_lon": 0.0, "is_reserved": 0}, {"lat": 38.923914333333336, "fusion_lat": 0.0, "type": "electric_bike", "name": "fdd6e62e782b2cb2c4d79f6380406c44", "is_disabled": 0, "bike_id": "fdd6e62e782b2cb2c4d79f6380406c44", "lon": -77.00008683333333, "rental_uris": {"android": "https://dc.lft.to/lastmile_qr_scan", "ios": "https://dc.lft.to/lastmile_qr_scan"}, "fusion_lon": 0.0, "is_reserved": 0}, {"lat": 38.96815083333333, "fusion_lat": 0.0, "type": "electric_scooter", "name": "2750ccccedacf36d3b6f0486784eaaa0", "is_disabled": 0, "bike_id": "2750ccccedacf36d3b6f0486784eaaa0", "lon": -77.00892783333333, "rental_uris": {"android": "https://dc.lft.to/lastmile_qr_scan", "ios": "https://dc.lft.to/lastmile_qr_scan"}, "fusion_lon": 0.0, "is_reserved": 0}, {"lat": 38.957444333333335, "fusion_lat": 0.0, "type": "electric_bike", "name": "2d881401d6a8586f8f8a5725e0b5f2c3", "is_disabled": 0, "bike_id": "2d881401d6a8586f8f8a5725e0b5f2c3", "lon": -77.021948, "rental_uris": {"android": "https://dc.lft.to/lastmile_qr_scan", "ios": "https://dc.lft.to/lastmile_qr_scan"}, "fusion_lon": 0.0, "is_reserved": 0}, {"lat": 38.89612616666667, "fusion_lat": 0.0, "type": "electric_scooter", "name": "880439c3600d8c20f3fd105dd1c01cfc", "is_disabled": 0, "bike_id": "880439c3600d8c20f3fd105dd1c01cfc", "lon": -77.0092395, "rental_uris": {"android": "https://dc.lft.to/lastmile_qr_scan", "ios": "https://dc.lft.to/lastmile_qr_scan"}, "fusion_lon": 0.0, "is_reserved": 0}, {"lat": 38.905604833333335, "fusion_lat": 0.0, "type": "electric_scooter", "name": "3f915e63ee7232a01175014f3f5859d7", "is_disabled": 0, "bike_id": "3f915e63ee7232a01175014f3f5859d7", "lon": -77.00733166666667, "rental_uris": {"android": "https://dc.lft.to/lastmile_qr_scan", "ios": "https://dc.lft.to/lastmile_qr_scan"}, "fusion_lon": 0.0, "is_reserved": 0}, {"lat": 38.8957535, "fusion_lat": 0.0, "type": "electric_scooter", "name": "7b33cd974db7ebd25b998cf3501dd25b", "is_disabled": 0, "bike_id": "7b33cd974db7ebd25b998cf3501dd25b", "lon": -77.02193166666666, "rental_uris": {"android": "https://dc.lft.to/lastmile_qr_scan", "ios": "https://dc.lft.to/lastmile_qr_scan"}, "fusion_lon": 0.0, "is_reserved": 0}, {"lat": 38.924390333333335, "fusion_lat": 0.0, "type": "electric_scooter", "name": "87c75620c5febaf7df94f096c4d8798e", "is_disabled": 0, "bike_id": "87c75620c5febaf7df94f096c4d8798e", "lon": -77.0399015, "rental_uris": {"android": "https://dc.lft.to/lastmile_qr_scan", "ios": "https://dc.lft.to/lastmile_qr_scan"}, "fusion_lon": 0.0, "is_reserved": 0}, {"lat": 38.92042083333333, "fusion_lat": 0.0, "type": "electric_scooter", "name": "46da078849e4239f4280655fc6cdbc7a", "is_disabled": 0, "bike_id": "46da078849e4239f4280655fc6cdbc7a", "lon": -77.0167185, "rental_uris": {"android": "https://dc.lft.to/lastmile_qr_scan", "ios": "https://dc.lft.to/lastmile_qr_scan"}, "fusion_lon": 0.0, "is_reserved": 0}, {"lat": 38.89826983333333, "fusion_lat": 0.0, "type": "electric_scooter", "name": "7fb1602c8e747b3f3a45814b99a64082", "is_disabled": 0, "bike_id": "7fb1602c8e747b3f3a45814b99a64082", "lon": -76.93116633333334, "rental_uris": {"android": "https://dc.lft.to/lastmile_qr_scan", "ios": "https://dc.lft.to/lastmile_qr_scan"}, "fusion_lon": 0.0, "is_reserved": 0}, {"lat": 38.9221395, "fusion_lat": 0.0, "type": "electric_bike", "name": "c655db892d98d09c4b5cd0b44e16225a", "is_disabled": 0, "bike_id": "c655db892d98d09c4b5cd0b44e16225a", "lon": -77.20140583333334, "rental_uris": {"android": "https://dc.lft.to/lastmile_qr_scan", "ios": "https://dc.lft.to/lastmile_qr_scan"}, "fusion_lon": 0.0, "is_reserved": 0}, {"lat": 38.914159166666664, "fusion_lat": 0.0, "type": "electric_scooter", "name": "be9612e5ed739924c2d62e16bd7c5fab", "is_disabled": 0, "bike_id": "be9612e5ed739924c2d62e16bd7c5fab", "lon": -77.0318385, "rental_uris": {"android": "https://dc.lft.to/lastmile_qr_scan", "ios": "https://dc.lft.to/lastmile_qr_scan"}, "fusion_lon": 0.0, "is_reserved": 0}, {"lat": 38.906907833333335, "fusion_lat": 0.0, "type": "electric_bike", "name": "17254ed83f6a3c0843ed86d718c7ac18", "is_disabled": 0, "bike_id": "17254ed83f6a3c0843ed86d718c7ac18", "lon": -76.95252466666666, "rental_uris": {"android": "https://dc.lft.to/lastmile_qr_scan", "ios": "https://dc.lft.to/lastmile_qr_scan"}, "fusion_lon": 0.0, "is_reserved": 0}, {"lat": 38.92256033333334, "fusion_lat": 0.0, "type": "electric_scooter", "name": "ab0d20bb0db5311d0e5a9b14ce1f6bbe", "is_disabled": 0, "bike_id": "ab0d20bb0db5311d0e5a9b14ce1f6bbe", "lon": -77.0328185, "rental_uris": {"android": "https://dc.lft.to/lastmile_qr_scan", "ios": "https://dc.lft.to/lastmile_qr_scan"}, "fusion_lon": 0.0, "is_reserved": 0}, {"lat": 38.943822833333336, "fusion_lat": 0.0, "type": "electric_scooter", "name": "39ab0ec969d77c70e9fc271a0fe8b4cc", "is_disabled": 0, "bike_id": "39ab0ec969d77c70e9fc271a0fe8b4cc", "lon": -77.077001, "rental_uris": {"android": "https://dc.lft.to/lastmile_qr_scan", "ios": "https://dc.lft.to/lastmile_qr_scan"}, "fusion_lon": 0.0, "is_reserved": 0}, {"lat": 38.901141333333335, "fusion_lat": 0.0, "type": "electric_scooter", "name": "77e6ff503e52e1fb7ae77f823fe632e8", "is_disabled": 0, "bike_id": "77e6ff503e52e1fb7ae77f823fe632e8", "lon": -77.04987333333334, "rental_uris": {"android": "https://dc.lft.to/lastmile_qr_scan", "ios": "https://dc.lft.to/lastmile_qr_scan"}, "fusion_lon": 0.0, "is_reserved": 0}, {"lat": 38.936142333333336, "fusion_lat": 0.0, "type": "electric_scooter", "name": "be53415b7c0a81a0f40af1dceea933dd", "is_disabled": 0, "bike_id": "be53415b7c0a81a0f40af1dceea933dd", "lon": -77.05863183333334, "rental_uris": {"android": "https://dc.lft.to/lastmile_qr_scan", "ios": "https://dc.lft.to/lastmile_qr_scan"}, "fusion_lon": 0.0, "is_reserved": 0}, {"lat": 38.91631183333333, "fusion_lat": 0.0, "type": "electric_scooter", "name": "c277150fdd2e740fc404d30c037552d3", "is_disabled": 0, "bike_id": "c277150fdd2e740fc404d30c037552d3", "lon": -77.02555033333333, "rental_uris": {"android": "https://dc.lft.to/lastmile_qr_scan", "ios": "https://dc.lft.to/lastmile_qr_scan"}, "fusion_lon": 0.0, "is_reserved": 0}, {"lat": 38.9311505, "fusion_lat": 0.0, "type": "electric_scooter", "name": "34be7c5a489a6b977e8d97375e94c98c", "is_disabled": 0, "bike_id": "34be7c5a489a6b977e8d97375e94c98c", "lon": -77.03013766666666, "rental_uris": {"android": "https://dc.lft.to/lastmile_qr_scan", "ios": "https://dc.lft.to/lastmile_qr_scan"}, "fusion_lon": 0.0, "is_reserved": 0}, {"lat": 38.90247883333333, "fusion_lat": 0.0, "type": "electric_scooter", "name": "b74440d98209aace76cdf15b76febbdc", "is_disabled": 0, "bike_id": "b74440d98209aace76cdf15b76febbdc", "lon": -77.0405875, "rental_uris": {"android": "https://dc.lft.to/lastmile_qr_scan", "ios": "https://dc.lft.to/lastmile_qr_scan"}, "fusion_lon": 0.0, "is_reserved": 0}, {"lat": 38.898618, "fusion_lat": 0.0, "type": "electric_scooter", "name": "a9b58b434b5a4533f2ca84e1f98d32ee", "is_disabled": 0, "bike_id": "a9b58b434b5a4533f2ca84e1f98d32ee", "lon": -76.94635816666667, "rental_uris": {"android": "https://dc.lft.to/lastmile_qr_scan", "ios": "https://dc.lft.to/lastmile_qr_scan"}, "fusion_lon": 0.0, "is_reserved": 0}, {"lat": 38.9067185, "fusion_lat": 0.0, "type": "electric_scooter", "name": "99278ee10264c3aabfe1105de9ab3e1c", "is_disabled": 0, "bike_id": "99278ee10264c3aabfe1105de9ab3e1c", "lon": -77.0380605, "rental_uris": {"android": "https://dc.lft.to/lastmile_qr_scan", "ios": "https://dc.lft.to/lastmile_qr_scan"}, "fusion_lon": 0.0, "is_reserved": 0}, {"lat": 38.90639516666667, "fusion_lat": 0.0, "type": "electric_scooter", "name": "b8438092cf426f705a6be7ad69caf7a3", "is_disabled": 0, "bike_id": "b8438092cf426f705a6be7ad69caf7a3", "lon": -77.0386585, "rental_uris": {"android": "https://dc.lft.to/lastmile_qr_scan", "ios": "https://dc.lft.to/lastmile_qr_scan"}, "fusion_lon": 0.0, "is_reserved": 0}, {"lat": 38.8950095, "fusion_lat": 0.0, "type": "electric_scooter", "name": "5718524a8492db4367d58152ad4995ee", "is_disabled": 0, "bike_id": "5718524a8492db4367d58152ad4995ee", "lon": -76.93481766666666, "rental_uris": {"android": "https://dc.lft.to/lastmile_qr_scan", "ios": "https://dc.lft.to/lastmile_qr_scan"}, "fusion_lon": 0.0, "is_reserved": 0}, {"lat": 38.88741533333334, "fusion_lat": 0.0, "type": "electric_scooter", "name": "aaca2cd7a45b7078c69632a979be935e", "is_disabled": 0, "bike_id": "aaca2cd7a45b7078c69632a979be935e", "lon": -77.02569333333334, "rental_uris": {"android": "https://dc.lft.to/lastmile_qr_scan", "ios": "https://dc.lft.to/lastmile_qr_scan"}, "fusion_lon": 0.0, "is_reserved": 0}, {"lat": 38.92060883333333, "fusion_lat": 0.0, "type": "electric_scooter", "name": "54635811cfb2d7818e739a892832901b", "is_disabled": 0, "bike_id": "54635811cfb2d7818e739a892832901b", "lon": -77.038007, "rental_uris": {"android": "https://dc.lft.to/lastmile_qr_scan", "ios": "https://dc.lft.to/lastmile_qr_scan"}, "fusion_lon": 0.0, "is_reserved": 0}, {"lat": 38.90253416666667, "fusion_lat": 0.0, "type": "electric_scooter", "name": "5e2e77280434a07b232115861eb6590c", "is_disabled": 0, "bike_id": "5e2e77280434a07b232115861eb6590c", "lon": -77.038489, "rental_uris": {"android": "https://dc.lft.to/lastmile_qr_scan", "ios": "https://dc.lft.to/lastmile_qr_scan"}, "fusion_lon": 0.0, "is_reserved": 0}, {"lat": 38.879234333333336, "fusion_lat": 0.0, "type": "electric_scooter", "name": "d8f51d5a1b27a843ccfd0014e6bc71bb", "is_disabled": 0, "bike_id": "d8f51d5a1b27a843ccfd0014e6bc71bb", "lon": -76.99519583333333, "rental_uris": {"android": "https://dc.lft.to/lastmile_qr_scan", "ios": "https://dc.lft.to/lastmile_qr_scan"}, "fusion_lon": 0.0, "is_reserved": 0}, {"lat": 38.84466833333333, "fusion_lat": 0.0, "type": "electric_bike", "name": "4622a227a7cb42586ac1427e596961de", "is_disabled": 0, "bike_id": "4622a227a7cb42586ac1427e596961de", "lon": -76.97854616666666, "rental_uris": {"android": "https://dc.lft.to/lastmile_qr_scan", "ios": "https://dc.lft.to/lastmile_qr_scan"}, "fusion_lon": 0.0, "is_reserved": 0}, {"lat": 38.896811166666666, "fusion_lat": 0.0, "type": "electric_scooter", "name": "ca75da1535ee9b8fd8c388bcffdfb68f", "is_disabled": 0, "bike_id": "ca75da1535ee9b8fd8c388bcffdfb68f", "lon": -77.01193833333333, "rental_uris": {"android": "https://dc.lft.to/lastmile_qr_scan", "ios": "https://dc.lft.to/lastmile_qr_scan"}, "fusion_lon": 0.0, "is_reserved": 0}, {"lat": 38.897049, "fusion_lat": 0.0, "type": "electric_scooter", "name": "9048ce25cdba1e35b9980d0f73c14e50", "is_disabled": 0, "bike_id": "9048ce25cdba1e35b9980d0f73c14e50", "lon": -77.02286433333333, "rental_uris": {"android": "https://dc.lft.to/lastmile_qr_scan", "ios": "https://dc.lft.to/lastmile_qr_scan"}, "fusion_lon": 0.0, "is_reserved": 0}, {"lat": 38.85633966666666, "fusion_lat": 0.0, "type": "electric_scooter", "name": "359ccc2d744be264e8a83dbd3be54198", "is_disabled": 0, "bike_id": "359ccc2d744be264e8a83dbd3be54198", "lon": -76.96686483333333, "rental_uris": {"android": "https://dc.lft.to/lastmile_qr_scan", "ios": "https://dc.lft.to/lastmile_qr_scan"}, "fusion_lon": 0.0, "is_reserved": 0}, {"lat": 38.93113566666667, "fusion_lat": 0.0, "type": "electric_scooter", "name": "3d440a0ae1fb772fcb0a1091054fc087", "is_disabled": 0, "bike_id": "3d440a0ae1fb772fcb0a1091054fc087", "lon": -77.03029833333333, "rental_uris": {"android": "https://dc.lft.to/lastmile_qr_scan", "ios": "https://dc.lft.to/lastmile_qr_scan"}, "fusion_lon": 0.0, "is_reserved": 0}, {"lat": 38.90953783333333, "fusion_lat": 0.0, "type": "electric_scooter", "name": "9e74962bc16d97d2e072f2d7735943f9", "is_disabled": 0, "bike_id": "9e74962bc16d97d2e072f2d7735943f9", "lon": -77.02553933333333, "rental_uris": {"android": "https://dc.lft.to/lastmile_qr_scan", "ios": "https://dc.lft.to/lastmile_qr_scan"}, "fusion_lon": 0.0, "is_reserved": 0}, {"lat": 38.9039495, "fusion_lat": 0.0, "type": "electric_scooter", "name": "946855860b003ac3240f4cc66b60efc6", "is_disabled": 0, "bike_id": "946855860b003ac3240f4cc66b60efc6", "lon": -77.03860366666666, "rental_uris": {"android": "https://dc.lft.to/lastmile_qr_scan", "ios": "https://dc.lft.to/lastmile_qr_scan"}, "fusion_lon": 0.0, "is_reserved": 0}, {"lat": 38.879438, "fusion_lat": 0.0, "type": "electric_bike", "name": "99831bbad8739ae4ec82593cb2e97fc5", "is_disabled": 0, "bike_id": "99831bbad8739ae4ec82593cb2e97fc5", "lon": -77.02355166666666, "rental_uris": {"android": "https://dc.lft.to/lastmile_qr_scan", "ios": "https://dc.lft.to/lastmile_qr_scan"}, "fusion_lon": 0.0, "is_reserved": 0}, {"lat": 38.89466516666667, "fusion_lat": 0.0, "type": "electric_scooter", "name": "d832fa83bae6310fa2fc27a040cf8f11", "is_disabled": 0, "bike_id": "d832fa83bae6310fa2fc27a040cf8f11", "lon": -77.00340416666667, "rental_uris": {"android": "https://dc.lft.to/lastmile_qr_scan", "ios": "https://dc.lft.to/lastmile_qr_scan"}, "fusion_lon": 0.0, "is_reserved": 0}, {"lat": 38.909526666666665, "fusion_lat": 0.0, "type": "electric_scooter", "name": "897715b8a17e56e3377ee1f3ef371af9", "is_disabled": 0, "bike_id": "897715b8a17e56e3377ee1f3ef371af9", "lon": -77.02272966666666, "rental_uris": {"android": "https://dc.lft.to/lastmile_qr_scan", "ios": "https://dc.lft.to/lastmile_qr_scan"}, "fusion_lon": 0.0, "is_reserved": 0}, {"lat": 38.9182785, "fusion_lat": 0.0, "type": "electric_scooter", "name": "e55f56e85293ebd620f0645cce109d32", "is_disabled": 0, "bike_id": "e55f56e85293ebd620f0645cce109d32", "lon": -77.03203633333334, "rental_uris": {"android": "https://dc.lft.to/lastmile_qr_scan", "ios": "https://dc.lft.to/lastmile_qr_scan"}, "fusion_lon": 0.0, "is_reserved": 0}, {"lat": 38.89718366666666, "fusion_lat": 0.0, "type": "electric_scooter", "name": "f50d53e0a12f8fbfa0a487d82a4893d2", "is_disabled": 0, "bike_id": "f50d53e0a12f8fbfa0a487d82a4893d2", "lon": -77.0079715, "rental_uris": {"android": "https://dc.lft.to/lastmile_qr_scan", "ios": "https://dc.lft.to/lastmile_qr_scan"}, "fusion_lon": 0.0, "is_reserved": 0}, {"lat": 38.89434933333333, "fusion_lat": 0.0, "type": "electric_scooter", "name": "09f1b51452df50a4d7bb5990eadb75c1", "is_disabled": 0, "bike_id": "09f1b51452df50a4d7bb5990eadb75c1", "lon": -77.00052066666667, "rental_uris": {"android": "https://dc.lft.to/lastmile_qr_scan", "ios": "https://dc.lft.to/lastmile_qr_scan"}, "fusion_lon": 0.0, "is_reserved": 0}, {"lat": 38.9165385, "fusion_lat": 0.0, "type": "electric_scooter", "name": "651fc6ac75d81be83fbb22436e0ec078", "is_disabled": 0, "bike_id": "651fc6ac75d81be83fbb22436e0ec078", "lon": -77.0438735, "rental_uris": {"android": "https://dc.lft.to/lastmile_qr_scan", "ios": "https://dc.lft.to/lastmile_qr_scan"}, "fusion_lon": 0.0, "is_reserved": 0}, {"lat": 38.898405, "fusion_lat": 0.0, "type": "electric_scooter", "name": "4ca221d04df302a5e4c70c535a3b13c4", "is_disabled": 0, "bike_id": "4ca221d04df302a5e4c70c535a3b13c4", "lon": -77.033264, "rental_uris": {"android": "https://dc.lft.to/lastmile_qr_scan", "ios": "https://dc.lft.to/lastmile_qr_scan"}, "fusion_lon": 0.0, "is_reserved": 0}, {"lat": 38.891956, "fusion_lat": 0.0, "type": "electric_scooter", "name": "030be7a5e403ffba07324a9b17d3bdac", "is_disabled": 0, "bike_id": "030be7a5e403ffba07324a9b17d3bdac", "lon": -77.00296166666666, "rental_uris": {"android": "https://dc.lft.to/lastmile_qr_scan", "ios": "https://dc.lft.to/lastmile_qr_scan"}, "fusion_lon": 0.0, "is_reserved": 0}, {"lat": 38.89484516666667, "fusion_lat": 0.0, "type": "electric_scooter", "name": "4ca89d057c54e79fe14214c012086435", "is_disabled": 0, "bike_id": "4ca89d057c54e79fe14214c012086435", "lon": -76.948806, "rental_uris": {"android": "https://dc.lft.to/lastmile_qr_scan", "ios": "https://dc.lft.to/lastmile_qr_scan"}, "fusion_lon": 0.0, "is_reserved": 0}, {"lat": 38.92061183333333, "fusion_lat": 0.0, "type": "electric_scooter", "name": "68c2ce202fb4b8913832e8225f98208e", "is_disabled": 0, "bike_id": "68c2ce202fb4b8913832e8225f98208e", "lon": -76.98191616666666, "rental_uris": {"android": "https://dc.lft.to/lastmile_qr_scan", "ios": "https://dc.lft.to/lastmile_qr_scan"}, "fusion_lon": 0.0, "is_reserved": 0}, {"lat": 38.86679316666667, "fusion_lat": 0.0, "type": "electric_scooter", "name": "1a795fa814fca5a215d08cdeee52ac69", "is_disabled": 0, "bike_id": "1a795fa814fca5a215d08cdeee52ac69", "lon": -76.98563616666667, "rental_uris": {"android": "https://dc.lft.to/lastmile_qr_scan", "ios": "https://dc.lft.to/lastmile_qr_scan"}, "fusion_lon": 0.0, "is_reserved": 0}, {"lat": 38.990951833333334, "fusion_lat": 0.0, "type": "electric_bike", "name": "6e20d754e026b78c4b27da56f1bf6db4", "is_disabled": 0, "bike_id": "6e20d754e026b78c4b27da56f1bf6db4", "lon": -76.9936655, "rental_uris": {"android": "https://dc.lft.to/lastmile_qr_scan", "ios": "https://dc.lft.to/lastmile_qr_scan"}, "fusion_lon": 0.0, "is_reserved": 0}, {"lat": 38.975118333333334, "fusion_lat": 0.0, "type": "electric_scooter", "name": "b6c9c5bb1d90b7c570f97c04d145a251", "is_disabled": 0, "bike_id": "b6c9c5bb1d90b7c570f97c04d145a251", "lon": -77.01650383333333, "rental_uris": {"android": "https://dc.lft.to/lastmile_qr_scan", "ios": "https://dc.lft.to/lastmile_qr_scan"}, "fusion_lon": 0.0, "is_reserved": 0}, {"lat": 38.914938666666664, "fusion_lat": 0.0, "type": "electric_scooter", "name": "8735656eb6d92ab088adf998ac31a57a", "is_disabled": 0, "bike_id": "8735656eb6d92ab088adf998ac31a57a", "lon": -76.98371033333333, "rental_uris": {"android": "https://dc.lft.to/lastmile_qr_scan", "ios": "https://dc.lft.to/lastmile_qr_scan"}, "fusion_lon": 0.0, "is_reserved": 0}, {"lat": 38.913213666666664, "fusion_lat": 0.0, "type": "electric_scooter", "name": "b8b6b16ec6cd188f2ca73a11f8c7d1fb", "is_disabled": 0, "bike_id": "b8b6b16ec6cd188f2ca73a11f8c7d1fb", "lon": -77.01510416666666, "rental_uris": {"android": "https://dc.lft.to/lastmile_qr_scan", "ios": "https://dc.lft.to/lastmile_qr_scan"}, "fusion_lon": 0.0, "is_reserved": 0}, {"lat": 38.8934315, "fusion_lat": 0.0, "type": "electric_scooter", "name": "3b9a6fa9ffca95e7c941692d963baa77", "is_disabled": 0, "bike_id": "3b9a6fa9ffca95e7c941692d963baa77", "lon": -76.93966316666666, "rental_uris": {"android": "https://dc.lft.to/lastmile_qr_scan", "ios": "https://dc.lft.to/lastmile_qr_scan"}, "fusion_lon": 0.0, "is_reserved": 0}, {"lat": 38.9079995, "fusion_lat": 0.0, "type": "electric_scooter", "name": "d091f28b6f82ec28bca76db9ab688eed", "is_disabled": 0, "bike_id": "d091f28b6f82ec28bca76db9ab688eed", "lon": -77.04278183333334, "rental_uris": {"android": "https://dc.lft.to/lastmile_qr_scan", "ios": "https://dc.lft.to/lastmile_qr_scan"}, "fusion_lon": 0.0, "is_reserved": 0}, {"lat": 38.92266216666667, "fusion_lat": 0.0, "type": "electric_scooter", "name": "f9b75ccd47c0e5a601929495be7ae9ea", "is_disabled": 0, "bike_id": "f9b75ccd47c0e5a601929495be7ae9ea", "lon": -77.03407166666666, "rental_uris": {"android": "https://dc.lft.to/lastmile_qr_scan", "ios": "https://dc.lft.to/lastmile_qr_scan"}, "fusion_lon": 0.0, "is_reserved": 0}, {"lat": 38.9046545, "fusion_lat": 0.0, "type": "electric_scooter", "name": "fab7f4f12a36d815d71a93368d1d9a8b", "is_disabled": 0, "bike_id": "fab7f4f12a36d815d71a93368d1d9a8b", "lon": -77.03835883333333, "rental_uris": {"android": "https://dc.lft.to/lastmile_qr_scan", "ios": "https://dc.lft.to/lastmile_qr_scan"}, "fusion_lon": 0.0, "is_reserved": 0}, {"lat": 39.000030833333334, "fusion_lat": 0.0, "type": "electric_bike", "name": "363ff12380f3d3ff1b966412c500eb07", "is_disabled": 0, "bike_id": "363ff12380f3d3ff1b966412c500eb07", "lon": -76.9179885, "rental_uris": {"android": "https://dc.lft.to/lastmile_qr_scan", "ios": "https://dc.lft.to/lastmile_qr_scan"}, "fusion_lon": 0.0, "is_reserved": 0}, {"lat": 38.904191833333336, "fusion_lat": 0.0, "type": "electric_scooter", "name": "e1f703b1445c8e972765e1db5ecea32c", "is_disabled": 0, "bike_id": "e1f703b1445c8e972765e1db5ecea32c", "lon": -77.05340683333333, "rental_uris": {"android": "https://dc.lft.to/lastmile_qr_scan", "ios": "https://dc.lft.to/lastmile_qr_scan"}, "fusion_lon": 0.0, "is_reserved": 0}, {"lat": 38.90306433333333, "fusion_lat": 0.0, "type": "electric_scooter", "name": "6b472305f675c8589c07561c69c20f91", "is_disabled": 0, "bike_id": "6b472305f675c8589c07561c69c20f91", "lon": -77.0343855, "rental_uris": {"android": "https://dc.lft.to/lastmile_qr_scan", "ios": "https://dc.lft.to/lastmile_qr_scan"}, "fusion_lon": 0.0, "is_reserved": 0}, {"lat": 38.892179, "fusion_lat": 0.0, "type": "electric_scooter", "name": "96fc30cad712602e7dd370f8838ecb14", "is_disabled": 0, "bike_id": "96fc30cad712602e7dd370f8838ecb14", "lon": -77.02411433333333, "rental_uris": {"android": "https://dc.lft.to/lastmile_qr_scan", "ios": "https://dc.lft.to/lastmile_qr_scan"}, "fusion_lon": 0.0, "is_reserved": 0}, {"lat": 38.87469733333333, "fusion_lat": 0.0, "type": "electric_scooter", "name": "d94495ddf60a0909ea8c7c8a01adec7a", "is_disabled": 0, "bike_id": "d94495ddf60a0909ea8c7c8a01adec7a", "lon": -77.00516716666667, "rental_uris": {"android": "https://dc.lft.to/lastmile_qr_scan", "ios": "https://dc.lft.to/lastmile_qr_scan"}, "fusion_lon": 0.0, "is_reserved": 0}, {"lat": 38.884177, "fusion_lat": 0.0, "type": "electric_scooter", "name": "ca8f14c7d3071a15bda0fef06f6e8bf2", "is_disabled": 0, "bike_id": "ca8f14c7d3071a15bda0fef06f6e8bf2", "lon": -77.0231555, "rental_uris": {"android": "https://dc.lft.to/lastmile_qr_scan", "ios": "https://dc.lft.to/lastmile_qr_scan"}, "fusion_lon": 0.0, "is_reserved": 0}, {"lat": 38.8717145, "fusion_lat": 0.0, "type": "electric_scooter", "name": "9fb7c9f49931d40dfa07cebe7232f570", "is_disabled": 0, "bike_id": "9fb7c9f49931d40dfa07cebe7232f570", "lon": -77.00680816666667, "rental_uris": {"android": "https://dc.lft.to/lastmile_qr_scan", "ios": "https://dc.lft.to/lastmile_qr_scan"}, "fusion_lon": 0.0, "is_reserved": 0}, {"lat": 38.9574315, "fusion_lat": 0.0, "type": "electric_scooter", "name": "5b7a3ac9713929734c3bc97dc2bb7b40", "is_disabled": 0, "bike_id": "5b7a3ac9713929734c3bc97dc2bb7b40", "lon": -77.022054, "rental_uris": {"android": "https://dc.lft.to/lastmile_qr_scan", "ios": "https://dc.lft.to/lastmile_qr_scan"}, "fusion_lon": 0.0, "is_reserved": 0}, {"lat": 38.89727883333333, "fusion_lat": 0.0, "type": "electric_scooter", "name": "4ce16cc67288c9d265ce671d3d89ecfb", "is_disabled": 0, "bike_id": "4ce16cc67288c9d265ce671d3d89ecfb", "lon": -77.02176116666666, "rental_uris": {"android": "https://dc.lft.to/lastmile_qr_scan", "ios": "https://dc.lft.to/lastmile_qr_scan"}, "fusion_lon": 0.0, "is_reserved": 0}, {"lat": 38.90466816666667, "fusion_lat": 0.0, "type": "electric_scooter", "name": "b0a57146c16f339d589eba4d02b513ca", "is_disabled": 0, "bike_id": "b0a57146c16f339d589eba4d02b513ca", "lon": -77.04355816666667, "rental_uris": {"android": "https://dc.lft.to/lastmile_qr_scan", "ios": "https://dc.lft.to/lastmile_qr_scan"}, "fusion_lon": 0.0, "is_reserved": 0}, {"lat": 38.919105333333334, "fusion_lat": 0.0, "type": "electric_scooter", "name": "a68223976eff09c5a7bb8f106824b90c", "is_disabled": 0, "bike_id": "a68223976eff09c5a7bb8f106824b90c", "lon": -77.03429933333334, "rental_uris": {"android": "https://dc.lft.to/lastmile_qr_scan", "ios": "https://dc.lft.to/lastmile_qr_scan"}, "fusion_lon": 0.0, "is_reserved": 0}, {"lat": 38.921195833333336, "fusion_lat": 0.0, "type": "electric_scooter", "name": "750afd4350eef9247e8a91c8cc309716", "is_disabled": 0, "bike_id": "750afd4350eef9247e8a91c8cc309716", "lon": -77.04580883333334, "rental_uris": {"android": "https://dc.lft.to/lastmile_qr_scan", "ios": "https://dc.lft.to/lastmile_qr_scan"}, "fusion_lon": 0.0, "is_reserved": 0}, {"lat": 38.93075183333333, "fusion_lat": 0.0, "type": "electric_scooter", "name": "4ff60cd8c700e42220fd0d1bc1a563e1", "is_disabled": 0, "bike_id": "4ff60cd8c700e42220fd0d1bc1a563e1", "lon": -77.027387, "rental_uris": {"android": "https://dc.lft.to/lastmile_qr_scan", "ios": "https://dc.lft.to/lastmile_qr_scan"}, "fusion_lon": 0.0, "is_reserved": 0}, {"lat": 38.9082685, "fusion_lat": 0.0, "type": "electric_scooter", "name": "7eb4bd01e9a9f4b571da3f91051bcd60", "is_disabled": 0, "bike_id": "7eb4bd01e9a9f4b571da3f91051bcd60", "lon": -77.04343466666667, "rental_uris": {"android": "https://dc.lft.to/lastmile_qr_scan", "ios": "https://dc.lft.to/lastmile_qr_scan"}, "fusion_lon": 0.0, "is_reserved": 0}, {"lat": 38.90716116666667, "fusion_lat": 0.0, "type": "electric_scooter", "name": "0ea943a10cf8d2321705e0456afa17f5", "is_disabled": 0, "bike_id": "0ea943a10cf8d2321705e0456afa17f5", "lon": -77.03358616666667, "rental_uris": {"android": "https://dc.lft.to/lastmile_qr_scan", "ios": "https://dc.lft.to/lastmile_qr_scan"}, "fusion_lon": 0.0, "is_reserved": 0}, {"lat": 38.923329333333335, "fusion_lat": 0.0, "type": "electric_scooter", "name": "d986865b4356a935aeebad8bf54e29c2", "is_disabled": 0, "bike_id": "d986865b4356a935aeebad8bf54e29c2", "lon": -77.03608666666666, "rental_uris": {"android": "https://dc.lft.to/lastmile_qr_scan", "ios": "https://dc.lft.to/lastmile_qr_scan"}, "fusion_lon": 0.0, "is_reserved": 0}, {"lat": 38.89634816666667, "fusion_lat": 0.0, "type": "electric_scooter", "name": "65d4b5cbfadd2a2c19df48ee6adda1af", "is_disabled": 0, "bike_id": "65d4b5cbfadd2a2c19df48ee6adda1af", "lon": -77.04010283333334, "rental_uris": {"android": "https://dc.lft.to/lastmile_qr_scan", "ios": "https://dc.lft.to/lastmile_qr_scan"}, "fusion_lon": 0.0, "is_reserved": 0}, {"lat": 38.91741966666667, "fusion_lat": 0.0, "type": "electric_scooter", "name": "6a57073e303eab37ad989b59b6381822", "is_disabled": 0, "bike_id": "6a57073e303eab37ad989b59b6381822", "lon": -77.041566, "rental_uris": {"android": "https://dc.lft.to/lastmile_qr_scan", "ios": "https://dc.lft.to/lastmile_qr_scan"}, "fusion_lon": 0.0, "is_reserved": 0}, {"lat": 38.90034716666667, "fusion_lat": 0.0, "type": "electric_scooter", "name": "ea2b952605e17894855e2fbaecbbf78d", "is_disabled": 0, "bike_id": "ea2b952605e17894855e2fbaecbbf78d", "lon": -76.988302, "rental_uris": {"android": "https://dc.lft.to/lastmile_qr_scan", "ios": "https://dc.lft.to/lastmile_qr_scan"}, "fusion_lon": 0.0, "is_reserved": 0}, {"lat": 38.90719883333333, "fusion_lat": 0.0, "type": "electric_scooter", "name": "a3b8ea0b267654c48cff24b5e7f9c9a8", "is_disabled": 0, "bike_id": "a3b8ea0b267654c48cff24b5e7f9c9a8", "lon": -77.02384833333333, "rental_uris": {"android": "https://dc.lft.to/lastmile_qr_scan", "ios": "https://dc.lft.to/lastmile_qr_scan"}, "fusion_lon": 0.0, "is_reserved": 0}, {"lat": 38.91689433333333, "fusion_lat": 0.0, "type": "electric_scooter", "name": "82aa2cb744e460cf00de783682deb801", "is_disabled": 0, "bike_id": "82aa2cb744e460cf00de783682deb801", "lon": -77.02457216666667, "rental_uris": {"android": "https://dc.lft.to/lastmile_qr_scan", "ios": "https://dc.lft.to/lastmile_qr_scan"}, "fusion_lon": 0.0, "is_reserved": 0}, {"lat": 38.92780333333333, "fusion_lat": 0.0, "type": "electric_scooter", "name": "1a2a588c5552cdb7095679599aebbcd9", "is_disabled": 0, "bike_id": "1a2a588c5552cdb7095679599aebbcd9", "lon": -77.03202433333334, "rental_uris": {"android": "https://dc.lft.to/lastmile_qr_scan", "ios": "https://dc.lft.to/lastmile_qr_scan"}, "fusion_lon": 0.0, "is_reserved": 0}, {"lat": 38.956362166666665, "fusion_lat": 0.0, "type": "electric_scooter", "name": "ddd41fe295dd8646dd7b9b41abefed30", "is_disabled": 0, "bike_id": "ddd41fe295dd8646dd7b9b41abefed30", "lon": -77.01614433333333, "rental_uris": {"android": "https://dc.lft.to/lastmile_qr_scan", "ios": "https://dc.lft.to/lastmile_qr_scan"}, "fusion_lon": 0.0, "is_reserved": 0}, {"lat": 38.8948375, "fusion_lat": 0.0, "type": "electric_scooter", "name": "6bb8e4875d3e6284916b059461013a36", "is_disabled": 0, "bike_id": "6bb8e4875d3e6284916b059461013a36", "lon": -77.00261783333333, "rental_uris": {"android": "https://dc.lft.to/lastmile_qr_scan", "ios": "https://dc.lft.to/lastmile_qr_scan"}, "fusion_lon": 0.0, "is_reserved": 0}, {"lat": 38.847129333333335, "fusion_lat": 0.0, "type": "electric_scooter", "name": "9bebad26d3988237abe4858f30ff8240", "is_disabled": 0, "bike_id": "9bebad26d3988237abe4858f30ff8240", "lon": -76.96814316666666, "rental_uris": {"android": "https://dc.lft.to/lastmile_qr_scan", "ios": "https://dc.lft.to/lastmile_qr_scan"}, "fusion_lon": 0.0, "is_reserved": 0}, {"lat": 38.90262366666666, "fusion_lat": 0.0, "type": "electric_scooter", "name": "bb10a162c36808cf8f06577ca0ee8d9b", "is_disabled": 0, "bike_id": "bb10a162c36808cf8f06577ca0ee8d9b", "lon": -77.03853433333333, "rental_uris": {"android": "https://dc.lft.to/lastmile_qr_scan", "ios": "https://dc.lft.to/lastmile_qr_scan"}, "fusion_lon": 0.0, "is_reserved": 0}, {"lat": 38.91112966666667, "fusion_lat": 0.0, "type": "electric_scooter", "name": "9a097d6cd178cde78f3d70d11d67876f", "is_disabled": 0, "bike_id": "9a097d6cd178cde78f3d70d11d67876f", "lon": -77.0432925, "rental_uris": {"android": "https://dc.lft.to/lastmile_qr_scan", "ios": "https://dc.lft.to/lastmile_qr_scan"}, "fusion_lon": 0.0, "is_reserved": 0}, {"lat": 38.928301166666664, "fusion_lat": 0.0, "type": "electric_scooter", "name": "f980227e241e27f813180fac63e422a7", "is_disabled": 0, "bike_id": "f980227e241e27f813180fac63e422a7", "lon": -77.014134, "rental_uris": {"android": "https://dc.lft.to/lastmile_qr_scan", "ios": "https://dc.lft.to/lastmile_qr_scan"}, "fusion_lon": 0.0, "is_reserved": 0}, {"lat": 38.89832766666667, "fusion_lat": 0.0, "type": "electric_scooter", "name": "64b25f3bd22f3dc850fc09e4b8856a21", "is_disabled": 0, "bike_id": "64b25f3bd22f3dc850fc09e4b8856a21", "lon": -76.9318225, "rental_uris": {"android": "https://dc.lft.to/lastmile_qr_scan", "ios": "https://dc.lft.to/lastmile_qr_scan"}, "fusion_lon": 0.0, "is_reserved": 0}, {"lat": 38.90969666666667, "fusion_lat": 0.0, "type": "electric_scooter", "name": "cc11af00a76ee459857bcb8fa6cbe6ce", "is_disabled": 0, "bike_id": "cc11af00a76ee459857bcb8fa6cbe6ce", "lon": -77.04872183333333, "rental_uris": {"android": "https://dc.lft.to/lastmile_qr_scan", "ios": "https://dc.lft.to/lastmile_qr_scan"}, "fusion_lon": 0.0, "is_reserved": 0}, {"lat": 38.857684166666665, "fusion_lat": 0.0, "type": "electric_bike", "name": "81d42572bd863cc3ce123bb2bab1abc3", "is_disabled": 0, "bike_id": "81d42572bd863cc3ce123bb2bab1abc3", "lon": -76.98753716666667, "rental_uris": {"android": "https://dc.lft.to/lastmile_qr_scan", "ios": "https://dc.lft.to/lastmile_qr_scan"}, "fusion_lon": 0.0, "is_reserved": 0}, {"lat": 38.87243216666667, "fusion_lat": 0.0, "type": "electric_scooter", "name": "0c4c853c966357770ecc5151b38a06c2", "is_disabled": 0, "bike_id": "0c4c853c966357770ecc5151b38a06c2", "lon": -76.97722066666667, "rental_uris": {"android": "https://dc.lft.to/lastmile_qr_scan", "ios": "https://dc.lft.to/lastmile_qr_scan"}, "fusion_lon": 0.0, "is_reserved": 0}, {"lat": 38.84438133333333, "fusion_lat": 0.0, "type": "electric_scooter", "name": "cf109e9709ae1840efc2baa79f930053", "is_disabled": 0, "bike_id": "cf109e9709ae1840efc2baa79f930053", "lon": -76.9977865, "rental_uris": {"android": "https://dc.lft.to/lastmile_qr_scan", "ios": "https://dc.lft.to/lastmile_qr_scan"}, "fusion_lon": 0.0, "is_reserved": 0}, {"lat": 38.933216, "fusion_lat": 0.0, "type": "electric_scooter", "name": "0206e53fc97393a5e22b8cda3a070dc1", "is_disabled": 0, "bike_id": "0206e53fc97393a5e22b8cda3a070dc1", "lon": -77.032774, "rental_uris": {"android": "https://dc.lft.to/lastmile_qr_scan", "ios": "https://dc.lft.to/lastmile_qr_scan"}, "fusion_lon": 0.0, "is_reserved": 0}, {"lat": 38.90553166666667, "fusion_lat": 0.0, "type": "electric_scooter", "name": "b80be525deaa6ba60297a463f0b729b6", "is_disabled": 0, "bike_id": "b80be525deaa6ba60297a463f0b729b6", "lon": -77.05002333333333, "rental_uris": {"android": "https://dc.lft.to/lastmile_qr_scan", "ios": "https://dc.lft.to/lastmile_qr_scan"}, "fusion_lon": 0.0, "is_reserved": 0}, {"lat": 38.87475633333333, "fusion_lat": 0.0, "type": "electric_bike", "name": "947c0300690722b1b65e0568fddfe060", "is_disabled": 0, "bike_id": "947c0300690722b1b65e0568fddfe060", "lon": -76.9652755, "rental_uris": {"android": "https://dc.lft.to/lastmile_qr_scan", "ios": "https://dc.lft.to/lastmile_qr_scan"}, "fusion_lon": 0.0, "is_reserved": 0}, {"lat": 38.8665725, "fusion_lat": 0.0, "type": "electric_scooter", "name": "12e56fecca1156b70ece7bb269e131c0", "is_disabled": 0, "bike_id": "12e56fecca1156b70ece7bb269e131c0", "lon": -76.989, "rental_uris": {"android": "https://dc.lft.to/lastmile_qr_scan", "ios": "https://dc.lft.to/lastmile_qr_scan"}, "fusion_lon": 0.0, "is_reserved": 0}, {"lat": 38.79856133333333, "fusion_lat": 0.0, "type": "electric_bike", "name": "8180d4034363a76c2325caa51851359c", "is_disabled": 0, "bike_id": "8180d4034363a76c2325caa51851359c", "lon": -77.06305783333333, "rental_uris": {"android": "https://dc.lft.to/lastmile_qr_scan", "ios": "https://dc.lft.to/lastmile_qr_scan"}, "fusion_lon": 0.0, "is_reserved": 0}, {"lat": 38.895062, "fusion_lat": 0.0, "type": "electric_scooter", "name": "583738414cabc3b787a3dd21e2fb3f41", "is_disabled": 0, "bike_id": "583738414cabc3b787a3dd21e2fb3f41", "lon": -77.02304983333333, "rental_uris": {"android": "https://dc.lft.to/lastmile_qr_scan", "ios": "https://dc.lft.to/lastmile_qr_scan"}, "fusion_lon": 0.0, "is_reserved": 0}, {"lat": 38.887294833333335, "fusion_lat": 0.0, "type": "electric_scooter", "name": "db25ad0c04fe6d8942ecb08715542446", "is_disabled": 0, "bike_id": "db25ad0c04fe6d8942ecb08715542446", "lon": -77.028294, "rental_uris": {"android": "https://dc.lft.to/lastmile_qr_scan", "ios": "https://dc.lft.to/lastmile_qr_scan"}, "fusion_lon": 0.0, "is_reserved": 0}, {"lat": 38.90714466666667, "fusion_lat": 0.0, "type": "electric_scooter", "name": "74aaa7250ac2427fc256e7866cf3d55d", "is_disabled": 0, "bike_id": "74aaa7250ac2427fc256e7866cf3d55d", "lon": -77.04227983333334, "rental_uris": {"android": "https://dc.lft.to/lastmile_qr_scan", "ios": "https://dc.lft.to/lastmile_qr_scan"}, "fusion_lon": 0.0, "is_reserved": 0}, {"lat": 38.9131705, "fusion_lat": 0.0, "type": "electric_scooter", "name": "de72c2cd981f8e8cf6a802491ca980f1", "is_disabled": 0, "bike_id": "de72c2cd981f8e8cf6a802491ca980f1", "lon": -77.01435933333333, "rental_uris": {"android": "https://dc.lft.to/lastmile_qr_scan", "ios": "https://dc.lft.to/lastmile_qr_scan"}, "fusion_lon": 0.0, "is_reserved": 0}, {"lat": 38.915342333333335, "fusion_lat": 0.0, "type": "electric_scooter", "name": "bef7f82f023a2e0081e7cca32ea3f3ec", "is_disabled": 0, "bike_id": "bef7f82f023a2e0081e7cca32ea3f3ec", "lon": -77.03847066666667, "rental_uris": {"android": "https://dc.lft.to/lastmile_qr_scan", "ios": "https://dc.lft.to/lastmile_qr_scan"}, "fusion_lon": 0.0, "is_reserved": 0}, {"lat": 38.931546, "fusion_lat": 0.0, "type": "electric_scooter", "name": "33fc2b753c05ff88779cc4c94583ba81", "is_disabled": 0, "bike_id": "33fc2b753c05ff88779cc4c94583ba81", "lon": -77.0783055, "rental_uris": {"android": "https://dc.lft.to/lastmile_qr_scan", "ios": "https://dc.lft.to/lastmile_qr_scan"}, "fusion_lon": 0.0, "is_reserved": 0}, {"lat": 38.95247116666667, "fusion_lat": 0.0, "type": "electric_scooter", "name": "b4458ce6bb3f5ccf1970d3f1a958413d", "is_disabled": 0, "bike_id": "b4458ce6bb3f5ccf1970d3f1a958413d", "lon": -77.006992, "rental_uris": {"android": "https://dc.lft.to/lastmile_qr_scan", "ios": "https://dc.lft.to/lastmile_qr_scan"}, "fusion_lon": 0.0, "is_reserved": 0}, {"lat": 38.90319916666667, "fusion_lat": 0.0, "type": "electric_scooter", "name": "b35201e578ba0765e338c232ff202868", "is_disabled": 0, "bike_id": "b35201e578ba0765e338c232ff202868", "lon": -77.0212775, "rental_uris": {"android": "https://dc.lft.to/lastmile_qr_scan", "ios": "https://dc.lft.to/lastmile_qr_scan"}, "fusion_lon": 0.0, "is_reserved": 0}, {"lat": 38.9440495, "fusion_lat": 0.0, "type": "electric_scooter", "name": "e24f63df1bdfb90c26c0a82a6c05fbb7", "is_disabled": 0, "bike_id": "e24f63df1bdfb90c26c0a82a6c05fbb7", "lon": -77.02609583333333, "rental_uris": {"android": "https://dc.lft.to/lastmile_qr_scan", "ios": "https://dc.lft.to/lastmile_qr_scan"}, "fusion_lon": 0.0, "is_reserved": 0}, {"lat": 38.9025405, "fusion_lat": 0.0, "type": "electric_scooter", "name": "e539291bacc15f0676a761edd89abbb8", "is_disabled": 0, "bike_id": "e539291bacc15f0676a761edd89abbb8", "lon": -77.0293795, "rental_uris": {"android": "https://dc.lft.to/lastmile_qr_scan", "ios": "https://dc.lft.to/lastmile_qr_scan"}, "fusion_lon": 0.0, "is_reserved": 0}, {"lat": 38.90322166666667, "fusion_lat": 0.0, "type": "electric_scooter", "name": "410c6ceee5b989b50b02036039288d05", "is_disabled": 0, "bike_id": "410c6ceee5b989b50b02036039288d05", "lon": -76.9753565, "rental_uris": {"android": "https://dc.lft.to/lastmile_qr_scan", "ios": "https://dc.lft.to/lastmile_qr_scan"}, "fusion_lon": 0.0, "is_reserved": 0}, {"lat": 38.895256, "fusion_lat": 0.0, "type": "electric_scooter", "name": "6760cc5da917a01bb12eb499a0d145d4", "is_disabled": 0, "bike_id": "6760cc5da917a01bb12eb499a0d145d4", "lon": -77.00213633333334, "rental_uris": {"android": "https://dc.lft.to/lastmile_qr_scan", "ios": "https://dc.lft.to/lastmile_qr_scan"}, "fusion_lon": 0.0, "is_reserved": 0}, {"lat": 38.93879483333333, "fusion_lat": 0.0, "type": "electric_bike", "name": "f01eefc7900ca8bf8f92ceda8d4b8f46", "is_disabled": 0, "bike_id": "f01eefc7900ca8bf8f92ceda8d4b8f46", "lon": -76.990289, "rental_uris": {"android": "https://dc.lft.to/lastmile_qr_scan", "ios": "https://dc.lft.to/lastmile_qr_scan"}, "fusion_lon": 0.0, "is_reserved": 0}, {"lat": 38.8836325, "fusion_lat": 0.0, "type": "electric_scooter", "name": "e1dca892f9a60539880f643dff391e70", "is_disabled": 0, "bike_id": "e1dca892f9a60539880f643dff391e70", "lon": -76.94154683333333, "rental_uris": {"android": "https://dc.lft.to/lastmile_qr_scan", "ios": "https://dc.lft.to/lastmile_qr_scan"}, "fusion_lon": 0.0, "is_reserved": 0}, {"lat": 38.90465366666667, "fusion_lat": 0.0, "type": "electric_scooter", "name": "1ee7e2b86ae44b0f6b9bcb802f57954e", "is_disabled": 0, "bike_id": "1ee7e2b86ae44b0f6b9bcb802f57954e", "lon": -77.04476183333334, "rental_uris": {"android": "https://dc.lft.to/lastmile_qr_scan", "ios": "https://dc.lft.to/lastmile_qr_scan"}, "fusion_lon": 0.0, "is_reserved": 0}, {"lat": 38.928064166666665, "fusion_lat": 0.0, "type": "electric_scooter", "name": "e2e3f2dcd29ef30ff202a63e0d1298d9", "is_disabled": 0, "bike_id": "e2e3f2dcd29ef30ff202a63e0d1298d9", "lon": -77.01409183333334, "rental_uris": {"android": "https://dc.lft.to/lastmile_qr_scan", "ios": "https://dc.lft.to/lastmile_qr_scan"}, "fusion_lon": 0.0, "is_reserved": 0}, {"lat": 38.896179833333335, "fusion_lat": 0.0, "type": "electric_scooter", "name": "93454bfd98a3e18d0f54b26ac8d81007", "is_disabled": 0, "bike_id": "93454bfd98a3e18d0f54b26ac8d81007", "lon": -77.009193, "rental_uris": {"android": "https://dc.lft.to/lastmile_qr_scan", "ios": "https://dc.lft.to/lastmile_qr_scan"}, "fusion_lon": 0.0, "is_reserved": 0}, {"lat": 38.91539233333334, "fusion_lat": 0.0, "type": "electric_scooter", "name": "a6d3c8fe886e207bccc5b671903fafa5", "is_disabled": 0, "bike_id": "a6d3c8fe886e207bccc5b671903fafa5", "lon": -77.01268166666667, "rental_uris": {"android": "https://dc.lft.to/lastmile_qr_scan", "ios": "https://dc.lft.to/lastmile_qr_scan"}, "fusion_lon": 0.0, "is_reserved": 0}, {"lat": 38.918002, "fusion_lat": 0.0, "type": "electric_scooter", "name": "0a166753f1ac3d3252faaecb9d37da93", "is_disabled": 0, "bike_id": "0a166753f1ac3d3252faaecb9d37da93", "lon": -77.06822666666666, "rental_uris": {"android": "https://dc.lft.to/lastmile_qr_scan", "ios": "https://dc.lft.to/lastmile_qr_scan"}, "fusion_lon": 0.0, "is_reserved": 0}, {"lat": 38.916934, "fusion_lat": 0.0, "type": "electric_scooter", "name": "c6433489369f62373872462db9f4c360", "is_disabled": 0, "bike_id": "c6433489369f62373872462db9f4c360", "lon": -77.03468983333333, "rental_uris": {"android": "https://dc.lft.to/lastmile_qr_scan", "ios": "https://dc.lft.to/lastmile_qr_scan"}, "fusion_lon": 0.0, "is_reserved": 0}, {"lat": 38.9051345, "fusion_lat": 0.0, "type": "electric_scooter", "name": "17bb6d26a72904b0a7faf97c5deaa5b6", "is_disabled": 0, "bike_id": "17bb6d26a72904b0a7faf97c5deaa5b6", "lon": -77.0188735, "rental_uris": {"android": "https://dc.lft.to/lastmile_qr_scan", "ios": "https://dc.lft.to/lastmile_qr_scan"}, "fusion_lon": 0.0, "is_reserved": 0}, {"lat": 38.922179166666666, "fusion_lat": 0.0, "type": "electric_scooter", "name": "91ed31d5913d3c042a5896ca57d4dfd3", "is_disabled": 0, "bike_id": "91ed31d5913d3c042a5896ca57d4dfd3", "lon": -77.042514, "rental_uris": {"android": "https://dc.lft.to/lastmile_qr_scan", "ios": "https://dc.lft.to/lastmile_qr_scan"}, "fusion_lon": 0.0, "is_reserved": 0}, {"lat": 38.941848, "fusion_lat": 0.0, "type": "electric_scooter", "name": "6994b6e28fee8534556913aaab74d68a", "is_disabled": 0, "bike_id": "6994b6e28fee8534556913aaab74d68a", "lon": -77.0248575, "rental_uris": {"android": "https://dc.lft.to/lastmile_qr_scan", "ios": "https://dc.lft.to/lastmile_qr_scan"}, "fusion_lon": 0.0, "is_reserved": 0}, {"lat": 38.84437783333333, "fusion_lat": 0.0, "type": "electric_scooter", "name": "93b5d25da166ce91b042e9b74d21aabe", "is_disabled": 0, "bike_id": "93b5d25da166ce91b042e9b74d21aabe", "lon": -76.99776516666667, "rental_uris": {"android": "https://dc.lft.to/lastmile_qr_scan", "ios": "https://dc.lft.to/lastmile_qr_scan"}, "fusion_lon": 0.0, "is_reserved": 0}, {"lat": 38.91715216666667, "fusion_lat": 0.0, "type": "electric_scooter", "name": "325fd749f083de45c2d1003da04ba8ad", "is_disabled": 0, "bike_id": "325fd749f083de45c2d1003da04ba8ad", "lon": -77.02708283333334, "rental_uris": {"android": "https://dc.lft.to/lastmile_qr_scan", "ios": "https://dc.lft.to/lastmile_qr_scan"}, "fusion_lon": 0.0, "is_reserved": 0}, {"lat": 38.91164966666667, "fusion_lat": 0.0, "type": "electric_scooter", "name": "a69d16e938c3a7e5ef18960c2fbdc9f0", "is_disabled": 0, "bike_id": "a69d16e938c3a7e5ef18960c2fbdc9f0", "lon": -77.0319025, "rental_uris": {"android": "https://dc.lft.to/lastmile_qr_scan", "ios": "https://dc.lft.to/lastmile_qr_scan"}, "fusion_lon": 0.0, "is_reserved": 0}, {"lat": 38.923997666666665, "fusion_lat": 0.0, "type": "electric_scooter", "name": "055923d083ac1e9ecc64139305b8fc12", "is_disabled": 0, "bike_id": "055923d083ac1e9ecc64139305b8fc12", "lon": -77.05170916666667, "rental_uris": {"android": "https://dc.lft.to/lastmile_qr_scan", "ios": "https://dc.lft.to/lastmile_qr_scan"}, "fusion_lon": 0.0, "is_reserved": 0}, {"lat": 38.99417183333333, "fusion_lat": 0.0, "type": "electric_bike", "name": "db5829e6a39208ab4020a5acc6f271ed", "is_disabled": 0, "bike_id": "db5829e6a39208ab4020a5acc6f271ed", "lon": -77.076961, "rental_uris": {"android": "https://dc.lft.to/lastmile_qr_scan", "ios": "https://dc.lft.to/lastmile_qr_scan"}, "fusion_lon": 0.0, "is_reserved": 0}, {"lat": 38.917219, "fusion_lat": 0.0, "type": "electric_scooter", "name": "69ff3a8b356d45c3a46bc7ba69e13daf", "is_disabled": 0, "bike_id": "69ff3a8b356d45c3a46bc7ba69e13daf", "lon": -77.02966133333334, "rental_uris": {"android": "https://dc.lft.to/lastmile_qr_scan", "ios": "https://dc.lft.to/lastmile_qr_scan"}, "fusion_lon": 0.0, "is_reserved": 0}, {"lat": 38.9037425, "fusion_lat": 0.0, "type": "electric_scooter", "name": "2d3f648bca01da3ee1273bc5646f7506", "is_disabled": 0, "bike_id": "2d3f648bca01da3ee1273bc5646f7506", "lon": -77.034515, "rental_uris": {"android": "https://dc.lft.to/lastmile_qr_scan", "ios": "https://dc.lft.to/lastmile_qr_scan"}, "fusion_lon": 0.0, "is_reserved": 0}, {"lat": 38.922435, "fusion_lat": 0.0, "type": "electric_scooter", "name": "8ef49e52a474dd6fad805985d5e6b2f1", "is_disabled": 0, "bike_id": "8ef49e52a474dd6fad805985d5e6b2f1", "lon": -77.0425455, "rental_uris": {"android": "https://dc.lft.to/lastmile_qr_scan", "ios": "https://dc.lft.to/lastmile_qr_scan"}, "fusion_lon": 0.0, "is_reserved": 0}, {"lat": 38.9072815, "fusion_lat": 0.0, "type": "electric_scooter", "name": "33d1aa53b705074cd40690d3b36960d9", "is_disabled": 0, "bike_id": "33d1aa53b705074cd40690d3b36960d9", "lon": -77.00325383333333, "rental_uris": {"android": "https://dc.lft.to/lastmile_qr_scan", "ios": "https://dc.lft.to/lastmile_qr_scan"}, "fusion_lon": 0.0, "is_reserved": 0}, {"lat": 38.8986675, "fusion_lat": 0.0, "type": "electric_scooter", "name": "c916850aaea610c34d76b1c0e6bb3447", "is_disabled": 0, "bike_id": "c916850aaea610c34d76b1c0e6bb3447", "lon": -77.04670133333333, "rental_uris": {"android": "https://dc.lft.to/lastmile_qr_scan", "ios": "https://dc.lft.to/lastmile_qr_scan"}, "fusion_lon": 0.0, "is_reserved": 0}, {"lat": 38.898962, "fusion_lat": 0.0, "type": "electric_scooter", "name": "db9885116e2a3e1f2a5a2a47ff6504c2", "is_disabled": 0, "bike_id": "db9885116e2a3e1f2a5a2a47ff6504c2", "lon": -76.9339515, "rental_uris": {"android": "https://dc.lft.to/lastmile_qr_scan", "ios": "https://dc.lft.to/lastmile_qr_scan"}, "fusion_lon": 0.0, "is_reserved": 0}, {"lat": 38.9370565, "fusion_lat": 0.0, "type": "electric_scooter", "name": "8b84bc59c0be452eb4e14f7c48513342", "is_disabled": 0, "bike_id": "8b84bc59c0be452eb4e14f7c48513342", "lon": -77.0240195, "rental_uris": {"android": "https://dc.lft.to/lastmile_qr_scan", "ios": "https://dc.lft.to/lastmile_qr_scan"}, "fusion_lon": 0.0, "is_reserved": 0}, {"lat": 38.930938166666664, "fusion_lat": 0.0, "type": "electric_scooter", "name": "f4f90f3dc80d01fbfd1d40726d4064c3", "is_disabled": 0, "bike_id": "f4f90f3dc80d01fbfd1d40726d4064c3", "lon": -77.02411083333334, "rental_uris": {"android": "https://dc.lft.to/lastmile_qr_scan", "ios": "https://dc.lft.to/lastmile_qr_scan"}, "fusion_lon": 0.0, "is_reserved": 0}, {"lat": 38.90019016666667, "fusion_lat": 0.0, "type": "electric_scooter", "name": "41c0c39251c437b17727da371404950d", "is_disabled": 0, "bike_id": "41c0c39251c437b17727da371404950d", "lon": -76.98695466666666, "rental_uris": {"android": "https://dc.lft.to/lastmile_qr_scan", "ios": "https://dc.lft.to/lastmile_qr_scan"}, "fusion_lon": 0.0, "is_reserved": 0}, {"lat": 38.921675, "fusion_lat": 0.0, "type": "electric_scooter", "name": "fd699f362cde514f403c42fc574e3699", "is_disabled": 0, "bike_id": "fd699f362cde514f403c42fc574e3699", "lon": -77.03823133333333, "rental_uris": {"android": "https://dc.lft.to/lastmile_qr_scan", "ios": "https://dc.lft.to/lastmile_qr_scan"}, "fusion_lon": 0.0, "is_reserved": 0}, {"lat": 38.883763, "fusion_lat": 0.0, "type": "electric_scooter", "name": "079b5635b6fd01bb0c07eebdd12345a4", "is_disabled": 0, "bike_id": "079b5635b6fd01bb0c07eebdd12345a4", "lon": -77.019105, "rental_uris": {"android": "https://dc.lft.to/lastmile_qr_scan", "ios": "https://dc.lft.to/lastmile_qr_scan"}, "fusion_lon": 0.0, "is_reserved": 0}, {"lat": 38.89736633333333, "fusion_lat": 0.0, "type": "electric_scooter", "name": "c298b537bd6ec7e86fd1e01105594bbb", "is_disabled": 0, "bike_id": "c298b537bd6ec7e86fd1e01105594bbb", "lon": -77.0478235, "rental_uris": {"android": "https://dc.lft.to/lastmile_qr_scan", "ios": "https://dc.lft.to/lastmile_qr_scan"}, "fusion_lon": 0.0, "is_reserved": 0}, {"lat": 38.804473333333334, "fusion_lat": 0.0, "type": "electric_bike", "name": "8e19c6a51c5597e490f9bd66ca5f19f9", "is_disabled": 0, "bike_id": "8e19c6a51c5597e490f9bd66ca5f19f9", "lon": -77.0539155, "rental_uris": {"android": "https://dc.lft.to/lastmile_qr_scan", "ios": "https://dc.lft.to/lastmile_qr_scan"}, "fusion_lon": 0.0, "is_reserved": 0}, {"lat": 38.9267325, "fusion_lat": 0.0, "type": "electric_scooter", "name": "86b22151e5b372b0f9c00b9a26b01883", "is_disabled": 0, "bike_id": "86b22151e5b372b0f9c00b9a26b01883", "lon": -77.01468666666666, "rental_uris": {"android": "https://dc.lft.to/lastmile_qr_scan", "ios": "https://dc.lft.to/lastmile_qr_scan"}, "fusion_lon": 0.0, "is_reserved": 0}, {"lat": 38.89837416666667, "fusion_lat": 0.0, "type": "electric_scooter", "name": "8a619cda8e7ad0062cfdd2c426df91f2", "is_disabled": 0, "bike_id": "8a619cda8e7ad0062cfdd2c426df91f2", "lon": -77.0416575, "rental_uris": {"android": "https://dc.lft.to/lastmile_qr_scan", "ios": "https://dc.lft.to/lastmile_qr_scan"}, "fusion_lon": 0.0, "is_reserved": 0}, {"lat": 38.89983466666666, "fusion_lat": 0.0, "type": "electric_scooter", "name": "3cecee4f768d2d92521a39d2425ccc89", "is_disabled": 0, "bike_id": "3cecee4f768d2d92521a39d2425ccc89", "lon": -76.9808955, "rental_uris": {"android": "https://dc.lft.to/lastmile_qr_scan", "ios": "https://dc.lft.to/lastmile_qr_scan"}, "fusion_lon": 0.0, "is_reserved": 0}, {"lat": 38.9160395, "fusion_lat": 0.0, "type": "electric_scooter", "name": "4a651bcdf48ed6ef72c363720a581ec0", "is_disabled": 0, "bike_id": "4a651bcdf48ed6ef72c363720a581ec0", "lon": -77.04487783333333, "rental_uris": {"android": "https://dc.lft.to/lastmile_qr_scan", "ios": "https://dc.lft.to/lastmile_qr_scan"}, "fusion_lon": 0.0, "is_reserved": 0}, {"lat": 38.89164383333333, "fusion_lat": 0.0, "type": "electric_scooter", "name": "9924bab56f67c5884e147bc604d31b08", "is_disabled": 0, "bike_id": "9924bab56f67c5884e147bc604d31b08", "lon": -77.01537966666666, "rental_uris": {"android": "https://dc.lft.to/lastmile_qr_scan", "ios": "https://dc.lft.to/lastmile_qr_scan"}, "fusion_lon": 0.0, "is_reserved": 0}, {"lat": 38.90566533333333, "fusion_lat": 0.0, "type": "electric_scooter", "name": "dde130c1ca0348634e4f7f6ae57b3d31", "is_disabled": 0, "bike_id": "dde130c1ca0348634e4f7f6ae57b3d31", "lon": -77.02234716666666, "rental_uris": {"android": "https://dc.lft.to/lastmile_qr_scan", "ios": "https://dc.lft.to/lastmile_qr_scan"}, "fusion_lon": 0.0, "is_reserved": 0}, {"lat": 38.900362333333334, "fusion_lat": 0.0, "type": "electric_scooter", "name": "57efd1ae14bb0fefcd1e9f251bd2065b", "is_disabled": 0, "bike_id": "57efd1ae14bb0fefcd1e9f251bd2065b", "lon": -77.04407833333333, "rental_uris": {"android": "https://dc.lft.to/lastmile_qr_scan", "ios": "https://dc.lft.to/lastmile_qr_scan"}, "fusion_lon": 0.0, "is_reserved": 0}, {"lat": 38.91665666666667, "fusion_lat": 0.0, "type": "electric_scooter", "name": "6c92a02a1d249ad2196f2b491b11b3ef", "is_disabled": 0, "bike_id": "6c92a02a1d249ad2196f2b491b11b3ef", "lon": -77.02373583333333, "rental_uris": {"android": "https://dc.lft.to/lastmile_qr_scan", "ios": "https://dc.lft.to/lastmile_qr_scan"}, "fusion_lon": 0.0, "is_reserved": 0}, {"lat": 38.8575645, "fusion_lat": 0.0, "type": "electric_scooter", "name": "7d53b1fa6770e55354bbf6a280f9789e", "is_disabled": 0, "bike_id": "7d53b1fa6770e55354bbf6a280f9789e", "lon": -76.99299433333333, "rental_uris": {"android": "https://dc.lft.to/lastmile_qr_scan", "ios": "https://dc.lft.to/lastmile_qr_scan"}, "fusion_lon": 0.0, "is_reserved": 0}, {"lat": 39.08441966666667, "fusion_lat": 0.0, "type": "electric_bike", "name": "c62dcf08b18036f5d15ea4ccadd5639f", "is_disabled": 0, "bike_id": "c62dcf08b18036f5d15ea4ccadd5639f", "lon": -76.95186166666667, "rental_uris": {"android": "https://dc.lft.to/lastmile_qr_scan", "ios": "https://dc.lft.to/lastmile_qr_scan"}, "fusion_lon": 0.0, "is_reserved": 0}, {"lat": 38.9276725, "fusion_lat": 0.0, "type": "electric_scooter", "name": "9dcf4ed0ee99d9c5dededca0e784623c", "is_disabled": 0, "bike_id": "9dcf4ed0ee99d9c5dededca0e784623c", "lon": -77.0289755, "rental_uris": {"android": "https://dc.lft.to/lastmile_qr_scan", "ios": "https://dc.lft.to/lastmile_qr_scan"}, "fusion_lon": 0.0, "is_reserved": 0}, {"lat": 38.84438083333333, "fusion_lat": 0.0, "type": "electric_scooter", "name": "a5600af475aea5d576aa2ec37a92121e", "is_disabled": 0, "bike_id": "a5600af475aea5d576aa2ec37a92121e", "lon": -76.99780733333333, "rental_uris": {"android": "https://dc.lft.to/lastmile_qr_scan", "ios": "https://dc.lft.to/lastmile_qr_scan"}, "fusion_lon": 0.0, "is_reserved": 0}, {"lat": 38.95405566666667, "fusion_lat": 0.0, "type": "electric_scooter", "name": "ae1a6e8eea30d6b5d79d1096e144e33d", "is_disabled": 0, "bike_id": "ae1a6e8eea30d6b5d79d1096e144e33d", "lon": -77.02745016666667, "rental_uris": {"android": "https://dc.lft.to/lastmile_qr_scan", "ios": "https://dc.lft.to/lastmile_qr_scan"}, "fusion_lon": 0.0, "is_reserved": 0}, {"lat": 38.913969333333334, "fusion_lat": 0.0, "type": "electric_scooter", "name": "96736606696c99f869a6880759c96401", "is_disabled": 0, "bike_id": "96736606696c99f869a6880759c96401", "lon": -77.01795283333334, "rental_uris": {"android": "https://dc.lft.to/lastmile_qr_scan", "ios": "https://dc.lft.to/lastmile_qr_scan"}, "fusion_lon": 0.0, "is_reserved": 0}, {"lat": 38.92509666666667, "fusion_lat": 0.0, "type": "electric_scooter", "name": "a6920bf1a621754ab907500c61df6c9a", "is_disabled": 0, "bike_id": "a6920bf1a621754ab907500c61df6c9a", "lon": -77.02322016666666, "rental_uris": {"android": "https://dc.lft.to/lastmile_qr_scan", "ios": "https://dc.lft.to/lastmile_qr_scan"}, "fusion_lon": 0.0, "is_reserved": 0}, {"lat": 38.8923125, "fusion_lat": 0.0, "type": "electric_scooter", "name": "049d684d45a02ef5d1281f12b4076bd4", "is_disabled": 0, "bike_id": "049d684d45a02ef5d1281f12b4076bd4", "lon": -77.04998666666667, "rental_uris": {"android": "https://dc.lft.to/lastmile_qr_scan", "ios": "https://dc.lft.to/lastmile_qr_scan"}, "fusion_lon": 0.0, "is_reserved": 0}, {"lat": 38.922252, "fusion_lat": 0.0, "type": "electric_scooter", "name": "fa2dcb0c4028675dc169ff0ccb3ccd3f", "is_disabled": 0, "bike_id": "fa2dcb0c4028675dc169ff0ccb3ccd3f", "lon": -77.0424355, "rental_uris": {"android": "https://dc.lft.to/lastmile_qr_scan", "ios": "https://dc.lft.to/lastmile_qr_scan"}, "fusion_lon": 0.0, "is_reserved": 0}, {"lat": 38.926627833333335, "fusion_lat": 0.0, "type": "electric_scooter", "name": "f9441f2e0ff356ce248b98eedd06cb13", "is_disabled": 0, "bike_id": "f9441f2e0ff356ce248b98eedd06cb13", "lon": -77.04309716666667, "rental_uris": {"android": "https://dc.lft.to/lastmile_qr_scan", "ios": "https://dc.lft.to/lastmile_qr_scan"}, "fusion_lon": 0.0, "is_reserved": 0}, {"lat": 38.94358116666667, "fusion_lat": 0.0, "type": "electric_scooter", "name": "2578ea73570ad38724b4d0eb6688a276", "is_disabled": 0, "bike_id": "2578ea73570ad38724b4d0eb6688a276", "lon": -77.06312866666667, "rental_uris": {"android": "https://dc.lft.to/lastmile_qr_scan", "ios": "https://dc.lft.to/lastmile_qr_scan"}, "fusion_lon": 0.0, "is_reserved": 0}, {"lat": 38.91322366666667, "fusion_lat": 0.0, "type": "electric_scooter", "name": "f6789450f3d05911dcd639f142684ee3", "is_disabled": 0, "bike_id": "f6789450f3d05911dcd639f142684ee3", "lon": -77.0317965, "rental_uris": {"android": "https://dc.lft.to/lastmile_qr_scan", "ios": "https://dc.lft.to/lastmile_qr_scan"}, "fusion_lon": 0.0, "is_reserved": 0}, {"lat": 38.907339, "fusion_lat": 0.0, "type": "electric_scooter", "name": "581039639d870f9e8c83a1377f4289df", "is_disabled": 0, "bike_id": "581039639d870f9e8c83a1377f4289df", "lon": -77.04275333333334, "rental_uris": {"android": "https://dc.lft.to/lastmile_qr_scan", "ios": "https://dc.lft.to/lastmile_qr_scan"}, "fusion_lon": 0.0, "is_reserved": 0}, {"lat": 38.842496833333335, "fusion_lat": 0.0, "type": "electric_bike", "name": "75ece2b880f32afd259db5e8e63fe0d8", "is_disabled": 0, "bike_id": "75ece2b880f32afd259db5e8e63fe0d8", "lon": -77.07883066666666, "rental_uris": {"android": "https://dc.lft.to/lastmile_qr_scan", "ios": "https://dc.lft.to/lastmile_qr_scan"}, "fusion_lon": 0.0, "is_reserved": 0}, {"lat": 38.906418333333335, "fusion_lat": 0.0, "type": "electric_scooter", "name": "ae160a702fda23d0e0abda9a0e33a643", "is_disabled": 0, "bike_id": "ae160a702fda23d0e0abda9a0e33a643", "lon": -76.98378233333334, "rental_uris": {"android": "https://dc.lft.to/lastmile_qr_scan", "ios": "https://dc.lft.to/lastmile_qr_scan"}, "fusion_lon": 0.0, "is_reserved": 0}, {"lat": 38.858042166666664, "fusion_lat": 0.0, "type": "electric_scooter", "name": "8c699f197c94a8aaff0791d933392471", "is_disabled": 0, "bike_id": "8c699f197c94a8aaff0791d933392471", "lon": -76.98651766666667, "rental_uris": {"android": "https://dc.lft.to/lastmile_qr_scan", "ios": "https://dc.lft.to/lastmile_qr_scan"}, "fusion_lon": 0.0, "is_reserved": 0}, {"lat": 38.91752683333333, "fusion_lat": 0.0, "type": "electric_scooter", "name": "722f19ba2d01261b60a85be0c0c4dfb8", "is_disabled": 0, "bike_id": "722f19ba2d01261b60a85be0c0c4dfb8", "lon": -77.0317815, "rental_uris": {"android": "https://dc.lft.to/lastmile_qr_scan", "ios": "https://dc.lft.to/lastmile_qr_scan"}, "fusion_lon": 0.0, "is_reserved": 0}, {"lat": 38.933197666666665, "fusion_lat": 0.0, "type": "electric_scooter", "name": "1e3453b166103f0b3aec3f69a8ba6d2c", "is_disabled": 0, "bike_id": "1e3453b166103f0b3aec3f69a8ba6d2c", "lon": -77.0327715, "rental_uris": {"android": "https://dc.lft.to/lastmile_qr_scan", "ios": "https://dc.lft.to/lastmile_qr_scan"}, "fusion_lon": 0.0, "is_reserved": 0}, {"lat": 38.926929, "fusion_lat": 0.0, "type": "electric_scooter", "name": "d2ad4ec05335191633d9a6e86b3d6703", "is_disabled": 0, "bike_id": "d2ad4ec05335191633d9a6e86b3d6703", "lon": -77.03565483333334, "rental_uris": {"android": "https://dc.lft.to/lastmile_qr_scan", "ios": "https://dc.lft.to/lastmile_qr_scan"}, "fusion_lon": 0.0, "is_reserved": 0}, {"lat": 38.9170035, "fusion_lat": 0.0, "type": "electric_scooter", "name": "44bfec723e3f89014145f4267e732731", "is_disabled": 0, "bike_id": "44bfec723e3f89014145f4267e732731", "lon": -77.03241083333333, "rental_uris": {"android": "https://dc.lft.to/lastmile_qr_scan", "ios": "https://dc.lft.to/lastmile_qr_scan"}, "fusion_lon": 0.0, "is_reserved": 0}, {"lat": 38.9106875, "fusion_lat": 0.0, "type": "electric_scooter", "name": "f09a54ec31e6a6e60ad799e65a7a6596", "is_disabled": 0, "bike_id": "f09a54ec31e6a6e60ad799e65a7a6596", "lon": -76.986613, "rental_uris": {"android": "https://dc.lft.to/lastmile_qr_scan", "ios": "https://dc.lft.to/lastmile_qr_scan"}, "fusion_lon": 0.0, "is_reserved": 0}, {"lat": 38.911182, "fusion_lat": 0.0, "type": "electric_scooter", "name": "5a635781a09e0b024597fb517c3a1934", "is_disabled": 0, "bike_id": "5a635781a09e0b024597fb517c3a1934", "lon": -77.0331065, "rental_uris": {"android": "https://dc.lft.to/lastmile_qr_scan", "ios": "https://dc.lft.to/lastmile_qr_scan"}, "fusion_lon": 0.0, "is_reserved": 0}, {"lat": 38.915386833333336, "fusion_lat": 0.0, "type": "electric_scooter", "name": "c1eee89d560c57890d12e4818aed8590", "is_disabled": 0, "bike_id": "c1eee89d560c57890d12e4818aed8590", "lon": -77.0318175, "rental_uris": {"android": "https://dc.lft.to/lastmile_qr_scan", "ios": "https://dc.lft.to/lastmile_qr_scan"}, "fusion_lon": 0.0, "is_reserved": 0}, {"lat": 38.885008166666665, "fusion_lat": 0.0, "type": "electric_scooter", "name": "0459f174dee359b28ee6934ce687ae5b", "is_disabled": 0, "bike_id": "0459f174dee359b28ee6934ce687ae5b", "lon": -77.0089235, "rental_uris": {"android": "https://dc.lft.to/lastmile_qr_scan", "ios": "https://dc.lft.to/lastmile_qr_scan"}, "fusion_lon": 0.0, "is_reserved": 0}, {"lat": 38.93365, "fusion_lat": 0.0, "type": "electric_scooter", "name": "07ab2b1113099be65b15198d436e9db2", "is_disabled": 0, "bike_id": "07ab2b1113099be65b15198d436e9db2", "lon": -77.05732966666666, "rental_uris": {"android": "https://dc.lft.to/lastmile_qr_scan", "ios": "https://dc.lft.to/lastmile_qr_scan"}, "fusion_lon": 0.0, "is_reserved": 0}, {"lat": 38.898250166666664, "fusion_lat": 0.0, "type": "electric_scooter", "name": "1b1b431c2f42707797c0a08b7b9c13c8", "is_disabled": 0, "bike_id": "1b1b431c2f42707797c0a08b7b9c13c8", "lon": -77.026213, "rental_uris": {"android": "https://dc.lft.to/lastmile_qr_scan", "ios": "https://dc.lft.to/lastmile_qr_scan"}, "fusion_lon": 0.0, "is_reserved": 0}, {"lat": 38.92614583333334, "fusion_lat": 0.0, "type": "electric_scooter", "name": "1f884c78d3dc7c310d73c62eaa58ce64", "is_disabled": 0, "bike_id": "1f884c78d3dc7c310d73c62eaa58ce64", "lon": -77.04225383333333, "rental_uris": {"android": "https://dc.lft.to/lastmile_qr_scan", "ios": "https://dc.lft.to/lastmile_qr_scan"}, "fusion_lon": 0.0, "is_reserved": 0}, {"lat": 38.907489166666664, "fusion_lat": 0.0, "type": "electric_scooter", "name": "c8fe85552cb3db5f87b0f75630a22f56", "is_disabled": 0, "bike_id": "c8fe85552cb3db5f87b0f75630a22f56", "lon": -77.04340333333333, "rental_uris": {"android": "https://dc.lft.to/lastmile_qr_scan", "ios": "https://dc.lft.to/lastmile_qr_scan"}, "fusion_lon": 0.0, "is_reserved": 0}, {"lat": 38.9152735, "fusion_lat": 0.0, "type": "electric_scooter", "name": "56a72371055a3dfa7e73af76867be071", "is_disabled": 0, "bike_id": "56a72371055a3dfa7e73af76867be071", "lon": -77.03845783333334, "rental_uris": {"android": "https://dc.lft.to/lastmile_qr_scan", "ios": "https://dc.lft.to/lastmile_qr_scan"}, "fusion_lon": 0.0, "is_reserved": 0}, {"lat": 38.86446483333334, "fusion_lat": 0.0, "type": "electric_bike", "name": "af5675d7c0925db917ce812377e9bc9f", "is_disabled": 0, "bike_id": "af5675d7c0925db917ce812377e9bc9f", "lon": -77.10683516666667, "rental_uris": {"android": "https://dc.lft.to/lastmile_qr_scan", "ios": "https://dc.lft.to/lastmile_qr_scan"}, "fusion_lon": 0.0, "is_reserved": 0}, {"lat": 38.91710966666667, "fusion_lat": 0.0, "type": "electric_scooter", "name": "7baf841f34268515b89bb12100c572d9", "is_disabled": 0, "bike_id": "7baf841f34268515b89bb12100c572d9", "lon": -77.02793733333333, "rental_uris": {"android": "https://dc.lft.to/lastmile_qr_scan", "ios": "https://dc.lft.to/lastmile_qr_scan"}, "fusion_lon": 0.0, "is_reserved": 0}, {"lat": 38.923637, "fusion_lat": 0.0, "type": "electric_scooter", "name": "77539e2eabae8fda3ee5d6546b609371", "is_disabled": 0, "bike_id": "77539e2eabae8fda3ee5d6546b609371", "lon": -77.05130883333334, "rental_uris": {"android": "https://dc.lft.to/lastmile_qr_scan", "ios": "https://dc.lft.to/lastmile_qr_scan"}, "fusion_lon": 0.0, "is_reserved": 0}, {"lat": 38.93428183333333, "fusion_lat": 0.0, "type": "electric_scooter", "name": "c988ceb1d33db8fcbfa8e325774c483f", "is_disabled": 0, "bike_id": "c988ceb1d33db8fcbfa8e325774c483f", "lon": -77.05585616666667, "rental_uris": {"android": "https://dc.lft.to/lastmile_qr_scan", "ios": "https://dc.lft.to/lastmile_qr_scan"}, "fusion_lon": 0.0, "is_reserved": 0}, {"lat": 38.93161383333333, "fusion_lat": 0.0, "type": "electric_scooter", "name": "e3030f555619a39ae61392a73cdc0526", "is_disabled": 0, "bike_id": "e3030f555619a39ae61392a73cdc0526", "lon": -77.05686366666667, "rental_uris": {"android": "https://dc.lft.to/lastmile_qr_scan", "ios": "https://dc.lft.to/lastmile_qr_scan"}, "fusion_lon": 0.0, "is_reserved": 0}, {"lat": 38.9315665, "fusion_lat": 0.0, "type": "electric_scooter", "name": "7d195466cf1092af2164971f3cc95765", "is_disabled": 0, "bike_id": "7d195466cf1092af2164971f3cc95765", "lon": -77.036066, "rental_uris": {"android": "https://dc.lft.to/lastmile_qr_scan", "ios": "https://dc.lft.to/lastmile_qr_scan"}, "fusion_lon": 0.0, "is_reserved": 0}, {"lat": 38.89709416666667, "fusion_lat": 0.0, "type": "electric_scooter", "name": "d3d1b14d14fee6324707db23a7608860", "is_disabled": 0, "bike_id": "d3d1b14d14fee6324707db23a7608860", "lon": -77.029877, "rental_uris": {"android": "https://dc.lft.to/lastmile_qr_scan", "ios": "https://dc.lft.to/lastmile_qr_scan"}, "fusion_lon": 0.0, "is_reserved": 0}, {"lat": 38.8979935, "fusion_lat": 0.0, "type": "electric_bike", "name": "0e79a829a6ff03590f86b0114b7daf19", "is_disabled": 0, "bike_id": "0e79a829a6ff03590f86b0114b7daf19", "lon": -77.04188516666666, "rental_uris": {"android": "https://dc.lft.to/lastmile_qr_scan", "ios": "https://dc.lft.to/lastmile_qr_scan"}, "fusion_lon": 0.0, "is_reserved": 0}, {"lat": 38.86002083333333, "fusion_lat": 0.0, "type": "electric_scooter", "name": "9bad816fcd9e83c5a44ceeca29af9e0a", "is_disabled": 0, "bike_id": "9bad816fcd9e83c5a44ceeca29af9e0a", "lon": -76.98516683333334, "rental_uris": {"android": "https://dc.lft.to/lastmile_qr_scan", "ios": "https://dc.lft.to/lastmile_qr_scan"}, "fusion_lon": 0.0, "is_reserved": 0}, {"lat": 38.90319683333333, "fusion_lat": 0.0, "type": "electric_scooter", "name": "59cb836b4c0e012699debda0e355776c", "is_disabled": 0, "bike_id": "59cb836b4c0e012699debda0e355776c", "lon": -77.02402883333333, "rental_uris": {"android": "https://dc.lft.to/lastmile_qr_scan", "ios": "https://dc.lft.to/lastmile_qr_scan"}, "fusion_lon": 0.0, "is_reserved": 0}, {"lat": 38.88730316666667, "fusion_lat": 0.0, "type": "electric_scooter", "name": "65ceaaafb956cc6df9a49c5f3ca17b46", "is_disabled": 0, "bike_id": "65ceaaafb956cc6df9a49c5f3ca17b46", "lon": -77.028255, "rental_uris": {"android": "https://dc.lft.to/lastmile_qr_scan", "ios": "https://dc.lft.to/lastmile_qr_scan"}, "fusion_lon": 0.0, "is_reserved": 0}, {"lat": 38.92182583333334, "fusion_lat": 0.0, "type": "electric_scooter", "name": "5b284d62011eb4288862a446a90fccb8", "is_disabled": 0, "bike_id": "5b284d62011eb4288862a446a90fccb8", "lon": -77.03922816666666, "rental_uris": {"android": "https://dc.lft.to/lastmile_qr_scan", "ios": "https://dc.lft.to/lastmile_qr_scan"}, "fusion_lon": 0.0, "is_reserved": 0}, {"lat": 38.8928865, "fusion_lat": 0.0, "type": "electric_bike", "name": "d1a24ad811bf8de93c6bfd3c2f337db7", "is_disabled": 0, "bike_id": "d1a24ad811bf8de93c6bfd3c2f337db7", "lon": -76.9761655, "rental_uris": {"android": "https://dc.lft.to/lastmile_qr_scan", "ios": "https://dc.lft.to/lastmile_qr_scan"}, "fusion_lon": 0.0, "is_reserved": 0}, {"lat": 38.9234135, "fusion_lat": 0.0, "type": "electric_scooter", "name": "e331af0925f08e60bb666f8c8741b56d", "is_disabled": 0, "bike_id": "e331af0925f08e60bb666f8c8741b56d", "lon": -77.01912216666666, "rental_uris": {"android": "https://dc.lft.to/lastmile_qr_scan", "ios": "https://dc.lft.to/lastmile_qr_scan"}, "fusion_lon": 0.0, "is_reserved": 0}, {"lat": 38.897989833333334, "fusion_lat": 0.0, "type": "electric_scooter", "name": "c3032ab17a130c976020d3f1cbd2c353", "is_disabled": 0, "bike_id": "c3032ab17a130c976020d3f1cbd2c353", "lon": -77.006838, "rental_uris": {"android": "https://dc.lft.to/lastmile_qr_scan", "ios": "https://dc.lft.to/lastmile_qr_scan"}, "fusion_lon": 0.0, "is_reserved": 0}, {"lat": 38.91187466666667, "fusion_lat": 0.0, "type": "electric_scooter", "name": "4d949a3fbd1e232237803e2be7b1d918", "is_disabled": 0, "bike_id": "4d949a3fbd1e232237803e2be7b1d918", "lon": -77.034488, "rental_uris": {"android": "https://dc.lft.to/lastmile_qr_scan", "ios": "https://dc.lft.to/lastmile_qr_scan"}, "fusion_lon": 0.0, "is_reserved": 0}, {"lat": 38.914152333333334, "fusion_lat": 0.0, "type": "electric_scooter", "name": "7cb01f952ae41c91e6ef18fe64a4c5c2", "is_disabled": 0, "bike_id": "7cb01f952ae41c91e6ef18fe64a4c5c2", "lon": -77.04499916666667, "rental_uris": {"android": "https://dc.lft.to/lastmile_qr_scan", "ios": "https://dc.lft.to/lastmile_qr_scan"}, "fusion_lon": 0.0, "is_reserved": 0}, {"lat": 38.91517833333333, "fusion_lat": 0.0, "type": "electric_scooter", "name": "3d3c106899b77c7713a80fdfc006a08c", "is_disabled": 0, "bike_id": "3d3c106899b77c7713a80fdfc006a08c", "lon": -77.0270325, "rental_uris": {"android": "https://dc.lft.to/lastmile_qr_scan", "ios": "https://dc.lft.to/lastmile_qr_scan"}, "fusion_lon": 0.0, "is_reserved": 0}, {"lat": 38.95619, "fusion_lat": 0.0, "type": "electric_bike", "name": "65850b20e6689bf7fbd573f43baa6c8f", "is_disabled": 0, "bike_id": "65850b20e6689bf7fbd573f43baa6c8f", "lon": -76.93873516666666, "rental_uris": {"android": "https://dc.lft.to/lastmile_qr_scan", "ios": "https://dc.lft.to/lastmile_qr_scan"}, "fusion_lon": 0.0, "is_reserved": 0}, {"lat": 38.90256883333333, "fusion_lat": 0.0, "type": "electric_scooter", "name": "38e49fb1286bb361a4549b876127e835", "is_disabled": 0, "bike_id": "38e49fb1286bb361a4549b876127e835", "lon": -77.03896483333334, "rental_uris": {"android": "https://dc.lft.to/lastmile_qr_scan", "ios": "https://dc.lft.to/lastmile_qr_scan"}, "fusion_lon": 0.0, "is_reserved": 0}, {"lat": 38.90836566666667, "fusion_lat": 0.0, "type": "electric_scooter", "name": "98def83db1b9e9d3c3c62c4197d31c20", "is_disabled": 0, "bike_id": "98def83db1b9e9d3c3c62c4197d31c20", "lon": -77.039072, "rental_uris": {"android": "https://dc.lft.to/lastmile_qr_scan", "ios": "https://dc.lft.to/lastmile_qr_scan"}, "fusion_lon": 0.0, "is_reserved": 0}, {"lat": 38.91021933333333, "fusion_lat": 0.0, "type": "electric_scooter", "name": "a98130818ac9c01e4b899816c0762bcc", "is_disabled": 0, "bike_id": "a98130818ac9c01e4b899816c0762bcc", "lon": -77.03194733333333, "rental_uris": {"android": "https://dc.lft.to/lastmile_qr_scan", "ios": "https://dc.lft.to/lastmile_qr_scan"}, "fusion_lon": 0.0, "is_reserved": 0}, {"lat": 38.901696, "fusion_lat": 0.0, "type": "electric_scooter", "name": "a0178ba530925cab64afb2b38d683861", "is_disabled": 0, "bike_id": "a0178ba530925cab64afb2b38d683861", "lon": -77.03442466666667, "rental_uris": {"android": "https://dc.lft.to/lastmile_qr_scan", "ios": "https://dc.lft.to/lastmile_qr_scan"}, "fusion_lon": 0.0, "is_reserved": 0},