{"data": {"bikes": [{"is_reserved": 0, "is_disabled": 0, "fusion_lat": 0.0, "name": "054e32cd26d25ac8ce525f3b04559f6c", "lat": 38.91806016666666, "lon": -77.03441533333333, "bike_id": "054e32cd26d25ac8ce525f3b04559f6c", "rental_uris": {"ios": "https://dc.lft.to/lastmile_qr_scan", "android": "https://dc.lft.to/lastmile_qr_scan"}, "type": "electric_scooter", "fusion_lon": 0.0}, {"is_reserved": 0, "is_disabled": 0, "fusion_lat": 0.0, "name": "d69b6d3c31ce1a0dfa081a5a42c7de3a", "lat": 38.92671833333333, "lon": -77.02307466666667, "bike_id": "d69b6d3c31ce1a0dfa081a5a42c7de3a", "rental_uris": {"ios": "https://dc.lft.to/lastmile_qr_scan", "android": "https://dc.lft.to/lastmile_qr_scan"}, "type": "electric_scooter", "fusion_lon": 0.0}, {"is_reserved": 0, "is_disabled": 0, "fusion_lat": 0.0, "name": "de9877d5f248261e60b7648b28acd6c1", "lat": 38.92846883333333, "lon": -77.03624333333333, "bike_id": "de9877d5f248261e60b7648b28acd6c1", "rental_uris": {"ios": "https://dc.lft.to/lastmile_qr_scan", "android": "https://dc.lft.to/lastmile_qr_scan"}, "type": "electric_scooter", "fusion_lon": 0.0}, {"is_reserved": 0, "is_disabled": 0, "fusion_lat": 0.0, "name": "b85823f74003a43ce7e1215e99a37593", "lat": 38.91706833333333, "lon": -77.0386355, "bike_id": "b85823f74003a43ce7e1215e99a37593", "rental_uris": {"ios": "https://dc.lft.to/lastmile_qr_scan", "android": "https://dc.lft.to/lastmile_qr_scan"}, "type": "electric_scooter", "fusion_lon": 0.0}, {"is_reserved": 0, "is_disabled": 0, "fusion_lat": 0.0, "name": "c5515dbb80799845351ac4f527ac57c6", "lat": 38.911936, "lon": -77.04176066666666, "bike_id": "c5515dbb80799845351ac4f527ac57c6", "rental_uris": {"ios": "https://dc.lft.to/lastmile_qr_scan", "android": "https://dc.lft.to/lastmile_qr_scan"}, "type": "electric_scooter", "fusion_lon": 0.0}, {"is_reserved": 0, "is_disabled": 0, "fusion_lat": 0.0, "name": "2d6653091bcbfa52ce4dd62a2e2bd671", "lat": 38.900301666666664, "lon": -77.01185633333333, "bike_id": "2d6653091bcbfa52ce4dd62a2e2bd671", "rental_uris": {"ios": "https://dc.lft.to/lastmile_qr_scan", "android": "https://dc.lft.to/lastmile_qr_scan"}, "type": "electric_scooter", "fusion_lon": 0.0}, {"is_reserved": 0, "is_disabled": 0, "fusion_lat": 0.0, "name": "ba4230a1da15bc462a27a7906140d6d5", "lat": 38.91267966666667, "lon": -77.022148, "bike_id": "ba4230a1da15bc462a27a7906140d6d5", "rental_uris": {"ios": "https://dc.lft.to/lastmile_qr_scan", "android": "https://dc.lft.to/lastmile_qr_scan"}, "type": "electric_scooter", "fusion_lon": 0.0}, {"is_reserved": 0, "is_disabled": 0, "fusion_lat": 0.0, "name": "507e9facc4e43a19aa9f311819966d5c", "lat": 38.92148316666667, "lon": -77.04345616666667, "bike_id": "507e9facc4e43a19aa9f311819966d5c", "rental_uris": {"ios": "https://dc.lft.to/lastmile_qr_scan", "android": "https://dc.lft.to/lastmile_qr_scan"}, "type": "electric_scooter", "fusion_lon": 0.0}, {"is_reserved": 0, "is_disabled": 0, "fusion_lat": 0.0, "name": "9d6329ba55852a202de956df7b98408b", "lat": 38.92387333333333, "lon": -76.9999835, "bike_id": "9d6329ba55852a202de956df7b98408b", "rental_uris": {"ios": "https://dc.lft.to/lastmile_qr_scan", "android": "https://dc.lft.to/lastmile_qr_scan"}, "type": "electric_bike", "fusion_lon": 0.0}, {"is_reserved": 0, "is_disabled": 0, "fusion_lat": 0.0, "name": "2c65cb958f228d2fb52aa68ec2794539", "lat": 38.915737666666665, "lon": -77.0200345, "bike_id": "2c65cb958f228d2fb52aa68ec2794539", "rental_uris": {"ios": "https://dc.lft.to/lastmile_qr_scan", "android": "https://dc.lft.to/lastmile_qr_scan"}, "type": "electric_scooter", "fusion_lon": 0.0}, {"is_reserved": 0, "is_disabled": 0, "fusion_lat": 0.0, "name": "ab36652457c63ea903c3a802ada8871b", "lat": 38.887009166666665, "lon": -77.000547, "bike_id": "ab36652457c63ea903c3a802ada8871b", "rental_uris": {"ios": "https://dc.lft.to/lastmile_qr_scan", "android": "https://dc.lft.to/lastmile_qr_scan"}, "type": "electric_scooter", "fusion_lon": 0.0}, {"is_reserved": 0, "is_disabled": 0, "fusion_lat": 0.0, "name": "d033938e572af540c9be3af8685b9c02", "lat": 38.92855433333333, "lon": -77.05431066666667, "bike_id": "d033938e572af540c9be3af8685b9c02", "rental_uris": {"ios": "https://dc.lft.to/lastmile_qr_scan", "android": "https://dc.lft.to/lastmile_qr_scan"}, "type": "electric_scooter", "fusion_lon": 0.0}, {"is_reserved": 0, "is_disabled": 0, "fusion_lat": 0.0, "name": "bf85aa5e6aa3c3d0c1343ed10cbce4d7", "lat": 38.9668445, "lon": -77.0340305, "bike_id": "bf85aa5e6aa3c3d0c1343ed10cbce4d7", "rental_uris": {"ios": "https://dc.lft.to/lastmile_qr_scan", "android": "https://dc.lft.to/lastmile_qr_scan"}, "type": "electric_scooter", "fusion_lon": 0.0}, {"is_reserved": 0, "is_disabled": 0, "fusion_lat": 0.0, "name": "1c8677918aea18427106574b044744cf", "lat": 38.87760816666667, "lon": -77.01885366666667, "bike_id": "1c8677918aea18427106574b044744cf", "rental_uris": {"ios": "https://dc.lft.to/lastmile_qr_scan", "android": "https://dc.lft.to/lastmile_qr_scan"}, "type": "electric_scooter", "fusion_lon": 0.0}, {"is_reserved": 0, "is_disabled": 0, "fusion_lat": 0.0, "name": "0b8e72e1b292176f6d59c91149e10827", "lat": 38.91709933333333, "lon": -77.03729083333333, "bike_id": "0b8e72e1b292176f6d59c91149e10827", "rental_uris": {"ios": "https://dc.lft.to/lastmile_qr_scan", "android": "https://dc.lft.to/lastmile_qr_scan"}, "type": "electric_scooter", "fusion_lon": 0.0}, {"is_reserved": 0, "is_disabled": 0, "fusion_lat": 0.0, "name": "32097c677c678308ee98b198ce670f21", "lat": 38.9677335, "lon": -76.99658766666667, "bike_id": "32097c677c678308ee98b198ce670f21", "rental_uris": {"ios": "https://dc.lft.to/lastmile_qr_scan", "android": "https://dc.lft.to/lastmile_qr_scan"}, "type": "electric_bike", "fusion_lon": 0.0}, {"is_reserved": 0, "is_disabled": 0, "fusion_lat": 0.0, "name": "811df62160b5ef8eda5a1175694c4819", "lat": 38.91961833333333, "lon": -77.02593133333333, "bike_id": "811df62160b5ef8eda5a1175694c4819", "rental_uris": {"ios": "https://dc.lft.to/lastmile_qr_scan", "android": "https://dc.lft.to/lastmile_qr_scan"}, "type": "electric_scooter", "fusion_lon": 0.0}, {"is_reserved": 0, "is_disabled": 0, "fusion_lat": 0.0, "name": "5af78cd5111a20d5123bdf51ba334a22", "lat": 38.895549333333335, "lon": -77.0091965, "bike_id": "5af78cd5111a20d5123bdf51ba334a22", "rental_uris": {"ios": "https://dc.lft.to/lastmile_qr_scan", "android": "https://dc.lft.to/lastmile_qr_scan"}, "type": "electric_scooter", "fusion_lon": 0.0}, {"is_reserved": 0, "is_disabled": 0, "fusion_lat": 0.0, "name": "1187190603211f989b050778d0dca936", "lat": 38.911312333333335, "lon": -77.03207133333333, "bike_id": "1187190603211f989b050778d0dca936", "rental_uris": {"ios": "https://dc.lft.to/lastmile_qr_scan", "android": "https://dc.lft.to/lastmile_qr_scan"}, "type": "electric_scooter", "fusion_lon": 0.0}, {"is_reserved": 0, "is_disabled": 0, "fusion_lat": 0.0, "name": "b064a10cb59954308802d2880dd374d8", "lat": 38.934477333333334, "lon": -77.0210575, "bike_id": "b064a10cb59954308802d2880dd374d8", "rental_uris": {"ios": "https://dc.lft.to/lastmile_qr_scan", "android": "https://dc.lft.to/lastmile_qr_scan"}, "type": "electric_scooter", "fusion_lon": 0.0}, {"is_reserved": 0, "is_disabled": 0, "fusion_lat": 0.0, "name": "ad10b9f2449a0fa564e49b1fcbaf269e", "lat": 38.922326, "lon": -77.02184733333333, "bike_id": "ad10b9f2449a0fa564e49b1fcbaf269e", "rental_uris": {"ios": "https://dc.lft.to/lastmile_qr_scan", "android": "https://dc.lft.to/lastmile_qr_scan"}, "type": "electric_scooter", "fusion_lon": 0.0}, {"is_reserved": 0, "is_disabled": 0, "fusion_lat": 0.0, "name": "83f278d636b1b9dc5a82e18f37083b08", "lat": 38.92164316666667, "lon": -77.04027416666666, "bike_id": "83f278d636b1b9dc5a82e18f37083b08", "rental_uris": {"ios": "https://dc.lft.to/lastmile_qr_scan", "android": "https://dc.lft.to/lastmile_qr_scan"}, "type": "electric_scooter", "fusion_lon": 0.0}, {"is_reserved": 0, "is_disabled": 0, "fusion_lat": 0.0, "name": "f313ebeb61e97248cdc83cc454d75e01", "lat": 38.906840833333334, "lon": -77.02719633333334, "bike_id": "f313ebeb61e97248cdc83cc454d75e01", "rental_uris": {"ios": "https://dc.lft.to/lastmile_qr_scan", "android": "https://dc.lft.to/lastmile_qr_scan"}, "type": "electric_scooter", "fusion_lon": 0.0}, {"is_reserved": 0, "is_disabled": 0, "fusion_lat": 0.0, "name": "3755d42ca142b7c8779360f534b57df2", "lat": 38.97459933333333, "lon": -77.014068, "bike_id": "3755d42ca142b7c8779360f534b57df2", "rental_uris": {"ios": "https://dc.lft.to/lastmile_qr_scan", "android": "https://dc.lft.to/lastmile_qr_scan"}, "type": "electric_scooter", "fusion_lon": 0.0}, {"is_reserved": 0, "is_disabled": 0, "fusion_lat": 0.0, "name": "aed036ba3da84607904780f17fb0e778", "lat": 38.892484333333336, "lon": -77.018297, "bike_id": "aed036ba3da84607904780f17fb0e778", "rental_uris": {"ios": "https://dc.lft.to/lastmile_qr_scan", "android": "https://dc.lft.to/lastmile_qr_scan"}, "type": "electric_scooter", "fusion_lon": 0.0}, {"is_reserved": 0, "is_disabled": 0, "fusion_lat": 0.0, "name": "80ac252117bfdabcbf32e4bc000711e8", "lat": 38.95084033333333, "lon": -77.01232916666666, "bike_id": "80ac252117bfdabcbf32e4bc000711e8", "rental_uris": {"ios": "https://dc.lft.to/lastmile_qr_scan", "android": "https://dc.lft.to/lastmile_qr_scan"}, "type": "electric_bike", "fusion_lon": 0.0}, {"is_reserved": 0, "is_disabled": 0, "fusion_lat": 0.0, "name": "66d32c8a8d00a4775e3cbf91a72902a9", "lat": 38.902579, "lon": -77.02420116666667, "bike_id": "66d32c8a8d00a4775e3cbf91a72902a9", "rental_uris": {"ios": "https://dc.lft.to/lastmile_qr_scan", "android": "https://dc.lft.to/lastmile_qr_scan"}, "type": "electric_scooter", "fusion_lon": 0.0}, {"is_reserved": 0, "is_disabled": 0, "fusion_lat": 0.0, "name": "013c1baaccb25a2254776581e05c6b07", "lat": 38.915644, "lon": -77.022155, "bike_id": "013c1baaccb25a2254776581e05c6b07", "rental_uris": {"ios": "https://dc.lft.to/lastmile_qr_scan", "android": "https://dc.lft.to/lastmile_qr_scan"}, "type": "electric_scooter", "fusion_lon": 0.0}, {"is_reserved": 0, "is_disabled": 0, "fusion_lat": 0.0, "name": "00e03d15243f7ccbb77756dc5a13128b", "lat": 38.88772483333333, "lon": -76.93262866666667, "bike_id": "00e03d15243f7ccbb77756dc5a13128b", "rental_uris": {"ios": "https://dc.lft.to/lastmile_qr_scan", "android": "https://dc.lft.to/lastmile_qr_scan"}, "type": "electric_scooter", "fusion_lon": 0.0}, {"is_reserved": 0, "is_disabled": 0, "fusion_lat": 0.0, "name": "f7a7439d73a62bbfb0b40d0369c7ccde", "lat": 38.9369545, "lon": -77.02406066666667, "bike_id": "f7a7439d73a62bbfb0b40d0369c7ccde", "rental_uris": {"ios": "https://dc.lft.to/lastmile_qr_scan", "android": "https://dc.lft.to/lastmile_qr_scan"}, "type": "electric_scooter", "fusion_lon": 0.0}, {"is_reserved": 0, "is_disabled": 0, "fusion_lat": 0.0, "name": "930185ff8bf59e7217bb728f173429d0", "lat": 38.965608, "lon": -77.02829316666667, "bike_id": "930185ff8bf59e7217bb728f173429d0", "rental_uris": {"ios": "https://dc.lft.to/lastmile_qr_scan", "android": "https://dc.lft.to/lastmile_qr_scan"}, "type": "electric_bike", "fusion_lon": 0.0}, {"is_reserved": 0, "is_disabled": 0, "fusion_lat": 0.0, "name": "8763f0a22b00c415e23754cd7ab30fbc", "lat": 38.988846833333334, "lon": -76.98805483333334, "bike_id": "8763f0a22b00c415e23754cd7ab30fbc", "rental_uris": {"ios": "https://dc.lft.to/lastmile_qr_scan", "android": "https://dc.lft.to/lastmile_qr_scan"}, "type": "electric_bike", "fusion_lon": 0.0}, {"is_reserved": 0, "is_disabled": 0, "fusion_lat": 0.0, "name": "2bd0bb5b94297cd50f5491b6c5ee79d2", "lat": 38.90374216666667, "lon": -77.01637633333333, "bike_id": "2bd0bb5b94297cd50f5491b6c5ee79d2", "rental_uris": {"ios": "https://dc.lft.to/lastmile_qr_scan", "android": "https://dc.lft.to/lastmile_qr_scan"}, "type": "electric_scooter", "fusion_lon": 0.0}, {"is_reserved": 0, "is_disabled": 0, "fusion_lat": 0.0, "name": "95c9e7f55cd0c2773dd7e291f1f31684", "lat": 38.89306883333333, "lon": -77.01524216666667, "bike_id": "95c9e7f55cd0c2773dd7e291f1f31684", "rental_uris": {"ios": "https://dc.lft.to/lastmile_qr_scan", "android": "https://dc.lft.to/lastmile_qr_scan"}, "type": "electric_scooter", "fusion_lon": 0.0}, {"is_reserved": 0, "is_disabled": 0, "fusion_lat": 0.0, "name": "9ea5e69e0940f5ea8d7105dc76f1429c", "lat": 38.915576, "lon": -77.0242715, "bike_id": "9ea5e69e0940f5ea8d7105dc76f1429c", "rental_uris": {"ios": "https://dc.lft.to/lastmile_qr_scan", "android": "https://dc.lft.to/lastmile_qr_scan"}, "type": "electric_scooter", "fusion_lon": 0.0}, {"is_reserved": 0, "is_disabled": 0, "fusion_lat": 0.0, "name": "b74f6a1e8ed84bf4285334d3c041e497", "lat": 38.899638833333334, "lon": -77.015025, "bike_id": "b74f6a1e8ed84bf4285334d3c041e497", "rental_uris": {"ios": "https://dc.lft.to/lastmile_qr_scan", "android": "https://dc.lft.to/lastmile_qr_scan"}, "type": "electric_scooter", "fusion_lon": 0.0}, {"is_reserved": 0, "is_disabled": 0, "fusion_lat": 0.0, "name": "3882e09b470d53eba82ffdaaeb1d611d", "lat": 38.9179585, "lon": -77.02329533333334, "bike_id": "3882e09b470d53eba82ffdaaeb1d611d", "rental_uris": {"ios": "https://dc.lft.to/lastmile_qr_scan", "android": "https://dc.lft.to/lastmile_qr_scan"}, "type": "electric_scooter", "fusion_lon": 0.0}, {"is_reserved": 0, "is_disabled": 0, "fusion_lat": 0.0, "name": "0f39910f27cbe5e6a06c79fc159d1e1e", "lat": 38.95634966666667, "lon": -77.03631966666667, "bike_id": "0f39910f27cbe5e6a06c79fc159d1e1e", "rental_uris": {"ios": "https://dc.lft.to/lastmile_qr_scan", "android": "https://dc.lft.to/lastmile_qr_scan"}, "type": "electric_scooter", "fusion_lon": 0.0}, {"is_reserved": 0, "is_disabled": 0, "fusion_lat": 0.0, "name": "be2551f6f644ec816d2ce7219962c138", "lat": 38.92339, "lon": -77.021477, "bike_id": "be2551f6f644ec816d2ce7219962c138", "rental_uris": {"ios": "https://dc.lft.to/lastmile_qr_scan", "android": "https://dc.lft.to/lastmile_qr_scan"}, "type": "electric_scooter", "fusion_lon": 0.0}, {"is_reserved": 0, "is_disabled": 0, "fusion_lat": 0.0, "name": "456385302a6a307665838ce1092bad67", "lat": 38.900665000000004, "lon": -77.04547033333333, "bike_id": "456385302a6a307665838ce1092bad67", "rental_uris": {"ios": "https://dc.lft.to/lastmile_qr_scan", "android": "https://dc.lft.to/lastmile_qr_scan"}, "type": "electric_scooter", "fusion_lon": 0.0}, {"is_reserved": 0, "is_disabled": 0, "fusion_lat": 0.0, "name": "8168f75d32026f736ae4f764f4a84f25", "lat": 38.90525, "lon": -77.04739683333334, "bike_id": "8168f75d32026f736ae4f764f4a84f25", "rental_uris": {"ios": "https://dc.lft.to/lastmile_qr_scan", "android": "https://dc.lft.to/lastmile_qr_scan"}, "type": "electric_scooter", "fusion_lon": 0.0}, {"is_reserved": 0, "is_disabled": 0, "fusion_lat": 0.0, "name": "809467aa52679a0f72fb313a70d81f55", "lat": 38.937055666666666, "lon": -77.02426383333334, "bike_id": "809467aa52679a0f72fb313a70d81f55", "rental_uris": {"ios": "https://dc.lft.to/lastmile_qr_scan", "android": "https://dc.lft.to/lastmile_qr_scan"}, "type": "electric_scooter", "fusion_lon": 0.0}, {"is_reserved": 0, "is_disabled": 0, "fusion_lat": 0.0, "name": "3e0a28d82fa16254bdd348ede3fdf328", "lat": 38.864357, "lon": -76.96991966666667, "bike_id": "3e0a28d82fa16254bdd348ede3fdf328", "rental_uris": {"ios": "https://dc.lft.to/lastmile_qr_scan", "android": "https://dc.lft.to/lastmile_qr_scan"}, "type": "electric_bike", "fusion_lon": 0.0}, {"is_reserved": 0, "is_disabled": 0, "fusion_lat": 0.0, "name": "f0a20b37438add200db278a215adc4a4", "lat": 38.91722883333333, "lon": -77.02594966666666, "bike_id": "f0a20b37438add200db278a215adc4a4", "rental_uris": {"ios": "https://dc.lft.to/lastmile_qr_scan", "android": "https://dc.lft.to/lastmile_qr_scan"}, "type": "electric_scooter", "fusion_lon": 0.0}, {"is_reserved": 0, "is_disabled": 0, "fusion_lat": 0.0, "name": "51c2a01bb78ba44c502972b132cf3f93", "lat": 38.92109883333333, "lon": -77.0470645, "bike_id": "51c2a01bb78ba44c502972b132cf3f93", "rental_uris": {"ios": "https://dc.lft.to/lastmile_qr_scan", "android": "https://dc.lft.to/lastmile_qr_scan"}, "type": "electric_scooter", "fusion_lon": 0.0}, {"is_reserved": 0, "is_disabled": 0, "fusion_lat": 0.0, "name": "48d10f91578cf45402b3d02d994f3302", "lat": 38.905015, "lon": -77.02956033333334, "bike_id": "48d10f91578cf45402b3d02d994f3302", "rental_uris": {"ios": "https://dc.lft.to/lastmile_qr_scan", "android": "https://dc.lft.to/lastmile_qr_scan"}, "type": "electric_scooter", "fusion_lon": 0.0}, {"is_reserved": 0, "is_disabled": 0, "fusion_lat": 0.0, "name": "dd90e66db483c838696fb6bcccedb986", "lat": 38.90132883333333, "lon": -77.0179245, "bike_id": "dd90e66db483c838696fb6bcccedb986", "rental_uris": {"ios": "https://dc.lft.to/lastmile_qr_scan", "android": "https://dc.lft.to/lastmile_qr_scan"}, "type": "electric_scooter", "fusion_lon": 0.0}, {"is_reserved": 0, "is_disabled": 0, "fusion_lat": 0.0, "name": "b00872c3710de4242a863c2a7a9bbe9e", "lat": 38.9269365, "lon": -77.03566333333333, "bike_id": "b00872c3710de4242a863c2a7a9bbe9e", "rental_uris": {"ios": "https://dc.lft.to/lastmile_qr_scan", "android": "https://dc.lft.to/lastmile_qr_scan"}, "type": "electric_scooter", "fusion_lon": 0.0}, {"is_reserved": 0, "is_disabled": 0, "fusion_lat": 0.0, "name": "bb79c3e056966d7a6d8064991b18dfdc", "lat": 38.91830933333333, "lon": -77.045253, "bike_id": "bb79c3e056966d7a6d8064991b18dfdc", "rental_uris": {"ios": "https://dc.lft.to/lastmile_qr_scan", "android": "https://dc.lft.to/lastmile_qr_scan"}, "type": "electric_scooter", "fusion_lon": 0.0}, {"is_reserved": 0, "is_disabled": 0, "fusion_lat": 0.0, "name": "f269e6123551156f5baf1bf8c4fe28b2", "lat": 38.87852633333333, "lon": -77.0067775, "bike_id": "f269e6123551156f5baf1bf8c4fe28b2", "rental_uris": {"ios": "https://dc.lft.to/lastmile_qr_scan", "android": "https://dc.lft.to/lastmile_qr_scan"}, "type": "electric_scooter", "fusion_lon": 0.0}, {"is_reserved": 0, "is_disabled": 0, "fusion_lat": 0.0, "name": "8b2059ec04c94c434dbb06457e9676af", "lat": 38.932732666666666, "lon": -77.0395355, "bike_id": "8b2059ec04c94c434dbb06457e9676af", "rental_uris": {"ios": "https://dc.lft.to/lastmile_qr_scan", "android": "https://dc.lft.to/lastmile_qr_scan"}, "type": "electric_scooter", "fusion_lon": 0.0}, {"is_reserved": 0, "is_disabled": 0, "fusion_lat": 0.0, "name": "041dc59b01c4a6699f53a31a86358228", "lat": 38.90968733333333, "lon": -77.03335483333333, "bike_id": "041dc59b01c4a6699f53a31a86358228", "rental_uris": {"ios": "https://dc.lft.to/lastmile_qr_scan", "android": "https://dc.lft.to/lastmile_qr_scan"}, "type": "electric_scooter", "fusion_lon": 0.0}, {"is_reserved": 0, "is_disabled": 0, "fusion_lat": 0.0, "name": "f144981aedbad66b7688eb6f7737a79e", "lat": 38.905781833333336, "lon": -77.02993866666667, "bike_id": "f144981aedbad66b7688eb6f7737a79e", "rental_uris": {"ios": "https://dc.lft.to/lastmile_qr_scan", "android": "https://dc.lft.to/lastmile_qr_scan"}, "type": "electric_scooter", "fusion_lon": 0.0}, {"is_reserved": 0, "is_disabled": 0, "fusion_lat": 0.0, "name": "23d317bc42774265080b237973a3daea", "lat": 38.887375, "lon": -77.02208433333334, "bike_id": "23d317bc42774265080b237973a3daea", "rental_uris": {"ios": "https://dc.lft.to/lastmile_qr_scan", "android": "https://dc.lft.to/lastmile_qr_scan"}, "type": "electric_bike", "fusion_lon": 0.0}, {"is_reserved": 0, "is_disabled": 0, "fusion_lat": 0.0, "name": "6af17a95d308cf3589a7fb4ccc8b031d", "lat": 38.91481366666667, "lon": -77.02196466666666, "bike_id": "6af17a95d308cf3589a7fb4ccc8b031d", "rental_uris": {"ios": "https://dc.lft.to/lastmile_qr_scan", "android": "https://dc.lft.to/lastmile_qr_scan"}, "type": "electric_scooter", "fusion_lon": 0.0}, {"is_reserved": 0, "is_disabled": 0, "fusion_lat": 0.0, "name": "3f75faeabb414c0a6482d1ed29103020", "lat": 38.9198835, "lon": -76.97309633333333, "bike_id": "3f75faeabb414c0a6482d1ed29103020", "rental_uris": {"ios": "https://dc.lft.to/lastmile_qr_scan", "android": "https://dc.lft.to/lastmile_qr_scan"}, "type": "electric_scooter", "fusion_lon": 0.0}, {"is_reserved": 0, "is_disabled": 0, "fusion_lat": 0.0, "name": "679141f57cf4e6a8b19ad8d2186b4651", "lat": 38.90748983333334, "lon": -77.04195083333333, "bike_id": "679141f57cf4e6a8b19ad8d2186b4651", "rental_uris": {"ios": "https://dc.lft.to/lastmile_qr_scan", "android": "https://dc.lft.to/lastmile_qr_scan"}, "type": "electric_scooter", "fusion_lon": 0.0}, {"is_reserved": 0, "is_disabled": 0, "fusion_lat": 0.0, "name": "41157b31035e0a4ec6a741ebd8aaf656", "lat": 38.9244085, "lon": -77.02973533333333, "bike_id": "41157b31035e0a4ec6a741ebd8aaf656", "rental_uris": {"ios": "https://dc.lft.to/lastmile_qr_scan", "android": "https://dc.lft.to/lastmile_qr_scan"}, "type": "electric_scooter", "fusion_lon": 0.0}, {"is_reserved": 0, "is_disabled": 0, "fusion_lat": 0.0, "name": "7ac77eef039a56f9ca1d1604d5235f41", "lat": 38.934321, "lon": -77.02418283333333, "bike_id": "7ac77eef039a56f9ca1d1604d5235f41", "rental_uris": {"ios": "https://dc.lft.to/lastmile_qr_scan", "android": "https://dc.lft.to/lastmile_qr_scan"}, "type": "electric_scooter", "fusion_lon": 0.0}, {"is_reserved": 0, "is_disabled": 0, "fusion_lat": 0.0, "name": "9c20799be4584ee7457980d5145863fd", "lat": 38.897728, "lon": -77.02739, "bike_id": "9c20799be4584ee7457980d5145863fd", "rental_uris": {"ios": "https://dc.lft.to/lastmile_qr_scan", "android": "https://dc.lft.to/lastmile_qr_scan"}, "type": "electric_scooter", "fusion_lon": 0.0}, {"is_reserved": 0, "is_disabled": 0, "fusion_lat": 0.0, "name": "b541e52c31d13593c05ae42e30e3864a", "lat": 38.873835666666665, "lon": -77.00129583333333, "bike_id": "b541e52c31d13593c05ae42e30e3864a", "rental_uris": {"ios": "https://dc.lft.to/lastmile_qr_scan", "android": "https://dc.lft.to/lastmile_qr_scan"}, "type": "electric_scooter", "fusion_lon": 0.0}, {"is_reserved": 0, "is_disabled": 0, "fusion_lat": 0.0, "name": "b8aefaa87cbc0a6d6830a3786168c779", "lat": 38.9111635, "lon": -77.04333016666666, "bike_id": "b8aefaa87cbc0a6d6830a3786168c779", "rental_uris": {"ios": "https://dc.lft.to/lastmile_qr_scan", "android": "https://dc.lft.to/lastmile_qr_scan"}, "type": "electric_scooter", "fusion_lon": 0.0}, {"is_reserved": 0, "is_disabled": 0, "fusion_lat": 0.0, "name": "c9b1321558f0b94f42dcd95a801e2dc1", "lat": 38.927866, "lon": -76.97628166666667, "bike_id": "c9b1321558f0b94f42dcd95a801e2dc1", "rental_uris": {"ios": "https://dc.lft.to/lastmile_qr_scan", "android": "https://dc.lft.to/lastmile_qr_scan"}, "type": "electric_scooter", "fusion_lon": 0.0}, {"is_reserved": 0, "is_disabled": 0, "fusion_lat": 0.0, "name": "01aeec6c656922af83e8a96998bc22ef", "lat": 38.86357133333333, "lon": -76.99067016666666, "bike_id": "01aeec6c656922af83e8a96998bc22ef", "rental_uris": {"ios": "https://dc.lft.to/lastmile_qr_scan", "android": "https://dc.lft.to/lastmile_qr_scan"}, "type": "electric_scooter", "fusion_lon": 0.0}, {"is_reserved": 0, "is_disabled": 0, "fusion_lat": 0.0, "name": "da753a8a0502d7394569006507485abe", "lat": 38.90605766666667, "lon": -77.05652833333333, "bike_id": "da753a8a0502d7394569006507485abe", "rental_uris": {"ios": "https://dc.lft.to/lastmile_qr_scan", "android": "https://dc.lft.to/lastmile_qr_scan"}, "type": "electric_scooter", "fusion_lon": 0.0}, {"is_reserved": 0, "is_disabled": 0, "fusion_lat": 0.0, "name": "a93045ed3938493519fbde6f2c5305ca", "lat": 38.83603166666666, "lon": -77.003776, "bike_id": "a93045ed3938493519fbde6f2c5305ca", "rental_uris": {"ios": "https://dc.lft.to/lastmile_qr_scan", "android": "https://dc.lft.to/lastmile_qr_scan"}, "type": "electric_bike", "fusion_lon": 0.0}, {"is_reserved": 0, "is_disabled": 0, "fusion_lat": 0.0, "name": "871d11bb985884d52e45f23d6ae07876", "lat": 38.896826, "lon": -77.0051765, "bike_id": "871d11bb985884d52e45f23d6ae07876", "rental_uris": {"ios": "https://dc.lft.to/lastmile_qr_scan", "android": "https://dc.lft.to/lastmile_qr_scan"}, "type": "electric_scooter", "fusion_lon": 0.0}, {"is_reserved": 0, "is_disabled": 0, "fusion_lat": 0.0, "name": "76ff66436c33c4f93861178d463326f2", "lat": 38.91864666666667, "lon": -77.04487866666666, "bike_id": "76ff66436c33c4f93861178d463326f2", "rental_uris": {"ios": "https://dc.lft.to/lastmile_qr_scan", "android": "https://dc.lft.to/lastmile_qr_scan"}, "type": "electric_scooter", "fusion_lon": 0.0}, {"is_reserved": 0, "is_disabled": 0, "fusion_lat": 0.0, "name": "d3e606c4786939350e84efd65f0a8e98", "lat": 38.93749016666666, "lon": -77.032678, "bike_id": "d3e606c4786939350e84efd65f0a8e98", "rental_uris": {"ios": "https://dc.lft.to/lastmile_qr_scan", "android": "https://dc.lft.to/lastmile_qr_scan"}, "type": "electric_scooter", "fusion_lon": 0.0}, {"is_reserved": 0, "is_disabled": 0, "fusion_lat": 0.0, "name": "5325946b2014e138f161712f5fb49513", "lat": 38.956291, "lon": -77.02428283333333, "bike_id": "5325946b2014e138f161712f5fb49513", "rental_uris": {"ios": "https://dc.lft.to/lastmile_qr_scan", "android": "https://dc.lft.to/lastmile_qr_scan"}, "type": "electric_scooter", "fusion_lon": 0.0}, {"is_reserved": 0, "is_disabled": 0, "fusion_lat": 0.0, "name": "aaa1845cbd418064db09a5425bca1352", "lat": 38.9621535, "lon": -77.02242666666666, "bike_id": "aaa1845cbd418064db09a5425bca1352", "rental_uris": {"ios": "https://dc.lft.to/lastmile_qr_scan", "android": "https://dc.lft.to/lastmile_qr_scan"}, "type": "electric_scooter", "fusion_lon": 0.0}, {"is_reserved": 0, "is_disabled": 0, "fusion_lat": 0.0, "name": "c06be12f37fa9d19a16cc73740e53b68", "lat": 38.898215666666665, "lon": -77.0136815, "bike_id": "c06be12f37fa9d19a16cc73740e53b68", "rental_uris": {"ios": "https://dc.lft.to/lastmile_qr_scan", "android": "https://dc.lft.to/lastmile_qr_scan"}, "type": "electric_scooter", "fusion_lon": 0.0}, {"is_reserved": 0, "is_disabled": 0, "fusion_lat": 0.0, "name": "6129cc028e9440187a361de74249f5d0", "lat": 38.894737166666665, "lon": -77.04533966666666, "bike_id": "6129cc028e9440187a361de74249f5d0", "rental_uris": {"ios": "https://dc.lft.to/lastmile_qr_scan", "android": "https://dc.lft.to/lastmile_qr_scan"}, "type": "electric_scooter", "fusion_lon": 0.0}, {"is_reserved": 0, "is_disabled": 0, "fusion_lat": 0.0, "name": "db486c90a21705b75112a06c9bfde4b3", "lat": 38.90725366666667, "lon": -77.03198433333333, "bike_id": "db486c90a21705b75112a06c9bfde4b3", "rental_uris": {"ios": "https://dc.lft.to/lastmile_qr_scan", "android": "https://dc.lft.to/lastmile_qr_scan"}, "type": "electric_scooter", "fusion_lon": 0.0}, {"is_reserved": 0, "is_disabled": 0, "fusion_lat": 0.0, "name": "4df36bf520af1e0730041822d72f995c", "lat": 38.90718616666667, "lon": -77.01467333333333, "bike_id": "4df36bf520af1e0730041822d72f995c", "rental_uris": {"ios": "https://dc.lft.to/lastmile_qr_scan", "android": "https://dc.lft.to/lastmile_qr_scan"}, "type": "electric_scooter", "fusion_lon": 0.0}, {"is_reserved": 0, "is_disabled": 0, "fusion_lat": 0.0, "name": "f49100bb87d5f516bdeac48210b1bcff", "lat": 38.911895333333334, "lon": -77.01812516666666, "bike_id": "f49100bb87d5f516bdeac48210b1bcff", "rental_uris": {"ios": "https://dc.lft.to/lastmile_qr_scan", "android": "https://dc.lft.to/lastmile_qr_scan"}, "type": "electric_scooter", "fusion_lon": 0.0}, {"is_reserved": 0, "is_disabled": 0, "fusion_lat": 0.0, "name": "bbada6f1e6c0583d1d9e4df49dd13f48", "lat": 38.83379383333333, "lon": -77.00306633333334, "bike_id": "bbada6f1e6c0583d1d9e4df49dd13f48", "rental_uris": {"ios": "https://dc.lft.to/lastmile_qr_scan", "android": "https://dc.lft.to/lastmile_qr_scan"}, "type": "electric_scooter", "fusion_lon": 0.0}, {"is_reserved": 0, "is_disabled": 0, "fusion_lat": 0.0, "name": "0989681382ae444ecfa7f198380a6986", "lat": 38.904195333333334, "lon": -77.02413633333333, "bike_id": "0989681382ae444ecfa7f198380a6986", "rental_uris": {"ios": "https://dc.lft.to/lastmile_qr_scan", "android": "https://dc.lft.to/lastmile_qr_scan"}, "type": "electric_scooter", "fusion_lon": 0.0}, {"is_reserved": 0, "is_disabled": 0, "fusion_lat": 0.0, "name": "5b1b244dc7f9bf1a5512bba847cf6221", "lat": 38.93623516666667, "lon": -77.06352083333333, "bike_id": "5b1b244dc7f9bf1a5512bba847cf6221", "rental_uris": {"ios": "https://dc.lft.to/lastmile_qr_scan", "android": "https://dc.lft.to/lastmile_qr_scan"}, "type": "electric_bike", "fusion_lon": 0.0}, {"is_reserved": 0, "is_disabled": 0, "fusion_lat": 0.0, "name": "3cf51a2ea138758ce9a93aeae7e41322", "lat": 38.91450433333333, "lon": -77.01219116666667, "bike_id": "3cf51a2ea138758ce9a93aeae7e41322", "rental_uris": {"ios": "https://dc.lft.to/lastmile_qr_scan", "android": "https://dc.lft.to/lastmile_qr_scan"}, "type": "electric_scooter", "fusion_lon": 0.0}, {"is_reserved": 0, "is_disabled": 0, "fusion_lat": 0.0, "name": "249d076c99fac2a7048160744dfad54d", "lat": 38.90060483333333, "lon": -77.04440283333334, "bike_id": "249d076c99fac2a7048160744dfad54d", "rental_uris": {"ios": "https://dc.lft.to/lastmile_qr_scan", "android": "https://dc.lft.to/lastmile_qr_scan"}, "type": "electric_scooter", "fusion_lon": 0.0}, {"is_reserved": 0, "is_disabled": 0, "fusion_lat": 0.0, "name": "199ed6d4747abe5d9e74706bf97dd81c", "lat": 38.8871125, "lon": -76.98341333333333, "bike_id": "199ed6d4747abe5d9e74706bf97dd81c", "rental_uris": {"ios": "https://dc.lft.to/lastmile_qr_scan", "android": "https://dc.lft.to/lastmile_qr_scan"}, "type": "electric_scooter", "fusion_lon": 0.0}, {"is_reserved": 0, "is_disabled": 0, "fusion_lat": 0.0, "name": "53287fb2e020e0ce65e230748d45ef2d", "lat": 38.8857925, "lon": -77.0121475, "bike_id": "53287fb2e020e0ce65e230748d45ef2d", "rental_uris": {"ios": "https://dc.lft.to/lastmile_qr_scan", "android": "https://dc.lft.to/lastmile_qr_scan"}, "type": "electric_scooter", "fusion_lon": 0.0}, {"is_reserved": 0, "is_disabled": 0, "fusion_lat": 0.0, "name": "8bdb610a26c44cc1b32a2bb744429cdf", "lat": 38.915897666666666, "lon": -76.98389333333333, "bike_id": "8bdb610a26c44cc1b32a2bb744429cdf", "rental_uris": {"ios": "https://dc.lft.to/lastmile_qr_scan", "android": "https://dc.lft.to/lastmile_qr_scan"}, "type": "electric_scooter", "fusion_lon": 0.0}, {"is_reserved": 0, "is_disabled": 0, "fusion_lat": 0.0, "name": "75138d3339821a008eaf553b6e01d614", "lat": 38.899591666666666, "lon": -77.01620316666667, "bike_id": "75138d3339821a008eaf553b6e01d614", "rental_uris": {"ios": "https://dc.lft.to/lastmile_qr_scan", "android": "https://dc.lft.to/lastmile_qr_scan"}, "type": "electric_scooter", "fusion_lon": 0.0}, {"is_reserved": 0, "is_disabled": 0, "fusion_lat": 0.0, "name": "dea12d84e9b8ea498553971584fceae2", "lat": 38.92080166666667, "lon": -77.02402533333333, "bike_id": "dea12d84e9b8ea498553971584fceae2", "rental_uris": {"ios": "https://dc.lft.to/lastmile_qr_scan", "android": "https://dc.lft.to/lastmile_qr_scan"}, "type": "electric_scooter", "fusion_lon": 0.0}, {"is_reserved": 0, "is_disabled": 0, "fusion_lat": 0.0, "name": "08a23cad1dc8f35c623ae9160fccc74f", "lat": 38.9259725, "lon": -77.025056, "bike_id": "08a23cad1dc8f35c623ae9160fccc74f", "rental_uris": {"ios": "https://dc.lft.to/lastmile_qr_scan", "android": "https://dc.lft.to/lastmile_qr_scan"}, "type": "electric_scooter", "fusion_lon": 0.0}, {"is_reserved": 0, "is_disabled": 0, "fusion_lat": 0.0, "name": "8b5df94958a73498edd13f1229ae3b79", "lat": 38.91132016666667, "lon": -77.02209266666667, "bike_id": "8b5df94958a73498edd13f1229ae3b79", "rental_uris": {"ios": "https://dc.lft.to/lastmile_qr_scan", "android": "https://dc.lft.to/lastmile_qr_scan"}, "type": "electric_scooter", "fusion_lon": 0.0}, {"is_reserved": 0, "is_disabled": 0, "fusion_lat": 0.0, "name": "185ed24f19c909dd8e5cb217f82b3319", "lat": 38.908136999999996, "lon": -77.08422383333334, "bike_id": "185ed24f19c909dd8e5cb217f82b3319", "rental_uris": {"ios": "https://dc.lft.to/lastmile_qr_scan", "android": "https://dc.lft.to/lastmile_qr_scan"}, "type": "electric_scooter", "fusion_lon": 0.0}, {"is_reserved": 0, "is_disabled": 0, "fusion_lat": 0.0, "name": "e2087df378c4b1d9b08c742128d40108", "lat": 38.92474266666667, "lon": -77.02218183333333, "bike_id": "e2087df378c4b1d9b08c742128d40108", "rental_uris": {"ios": "https://dc.lft.to/lastmile_qr_scan", "android": "https://dc.lft.to/lastmile_qr_scan"}, "type": "electric_scooter", "fusion_lon": 0.0}, {"is_reserved": 0, "is_disabled": 0, "fusion_lat": 0.0, "name": "6383aa890b67612178dad5403b256796", "lat": 38.92054483333333, "lon": -77.02298333333333, "bike_id": "6383aa890b67612178dad5403b256796", "rental_uris": {"ios": "https://dc.lft.to/lastmile_qr_scan", "android": "https://dc.lft.to/lastmile_qr_scan"}, "type": "electric_scooter", "fusion_lon": 0.0}, {"is_reserved": 0, "is_disabled": 0, "fusion_lat": 0.0, "name": "554ea3b5169cadf718ccbe236b1a848a", "lat": 38.904669, "lon": -77.04359633333333, "bike_id": "554ea3b5169cadf718ccbe236b1a848a", "rental_uris": {"ios": "https://dc.lft.to/lastmile_qr_scan", "android": "https://dc.lft.to/lastmile_qr_scan"}, "type": "electric_scooter", "fusion_lon": 0.0}, {"is_reserved": 0, "is_disabled": 0, "fusion_lat": 0.0, "name": "9bbd6386bebbee4165da5c0d3f011e0d", "lat": 38.91172666666667, "lon": -77.03189583333334, "bike_id": "9bbd6386bebbee4165da5c0d3f011e0d", "rental_uris": {"ios": "https://dc.lft.to/lastmile_qr_scan", "android": "https://dc.lft.to/lastmile_qr_scan"}, "type": "electric_scooter", "fusion_lon": 0.0}, {"is_reserved": 0, "is_disabled": 0, "fusion_lat": 0.0, "name": "e22b5c90f95cfa7d8f1360a3c03e02d5", "lat": 38.91555783333333, "lon": -77.03263483333333, "bike_id": "e22b5c90f95cfa7d8f1360a3c03e02d5", "rental_uris": {"ios": "https://dc.lft.to/lastmile_qr_scan", "android": "https://dc.lft.to/lastmile_qr_scan"}, "type": "electric_scooter", "fusion_lon": 0.0}, {"is_reserved": 0, "is_disabled": 0, "fusion_lat": 0.0, "name": "7ea7d6d5a4222ac72e7d3ca743e3ae9a", "lat": 38.884283, "lon": -77.03048783333334, "bike_id": "7ea7d6d5a4222ac72e7d3ca743e3ae9a", "rental_uris": {"ios": "https://dc.lft.to/lastmile_qr_scan", "android": "https://dc.lft.to/lastmile_qr_scan"}, "type": "electric_scooter", "fusion_lon": 0.0}, {"is_reserved": 0, "is_disabled": 0, "fusion_lat": 0.0, "name": "6f94674e298bdca9d7fb45de76cdcf5a", "lat": 38.924257, "lon": -77.02132433333334, "bike_id": "6f94674e298bdca9d7fb45de76cdcf5a", "rental_uris": {"ios": "https://dc.lft.to/lastmile_qr_scan", "android": "https://dc.lft.to/lastmile_qr_scan"}, "type": "electric_scooter", "fusion_lon": 0.0}, {"is_reserved": 0, "is_disabled": 0, "fusion_lat": 0.0, "name": "3b5925abebf4fb5274ebe057196d6282", "lat": 38.84672583333333, "lon": -77.1393755, "bike_id": "3b5925abebf4fb5274ebe057196d6282", "rental_uris": {"ios": "https://dc.lft.to/lastmile_qr_scan", "android": "https://dc.lft.to/lastmile_qr_scan"}, "type": "electric_bike", "fusion_lon": 0.0}, {"is_reserved": 0, "is_disabled": 0, "fusion_lat": 0.0, "name": "a35f836704403760d5669e9f7ee47c26", "lat": 38.9011545, "lon": -77.03140816666667, "bike_id": "a35f836704403760d5669e9f7ee47c26", "rental_uris": {"ios": "https://dc.lft.to/lastmile_qr_scan", "android": "https://dc.lft.to/lastmile_qr_scan"}, "type": "electric_scooter", "fusion_lon": 0.0}, {"is_reserved": 0, "is_disabled": 0, "fusion_lat": 0.0, "name": "1beeb0be9189e36bede799442ad71d22", "lat": 38.8763295, "lon": -77.00952933333333, "bike_id": "1beeb0be9189e36bede799442ad71d22", "rental_uris": {"ios": "https://dc.lft.to/lastmile_qr_scan", "android": "https://dc.lft.to/lastmile_qr_scan"}, "type": "electric_scooter", "fusion_lon": 0.0}, {"is_reserved": 0, "is_disabled": 0, "fusion_lat": 0.0, "name": "69c12102a5841ccae3ecc14f7b877627", "lat": 38.9186, "lon": -77.01564166666667, "bike_id": "69c12102a5841ccae3ecc14f7b877627", "rental_uris": {"ios": "https://dc.lft.to/lastmile_qr_scan", "android": "https://dc.lft.to/lastmile_qr_scan"}, "type": "electric_scooter", "fusion_lon": 0.0}, {"is_reserved": 0, "is_disabled": 0, "fusion_lat": 0.0, "name": "ddf7ca76ff2519a54a6552f26dde471a", "lat": 38.89098083333333, "lon": -76.9883605, "bike_id": "ddf7ca76ff2519a54a6552f26dde471a", "rental_uris": {"ios": "https://dc.lft.to/lastmile_qr_scan", "android": "https://dc.lft.to/lastmile_qr_scan"}, "type": "electric_scooter", "fusion_lon": 0.0}, {"is_reserved": 0, "is_disabled": 0, "fusion_lat": 0.0, "name": "b79f38fa4ea97f383be054c2e8bd4595", "lat": 38.886313333333334, "lon": -76.98181216666667, "bike_id": "b79f38fa4ea97f383be054c2e8bd4595", "rental_uris": {"ios": "https://dc.lft.to/lastmile_qr_scan", "android": "https://dc.lft.to/lastmile_qr_scan"}, "type": "electric_scooter", "fusion_lon": 0.0}, {"is_reserved": 0, "is_disabled": 0, "fusion_lat": 0.0, "name": "50dca8a2634035c4320dd76586c61ed2", "lat": 38.91252933333333, "lon": -76.98353183333333, "bike_id": "50dca8a2634035c4320dd76586c61ed2", "rental_uris": {"ios": "https://dc.lft.to/lastmile_qr_scan", "android": "https://dc.lft.to/lastmile_qr_scan"}, "type": "electric_scooter", "fusion_lon": 0.0}, {"is_reserved": 0, "is_disabled": 0, "fusion_lat": 0.0, "name": "60077849e3e9422a41b322f3b0048d53", "lat": 38.91814466666666, "lon": -77.03727466666666, "bike_id": "60077849e3e9422a41b322f3b0048d53", "rental_uris": {"ios": "https://dc.lft.to/lastmile_qr_scan", "android": "https://dc.lft.to/lastmile_qr_scan"}, "type": "electric_scooter", "fusion_lon": 0.0}, {"is_reserved": 0, "is_disabled": 0, "fusion_lat": 0.0, "name": "57ff46d1b27069e2e588c1415d1cc27e", "lat": 38.926267, "lon": -77.03526683333334, "bike_id": "57ff46d1b27069e2e588c1415d1cc27e", "rental_uris": {"ios": "https://dc.lft.to/lastmile_qr_scan", "android": "https://dc.lft.to/lastmile_qr_scan"}, "type": "electric_scooter", "fusion_lon": 0.0}, {"is_reserved": 0, "is_disabled": 0, "fusion_lat": 0.0, "name": "d22b7d6c6a54ed8509de7d9616bca243", "lat": 38.9158645, "lon": -76.98409916666667, "bike_id": "d22b7d6c6a54ed8509de7d9616bca243", "rental_uris": {"ios": "https://dc.lft.to/lastmile_qr_scan", "android": "https://dc.lft.to/lastmile_qr_scan"}, "type": "electric_scooter", "fusion_lon": 0.0}, {"is_reserved": 0, "is_disabled": 0, "fusion_lat": 0.0, "name": "471c24b4982c401c569b5de3778c254b", "lat": 38.91665666666667, "lon": -77.04208233333334, "bike_id": "471c24b4982c401c569b5de3778c254b", "rental_uris": {"ios": "https://dc.lft.to/lastmile_qr_scan", "android": "https://dc.lft.to/lastmile_qr_scan"}, "type": "electric_scooter", "fusion_lon": 0.0}, {"is_reserved": 0, "is_disabled": 0, "fusion_lat": 0.0, "name": "559821ed07670618d7315003dc6e1808", "lat": 38.924783, "lon": -77.02572766666667, "bike_id": "559821ed07670618d7315003dc6e1808", "rental_uris": {"ios": "https://dc.lft.to/lastmile_qr_scan", "android": "https://dc.lft.to/lastmile_qr_scan"}, "type": "electric_scooter", "fusion_lon": 0.0}, {"is_reserved": 0, "is_disabled": 0, "fusion_lat": 0.0, "name": "e76d3b45656fcb68bdfa109dc072f8be", "lat": 38.9020275, "lon": -77.04688866666666, "bike_id": "e76d3b45656fcb68bdfa109dc072f8be", "rental_uris": {"ios": "https://dc.lft.to/lastmile_qr_scan", "android": "https://dc.lft.to/lastmile_qr_scan"}, "type": "electric_scooter", "fusion_lon": 0.0}, {"is_reserved": 0, "is_disabled": 0, "fusion_lat": 0.0, "name": "145d35d725318d1d1856cd96a9efe5c7", "lat": 38.876305, "lon": -77.0058455, "bike_id": "145d35d725318d1d1856cd96a9efe5c7", "rental_uris": {"ios": "https://dc.lft.to/lastmile_qr_scan", "android": "https://dc.lft.to/lastmile_qr_scan"}, "type": "electric_scooter", "fusion_lon": 0.0}, {"is_reserved": 0, "is_disabled": 0, "fusion_lat": 0.0, "name": "f2684f00895eecbb535cb2bfc88072f5", "lat": 38.91875733333333, "lon": -77.03539616666667, "bike_id": "f2684f00895eecbb535cb2bfc88072f5", "rental_uris": {"ios": "https://dc.lft.to/lastmile_qr_scan", "android": "https://dc.lft.to/lastmile_qr_scan"}, "type": "electric_scooter", "fusion_lon": 0.0}, {"is_reserved": 0, "is_disabled": 0, "fusion_lat": 0.0, "name": "5aefa19fb20f2e48e4499869f11bf8bf", "lat": 38.87655216666667, "lon": -77.00756266666667, "bike_id": "5aefa19fb20f2e48e4499869f11bf8bf", "rental_uris": {"ios": "https://dc.lft.to/lastmile_qr_scan", "android": "https://dc.lft.to/lastmile_qr_scan"}, "type": "electric_scooter", "fusion_lon": 0.0}, {"is_reserved": 0, "is_disabled": 0, "fusion_lat": 0.0, "name": "eeeb0dc537fe6a70f4f8493a1bf2ee79", "lat": 38.88726666666667, "lon": -76.99609016666666, "bike_id": "eeeb0dc537fe6a70f4f8493a1bf2ee79", "rental_uris": {"ios": "https://dc.lft.to/lastmile_qr_scan", "android": "https://dc.lft.to/lastmile_qr_scan"}, "type": "electric_scooter", "fusion_lon": 0.0}, {"is_reserved": 0, "is_disabled": 0, "fusion_lat": 0.0, "name": "d0588961bbeaabf859caa980ab70b116", "lat": 38.902351833333334, "lon": -77.002006, "bike_id": "d0588961bbeaabf859caa980ab70b116", "rental_uris": {"ios": "https://dc.lft.to/lastmile_qr_scan", "android": "https://dc.lft.to/lastmile_qr_scan"}, "type": "electric_scooter", "fusion_lon": 0.0}, {"is_reserved": 0, "is_disabled": 0, "fusion_lat": 0.0, "name": "9208aecd71c6e5b8260e3b9af5133a54", "lat": 38.935806666666664, "lon": -77.07435483333333, "bike_id": "9208aecd71c6e5b8260e3b9af5133a54", "rental_uris": {"ios": "https://dc.lft.to/lastmile_qr_scan", "android": "https://dc.lft.to/lastmile_qr_scan"}, "type": "electric_scooter", "fusion_lon": 0.0}, {"is_reserved": 0, "is_disabled": 0, "fusion_lat": 0.0, "name": "ee308cab970547c455140a7651dbf797", "lat": 38.90773566666667, "lon": -77.03531566666666, "bike_id": "ee308cab970547c455140a7651dbf797", "rental_uris": {"ios": "https://dc.lft.to/lastmile_qr_scan", "android": "https://dc.lft.to/lastmile_qr_scan"}, "type": "electric_scooter", "fusion_lon": 0.0}, {"is_reserved": 0, "is_disabled": 0, "fusion_lat": 0.0, "name": "e12e5c6d7d48d04fe5df7a774aa85de7", "lat": 38.89216233333333, "lon": -77.02628983333334, "bike_id": "e12e5c6d7d48d04fe5df7a774aa85de7", "rental_uris": {"ios": "https://dc.lft.to/lastmile_qr_scan", "android": "https://dc.lft.to/lastmile_qr_scan"}, "type": "electric_scooter", "fusion_lon": 0.0}, {"is_reserved": 0, "is_disabled": 0, "fusion_lat": 0.0, "name": "0676c0ac9ed0617b28f47304929cffc4", "lat": 38.89264416666666, "lon": -77.015248, "bike_id": "0676c0ac9ed0617b28f47304929cffc4", "rental_uris": {"ios": "https://dc.lft.to/lastmile_qr_scan", "android": "https://dc.lft.to/lastmile_qr_scan"}, "type": "electric_scooter", "fusion_lon": 0.0}, {"is_reserved": 0, "is_disabled": 0, "fusion_lat": 0.0, "name": "1d60255a3f70126cd2af368f96252def", "lat": 38.842756333333334, "lon": -76.98845, "bike_id": "1d60255a3f70126cd2af368f96252def", "rental_uris": {"ios": "https://dc.lft.to/lastmile_qr_scan", "android": "https://dc.lft.to/lastmile_qr_scan"}, "type": "electric_bike", "fusion_lon": 0.0}, {"is_reserved": 0, "is_disabled": 0, "fusion_lat": 0.0, "name": "bc696769ff28ec4cf8dd01578ef62bcc", "lat": 38.92064233333333, "lon": -77.02486716666667, "bike_id": "bc696769ff28ec4cf8dd01578ef62bcc", "rental_uris": {"ios": "https://dc.lft.to/lastmile_qr_scan", "android": "https://dc.lft.to/lastmile_qr_scan"}, "type": "electric_scooter", "fusion_lon": 0.0}, {"is_reserved": 0, "is_disabled": 0, "fusion_lat": 0.0, "name": "7028305b6015cd6849f1406a000cdf25", "lat": 38.89943533333334, "lon": -77.0231025, "bike_id": "7028305b6015cd6849f1406a000cdf25", "rental_uris": {"ios": "https://dc.lft.to/lastmile_qr_scan", "android": "https://dc.lft.to/lastmile_qr_scan"}, "type": "electric_scooter", "fusion_lon": 0.0}, {"is_reserved": 0, "is_disabled": 0, "fusion_lat": 0.0, "name": "ab10d35827eef80fa4a79b0d0dcbe615", "lat": 38.90134833333333, "lon": -77.0415935, "bike_id": "ab10d35827eef80fa4a79b0d0dcbe615", "rental_uris": {"ios": "https://dc.lft.to/lastmile_qr_scan", "android": "https://dc.lft.to/lastmile_qr_scan"}, "type": "electric_scooter", "fusion_lon": 0.0}, {"is_reserved": 0, "is_disabled": 0, "fusion_lat": 0.0, "name": "fdb1f575dd83c4c24013edfb3081aa05", "lat": 38.916802, "lon": -77.02805916666667, "bike_id": "fdb1f575dd83c4c24013edfb3081aa05", "rental_uris": {"ios": "https://dc.lft.to/lastmile_qr_scan", "android": "https://dc.lft.to/lastmile_qr_scan"}, "type": "electric_scooter", "fusion_lon": 0.0}, {"is_reserved": 0, "is_disabled": 0, "fusion_lat": 0.0, "name": "5e5fc4fba53de2f8087e2a3aacd412b8", "lat": 38.97240633333333, "lon": -77.01582433333333, "bike_id": "5e5fc4fba53de2f8087e2a3aacd412b8", "rental_uris": {"ios": "https://dc.lft.to/lastmile_qr_scan", "android": "https://dc.lft.to/lastmile_qr_scan"}, "type": "electric_bike", "fusion_lon": 0.0}, {"is_reserved": 0, "is_disabled": 0, "fusion_lat": 0.0, "name": "d0d8118b4c55a7d6daeebc72788ee907", "lat": 38.92402666666667, "lon": -77.027408, "bike_id": "d0d8118b4c55a7d6daeebc72788ee907", "rental_uris": {"ios": "https://dc.lft.to/lastmile_qr_scan", "android": "https://dc.lft.to/lastmile_qr_scan"}, "type": "electric_scooter", "fusion_lon": 0.0}, {"is_reserved": 0, "is_disabled": 0, "fusion_lat": 0.0, "name": "79aaef9aa7775e026b9a5caf9769dd3c", "lat": 38.91979166666667, "lon": -77.04124, "bike_id": "79aaef9aa7775e026b9a5caf9769dd3c", "rental_uris": {"ios": "https://dc.lft.to/lastmile_qr_scan", "android": "https://dc.lft.to/lastmile_qr_scan"}, "type": "electric_scooter", "fusion_lon": 0.0}, {"is_reserved": 0, "is_disabled": 0, "fusion_lat": 0.0, "name": "499c05c5c26c039bd7c3c91d0e642c65", "lat": 38.90734633333334, "lon": -77.02594633333334, "bike_id": "499c05c5c26c039bd7c3c91d0e642c65", "rental_uris": {"ios": "https://dc.lft.to/lastmile_qr_scan", "android": "https://dc.lft.to/lastmile_qr_scan"}, "type": "electric_scooter", "fusion_lon": 0.0}, {"is_reserved": 0, "is_disabled": 0, "fusion_lat": 0.0, "name": "9c005f04d4f85555e66dcfccc5deccbf", "lat": 38.901784, "lon": -77.047302, "bike_id": "9c005f04d4f85555e66dcfccc5deccbf", "rental_uris": {"ios": "https://dc.lft.to/lastmile_qr_scan", "android": "https://dc.lft.to/lastmile_qr_scan"}, "type": "electric_scooter", "fusion_lon": 0.0}, {"is_reserved": 0, "is_disabled": 0, "fusion_lat": 0.0, "name": "fee4fb97b9902f16d59b8186db996de7", "lat": 38.92414316666667, "lon": -77.02132433333334, "bike_id": "fee4fb97b9902f16d59b8186db996de7", "rental_uris": {"ios": "https://dc.lft.to/lastmile_qr_scan", "android": "https://dc.lft.to/lastmile_qr_scan"}, "type": "electric_scooter", "fusion_lon": 0.0}, {"is_reserved": 0, "is_disabled": 0, "fusion_lat": 0.0, "name": "d446716dd20bfab2bc586c48dba0c0a4", "lat": 38.9018115, "lon": -77.05008816666667, "bike_id": "d446716dd20bfab2bc586c48dba0c0a4", "rental_uris": {"ios": "https://dc.lft.to/lastmile_qr_scan", "android": "https://dc.lft.to/lastmile_qr_scan"}, "type": "electric_scooter", "fusion_lon": 0.0}, {"is_reserved": 0, "is_disabled": 0, "fusion_lat": 0.0, "name": "8a4c60c18bf6cbf1941828d3c0137154", "lat": 38.90411, "lon": -77.03441583333333, "bike_id": "8a4c60c18bf6cbf1941828d3c0137154", "rental_uris": {"ios": "https://dc.lft.to/lastmile_qr_scan", "android": "https://dc.lft.to/lastmile_qr_scan"}, "type": "electric_scooter", "fusion_lon": 0.0}, {"is_reserved": 0, "is_disabled": 0, "fusion_lat": 0.0, "name": "37bfc2d3028c0726e806ee5074947add", "lat": 38.91700066666667, "lon": -77.0312855, "bike_id": "37bfc2d3028c0726e806ee5074947add", "rental_uris": {"ios": "https://dc.lft.to/lastmile_qr_scan", "android": "https://dc.lft.to/lastmile_qr_scan"}, "type": "electric_scooter", "fusion_lon": 0.0}, {"is_reserved": 0, "is_disabled": 0, "fusion_lat": 0.0, "name": "f7a5526ee6f3ff183abecaeca7d2814b", "lat": 38.90733133333333, "lon": -77.023315, "bike_id": "f7a5526ee6f3ff183abecaeca7d2814b", "rental_uris": {"ios": "https://dc.lft.to/lastmile_qr_scan", "android": "https://dc.lft.to/lastmile_qr_scan"}, "type": "electric_scooter", "fusion_lon": 0.0}, {"is_reserved": 0, "is_disabled": 0, "fusion_lat": 0.0, "name": "47d7fec7b6b3ccd8bbae390b1e663327", "lat": 38.8922325, "lon": -77.04868216666667, "bike_id": "47d7fec7b6b3ccd8bbae390b1e663327", "rental_uris": {"ios": "https://dc.lft.to/lastmile_qr_scan", "android": "https://dc.lft.to/lastmile_qr_scan"}, "type": "electric_scooter", "fusion_lon": 0.0}, {"is_reserved": 0, "is_disabled": 0, "fusion_lat": 0.0, "name": "03da4b17e44a76258f92c9316171dfd2", "lat": 38.89741033333333, "lon": -77.049503, "bike_id": "03da4b17e44a76258f92c9316171dfd2", "rental_uris": {"ios": "https://dc.lft.to/lastmile_qr_scan", "android": "https://dc.lft.to/lastmile_qr_scan"}, "type": "electric_scooter", "fusion_lon": 0.0}, {"is_reserved": 0, "is_disabled": 0, "fusion_lat": 0.0, "name": "c70d2cf749cdacdfa76ed7b5a1d210b7", "lat": 38.919502333333334, "lon": -77.0478415, "bike_id": "c70d2cf749cdacdfa76ed7b5a1d210b7", "rental_uris": {"ios": "https://dc.lft.to/lastmile_qr_scan", "android": "https://dc.lft.to/lastmile_qr_scan"}, "type": "electric_scooter", "fusion_lon": 0.0}, {"is_reserved": 0, "is_disabled": 0, "fusion_lat": 0.0, "name": "6f6c42e091dd7043f1fb974267f30ca4", "lat": 38.92425466666667, "lon": -77.04044316666666, "bike_id": "6f6c42e091dd7043f1fb974267f30ca4", "rental_uris": {"ios": "https://dc.lft.to/lastmile_qr_scan", "android": "https://dc.lft.to/lastmile_qr_scan"}, "type": "electric_scooter", "fusion_lon": 0.0}, {"is_reserved": 0, "is_disabled": 0, "fusion_lat": 0.0, "name": "171d9810c3cc980ac9f71d59bba3e190", "lat": 38.916824166666665, "lon": -77.02900633333333, "bike_id": "171d9810c3cc980ac9f71d59bba3e190", "rental_uris": {"ios": "https://dc.lft.to/lastmile_qr_scan", "android": "https://dc.lft.to/lastmile_qr_scan"}, "type": "electric_scooter", "fusion_lon": 0.0}, {"is_reserved": 0, "is_disabled": 0, "fusion_lat": 0.0, "name": "fa9ed095ceca3c70bb18b33742f41833", "lat": 38.90737716666667, "lon": -77.000948, "bike_id": "fa9ed095ceca3c70bb18b33742f41833", "rental_uris": {"ios": "https://dc.lft.to/lastmile_qr_scan", "android": "https://dc.lft.to/lastmile_qr_scan"}, "type": "electric_scooter", "fusion_lon": 0.0}, {"is_reserved": 0, "is_disabled": 0, "fusion_lat": 0.0, "name": "12acf1cf0f6666e02672ea5205866c10", "lat": 38.909541833333336, "lon": -77.01275916666667, "bike_id": "12acf1cf0f6666e02672ea5205866c10", "rental_uris": {"ios": "https://dc.lft.to/lastmile_qr_scan", "android": "https://dc.lft.to/lastmile_qr_scan"}, "type": "electric_scooter", "fusion_lon": 0.0}, {"is_reserved": 0, "is_disabled": 0, "fusion_lat": 0.0, "name": "3e31f4040bb9d37cfc37e531dca24362", "lat": 38.88859133333333, "lon": -77.001832, "bike_id": "3e31f4040bb9d37cfc37e531dca24362", "rental_uris": {"ios": "https://dc.lft.to/lastmile_qr_scan", "android": "https://dc.lft.to/lastmile_qr_scan"}, "type": "electric_scooter", "fusion_lon": 0.0}, {"is_reserved": 0, "is_disabled": 0, "fusion_lat": 0.0, "name": "fdbd22f86d4aa2107b6ad75375334ebd", "lat": 38.919789, "lon": -77.02361733333333, "bike_id": "fdbd22f86d4aa2107b6ad75375334ebd", "rental_uris": {"ios": "https://dc.lft.to/lastmile_qr_scan", "android": "https://dc.lft.to/lastmile_qr_scan"}, "type": "electric_scooter", "fusion_lon": 0.0}, {"is_reserved": 0, "is_disabled": 0, "fusion_lat": 0.0, "name": "b8d8feec08bae749d8f8576acdca74d8", "lat": 38.920943666666666, "lon": -77.03186066666666, "bike_id": "b8d8feec08bae749d8f8576acdca74d8", "rental_uris": {"ios": "https://dc.lft.to/lastmile_qr_scan", "android": "https://dc.lft.to/lastmile_qr_scan"}, "type": "electric_scooter", "fusion_lon": 0.0}, {"is_reserved": 0, "is_disabled": 0, "fusion_lat": 0.0, "name": "471e5c9e8ac72a294775d11858bed8f6", "lat": 38.916373166666666, "lon": -77.03204616666666, "bike_id": "471e5c9e8ac72a294775d11858bed8f6", "rental_uris": {"ios": "https://dc.lft.to/lastmile_qr_scan", "android": "https://dc.lft.to/lastmile_qr_scan"}, "type": "electric_scooter", "fusion_lon": 0.0}, {"is_reserved": 0, "is_disabled": 0, "fusion_lat": 0.0, "name": "5256d3325ec749673aec6d0ad0210d2a", "lat": 38.9140045, "lon": -77.03213066666666, "bike_id": "5256d3325ec749673aec6d0ad0210d2a", "rental_uris": {"ios": "https://dc.lft.to/lastmile_qr_scan", "android": "https://dc.lft.to/lastmile_qr_scan"}, "type": "electric_scooter", "fusion_lon": 0.0}, {"is_reserved": 0, "is_disabled": 0, "fusion_lat": 0.0, "name": "43560954717a08308fe934061a584b7e", "lat": 38.900621666666666, "lon": -77.03651816666667, "bike_id": "43560954717a08308fe934061a584b7e", "rental_uris": {"ios": "https://dc.lft.to/lastmile_qr_scan", "android": "https://dc.lft.to/lastmile_qr_scan"}, "type": "electric_scooter", "fusion_lon": 0.0}, {"is_reserved": 0, "is_disabled": 0, "fusion_lat": 0.0, "name": "9e4acb1cca710d4ab2a1a3b3270c6760", "lat": 38.916948166666664, "lon": -77.027245, "bike_id": "9e4acb1cca710d4ab2a1a3b3270c6760", "rental_uris": {"ios": "https://dc.lft.to/lastmile_qr_scan", "android": "https://dc.lft.to/lastmile_qr_scan"}, "type": "electric_scooter", "fusion_lon": 0.0}, {"is_reserved": 0, "is_disabled": 0, "fusion_lat": 0.0, "name": "148404b7c73830d5ab97763a0fe76632", "lat": 38.902625666666665, "lon": -77.030284, "bike_id": "148404b7c73830d5ab97763a0fe76632", "rental_uris": {"ios": "https://dc.lft.to/lastmile_qr_scan", "android": "https://dc.lft.to/lastmile_qr_scan"}, "type": "electric_scooter", "fusion_lon": 0.0}, {"is_reserved": 0, "is_disabled": 0, "fusion_lat": 0.0, "name": "46c92840b8c0b3a340b753aa65b38fdb", "lat": 38.921676, "lon": -77.02111183333334, "bike_id": "46c92840b8c0b3a340b753aa65b38fdb", "rental_uris": {"ios": "https://dc.lft.to/lastmile_qr_scan", "android": "https://dc.lft.to/lastmile_qr_scan"}, "type": "electric_scooter", "fusion_lon": 0.0}, {"is_reserved": 0, "is_disabled": 0, "fusion_lat": 0.0, "name": "2e8a52da2584bda7aca8c4389237ca57", "lat": 38.909885833333334, "lon": -77.03848083333334, "bike_id": "2e8a52da2584bda7aca8c4389237ca57", "rental_uris": {"ios": "https://dc.lft.to/lastmile_qr_scan", "android": "https://dc.lft.to/lastmile_qr_scan"}, "type": "electric_scooter", "fusion_lon": 0.0}, {"is_reserved": 0, "is_disabled": 0, "fusion_lat": 0.0, "name": "fb5af8223e1a282acabe64165a8b5831", "lat": 38.872887, "lon": -77.00986833333333, "bike_id": "fb5af8223e1a282acabe64165a8b5831", "rental_uris": {"ios": "https://dc.lft.to/lastmile_qr_scan", "android": "https://dc.lft.to/lastmile_qr_scan"}, "type": "electric_scooter", "fusion_lon": 0.0}, {"is_reserved": 0, "is_disabled": 0, "fusion_lat": 0.0, "name": "da6bdbdb0920c5403bcbaf133cd3e9ee", "lat": 38.9283515, "lon": -77.01412633333334, "bike_id": "da6bdbdb0920c5403bcbaf133cd3e9ee", "rental_uris": {"ios": "https://dc.lft.to/lastmile_qr_scan", "android": "https://dc.lft.to/lastmile_qr_scan"}, "type": "electric_scooter", "fusion_lon": 0.0}, {"is_reserved": 0, "is_disabled": 0, "fusion_lat": 0.0, "name": "97ec5b5e9c1386279bc5f26a1b9599b4", "lat": 38.930014, "lon": -77.0211745, "bike_id": "97ec5b5e9c1386279bc5f26a1b9599b4", "rental_uris": {"ios": "https://dc.lft.to/lastmile_qr_scan", "android": "https://dc.lft.to/lastmile_qr_scan"}, "type": "electric_scooter", "fusion_lon": 0.0}, {"is_reserved": 0, "is_disabled": 0, "fusion_lat": 0.0, "name": "144178ca058c5b0c684fcaf905843d4d", "lat": 38.90188083333334, "lon": -76.9767465, "bike_id": "144178ca058c5b0c684fcaf905843d4d", "rental_uris": {"ios": "https://dc.lft.to/lastmile_qr_scan", "android": "https://dc.lft.to/lastmile_qr_scan"}, "type": "electric_scooter", "fusion_lon": 0.0}, {"is_reserved": 0, "is_disabled": 0, "fusion_lat": 0.0, "name": "e6fa79f662606af9db6801cafca1f3fc", "lat": 38.90297833333333, "lon": -76.99842933333333, "bike_id": "e6fa79f662606af9db6801cafca1f3fc", "rental_uris": {"ios": "https://dc.lft.to/lastmile_qr_scan", "android": "https://dc.lft.to/lastmile_qr_scan"}, "type": "electric_scooter", "fusion_lon": 0.0}, {"is_reserved": 0, "is_disabled": 0, "fusion_lat": 0.0, "name": "07e84cc8df6189ea79296594cebf584f", "lat": 38.92754133333333, "lon": -77.02117266666667, "bike_id": "07e84cc8df6189ea79296594cebf584f", "rental_uris": {"ios": "https://dc.lft.to/lastmile_qr_scan", "android": "https://dc.lft.to/lastmile_qr_scan"}, "type": "electric_scooter", "fusion_lon": 0.0}, {"is_reserved": 0, "is_disabled": 0, "fusion_lat": 0.0, "name": "b8f5156c9eb6466aed46abb60b200d5e", "lat": 38.89956316666667, "lon": -76.9856355, "bike_id": "b8f5156c9eb6466aed46abb60b200d5e", "rental_uris": {"ios": "https://dc.lft.to/lastmile_qr_scan", "android": "https://dc.lft.to/lastmile_qr_scan"}, "type": "electric_scooter", "fusion_lon": 0.0}, {"is_reserved": 0, "is_disabled": 0, "fusion_lat": 0.0, "name": "b849f798513f73c7fc316ef915b9f84b", "lat": 38.9058335, "lon": -77.007001, "bike_id": "b849f798513f73c7fc316ef915b9f84b", "rental_uris": {"ios": "https://dc.lft.to/lastmile_qr_scan", "android": "https://dc.lft.to/lastmile_qr_scan"}, "type": "electric_scooter", "fusion_lon": 0.0}, {"is_reserved": 0, "is_disabled": 0, "fusion_lat": 0.0, "name": "79390fd0b515cda8dae3f248173f2d28", "lat": 38.933323333333334, "lon": -77.05727933333333, "bike_id": "79390fd0b515cda8dae3f248173f2d28", "rental_uris": {"ios": "https://dc.lft.to/lastmile_qr_scan", "android": "https://dc.lft.to/lastmile_qr_scan"}, "type": "electric_scooter", "fusion_lon": 0.0}, {"is_reserved": 0, "is_disabled": 0, "fusion_lat": 0.0, "name": "198a4c8d6ce671a09bc88547f2613d5c", "lat": 38.87402483333334, "lon": -76.99991466666667, "bike_id": "198a4c8d6ce671a09bc88547f2613d5c", "rental_uris": {"ios": "https://dc.lft.to/lastmile_qr_scan", "android": "https://dc.lft.to/lastmile_qr_scan"}, "type": "electric_scooter", "fusion_lon": 0.0}, {"is_reserved": 0, "is_disabled": 0, "fusion_lat": 0.0, "name": "8167db54c7adc844cff9a2d5dc7e75d6", "lat": 38.89508883333333, "lon": -76.948836, "bike_id": "8167db54c7adc844cff9a2d5dc7e75d6", "rental_uris": {"ios": "https://dc.lft.to/lastmile_qr_scan", "android": "https://dc.lft.to/lastmile_qr_scan"}, "type": "electric_scooter", "fusion_lon": 0.0}, {"is_reserved": 0, "is_disabled": 0, "fusion_lat": 0.0, "name": "28b871354bcf6ca0fd41b956cb72c136", "lat": 38.902409, "lon": -76.9800655, "bike_id": "28b871354bcf6ca0fd41b956cb72c136", "rental_uris": {"ios": "https://dc.lft.to/lastmile_qr_scan", "android": "https://dc.lft.to/lastmile_qr_scan"}, "type": "electric_scooter", "fusion_lon": 0.0}, {"is_reserved": 0, "is_disabled": 0, "fusion_lat": 0.0, "name": "5051b2d7d764a572b94fd4d04583dba8", "lat": 38.9026995, "lon": -77.04364633333333, "bike_id": "5051b2d7d764a572b94fd4d04583dba8", "rental_uris": {"ios": "https://dc.lft.to/lastmile_qr_scan", "android": "https://dc.lft.to/lastmile_qr_scan"}, "type": "electric_scooter", "fusion_lon": 0.0}, {"is_reserved": 0, "is_disabled": 0, "fusion_lat": 0.0, "name": "282d77d742de703251826e03f98331c0", "lat": 38.94065616666666, "lon": -77.00395083333333, "bike_id": "282d77d742de703251826e03f98331c0", "rental_uris": {"ios": "https://dc.lft.to/lastmile_qr_scan", "android": "https://dc.lft.to/lastmile_qr_scan"}, "type": "electric_scooter", "fusion_lon": 0.0}, {"is_reserved": 0, "is_disabled": 0, "fusion_lat": 0.0, "name": "0f808b68e8dfec652287abf004540cf6", "lat": 38.933967833333334, "lon": -77.056795, "bike_id": "0f808b68e8dfec652287abf004540cf6", "rental_uris": {"ios": "https://dc.lft.to/lastmile_qr_scan", "android": "https://dc.lft.to/lastmile_qr_scan"}, "type": "electric_bike", "fusion_lon": 0.0}, {"is_reserved": 0, "is_disabled": 0, "fusion_lat": 0.0, "name": "760c857678ed2c05ca8fca8dfec067e8", "lat": 38.9076665, "lon": -77.02399983333333, "bike_id": "760c857678ed2c05ca8fca8dfec067e8", "rental_uris": {"ios": "https://dc.lft.to/lastmile_qr_scan", "android": "https://dc.lft.to/lastmile_qr_scan"}, "type": "electric_scooter", "fusion_lon": 0.0}, {"is_reserved": 0, "is_disabled": 0, "fusion_lat": 0.0, "name": "a7fdd9db9f3b13eb3404b826fd378d0b", "lat": 38.88006683333333, "lon": -76.99835433333334, "bike_id": "a7fdd9db9f3b13eb3404b826fd378d0b", "rental_uris": {"ios": "https://dc.lft.to/lastmile_qr_scan", "android": "https://dc.lft.to/lastmile_qr_scan"}, "type": "electric_scooter", "fusion_lon": 0.0}, {"is_reserved": 0, "is_disabled": 0, "fusion_lat": 0.0, "name": "c8dfc81dd647a28e908b8d1ae4390091", "lat": 38.88295016666667, "lon": -76.985581, "bike_id": "c8dfc81dd647a28e908b8d1ae4390091", "rental_uris": {"ios": "https://dc.lft.to/lastmile_qr_scan", "android": "https://dc.lft.to/lastmile_qr_scan"}, "type": "electric_scooter", "fusion_lon": 0.0}, {"is_reserved": 0, "is_disabled": 0, "fusion_lat": 0.0, "name": "88ba33ad71837c6bcc38b78240b32189", "lat": 38.899355, "lon": -76.93759816666666, "bike_id": "88ba33ad71837c6bcc38b78240b32189", "rental_uris": {"ios": "https://dc.lft.to/lastmile_qr_scan", "android": "https://dc.lft.to/lastmile_qr_scan"}, "type": "electric_scooter", "fusion_lon": 0.0}, {"is_reserved": 0, "is_disabled": 0, "fusion_lat": 0.0, "name": "33d9ddd6b89970a2b40e5262d3d8f09f", "lat": 39.034706666666665, "lon": -77.04103116666667, "bike_id": "33d9ddd6b89970a2b40e5262d3d8f09f", "rental_uris": {"ios": "https://dc.lft.to/lastmile_qr_scan", "android": "https://dc.lft.to/lastmile_qr_scan"}, "type": "electric_bike", "fusion_lon": 0.0}, {"is_reserved": 0, "is_disabled": 0, "fusion_lat": 0.0, "name": "adefd8212ee5df077d106f5527bfd45a", "lat": 38.94482266666667, "lon": -77.06400466666666, "bike_id": "adefd8212ee5df077d106f5527bfd45a", "rental_uris": {"ios": "https://dc.lft.to/lastmile_qr_scan", "android": "https://dc.lft.to/lastmile_qr_scan"}, "type": "electric_scooter", "fusion_lon": 0.0}, {"is_reserved": 0, "is_disabled": 0, "fusion_lat": 0.0, "name": "5a44e4441ab6a99964058c811c018748", "lat": 38.89223, "lon": -77.04358483333333, "bike_id": "5a44e4441ab6a99964058c811c018748", "rental_uris": {"ios": "https://dc.lft.to/lastmile_qr_scan", "android": "https://dc.lft.to/lastmile_qr_scan"}, "type": "electric_scooter", "fusion_lon": 0.0}, {"is_reserved": 0, "is_disabled": 0, "fusion_lat": 0.0, "name": "c1fee49aef3a395060628991a4b91674", "lat": 38.8972725, "lon": -77.00332266666666, "bike_id": "c1fee49aef3a395060628991a4b91674", "rental_uris": {"ios": "https://dc.lft.to/lastmile_qr_scan", "android": "https://dc.lft.to/lastmile_qr_scan"}, "type": "electric_scooter", "fusion_lon": 0.0}, {"is_reserved": 0, "is_disabled": 0, "fusion_lat": 0.0, "name": "64187f351a0649086f374661e823cb38", "lat": 38.926943333333334, "lon": -77.03559983333334, "bike_id": "64187f351a0649086f374661e823cb38", "rental_uris": {"ios": "https://dc.lft.to/lastmile_qr_scan", "android": "https://dc.lft.to/lastmile_qr_scan"}, "type": "electric_scooter", "fusion_lon": 0.0}, {"is_reserved": 0, "is_disabled": 0, "fusion_lat": 0.0, "name": "ce5bb07e160b249af5d46fe3adb7699b", "lat": 38.876591833333336, "lon": -77.0075995, "bike_id": "ce5bb07e160b249af5d46fe3adb7699b", "rental_uris": {"ios": "https://dc.lft.to/lastmile_qr_scan", "android": "https://dc.lft.to/lastmile_qr_scan"}, "type": "electric_scooter", "fusion_lon": 0.0}, {"is_reserved": 0, "is_disabled": 0, "fusion_lat": 0.0, "name": "e81cd4ab1980a300615671f1d7ccc49f", "lat": 38.930781833333334, "lon": -77.03805383333334, "bike_id": "e81cd4ab1980a300615671f1d7ccc49f", "rental_uris": {"ios": "https://dc.lft.to/lastmile_qr_scan", "android": "https://dc.lft.to/lastmile_qr_scan"}, "type": "electric_scooter", "fusion_lon": 0.0}, {"is_reserved": 0, "is_disabled": 0, "fusion_lat": 0.0, "name": "a1f5ff8374e78e14187ba25de8c6934d", "lat": 38.92343183333333, "lon": -76.99871583333334, "bike_id": "a1f5ff8374e78e14187ba25de8c6934d", "rental_uris": {"ios": "https://dc.lft.to/lastmile_qr_scan", "android": "https://dc.lft.to/lastmile_qr_scan"}, "type": "electric_scooter", "fusion_lon": 0.0}, {"is_reserved": 0, "is_disabled": 0, "fusion_lat": 0.0, "name": "60b150f3eb31c9c3060b6a1a00532a22", "lat": 38.876312666666664, "lon": -77.00955616666667, "bike_id": "60b150f3eb31c9c3060b6a1a00532a22", "rental_uris": {"ios": "https://dc.lft.to/lastmile_qr_scan", "android": "https://dc.lft.to/lastmile_qr_scan"}, "type": "electric_scooter", "fusion_lon": 0.0}, {"is_reserved": 0, "is_disabled": 0, "fusion_lat": 0.0, "name": "5f8796f9c3d839885c4a85b6946be7a0", "lat": 38.88857, "lon": -76.97906666666667, "bike_id": "5f8796f9c3d839885c4a85b6946be7a0", "rental_uris": {"ios": "https://dc.lft.to/lastmile_qr_scan", "android": "https://dc.lft.to/lastmile_qr_scan"}, "type": "electric_scooter", "fusion_lon": 0.0}, {"is_reserved": 0, "is_disabled": 0, "fusion_lat": 0.0, "name": "a7d00b23ca752a4738af6540fde51558", "lat": 38.9149145, "lon": -77.02277233333334, "bike_id": "a7d00b23ca752a4738af6540fde51558", "rental_uris": {"ios": "https://dc.lft.to/lastmile_qr_scan", "android": "https://dc.lft.to/lastmile_qr_scan"}, "type": "electric_scooter", "fusion_lon": 0.0}, {"is_reserved": 0, "is_disabled": 0, "fusion_lat": 0.0, "name": "3933f191c5f4d06fff87cd3f9ffeb451", "lat": 38.94450483333333, "lon": -77.0290865, "bike_id": "3933f191c5f4d06fff87cd3f9ffeb451", "rental_uris": {"ios": "https://dc.lft.to/lastmile_qr_scan", "android": "https://dc.lft.to/lastmile_qr_scan"}, "type": "electric_scooter", "fusion_lon": 0.0}, {"is_reserved": 0, "is_disabled": 0, "fusion_lat": 0.0, "name": "b0476b40f9ea78d9e310c1e6f1033648", "lat": 38.91800466666667, "lon": -77.04441266666667, "bike_id": "b0476b40f9ea78d9e310c1e6f1033648", "rental_uris": {"ios": "https://dc.lft.to/lastmile_qr_scan", "android": "https://dc.lft.to/lastmile_qr_scan"}, "type": "electric_scooter", "fusion_lon": 0.0}, {"is_reserved": 0, "is_disabled": 0, "fusion_lat": 0.0, "name": "720f68b6f9e450ae67b3e577eb68ad7b", "lat": 38.90089616666667, "lon": -76.9812335, "bike_id": "720f68b6f9e450ae67b3e577eb68ad7b", "rental_uris": {"ios": "https://dc.lft.to/lastmile_qr_scan", "android": "https://dc.lft.to/lastmile_qr_scan"}, "type": "electric_scooter", "fusion_lon": 0.0}, {"is_reserved": 0, "is_disabled": 0, "fusion_lat": 0.0, "name": "0ca05035043daae3cdf8dfb3f7562d6b", "lat": 38.87334283333333, "lon": -77.00061333333333, "bike_id": "0ca05035043daae3cdf8dfb3f7562d6b", "rental_uris": {"ios": "https://dc.lft.to/lastmile_qr_scan", "android": "https://dc.lft.to/lastmile_qr_scan"}, "type": "electric_scooter", "fusion_lon": 0.0}, {"is_reserved": 0, "is_disabled": 0, "fusion_lat": 0.0, "name": "63d745d5bd64339a9e02650c10a2b555", "lat": 38.88520883333333, "lon": -76.97710783333333, "bike_id": "63d745d5bd64339a9e02650c10a2b555", "rental_uris": {"ios": "https://dc.lft.to/lastmile_qr_scan", "android": "https://dc.lft.to/lastmile_qr_scan"}, "type": "electric_scooter", "fusion_lon": 0.0}, {"is_reserved": 0, "is_disabled": 0, "fusion_lat": 0.0, "name": "a9edb5cb2979f4e1772b993eb0994d6d", "lat": 38.91765933333333, "lon": -77.06915766666667, "bike_id": "a9edb5cb2979f4e1772b993eb0994d6d", "rental_uris": {"ios": "https://dc.lft.to/lastmile_qr_scan", "android": "https://dc.lft.to/lastmile_qr_scan"}, "type": "electric_scooter", "fusion_lon": 0.0}, {"is_reserved": 0, "is_disabled": 0, "fusion_lat": 0.0, "name": "b65e1a3e750b551e990d2e4439dfb22e", "lat": 38.92059283333333, "lon": -77.02274633333333, "bike_id": "b65e1a3e750b551e990d2e4439dfb22e", "rental_uris": {"ios": "https://dc.lft.to/lastmile_qr_scan", "android": "https://dc.lft.to/lastmile_qr_scan"}, "type": "electric_scooter", "fusion_lon": 0.0}, {"is_reserved": 0, "is_disabled": 0, "fusion_lat": 0.0, "name": "55b794b3b356519fd88524fe6085959f", "lat": 38.91781733333333, "lon": -77.043367, "bike_id": "55b794b3b356519fd88524fe6085959f", "rental_uris": {"ios": "https://dc.lft.to/lastmile_qr_scan", "android": "https://dc.lft.to/lastmile_qr_scan"}, "type": "electric_scooter", "fusion_lon": 0.0}, {"is_reserved": 0, "is_disabled": 0, "fusion_lat": 0.0, "name": "4bb74afa6d51fd1039e36e30bb7dad8a", "lat": 38.93649166666667, "lon": -77.0367025, "bike_id": "4bb74afa6d51fd1039e36e30bb7dad8a", "rental_uris": {"ios": "https://dc.lft.to/lastmile_qr_scan", "android": "https://dc.lft.to/lastmile_qr_scan"}, "type": "electric_scooter", "fusion_lon": 0.0}, {"is_reserved": 0, "is_disabled": 0, "fusion_lat": 0.0, "name": "c310674677decfa08135df5f7c0fe5e6", "lat": 38.896007, "lon": -77.04517966666667, "bike_id": "c310674677decfa08135df5f7c0fe5e6", "rental_uris": {"ios": "https://dc.lft.to/lastmile_qr_scan", "android": "https://dc.lft.to/lastmile_qr_scan"}, "type": "electric_scooter", "fusion_lon": 0.0}, {"is_reserved": 0, "is_disabled": 0, "fusion_lat": 0.0, "name": "a27f4c9ad7692432b31bf42b62d17e71", "lat": 38.93616933333333, "lon": -76.9500295, "bike_id": "a27f4c9ad7692432b31bf42b62d17e71", "rental_uris": {"ios": "https://dc.lft.to/lastmile_qr_scan", "android": "https://dc.lft.to/lastmile_qr_scan"}, "type": "electric_bike", "fusion_lon": 0.0}, {"is_reserved": 0, "is_disabled": 0, "fusion_lat": 0.0, "name": "e0c7ede07fb2372ba254531e7fcb1746", "lat": 38.89005266666667, "lon": -76.937481, "bike_id": "e0c7ede07fb2372ba254531e7fcb1746", "rental_uris": {"ios": "https://dc.lft.to/lastmile_qr_scan", "android": "https://dc.lft.to/lastmile_qr_scan"}, "type": "electric_scooter", "fusion_lon": 0.0}, {"is_reserved": 0, "is_disabled": 0, "fusion_lat": 0.0, "name": "9c135097b28e9a7ff429c24621f52b26", "lat": 38.88364133333333, "lon": -76.9279295, "bike_id": "9c135097b28e9a7ff429c24621f52b26", "rental_uris": {"ios": "https://dc.lft.to/lastmile_qr_scan", "android": "https://dc.lft.to/lastmile_qr_scan"}, "type": "electric_scooter", "fusion_lon": 0.0}, {"is_reserved": 0, "is_disabled": 0, "fusion_lat": 0.0, "name": "2e2736b0a3645507cfb4805025e595f9", "lat": 38.93188816666667, "lon": -77.01962683333333, "bike_id": "2e2736b0a3645507cfb4805025e595f9", "rental_uris": {"ios": "https://dc.lft.to/lastmile_qr_scan", "android": "https://dc.lft.to/lastmile_qr_scan"}, "type": "electric_scooter", "fusion_lon": 0.0}, {"is_reserved": 0, "is_disabled": 0, "fusion_lat": 0.0, "name": "e88c1856c77eb3cbe78ed4dfdedcb771", "lat": 38.920612166666665, "lon": -77.0419355, "bike_id": "e88c1856c77eb3cbe78ed4dfdedcb771", "rental_uris": {"ios": "https://dc.lft.to/lastmile_qr_scan", "android": "https://dc.lft.to/lastmile_qr_scan"}, "type": "electric_scooter", "fusion_lon": 0.0}, {"is_reserved": 0, "is_disabled": 0, "fusion_lat": 0.0, "name": "8e6d4be70db0cb4081e1f889e9f5bac2", "lat": 38.99494, "lon": -77.0013265, "bike_id": "8e6d4be70db0cb4081e1f889e9f5bac2", "rental_uris": {"ios": "https://dc.lft.to/lastmile_qr_scan", "android": "https://dc.lft.to/lastmile_qr_scan"}, "type": "electric_bike", "fusion_lon": 0.0}, {"is_reserved": 0, "is_disabled": 0, "fusion_lat": 0.0, "name": "db53edccf869e247435f19b3e5a47b12", "lat": 38.88427866666667, "lon": -76.9956145, "bike_id": "db53edccf869e247435f19b3e5a47b12", "rental_uris": {"ios": "https://dc.lft.to/lastmile_qr_scan", "android": "https://dc.lft.to/lastmile_qr_scan"}, "type": "electric_scooter", "fusion_lon": 0.0}, {"is_reserved": 0, "is_disabled": 0, "fusion_lat": 0.0, "name": "58642df931368c40b37ada68087d77b3", "lat": 38.924805666666664, "lon": -77.022327, "bike_id": "58642df931368c40b37ada68087d77b3", "rental_uris": {"ios": "https://dc.lft.to/lastmile_qr_scan", "android": "https://dc.lft.to/lastmile_qr_scan"}, "type": "electric_scooter", "fusion_lon": 0.0}, {"is_reserved": 0, "is_disabled": 0, "fusion_lat": 0.0, "name": "569c8bddb62cfc972ef3a425bf6b12c2", "lat": 38.9233215, "lon": -77.03634683333334, "bike_id": "569c8bddb62cfc972ef3a425bf6b12c2", "rental_uris": {"ios": "https://dc.lft.to/lastmile_qr_scan", "android": "https://dc.lft.to/lastmile_qr_scan"}, "type": "electric_scooter", "fusion_lon": 0.0}, {"is_reserved": 0, "is_disabled": 0, "fusion_lat": 0.0, "name": "83a70a59e6ae7464ea37edd4b16a181b", "lat": 38.901815666666664, "lon": -76.97673866666666, "bike_id": "83a70a59e6ae7464ea37edd4b16a181b", "rental_uris": {"ios": "https://dc.lft.to/lastmile_qr_scan", "android": "https://dc.lft.to/lastmile_qr_scan"}, "type": "electric_scooter", "fusion_lon": 0.0}, {"is_reserved": 0, "is_disabled": 0, "fusion_lat": 0.0, "name": "595d406868854c35adf80b7d19563858", "lat": 38.91095516666667, "lon": -77.02549283333333, "bike_id": "595d406868854c35adf80b7d19563858", "rental_uris": {"ios": "https://dc.lft.to/lastmile_qr_scan", "android": "https://dc.lft.to/lastmile_qr_scan"}, "type": "electric_scooter", "fusion_lon": 0.0}, {"is_reserved": 0, "is_disabled": 0, "fusion_lat": 0.0, "name": "9ebe37c752d2fbd42deb6a7f57436827", "lat": 38.9190435, "lon": -77.0197085, "bike_id": "9ebe37c752d2fbd42deb6a7f57436827", "rental_uris": {"ios": "https://dc.lft.to/lastmile_qr_scan", "android": "https://dc.lft.to/lastmile_qr_scan"}, "type": "electric_scooter", "fusion_lon": 0.0}, {"is_reserved": 0, "is_disabled": 0, "fusion_lat": 0.0, "name": "f2f0ca6aad0a6869dd795fc7e0efc906", "lat": 38.9002945, "lon": -76.99993733333334, "bike_id": "f2f0ca6aad0a6869dd795fc7e0efc906", "rental_uris": {"ios": "https://dc.lft.to/lastmile_qr_scan", "android": "https://dc.lft.to/lastmile_qr_scan"}, "type": "electric_scooter", "fusion_lon": 0.0}, {"is_reserved": 0, "is_disabled": 0, "fusion_lat": 0.0, "name": "62e5281b9aa7de97192b4212a1aa7f1f", "lat": 38.887127666666665, "lon": -76.98383883333334, "bike_id": "62e5281b9aa7de97192b4212a1aa7f1f", "rental_uris": {"ios": "https://dc.lft.to/lastmile_qr_scan", "android": "https://dc.lft.to/lastmile_qr_scan"}, "type": "electric_scooter", "fusion_lon": 0.0}, {"is_reserved": 0, "is_disabled": 0, "fusion_lat": 0.0, "name": "b7ce28e31b964bf5cc17f5ba27b18b1c", "lat": 38.874680833333336, "lon": -77.0053575, "bike_id": "b7ce28e31b964bf5cc17f5ba27b18b1c", "rental_uris": {"ios": "https://dc.lft.to/lastmile_qr_scan", "android": "https://dc.lft.to/lastmile_qr_scan"}, "type": "electric_scooter", "fusion_lon": 0.0}, {"is_reserved": 0, "is_disabled": 0, "fusion_lat": 0.0, "name": "fc998a0f7891a81ab9412f8c61766b5c", "lat": 38.95239133333333, "lon": -77.096358, "bike_id": "fc998a0f7891a81ab9412f8c61766b5c", "rental_uris": {"ios": "https://dc.lft.to/lastmile_qr_scan", "android": "https://dc.lft.to/lastmile_qr_scan"}, "type": "electric_bike", "fusion_lon": 0.0}, {"is_reserved": 0, "is_disabled": 0, "fusion_lat": 0.0, "name": "24663c8f91022d19293d5aee2b801b22", "lat": 38.90275066666667, "lon": -77.035553, "bike_id": "24663c8f91022d19293d5aee2b801b22", "rental_uris": {"ios": "https://dc.lft.to/lastmile_qr_scan", "android": "https://dc.lft.to/lastmile_qr_scan"}, "type": "electric_scooter", "fusion_lon": 0.0}, {"is_reserved": 0, "is_disabled": 0, "fusion_lat": 0.0, "name": "ea9e26d1ded04822bf0227cd4106b4c0", "lat": 38.8964955, "lon": -77.0092465, "bike_id": "ea9e26d1ded04822bf0227cd4106b4c0", "rental_uris": {"ios": "https://dc.lft.to/lastmile_qr_scan", "android": "https://dc.lft.to/lastmile_qr_scan"}, "type": "electric_scooter", "fusion_lon": 0.0}, {"is_reserved": 0, "is_disabled": 0, "fusion_lat": 0.0, "name": "a2284c57d3025846c1d254242f823d6d", "lat": 38.92244866666667, "lon": -77.03895383333334, "bike_id": "a2284c57d3025846c1d254242f823d6d", "rental_uris": {"ios": "https://dc.lft.to/lastmile_qr_scan", "android": "https://dc.lft.to/lastmile_qr_scan"}, "type": "electric_scooter", "fusion_lon": 0.0}, {"is_reserved": 0, "is_disabled": 0, "fusion_lat": 0.0, "name": "dcd2d4b91548e8fe8ca5434510518ac6", "lat": 38.921254833333336, "lon": -77.04428866666667, "bike_id": "dcd2d4b91548e8fe8ca5434510518ac6", "rental_uris": {"ios": "https://dc.lft.to/lastmile_qr_scan", "android": "https://dc.lft.to/lastmile_qr_scan"}, "type": "electric_scooter", "fusion_lon": 0.0}, {"is_reserved": 0, "is_disabled": 0, "fusion_lat": 0.0, "name": "94d8cd6b328384d393ceda136bbde4ef", "lat": 38.900291, "lon": -76.98695016666667, "bike_id": "94d8cd6b328384d393ceda136bbde4ef", "rental_uris": {"ios": "https://dc.lft.to/lastmile_qr_scan", "android": "https://dc.lft.to/lastmile_qr_scan"}, "type": "electric_scooter", "fusion_lon": 0.0}, {"is_reserved": 0, "is_disabled": 0, "fusion_lat": 0.0, "name": "5e2e161edc098022d4b7fce8b98b17b9", "lat": 38.88988, "lon": -76.98813616666666, "bike_id": "5e2e161edc098022d4b7fce8b98b17b9", "rental_uris": {"ios": "https://dc.lft.to/lastmile_qr_scan", "android": "https://dc.lft.to/lastmile_qr_scan"}, "type": "electric_scooter", "fusion_lon": 0.0}, {"is_reserved": 0, "is_disabled": 0, "fusion_lat": 0.0, "name": "1f4f6ea466f89f54fe04747df9c92eaa", "lat": 38.95604083333333, "lon": -77.08040333333334, "bike_id": "1f4f6ea466f89f54fe04747df9c92eaa", "rental_uris": {"ios": "https://dc.lft.to/lastmile_qr_scan", "android": "https://dc.lft.to/lastmile_qr_scan"}, "type": "electric_scooter", "fusion_lon": 0.0}, {"is_reserved": 0, "is_disabled": 0, "fusion_lat": 0.0, "name": "3931d1cd32a333e25d012903793761b4", "lat": 38.894494, "lon": -77.02024383333334, "bike_id": "3931d1cd32a333e25d012903793761b4", "rental_uris": {"ios": "https://dc.lft.to/lastmile_qr_scan", "android": "https://dc.lft.to/lastmile_qr_scan"}, "type": "electric_scooter", "fusion_lon": 0.0}, {"is_reserved": 0, "is_disabled": 0, "fusion_lat": 0.0, "name": "9471491d8ce527e7297ba7efef0ce8fb", "lat": 38.93438116666667, "lon": -77.03276083333333, "bike_id": "9471491d8ce527e7297ba7efef0ce8fb", "rental_uris": {"ios": "https://dc.lft.to/lastmile_qr_scan", "android": "https://dc.lft.to/lastmile_qr_scan"}, "type": "electric_scooter", "fusion_lon": 0.0}, {"is_reserved": 0, "is_disabled": 0, "fusion_lat": 0.0, "name": "475e8636b2cb5dd518b498999fecc707", "lat": 38.898857166666666, "lon": -76.9317765, "bike_id": "475e8636b2cb5dd518b498999fecc707", "rental_uris": {"ios": "https://dc.lft.to/lastmile_qr_scan", "android": "https://dc.lft.to/lastmile_qr_scan"}, "type": "electric_scooter", "fusion_lon": 0.0}, {"is_reserved": 0, "is_disabled": 0, "fusion_lat": 0.0, "name": "aa08afab42a2d86ddc0359d99ad69b0e", "lat": 38.897756, "lon": -77.05011266666666, "bike_id": "aa08afab42a2d86ddc0359d99ad69b0e", "rental_uris": {"ios": "https://dc.lft.to/lastmile_qr_scan", "android": "https://dc.lft.to/lastmile_qr_scan"}, "type": "electric_scooter", "fusion_lon": 0.0}, {"is_reserved": 0, "is_disabled": 0, "fusion_lat": 0.0, "name": "5c1d573f7a784a75de09f015d6de39f7", "lat": 38.897353, "lon": -77.03055766666667, "bike_id": "5c1d573f7a784a75de09f015d6de39f7", "rental_uris": {"ios": "https://dc.lft.to/lastmile_qr_scan", "android": "https://dc.lft.to/lastmile_qr_scan"}, "type": "electric_scooter", "fusion_lon": 0.0}, {"is_reserved": 0, "is_disabled": 0, "fusion_lat": 0.0, "name": "0ea451f04c67e40aabd6920cb2435196", "lat": 38.898451333333334, "lon": -77.022759, "bike_id": "0ea451f04c67e40aabd6920cb2435196", "rental_uris": {"ios": "https://dc.lft.to/lastmile_qr_scan", "android": "https://dc.lft.to/lastmile_qr_scan"}, "type": "electric_scooter", "fusion_lon": 0.0}, {"is_reserved": 0, "is_disabled": 0, "fusion_lat": 0.0, "name": "d08625fce6c50e49b3d2e67b59d0a4b7", "lat": 38.910753166666666, "lon": -77.016266, "bike_id": "d08625fce6c50e49b3d2e67b59d0a4b7", "rental_uris": {"ios": "https://dc.lft.to/lastmile_qr_scan", "android": "https://dc.lft.to/lastmile_qr_scan"}, "type": "electric_scooter", "fusion_lon": 0.0}, {"is_reserved": 0, "is_disabled": 0, "fusion_lat": 0.0, "name": "0870923fcaf057869830c5104ed9ede1", "lat": 38.973716833333334, "lon": -77.01865283333333, "bike_id": "0870923fcaf057869830c5104ed9ede1", "rental_uris": {"ios": "https://dc.lft.to/lastmile_qr_scan", "android": "https://dc.lft.to/lastmile_qr_scan"}, "type": "electric_scooter", "fusion_lon": 0.0}, {"is_reserved": 0, "is_disabled": 0, "fusion_lat": 0.0, "name": "8f22f6b714a84893cde1d019d304745f", "lat": 38.90277366666667, "lon": -77.02810833333334, "bike_id": "8f22f6b714a84893cde1d019d304745f", "rental_uris": {"ios": "https://dc.lft.to/lastmile_qr_scan", "android": "https://dc.lft.to/lastmile_qr_scan"}, "type": "electric_scooter", "fusion_lon": 0.0}, {"is_reserved": 0, "is_disabled": 0, "fusion_lat": 0.0, "name": "51b2c870430eaa0f5665ca790b9f864f", "lat": 38.9690115, "lon": -76.95566716666667, "bike_id": "51b2c870430eaa0f5665ca790b9f864f", "rental_uris": {"ios": "https://dc.lft.to/lastmile_qr_scan", "android": "https://dc.lft.to/lastmile_qr_scan"}, "type": "electric_bike", "fusion_lon": 0.0}, {"is_reserved": 0, "is_disabled": 0, "fusion_lat": 0.0, "name": "6f09e8d9e4c7f15c930dee896eb9e80f", "lat": 38.917141, "lon": -77.03213166666667, "bike_id": "6f09e8d9e4c7f15c930dee896eb9e80f", "rental_uris": {"ios": "https://dc.lft.to/lastmile_qr_scan", "android": "https://dc.lft.to/lastmile_qr_scan"}, "type": "electric_scooter", "fusion_lon": 0.0}, {"is_reserved": 0, "is_disabled": 0, "fusion_lat": 0.0, "name": "21b042011ffc49888511ad47a22ad6bb", "lat": 38.89345733333333, "lon": -77.04192533333334, "bike_id": "21b042011ffc49888511ad47a22ad6bb", "rental_uris": {"ios": "https://dc.lft.to/lastmile_qr_scan", "android": "https://dc.lft.to/lastmile_qr_scan"}, "type": "electric_scooter", "fusion_lon": 0.0}, {"is_reserved": 0, "is_disabled": 0, "fusion_lat": 0.0, "name": "3e08e5bb3ea5849651ee1a243e30d309", "lat": 38.9319625, "lon": -77.02355866666667, "bike_id": "3e08e5bb3ea5849651ee1a243e30d309", "rental_uris": {"ios": "https://dc.lft.to/lastmile_qr_scan", "android": "https://dc.lft.to/lastmile_qr_scan"}, "type": "electric_scooter", "fusion_lon": 0.0}, {"is_reserved": 0, "is_disabled": 0, "fusion_lat": 0.0, "name": "ed524ec6681eedaabc4e4d2d85c2023f", "lat": 38.89873466666667, "lon": -77.0465905, "bike_id": "ed524ec6681eedaabc4e4d2d85c2023f", "rental_uris": {"ios": "https://dc.lft.to/lastmile_qr_scan", "android": "https://dc.lft.to/lastmile_qr_scan"}, "type": "electric_scooter", "fusion_lon": 0.0}, {"is_reserved": 0, "is_disabled": 0, "fusion_lat": 0.0, "name": "91493a7cd05a593a86102ec55b5242ec", "lat": 38.92787883333333, "lon": -77.03151283333334, "bike_id": "91493a7cd05a593a86102ec55b5242ec", "rental_uris": {"ios": "https://dc.lft.to/lastmile_qr_scan", "android": "https://dc.lft.to/lastmile_qr_scan"}, "type": "electric_scooter", "fusion_lon": 0.0}, {"is_reserved": 0, "is_disabled": 0, "fusion_lat": 0.0, "name": "75afdd555a788d31c81670927066ec44", "lat": 38.906827666666665, "lon": -77.04208166666666, "bike_id": "75afdd555a788d31c81670927066ec44", "rental_uris": {"ios": "https://dc.lft.to/lastmile_qr_scan", "android": "https://dc.lft.to/lastmile_qr_scan"}, "type": "electric_scooter", "fusion_lon": 0.0}, {"is_reserved": 0, "is_disabled": 0, "fusion_lat": 0.0, "name": "ef3ec24ddecc7f767fda85964370dd58", "lat": 38.93238733333333, "lon": -77.03901, "bike_id": "ef3ec24ddecc7f767fda85964370dd58", "rental_uris": {"ios": "https://dc.lft.to/lastmile_qr_scan", "android": "https://dc.lft.to/lastmile_qr_scan"}, "type": "electric_scooter", "fusion_lon": 0.0}, {"is_reserved": 0, "is_disabled": 0, "fusion_lat": 0.0, "name": "cf083ba86c8d5fd85c4a121bf437e36c", "lat": 38.9162465, "lon": -77.01859883333333, "bike_id": "cf083ba86c8d5fd85c4a121bf437e36c", "rental_uris": {"ios": "https://dc.lft.to/lastmile_qr_scan", "android": "https://dc.lft.to/lastmile_qr_scan"}, "type": "electric_scooter", "fusion_lon": 0.0}, {"is_reserved": 0, "is_disabled": 0, "fusion_lat": 0.0, "name": "e01e51543b1b27a306e34afe51f7a018", "lat": 38.9042795, "lon": -77.02592183333333, "bike_id": "e01e51543b1b27a306e34afe51f7a018", "rental_uris": {"ios": "https://dc.lft.to/lastmile_qr_scan", "android": "https://dc.lft.to/lastmile_qr_scan"}, "type": "electric_scooter", "fusion_lon": 0.0}, {"is_reserved": 0, "is_disabled": 0, "fusion_lat": 0.0, "name": "5d60b2ce7561c81f6bfd0a6c8f7449da", "lat": 38.894204, "lon": -77.04479483333333, "bike_id": "5d60b2ce7561c81f6bfd0a6c8f7449da", "rental_uris": {"ios": "https://dc.lft.to/lastmile_qr_scan", "android": "https://dc.lft.to/lastmile_qr_scan"}, "type": "electric_scooter", "fusion_lon": 0.0}, {"is_reserved": 0, "is_disabled": 0, "fusion_lat": 0.0, "name": "dcead4d5ee6e93cbf971dd4e5833af08", "lat": 38.90764633333333, "lon": -77.06326816666666, "bike_id": "dcead4d5ee6e93cbf971dd4e5833af08", "rental_uris": {"ios": "https://dc.lft.to/lastmile_qr_scan", "android": "https://dc.lft.to/lastmile_qr_scan"}, "type": "electric_bike", "fusion_lon": 0.0}, {"is_reserved": 0, "is_disabled": 0, "fusion_lat": 0.0, "name": "2c5d74388732fc8c5fe700b5f7f7c66b", "lat": 38.923545, "lon": -76.97144783333333, "bike_id": "2c5d74388732fc8c5fe700b5f7f7c66b", "rental_uris": {"ios": "https://dc.lft.to/lastmile_qr_scan", "android": "https://dc.lft.to/lastmile_qr_scan"}, "type": "electric_bike", "fusion_lon": 0.0}, {"is_reserved": 0, "is_disabled": 0, "fusion_lat": 0.0, "name": "dae8c33fd704e1476eb75e0da9f4623a", "lat": 38.88873516666666, "lon": -76.99033766666666, "bike_id": "dae8c33fd704e1476eb75e0da9f4623a", "rental_uris": {"ios": "https://dc.lft.to/lastmile_qr_scan", "android": "https://dc.lft.to/lastmile_qr_scan"}, "type": "electric_scooter", "fusion_lon": 0.0}, {"is_reserved": 0, "is_disabled": 0, "fusion_lat": 0.0, "name": "65f996cc1dbe107561e0fc3cf4cebaae", "lat": 38.931923166666664, "lon": -77.01992066666666, "bike_id": "65f996cc1dbe107561e0fc3cf4cebaae", "rental_uris": {"ios": "https://dc.lft.to/lastmile_qr_scan", "android": "https://dc.lft.to/lastmile_qr_scan"}, "type": "electric_scooter", "fusion_lon": 0.0}, {"is_reserved": 0, "is_disabled": 0, "fusion_lat": 0.0, "name": "3dcc2e51f733d1afb3c43743eb435f26", "lat": 38.886107333333335, "lon": -77.00334566666666, "bike_id": "3dcc2e51f733d1afb3c43743eb435f26", "rental_uris": {"ios": "https://dc.lft.to/lastmile_qr_scan", "android": "https://dc.lft.to/lastmile_qr_scan"}, "type": "electric_scooter", "fusion_lon": 0.0}, {"is_reserved": 0, "is_disabled": 0, "fusion_lat": 0.0, "name": "79442b84621b74140da48621594cd532", "lat": 38.915509166666666, "lon": -77.0275065, "bike_id": "79442b84621b74140da48621594cd532", "rental_uris": {"ios": "https://dc.lft.to/lastmile_qr_scan", "android": "https://dc.lft.to/lastmile_qr_scan"}, "type": "electric_scooter", "fusion_lon": 0.0}, {"is_reserved": 0, "is_disabled": 0, "fusion_lat": 0.0, "name": "ac4ce7d9530604ab8017f0f0ea15d361", "lat": 38.9148105, "lon": -77.03436283333333, "bike_id": "ac4ce7d9530604ab8017f0f0ea15d361", "rental_uris": {"ios": "https://dc.lft.to/lastmile_qr_scan", "android": "https://dc.lft.to/lastmile_qr_scan"}, "type": "electric_scooter", "fusion_lon": 0.0}, {"is_reserved": 0, "is_disabled": 0, "fusion_lat": 0.0, "name": "42f32083552b8da9428bb25cd9bedca4", "lat": 38.841067833333334, "lon": -77.08942316666666, "bike_id": "42f32083552b8da9428bb25cd9bedca4", "rental_uris": {"ios": "https://dc.lft.to/lastmile_qr_scan", "android": "https://dc.lft.to/lastmile_qr_scan"}, "type": "electric_bike", "fusion_lon": 0.0}, {"is_reserved": 0, "is_disabled": 0, "fusion_lat": 0.0, "name": "876af3bdf1626e6c0d134addda80c7d0", "lat": 38.909791166666665, "lon": -77.0649485, "bike_id": "876af3bdf1626e6c0d134addda80c7d0", "rental_uris": {"ios": "https://dc.lft.to/lastmile_qr_scan", "android": "https://dc.lft.to/lastmile_qr_scan"}, "type": "electric_scooter", "fusion_lon": 0.0}, {"is_reserved": 0, "is_disabled": 0, "fusion_lat": 0.0, "name": "d4a80a33ca77f31d20a836ff6db64f9b", "lat": 38.9043285, "lon": -76.97229766666666, "bike_id": "d4a80a33ca77f31d20a836ff6db64f9b", "rental_uris": {"ios": "https://dc.lft.to/lastmile_qr_scan", "android": "https://dc.lft.to/lastmile_qr_scan"}, "type": "electric_bike", "fusion_lon": 0.0}, {"is_reserved": 0, "is_disabled": 0, "fusion_lat": 0.0, "name": "bc679bd936a067ecefd7434bdd8cffdc", "lat": 38.898513666666666, "lon": -76.92749666666667, "bike_id": "bc679bd936a067ecefd7434bdd8cffdc", "rental_uris": {"ios": "https://dc.lft.to/lastmile_qr_scan", "android": "https://dc.lft.to/lastmile_qr_scan"}, "type": "electric_scooter", "fusion_lon": 0.0}, {"is_reserved": 0, "is_disabled": 0, "fusion_lat": 0.0, "name": "df9b8fb10a43b652a9755e69a8489f4a", "lat": 38.87841316666667, "lon": -77.0228415, "bike_id": "df9b8fb10a43b652a9755e69a8489f4a", "rental_uris": {"ios": "https://dc.lft.to/lastmile_qr_scan", "android": "https://dc.lft.to/lastmile_qr_scan"}, "type": "electric_scooter", "fusion_lon": 0.0}, {"is_reserved": 0, "is_disabled": 0, "fusion_lat": 0.0, "name": "39783d226fb3d584682f3c26a39d2fbe", "lat": 38.90284616666667, "lon": -77.01794233333334, "bike_id": "39783d226fb3d584682f3c26a39d2fbe", "rental_uris": {"ios": "https://dc.lft.to/lastmile_qr_scan", "android": "https://dc.lft.to/lastmile_qr_scan"}, "type": "electric_bike", "fusion_lon": 0.0}, {"is_reserved": 0, "is_disabled": 0, "fusion_lat": 0.0, "name": "70da3b6a6fc9a586be61d541a710cc27", "lat": 38.897316333333336, "lon": -77.04369216666667, "bike_id": "70da3b6a6fc9a586be61d541a710cc27", "rental_uris": {"ios": "https://dc.lft.to/lastmile_qr_scan", "android": "https://dc.lft.to/lastmile_qr_scan"}, "type": "electric_scooter", "fusion_lon": 0.0}, {"is_reserved": 0, "is_disabled": 0, "fusion_lat": 0.0, "name": "93f619b2d7188a192de13d7fce32db21", "lat": 38.832966666666664, "lon": -77.08412766666666, "bike_id": "93f619b2d7188a192de13d7fce32db21", "rental_uris": {"ios": "https://dc.lft.to/lastmile_qr_scan", "android": "https://dc.lft.to/lastmile_qr_scan"}, "type": "electric_bike", "fusion_lon": 0.0}, {"is_reserved": 0, "is_disabled": 0, "fusion_lat": 0.0, "name": "84ca33b71eeb0da6acff79efdbc9fe26", "lat": 38.921499833333336, "lon": -77.042427, "bike_id": "84ca33b71eeb0da6acff79efdbc9fe26", "rental_uris": {"ios": "https://dc.lft.to/lastmile_qr_scan", "android": "https://dc.lft.to/lastmile_qr_scan"}, "type": "electric_scooter", "fusion_lon": 0.0}, {"is_reserved": 0, "is_disabled": 0, "fusion_lat": 0.0, "name": "e3b16ec00202439394cdd6c7ddb51f67", "lat": 38.921092, "lon": -77.030927, "bike_id": "e3b16ec00202439394cdd6c7ddb51f67", "rental_uris": {"ios": "https://dc.lft.to/lastmile_qr_scan", "android": "https://dc.lft.to/lastmile_qr_scan"}, "type": "electric_scooter", "fusion_lon": 0.0}, {"is_reserved": 0, "is_disabled": 0, "fusion_lat": 0.0, "name": "19b5532d16772c666f060cb41982c5b4", "lat": 38.916313833333334, "lon": -77.04814516666667, "bike_id": "19b5532d16772c666f060cb41982c5b4", "rental_uris": {"ios": "https://dc.lft.to/lastmile_qr_scan", "android": "https://dc.lft.to/lastmile_qr_scan"}, "type": "electric_scooter", "fusion_lon": 0.0}, {"is_reserved": 0, "is_disabled": 0, "fusion_lat": 0.0, "name": "fb03e2addf35c8c4069eba36357bb5d8", "lat": 38.900394, "lon": -77.0116055, "bike_id": "fb03e2addf35c8c4069eba36357bb5d8", "rental_uris": {"ios": "https://dc.lft.to/lastmile_qr_scan", "android": "https://dc.lft.to/lastmile_qr_scan"}, "type": "electric_scooter", "fusion_lon": 0.0}, {"is_reserved": 0, "is_disabled": 0, "fusion_lat": 0.0, "name": "61ef0a9745df8de9bf144d9502c1d9cb", "lat": 38.91710666666667, "lon": -77.02654383333333, "bike_id": "61ef0a9745df8de9bf144d9502c1d9cb", "rental_uris": {"ios": "https://dc.lft.to/lastmile_qr_scan", "android": "https://dc.lft.to/lastmile_qr_scan"}, "type": "electric_scooter", "fusion_lon": 0.0}, {"is_reserved": 0, "is_disabled": 0, "fusion_lat": 0.0, "name": "8d2dbc9cfeb4a5d4d85520568a4c5bbd", "lat": 38.902338666666665, "lon": -77.02686783333333, "bike_id": "8d2dbc9cfeb4a5d4d85520568a4c5bbd", "rental_uris": {"ios": "https://dc.lft.to/lastmile_qr_scan", "android": "https://dc.lft.to/lastmile_qr_scan"}, "type": "electric_scooter", "fusion_lon": 0.0}, {"is_reserved": 0, "is_disabled": 0, "fusion_lat": 0.0, "name": "9b6d90e3ef9d9e91f11ab88c20b14006", "lat": 38.90067166666667, "lon": -77.04891266666667, "bike_id": "9b6d90e3ef9d9e91f11ab88c20b14006", "rental_uris": {"ios": "https://dc.lft.to/lastmile_qr_scan", "android": "https://dc.lft.to/lastmile_qr_scan"}, "type": "electric_scooter", "fusion_lon": 0.0}, {"is_reserved": 0, "is_disabled": 0, "fusion_lat": 0.0, "name": "37a49ae4615039a0d324f14390f3bce9", "lat": 38.909515166666665, "lon": -76.98538116666667, "bike_id": "37a49ae4615039a0d324f14390f3bce9", "rental_uris": {"ios": "https://dc.lft.to/lastmile_qr_scan", "android": "https://dc.lft.to/lastmile_qr_scan"}, "type": "electric_scooter", "fusion_lon": 0.0}, {"is_reserved": 0, "is_disabled": 0, "fusion_lat": 0.0, "name": "7a867c0667a3925779973d3a598c87d2", "lat": 38.915910333333336, "lon": -76.9838785, "bike_id": "7a867c0667a3925779973d3a598c87d2", "rental_uris": {"ios": "https://dc.lft.to/lastmile_qr_scan", "android": "https://dc.lft.to/lastmile_qr_scan"}, "type": "electric_scooter", "fusion_lon": 0.0}, {"is_reserved": 0, "is_disabled": 0, "fusion_lat": 0.0, "name": "f2dcc6486c42948a7cace5e27bda307c", "lat": 38.91065016666667, "lon": -77.02704033333333, "bike_id": "f2dcc6486c42948a7cace5e27bda307c", "rental_uris": {"ios": "https://dc.lft.to/lastmile_qr_scan", "android": "https://dc.lft.to/lastmile_qr_scan"}, "type": "electric_scooter", "fusion_lon": 0.0}, {"is_reserved": 0, "is_disabled": 0, "fusion_lat": 0.0, "name": "3bd78b0eccbf9ae5f1528f76bba06439", "lat": 38.88740266666667, "lon": -77.015322, "bike_id": "3bd78b0eccbf9ae5f1528f76bba06439", "rental_uris": {"ios": "https://dc.lft.to/lastmile_qr_scan", "android": "https://dc.lft.to/lastmile_qr_scan"}, "type": "electric_scooter", "fusion_lon": 0.0}, {"is_reserved": 0, "is_disabled": 0, "fusion_lat": 0.0, "name": "d797d8bde89812f42362c1ffcec0624f", "lat": 38.919222500000004, "lon": -77.00248516666667, "bike_id": "d797d8bde89812f42362c1ffcec0624f", "rental_uris": {"ios": "https://dc.lft.to/lastmile_qr_scan", "android": "https://dc.lft.to/lastmile_qr_scan"}, "type": "electric_scooter", "fusion_lon": 0.0}, {"is_reserved": 0, "is_disabled": 0, "fusion_lat": 0.0, "name": "fd502e20e7ddd9b07a0dd5d842efcf32", "lat": 38.8973555, "lon": -77.00782883333333, "bike_id": "fd502e20e7ddd9b07a0dd5d842efcf32", "rental_uris": {"ios": "https://dc.lft.to/lastmile_qr_scan", "android": "https://dc.lft.to/lastmile_qr_scan"}, "type": "electric_scooter", "fusion_lon": 0.0}, {"is_reserved": 0, "is_disabled": 0, "fusion_lat": 0.0, "name": "f462b22ed0033b08eaa067769299ed09", "lat": 38.94322433333333, "lon": -77.07325766666666, "bike_id": "f462b22ed0033b08eaa067769299ed09", "rental_uris": {"ios": "https://dc.lft.to/lastmile_qr_scan", "android": "https://dc.lft.to/lastmile_qr_scan"}, "type": "electric_scooter", "fusion_lon": 0.0}, {"is_reserved": 0, "is_disabled": 0, "fusion_lat": 0.0, "name": "df15b9b94c8306893750121662ea6d58", "lat": 38.9365425, "lon": -77.02142966666666, "bike_id": "df15b9b94c8306893750121662ea6d58", "rental_uris": {"ios": "https://dc.lft.to/lastmile_qr_scan", "android": "https://dc.lft.to/lastmile_qr_scan"}, "type": "electric_scooter", "fusion_lon": 0.0}, {"is_reserved": 0, "is_disabled": 0, "fusion_lat": 0.0, "name": "750c83f1714ddc199bf3c50b3f0adff1", "lat": 38.91414483333333, "lon": -77.027266, "bike_id": "750c83f1714ddc199bf3c50b3f0adff1", "rental_uris": {"ios": "https://dc.lft.to/lastmile_qr_scan", "android": "https://dc.lft.to/lastmile_qr_scan"}, "type": "electric_scooter", "fusion_lon": 0.0}, {"is_reserved": 0, "is_disabled": 0, "fusion_lat": 0.0, "name": "c4bddd65a97e1ae1e1cd898d0041130b", "lat": 38.927465166666664, "lon": -77.03556583333334, "bike_id": "c4bddd65a97e1ae1e1cd898d0041130b", "rental_uris": {"ios": "https://dc.lft.to/lastmile_qr_scan", "android": "https://dc.lft.to/lastmile_qr_scan"}, "type": "electric_scooter", "fusion_lon": 0.0}, {"is_reserved": 0, "is_disabled": 0, "fusion_lat": 0.0, "name": "1dbb2bef6f9db85c51d1b582e8be7b09", "lat": 38.91572566666667, "lon": -77.02008016666667, "bike_id": "1dbb2bef6f9db85c51d1b582e8be7b09", "rental_uris": {"ios": "https://dc.lft.to/lastmile_qr_scan", "android": "https://dc.lft.to/lastmile_qr_scan"}, "type": "electric_scooter", "fusion_lon": 0.0}, {"is_reserved": 0, "is_disabled": 0, "fusion_lat": 0.0, "name": "2ba766424244d0974d9c84b16f91f3d8", "lat": 38.9181415, "lon": -77.02528116666667, "bike_id": "2ba766424244d0974d9c84b16f91f3d8", "rental_uris": {"ios": "https://dc.lft.to/lastmile_qr_scan", "android": "https://dc.lft.to/lastmile_qr_scan"}, "type": "electric_scooter", "fusion_lon": 0.0}, {"is_reserved": 0, "is_disabled": 0, "fusion_lat": 0.0, "name": "f8c46a5bf6e7b4f9dd90194247450377", "lat": 38.9054625, "lon": -77.05707316666667, "bike_id": "f8c46a5bf6e7b4f9dd90194247450377", "rental_uris": {"ios": "https://dc.lft.to/lastmile_qr_scan", "android": "https://dc.lft.to/lastmile_qr_scan"}, "type": "electric_scooter", "fusion_lon": 0.0}, {"is_reserved": 0, "is_disabled": 0, "fusion_lat": 0.0, "name": "f802ba7afe323caabb2f1ed56e7e9c04", "lat": 38.931308, "lon": -77.03852766666667, "bike_id": "f802ba7afe323caabb2f1ed56e7e9c04", "rental_uris": {"ios": "https://dc.lft.to/lastmile_qr_scan", "android": "https://dc.lft.to/lastmile_qr_scan"}, "type": "electric_scooter", "fusion_lon": 0.0}, {"is_reserved": 0, "is_disabled": 0, "fusion_lat": 0.0, "name": "8f0498ba804d1a5fe805a845cf6e10ce", "lat": 38.91065916666667, "lon": -77.00467083333334, "bike_id": "8f0498ba804d1a5fe805a845cf6e10ce", "rental_uris": {"ios": "https://dc.lft.to/lastmile_qr_scan", "android": "https://dc.lft.to/lastmile_qr_scan"}, "type": "electric_scooter", "fusion_lon": 0.0}, {"is_reserved": 0, "is_disabled": 0, "fusion_lat": 0.0, "name": "292b551966ea6be3fc7c0e256f44abac", "lat": 38.90142816666667, "lon": -77.038698, "bike_id": "292b551966ea6be3fc7c0e256f44abac", "rental_uris": {"ios": "https://dc.lft.to/lastmile_qr_scan", "android": "https://dc.lft.to/lastmile_qr_scan"}, "type": "electric_scooter", "fusion_lon": 0.0}, {"is_reserved": 0, "is_disabled": 0, "fusion_lat": 0.0, "name": "e02474869c8c6b08a55018629cf2c49c", "lat": 38.92319916666667, "lon": -77.01955266666667, "bike_id": "e02474869c8c6b08a55018629cf2c49c", "rental_uris": {"ios": "https://dc.lft.to/lastmile_qr_scan", "android": "https://dc.lft.to/lastmile_qr_scan"}, "type": "electric_scooter", "fusion_lon": 0.0}, {"is_reserved": 0, "is_disabled": 0, "fusion_lat": 0.0, "name": "fe3cc52dfbd8e63d0a94ae7242fa62b4", "lat": 38.901364666666666, "lon": -76.98969183333334, "bike_id": "fe3cc52dfbd8e63d0a94ae7242fa62b4", "rental_uris": {"ios": "https://dc.lft.to/lastmile_qr_scan", "android": "https://dc.lft.to/lastmile_qr_scan"}, "type": "electric_scooter", "fusion_lon": 0.0}, {"is_reserved": 0, "is_disabled": 0, "fusion_lat": 0.0, "name": "27fb85993c206b5f12da9bf828e3e830", "lat": 38.9020365, "lon": -77.0611895, "bike_id": "27fb85993c206b5f12da9bf828e3e830", "rental_uris": {"ios": "https://dc.lft.to/lastmile_qr_scan", "android": "https://dc.lft.to/lastmile_qr_scan"}, "type": "electric_scooter", "fusion_lon": 0.0}, {"is_reserved": 0, "is_disabled": 0, "fusion_lat": 0.0, "name": "34da479af16ee64ef03442cbf283c38d", "lat": 38.9360515, "lon": -77.03201916666667, "bike_id": "34da479af16ee64ef03442cbf283c38d", "rental_uris": {"ios": "https://dc.lft.to/lastmile_qr_scan", "android": "https://dc.lft.to/lastmile_qr_scan"}, "type": "electric_scooter", "fusion_lon": 0.0}, {"is_reserved": 0, "is_disabled": 0, "fusion_lat": 0.0, "name": "3a90c27bfe31073aaa3626ebb9c4c1ea", "lat": 38.89899583333333, "lon": -77.0231805, "bike_id": "3a90c27bfe31073aaa3626ebb9c4c1ea", "rental_uris": {"ios": "https://dc.lft.to/lastmile_qr_scan", "android": "https://dc.lft.to/lastmile_qr_scan"}, "type": "electric_scooter", "fusion_lon": 0.0}, {"is_reserved": 0, "is_disabled": 0, "fusion_lat": 0.0, "name": "35305d16cb1dbfe28bb0207570039eda", "lat": 38.89330983333333, "lon": -76.93929083333333, "bike_id": "35305d16cb1dbfe28bb0207570039eda", "rental_uris": {"ios": "https://dc.lft.to/lastmile_qr_scan", "android": "https://dc.lft.to/lastmile_qr_scan"}, "type": "electric_scooter", "fusion_lon": 0.0}, {"is_reserved": 0, "is_disabled": 0, "fusion_lat": 0.0, "name": "1708a10a14f54d94763b2acbb6b0a63b", "lat": 38.93697616666667, "lon": -77.05600316666667, "bike_id": "1708a10a14f54d94763b2acbb6b0a63b", "rental_uris": {"ios": "https://dc.lft.to/lastmile_qr_scan", "android": "https://dc.lft.to/lastmile_qr_scan"}, "type": "electric_scooter", "fusion_lon": 0.0}, {"is_reserved": 0, "is_disabled": 0, "fusion_lat": 0.0, "name": "5438e397180eda0ac0289d7e0e54aa11", "lat": 38.9084845, "lon": -77.04173216666666, "bike_id": "5438e397180eda0ac0289d7e0e54aa11", "rental_uris": {"ios": "https://dc.lft.to/lastmile_qr_scan", "android": "https://dc.lft.to/lastmile_qr_scan"}, "type": "electric_scooter", "fusion_lon": 0.0}, {"is_reserved": 0, "is_disabled": 0, "fusion_lat": 0.0, "name": "3d0b8764a70c6a9ca6489f3c73cd0d53", "lat": 38.899089000000004, "lon": -77.04040566666667, "bike_id": "3d0b8764a70c6a9ca6489f3c73cd0d53", "rental_uris": {"ios": "https://dc.lft.to/lastmile_qr_scan", "android": "https://dc.lft.to/lastmile_qr_scan"}, "type": "electric_scooter", "fusion_lon": 0.0}, {"is_reserved": 0, "is_disabled": 0, "fusion_lat": 0.0, "name": "e724a004e7193ea610d8be893f4a90ac", "lat": 38.901197, "lon": -77.03822033333333, "bike_id": "e724a004e7193ea610d8be893f4a90ac", "rental_uris": {"ios": "https://dc.lft.to/lastmile_qr_scan", "android": "https://dc.lft.to/lastmile_qr_scan"}, "type": "electric_scooter", "fusion_lon": 0.0}, {"is_reserved": 0, "is_disabled": 0, "fusion_lat": 0.0, "name": "571a40ebddbe84b00b58d64c86538c5a", "lat": 38.912513, "lon": -77.028084, "bike_id": "571a40ebddbe84b00b58d64c86538c5a", "rental_uris": {"ios": "https://dc.lft.to/lastmile_qr_scan", "android": "https://dc.lft.to/lastmile_qr_scan"}, "type": "electric_scooter", "fusion_lon": 0.0},