{"data": {"bikes": [{"name": "093bd96d368db0aaa5b56ed308450328", "fusion_lat": 0.0, "type": "electric_scooter", "lat": 38.897598, "is_reserved": 0, "is_disabled": 0, "fusion_lon": 0.0, "bike_id": "093bd96d368db0aaa5b56ed308450328", "lon": -77.00900966666667, "rental_uris": {"ios": "https://dc.lft.to/lastmile_qr_scan", "android": "https://dc.lft.to/lastmile_qr_scan"}}, {"name": "de32f07718c7421cdedcea7d1e4980a7", "fusion_lat": 0.0, "type": "electric_scooter", "lat": 38.92053383333333, "is_reserved": 0, "is_disabled": 0, "fusion_lon": 0.0, "bike_id": "de32f07718c7421cdedcea7d1e4980a7", "lon": -77.023667, "rental_uris": {"ios": "https://dc.lft.to/lastmile_qr_scan", "android": "https://dc.lft.to/lastmile_qr_scan"}}, {"name": "c6c3b84a8158cf804aefa7e59b9070c9", "fusion_lat": 0.0, "type": "electric_scooter", "lat": 38.864142666666666, "is_reserved": 0, "is_disabled": 0, "fusion_lon": 0.0, "bike_id": "c6c3b84a8158cf804aefa7e59b9070c9", "lon": -76.98049183333333, "rental_uris": {"ios": "https://dc.lft.to/lastmile_qr_scan", "android": "https://dc.lft.to/lastmile_qr_scan"}}, {"name": "60ab14b8b27baa2a2677c765cbb6f8e0", "fusion_lat": 0.0, "type": "electric_scooter", "lat": 38.8940195, "is_reserved": 0, "is_disabled": 0, "fusion_lon": 0.0, "bike_id": "60ab14b8b27baa2a2677c765cbb6f8e0", "lon": -76.94806733333333, "rental_uris": {"ios": "https://dc.lft.to/lastmile_qr_scan", "android": "https://dc.lft.to/lastmile_qr_scan"}}, {"name": "cf39afbd9fedd7ea01405eb4ea16246e", "fusion_lat": 0.0, "type": "electric_scooter", "lat": 38.92327216666666, "is_reserved": 0, "is_disabled": 0, "fusion_lon": 0.0, "bike_id": "cf39afbd9fedd7ea01405eb4ea16246e", "lon": -77.03542333333333, "rental_uris": {"ios": "https://dc.lft.to/lastmile_qr_scan", "android": "https://dc.lft.to/lastmile_qr_scan"}}, {"name": "4413eeb2915bcd1ee0e75d488a5173a7", "fusion_lat": 0.0, "type": "electric_bike", "lat": 38.88583333333333, "is_reserved": 0, "is_disabled": 0, "fusion_lon": 0.0, "bike_id": "4413eeb2915bcd1ee0e75d488a5173a7", "lon": -77.103343, "rental_uris": {"ios": "https://dc.lft.to/lastmile_qr_scan", "android": "https://dc.lft.to/lastmile_qr_scan"}}, {"name": "013bb8f26ecc0bdf348b6902c0a804f0", "fusion_lat": 0.0, "type": "electric_scooter", "lat": 38.923129, "is_reserved": 0, "is_disabled": 0, "fusion_lon": 0.0, "bike_id": "013bb8f26ecc0bdf348b6902c0a804f0", "lon": -77.04110533333333, "rental_uris": {"ios": "https://dc.lft.to/lastmile_qr_scan", "android": "https://dc.lft.to/lastmile_qr_scan"}}, {"name": "092c60c7b44ff28fa4aa119dcbf69f03", "fusion_lat": 0.0, "type": "electric_scooter", "lat": 38.879154666666665, "is_reserved": 0, "is_disabled": 0, "fusion_lon": 0.0, "bike_id": "092c60c7b44ff28fa4aa119dcbf69f03", "lon": -77.00537333333334, "rental_uris": {"ios": "https://dc.lft.to/lastmile_qr_scan", "android": "https://dc.lft.to/lastmile_qr_scan"}}, {"name": "d85bffa25f5096552e8c4d9c1227b782", "fusion_lat": 0.0, "type": "electric_scooter", "lat": 38.9038885, "is_reserved": 0, "is_disabled": 0, "fusion_lon": 0.0, "bike_id": "d85bffa25f5096552e8c4d9c1227b782", "lon": -77.01819183333333, "rental_uris": {"ios": "https://dc.lft.to/lastmile_qr_scan", "android": "https://dc.lft.to/lastmile_qr_scan"}}, {"name": "db3554ee6faeaf8c3606d2fc6d6cd942", "fusion_lat": 0.0, "type": "electric_scooter", "lat": 38.86823283333333, "is_reserved": 0, "is_disabled": 0, "fusion_lon": 0.0, "bike_id": "db3554ee6faeaf8c3606d2fc6d6cd942", "lon": -76.98614266666667, "rental_uris": {"ios": "https://dc.lft.to/lastmile_qr_scan", "android": "https://dc.lft.to/lastmile_qr_scan"}}, {"name": "03b5c39516b512cfc585f3ecb14ca7bd", "fusion_lat": 0.0, "type": "electric_bike", "lat": 38.89638333333333, "is_reserved": 0, "is_disabled": 0, "fusion_lon": 0.0, "bike_id": "03b5c39516b512cfc585f3ecb14ca7bd", "lon": -77.10455333333333, "rental_uris": {"ios": "https://dc.lft.to/lastmile_qr_scan", "android": "https://dc.lft.to/lastmile_qr_scan"}}, {"name": "6cbacc062ffc067161feac1925cb0db7", "fusion_lat": 0.0, "type": "electric_scooter", "lat": 38.923917833333334, "is_reserved": 0, "is_disabled": 0, "fusion_lon": 0.0, "bike_id": "6cbacc062ffc067161feac1925cb0db7", "lon": -77.02978516666667, "rental_uris": {"ios": "https://dc.lft.to/lastmile_qr_scan", "android": "https://dc.lft.to/lastmile_qr_scan"}}, {"name": "ede27d37826b4b0cdddc626c120a3671", "fusion_lat": 0.0, "type": "electric_scooter", "lat": 38.8625, "is_reserved": 0, "is_disabled": 0, "fusion_lon": 0.0, "bike_id": "ede27d37826b4b0cdddc626c120a3671", "lon": -76.9952875, "rental_uris": {"ios": "https://dc.lft.to/lastmile_qr_scan", "android": "https://dc.lft.to/lastmile_qr_scan"}}, {"name": "97efe297b63f84e080003f803977c3ce", "fusion_lat": 0.0, "type": "electric_scooter", "lat": 38.918617166666664, "is_reserved": 0, "is_disabled": 0, "fusion_lon": 0.0, "bike_id": "97efe297b63f84e080003f803977c3ce", "lon": -77.04587383333333, "rental_uris": {"ios": "https://dc.lft.to/lastmile_qr_scan", "android": "https://dc.lft.to/lastmile_qr_scan"}}, {"name": "e947e6b362db1b9875cbdd49c5b39f89", "fusion_lat": 0.0, "type": "electric_scooter", "lat": 38.893291, "is_reserved": 0, "is_disabled": 0, "fusion_lon": 0.0, "bike_id": "e947e6b362db1b9875cbdd49c5b39f89", "lon": -76.92893733333334, "rental_uris": {"ios": "https://dc.lft.to/lastmile_qr_scan", "android": "https://dc.lft.to/lastmile_qr_scan"}}, {"name": "1088638144103e71a7f6a736142fab15", "fusion_lat": 0.0, "type": "electric_scooter", "lat": 38.892040333333334, "is_reserved": 0, "is_disabled": 0, "fusion_lon": 0.0, "bike_id": "1088638144103e71a7f6a736142fab15", "lon": -77.00290783333334, "rental_uris": {"ios": "https://dc.lft.to/lastmile_qr_scan", "android": "https://dc.lft.to/lastmile_qr_scan"}}, {"name": "bfe209076ee7eb771f7288ca9fd22afd", "fusion_lat": 0.0, "type": "electric_scooter", "lat": 38.93260933333333, "is_reserved": 0, "is_disabled": 0, "fusion_lon": 0.0, "bike_id": "bfe209076ee7eb771f7288ca9fd22afd", "lon": -77.03261966666666, "rental_uris": {"ios": "https://dc.lft.to/lastmile_qr_scan", "android": "https://dc.lft.to/lastmile_qr_scan"}}, {"name": "7387fd70d1190542922cc4accbeee503", "fusion_lat": 0.0, "type": "electric_scooter", "lat": 38.923327, "is_reserved": 0, "is_disabled": 0, "fusion_lon": 0.0, "bike_id": "7387fd70d1190542922cc4accbeee503", "lon": -77.0204935, "rental_uris": {"ios": "https://dc.lft.to/lastmile_qr_scan", "android": "https://dc.lft.to/lastmile_qr_scan"}}, {"name": "12caf6e7a47a0355cb660a05c051599d", "fusion_lat": 0.0, "type": "electric_scooter", "lat": 38.8999695, "is_reserved": 0, "is_disabled": 0, "fusion_lon": 0.0, "bike_id": "12caf6e7a47a0355cb660a05c051599d", "lon": -76.98566183333334, "rental_uris": {"ios": "https://dc.lft.to/lastmile_qr_scan", "android": "https://dc.lft.to/lastmile_qr_scan"}}, {"name": "71c7a3fe472b80a98c970d6b53814388", "fusion_lat": 0.0, "type": "electric_bike", "lat": 38.943844166666665, "is_reserved": 0, "is_disabled": 0, "fusion_lon": 0.0, "bike_id": "71c7a3fe472b80a98c970d6b53814388", "lon": -76.96286316666666, "rental_uris": {"ios": "https://dc.lft.to/lastmile_qr_scan", "android": "https://dc.lft.to/lastmile_qr_scan"}}, {"name": "910b2a9699487eefcf3fbd10ed60db68", "fusion_lat": 0.0, "type": "electric_scooter", "lat": 38.884487166666666, "is_reserved": 0, "is_disabled": 0, "fusion_lon": 0.0, "bike_id": "910b2a9699487eefcf3fbd10ed60db68", "lon": -77.026216, "rental_uris": {"ios": "https://dc.lft.to/lastmile_qr_scan", "android": "https://dc.lft.to/lastmile_qr_scan"}}, {"name": "64a2dbe59338d63fb36a50ffcea255da", "fusion_lat": 0.0, "type": "electric_scooter", "lat": 38.874333166666666, "is_reserved": 0, "is_disabled": 0, "fusion_lon": 0.0, "bike_id": "64a2dbe59338d63fb36a50ffcea255da", "lon": -77.02063316666667, "rental_uris": {"ios": "https://dc.lft.to/lastmile_qr_scan", "android": "https://dc.lft.to/lastmile_qr_scan"}}, {"name": "2fe8883a123b834a56822663efe069c7", "fusion_lat": 0.0, "type": "electric_scooter", "lat": 38.91467216666667, "is_reserved": 0, "is_disabled": 0, "fusion_lon": 0.0, "bike_id": "2fe8883a123b834a56822663efe069c7", "lon": -77.0217305, "rental_uris": {"ios": "https://dc.lft.to/lastmile_qr_scan", "android": "https://dc.lft.to/lastmile_qr_scan"}}, {"name": "ac79e38391f493aab2faff5bedf3f981", "fusion_lat": 0.0, "type": "electric_bike", "lat": 38.9527295, "is_reserved": 0, "is_disabled": 0, "fusion_lon": 0.0, "bike_id": "ac79e38391f493aab2faff5bedf3f981", "lon": -77.06986, "rental_uris": {"ios": "https://dc.lft.to/lastmile_qr_scan", "android": "https://dc.lft.to/lastmile_qr_scan"}}, {"name": "2aca7d921c971c423f9c5ea7533bed01", "fusion_lat": 0.0, "type": "electric_scooter", "lat": 38.9218575, "is_reserved": 0, "is_disabled": 0, "fusion_lon": 0.0, "bike_id": "2aca7d921c971c423f9c5ea7533bed01", "lon": -76.9975365, "rental_uris": {"ios": "https://dc.lft.to/lastmile_qr_scan", "android": "https://dc.lft.to/lastmile_qr_scan"}}, {"name": "5242ba89f8d3d25940c039dc6f4aac06", "fusion_lat": 0.0, "type": "electric_scooter", "lat": 38.901817666666666, "is_reserved": 0, "is_disabled": 0, "fusion_lon": 0.0, "bike_id": "5242ba89f8d3d25940c039dc6f4aac06", "lon": -77.033601, "rental_uris": {"ios": "https://dc.lft.to/lastmile_qr_scan", "android": "https://dc.lft.to/lastmile_qr_scan"}}, {"name": "e7fa3ded28e910cfd10fccc98169ef4c", "fusion_lat": 0.0, "type": "electric_scooter", "lat": 38.933940166666666, "is_reserved": 0, "is_disabled": 0, "fusion_lon": 0.0, "bike_id": "e7fa3ded28e910cfd10fccc98169ef4c", "lon": -77.03154366666666, "rental_uris": {"ios": "https://dc.lft.to/lastmile_qr_scan", "android": "https://dc.lft.to/lastmile_qr_scan"}}, {"name": "649cf4880123a405d3b98faeda413fbf", "fusion_lat": 0.0, "type": "electric_scooter", "lat": 38.9035465, "is_reserved": 0, "is_disabled": 0, "fusion_lon": 0.0, "bike_id": "649cf4880123a405d3b98faeda413fbf", "lon": -77.0383335, "rental_uris": {"ios": "https://dc.lft.to/lastmile_qr_scan", "android": "https://dc.lft.to/lastmile_qr_scan"}}, {"name": "7e5f54d91b595b3303513fb7c29bf3ea", "fusion_lat": 0.0, "type": "electric_scooter", "lat": 38.898034333333335, "is_reserved": 0, "is_disabled": 0, "fusion_lon": 0.0, "bike_id": "7e5f54d91b595b3303513fb7c29bf3ea", "lon": -76.99493533333333, "rental_uris": {"ios": "https://dc.lft.to/lastmile_qr_scan", "android": "https://dc.lft.to/lastmile_qr_scan"}}, {"name": "2a543775035f07559bb086f1faf8ceaf", "fusion_lat": 0.0, "type": "electric_bike", "lat": 38.937765666666664, "is_reserved": 0, "is_disabled": 0, "fusion_lon": 0.0, "bike_id": "2a543775035f07559bb086f1faf8ceaf", "lon": -77.01910683333334, "rental_uris": {"ios": "https://dc.lft.to/lastmile_qr_scan", "android": "https://dc.lft.to/lastmile_qr_scan"}}, {"name": "ebe3ff3db3788236e99dbad365835b0d", "fusion_lat": 0.0, "type": "electric_scooter", "lat": 38.88966383333333, "is_reserved": 0, "is_disabled": 0, "fusion_lon": 0.0, "bike_id": "ebe3ff3db3788236e99dbad365835b0d", "lon": -76.92772433333333, "rental_uris": {"ios": "https://dc.lft.to/lastmile_qr_scan", "android": "https://dc.lft.to/lastmile_qr_scan"}}, {"name": "ee999182a1ec62579aa740ed571816bc", "fusion_lat": 0.0, "type": "electric_scooter", "lat": 38.876493333333336, "is_reserved": 0, "is_disabled": 0, "fusion_lon": 0.0, "bike_id": "ee999182a1ec62579aa740ed571816bc", "lon": -76.965075, "rental_uris": {"ios": "https://dc.lft.to/lastmile_qr_scan", "android": "https://dc.lft.to/lastmile_qr_scan"}}, {"name": "45c0c692ae17a8a39858c385425bd2ac", "fusion_lat": 0.0, "type": "electric_scooter", "lat": 38.923415, "is_reserved": 0, "is_disabled": 0, "fusion_lon": 0.0, "bike_id": "45c0c692ae17a8a39858c385425bd2ac", "lon": -77.05100533333334, "rental_uris": {"ios": "https://dc.lft.to/lastmile_qr_scan", "android": "https://dc.lft.to/lastmile_qr_scan"}}, {"name": "da39fc49fadb32eb0f45cf0d176f9c5a", "fusion_lat": 0.0, "type": "electric_scooter", "lat": 38.901158333333335, "is_reserved": 0, "is_disabled": 0, "fusion_lon": 0.0, "bike_id": "da39fc49fadb32eb0f45cf0d176f9c5a", "lon": -77.04988633333333, "rental_uris": {"ios": "https://dc.lft.to/lastmile_qr_scan", "android": "https://dc.lft.to/lastmile_qr_scan"}}, {"name": "e52d78e0d8a307c0a335809bef77db04", "fusion_lat": 0.0, "type": "electric_scooter", "lat": 38.912726, "is_reserved": 0, "is_disabled": 0, "fusion_lon": 0.0, "bike_id": "e52d78e0d8a307c0a335809bef77db04", "lon": -77.016135, "rental_uris": {"ios": "https://dc.lft.to/lastmile_qr_scan", "android": "https://dc.lft.to/lastmile_qr_scan"}}, {"name": "12ce84c91824959f472dc0a57b46625a", "fusion_lat": 0.0, "type": "electric_scooter", "lat": 38.90958283333333, "is_reserved": 0, "is_disabled": 0, "fusion_lon": 0.0, "bike_id": "12ce84c91824959f472dc0a57b46625a", "lon": -77.0113655, "rental_uris": {"ios": "https://dc.lft.to/lastmile_qr_scan", "android": "https://dc.lft.to/lastmile_qr_scan"}}, {"name": "5a518905258122400547c96132aefa5c", "fusion_lat": 0.0, "type": "electric_scooter", "lat": 38.936977666666664, "is_reserved": 0, "is_disabled": 0, "fusion_lon": 0.0, "bike_id": "5a518905258122400547c96132aefa5c", "lon": -77.02401033333334, "rental_uris": {"ios": "https://dc.lft.to/lastmile_qr_scan", "android": "https://dc.lft.to/lastmile_qr_scan"}}, {"name": "e93afee40afd55ed77f3fdb67e65e6d9", "fusion_lat": 0.0, "type": "electric_scooter", "lat": 38.876666666666665, "is_reserved": 0, "is_disabled": 0, "fusion_lon": 0.0, "bike_id": "e93afee40afd55ed77f3fdb67e65e6d9", "lon": -77.00439, "rental_uris": {"ios": "https://dc.lft.to/lastmile_qr_scan", "android": "https://dc.lft.to/lastmile_qr_scan"}}, {"name": "285013e17a6231ad8eac7b478c072b0f", "fusion_lat": 0.0, "type": "electric_scooter", "lat": 38.89852833333333, "is_reserved": 0, "is_disabled": 0, "fusion_lon": 0.0, "bike_id": "285013e17a6231ad8eac7b478c072b0f", "lon": -77.00733516666666, "rental_uris": {"ios": "https://dc.lft.to/lastmile_qr_scan", "android": "https://dc.lft.to/lastmile_qr_scan"}}, {"name": "5c17079bb8416bed901b82bb405b1ca5", "fusion_lat": 0.0, "type": "electric_scooter", "lat": 38.9156305, "is_reserved": 0, "is_disabled": 0, "fusion_lon": 0.0, "bike_id": "5c17079bb8416bed901b82bb405b1ca5", "lon": -77.014138, "rental_uris": {"ios": "https://dc.lft.to/lastmile_qr_scan", "android": "https://dc.lft.to/lastmile_qr_scan"}}, {"name": "c16643831a29a9c3e33b45cd8b24c0ff", "fusion_lat": 0.0, "type": "electric_bike", "lat": 38.946039999999996, "is_reserved": 0, "is_disabled": 0, "fusion_lon": 0.0, "bike_id": "c16643831a29a9c3e33b45cd8b24c0ff", "lon": -77.02978116666667, "rental_uris": {"ios": "https://dc.lft.to/lastmile_qr_scan", "android": "https://dc.lft.to/lastmile_qr_scan"}}, {"name": "945fc67f9a157eeae175852083a2852f", "fusion_lat": 0.0, "type": "electric_bike", "lat": 38.853995166666664, "is_reserved": 0, "is_disabled": 0, "fusion_lon": 0.0, "bike_id": "945fc67f9a157eeae175852083a2852f", "lon": -77.118281, "rental_uris": {"ios": "https://dc.lft.to/lastmile_qr_scan", "android": "https://dc.lft.to/lastmile_qr_scan"}}, {"name": "158f8d08cf41e10487dfb43f9d51916b", "fusion_lat": 0.0, "type": "electric_scooter", "lat": 38.9165635, "is_reserved": 0, "is_disabled": 0, "fusion_lon": 0.0, "bike_id": "158f8d08cf41e10487dfb43f9d51916b", "lon": -77.02312816666667, "rental_uris": {"ios": "https://dc.lft.to/lastmile_qr_scan", "android": "https://dc.lft.to/lastmile_qr_scan"}}, {"name": "c30ab87f59a3b9c64a9b2f3b3356a6eb", "fusion_lat": 0.0, "type": "electric_bike", "lat": 38.876057833333334, "is_reserved": 0, "is_disabled": 0, "fusion_lon": 0.0, "bike_id": "c30ab87f59a3b9c64a9b2f3b3356a6eb", "lon": -77.0008565, "rental_uris": {"ios": "https://dc.lft.to/lastmile_qr_scan", "android": "https://dc.lft.to/lastmile_qr_scan"}}, {"name": "880fbf2f09b31edb4efefd146f4d7194", "fusion_lat": 0.0, "type": "electric_scooter", "lat": 38.910413, "is_reserved": 0, "is_disabled": 0, "fusion_lon": 0.0, "bike_id": "880fbf2f09b31edb4efefd146f4d7194", "lon": -77.0238635, "rental_uris": {"ios": "https://dc.lft.to/lastmile_qr_scan", "android": "https://dc.lft.to/lastmile_qr_scan"}}, {"name": "3f040f6588ebdfa7c72e64b43383ea20", "fusion_lat": 0.0, "type": "electric_scooter", "lat": 38.89824616666667, "is_reserved": 0, "is_disabled": 0, "fusion_lon": 0.0, "bike_id": "3f040f6588ebdfa7c72e64b43383ea20", "lon": -77.02933766666666, "rental_uris": {"ios": "https://dc.lft.to/lastmile_qr_scan", "android": "https://dc.lft.to/lastmile_qr_scan"}}, {"name": "add4c60481f6877c5b121d8964f9c26e", "fusion_lat": 0.0, "type": "electric_bike", "lat": 38.85623966666667, "is_reserved": 0, "is_disabled": 0, "fusion_lon": 0.0, "bike_id": "add4c60481f6877c5b121d8964f9c26e", "lon": -77.08538983333334, "rental_uris": {"ios": "https://dc.lft.to/lastmile_qr_scan", "android": "https://dc.lft.to/lastmile_qr_scan"}}, {"name": "4ed6075ef90106ad5aa0aba72cb15aa5", "fusion_lat": 0.0, "type": "electric_scooter", "lat": 38.8969465, "is_reserved": 0, "is_disabled": 0, "fusion_lon": 0.0, "bike_id": "4ed6075ef90106ad5aa0aba72cb15aa5", "lon": -77.00484866666666, "rental_uris": {"ios": "https://dc.lft.to/lastmile_qr_scan", "android": "https://dc.lft.to/lastmile_qr_scan"}}, {"name": "8298a5c2ef9a1fe572f90fd0c72ffc08", "fusion_lat": 0.0, "type": "electric_scooter", "lat": 38.9085565, "is_reserved": 0, "is_disabled": 0, "fusion_lon": 0.0, "bike_id": "8298a5c2ef9a1fe572f90fd0c72ffc08", "lon": -76.99797966666667, "rental_uris": {"ios": "https://dc.lft.to/lastmile_qr_scan", "android": "https://dc.lft.to/lastmile_qr_scan"}}, {"name": "4f9dd9c2f957069bc4c34f16a155433a", "fusion_lat": 0.0, "type": "electric_scooter", "lat": 38.866566166666665, "is_reserved": 0, "is_disabled": 0, "fusion_lon": 0.0, "bike_id": "4f9dd9c2f957069bc4c34f16a155433a", "lon": -76.98886216666666, "rental_uris": {"ios": "https://dc.lft.to/lastmile_qr_scan", "android": "https://dc.lft.to/lastmile_qr_scan"}}, {"name": "5af450023fd4bfa3d14bd23cab6a5547", "fusion_lat": 0.0, "type": "electric_scooter", "lat": 38.90387283333333, "is_reserved": 0, "is_disabled": 0, "fusion_lon": 0.0, "bike_id": "5af450023fd4bfa3d14bd23cab6a5547", "lon": -77.005847, "rental_uris": {"ios": "https://dc.lft.to/lastmile_qr_scan", "android": "https://dc.lft.to/lastmile_qr_scan"}}, {"name": "5f0b7e358f42471cfd1717f3ab906e67", "fusion_lat": 0.0, "type": "electric_scooter", "lat": 38.92586516666667, "is_reserved": 0, "is_disabled": 0, "fusion_lon": 0.0, "bike_id": "5f0b7e358f42471cfd1717f3ab906e67", "lon": -77.02605733333333, "rental_uris": {"ios": "https://dc.lft.to/lastmile_qr_scan", "android": "https://dc.lft.to/lastmile_qr_scan"}}, {"name": "a7a923be7a0511f27eb609acdf129d9b", "fusion_lat": 0.0, "type": "electric_scooter", "lat": 38.8922655, "is_reserved": 0, "is_disabled": 0, "fusion_lon": 0.0, "bike_id": "a7a923be7a0511f27eb609acdf129d9b", "lon": -77.03198616666667, "rental_uris": {"ios": "https://dc.lft.to/lastmile_qr_scan", "android": "https://dc.lft.to/lastmile_qr_scan"}}, {"name": "9921c0165b945c847b9865187e013615", "fusion_lat": 0.0, "type": "electric_scooter", "lat": 38.899155666666665, "is_reserved": 0, "is_disabled": 0, "fusion_lon": 0.0, "bike_id": "9921c0165b945c847b9865187e013615", "lon": -77.01898883333334, "rental_uris": {"ios": "https://dc.lft.to/lastmile_qr_scan", "android": "https://dc.lft.to/lastmile_qr_scan"}}, {"name": "777cf4176bf3f61fb7971aedb350c98e", "fusion_lat": 0.0, "type": "electric_bike", "lat": 38.87734616666667, "is_reserved": 0, "is_disabled": 0, "fusion_lon": 0.0, "bike_id": "777cf4176bf3f61fb7971aedb350c98e", "lon": -77.00710033333333, "rental_uris": {"ios": "https://dc.lft.to/lastmile_qr_scan", "android": "https://dc.lft.to/lastmile_qr_scan"}}, {"name": "8a6210c3e81af30aa5eefd6834782dee", "fusion_lat": 0.0, "type": "electric_scooter", "lat": 38.93125766666667, "is_reserved": 0, "is_disabled": 0, "fusion_lon": 0.0, "bike_id": "8a6210c3e81af30aa5eefd6834782dee", "lon": -77.03603616666666, "rental_uris": {"ios": "https://dc.lft.to/lastmile_qr_scan", "android": "https://dc.lft.to/lastmile_qr_scan"}}, {"name": "9d6a10ca824f9d93b6bd5c77c8194712", "fusion_lat": 0.0, "type": "electric_bike", "lat": 38.9079205, "is_reserved": 0, "is_disabled": 0, "fusion_lon": 0.0, "bike_id": "9d6a10ca824f9d93b6bd5c77c8194712", "lon": -76.99701483333334, "rental_uris": {"ios": "https://dc.lft.to/lastmile_qr_scan", "android": "https://dc.lft.to/lastmile_qr_scan"}}, {"name": "5c6ae8f2ed0fb2472f7b457c8e36d64f", "fusion_lat": 0.0, "type": "electric_bike", "lat": 39.086231166666664, "is_reserved": 0, "is_disabled": 0, "fusion_lon": 0.0, "bike_id": "5c6ae8f2ed0fb2472f7b457c8e36d64f", "lon": -77.15191733333333, "rental_uris": {"ios": "https://dc.lft.to/lastmile_qr_scan", "android": "https://dc.lft.to/lastmile_qr_scan"}}, {"name": "f4f54e9cc5eb26d7de5b24b148e891bd", "fusion_lat": 0.0, "type": "electric_scooter", "lat": 38.897058666666666, "is_reserved": 0, "is_disabled": 0, "fusion_lon": 0.0, "bike_id": "f4f54e9cc5eb26d7de5b24b148e891bd", "lon": -77.00850083333333, "rental_uris": {"ios": "https://dc.lft.to/lastmile_qr_scan", "android": "https://dc.lft.to/lastmile_qr_scan"}}, {"name": "9bdd5bf32be0d8637dc69dfd3654183b", "fusion_lat": 0.0, "type": "electric_scooter", "lat": 38.9125575, "is_reserved": 0, "is_disabled": 0, "fusion_lon": 0.0, "bike_id": "9bdd5bf32be0d8637dc69dfd3654183b", "lon": -77.03867166666667, "rental_uris": {"ios": "https://dc.lft.to/lastmile_qr_scan", "android": "https://dc.lft.to/lastmile_qr_scan"}}, {"name": "61c3d995f62daab53db678f6bef5ddd9", "fusion_lat": 0.0, "type": "electric_scooter", "lat": 38.90323733333334, "is_reserved": 0, "is_disabled": 0, "fusion_lon": 0.0, "bike_id": "61c3d995f62daab53db678f6bef5ddd9", "lon": -77.036379, "rental_uris": {"ios": "https://dc.lft.to/lastmile_qr_scan", "android": "https://dc.lft.to/lastmile_qr_scan"}}, {"name": "575be79b0921d941b9967d1982541dbb", "fusion_lat": 0.0, "type": "electric_scooter", "lat": 38.901402166666664, "is_reserved": 0, "is_disabled": 0, "fusion_lon": 0.0, "bike_id": "575be79b0921d941b9967d1982541dbb", "lon": -76.999917, "rental_uris": {"ios": "https://dc.lft.to/lastmile_qr_scan", "android": "https://dc.lft.to/lastmile_qr_scan"}}, {"name": "d6324372242674b7acd7a907ec7ddc7e", "fusion_lat": 0.0, "type": "electric_scooter", "lat": 38.92333416666666, "is_reserved": 0, "is_disabled": 0, "fusion_lon": 0.0, "bike_id": "d6324372242674b7acd7a907ec7ddc7e", "lon": -77.04190933333334, "rental_uris": {"ios": "https://dc.lft.to/lastmile_qr_scan", "android": "https://dc.lft.to/lastmile_qr_scan"}}, {"name": "bc37040824f5a5d69305962a9190c596", "fusion_lat": 0.0, "type": "electric_scooter", "lat": 38.90051116666667, "is_reserved": 0, "is_disabled": 0, "fusion_lon": 0.0, "bike_id": "bc37040824f5a5d69305962a9190c596", "lon": -77.00068416666667, "rental_uris": {"ios": "https://dc.lft.to/lastmile_qr_scan", "android": "https://dc.lft.to/lastmile_qr_scan"}}, {"name": "7fad6a65ce58664caccd45eac2cdf136", "fusion_lat": 0.0, "type": "electric_scooter", "lat": 38.90960466666667, "is_reserved": 0, "is_disabled": 0, "fusion_lon": 0.0, "bike_id": "7fad6a65ce58664caccd45eac2cdf136", "lon": -77.02377883333334, "rental_uris": {"ios": "https://dc.lft.to/lastmile_qr_scan", "android": "https://dc.lft.to/lastmile_qr_scan"}}, {"name": "fe9a7b0eea83f6c49b122f6268b1ebd7", "fusion_lat": 0.0, "type": "electric_scooter", "lat": 38.909121666666664, "is_reserved": 0, "is_disabled": 0, "fusion_lon": 0.0, "bike_id": "fe9a7b0eea83f6c49b122f6268b1ebd7", "lon": -77.06422366666666, "rental_uris": {"ios": "https://dc.lft.to/lastmile_qr_scan", "android": "https://dc.lft.to/lastmile_qr_scan"}}, {"name": "e9dee085cfba57c3c5536b0590b6ed50", "fusion_lat": 0.0, "type": "electric_scooter", "lat": 38.88739016666667, "is_reserved": 0, "is_disabled": 0, "fusion_lon": 0.0, "bike_id": "e9dee085cfba57c3c5536b0590b6ed50", "lon": -77.0321785, "rental_uris": {"ios": "https://dc.lft.to/lastmile_qr_scan", "android": "https://dc.lft.to/lastmile_qr_scan"}}, {"name": "cb96c45d17cd7999225c0a9a67b2a2de", "fusion_lat": 0.0, "type": "electric_scooter", "lat": 38.8835265, "is_reserved": 0, "is_disabled": 0, "fusion_lon": 0.0, "bike_id": "cb96c45d17cd7999225c0a9a67b2a2de", "lon": -76.99610533333333, "rental_uris": {"ios": "https://dc.lft.to/lastmile_qr_scan", "android": "https://dc.lft.to/lastmile_qr_scan"}}, {"name": "51c9e370d80ca2d554b99a41ad23a74f", "fusion_lat": 0.0, "type": "electric_scooter", "lat": 38.91710716666667, "is_reserved": 0, "is_disabled": 0, "fusion_lon": 0.0, "bike_id": "51c9e370d80ca2d554b99a41ad23a74f", "lon": -77.0289715, "rental_uris": {"ios": "https://dc.lft.to/lastmile_qr_scan", "android": "https://dc.lft.to/lastmile_qr_scan"}}, {"name": "93cc81cd93f67e26086d0831bce8cd18", "fusion_lat": 0.0, "type": "electric_scooter", "lat": 38.8804775, "is_reserved": 0, "is_disabled": 0, "fusion_lon": 0.0, "bike_id": "93cc81cd93f67e26086d0831bce8cd18", "lon": -77.00514683333333, "rental_uris": {"ios": "https://dc.lft.to/lastmile_qr_scan", "android": "https://dc.lft.to/lastmile_qr_scan"}}, {"name": "f910b5a35345559697cf400d33029671", "fusion_lat": 0.0, "type": "electric_scooter", "lat": 38.9012225, "is_reserved": 0, "is_disabled": 0, "fusion_lon": 0.0, "bike_id": "f910b5a35345559697cf400d33029671", "lon": -77.0422745, "rental_uris": {"ios": "https://dc.lft.to/lastmile_qr_scan", "android": "https://dc.lft.to/lastmile_qr_scan"}}, {"name": "27339facc23b683af497f0294a99bcff", "fusion_lat": 0.0, "type": "electric_scooter", "lat": 38.905034, "is_reserved": 0, "is_disabled": 0, "fusion_lon": 0.0, "bike_id": "27339facc23b683af497f0294a99bcff", "lon": -77.065368, "rental_uris": {"ios": "https://dc.lft.to/lastmile_qr_scan", "android": "https://dc.lft.to/lastmile_qr_scan"}}, {"name": "c379f4d3b115bbcdd8f63093da564c32", "fusion_lat": 0.0, "type": "electric_scooter", "lat": 38.923304, "is_reserved": 0, "is_disabled": 0, "fusion_lon": 0.0, "bike_id": "c379f4d3b115bbcdd8f63093da564c32", "lon": -77.0195685, "rental_uris": {"ios": "https://dc.lft.to/lastmile_qr_scan", "android": "https://dc.lft.to/lastmile_qr_scan"}}, {"name": "2ed05ea7c6a934accc958361c5f84851", "fusion_lat": 0.0, "type": "electric_scooter", "lat": 38.90455466666667, "is_reserved": 0, "is_disabled": 0, "fusion_lon": 0.0, "bike_id": "2ed05ea7c6a934accc958361c5f84851", "lon": -77.03550283333334, "rental_uris": {"ios": "https://dc.lft.to/lastmile_qr_scan", "android": "https://dc.lft.to/lastmile_qr_scan"}}, {"name": "95ae0702ed8da5f4084696dde232cd37", "fusion_lat": 0.0, "type": "electric_scooter", "lat": 38.909491333333335, "is_reserved": 0, "is_disabled": 0, "fusion_lon": 0.0, "bike_id": "95ae0702ed8da5f4084696dde232cd37", "lon": -77.03206583333333, "rental_uris": {"ios": "https://dc.lft.to/lastmile_qr_scan", "android": "https://dc.lft.to/lastmile_qr_scan"}}, {"name": "808694dfc322e0240cca1b0a816260cf", "fusion_lat": 0.0, "type": "electric_scooter", "lat": 38.9292545, "is_reserved": 0, "is_disabled": 0, "fusion_lon": 0.0, "bike_id": "808694dfc322e0240cca1b0a816260cf", "lon": -77.03675233333334, "rental_uris": {"ios": "https://dc.lft.to/lastmile_qr_scan", "android": "https://dc.lft.to/lastmile_qr_scan"}}, {"name": "ade228584962a971cdb1660511c77b2a", "fusion_lat": 0.0, "type": "electric_scooter", "lat": 38.93607, "is_reserved": 0, "is_disabled": 0, "fusion_lon": 0.0, "bike_id": "ade228584962a971cdb1660511c77b2a", "lon": -77.05859866666667, "rental_uris": {"ios": "https://dc.lft.to/lastmile_qr_scan", "android": "https://dc.lft.to/lastmile_qr_scan"}}, {"name": "5bbfc1136b30eb20daacd0a5a567dbb7", "fusion_lat": 0.0, "type": "electric_scooter", "lat": 38.91697083333333, "is_reserved": 0, "is_disabled": 0, "fusion_lon": 0.0, "bike_id": "5bbfc1136b30eb20daacd0a5a567dbb7", "lon": -77.02856583333333, "rental_uris": {"ios": "https://dc.lft.to/lastmile_qr_scan", "android": "https://dc.lft.to/lastmile_qr_scan"}}, {"name": "47920670200f99a78c587cdcaf029d80", "fusion_lat": 0.0, "type": "electric_scooter", "lat": 38.91681416666667, "is_reserved": 0, "is_disabled": 0, "fusion_lon": 0.0, "bike_id": "47920670200f99a78c587cdcaf029d80", "lon": -77.01579533333333, "rental_uris": {"ios": "https://dc.lft.to/lastmile_qr_scan", "android": "https://dc.lft.to/lastmile_qr_scan"}}, {"name": "998e7cb07fb33ae536f09c87ee6f69b7", "fusion_lat": 0.0, "type": "electric_scooter", "lat": 38.916133333333335, "is_reserved": 0, "is_disabled": 0, "fusion_lon": 0.0, "bike_id": "998e7cb07fb33ae536f09c87ee6f69b7", "lon": -77.0231065, "rental_uris": {"ios": "https://dc.lft.to/lastmile_qr_scan", "android": "https://dc.lft.to/lastmile_qr_scan"}}, {"name": "f4f9ea6750b20b984e0c11ddf4e83dd2", "fusion_lat": 0.0, "type": "electric_scooter", "lat": 38.90870066666667, "is_reserved": 0, "is_disabled": 0, "fusion_lon": 0.0, "bike_id": "f4f9ea6750b20b984e0c11ddf4e83dd2", "lon": -77.04585533333334, "rental_uris": {"ios": "https://dc.lft.to/lastmile_qr_scan", "android": "https://dc.lft.to/lastmile_qr_scan"}}, {"name": "ec69d98f18f1d99f521a8f502ce2682c", "fusion_lat": 0.0, "type": "electric_scooter", "lat": 38.8997395, "is_reserved": 0, "is_disabled": 0, "fusion_lon": 0.0, "bike_id": "ec69d98f18f1d99f521a8f502ce2682c", "lon": -77.0318295, "rental_uris": {"ios": "https://dc.lft.to/lastmile_qr_scan", "android": "https://dc.lft.to/lastmile_qr_scan"}}, {"name": "7e494382b00d4c9690a5340da35aa55b", "fusion_lat": 0.0, "type": "electric_scooter", "lat": 38.8983205, "is_reserved": 0, "is_disabled": 0, "fusion_lon": 0.0, "bike_id": "7e494382b00d4c9690a5340da35aa55b", "lon": -76.94641816666666, "rental_uris": {"ios": "https://dc.lft.to/lastmile_qr_scan", "android": "https://dc.lft.to/lastmile_qr_scan"}}, {"name": "1f25b80a320242394a3791b8577c3d8a", "fusion_lat": 0.0, "type": "electric_scooter", "lat": 38.911840166666664, "is_reserved": 0, "is_disabled": 0, "fusion_lon": 0.0, "bike_id": "1f25b80a320242394a3791b8577c3d8a", "lon": -76.9961465, "rental_uris": {"ios": "https://dc.lft.to/lastmile_qr_scan", "android": "https://dc.lft.to/lastmile_qr_scan"}}, {"name": "5a8c166efc0bebca76f2ad2d850a570f", "fusion_lat": 0.0, "type": "electric_scooter", "lat": 38.9071905, "is_reserved": 0, "is_disabled": 0, "fusion_lon": 0.0, "bike_id": "5a8c166efc0bebca76f2ad2d850a570f", "lon": -77.03360233333333, "rental_uris": {"ios": "https://dc.lft.to/lastmile_qr_scan", "android": "https://dc.lft.to/lastmile_qr_scan"}}, {"name": "cb83a54039ab353c14cd8ebfe9b5e9b0", "fusion_lat": 0.0, "type": "electric_bike", "lat": 38.897672666666665, "is_reserved": 0, "is_disabled": 0, "fusion_lon": 0.0, "bike_id": "cb83a54039ab353c14cd8ebfe9b5e9b0", "lon": -76.9043825, "rental_uris": {"ios": "https://dc.lft.to/lastmile_qr_scan", "android": "https://dc.lft.to/lastmile_qr_scan"}}, {"name": "08268efc7dbe66afe276a00b8d185932", "fusion_lat": 0.0, "type": "electric_scooter", "lat": 38.9311785, "is_reserved": 0, "is_disabled": 0, "fusion_lon": 0.0, "bike_id": "08268efc7dbe66afe276a00b8d185932", "lon": -77.02406316666666, "rental_uris": {"ios": "https://dc.lft.to/lastmile_qr_scan", "android": "https://dc.lft.to/lastmile_qr_scan"}}, {"name": "dbda900b1e6c23d3e1f0a136d419575f", "fusion_lat": 0.0, "type": "electric_scooter", "lat": 38.898565166666664, "is_reserved": 0, "is_disabled": 0, "fusion_lon": 0.0, "bike_id": "dbda900b1e6c23d3e1f0a136d419575f", "lon": -77.00731333333333, "rental_uris": {"ios": "https://dc.lft.to/lastmile_qr_scan", "android": "https://dc.lft.to/lastmile_qr_scan"}}, {"name": "de1c3ad2cb084cce0fd676f3a38037b0", "fusion_lat": 0.0, "type": "electric_scooter", "lat": 38.9389815, "is_reserved": 0, "is_disabled": 0, "fusion_lon": 0.0, "bike_id": "de1c3ad2cb084cce0fd676f3a38037b0", "lon": -77.03288, "rental_uris": {"ios": "https://dc.lft.to/lastmile_qr_scan", "android": "https://dc.lft.to/lastmile_qr_scan"}}, {"name": "069b56687c430444d1a6a60e0769d2c1", "fusion_lat": 0.0, "type": "electric_scooter", "lat": 38.9088385, "is_reserved": 0, "is_disabled": 0, "fusion_lon": 0.0, "bike_id": "069b56687c430444d1a6a60e0769d2c1", "lon": -77.04662366666666, "rental_uris": {"ios": "https://dc.lft.to/lastmile_qr_scan", "android": "https://dc.lft.to/lastmile_qr_scan"}}, {"name": "6c79e3a4cac8795dc778756f42250c40", "fusion_lat": 0.0, "type": "electric_scooter", "lat": 38.9356415, "is_reserved": 0, "is_disabled": 0, "fusion_lon": 0.0, "bike_id": "6c79e3a4cac8795dc778756f42250c40", "lon": -77.02139966666667, "rental_uris": {"ios": "https://dc.lft.to/lastmile_qr_scan", "android": "https://dc.lft.to/lastmile_qr_scan"}}, {"name": "0cead785ed7df4a8153eab9829d6d309", "fusion_lat": 0.0, "type": "electric_scooter", "lat": 38.902441833333334, "is_reserved": 0, "is_disabled": 0, "fusion_lon": 0.0, "bike_id": "0cead785ed7df4a8153eab9829d6d309", "lon": -76.99933383333334, "rental_uris": {"ios": "https://dc.lft.to/lastmile_qr_scan", "android": "https://dc.lft.to/lastmile_qr_scan"}}, {"name": "9514601596b5380164fe873420323a61", "fusion_lat": 0.0, "type": "electric_scooter", "lat": 38.9357125, "is_reserved": 0, "is_disabled": 0, "fusion_lon": 0.0, "bike_id": "9514601596b5380164fe873420323a61", "lon": -77.02121383333333, "rental_uris": {"ios": "https://dc.lft.to/lastmile_qr_scan", "android": "https://dc.lft.to/lastmile_qr_scan"}}, {"name": "6750b6cb6eb5cd4ba8b45de9d66b346f", "fusion_lat": 0.0, "type": "electric_scooter", "lat": 38.89843466666667, "is_reserved": 0, "is_disabled": 0, "fusion_lon": 0.0, "bike_id": "6750b6cb6eb5cd4ba8b45de9d66b346f", "lon": -77.02940016666666, "rental_uris": {"ios": "https://dc.lft.to/lastmile_qr_scan", "android": "https://dc.lft.to/lastmile_qr_scan"}}, {"name": "e706cea2a35a6408f96cddd9bb9e6fcb", "fusion_lat": 0.0, "type": "electric_bike", "lat": 38.9933175, "is_reserved": 0, "is_disabled": 0, "fusion_lon": 0.0, "bike_id": "e706cea2a35a6408f96cddd9bb9e6fcb", "lon": -77.02679133333334, "rental_uris": {"ios": "https://dc.lft.to/lastmile_qr_scan", "android": "https://dc.lft.to/lastmile_qr_scan"}}, {"name": "8a7fac8a389c02301e96061f3687c441", "fusion_lat": 0.0, "type": "electric_scooter", "lat": 38.9118385, "is_reserved": 0, "is_disabled": 0, "fusion_lon": 0.0, "bike_id": "8a7fac8a389c02301e96061f3687c441", "lon": -77.0415325, "rental_uris": {"ios": "https://dc.lft.to/lastmile_qr_scan", "android": "https://dc.lft.to/lastmile_qr_scan"}}, {"name": "c2acdd8f9ae7d4f0c1f1f522b62fe730", "fusion_lat": 0.0, "type": "electric_scooter", "lat": 38.928808, "is_reserved": 0, "is_disabled": 0, "fusion_lon": 0.0, "bike_id": "c2acdd8f9ae7d4f0c1f1f522b62fe730", "lon": -77.032313, "rental_uris": {"ios": "https://dc.lft.to/lastmile_qr_scan", "android": "https://dc.lft.to/lastmile_qr_scan"}}, {"name": "bd7cc634ba0914050af1ab3fc9b8cae8", "fusion_lat": 0.0, "type": "electric_scooter", "lat": 38.895385, "is_reserved": 0, "is_disabled": 0, "fusion_lon": 0.0, "bike_id": "bd7cc634ba0914050af1ab3fc9b8cae8", "lon": -77.02414416666667, "rental_uris": {"ios": "https://dc.lft.to/lastmile_qr_scan", "android": "https://dc.lft.to/lastmile_qr_scan"}}, {"name": "c6796162cc2d9f9da743610b4a7c8596", "fusion_lat": 0.0, "type": "electric_scooter", "lat": 38.90535466666667, "is_reserved": 0, "is_disabled": 0, "fusion_lon": 0.0, "bike_id": "c6796162cc2d9f9da743610b4a7c8596", "lon": -77.05005866666667, "rental_uris": {"ios": "https://dc.lft.to/lastmile_qr_scan", "android": "https://dc.lft.to/lastmile_qr_scan"}}, {"name": "9e0f1143d0e47008feb88c89a06781d1", "fusion_lat": 0.0, "type": "electric_bike", "lat": 38.90530116666667, "is_reserved": 0, "is_disabled": 0, "fusion_lon": 0.0, "bike_id": "9e0f1143d0e47008feb88c89a06781d1", "lon": -76.99811866666667, "rental_uris": {"ios": "https://dc.lft.to/lastmile_qr_scan", "android": "https://dc.lft.to/lastmile_qr_scan"}}, {"name": "876e8d4410409a57267856d6619dfccb", "fusion_lat": 0.0, "type": "electric_scooter", "lat": 38.8997895, "is_reserved": 0, "is_disabled": 0, "fusion_lon": 0.0, "bike_id": "876e8d4410409a57267856d6619dfccb", "lon": -77.02719766666667, "rental_uris": {"ios": "https://dc.lft.to/lastmile_qr_scan", "android": "https://dc.lft.to/lastmile_qr_scan"}}, {"name": "279720f26b36be86be799e4059bdfe0f", "fusion_lat": 0.0, "type": "electric_scooter", "lat": 38.917403, "is_reserved": 0, "is_disabled": 0, "fusion_lon": 0.0, "bike_id": "279720f26b36be86be799e4059bdfe0f", "lon": -77.032069, "rental_uris": {"ios": "https://dc.lft.to/lastmile_qr_scan", "android": "https://dc.lft.to/lastmile_qr_scan"}}, {"name": "98a398b510fe531ccdfbc6eb684b50c4", "fusion_lat": 0.0, "type": "electric_bike", "lat": 38.99454, "is_reserved": 0, "is_disabled": 0, "fusion_lon": 0.0, "bike_id": "98a398b510fe531ccdfbc6eb684b50c4", "lon": -76.90814666666667, "rental_uris": {"ios": "https://dc.lft.to/lastmile_qr_scan", "android": "https://dc.lft.to/lastmile_qr_scan"}}, {"name": "3b32ba90c42f4edbbb08aa7b2771978d", "fusion_lat": 0.0, "type": "electric_scooter", "lat": 38.92236366666667, "is_reserved": 0, "is_disabled": 0, "fusion_lon": 0.0, "bike_id": "3b32ba90c42f4edbbb08aa7b2771978d", "lon": -77.03092666666667, "rental_uris": {"ios": "https://dc.lft.to/lastmile_qr_scan", "android": "https://dc.lft.to/lastmile_qr_scan"}}, {"name": "e3c20544872de662a6c2c410ed533907", "fusion_lat": 0.0, "type": "electric_scooter", "lat": 38.911743666666666, "is_reserved": 0, "is_disabled": 0, "fusion_lon": 0.0, "bike_id": "e3c20544872de662a6c2c410ed533907", "lon": -77.0317965, "rental_uris": {"ios": "https://dc.lft.to/lastmile_qr_scan", "android": "https://dc.lft.to/lastmile_qr_scan"}}, {"name": "efd4979225176b31815da2272a02b3f1", "fusion_lat": 0.0, "type": "electric_scooter", "lat": 38.90281566666667, "is_reserved": 0, "is_disabled": 0, "fusion_lon": 0.0, "bike_id": "efd4979225176b31815da2272a02b3f1", "lon": -77.03838916666666, "rental_uris": {"ios": "https://dc.lft.to/lastmile_qr_scan", "android": "https://dc.lft.to/lastmile_qr_scan"}}, {"name": "43e6787a19c0205db21ff6092f5d9b05", "fusion_lat": 0.0, "type": "electric_bike", "lat": 38.872943166666666, "is_reserved": 0, "is_disabled": 0, "fusion_lon": 0.0, "bike_id": "43e6787a19c0205db21ff6092f5d9b05", "lon": -77.01101016666667, "rental_uris": {"ios": "https://dc.lft.to/lastmile_qr_scan", "android": "https://dc.lft.to/lastmile_qr_scan"}}, {"name": "574894c0098064fbc324b74260953a34", "fusion_lat": 0.0, "type": "electric_scooter", "lat": 38.94310883333333, "is_reserved": 0, "is_disabled": 0, "fusion_lon": 0.0, "bike_id": "574894c0098064fbc324b74260953a34", "lon": -77.02488, "rental_uris": {"ios": "https://dc.lft.to/lastmile_qr_scan", "android": "https://dc.lft.to/lastmile_qr_scan"}}, {"name": "d78b1886a3090a9aca91a87ba627819a", "fusion_lat": 0.0, "type": "electric_bike", "lat": 38.862734333333336, "is_reserved": 0, "is_disabled": 0, "fusion_lon": 0.0, "bike_id": "d78b1886a3090a9aca91a87ba627819a", "lon": -77.05981783333333, "rental_uris": {"ios": "https://dc.lft.to/lastmile_qr_scan", "android": "https://dc.lft.to/lastmile_qr_scan"}}, {"name": "e160a84786714f76d18349737e391073", "fusion_lat": 0.0, "type": "electric_bike", "lat": 38.83981033333333, "is_reserved": 0, "is_disabled": 0, "fusion_lon": 0.0, "bike_id": "e160a84786714f76d18349737e391073", "lon": -77.0056625, "rental_uris": {"ios": "https://dc.lft.to/lastmile_qr_scan", "android": "https://dc.lft.to/lastmile_qr_scan"}}, {"name": "39429ba5a4f1709950b9cdf625e440de", "fusion_lat": 0.0, "type": "electric_scooter", "lat": 38.9122595, "is_reserved": 0, "is_disabled": 0, "fusion_lon": 0.0, "bike_id": "39429ba5a4f1709950b9cdf625e440de", "lon": -77.032074, "rental_uris": {"ios": "https://dc.lft.to/lastmile_qr_scan", "android": "https://dc.lft.to/lastmile_qr_scan"}}, {"name": "933da36664211c87ea1bef99e915d90c", "fusion_lat": 0.0, "type": "electric_scooter", "lat": 38.886021, "is_reserved": 0, "is_disabled": 0, "fusion_lon": 0.0, "bike_id": "933da36664211c87ea1bef99e915d90c", "lon": -77.02190816666666, "rental_uris": {"ios": "https://dc.lft.to/lastmile_qr_scan", "android": "https://dc.lft.to/lastmile_qr_scan"}}, {"name": "57c2ddc46b0616216e7aba752638c242", "fusion_lat": 0.0, "type": "electric_scooter", "lat": 38.900785, "is_reserved": 0, "is_disabled": 0, "fusion_lon": 0.0, "bike_id": "57c2ddc46b0616216e7aba752638c242", "lon": -77.05031016666666, "rental_uris": {"ios": "https://dc.lft.to/lastmile_qr_scan", "android": "https://dc.lft.to/lastmile_qr_scan"}}, {"name": "2842febc9d05e71bb5841b1bced295f3", "fusion_lat": 0.0, "type": "electric_scooter", "lat": 38.885034833333336, "is_reserved": 0, "is_disabled": 0, "fusion_lon": 0.0, "bike_id": "2842febc9d05e71bb5841b1bced295f3", "lon": -77.00566333333333, "rental_uris": {"ios": "https://dc.lft.to/lastmile_qr_scan", "android": "https://dc.lft.to/lastmile_qr_scan"}}, {"name": "70a1efb4d8a6402cb5bdea80261d350a", "fusion_lat": 0.0, "type": "electric_scooter", "lat": 38.912482, "is_reserved": 0, "is_disabled": 0, "fusion_lon": 0.0, "bike_id": "70a1efb4d8a6402cb5bdea80261d350a", "lon": -77.038378, "rental_uris": {"ios": "https://dc.lft.to/lastmile_qr_scan", "android": "https://dc.lft.to/lastmile_qr_scan"}}, {"name": "3d86f903b449758abdfd8aa421a25630", "fusion_lat": 0.0, "type": "electric_scooter", "lat": 38.929802333333335, "is_reserved": 0, "is_disabled": 0, "fusion_lon": 0.0, "bike_id": "3d86f903b449758abdfd8aa421a25630", "lon": -77.0144795, "rental_uris": {"ios": "https://dc.lft.to/lastmile_qr_scan", "android": "https://dc.lft.to/lastmile_qr_scan"}}, {"name": "f8196cf5b5a17ba877ffc28dd9860659", "fusion_lat": 0.0, "type": "electric_scooter", "lat": 38.862432, "is_reserved": 0, "is_disabled": 0, "fusion_lon": 0.0, "bike_id": "f8196cf5b5a17ba877ffc28dd9860659", "lon": -76.99537416666666, "rental_uris": {"ios": "https://dc.lft.to/lastmile_qr_scan", "android": "https://dc.lft.to/lastmile_qr_scan"}}, {"name": "13eae6c7c3146e6667f74d7f526d8444", "fusion_lat": 0.0, "type": "electric_scooter", "lat": 38.943420333333336, "is_reserved": 0, "is_disabled": 0, "fusion_lon": 0.0, "bike_id": "13eae6c7c3146e6667f74d7f526d8444", "lon": -77.06047733333334, "rental_uris": {"ios": "https://dc.lft.to/lastmile_qr_scan", "android": "https://dc.lft.to/lastmile_qr_scan"}}, {"name": "776be3c02e86432b8b81e0b06269b500", "fusion_lat": 0.0, "type": "electric_scooter", "lat": 38.895587, "is_reserved": 0, "is_disabled": 0, "fusion_lon": 0.0, "bike_id": "776be3c02e86432b8b81e0b06269b500", "lon": -77.046819, "rental_uris": {"ios": "https://dc.lft.to/lastmile_qr_scan", "android": "https://dc.lft.to/lastmile_qr_scan"}}, {"name": "4cadc81a6341564f0f743965082975c5", "fusion_lat": 0.0, "type": "electric_scooter", "lat": 38.87084016666667, "is_reserved": 0, "is_disabled": 0, "fusion_lon": 0.0, "bike_id": "4cadc81a6341564f0f743965082975c5", "lon": -77.01123716666666, "rental_uris": {"ios": "https://dc.lft.to/lastmile_qr_scan", "android": "https://dc.lft.to/lastmile_qr_scan"}}, {"name": "c57bb59c56870a6dc7bb69101c0ae0b5", "fusion_lat": 0.0, "type": "electric_scooter", "lat": 38.93460683333333, "is_reserved": 0, "is_disabled": 0, "fusion_lon": 0.0, "bike_id": "c57bb59c56870a6dc7bb69101c0ae0b5", "lon": -77.08635, "rental_uris": {"ios": "https://dc.lft.to/lastmile_qr_scan", "android": "https://dc.lft.to/lastmile_qr_scan"}}, {"name": "acd6343142d76b4fd582454e0ca80982", "fusion_lat": 0.0, "type": "electric_scooter", "lat": 38.899546, "is_reserved": 0, "is_disabled": 0, "fusion_lon": 0.0, "bike_id": "acd6343142d76b4fd582454e0ca80982", "lon": -77.052695, "rental_uris": {"ios": "https://dc.lft.to/lastmile_qr_scan", "android": "https://dc.lft.to/lastmile_qr_scan"}}, {"name": "bd30fea074b3fb82660e0f9496628e4b", "fusion_lat": 0.0, "type": "electric_scooter", "lat": 38.88783433333333, "is_reserved": 0, "is_disabled": 0, "fusion_lon": 0.0, "bike_id": "bd30fea074b3fb82660e0f9496628e4b", "lon": -76.955304, "rental_uris": {"ios": "https://dc.lft.to/lastmile_qr_scan", "android": "https://dc.lft.to/lastmile_qr_scan"}}, {"name": "8d5c174cffb36b084c3a8881797bce3e", "fusion_lat": 0.0, "type": "electric_scooter", "lat": 38.86919433333333, "is_reserved": 0, "is_disabled": 0, "fusion_lon": 0.0, "bike_id": "8d5c174cffb36b084c3a8881797bce3e", "lon": -76.97499933333333, "rental_uris": {"ios": "https://dc.lft.to/lastmile_qr_scan", "android": "https://dc.lft.to/lastmile_qr_scan"}}, {"name": "0ed42e06e8d7629f227ff9b76d7ff3b5", "fusion_lat": 0.0, "type": "electric_scooter", "lat": 38.924849, "is_reserved": 0, "is_disabled": 0, "fusion_lon": 0.0, "bike_id": "0ed42e06e8d7629f227ff9b76d7ff3b5", "lon": -77.05217566666667, "rental_uris": {"ios": "https://dc.lft.to/lastmile_qr_scan", "android": "https://dc.lft.to/lastmile_qr_scan"}}, {"name": "6e3b35bf9cc058c13e0cea42e549f688", "fusion_lat": 0.0, "type": "electric_bike", "lat": 38.90638216666667, "is_reserved": 0, "is_disabled": 0, "fusion_lon": 0.0, "bike_id": "6e3b35bf9cc058c13e0cea42e549f688", "lon": -77.02385416666667, "rental_uris": {"ios": "https://dc.lft.to/lastmile_qr_scan", "android": "https://dc.lft.to/lastmile_qr_scan"}}, {"name": "87610b9c7d0b29ba137a71aede27a3db", "fusion_lat": 0.0, "type": "electric_scooter", "lat": 38.8851665, "is_reserved": 0, "is_disabled": 0, "fusion_lon": 0.0, "bike_id": "87610b9c7d0b29ba137a71aede27a3db", "lon": -77.0334965, "rental_uris": {"ios": "https://dc.lft.to/lastmile_qr_scan", "android": "https://dc.lft.to/lastmile_qr_scan"}}, {"name": "293d05bf364e0ee4d16ef404ba4d83ec", "fusion_lat": 0.0, "type": "electric_bike", "lat": 38.93529133333333, "is_reserved": 0, "is_disabled": 0, "fusion_lon": 0.0, "bike_id": "293d05bf364e0ee4d16ef404ba4d83ec", "lon": -77.057002, "rental_uris": {"ios": "https://dc.lft.to/lastmile_qr_scan", "android": "https://dc.lft.to/lastmile_qr_scan"}}, {"name": "c3ae11dc20bf288dc91b005dcbac6d1f", "fusion_lat": 0.0, "type": "electric_scooter", "lat": 38.90028316666667, "is_reserved": 0, "is_disabled": 0, "fusion_lon": 0.0, "bike_id": "c3ae11dc20bf288dc91b005dcbac6d1f", "lon": -76.99856016666666, "rental_uris": {"ios": "https://dc.lft.to/lastmile_qr_scan", "android": "https://dc.lft.to/lastmile_qr_scan"}}, {"name": "0cc69e409012268576ba38f891b673a1", "fusion_lat": 0.0, "type": "electric_scooter", "lat": 38.910591833333335, "is_reserved": 0, "is_disabled": 0, "fusion_lon": 0.0, "bike_id": "0cc69e409012268576ba38f891b673a1", "lon": -77.04580366666667, "rental_uris": {"ios": "https://dc.lft.to/lastmile_qr_scan", "android": "https://dc.lft.to/lastmile_qr_scan"}}, {"name": "eedd6a2970c095a19bf1f6e3ee2ca0df", "fusion_lat": 0.0, "type": "electric_scooter", "lat": 38.903329666666664, "is_reserved": 0, "is_disabled": 0, "fusion_lon": 0.0, "bike_id": "eedd6a2970c095a19bf1f6e3ee2ca0df", "lon": -77.020679, "rental_uris": {"ios": "https://dc.lft.to/lastmile_qr_scan", "android": "https://dc.lft.to/lastmile_qr_scan"}}, {"name": "5e4d858a5812fe8056660ea08d09c832", "fusion_lat": 0.0, "type": "electric_scooter", "lat": 38.87374716666667, "is_reserved": 0, "is_disabled": 0, "fusion_lon": 0.0, "bike_id": "5e4d858a5812fe8056660ea08d09c832", "lon": -77.00035516666667, "rental_uris": {"ios": "https://dc.lft.to/lastmile_qr_scan", "android": "https://dc.lft.to/lastmile_qr_scan"}}, {"name": "61745528b31486b5cdf72a158b1bf2f3", "fusion_lat": 0.0, "type": "electric_scooter", "lat": 38.919114, "is_reserved": 0, "is_disabled": 0, "fusion_lon": 0.0, "bike_id": "61745528b31486b5cdf72a158b1bf2f3", "lon": -77.02136016666667, "rental_uris": {"ios": "https://dc.lft.to/lastmile_qr_scan", "android": "https://dc.lft.to/lastmile_qr_scan"}}, {"name": "f478fdfd9dbf71fe65395f05f274ca9f", "fusion_lat": 0.0, "type": "electric_scooter", "lat": 38.9053805, "is_reserved": 0, "is_disabled": 0, "fusion_lon": 0.0, "bike_id": "f478fdfd9dbf71fe65395f05f274ca9f", "lon": -77.0294475, "rental_uris": {"ios": "https://dc.lft.to/lastmile_qr_scan", "android": "https://dc.lft.to/lastmile_qr_scan"}}, {"name": "27897ba37f8208906d5d1c4f39129261", "fusion_lat": 0.0, "type": "electric_scooter", "lat": 38.9187005, "is_reserved": 0, "is_disabled": 0, "fusion_lon": 0.0, "bike_id": "27897ba37f8208906d5d1c4f39129261", "lon": -77.042145, "rental_uris": {"ios": "https://dc.lft.to/lastmile_qr_scan", "android": "https://dc.lft.to/lastmile_qr_scan"}}, {"name": "b28200026e7360d94093bb22566adf35", "fusion_lat": 0.0, "type": "electric_bike", "lat": 38.9676005, "is_reserved": 0, "is_disabled": 0, "fusion_lon": 0.0, "bike_id": "b28200026e7360d94093bb22566adf35", "lon": -77.09162916666666, "rental_uris": {"ios": "https://dc.lft.to/lastmile_qr_scan", "android": "https://dc.lft.to/lastmile_qr_scan"}}, {"name": "ea76daa4d2512bfababb6a8dfd58ba8e", "fusion_lat": 0.0, "type": "electric_scooter", "lat": 38.8874475, "is_reserved": 0, "is_disabled": 0, "fusion_lon": 0.0, "bike_id": "ea76daa4d2512bfababb6a8dfd58ba8e", "lon": -77.01541866666666, "rental_uris": {"ios": "https://dc.lft.to/lastmile_qr_scan", "android": "https://dc.lft.to/lastmile_qr_scan"}}, {"name": "5b8822754e2199355cc5412e5dd0272e", "fusion_lat": 0.0, "type": "electric_scooter", "lat": 38.892466666666664, "is_reserved": 0, "is_disabled": 0, "fusion_lon": 0.0, "bike_id": "5b8822754e2199355cc5412e5dd0272e", "lon": -77.0178045, "rental_uris": {"ios": "https://dc.lft.to/lastmile_qr_scan", "android": "https://dc.lft.to/lastmile_qr_scan"}}, {"name": "d5b36600b4ac2fcb4393c7b0aa180d1a", "fusion_lat": 0.0, "type": "electric_bike", "lat": 38.8616205, "is_reserved": 0, "is_disabled": 0, "fusion_lon": 0.0, "bike_id": "d5b36600b4ac2fcb4393c7b0aa180d1a", "lon": -77.13094366666667, "rental_uris": {"ios": "https://dc.lft.to/lastmile_qr_scan", "android": "https://dc.lft.to/lastmile_qr_scan"}}, {"name": "73d4d0864c66b60aa4e820ef196de204", "fusion_lat": 0.0, "type": "electric_scooter", "lat": 38.902338666666665, "is_reserved": 0, "is_disabled": 0, "fusion_lon": 0.0, "bike_id": "73d4d0864c66b60aa4e820ef196de204", "lon": -76.97413316666666, "rental_uris": {"ios": "https://dc.lft.to/lastmile_qr_scan", "android": "https://dc.lft.to/lastmile_qr_scan"}}, {"name": "1a22e95056b62ffa001641acb665d0e5", "fusion_lat": 0.0, "type": "electric_scooter", "lat": 38.908196, "is_reserved": 0, "is_disabled": 0, "fusion_lon": 0.0, "bike_id": "1a22e95056b62ffa001641acb665d0e5", "lon": -76.997115, "rental_uris": {"ios": "https://dc.lft.to/lastmile_qr_scan", "android": "https://dc.lft.to/lastmile_qr_scan"}}, {"name": "f4cdf9065321bae4045cb8dd5797fe34", "fusion_lat": 0.0, "type": "electric_scooter", "lat": 38.911830333333334, "is_reserved": 0, "is_disabled": 0, "fusion_lon": 0.0, "bike_id": "f4cdf9065321bae4045cb8dd5797fe34", "lon": -77.04450083333333, "rental_uris": {"ios": "https://dc.lft.to/lastmile_qr_scan", "android": "https://dc.lft.to/lastmile_qr_scan"}}, {"name": "79489838bccbc870587b721ff8cc0c72", "fusion_lat": 0.0, "type": "electric_scooter", "lat": 38.901126, "is_reserved": 0, "is_disabled": 0, "fusion_lon": 0.0, "bike_id": "79489838bccbc870587b721ff8cc0c72", "lon": -77.039787, "rental_uris": {"ios": "https://dc.lft.to/lastmile_qr_scan", "android": "https://dc.lft.to/lastmile_qr_scan"}}, {"name": "03285fa2803910f9636abc88c9b9e86c", "fusion_lat": 0.0, "type": "electric_scooter", "lat": 38.9140305, "is_reserved": 0, "is_disabled": 0, "fusion_lon": 0.0, "bike_id": "03285fa2803910f9636abc88c9b9e86c", "lon": -77.00806716666666, "rental_uris": {"ios": "https://dc.lft.to/lastmile_qr_scan", "android": "https://dc.lft.to/lastmile_qr_scan"}}, {"name": "afaadba03744f0b5c14d377658d7515b", "fusion_lat": 0.0, "type": "electric_scooter", "lat": 38.88356516666666, "is_reserved": 0, "is_disabled": 0, "fusion_lon": 0.0, "bike_id": "afaadba03744f0b5c14d377658d7515b", "lon": -77.02332183333333, "rental_uris": {"ios": "https://dc.lft.to/lastmile_qr_scan", "android": "https://dc.lft.to/lastmile_qr_scan"}}, {"name": "a474ef70420fcc7231de9ac5eb312953", "fusion_lat": 0.0, "type": "electric_scooter", "lat": 38.9207355, "is_reserved": 0, "is_disabled": 0, "fusion_lon": 0.0, "bike_id": "a474ef70420fcc7231de9ac5eb312953", "lon": -77.02398083333334, "rental_uris": {"ios": "https://dc.lft.to/lastmile_qr_scan", "android": "https://dc.lft.to/lastmile_qr_scan"}}, {"name": "cd0c7e5fdbf6d358580ec63b024d78d3", "fusion_lat": 0.0, "type": "electric_scooter", "lat": 38.92180716666667, "is_reserved": 0, "is_disabled": 0, "fusion_lon": 0.0, "bike_id": "cd0c7e5fdbf6d358580ec63b024d78d3", "lon": -77.026599, "rental_uris": {"ios": "https://dc.lft.to/lastmile_qr_scan", "android": "https://dc.lft.to/lastmile_qr_scan"}}, {"name": "898fe749ed616dec9b72297bce137b8c", "fusion_lat": 0.0, "type": "electric_bike", "lat": 38.973257333333336, "is_reserved": 0, "is_disabled": 0, "fusion_lon": 0.0, "bike_id": "898fe749ed616dec9b72297bce137b8c", "lon": -77.02151633333334, "rental_uris": {"ios": "https://dc.lft.to/lastmile_qr_scan", "android": "https://dc.lft.to/lastmile_qr_scan"}}, {"name": "417d18a3a9cb09a7efbc92d57d225a6b", "fusion_lat": 0.0, "type": "electric_scooter", "lat": 38.91262866666667, "is_reserved": 0, "is_disabled": 0, "fusion_lon": 0.0, "bike_id": "417d18a3a9cb09a7efbc92d57d225a6b", "lon": -77.04470816666667, "rental_uris": {"ios": "https://dc.lft.to/lastmile_qr_scan", "android": "https://dc.lft.to/lastmile_qr_scan"}}, {"name": "c1f93eb137e1577185159e190a830555", "fusion_lat": 0.0, "type": "electric_scooter", "lat": 38.91805883333333, "is_reserved": 0, "is_disabled": 0, "fusion_lon": 0.0, "bike_id": "c1f93eb137e1577185159e190a830555", "lon": -77.02814283333333, "rental_uris": {"ios": "https://dc.lft.to/lastmile_qr_scan", "android": "https://dc.lft.to/lastmile_qr_scan"}}, {"name": "3b8c5bf3ab53df6763b9b4abefb4c210", "fusion_lat": 0.0, "type": "electric_bike", "lat": 38.838586, "is_reserved": 0, "is_disabled": 0, "fusion_lon": 0.0, "bike_id": "3b8c5bf3ab53df6763b9b4abefb4c210", "lon": -77.08865716666666, "rental_uris": {"ios": "https://dc.lft.to/lastmile_qr_scan", "android": "https://dc.lft.to/lastmile_qr_scan"}}, {"name": "316ae91675974a489ad12b90a4cf5b3b", "fusion_lat": 0.0, "type": "electric_scooter", "lat": 38.9033315, "is_reserved": 0, "is_disabled": 0, "fusion_lon": 0.0, "bike_id": "316ae91675974a489ad12b90a4cf5b3b", "lon": -77.03844883333333, "rental_uris": {"ios": "https://dc.lft.to/lastmile_qr_scan", "android": "https://dc.lft.to/lastmile_qr_scan"}}, {"name": "b9c3f5c580939b3df084d22f238f0b8f", "fusion_lat": 0.0, "type": "electric_scooter", "lat": 38.93429783333333, "is_reserved": 0, "is_disabled": 0, "fusion_lon": 0.0, "bike_id": "b9c3f5c580939b3df084d22f238f0b8f", "lon": -77.04001766666667, "rental_uris": {"ios": "https://dc.lft.to/lastmile_qr_scan", "android": "https://dc.lft.to/lastmile_qr_scan"}}, {"name": "df5a757f3135fd4d688e2dc20e8e0017", "fusion_lat": 0.0, "type": "electric_scooter", "lat": 38.930973333333334, "is_reserved": 0, "is_disabled": 0, "fusion_lon": 0.0, "bike_id": "df5a757f3135fd4d688e2dc20e8e0017", "lon": -77.02405883333333, "rental_uris": {"ios": "https://dc.lft.to/lastmile_qr_scan", "android": "https://dc.lft.to/lastmile_qr_scan"}}, {"name": "6c08929a2a16f84028758f04d25a7788", "fusion_lat": 0.0, "type": "electric_scooter", "lat": 38.88930416666667, "is_reserved": 0, "is_disabled": 0, "fusion_lon": 0.0, "bike_id": "6c08929a2a16f84028758f04d25a7788", "lon": -76.9478705, "rental_uris": {"ios": "https://dc.lft.to/lastmile_qr_scan", "android": "https://dc.lft.to/lastmile_qr_scan"}}, {"name": "7796e94a6b9130e576b679447084553e", "fusion_lat": 0.0, "type": "electric_scooter", "lat": 38.9014315, "is_reserved": 0, "is_disabled": 0, "fusion_lon": 0.0, "bike_id": "7796e94a6b9130e576b679447084553e", "lon": -76.9997035, "rental_uris": {"ios": "https://dc.lft.to/lastmile_qr_scan", "android": "https://dc.lft.to/lastmile_qr_scan"}}, {"name": "af2b16de7e0f6642bfe380d0c8b3cb8c", "fusion_lat": 0.0, "type": "electric_scooter", "lat": 38.91106933333333, "is_reserved": 0, "is_disabled": 0, "fusion_lon": 0.0, "bike_id": "af2b16de7e0f6642bfe380d0c8b3cb8c", "lon": -77.0383045, "rental_uris": {"ios": "https://dc.lft.to/lastmile_qr_scan", "android": "https://dc.lft.to/lastmile_qr_scan"}}, {"name": "621093393d4339a1d69f82807374279d", "fusion_lat": 0.0, "type": "electric_bike", "lat": 38.9028685, "is_reserved": 0, "is_disabled": 0, "fusion_lon": 0.0, "bike_id": "621093393d4339a1d69f82807374279d", "lon": -76.98087616666666, "rental_uris": {"ios": "https://dc.lft.to/lastmile_qr_scan", "android": "https://dc.lft.to/lastmile_qr_scan"}}, {"name": "dc39e419a821ce99ff0d91993ee2882f", "fusion_lat": 0.0, "type": "electric_scooter", "lat": 38.9259615, "is_reserved": 0, "is_disabled": 0, "fusion_lon": 0.0, "bike_id": "dc39e419a821ce99ff0d91993ee2882f", "lon": -77.00851133333333, "rental_uris": {"ios": "https://dc.lft.to/lastmile_qr_scan", "android": "https://dc.lft.to/lastmile_qr_scan"}}, {"name": "2681fd5f4b6e2c1f67d28ed4282cc82d", "fusion_lat": 0.0, "type": "electric_scooter", "lat": 38.93035283333333, "is_reserved": 0, "is_disabled": 0, "fusion_lon": 0.0, "bike_id": "2681fd5f4b6e2c1f67d28ed4282cc82d", "lon": -77.08367883333334, "rental_uris": {"ios": "https://dc.lft.to/lastmile_qr_scan", "android": "https://dc.lft.to/lastmile_qr_scan"}}, {"name": "f8be8bb8b82435c2c8fb49d78db29388", "fusion_lat": 0.0, "type": "electric_scooter", "lat": 38.915585166666666, "is_reserved": 0, "is_disabled": 0, "fusion_lon": 0.0, "bike_id": "f8be8bb8b82435c2c8fb49d78db29388", "lon": -77.03240966666667, "rental_uris": {"ios": "https://dc.lft.to/lastmile_qr_scan", "android": "https://dc.lft.to/lastmile_qr_scan"}}, {"name": "c566f52701c05173af5711f67b0330a3", "fusion_lat": 0.0, "type": "electric_scooter", "lat": 38.91414483333333, "is_reserved": 0, "is_disabled": 0, "fusion_lon": 0.0, "bike_id": "c566f52701c05173af5711f67b0330a3", "lon": -77.0450065, "rental_uris": {"ios": "https://dc.lft.to/lastmile_qr_scan", "android": "https://dc.lft.to/lastmile_qr_scan"}}, {"name": "c415638c5b671794fc355004df99a695", "fusion_lat": 0.0, "type": "electric_scooter", "lat": 38.938917333333336, "is_reserved": 0, "is_disabled": 0, "fusion_lon": 0.0, "bike_id": "c415638c5b671794fc355004df99a695", "lon": -77.01759183333333, "rental_uris": {"ios": "https://dc.lft.to/lastmile_qr_scan", "android": "https://dc.lft.to/lastmile_qr_scan"}}, {"name": "d15386912f471f26e2d8489c12612014", "fusion_lat": 0.0, "type": "electric_scooter", "lat": 38.898726833333335, "is_reserved": 0, "is_disabled": 0, "fusion_lon": 0.0, "bike_id": "d15386912f471f26e2d8489c12612014", "lon": -77.033981, "rental_uris": {"ios": "https://dc.lft.to/lastmile_qr_scan", "android": "https://dc.lft.to/lastmile_qr_scan"}}, {"name": "6b78444c07a9451dcc735dfc2f2a11c4", "fusion_lat": 0.0, "type": "electric_scooter", "lat": 38.91277316666667, "is_reserved": 0, "is_disabled": 0, "fusion_lon": 0.0, "bike_id": "6b78444c07a9451dcc735dfc2f2a11c4", "lon": -76.93799416666667, "rental_uris": {"ios": "https://dc.lft.to/lastmile_qr_scan", "android": "https://dc.lft.to/lastmile_qr_scan"}}, {"name": "ff795e49d15ff4e9cfda2a8bbf5db5b0", "fusion_lat": 0.0, "type": "electric_scooter", "lat": 38.898321, "is_reserved": 0, "is_disabled": 0, "fusion_lon": 0.0, "bike_id": "ff795e49d15ff4e9cfda2a8bbf5db5b0", "lon": -76.94641983333334, "rental_uris": {"ios": "https://dc.lft.to/lastmile_qr_scan", "android": "https://dc.lft.to/lastmile_qr_scan"}}, {"name": "64d7337e0bd04802e19679f40291c53a", "fusion_lat": 0.0, "type": "electric_bike", "lat": 38.937121, "is_reserved": 0, "is_disabled": 0, "fusion_lon": 0.0, "bike_id": "64d7337e0bd04802e19679f40291c53a", "lon": -77.02691066666667, "rental_uris": {"ios": "https://dc.lft.to/lastmile_qr_scan", "android": "https://dc.lft.to/lastmile_qr_scan"}}, {"name": "d7590ce91f1c5b12c3df01ec4e2d4591", "fusion_lat": 0.0, "type": "electric_scooter", "lat": 38.91582183333333, "is_reserved": 0, "is_disabled": 0, "fusion_lon": 0.0, "bike_id": "d7590ce91f1c5b12c3df01ec4e2d4591", "lon": -77.031878, "rental_uris": {"ios": "https://dc.lft.to/lastmile_qr_scan", "android": "https://dc.lft.to/lastmile_qr_scan"}}, {"name": "627d15ff5a086120d924164fe35124bf", "fusion_lat": 0.0, "type": "electric_scooter", "lat": 38.899666833333335, "is_reserved": 0, "is_disabled": 0, "fusion_lon": 0.0, "bike_id": "627d15ff5a086120d924164fe35124bf", "lon": -77.0393045, "rental_uris": {"ios": "https://dc.lft.to/lastmile_qr_scan", "android": "https://dc.lft.to/lastmile_qr_scan"}}, {"name": "145347de975a08e985d0a3005a116dac", "fusion_lat": 0.0, "type": "electric_scooter", "lat": 38.924836, "is_reserved": 0, "is_disabled": 0, "fusion_lon": 0.0, "bike_id": "145347de975a08e985d0a3005a116dac", "lon": -77.02999883333334, "rental_uris": {"ios": "https://dc.lft.to/lastmile_qr_scan", "android": "https://dc.lft.to/lastmile_qr_scan"}}, {"name": "60561b9b050653fd24a06b616c639d8d", "fusion_lat": 0.0, "type": "electric_scooter", "lat": 38.92553566666667, "is_reserved": 0, "is_disabled": 0, "fusion_lon": 0.0, "bike_id": "60561b9b050653fd24a06b616c639d8d", "lon": -77.00063383333334, "rental_uris": {"ios": "https://dc.lft.to/lastmile_qr_scan", "android": "https://dc.lft.to/lastmile_qr_scan"}}, {"name": "d79810d6fa346f35c58fb956c84ed86a", "fusion_lat": 0.0, "type": "electric_scooter", "lat": 38.902683833333334, "is_reserved": 0, "is_disabled": 0, "fusion_lon": 0.0, "bike_id": "d79810d6fa346f35c58fb956c84ed86a", "lon": -77.02699233333334, "rental_uris": {"ios": "https://dc.lft.to/lastmile_qr_scan", "android": "https://dc.lft.to/lastmile_qr_scan"}}, {"name": "2411dcaa3c4017c3d36ef96773a6b23a", "fusion_lat": 0.0, "type": "electric_scooter", "lat": 38.91931533333333, "is_reserved": 0, "is_disabled": 0, "fusion_lon": 0.0, "bike_id": "2411dcaa3c4017c3d36ef96773a6b23a", "lon": -77.04496333333333, "rental_uris": {"ios": "https://dc.lft.to/lastmile_qr_scan", "android": "https://dc.lft.to/lastmile_qr_scan"}}, {"name": "2ef22aa32b46ab80007bb5442f078edd", "fusion_lat": 0.0, "type": "electric_bike", "lat": 38.88657216666667, "is_reserved": 0, "is_disabled": 0, "fusion_lon": 0.0, "bike_id": "2ef22aa32b46ab80007bb5442f078edd", "lon": -77.16229633333333, "rental_uris": {"ios": "https://dc.lft.to/lastmile_qr_scan", "android": "https://dc.lft.to/lastmile_qr_scan"}}, {"name": "724b5f655aa6aebcdd13443d330f2e84", "fusion_lat": 0.0, "type": "electric_scooter", "lat": 38.8974075, "is_reserved": 0, "is_disabled": 0, "fusion_lon": 0.0, "bike_id": "724b5f655aa6aebcdd13443d330f2e84", "lon": -77.046438, "rental_uris": {"ios": "https://dc.lft.to/lastmile_qr_scan", "android": "https://dc.lft.to/lastmile_qr_scan"}}, {"name": "f2dce828fab1276dc4d1f0325114da09", "fusion_lat": 0.0, "type": "electric_scooter", "lat": 38.909736, "is_reserved": 0, "is_disabled": 0, "fusion_lon": 0.0, "bike_id": "f2dce828fab1276dc4d1f0325114da09", "lon": -77.03680466666667, "rental_uris": {"ios": "https://dc.lft.to/lastmile_qr_scan", "android": "https://dc.lft.to/lastmile_qr_scan"}}, {"name": "9b9b9e14386e713c3c8706a1cf1bc22b", "fusion_lat": 0.0, "type": "electric_scooter", "lat": 38.911891, "is_reserved": 0, "is_disabled": 0, "fusion_lon": 0.0, "bike_id": "9b9b9e14386e713c3c8706a1cf1bc22b", "lon": -77.04500533333334, "rental_uris": {"ios": "https://dc.lft.to/lastmile_qr_scan", "android": "https://dc.lft.to/lastmile_qr_scan"}}, {"name": "192d1133ba9b2bc2e0af30f4759c9c44", "fusion_lat": 0.0, "type": "electric_bike", "lat": 38.95548483333334, "is_reserved": 0, "is_disabled": 0, "fusion_lon": 0.0, "bike_id": "192d1133ba9b2bc2e0af30f4759c9c44", "lon": -77.01614416666666, "rental_uris": {"ios": "https://dc.lft.to/lastmile_qr_scan", "android": "https://dc.lft.to/lastmile_qr_scan"}}, {"name": "3f6e4d0cb629f0f4c3cd3e8d84d7cdb6", "fusion_lat": 0.0, "type": "electric_scooter", "lat": 38.87649283333333, "is_reserved": 0, "is_disabled": 0, "fusion_lon": 0.0, "bike_id": "3f6e4d0cb629f0f4c3cd3e8d84d7cdb6", "lon": -76.96504116666667, "rental_uris": {"ios": "https://dc.lft.to/lastmile_qr_scan", "android": "https://dc.lft.to/lastmile_qr_scan"}}, {"name": "fdcd542c33edbf4fa3a8b2a5bd191dcd", "fusion_lat": 0.0, "type": "electric_scooter", "lat": 38.9055085, "is_reserved": 0, "is_disabled": 0, "fusion_lon": 0.0, "bike_id": "fdcd542c33edbf4fa3a8b2a5bd191dcd", "lon": -77.029714, "rental_uris": {"ios": "https://dc.lft.to/lastmile_qr_scan", "android": "https://dc.lft.to/lastmile_qr_scan"}}, {"name": "a7787e8f16b805b32f12d9082d4d124f", "fusion_lat": 0.0, "type": "electric_scooter", "lat": 38.895381666666665, "is_reserved": 0, "is_disabled": 0, "fusion_lon": 0.0, "bike_id": "a7787e8f16b805b32f12d9082d4d124f", "lon": -76.949297, "rental_uris": {"ios": "https://dc.lft.to/lastmile_qr_scan", "android": "https://dc.lft.to/lastmile_qr_scan"}}, {"name": "d79d767cdd730cb66534e8cfb8849914", "fusion_lat": 0.0, "type": "electric_scooter", "lat": 38.89603066666667, "is_reserved": 0, "is_disabled": 0, "fusion_lon": 0.0, "bike_id": "d79d767cdd730cb66534e8cfb8849914", "lon": -77.0411885, "rental_uris": {"ios": "https://dc.lft.to/lastmile_qr_scan", "android": "https://dc.lft.to/lastmile_qr_scan"}}, {"name": "76ec4d457b54d6fe0095a3a4f9c26912", "fusion_lat": 0.0, "type": "electric_bike", "lat": 39.105643666666666, "is_reserved": 0, "is_disabled": 0, "fusion_lon": 0.0, "bike_id": "76ec4d457b54d6fe0095a3a4f9c26912", "lon": -77.1526605, "rental_uris": {"ios": "https://dc.lft.to/lastmile_qr_scan", "android": "https://dc.lft.to/lastmile_qr_scan"}}, {"name": "36b9a3ca8b7ca9eb358cc512a5ec6160", "fusion_lat": 0.0, "type": "electric_scooter", "lat": 38.912567833333334, "is_reserved": 0, "is_disabled": 0, "fusion_lon": 0.0, "bike_id": "36b9a3ca8b7ca9eb358cc512a5ec6160", "lon": -77.007755, "rental_uris": {"ios": "https://dc.lft.to/lastmile_qr_scan", "android": "https://dc.lft.to/lastmile_qr_scan"}}, {"name": "d431011631b89a83b7c2b76342422332", "fusion_lat": 0.0, "type": "electric_scooter", "lat": 38.93368616666667, "is_reserved": 0, "is_disabled": 0, "fusion_lon": 0.0, "bike_id": "d431011631b89a83b7c2b76342422332", "lon": -77.05726633333333, "rental_uris": {"ios": "https://dc.lft.to/lastmile_qr_scan", "android": "https://dc.lft.to/lastmile_qr_scan"}}, {"name": "0e87e2f9dde6e4b5122890d5186c837c", "fusion_lat": 0.0, "type": "electric_bike", "lat": 38.89685516666667, "is_reserved": 0, "is_disabled": 0, "fusion_lon": 0.0, "bike_id": "0e87e2f9dde6e4b5122890d5186c837c", "lon": -76.94066333333333, "rental_uris": {"ios": "https://dc.lft.to/lastmile_qr_scan", "android": "https://dc.lft.to/lastmile_qr_scan"}}, {"name": "d5e00c44032974b6eeb6c0a538e1e45b", "fusion_lat": 0.0, "type": "electric_bike", "lat": 38.88636266666666, "is_reserved": 0, "is_disabled": 0, "fusion_lon": 0.0, "bike_id": "d5e00c44032974b6eeb6c0a538e1e45b", "lon": -76.95460033333333, "rental_uris": {"ios": "https://dc.lft.to/lastmile_qr_scan", "android": "https://dc.lft.to/lastmile_qr_scan"}}, {"name": "a2c1977c7e62dc9110f80390c9103fac", "fusion_lat": 0.0, "type": "electric_bike", "lat": 38.898349, "is_reserved": 0, "is_disabled": 0, "fusion_lon": 0.0, "bike_id": "a2c1977c7e62dc9110f80390c9103fac", "lon": -77.11799083333334, "rental_uris": {"ios": "https://dc.lft.to/lastmile_qr_scan", "android": "https://dc.lft.to/lastmile_qr_scan"}}, {"name": "7fd60e419fb5d55efd5e86f8fcc53b5d", "fusion_lat": 0.0, "type": "electric_scooter", "lat": 38.9354965, "is_reserved": 0, "is_disabled": 0, "fusion_lon": 0.0, "bike_id": "7fd60e419fb5d55efd5e86f8fcc53b5d", "lon": -77.05979083333334, "rental_uris": {"ios": "https://dc.lft.to/lastmile_qr_scan", "android": "https://dc.lft.to/lastmile_qr_scan"}}, {"name": "f8c4acbd405d7492309b359d91c9669d", "fusion_lat": 0.0, "type": "electric_bike", "lat": 38.93001816666667, "is_reserved": 0, "is_disabled": 0, "fusion_lon": 0.0, "bike_id": "f8c4acbd405d7492309b359d91c9669d", "lon": -77.0243415, "rental_uris": {"ios": "https://dc.lft.to/lastmile_qr_scan", "android": "https://dc.lft.to/lastmile_qr_scan"}}, {"name": "124e1abe1fc8f27d5db0688b8f5b85b8", "fusion_lat": 0.0, "type": "electric_scooter", "lat": 38.931976, "is_reserved": 0, "is_disabled": 0, "fusion_lon": 0.0, "bike_id": "124e1abe1fc8f27d5db0688b8f5b85b8", "lon": -77.027547, "rental_uris": {"ios": "https://dc.lft.to/lastmile_qr_scan", "android": "https://dc.lft.to/lastmile_qr_scan"}}, {"name": "42f405a9f5e5854d7b4197b8413bca33", "fusion_lat": 0.0, "type": "electric_scooter", "lat": 38.93638816666667, "is_reserved": 0, "is_disabled": 0, "fusion_lon": 0.0, "bike_id": "42f405a9f5e5854d7b4197b8413bca33", "lon": -77.03456766666666, "rental_uris": {"ios": "https://dc.lft.to/lastmile_qr_scan", "android": "https://dc.lft.to/lastmile_qr_scan"}}, {"name": "e408a2cb5b3c2e448e7d932ed72c40e7", "fusion_lat": 0.0, "type": "electric_scooter", "lat": 38.92126583333334, "is_reserved": 0, "is_disabled": 0, "fusion_lon": 0.0, "bike_id": "e408a2cb5b3c2e448e7d932ed72c40e7", "lon": -77.04569083333334, "rental_uris": {"ios": "https://dc.lft.to/lastmile_qr_scan", "android": "https://dc.lft.to/lastmile_qr_scan"}}, {"name": "a71b362f5c9884f1e8bb2c7a7f4dc20c", "fusion_lat": 0.0, "type": "electric_scooter", "lat": 38.90643083333333, "is_reserved": 0, "is_disabled": 0, "fusion_lon": 0.0, "bike_id": "a71b362f5c9884f1e8bb2c7a7f4dc20c", "lon": -76.98375966666667, "rental_uris": {"ios": "https://dc.lft.to/lastmile_qr_scan", "android": "https://dc.lft.to/lastmile_qr_scan"}}, {"name": "660a0c354e2e522a9d83947b7ee0164a", "fusion_lat": 0.0, "type": "electric_scooter", "lat": 38.886132, "is_reserved": 0, "is_disabled": 0, "fusion_lon": 0.0, "bike_id": "660a0c354e2e522a9d83947b7ee0164a", "lon": -76.97811933333334, "rental_uris": {"ios": "https://dc.lft.to/lastmile_qr_scan", "android": "https://dc.lft.to/lastmile_qr_scan"}}, {"name": "d3f581656c84fcb511bb86e123e522a5", "fusion_lat": 0.0, "type": "electric_scooter", "lat": 38.8874115, "is_reserved": 0, "is_disabled": 0, "fusion_lon": 0.0, "bike_id": "d3f581656c84fcb511bb86e123e522a5", "lon": -77.01533983333333, "rental_uris": {"ios": "https://dc.lft.to/lastmile_qr_scan", "android": "https://dc.lft.to/lastmile_qr_scan"}}, {"name": "8e485631e4c9b9bcfab66f4c082312c0", "fusion_lat": 0.0, "type": "electric_scooter", "lat": 38.903884, "is_reserved": 0, "is_disabled": 0, "fusion_lon": 0.0, "bike_id": "8e485631e4c9b9bcfab66f4c082312c0", "lon": -77.0173065, "rental_uris": {"ios": "https://dc.lft.to/lastmile_qr_scan", "android": "https://dc.lft.to/lastmile_qr_scan"}}, {"name": "30c6afa9de22b44e9baa8314c55bc84a", "fusion_lat": 0.0, "type": "electric_scooter", "lat": 38.925658166666665, "is_reserved": 0, "is_disabled": 0, "fusion_lon": 0.0, "bike_id": "30c6afa9de22b44e9baa8314c55bc84a", "lon": -77.02965, "rental_uris": {"ios": "https://dc.lft.to/lastmile_qr_scan", "android": "https://dc.lft.to/lastmile_qr_scan"}}, {"name": "9e49e8fdc9a7e3da1b8f69cd91a63a35", "fusion_lat": 0.0, "type": "electric_scooter", "lat": 38.90028433333333, "is_reserved": 0, "is_disabled": 0, "fusion_lon": 0.0, "bike_id": "9e49e8fdc9a7e3da1b8f69cd91a63a35", "lon": -76.99988866666666, "rental_uris": {"ios": "https://dc.lft.to/lastmile_qr_scan", "android": "https://dc.lft.to/lastmile_qr_scan"}}, {"name": "3e7cbbc9dc8b2af6e374cfb20d5cb54c", "fusion_lat": 0.0, "type": "electric_scooter", "lat": 38.96805233333333, "is_reserved": 0, "is_disabled": 0, "fusion_lon": 0.0, "bike_id": "3e7cbbc9dc8b2af6e374cfb20d5cb54c", "lon": -77.02104483333333, "rental_uris": {"ios": "https://dc.lft.to/lastmile_qr_scan", "android": "https://dc.lft.to/lastmile_qr_scan"}}, {"name": "7648e04224bcf8a3ca03dbeae6f79a9f", "fusion_lat": 0.0, "type": "electric_scooter", "lat": 38.894770333333334, "is_reserved": 0, "is_disabled": 0, "fusion_lon": 0.0, "bike_id": "7648e04224bcf8a3ca03dbeae6f79a9f", "lon": -77.02391566666667, "rental_uris": {"ios": "https://dc.lft.to/lastmile_qr_scan", "android": "https://dc.lft.to/lastmile_qr_scan"}}, {"name": "578db4b358850897a9bdf5fd038443df", "fusion_lat": 0.0, "type": "electric_scooter", "lat": 38.9521885, "is_reserved": 0, "is_disabled": 0, "fusion_lon": 0.0, "bike_id": "578db4b358850897a9bdf5fd038443df", "lon": -77.07068283333334, "rental_uris": {"ios": "https://dc.lft.to/lastmile_qr_scan", "android": "https://dc.lft.to/lastmile_qr_scan"}}, {"name": "4c0dc2b9cb3a1c2aba3ef03b2b003cfb", "fusion_lat": 0.0, "type": "electric_scooter", "lat": 38.910544, "is_reserved": 0, "is_disabled": 0, "fusion_lon": 0.0, "bike_id": "4c0dc2b9cb3a1c2aba3ef03b2b003cfb", "lon": -77.04586583333334, "rental_uris": {"ios": "https://dc.lft.to/lastmile_qr_scan", "android": "https://dc.lft.to/lastmile_qr_scan"}}, {"name": "6c7a9be31609b4343173cfc05b18c529", "fusion_lat": 0.0, "type": "electric_scooter", "lat": 38.89906416666667, "is_reserved": 0, "is_disabled": 0, "fusion_lon": 0.0, "bike_id": "6c7a9be31609b4343173cfc05b18c529", "lon": -77.0328955, "rental_uris": {"ios": "https://dc.lft.to/lastmile_qr_scan", "android": "https://dc.lft.to/lastmile_qr_scan"}}, {"name": "86466440462a5153755cf1c292dc4141", "fusion_lat": 0.0, "type": "electric_bike", "lat": 38.86634883333333, "is_reserved": 0, "is_disabled": 0, "fusion_lon": 0.0, "bike_id": "86466440462a5153755cf1c292dc4141", "lon": -77.0105475, "rental_uris": {"ios": "https://dc.lft.to/lastmile_qr_scan", "android": "https://dc.lft.to/lastmile_qr_scan"}}, {"name": "910a7db2ac99f035de92108832cf2883", "fusion_lat": 0.0, "type": "electric_scooter", "lat": 38.8982175, "is_reserved": 0, "is_disabled": 0, "fusion_lon": 0.0, "bike_id": "910a7db2ac99f035de92108832cf2883", "lon": -77.03342633333334, "rental_uris": {"ios": "https://dc.lft.to/lastmile_qr_scan", "android": "https://dc.lft.to/lastmile_qr_scan"}}, {"name": "53c1520c5839f123c37afa9c412d7cc7", "fusion_lat": 0.0, "type": "electric_scooter", "lat": 38.8650365, "is_reserved": 0, "is_disabled": 0, "fusion_lon": 0.0, "bike_id": "53c1520c5839f123c37afa9c412d7cc7", "lon": -76.99006016666667, "rental_uris": {"ios": "https://dc.lft.to/lastmile_qr_scan", "android": "https://dc.lft.to/lastmile_qr_scan"}}, {"name": "aeafd7d6f6d0f8eca62c834b516c1104", "fusion_lat": 0.0, "type": "electric_scooter", "lat": 38.93238516666667, "is_reserved": 0, "is_disabled": 0, "fusion_lon": 0.0, "bike_id": "aeafd7d6f6d0f8eca62c834b516c1104", "lon": -77.03091666666667, "rental_uris": {"ios": "https://dc.lft.to/lastmile_qr_scan", "android": "https://dc.lft.to/lastmile_qr_scan"}}, {"name": "ff6ce57ad9e492d4bbf9b26847f04031", "fusion_lat": 0.0, "type": "electric_scooter", "lat": 38.9284515, "is_reserved": 0, "is_disabled": 0, "fusion_lon": 0.0, "bike_id": "ff6ce57ad9e492d4bbf9b26847f04031", "lon": -77.05417616666666, "rental_uris": {"ios": "https://dc.lft.to/lastmile_qr_scan", "android": "https://dc.lft.to/lastmile_qr_scan"}}, {"name": "86da63847b32c1a72be810d52a4f6c29", "fusion_lat": 0.0, "type": "electric_scooter", "lat": 38.89281416666667, "is_reserved": 0, "is_disabled": 0, "fusion_lon": 0.0, "bike_id": "86da63847b32c1a72be810d52a4f6c29", "lon": -77.05042816666666, "rental_uris": {"ios": "https://dc.lft.to/lastmile_qr_scan", "android": "https://dc.lft.to/lastmile_qr_scan"}}, {"name": "76ff6214c105766ccd4f1da6f951fd85", "fusion_lat": 0.0, "type": "electric_scooter", "lat": 38.895118833333335, "is_reserved": 0, "is_disabled": 0, "fusion_lon": 0.0, "bike_id": "76ff6214c105766ccd4f1da6f951fd85", "lon": -76.94888533333334, "rental_uris": {"ios": "https://dc.lft.to/lastmile_qr_scan", "android": "https://dc.lft.to/lastmile_qr_scan"}}, {"name": "3e1eb084bf0dab242c2874be05a2f08a", "fusion_lat": 0.0, "type": "electric_scooter", "lat": 38.9207025, "is_reserved": 0, "is_disabled": 0, "fusion_lon": 0.0, "bike_id": "3e1eb084bf0dab242c2874be05a2f08a", "lon": -77.02399116666666, "rental_uris": {"ios": "https://dc.lft.to/lastmile_qr_scan", "android": "https://dc.lft.to/lastmile_qr_scan"}}, {"name": "92677e9ba83258a9ddf0103a850c564d", "fusion_lat": 0.0, "type": "electric_scooter", "lat": 38.919022166666664, "is_reserved": 0, "is_disabled": 0, "fusion_lon": 0.0, "bike_id": "92677e9ba83258a9ddf0103a850c564d", "lon": -77.05288966666667, "rental_uris": {"ios": "https://dc.lft.to/lastmile_qr_scan", "android": "https://dc.lft.to/lastmile_qr_scan"}}, {"name": "eb61e92c6d7bc85b3cdb8290a01572c9", "fusion_lat": 0.0, "type": "electric_bike", "lat": 38.82727166666667, "is_reserved": 0, "is_disabled": 0, "fusion_lon": 0.0, "bike_id": "eb61e92c6d7bc85b3cdb8290a01572c9", "lon": -77.00863783333334, "rental_uris": {"ios": "https://dc.lft.to/lastmile_qr_scan", "android": "https://dc.lft.to/lastmile_qr_scan"}}, {"name": "81ab0116d0ebc1278bb9e7cc07c0b694", "fusion_lat": 0.0, "type": "electric_scooter", "lat": 38.8948185, "is_reserved": 0, "is_disabled": 0, "fusion_lon": 0.0, "bike_id": "81ab0116d0ebc1278bb9e7cc07c0b694", "lon": -76.9487065, "rental_uris": {"ios": "https://dc.lft.to/lastmile_qr_scan", "android": "https://dc.lft.to/lastmile_qr_scan"}}, {"name": "caa4d5b6ed8c8249c34d319105a2d67a", "fusion_lat": 0.0, "type": "electric_scooter", "lat": 38.898333, "is_reserved": 0, "is_disabled": 0, "fusion_lon": 0.0, "bike_id": "caa4d5b6ed8c8249c34d319105a2d67a", "lon": -76.946427, "rental_uris": {"ios": "https://dc.lft.to/lastmile_qr_scan", "android": "https://dc.lft.to/lastmile_qr_scan"}}, {"name": "914b9f6fbcd852bb435a04f8e822697b", "fusion_lat": 0.0, "type": "electric_scooter", "lat": 38.91193033333333, "is_reserved": 0, "is_disabled": 0, "fusion_lon": 0.0, "bike_id": "914b9f6fbcd852bb435a04f8e822697b", "lon": -77.03864016666667, "rental_uris": {"ios": "https://dc.lft.to/lastmile_qr_scan", "android": "https://dc.lft.to/lastmile_qr_scan"}}, {"name": "46c713b657a72b8dd39908b61b3985f5", "fusion_lat": 0.0, "type": "electric_scooter", "lat": 38.883815, "is_reserved": 0, "is_disabled": 0, "fusion_lon": 0.0, "bike_id": "46c713b657a72b8dd39908b61b3985f5", "lon": -76.99525, "rental_uris": {"ios": "https://dc.lft.to/lastmile_qr_scan", "android": "https://dc.lft.to/lastmile_qr_scan"}}, {"name": "3be5daeac36b0c694ff3b66060c533dc", "fusion_lat": 0.0, "type": "electric_scooter", "lat": 38.925855166666665, "is_reserved": 0, "is_disabled": 0, "fusion_lon": 0.0, "bike_id": "3be5daeac36b0c694ff3b66060c533dc", "lon": -77.05280783333333, "rental_uris": {"ios": "https://dc.lft.to/lastmile_qr_scan", "android": "https://dc.lft.to/lastmile_qr_scan"}}, {"name": "e63ff72d0d7bcd990e6b90f92780c722", "fusion_lat": 0.0, "type": "electric_scooter", "lat": 38.903467, "is_reserved": 0, "is_disabled": 0, "fusion_lon": 0.0, "bike_id": "e63ff72d0d7bcd990e6b90f92780c722", "lon": -77.026058, "rental_uris": {"ios": "https://dc.lft.to/lastmile_qr_scan", "android": "https://dc.lft.to/lastmile_qr_scan"}}, {"name": "4eb28e69d1cdb5c9d3bbbc210958a485", "fusion_lat": 0.0, "type": "electric_bike", "lat": 38.906854333333335, "is_reserved": 0, "is_disabled": 0, "fusion_lon": 0.0, "bike_id": "4eb28e69d1cdb5c9d3bbbc210958a485", "lon": -76.95187683333333, "rental_uris": {"ios": "https://dc.lft.to/lastmile_qr_scan", "android": "https://dc.lft.to/lastmile_qr_scan"}}, {"name": "07744772e98a8446d5f1f205b397f1a9", "fusion_lat": 0.0, "type": "electric_scooter", "lat": 38.8865385, "is_reserved": 0, "is_disabled": 0, "fusion_lon": 0.0, "bike_id": "07744772e98a8446d5f1f205b397f1a9", "lon": -77.0136495, "rental_uris": {"ios": "https://dc.lft.to/lastmile_qr_scan", "android": "https://dc.lft.to/lastmile_qr_scan"}}, {"name": "451b0c6e2655badc26f32736debfa319", "fusion_lat": 0.0, "type": "electric_scooter", "lat": 38.9319405, "is_reserved": 0, "is_disabled": 0, "fusion_lon": 0.0, "bike_id": "451b0c6e2655badc26f32736debfa319", "lon": -77.0277695, "rental_uris": {"ios": "https://dc.lft.to/lastmile_qr_scan", "android": "https://dc.lft.to/lastmile_qr_scan"}}, {"name": "348e08d1b9d7e3619b4f22f1fcbe4532", "fusion_lat": 0.0, "type": "electric_scooter", "lat": 38.903772000000004, "is_reserved": 0, "is_disabled": 0, "fusion_lon": 0.0, "bike_id": "348e08d1b9d7e3619b4f22f1fcbe4532", "lon": -77.011044, "rental_uris": {"ios": "https://dc.lft.to/lastmile_qr_scan", "android": "https://dc.lft.to/lastmile_qr_scan"}}, {"name": "438afdfa4ccb8d970d4db0feb559944e", "fusion_lat": 0.0, "type": "electric_scooter", "lat": 38.898293, "is_reserved": 0, "is_disabled": 0, "fusion_lon": 0.0, "bike_id": "438afdfa4ccb8d970d4db0feb559944e", "lon": -76.945737, "rental_uris": {"ios": "https://dc.lft.to/lastmile_qr_scan", "android": "https://dc.lft.to/lastmile_qr_scan"}}, {"name": "392e9b6889572a40a0278cfc86022336", "fusion_lat": 0.0, "type": "electric_scooter", "lat": 38.9074675, "is_reserved": 0, "is_disabled": 0, "fusion_lon": 0.0, "bike_id": "392e9b6889572a40a0278cfc86022336", "lon": -77.03195816666667, "rental_uris": {"ios": "https://dc.lft.to/lastmile_qr_scan", "android": "https://dc.lft.to/lastmile_qr_scan"}}, {"name": "ee67adef2fa8fd3cd04ad68a4aebc997", "fusion_lat": 0.0, "type": "electric_scooter", "lat": 38.90611166666667, "is_reserved": 0, "is_disabled": 0, "fusion_lon": 0.0, "bike_id": "ee67adef2fa8fd3cd04ad68a4aebc997", "lon": -77.02412733333334, "rental_uris": {"ios": "https://dc.lft.to/lastmile_qr_scan", "android": "https://dc.lft.to/lastmile_qr_scan"}}, {"name": "899272b1031b53c7d970b6834c3a8571", "fusion_lat": 0.0, "type": "electric_scooter", "lat": 38.895284833333335, "is_reserved": 0, "is_disabled": 0, "fusion_lon": 0.0, "bike_id": "899272b1031b53c7d970b6834c3a8571", "lon": -77.0428845, "rental_uris": {"ios": "https://dc.lft.to/lastmile_qr_scan", "android": "https://dc.lft.to/lastmile_qr_scan"}}, {"name": "de4dffd92666279f33842fe8a11cf033", "fusion_lat": 0.0, "type": "electric_scooter", "lat": 38.938782833333335, "is_reserved": 0, "is_disabled": 0, "fusion_lon": 0.0, "bike_id": "de4dffd92666279f33842fe8a11cf033", "lon": -77.02470283333334, "rental_uris": {"ios": "https://dc.lft.to/lastmile_qr_scan", "android": "https://dc.lft.to/lastmile_qr_scan"}}, {"name": "8680c22a20a666745af698f9260c24b4", "fusion_lat": 0.0, "type": "electric_scooter", "lat": 38.898520833333336, "is_reserved": 0, "is_disabled": 0, "fusion_lon": 0.0, "bike_id": "8680c22a20a666745af698f9260c24b4", "lon": -76.990328, "rental_uris": {"ios": "https://dc.lft.to/lastmile_qr_scan", "android": "https://dc.lft.to/lastmile_qr_scan"}}, {"name": "c0ffefa558834527b6a9a73f1f6f28a5", "fusion_lat": 0.0, "type": "electric_scooter", "lat": 38.9033805, "is_reserved": 0, "is_disabled": 0, "fusion_lon": 0.0, "bike_id": "c0ffefa558834527b6a9a73f1f6f28a5", "lon": -76.99850466666666, "rental_uris": {"ios": "https://dc.lft.to/lastmile_qr_scan", "android": "https://dc.lft.to/lastmile_qr_scan"}}, {"name": "d51aecb3c511e18d42820bbf8904dc35", "fusion_lat": 0.0, "type": "electric_scooter", "lat": 38.89723733333334, "is_reserved": 0, "is_disabled": 0, "fusion_lon": 0.0, "bike_id": "d51aecb3c511e18d42820bbf8904dc35", "lon": -77.03109733333334, "rental_uris": {"ios": "https://dc.lft.to/lastmile_qr_scan", "android": "https://dc.lft.to/lastmile_qr_scan"}}, {"name": "26006e50cb5a14802e9d3ff86392df50", "fusion_lat": 0.0, "type": "electric_scooter", "lat": 38.91252733333334, "is_reserved": 0, "is_disabled": 0, "fusion_lon": 0.0, "bike_id": "26006e50cb5a14802e9d3ff86392df50", "lon": -77.03840716666667, "rental_uris": {"ios": "https://dc.lft.to/lastmile_qr_scan", "android": "https://dc.lft.to/lastmile_qr_scan"}}, {"name": "94d7d6696eb2c6836648953337091f3c", "fusion_lat": 0.0, "type": "electric_scooter", "lat": 38.906764, "is_reserved": 0, "is_disabled": 0, "fusion_lon": 0.0, "bike_id": "94d7d6696eb2c6836648953337091f3c", "lon": -77.01093983333334, "rental_uris": {"ios": "https://dc.lft.to/lastmile_qr_scan", "android": "https://dc.lft.to/lastmile_qr_scan"}}, {"name": "27e1f465335df0a1f5e17ea70722e9c6", "fusion_lat": 0.0, "type": "electric_scooter", "lat": 38.915578, "is_reserved": 0, "is_disabled": 0, "fusion_lon": 0.0, "bike_id": "27e1f465335df0a1f5e17ea70722e9c6", "lon": -77.031766, "rental_uris": {"ios": "https://dc.lft.to/lastmile_qr_scan", "android": "https://dc.lft.to/lastmile_qr_scan"}}, {"name": "4d4d2724b7b27c1b19c33f3f0eb11a43", "fusion_lat": 0.0, "type": "electric_bike", "lat": 38.80223733333333, "is_reserved": 0, "is_disabled": 0, "fusion_lon": 0.0, "bike_id": "4d4d2724b7b27c1b19c33f3f0eb11a43", "lon": -77.07916966666667, "rental_uris": {"ios": "https://dc.lft.to/lastmile_qr_scan", "android": "https://dc.lft.to/lastmile_qr_scan"}}, {"name": "ddd6982b68df436829e45ceda5a4ee14", "fusion_lat": 0.0, "type": "electric_scooter", "lat": 38.876873, "is_reserved": 0, "is_disabled": 0, "fusion_lon": 0.0, "bike_id": "ddd6982b68df436829e45ceda5a4ee14", "lon": -77.01758016666666, "rental_uris": {"ios": "https://dc.lft.to/lastmile_qr_scan", "android": "https://dc.lft.to/lastmile_qr_scan"}}, {"name": "5081dd747435315e4357ab2583f93e73", "fusion_lat": 0.0, "type": "electric_scooter", "lat": 38.85802783333333, "is_reserved": 0, "is_disabled": 0, "fusion_lon": 0.0, "bike_id": "5081dd747435315e4357ab2583f93e73", "lon": -76.99087, "rental_uris": {"ios": "https://dc.lft.to/lastmile_qr_scan", "android": "https://dc.lft.to/lastmile_qr_scan"}}, {"name": "499be6700e4beacbe0b9bcab7c9c6940", "fusion_lat": 0.0, "type": "electric_scooter", "lat": 38.932066, "is_reserved": 0, "is_disabled": 0, "fusion_lon": 0.0, "bike_id": "499be6700e4beacbe0b9bcab7c9c6940", "lon": -77.03664533333334, "rental_uris": {"ios": "https://dc.lft.to/lastmile_qr_scan", "android": "https://dc.lft.to/lastmile_qr_scan"}}, {"name": "e15b350d08851d00e0b575f7a1d6498c", "fusion_lat": 0.0, "type": "electric_scooter", "lat": 38.959102666666666, "is_reserved": 0, "is_disabled": 0, "fusion_lon": 0.0, "bike_id": "e15b350d08851d00e0b575f7a1d6498c", "lon": -77.08079333333333, "rental_uris": {"ios": "https://dc.lft.to/lastmile_qr_scan", "android": "https://dc.lft.to/lastmile_qr_scan"}}, {"name": "5f61d3ed7e94977831dd8e4d4b5d2054", "fusion_lat": 0.0, "type": "electric_scooter", "lat": 38.9470185, "is_reserved": 0, "is_disabled": 0, "fusion_lon": 0.0, "bike_id": "5f61d3ed7e94977831dd8e4d4b5d2054", "lon": -77.01936283333333, "rental_uris": {"ios": "https://dc.lft.to/lastmile_qr_scan", "android": "https://dc.lft.to/lastmile_qr_scan"}}, {"name": "f3d0426834c515ff6a5445a8073cdb84", "fusion_lat": 0.0, "type": "electric_bike", "lat": 38.807928, "is_reserved": 0, "is_disabled": 0, "fusion_lon": 0.0, "bike_id": "f3d0426834c515ff6a5445a8073cdb84", "lon": -77.129645, "rental_uris": {"ios": "https://dc.lft.to/lastmile_qr_scan", "android": "https://dc.lft.to/lastmile_qr_scan"}}, {"name": "35cdbdc80375b9688761175fc37ef782", "fusion_lat": 0.0, "type": "electric_scooter", "lat": 38.89425266666667, "is_reserved": 0, "is_disabled": 0, "fusion_lon": 0.0, "bike_id": "35cdbdc80375b9688761175fc37ef782", "lon": -76.93243616666666, "rental_uris": {"ios": "https://dc.lft.to/lastmile_qr_scan", "android": "https://dc.lft.to/lastmile_qr_scan"}}, {"name": "e3dae4929049ab325d52e1c9309b10ad", "fusion_lat": 0.0, "type": "electric_scooter", "lat": 38.87727866666667, "is_reserved": 0, "is_disabled": 0, "fusion_lon": 0.0, "bike_id": "e3dae4929049ab325d52e1c9309b10ad", "lon": -77.0075285, "rental_uris": {"ios": "https://dc.lft.to/lastmile_qr_scan", "android": "https://dc.lft.to/lastmile_qr_scan"}}, {"name": "030b7996202344a0b15d60806e298a4e", "fusion_lat": 0.0, "type": "electric_scooter", "lat": 38.921030333333334, "is_reserved": 0, "is_disabled": 0, "fusion_lon": 0.0, "bike_id": "030b7996202344a0b15d60806e298a4e", "lon": -76.99190966666667, "rental_uris": {"ios": "https://dc.lft.to/lastmile_qr_scan", "android": "https://dc.lft.to/lastmile_qr_scan"}}, {"name": "affdb83f5112ead039e053c03490b17a", "fusion_lat": 0.0, "type": "electric_scooter", "lat": 38.91119, "is_reserved": 0, "is_disabled": 0, "fusion_lon": 0.0, "bike_id": "affdb83f5112ead039e053c03490b17a", "lon": -77.04606533333333, "rental_uris": {"ios": "https://dc.lft.to/lastmile_qr_scan", "android": "https://dc.lft.to/lastmile_qr_scan"}}, {"name": "1663d41a49dca1dc3b5ed9d93dda51b2", "fusion_lat": 0.0, "type": "electric_scooter", "lat": 38.90009583333333, "is_reserved": 0, "is_disabled": 0, "fusion_lon": 0.0, "bike_id": "1663d41a49dca1dc3b5ed9d93dda51b2", "lon": -76.990304, "rental_uris": {"ios": "https://dc.lft.to/lastmile_qr_scan", "android": "https://dc.lft.to/lastmile_qr_scan"}}, {"name": "0e3b121f56d7f11144aa80c8b2448bfc", "fusion_lat": 0.0, "type": "electric_scooter", "lat": 38.923468166666666, "is_reserved": 0, "is_disabled": 0, "fusion_lon": 0.0, "bike_id": "0e3b121f56d7f11144aa80c8b2448bfc", "lon": -77.05439083333333, "rental_uris": {"ios": "https://dc.lft.to/lastmile_qr_scan", "android": "https://dc.lft.to/lastmile_qr_scan"}}, {"name": "93d18ccd646eea85ec1acb805f8f700d", "fusion_lat": 0.0, "type": "electric_bike", "lat": 39.003756, "is_reserved": 0, "is_disabled": 0, "fusion_lon": 0.0, "bike_id": "93d18ccd646eea85ec1acb805f8f700d", "lon": -77.01294866666667, "rental_uris": {"ios": "https://dc.lft.to/lastmile_qr_scan", "android": "https://dc.lft.to/lastmile_qr_scan"}}, {"name": "06d6c65cd216b656dacfde1400972350", "fusion_lat": 0.0, "type": "electric_scooter", "lat": 38.956503166666664, "is_reserved": 0, "is_disabled": 0, "fusion_lon": 0.0, "bike_id": "06d6c65cd216b656dacfde1400972350", "lon": -77.03283283333333, "rental_uris": {"ios": "https://dc.lft.to/lastmile_qr_scan", "android": "https://dc.lft.to/lastmile_qr_scan"}}, {"name": "58b6ca3c624d9c786c3c8776d1afb99d", "fusion_lat": 0.0, "type": "electric_scooter", "lat": 38.924855666666666, "is_reserved": 0, "is_disabled": 0, "fusion_lon": 0.0, "bike_id": "58b6ca3c624d9c786c3c8776d1afb99d", "lon": -77.05211783333333, "rental_uris": {"ios": "https://dc.lft.to/lastmile_qr_scan", "android": "https://dc.lft.to/lastmile_qr_scan"}}, {"name": "111d2010493a275ada9ac7779989ad16", "fusion_lat": 0.0, "type": "electric_scooter", "lat": 38.898210666666664, "is_reserved": 0, "is_disabled": 0, "fusion_lon": 0.0, "bike_id": "111d2010493a275ada9ac7779989ad16", "lon": -77.02953533333333, "rental_uris": {"ios": "https://dc.lft.to/lastmile_qr_scan", "android": "https://dc.lft.to/lastmile_qr_scan"}}, {"name": "eee974c67301ae3233658eed55968ecb", "fusion_lat": 0.0, "type": "electric_scooter", "lat": 38.89448983333333, "is_reserved": 0, "is_disabled": 0, "fusion_lon": 0.0, "bike_id": "eee974c67301ae3233658eed55968ecb", "lon": -77.0454215, "rental_uris": {"ios": "https://dc.lft.to/lastmile_qr_scan", "android": "https://dc.lft.to/lastmile_qr_scan"}}, {"name": "40a9e95f2fcc9e24b41ebd2830cbd904", "fusion_lat": 0.0, "type": "electric_scooter", "lat": 38.917583, "is_reserved": 0, "is_disabled": 0, "fusion_lon": 0.0, "bike_id": "40a9e95f2fcc9e24b41ebd2830cbd904", "lon": -77.0414995, "rental_uris": {"ios": "https://dc.lft.to/lastmile_qr_scan", "android": "https://dc.lft.to/lastmile_qr_scan"}}, {"name": "bdc2ae481584eae4ca5342059950b7fb", "fusion_lat": 0.0, "type": "electric_scooter", "lat": 38.8770115, "is_reserved": 0, "is_disabled": 0, "fusion_lon": 0.0, "bike_id": "bdc2ae481584eae4ca5342059950b7fb", "lon": -77.01657116666667, "rental_uris": {"ios": "https://dc.lft.to/lastmile_qr_scan", "android": "https://dc.lft.to/lastmile_qr_scan"}}, {"name": "4aab257e46a38298d82d3c9287aa3017", "fusion_lat": 0.0, "type": "electric_scooter", "lat": 38.900420833333335, "is_reserved": 0, "is_disabled": 0, "fusion_lon": 0.0, "bike_id": "4aab257e46a38298d82d3c9287aa3017", "lon": -77.00902766666667, "rental_uris": {"ios": "https://dc.lft.to/lastmile_qr_scan", "android": "https://dc.lft.to/lastmile_qr_scan"}}, {"name": "231d6f99fdbd2be0640291714bf9be14", "fusion_lat": 0.0, "type": "electric_scooter", "lat": 38.9028455, "is_reserved": 0, "is_disabled": 0, "fusion_lon": 0.0, "bike_id": "231d6f99fdbd2be0640291714bf9be14", "lon": -77.003355, "rental_uris": {"ios": "https://dc.lft.to/lastmile_qr_scan", "android": "https://dc.lft.to/lastmile_qr_scan"}}, {"name": "e8c0b82f7984290799456dcaa4666477", "fusion_lat": 0.0, "type": "electric_scooter", "lat": 38.921644666666666, "is_reserved": 0, "is_disabled": 0, "fusion_lon": 0.0, "bike_id": "e8c0b82f7984290799456dcaa4666477", "lon": -77.0338195, "rental_uris": {"ios": "https://dc.lft.to/lastmile_qr_scan", "android": "https://dc.lft.to/lastmile_qr_scan"}}, {"name": "47054940974fe0134f60ef3b587f3d55", "fusion_lat": 0.0, "type": "electric_scooter", "lat": 38.930940166666666, "is_reserved": 0, "is_disabled": 0, "fusion_lon": 0.0, "bike_id": "47054940974fe0134f60ef3b587f3d55", "lon": -77.024838, "rental_uris": {"ios": "https://dc.lft.to/lastmile_qr_scan", "android": "https://dc.lft.to/lastmile_qr_scan"}}, {"name": "aa1f5dcbee5967898c5d6a96129ff730", "fusion_lat": 0.0, "type": "electric_scooter", "lat": 38.921548666666666, "is_reserved": 0, "is_disabled": 0, "fusion_lon": 0.0, "bike_id": "aa1f5dcbee5967898c5d6a96129ff730", "lon": -77.033811, "rental_uris": {"ios": "https://dc.lft.to/lastmile_qr_scan", "android": "https://dc.lft.to/lastmile_qr_scan"}}, {"name": "456fdd4bfd4f57901d1b142b9ffb9a3b", "fusion_lat": 0.0, "type": "electric_scooter", "lat": 38.90727233333333, "is_reserved": 0, "is_disabled": 0, "fusion_lon": 0.0, "bike_id": "456fdd4bfd4f57901d1b142b9ffb9a3b", "lon": -76.99780866666667, "rental_uris": {"ios": "https://dc.lft.to/lastmile_qr_scan", "android": "https://dc.lft.to/lastmile_qr_scan"}}, {"name": "0a44615357095624885893438b84d9c8", "fusion_lat": 0.0, "type": "electric_scooter", "lat": 38.90004116666667, "is_reserved": 0, "is_disabled": 0, "fusion_lon": 0.0, "bike_id": "0a44615357095624885893438b84d9c8", "lon": -77.04034816666666, "rental_uris": {"ios": "https://dc.lft.to/lastmile_qr_scan", "android": "https://dc.lft.to/lastmile_qr_scan"}}, {"name": "1a3b48766b01bb5cf5dc3f95a670d307", "fusion_lat": 0.0, "type": "electric_scooter", "lat": 38.93387716666667, "is_reserved": 0, "is_disabled": 0, "fusion_lon": 0.0, "bike_id": "1a3b48766b01bb5cf5dc3f95a670d307", "lon": -77.0738245, "rental_uris": {"ios": "https://dc.lft.to/lastmile_qr_scan", "android": "https://dc.lft.to/lastmile_qr_scan"}}, {"name": "e936461c415e361536f4e5ef19a541d0", "fusion_lat": 0.0, "type": "electric_scooter", "lat": 38.90269816666667, "is_reserved": 0, "is_disabled": 0, "fusion_lon": 0.0, "bike_id": "e936461c415e361536f4e5ef19a541d0", "lon": -77.03832366666667, "rental_uris": {"ios": "https://dc.lft.to/lastmile_qr_scan", "android": "https://dc.lft.to/lastmile_qr_scan"}}, {"name": "bb2c246472dc4e15e453691a369724c2", "fusion_lat": 0.0, "type": "electric_scooter", "lat": 38.92472733333334, "is_reserved": 0, "is_disabled": 0, "fusion_lon": 0.0, "bike_id": "bb2c246472dc4e15e453691a369724c2", "lon": -77.03132633333334, "rental_uris": {"ios": "https://dc.lft.to/lastmile_qr_scan", "android": "https://dc.lft.to/lastmile_qr_scan"}}, {"name": "36dd1ef64cd489fc1a76e065f359820e", "fusion_lat": 0.0, "type": "electric_bike", "lat": 38.88615516666667, "is_reserved": 0, "is_disabled": 0, "fusion_lon": 0.0, "bike_id": "36dd1ef64cd489fc1a76e065f359820e", "lon": -77.1075395, "rental_uris": {"ios": "https://dc.lft.to/lastmile_qr_scan", "android": "https://dc.lft.to/lastmile_qr_scan"}}, {"name": "1f31c6e998cbfd995d47ee53298ead05", "fusion_lat": 0.0, "type": "electric_scooter", "lat": 38.89482683333333, "is_reserved": 0, "is_disabled": 0, "fusion_lon": 0.0, "bike_id": "1f31c6e998cbfd995d47ee53298ead05", "lon": -77.01016216666666, "rental_uris": {"ios": "https://dc.lft.to/lastmile_qr_scan", "android": "https://dc.lft.to/lastmile_qr_scan"}}, {"name": "9c4becb4813f5f7de650dc98365b07af", "fusion_lat": 0.0, "type": "electric_bike", "lat": 38.922119333333335, "is_reserved": 0, "is_disabled": 0, "fusion_lon": 0.0, "bike_id": "9c4becb4813f5f7de650dc98365b07af", "lon": -76.98796133333333, "rental_uris": {"ios": "https://dc.lft.to/lastmile_qr_scan", "android": "https://dc.lft.to/lastmile_qr_scan"}}, {"name": "4bfe827022b40f7a30f97391c9a7d286", "fusion_lat": 0.0, "type": "electric_scooter", "lat": 38.86266483333333, "is_reserved": 0, "is_disabled": 0, "fusion_lon": 0.0, "bike_id": "4bfe827022b40f7a30f97391c9a7d286", "lon": -76.98714783333334, "rental_uris": {"ios": "https://dc.lft.to/lastmile_qr_scan", "android": "https://dc.lft.to/lastmile_qr_scan"}}, {"name": "c0bec00b86fca1ed5a376782a0e8c797", "fusion_lat": 0.0, "type": "electric_scooter", "lat": 38.883884333333334, "is_reserved": 0, "is_disabled": 0, "fusion_lon": 0.0, "bike_id": "c0bec00b86fca1ed5a376782a0e8c797", "lon": -76.93050533333333, "rental_uris": {"ios": "https://dc.lft.to/lastmile_qr_scan", "android": "https://dc.lft.to/lastmile_qr_scan"}}, {"name": "7ac96ad2d00bf8cf992c9eb886f051ff", "fusion_lat": 0.0, "type": "electric_scooter", "lat": 38.93887, "is_reserved": 0, "is_disabled": 0, "fusion_lon": 0.0, "bike_id": "7ac96ad2d00bf8cf992c9eb886f051ff", "lon": -77.0246135, "rental_uris": {"ios": "https://dc.lft.to/lastmile_qr_scan", "android": "https://dc.lft.to/lastmile_qr_scan"}}, {"name": "d7c13a3771b3b5013ae0fd5edbc21e9f", "fusion_lat": 0.0, "type": "electric_scooter", "lat": 38.902879666666664, "is_reserved": 0, "is_disabled": 0, "fusion_lon": 0.0, "bike_id": "d7c13a3771b3b5013ae0fd5edbc21e9f", "lon": -77.03846383333334, "rental_uris": {"ios": "https://dc.lft.to/lastmile_qr_scan", "android": "https://dc.lft.to/lastmile_qr_scan"}}, {"name": "42e80c822bdb3d927e0bc3900e51de09", "fusion_lat": 0.0, "type": "electric_scooter", "lat": 38.91728783333333, "is_reserved": 0, "is_disabled": 0, "fusion_lon": 0.0, "bike_id": "42e80c822bdb3d927e0bc3900e51de09", "lon": -77.02893216666666, "rental_uris": {"ios": "https://dc.lft.to/lastmile_qr_scan", "android": "https://dc.lft.to/lastmile_qr_scan"}}, {"name": "e1e541cb7c11d0299a719cfeaa27914f", "fusion_lat": 0.0, "type": "electric_scooter", "lat": 38.87326, "is_reserved": 0, "is_disabled": 0, "fusion_lon": 0.0, "bike_id": "e1e541cb7c11d0299a719cfeaa27914f", "lon": -77.00118983333333, "rental_uris": {"ios": "https://dc.lft.to/lastmile_qr_scan", "android": "https://dc.lft.to/lastmile_qr_scan"}}, {"name": "3518ab1dc7db61541bfdcbab20b9b9cd", "fusion_lat": 0.0, "type": "electric_bike", "lat": 38.951816666666666, "is_reserved": 0, "is_disabled": 0, "fusion_lon": 0.0, "bike_id": "3518ab1dc7db61541bfdcbab20b9b9cd", "lon": -76.9354715, "rental_uris": {"ios": "https://dc.lft.to/lastmile_qr_scan", "android": "https://dc.lft.to/lastmile_qr_scan"}}, {"name": "13714f3b28538274ec49b2bf57a93a6b", "fusion_lat": 0.0, "type": "electric_scooter", "lat": 38.9014005, "is_reserved": 0, "is_disabled": 0, "fusion_lon": 0.0, "bike_id": "13714f3b28538274ec49b2bf57a93a6b", "lon": -77.00070483333333, "rental_uris": {"ios": "https://dc.lft.to/lastmile_qr_scan", "android": "https://dc.lft.to/lastmile_qr_scan"}}, {"name": "282291395f5c59e9cfe5b07d758dc2bc", "fusion_lat": 0.0, "type": "electric_bike", "lat": 38.92346283333333, "is_reserved": 0, "is_disabled": 0, "fusion_lon": 0.0, "bike_id": "282291395f5c59e9cfe5b07d758dc2bc", "lon": -76.992511, "rental_uris": {"ios": "https://dc.lft.to/lastmile_qr_scan", "android": "https://dc.lft.to/lastmile_qr_scan"}}, {"name": "297d13da9ba5630f1fdd10a41d5906d9", "fusion_lat": 0.0, "type": "electric_scooter", "lat": 38.909612833333334, "is_reserved": 0, "is_disabled": 0, "fusion_lon": 0.0, "bike_id": "297d13da9ba5630f1fdd10a41d5906d9", "lon": -77.04868216666667, "rental_uris": {"ios": "https://dc.lft.to/lastmile_qr_scan", "android": "https://dc.lft.to/lastmile_qr_scan"}}, {"name": "4cce6a5dbb936742b2e1852fd6edd0d4", "fusion_lat": 0.0, "type": "electric_scooter", "lat": 38.91222, "is_reserved": 0, "is_disabled": 0, "fusion_lon": 0.0, "bike_id": "4cce6a5dbb936742b2e1852fd6edd0d4", "lon": -77.02955433333334, "rental_uris": {"ios": "https://dc.lft.to/lastmile_qr_scan", "android": "https://dc.lft.to/lastmile_qr_scan"}}, {"name": "255c7dcd27934d8e1f81de5a25c222ee", "fusion_lat": 0.0, "type": "electric_scooter", "lat": 38.904813833333336, "is_reserved": 0, "is_disabled": 0, "fusion_lon": 0.0, "bike_id": "255c7dcd27934d8e1f81de5a25c222ee", "lon": -76.97324733333333, "rental_uris": {"ios": "https://dc.lft.to/lastmile_qr_scan", "android": "https://dc.lft.to/lastmile_qr_scan"}}, {"name": "e30d95f195fc498eaab593243d6442b8", "fusion_lat": 0.0, "type": "electric_scooter", "lat": 38.924119833333336, "is_reserved": 0, "is_disabled": 0, "fusion_lon": 0.0, "bike_id": "e30d95f195fc498eaab593243d6442b8", "lon": -77.03639366666667, "rental_uris": {"ios": "https://dc.lft.to/lastmile_qr_scan", "android": "https://dc.lft.to/lastmile_qr_scan"}}, {"name": "bf5e38e48e2ce5655814a335aa2b6201", "fusion_lat": 0.0, "type": "electric_scooter", "lat": 38.898518833333334, "is_reserved": 0, "is_disabled": 0, "fusion_lon": 0.0, "bike_id": "bf5e38e48e2ce5655814a335aa2b6201", "lon": -77.04081616666667, "rental_uris": {"ios": "https://dc.lft.to/lastmile_qr_scan", "android": "https://dc.lft.to/lastmile_qr_scan"}}, {"name": "09d3903c1d1a8078ab06b38fe679704c", "fusion_lat": 0.0, "type": "electric_scooter", "lat": 38.92112183333333, "is_reserved": 0, "is_disabled": 0, "fusion_lon": 0.0, "bike_id": "09d3903c1d1a8078ab06b38fe679704c", "lon": -77.04208533333333, "rental_uris": {"ios": "https://dc.lft.to/lastmile_qr_scan", "android": "https://dc.lft.to/lastmile_qr_scan"}},