{"data": {"bikes": [{"fusion_lat": 0.0, "lon": -76.95098, "is_reserved": 0, "bike_id": "69781023007db389fa995acc0a14386f", "fusion_lon": 0.0, "rental_uris": {"android": "https://dc.lft.to/lastmile_qr_scan", "ios": "https://dc.lft.to/lastmile_qr_scan"}, "name": "69781023007db389fa995acc0a14386f", "type": "electric_scooter", "lat": 38.884488166666664, "is_disabled": 0}, {"fusion_lat": 0.0, "lon": -76.93366066666667, "is_reserved": 0, "bike_id": "cd5a0af321bb4d003fd8b9708c9802c2", "fusion_lon": 0.0, "rental_uris": {"android": "https://dc.lft.to/lastmile_qr_scan", "ios": "https://dc.lft.to/lastmile_qr_scan"}, "name": "cd5a0af321bb4d003fd8b9708c9802c2", "type": "electric_scooter", "lat": 38.89914683333333, "is_disabled": 0}, {"fusion_lat": 0.0, "lon": -77.03493433333334, "is_reserved": 0, "bike_id": "c183a9a73861bbe491e23529f7d7d26a", "fusion_lon": 0.0, "rental_uris": {"android": "https://dc.lft.to/lastmile_qr_scan", "ios": "https://dc.lft.to/lastmile_qr_scan"}, "name": "c183a9a73861bbe491e23529f7d7d26a", "type": "electric_scooter", "lat": 38.923463, "is_disabled": 0}, {"fusion_lat": 0.0, "lon": -77.0240255, "is_reserved": 0, "bike_id": "5bf36e0e97285f33dcc0ae6484b82514", "fusion_lon": 0.0, "rental_uris": {"android": "https://dc.lft.to/lastmile_qr_scan", "ios": "https://dc.lft.to/lastmile_qr_scan"}, "name": "5bf36e0e97285f33dcc0ae6484b82514", "type": "electric_scooter", "lat": 38.91998316666667, "is_disabled": 0}, {"fusion_lat": 0.0, "lon": -76.99603016666667, "is_reserved": 0, "bike_id": "283a94812e31bf389fa1a15a53bf489f", "fusion_lon": 0.0, "rental_uris": {"android": "https://dc.lft.to/lastmile_qr_scan", "ios": "https://dc.lft.to/lastmile_qr_scan"}, "name": "283a94812e31bf389fa1a15a53bf489f", "type": "electric_scooter", "lat": 38.89230366666666, "is_disabled": 0}, {"fusion_lat": 0.0, "lon": -77.0120035, "is_reserved": 0, "bike_id": "efe9e79df4413e3fdd04e4f76f62e8f5", "fusion_lon": 0.0, "rental_uris": {"android": "https://dc.lft.to/lastmile_qr_scan", "ios": "https://dc.lft.to/lastmile_qr_scan"}, "name": "efe9e79df4413e3fdd04e4f76f62e8f5", "type": "electric_bike", "lat": 38.87097283333333, "is_disabled": 0}, {"fusion_lat": 0.0, "lon": -77.023043, "is_reserved": 0, "bike_id": "bb3f7bdf0e36870f6e31d8254efea4ed", "fusion_lon": 0.0, "rental_uris": {"android": "https://dc.lft.to/lastmile_qr_scan", "ios": "https://dc.lft.to/lastmile_qr_scan"}, "name": "bb3f7bdf0e36870f6e31d8254efea4ed", "type": "electric_scooter", "lat": 38.927193, "is_disabled": 0}, {"fusion_lat": 0.0, "lon": -77.04232633333334, "is_reserved": 0, "bike_id": "dec8219c4c2c9571038fc8e535ca3d6c", "fusion_lon": 0.0, "rental_uris": {"android": "https://dc.lft.to/lastmile_qr_scan", "ios": "https://dc.lft.to/lastmile_qr_scan"}, "name": "dec8219c4c2c9571038fc8e535ca3d6c", "type": "electric_scooter", "lat": 38.921786833333336, "is_disabled": 0}, {"fusion_lat": 0.0, "lon": -77.01372416666666, "is_reserved": 0, "bike_id": "f7eea022aa9fa90d8a0e2264a5310d3e", "fusion_lon": 0.0, "rental_uris": {"android": "https://dc.lft.to/lastmile_qr_scan", "ios": "https://dc.lft.to/lastmile_qr_scan"}, "name": "f7eea022aa9fa90d8a0e2264a5310d3e", "type": "electric_scooter", "lat": 38.88705433333333, "is_disabled": 0}, {"fusion_lat": 0.0, "lon": -77.02552966666667, "is_reserved": 0, "bike_id": "c65b7c0db8dac409c438ed174e5170d5", "fusion_lon": 0.0, "rental_uris": {"android": "https://dc.lft.to/lastmile_qr_scan", "ios": "https://dc.lft.to/lastmile_qr_scan"}, "name": "c65b7c0db8dac409c438ed174e5170d5", "type": "electric_scooter", "lat": 38.924743666666664, "is_disabled": 0}, {"fusion_lat": 0.0, "lon": -77.01315666666666, "is_reserved": 0, "bike_id": "a686262dfe853aee0981418e3483c968", "fusion_lon": 0.0, "rental_uris": {"android": "https://dc.lft.to/lastmile_qr_scan", "ios": "https://dc.lft.to/lastmile_qr_scan"}, "name": "a686262dfe853aee0981418e3483c968", "type": "electric_scooter", "lat": 38.90071116666667, "is_disabled": 0}, {"fusion_lat": 0.0, "lon": -77.08940733333333, "is_reserved": 0, "bike_id": "9e7dd18f20cd8ba7675189684d870b98", "fusion_lon": 0.0, "rental_uris": {"android": "https://dc.lft.to/lastmile_qr_scan", "ios": "https://dc.lft.to/lastmile_qr_scan"}, "name": "9e7dd18f20cd8ba7675189684d870b98", "type": "electric_bike", "lat": 38.841130166666666, "is_disabled": 0}, {"fusion_lat": 0.0, "lon": -77.01268133333333, "is_reserved": 0, "bike_id": "6ee242ee2e649fc5ea93b627755b5def", "fusion_lon": 0.0, "rental_uris": {"android": "https://dc.lft.to/lastmile_qr_scan", "ios": "https://dc.lft.to/lastmile_qr_scan"}, "name": "6ee242ee2e649fc5ea93b627755b5def", "type": "electric_scooter", "lat": 38.9141495, "is_disabled": 0}, {"fusion_lat": 0.0, "lon": -76.99816516666667, "is_reserved": 0, "bike_id": "92ef753444873f756d061cbc7e2891c2", "fusion_lon": 0.0, "rental_uris": {"android": "https://dc.lft.to/lastmile_qr_scan", "ios": "https://dc.lft.to/lastmile_qr_scan"}, "name": "92ef753444873f756d061cbc7e2891c2", "type": "electric_scooter", "lat": 38.907203333333335, "is_disabled": 0}, {"fusion_lat": 0.0, "lon": -77.02978633333333, "is_reserved": 0, "bike_id": "20927934672f718e7a664014eefdc9ab", "fusion_lon": 0.0, "rental_uris": {"android": "https://dc.lft.to/lastmile_qr_scan", "ios": "https://dc.lft.to/lastmile_qr_scan"}, "name": "20927934672f718e7a664014eefdc9ab", "type": "electric_scooter", "lat": 38.9141825, "is_disabled": 0}, {"fusion_lat": 0.0, "lon": -77.00048966666667, "is_reserved": 0, "bike_id": "1a4e4cf2fba67fc587bca8a84a4da3a4", "fusion_lon": 0.0, "rental_uris": {"android": "https://dc.lft.to/lastmile_qr_scan", "ios": "https://dc.lft.to/lastmile_qr_scan"}, "name": "1a4e4cf2fba67fc587bca8a84a4da3a4", "type": "electric_scooter", "lat": 38.924684, "is_disabled": 0}, {"fusion_lat": 0.0, "lon": -77.00726766666666, "is_reserved": 0, "bike_id": "285d0bb632fed14081590bf7fbf7011d", "fusion_lon": 0.0, "rental_uris": {"android": "https://dc.lft.to/lastmile_qr_scan", "ios": "https://dc.lft.to/lastmile_qr_scan"}, "name": "285d0bb632fed14081590bf7fbf7011d", "type": "electric_scooter", "lat": 38.884921, "is_disabled": 0}, {"fusion_lat": 0.0, "lon": -77.0291885, "is_reserved": 0, "bike_id": "6dc8dd809a619f2231645278bbbee8e1", "fusion_lon": 0.0, "rental_uris": {"android": "https://dc.lft.to/lastmile_qr_scan", "ios": "https://dc.lft.to/lastmile_qr_scan"}, "name": "6dc8dd809a619f2231645278bbbee8e1", "type": "electric_scooter", "lat": 38.93874, "is_disabled": 0}, {"fusion_lat": 0.0, "lon": -76.9856055, "is_reserved": 0, "bike_id": "0df2d746da9062737accd6549c076f57", "fusion_lon": 0.0, "rental_uris": {"android": "https://dc.lft.to/lastmile_qr_scan", "ios": "https://dc.lft.to/lastmile_qr_scan"}, "name": "0df2d746da9062737accd6549c076f57", "type": "electric_bike", "lat": 38.8995535, "is_disabled": 0}, {"fusion_lat": 0.0, "lon": -77.0442045, "is_reserved": 0, "bike_id": "e36d8b511182d9a1989759b103e9a981", "fusion_lon": 0.0, "rental_uris": {"android": "https://dc.lft.to/lastmile_qr_scan", "ios": "https://dc.lft.to/lastmile_qr_scan"}, "name": "e36d8b511182d9a1989759b103e9a981", "type": "electric_scooter", "lat": 38.9213305, "is_disabled": 0}, {"fusion_lat": 0.0, "lon": -77.02847283333334, "is_reserved": 0, "bike_id": "d44a1bf95a61d21e0ffbdcafab582e83", "fusion_lon": 0.0, "rental_uris": {"android": "https://dc.lft.to/lastmile_qr_scan", "ios": "https://dc.lft.to/lastmile_qr_scan"}, "name": "d44a1bf95a61d21e0ffbdcafab582e83", "type": "electric_scooter", "lat": 38.887470666666665, "is_disabled": 0}, {"fusion_lat": 0.0, "lon": -77.05109533333334, "is_reserved": 0, "bike_id": "522128f01b7bc0ae0086ac8588daf0dd", "fusion_lon": 0.0, "rental_uris": {"android": "https://dc.lft.to/lastmile_qr_scan", "ios": "https://dc.lft.to/lastmile_qr_scan"}, "name": "522128f01b7bc0ae0086ac8588daf0dd", "type": "electric_bike", "lat": 39.036728833333335, "is_disabled": 0}, {"fusion_lat": 0.0, "lon": -77.03880766666667, "is_reserved": 0, "bike_id": "ba0a9e93bc08ad74714be57038c6a03f", "fusion_lon": 0.0, "rental_uris": {"android": "https://dc.lft.to/lastmile_qr_scan", "ios": "https://dc.lft.to/lastmile_qr_scan"}, "name": "ba0a9e93bc08ad74714be57038c6a03f", "type": "electric_scooter", "lat": 38.891976666666665, "is_disabled": 0}, {"fusion_lat": 0.0, "lon": -76.96787066666667, "is_reserved": 0, "bike_id": "881f6cf797f8257fb75697a285d1bff5", "fusion_lon": 0.0, "rental_uris": {"android": "https://dc.lft.to/lastmile_qr_scan", "ios": "https://dc.lft.to/lastmile_qr_scan"}, "name": "881f6cf797f8257fb75697a285d1bff5", "type": "electric_scooter", "lat": 38.873363833333336, "is_disabled": 0}, {"fusion_lat": 0.0, "lon": -77.0381975, "is_reserved": 0, "bike_id": "94f1172cc331dffeb65d4e4cba8e4d1e", "fusion_lon": 0.0, "rental_uris": {"android": "https://dc.lft.to/lastmile_qr_scan", "ios": "https://dc.lft.to/lastmile_qr_scan"}, "name": "94f1172cc331dffeb65d4e4cba8e4d1e", "type": "electric_scooter", "lat": 38.9097, "is_disabled": 0}, {"fusion_lat": 0.0, "lon": -76.9979075, "is_reserved": 0, "bike_id": "7547376dc4e7d996d03bb8ebb37cf251", "fusion_lon": 0.0, "rental_uris": {"android": "https://dc.lft.to/lastmile_qr_scan", "ios": "https://dc.lft.to/lastmile_qr_scan"}, "name": "7547376dc4e7d996d03bb8ebb37cf251", "type": "electric_scooter", "lat": 38.89090616666667, "is_disabled": 0}, {"fusion_lat": 0.0, "lon": -76.9946795, "is_reserved": 0, "bike_id": "b5285347efa662faab27aa2d87f79780", "fusion_lon": 0.0, "rental_uris": {"android": "https://dc.lft.to/lastmile_qr_scan", "ios": "https://dc.lft.to/lastmile_qr_scan"}, "name": "b5285347efa662faab27aa2d87f79780", "type": "electric_scooter", "lat": 38.862253333333335, "is_disabled": 0}, {"fusion_lat": 0.0, "lon": -76.99645516666666, "is_reserved": 0, "bike_id": "ce22da0df90aa23d6ad96a08f506c194", "fusion_lon": 0.0, "rental_uris": {"android": "https://dc.lft.to/lastmile_qr_scan", "ios": "https://dc.lft.to/lastmile_qr_scan"}, "name": "ce22da0df90aa23d6ad96a08f506c194", "type": "electric_scooter", "lat": 38.887234, "is_disabled": 0}, {"fusion_lat": 0.0, "lon": -77.0004875, "is_reserved": 0, "bike_id": "30bbbc9427893aade5ffbc119cacb275", "fusion_lon": 0.0, "rental_uris": {"android": "https://dc.lft.to/lastmile_qr_scan", "ios": "https://dc.lft.to/lastmile_qr_scan"}, "name": "30bbbc9427893aade5ffbc119cacb275", "type": "electric_scooter", "lat": 38.89166083333333, "is_disabled": 0}, {"fusion_lat": 0.0, "lon": -76.9935115, "is_reserved": 0, "bike_id": "b7f14e088586b5807f887284fa098068", "fusion_lon": 0.0, "rental_uris": {"android": "https://dc.lft.to/lastmile_qr_scan", "ios": "https://dc.lft.to/lastmile_qr_scan"}, "name": "b7f14e088586b5807f887284fa098068", "type": "electric_scooter", "lat": 38.91484533333333, "is_disabled": 0}, {"fusion_lat": 0.0, "lon": -77.04343216666666, "is_reserved": 0, "bike_id": "e399037e94d30b684acd0728c8d28e04", "fusion_lon": 0.0, "rental_uris": {"android": "https://dc.lft.to/lastmile_qr_scan", "ios": "https://dc.lft.to/lastmile_qr_scan"}, "name": "e399037e94d30b684acd0728c8d28e04", "type": "electric_scooter", "lat": 38.90589466666667, "is_disabled": 0}, {"fusion_lat": 0.0, "lon": -76.98106633333333, "is_reserved": 0, "bike_id": "d06abfea14d1e8de2d11d3366898e9a2", "fusion_lon": 0.0, "rental_uris": {"android": "https://dc.lft.to/lastmile_qr_scan", "ios": "https://dc.lft.to/lastmile_qr_scan"}, "name": "d06abfea14d1e8de2d11d3366898e9a2", "type": "electric_bike", "lat": 38.877311666666664, "is_disabled": 0}, {"fusion_lat": 0.0, "lon": -77.00564783333333, "is_reserved": 0, "bike_id": "23659744ac6d0b70520839c2d3e7a1f0", "fusion_lon": 0.0, "rental_uris": {"android": "https://dc.lft.to/lastmile_qr_scan", "ios": "https://dc.lft.to/lastmile_qr_scan"}, "name": "23659744ac6d0b70520839c2d3e7a1f0", "type": "electric_scooter", "lat": 38.900374166666666, "is_disabled": 0}, {"fusion_lat": 0.0, "lon": -77.05168983333333, "is_reserved": 0, "bike_id": "e2c804c0343ada44e00ea6087fd99005", "fusion_lon": 0.0, "rental_uris": {"android": "https://dc.lft.to/lastmile_qr_scan", "ios": "https://dc.lft.to/lastmile_qr_scan"}, "name": "e2c804c0343ada44e00ea6087fd99005", "type": "electric_scooter", "lat": 38.924093666666664, "is_disabled": 0}, {"fusion_lat": 0.0, "lon": -77.01967666666667, "is_reserved": 0, "bike_id": "a56865be1cb6c9d7ae98709c188810e4", "fusion_lon": 0.0, "rental_uris": {"android": "https://dc.lft.to/lastmile_qr_scan", "ios": "https://dc.lft.to/lastmile_qr_scan"}, "name": "a56865be1cb6c9d7ae98709c188810e4", "type": "electric_scooter", "lat": 38.91988333333333, "is_disabled": 0}, {"fusion_lat": 0.0, "lon": -77.0264985, "is_reserved": 0, "bike_id": "300edbfc0f9dab3568e63f9a5c6d7282", "fusion_lon": 0.0, "rental_uris": {"android": "https://dc.lft.to/lastmile_qr_scan", "ios": "https://dc.lft.to/lastmile_qr_scan"}, "name": "300edbfc0f9dab3568e63f9a5c6d7282", "type": "electric_scooter", "lat": 38.938660666666664, "is_disabled": 0}, {"fusion_lat": 0.0, "lon": -77.03579783333333, "is_reserved": 0, "bike_id": "0b7d70f0d28534ae753f3389f678a7a3", "fusion_lon": 0.0, "rental_uris": {"android": "https://dc.lft.to/lastmile_qr_scan", "ios": "https://dc.lft.to/lastmile_qr_scan"}, "name": "0b7d70f0d28534ae753f3389f678a7a3", "type": "electric_scooter", "lat": 38.918797166666664, "is_disabled": 0}, {"fusion_lat": 0.0, "lon": -77.0403055, "is_reserved": 0, "bike_id": "71a1d0c1fc834301209d719c7d2f597f", "fusion_lon": 0.0, "rental_uris": {"android": "https://dc.lft.to/lastmile_qr_scan", "ios": "https://dc.lft.to/lastmile_qr_scan"}, "name": "71a1d0c1fc834301209d719c7d2f597f", "type": "electric_scooter", "lat": 38.917047333333336, "is_disabled": 0}, {"fusion_lat": 0.0, "lon": -77.07577416666666, "is_reserved": 0, "bike_id": "0d277d0b9978efdfe65b57a6228bf1d6", "fusion_lon": 0.0, "rental_uris": {"android": "https://dc.lft.to/lastmile_qr_scan", "ios": "https://dc.lft.to/lastmile_qr_scan"}, "name": "0d277d0b9978efdfe65b57a6228bf1d6", "type": "electric_scooter", "lat": 38.938622, "is_disabled": 0}, {"fusion_lat": 0.0, "lon": -76.9855205, "is_reserved": 0, "bike_id": "263a3f1372c08b902ada64e159f71a15", "fusion_lon": 0.0, "rental_uris": {"android": "https://dc.lft.to/lastmile_qr_scan", "ios": "https://dc.lft.to/lastmile_qr_scan"}, "name": "263a3f1372c08b902ada64e159f71a15", "type": "electric_scooter", "lat": 38.91033216666666, "is_disabled": 0}, {"fusion_lat": 0.0, "lon": -77.03449533333334, "is_reserved": 0, "bike_id": "04cfcfff07864d193d7e1a4b22a77048", "fusion_lon": 0.0, "rental_uris": {"android": "https://dc.lft.to/lastmile_qr_scan", "ios": "https://dc.lft.to/lastmile_qr_scan"}, "name": "04cfcfff07864d193d7e1a4b22a77048", "type": "electric_scooter", "lat": 38.91008266666667, "is_disabled": 0}, {"fusion_lat": 0.0, "lon": -77.015949, "is_reserved": 0, "bike_id": "1bd8534b160399d35d06f16c83f32030", "fusion_lon": 0.0, "rental_uris": {"android": "https://dc.lft.to/lastmile_qr_scan", "ios": "https://dc.lft.to/lastmile_qr_scan"}, "name": "1bd8534b160399d35d06f16c83f32030", "type": "electric_scooter", "lat": 38.94940016666666, "is_disabled": 0}, {"fusion_lat": 0.0, "lon": -77.03601383333333, "is_reserved": 0, "bike_id": "eff3aac6616beb6a56e1aab326874720", "fusion_lon": 0.0, "rental_uris": {"android": "https://dc.lft.to/lastmile_qr_scan", "ios": "https://dc.lft.to/lastmile_qr_scan"}, "name": "eff3aac6616beb6a56e1aab326874720", "type": "electric_scooter", "lat": 38.923230833333335, "is_disabled": 0}, {"fusion_lat": 0.0, "lon": -77.05250783333334, "is_reserved": 0, "bike_id": "fbd88dd1a92f3cae9202781c8f3fa7b9", "fusion_lon": 0.0, "rental_uris": {"android": "https://dc.lft.to/lastmile_qr_scan", "ios": "https://dc.lft.to/lastmile_qr_scan"}, "name": "fbd88dd1a92f3cae9202781c8f3fa7b9", "type": "electric_scooter", "lat": 38.9237585, "is_disabled": 0}, {"fusion_lat": 0.0, "lon": -76.98781683333333, "is_reserved": 0, "bike_id": "9e9ef276ca23a6289e178b95a7dafb4f", "fusion_lon": 0.0, "rental_uris": {"android": "https://dc.lft.to/lastmile_qr_scan", "ios": "https://dc.lft.to/lastmile_qr_scan"}, "name": "9e9ef276ca23a6289e178b95a7dafb4f", "type": "electric_scooter", "lat": 38.9030175, "is_disabled": 0}, {"fusion_lat": 0.0, "lon": -76.99504133333333, "is_reserved": 0, "bike_id": "541afeef7315325653c1a47dd30dfa8c", "fusion_lon": 0.0, "rental_uris": {"android": "https://dc.lft.to/lastmile_qr_scan", "ios": "https://dc.lft.to/lastmile_qr_scan"}, "name": "541afeef7315325653c1a47dd30dfa8c", "type": "electric_scooter", "lat": 38.909798333333335, "is_disabled": 0}, {"fusion_lat": 0.0, "lon": -77.02539466666667, "is_reserved": 0, "bike_id": "638100c047413a0345942230a03c5951", "fusion_lon": 0.0, "rental_uris": {"android": "https://dc.lft.to/lastmile_qr_scan", "ios": "https://dc.lft.to/lastmile_qr_scan"}, "name": "638100c047413a0345942230a03c5951", "type": "electric_scooter", "lat": 38.927507, "is_disabled": 0}, {"fusion_lat": 0.0, "lon": -77.036458, "is_reserved": 0, "bike_id": "2c3e9c95dfe2cae1163fc1ebf0d0c8b5", "fusion_lon": 0.0, "rental_uris": {"android": "https://dc.lft.to/lastmile_qr_scan", "ios": "https://dc.lft.to/lastmile_qr_scan"}, "name": "2c3e9c95dfe2cae1163fc1ebf0d0c8b5", "type": "electric_scooter", "lat": 38.922627, "is_disabled": 0}, {"fusion_lat": 0.0, "lon": -77.01212233333334, "is_reserved": 0, "bike_id": "9a67edd2c807c89afca579677bf51d57", "fusion_lon": 0.0, "rental_uris": {"android": "https://dc.lft.to/lastmile_qr_scan", "ios": "https://dc.lft.to/lastmile_qr_scan"}, "name": "9a67edd2c807c89afca579677bf51d57", "type": "electric_scooter", "lat": 38.921228, "is_disabled": 0}, {"fusion_lat": 0.0, "lon": -77.22798666666667, "is_reserved": 0, "bike_id": "9994086bdcb5477e564c2c79f40090c7", "fusion_lon": 0.0, "rental_uris": {"android": "https://dc.lft.to/lastmile_qr_scan", "ios": "https://dc.lft.to/lastmile_qr_scan"}, "name": "9994086bdcb5477e564c2c79f40090c7", "type": "electric_bike", "lat": 38.91017266666667, "is_disabled": 0}, {"fusion_lat": 0.0, "lon": -77.04767216666667, "is_reserved": 0, "bike_id": "98eff52ac421b9e517f544a3e3ea8dd1", "fusion_lon": 0.0, "rental_uris": {"android": "https://dc.lft.to/lastmile_qr_scan", "ios": "https://dc.lft.to/lastmile_qr_scan"}, "name": "98eff52ac421b9e517f544a3e3ea8dd1", "type": "electric_scooter", "lat": 38.91755416666667, "is_disabled": 0}, {"fusion_lat": 0.0, "lon": -77.011134, "is_reserved": 0, "bike_id": "df9910f2fe7e362de71d4e49e6e1cf38", "fusion_lon": 0.0, "rental_uris": {"android": "https://dc.lft.to/lastmile_qr_scan", "ios": "https://dc.lft.to/lastmile_qr_scan"}, "name": "df9910f2fe7e362de71d4e49e6e1cf38", "type": "electric_scooter", "lat": 38.894972333333335, "is_disabled": 0}, {"fusion_lat": 0.0, "lon": -77.0177075, "is_reserved": 0, "bike_id": "696abd88510ed3cda366ebafb446fb6a", "fusion_lon": 0.0, "rental_uris": {"android": "https://dc.lft.to/lastmile_qr_scan", "ios": "https://dc.lft.to/lastmile_qr_scan"}, "name": "696abd88510ed3cda366ebafb446fb6a", "type": "electric_scooter", "lat": 38.90400433333333, "is_disabled": 0}, {"fusion_lat": 0.0, "lon": -77.02492183333334, "is_reserved": 0, "bike_id": "706e3f749d47f43087940c25459e4d77", "fusion_lon": 0.0, "rental_uris": {"android": "https://dc.lft.to/lastmile_qr_scan", "ios": "https://dc.lft.to/lastmile_qr_scan"}, "name": "706e3f749d47f43087940c25459e4d77", "type": "electric_scooter", "lat": 38.9387795, "is_disabled": 0}, {"fusion_lat": 0.0, "lon": -76.99548583333333, "is_reserved": 0, "bike_id": "c8c24180c224d1b726a14b8197cdea34", "fusion_lon": 0.0, "rental_uris": {"android": "https://dc.lft.to/lastmile_qr_scan", "ios": "https://dc.lft.to/lastmile_qr_scan"}, "name": "c8c24180c224d1b726a14b8197cdea34", "type": "electric_scooter", "lat": 38.86262933333333, "is_disabled": 0}, {"fusion_lat": 0.0, "lon": -77.03217883333333, "is_reserved": 0, "bike_id": "72a274da25aeb7263eda866e20dbe8e2", "fusion_lon": 0.0, "rental_uris": {"android": "https://dc.lft.to/lastmile_qr_scan", "ios": "https://dc.lft.to/lastmile_qr_scan"}, "name": "72a274da25aeb7263eda866e20dbe8e2", "type": "electric_scooter", "lat": 38.917802, "is_disabled": 0}, {"fusion_lat": 0.0, "lon": -77.04128033333333, "is_reserved": 0, "bike_id": "8b2d666c51bc992c6843ec4d44660636", "fusion_lon": 0.0, "rental_uris": {"android": "https://dc.lft.to/lastmile_qr_scan", "ios": "https://dc.lft.to/lastmile_qr_scan"}, "name": "8b2d666c51bc992c6843ec4d44660636", "type": "electric_scooter", "lat": 38.9107345, "is_disabled": 0}, {"fusion_lat": 0.0, "lon": -77.03335433333334, "is_reserved": 0, "bike_id": "ed5c9cbbde626582f40e75a02fdf89db", "fusion_lon": 0.0, "rental_uris": {"android": "https://dc.lft.to/lastmile_qr_scan", "ios": "https://dc.lft.to/lastmile_qr_scan"}, "name": "ed5c9cbbde626582f40e75a02fdf89db", "type": "electric_scooter", "lat": 38.921602166666666, "is_disabled": 0}, {"fusion_lat": 0.0, "lon": -76.99030516666667, "is_reserved": 0, "bike_id": "df6f3c7cb946e8d5f3b50c124535c37c", "fusion_lon": 0.0, "rental_uris": {"android": "https://dc.lft.to/lastmile_qr_scan", "ios": "https://dc.lft.to/lastmile_qr_scan"}, "name": "df6f3c7cb946e8d5f3b50c124535c37c", "type": "electric_scooter", "lat": 38.89853466666667, "is_disabled": 0}, {"fusion_lat": 0.0, "lon": -77.04561583333333, "is_reserved": 0, "bike_id": "8e8f99f4319b394a7f52eb39d131293d", "fusion_lon": 0.0, "rental_uris": {"android": "https://dc.lft.to/lastmile_qr_scan", "ios": "https://dc.lft.to/lastmile_qr_scan"}, "name": "8e8f99f4319b394a7f52eb39d131293d", "type": "electric_scooter", "lat": 38.92419866666667, "is_disabled": 0}, {"fusion_lat": 0.0, "lon": -77.0169815, "is_reserved": 0, "bike_id": "d848b1275142b916697b0e44c27f594f", "fusion_lon": 0.0, "rental_uris": {"android": "https://dc.lft.to/lastmile_qr_scan", "ios": "https://dc.lft.to/lastmile_qr_scan"}, "name": "d848b1275142b916697b0e44c27f594f", "type": "electric_scooter", "lat": 38.97518916666667, "is_disabled": 0}, {"fusion_lat": 0.0, "lon": -77.02390316666667, "is_reserved": 0, "bike_id": "33b59ecdad62a6b1abf8fb1c06f4cde3", "fusion_lon": 0.0, "rental_uris": {"android": "https://dc.lft.to/lastmile_qr_scan", "ios": "https://dc.lft.to/lastmile_qr_scan"}, "name": "33b59ecdad62a6b1abf8fb1c06f4cde3", "type": "electric_scooter", "lat": 38.92599166666667, "is_disabled": 0}, {"fusion_lat": 0.0, "lon": -77.00242983333334, "is_reserved": 0, "bike_id": "399780d260382796afc882b2ae8e60c9", "fusion_lon": 0.0, "rental_uris": {"android": "https://dc.lft.to/lastmile_qr_scan", "ios": "https://dc.lft.to/lastmile_qr_scan"}, "name": "399780d260382796afc882b2ae8e60c9", "type": "electric_scooter", "lat": 38.957238, "is_disabled": 0}, {"fusion_lat": 0.0, "lon": -76.98825133333334, "is_reserved": 0, "bike_id": "cde800855b325897c465fdcd298a595d", "fusion_lon": 0.0, "rental_uris": {"android": "https://dc.lft.to/lastmile_qr_scan", "ios": "https://dc.lft.to/lastmile_qr_scan"}, "name": "cde800855b325897c465fdcd298a595d", "type": "electric_scooter", "lat": 38.8907655, "is_disabled": 0}, {"fusion_lat": 0.0, "lon": -77.0297885, "is_reserved": 0, "bike_id": "18307c018867c09d43421a10f728aa14", "fusion_lon": 0.0, "rental_uris": {"android": "https://dc.lft.to/lastmile_qr_scan", "ios": "https://dc.lft.to/lastmile_qr_scan"}, "name": "18307c018867c09d43421a10f728aa14", "type": "electric_scooter", "lat": 38.9219675, "is_disabled": 0}, {"fusion_lat": 0.0, "lon": -76.9692925, "is_reserved": 0, "bike_id": "06bf25693f875cc4a996f2cc651df56c", "fusion_lon": 0.0, "rental_uris": {"android": "https://dc.lft.to/lastmile_qr_scan", "ios": "https://dc.lft.to/lastmile_qr_scan"}, "name": "06bf25693f875cc4a996f2cc651df56c", "type": "electric_bike", "lat": 38.9511975, "is_disabled": 0}, {"fusion_lat": 0.0, "lon": -77.03490066666667, "is_reserved": 0, "bike_id": "de50c5abbdde42a3d039b6fd2d12bd3f", "fusion_lon": 0.0, "rental_uris": {"android": "https://dc.lft.to/lastmile_qr_scan", "ios": "https://dc.lft.to/lastmile_qr_scan"}, "name": "de50c5abbdde42a3d039b6fd2d12bd3f", "type": "electric_scooter", "lat": 38.92483083333333, "is_disabled": 0}, {"fusion_lat": 0.0, "lon": -77.11171266666666, "is_reserved": 0, "bike_id": "3fa5806f7534c6fec7957b6a84a9c65b", "fusion_lon": 0.0, "rental_uris": {"android": "https://dc.lft.to/lastmile_qr_scan", "ios": "https://dc.lft.to/lastmile_qr_scan"}, "name": "3fa5806f7534c6fec7957b6a84a9c65b", "type": "electric_bike", "lat": 38.855119, "is_disabled": 0}, {"fusion_lat": 0.0, "lon": -77.0268775, "is_reserved": 0, "bike_id": "a81c1a5f07432f6d4d5c1d8b99f7ecfc", "fusion_lon": 0.0, "rental_uris": {"android": "https://dc.lft.to/lastmile_qr_scan", "ios": "https://dc.lft.to/lastmile_qr_scan"}, "name": "a81c1a5f07432f6d4d5c1d8b99f7ecfc", "type": "electric_scooter", "lat": 38.901272666666664, "is_disabled": 0}, {"fusion_lat": 0.0, "lon": -77.03228716666666, "is_reserved": 0, "bike_id": "1bbe2cb80db8032bb2863c5e78edd92f", "fusion_lon": 0.0, "rental_uris": {"android": "https://dc.lft.to/lastmile_qr_scan", "ios": "https://dc.lft.to/lastmile_qr_scan"}, "name": "1bbe2cb80db8032bb2863c5e78edd92f", "type": "electric_scooter", "lat": 38.928686166666665, "is_disabled": 0}, {"fusion_lat": 0.0, "lon": -77.012084, "is_reserved": 0, "bike_id": "28b459139cf89acddc74eeb9343393ea", "fusion_lon": 0.0, "rental_uris": {"android": "https://dc.lft.to/lastmile_qr_scan", "ios": "https://dc.lft.to/lastmile_qr_scan"}, "name": "28b459139cf89acddc74eeb9343393ea", "type": "electric_scooter", "lat": 38.87091516666667, "is_disabled": 0}, {"fusion_lat": 0.0, "lon": -77.18741133333333, "is_reserved": 0, "bike_id": "18741b91e9d73ff87a73d714770b9f86", "fusion_lon": 0.0, "rental_uris": {"android": "https://dc.lft.to/lastmile_qr_scan", "ios": "https://dc.lft.to/lastmile_qr_scan"}, "name": "18741b91e9d73ff87a73d714770b9f86", "type": "electric_bike", "lat": 38.89353466666667, "is_disabled": 0}, {"fusion_lat": 0.0, "lon": -76.98374566666666, "is_reserved": 0, "bike_id": "1827371682c53e57f9e6d214a4319a9d", "fusion_lon": 0.0, "rental_uris": {"android": "https://dc.lft.to/lastmile_qr_scan", "ios": "https://dc.lft.to/lastmile_qr_scan"}, "name": "1827371682c53e57f9e6d214a4319a9d", "type": "electric_scooter", "lat": 38.9149665, "is_disabled": 0}, {"fusion_lat": 0.0, "lon": -77.0387085, "is_reserved": 0, "bike_id": "c872743b40f08456d02c94738eaca640", "fusion_lon": 0.0, "rental_uris": {"android": "https://dc.lft.to/lastmile_qr_scan", "ios": "https://dc.lft.to/lastmile_qr_scan"}, "name": "c872743b40f08456d02c94738eaca640", "type": "electric_scooter", "lat": 38.9215365, "is_disabled": 0}, {"fusion_lat": 0.0, "lon": -77.062926, "is_reserved": 0, "bike_id": "069f31385ed7b70b5e7041d4a22bb6bf", "fusion_lon": 0.0, "rental_uris": {"android": "https://dc.lft.to/lastmile_qr_scan", "ios": "https://dc.lft.to/lastmile_qr_scan"}, "name": "069f31385ed7b70b5e7041d4a22bb6bf", "type": "electric_scooter", "lat": 38.904384666666665, "is_disabled": 0}, {"fusion_lat": 0.0, "lon": -76.99145433333334, "is_reserved": 0, "bike_id": "9d9fb9028598787fba782b9aef7cacc2", "fusion_lon": 0.0, "rental_uris": {"android": "https://dc.lft.to/lastmile_qr_scan", "ios": "https://dc.lft.to/lastmile_qr_scan"}, "name": "9d9fb9028598787fba782b9aef7cacc2", "type": "electric_scooter", "lat": 38.885955, "is_disabled": 0}, {"fusion_lat": 0.0, "lon": -76.995331, "is_reserved": 0, "bike_id": "74dfc27130f72b6402786f799f846f68", "fusion_lon": 0.0, "rental_uris": {"android": "https://dc.lft.to/lastmile_qr_scan", "ios": "https://dc.lft.to/lastmile_qr_scan"}, "name": "74dfc27130f72b6402786f799f846f68", "type": "electric_scooter", "lat": 38.8837445, "is_disabled": 0}, {"fusion_lat": 0.0, "lon": -77.03146283333334, "is_reserved": 0, "bike_id": "e3970f310ba6b9ce5a58ea9903616d10", "fusion_lon": 0.0, "rental_uris": {"android": "https://dc.lft.to/lastmile_qr_scan", "ios": "https://dc.lft.to/lastmile_qr_scan"}, "name": "e3970f310ba6b9ce5a58ea9903616d10", "type": "electric_scooter", "lat": 38.91914633333333, "is_disabled": 0}, {"fusion_lat": 0.0, "lon": -77.03722383333333, "is_reserved": 0, "bike_id": "efea6e7d1c1eb1b34f5374bff6e1df14", "fusion_lon": 0.0, "rental_uris": {"android": "https://dc.lft.to/lastmile_qr_scan", "ios": "https://dc.lft.to/lastmile_qr_scan"}, "name": "efea6e7d1c1eb1b34f5374bff6e1df14", "type": "electric_scooter", "lat": 38.916959, "is_disabled": 0}, {"fusion_lat": 0.0, "lon": -77.0352405, "is_reserved": 0, "bike_id": "0c627703f03b67cf2e3b59f4138327bd", "fusion_lon": 0.0, "rental_uris": {"android": "https://dc.lft.to/lastmile_qr_scan", "ios": "https://dc.lft.to/lastmile_qr_scan"}, "name": "0c627703f03b67cf2e3b59f4138327bd", "type": "electric_scooter", "lat": 38.922585, "is_disabled": 0}, {"fusion_lat": 0.0, "lon": -77.05889, "is_reserved": 0, "bike_id": "1e1057cb748d58d70e014b77588f1158", "fusion_lon": 0.0, "rental_uris": {"android": "https://dc.lft.to/lastmile_qr_scan", "ios": "https://dc.lft.to/lastmile_qr_scan"}, "name": "1e1057cb748d58d70e014b77588f1158", "type": "electric_scooter", "lat": 38.94299783333334, "is_disabled": 0}, {"fusion_lat": 0.0, "lon": -77.04688316666666, "is_reserved": 0, "bike_id": "b0ca7785df77cf0aa36a1d789213217d", "fusion_lon": 0.0, "rental_uris": {"android": "https://dc.lft.to/lastmile_qr_scan", "ios": "https://dc.lft.to/lastmile_qr_scan"}, "name": "b0ca7785df77cf0aa36a1d789213217d", "type": "electric_bike", "lat": 39.0239715, "is_disabled": 0}, {"fusion_lat": 0.0, "lon": -77.02245216666667, "is_reserved": 0, "bike_id": "c209f182ae549618eb42529c1722da8d", "fusion_lon": 0.0, "rental_uris": {"android": "https://dc.lft.to/lastmile_qr_scan", "ios": "https://dc.lft.to/lastmile_qr_scan"}, "name": "c209f182ae549618eb42529c1722da8d", "type": "electric_scooter", "lat": 38.916445333333336, "is_disabled": 0}, {"fusion_lat": 0.0, "lon": -77.0186385, "is_reserved": 0, "bike_id": "80994d787d07db84dc9eebe514038c5b", "fusion_lon": 0.0, "rental_uris": {"android": "https://dc.lft.to/lastmile_qr_scan", "ios": "https://dc.lft.to/lastmile_qr_scan"}, "name": "80994d787d07db84dc9eebe514038c5b", "type": "electric_scooter", "lat": 38.97370733333333, "is_disabled": 0}, {"fusion_lat": 0.0, "lon": -77.03956783333334, "is_reserved": 0, "bike_id": "f51b4bfebb14f24599d6f2d90e4874fe", "fusion_lon": 0.0, "rental_uris": {"android": "https://dc.lft.to/lastmile_qr_scan", "ios": "https://dc.lft.to/lastmile_qr_scan"}, "name": "f51b4bfebb14f24599d6f2d90e4874fe", "type": "electric_scooter", "lat": 38.892499666666666, "is_disabled": 0}, {"fusion_lat": 0.0, "lon": -77.0646135, "is_reserved": 0, "bike_id": "8f0b554212302468ba56a23f3241643e", "fusion_lon": 0.0, "rental_uris": {"android": "https://dc.lft.to/lastmile_qr_scan", "ios": "https://dc.lft.to/lastmile_qr_scan"}, "name": "8f0b554212302468ba56a23f3241643e", "type": "electric_scooter", "lat": 38.927486333333334, "is_disabled": 0}, {"fusion_lat": 0.0, "lon": -77.037814, "is_reserved": 0, "bike_id": "0ee5a6c61685118da0906b1544c5586d", "fusion_lon": 0.0, "rental_uris": {"android": "https://dc.lft.to/lastmile_qr_scan", "ios": "https://dc.lft.to/lastmile_qr_scan"}, "name": "0ee5a6c61685118da0906b1544c5586d", "type": "electric_scooter", "lat": 38.916985333333336, "is_disabled": 0}, {"fusion_lat": 0.0, "lon": -76.97329616666667, "is_reserved": 0, "bike_id": "1291e8b0eab30de7ba2d4f13fe641bd7", "fusion_lon": 0.0, "rental_uris": {"android": "https://dc.lft.to/lastmile_qr_scan", "ios": "https://dc.lft.to/lastmile_qr_scan"}, "name": "1291e8b0eab30de7ba2d4f13fe641bd7", "type": "electric_scooter", "lat": 38.86575583333333, "is_disabled": 0}, {"fusion_lat": 0.0, "lon": -76.98229466666666, "is_reserved": 0, "bike_id": "730405d5f270057ff58f78f292863f73", "fusion_lon": 0.0, "rental_uris": {"android": "https://dc.lft.to/lastmile_qr_scan", "ios": "https://dc.lft.to/lastmile_qr_scan"}, "name": "730405d5f270057ff58f78f292863f73", "type": "electric_scooter", "lat": 38.886464333333336, "is_disabled": 0}, {"fusion_lat": 0.0, "lon": -77.04359783333334, "is_reserved": 0, "bike_id": "f40ec47df934002d9ccd1f1365b7142f", "fusion_lon": 0.0, "rental_uris": {"android": "https://dc.lft.to/lastmile_qr_scan", "ios": "https://dc.lft.to/lastmile_qr_scan"}, "name": "f40ec47df934002d9ccd1f1365b7142f", "type": "electric_scooter", "lat": 38.92067516666667, "is_disabled": 0}, {"fusion_lat": 0.0, "lon": -77.00659116666667, "is_reserved": 0, "bike_id": "2d6f8516e9684259f9e41e23ada60f55", "fusion_lon": 0.0, "rental_uris": {"android": "https://dc.lft.to/lastmile_qr_scan", "ios": "https://dc.lft.to/lastmile_qr_scan"}, "name": "2d6f8516e9684259f9e41e23ada60f55", "type": "electric_scooter", "lat": 38.94459666666667, "is_disabled": 0}, {"fusion_lat": 0.0, "lon": -77.01585816666666, "is_reserved": 0, "bike_id": "77c905766f6179a8961ede866043dca9", "fusion_lon": 0.0, "rental_uris": {"android": "https://dc.lft.to/lastmile_qr_scan", "ios": "https://dc.lft.to/lastmile_qr_scan"}, "name": "77c905766f6179a8961ede866043dca9", "type": "electric_scooter", "lat": 38.88615683333333, "is_disabled": 0}, {"fusion_lat": 0.0, "lon": -76.984766, "is_reserved": 0, "bike_id": "3327203f43c618ef408efabe6c71d3e4", "fusion_lon": 0.0, "rental_uris": {"android": "https://dc.lft.to/lastmile_qr_scan", "ios": "https://dc.lft.to/lastmile_qr_scan"}, "name": "3327203f43c618ef408efabe6c71d3e4", "type": "electric_bike", "lat": 38.928975666666666, "is_disabled": 0}, {"fusion_lat": 0.0, "lon": -77.03223416666667, "is_reserved": 0, "bike_id": "a0febfa0eee212b95959af536eebfca4", "fusion_lon": 0.0, "rental_uris": {"android": "https://dc.lft.to/lastmile_qr_scan", "ios": "https://dc.lft.to/lastmile_qr_scan"}, "name": "a0febfa0eee212b95959af536eebfca4", "type": "electric_scooter", "lat": 38.917725, "is_disabled": 0}, {"fusion_lat": 0.0, "lon": -77.17838866666666, "is_reserved": 0, "bike_id": "11590b8c8663fd3950d0b6e2c26f7b91", "fusion_lon": 0.0, "rental_uris": {"android": "https://dc.lft.to/lastmile_qr_scan", "ios": "https://dc.lft.to/lastmile_qr_scan"}, "name": "11590b8c8663fd3950d0b6e2c26f7b91", "type": "electric_bike", "lat": 39.088582833333334, "is_disabled": 0}, {"fusion_lat": 0.0, "lon": -77.0307305, "is_reserved": 0, "bike_id": "7b205aa092dfd39af6ab9f231e1cdb02", "fusion_lon": 0.0, "rental_uris": {"android": "https://dc.lft.to/lastmile_qr_scan", "ios": "https://dc.lft.to/lastmile_qr_scan"}, "name": "7b205aa092dfd39af6ab9f231e1cdb02", "type": "electric_scooter", "lat": 38.905668166666665, "is_disabled": 0}, {"fusion_lat": 0.0, "lon": -77.0265355, "is_reserved": 0, "bike_id": "d03b69eda3089693b86b7f18b2b1a013", "fusion_lon": 0.0, "rental_uris": {"android": "https://dc.lft.to/lastmile_qr_scan", "ios": "https://dc.lft.to/lastmile_qr_scan"}, "name": "d03b69eda3089693b86b7f18b2b1a013", "type": "electric_scooter", "lat": 38.892209666666666, "is_disabled": 0}, {"fusion_lat": 0.0, "lon": -76.95656516666666, "is_reserved": 0, "bike_id": "56919b1d512a29eebc20ece6f9295c97", "fusion_lon": 0.0, "rental_uris": {"android": "https://dc.lft.to/lastmile_qr_scan", "ios": "https://dc.lft.to/lastmile_qr_scan"}, "name": "56919b1d512a29eebc20ece6f9295c97", "type": "electric_scooter", "lat": 38.895513666666666, "is_disabled": 0}, {"fusion_lat": 0.0, "lon": -77.01221766666667, "is_reserved": 0, "bike_id": "58b8f0a8d0ff8a760217d7c0b1642345", "fusion_lon": 0.0, "rental_uris": {"android": "https://dc.lft.to/lastmile_qr_scan", "ios": "https://dc.lft.to/lastmile_qr_scan"}, "name": "58b8f0a8d0ff8a760217d7c0b1642345", "type": "electric_bike", "lat": 38.8719485, "is_disabled": 0}, {"fusion_lat": 0.0, "lon": -76.99160333333333, "is_reserved": 0, "bike_id": "393381288e7702aff4d55bb0cd431ea0", "fusion_lon": 0.0, "rental_uris": {"android": "https://dc.lft.to/lastmile_qr_scan", "ios": "https://dc.lft.to/lastmile_qr_scan"}, "name": "393381288e7702aff4d55bb0cd431ea0", "type": "electric_scooter", "lat": 38.89803116666667, "is_disabled": 0}, {"fusion_lat": 0.0, "lon": -76.99007066666667, "is_reserved": 0, "bike_id": "324f7b03931a553b130e7603b88c5948", "fusion_lon": 0.0, "rental_uris": {"android": "https://dc.lft.to/lastmile_qr_scan", "ios": "https://dc.lft.to/lastmile_qr_scan"}, "name": "324f7b03931a553b130e7603b88c5948", "type": "electric_scooter", "lat": 38.9039485, "is_disabled": 0}, {"fusion_lat": 0.0, "lon": -77.042905, "is_reserved": 0, "bike_id": "a999fa3105dd33bc9d4aca0e43dd3193", "fusion_lon": 0.0, "rental_uris": {"android": "https://dc.lft.to/lastmile_qr_scan", "ios": "https://dc.lft.to/lastmile_qr_scan"}, "name": "a999fa3105dd33bc9d4aca0e43dd3193", "type": "electric_scooter", "lat": 38.916981666666665, "is_disabled": 0}, {"fusion_lat": 0.0, "lon": -77.01401683333333, "is_reserved": 0, "bike_id": "90f56bff226db689f001d3bdd7ba533d", "fusion_lon": 0.0, "rental_uris": {"android": "https://dc.lft.to/lastmile_qr_scan", "ios": "https://dc.lft.to/lastmile_qr_scan"}, "name": "90f56bff226db689f001d3bdd7ba533d", "type": "electric_scooter", "lat": 38.887463333333336, "is_disabled": 0}, {"fusion_lat": 0.0, "lon": -77.02086583333333, "is_reserved": 0, "bike_id": "7d8b1fa33f57ce11b932f1dd4a254b31", "fusion_lon": 0.0, "rental_uris": {"android": "https://dc.lft.to/lastmile_qr_scan", "ios": "https://dc.lft.to/lastmile_qr_scan"}, "name": "7d8b1fa33f57ce11b932f1dd4a254b31", "type": "electric_scooter", "lat": 38.881903666666666, "is_disabled": 0}, {"fusion_lat": 0.0, "lon": -77.039633, "is_reserved": 0, "bike_id": "6776544a43da2453c846b6e42145fba9", "fusion_lon": 0.0, "rental_uris": {"android": "https://dc.lft.to/lastmile_qr_scan", "ios": "https://dc.lft.to/lastmile_qr_scan"}, "name": "6776544a43da2453c846b6e42145fba9", "type": "electric_scooter", "lat": 38.91191716666667, "is_disabled": 0}, {"fusion_lat": 0.0, "lon": -77.04257066666666, "is_reserved": 0, "bike_id": "f22590529a400619951140114aba9e6e", "fusion_lon": 0.0, "rental_uris": {"android": "https://dc.lft.to/lastmile_qr_scan", "ios": "https://dc.lft.to/lastmile_qr_scan"}, "name": "f22590529a400619951140114aba9e6e", "type": "electric_scooter", "lat": 38.92247066666667, "is_disabled": 0}, {"fusion_lat": 0.0, "lon": -77.11844066666667, "is_reserved": 0, "bike_id": "67f41abfe1dd0fa736f727dff2a55876", "fusion_lon": 0.0, "rental_uris": {"android": "https://dc.lft.to/lastmile_qr_scan", "ios": "https://dc.lft.to/lastmile_qr_scan"}, "name": "67f41abfe1dd0fa736f727dff2a55876", "type": "electric_bike", "lat": 38.877333, "is_disabled": 0}, {"fusion_lat": 0.0, "lon": -77.00754883333333, "is_reserved": 0, "bike_id": "5d6b1f194490019d4e1d8a9a9aba4263", "fusion_lon": 0.0, "rental_uris": {"android": "https://dc.lft.to/lastmile_qr_scan", "ios": "https://dc.lft.to/lastmile_qr_scan"}, "name": "5d6b1f194490019d4e1d8a9a9aba4263", "type": "electric_scooter", "lat": 38.92678083333333, "is_disabled": 0}, {"fusion_lat": 0.0, "lon": -77.031701, "is_reserved": 0, "bike_id": "a65900cf51e0d49c6c5ad6ada3aed481", "fusion_lon": 0.0, "rental_uris": {"android": "https://dc.lft.to/lastmile_qr_scan", "ios": "https://dc.lft.to/lastmile_qr_scan"}, "name": "a65900cf51e0d49c6c5ad6ada3aed481", "type": "electric_scooter", "lat": 38.887685166666664, "is_disabled": 0}, {"fusion_lat": 0.0, "lon": -77.0020645, "is_reserved": 0, "bike_id": "8fb964592731913f266898dfa0408d82", "fusion_lon": 0.0, "rental_uris": {"android": "https://dc.lft.to/lastmile_qr_scan", "ios": "https://dc.lft.to/lastmile_qr_scan"}, "name": "8fb964592731913f266898dfa0408d82", "type": "electric_scooter", "lat": 38.903017, "is_disabled": 0}, {"fusion_lat": 0.0, "lon": -77.0177205, "is_reserved": 0, "bike_id": "3f187791433f2ef1bda0f6af1d20f9ec", "fusion_lon": 0.0, "rental_uris": {"android": "https://dc.lft.to/lastmile_qr_scan", "ios": "https://dc.lft.to/lastmile_qr_scan"}, "name": "3f187791433f2ef1bda0f6af1d20f9ec", "type": "electric_scooter", "lat": 38.872251, "is_disabled": 0}, {"fusion_lat": 0.0, "lon": -77.0345845, "is_reserved": 0, "bike_id": "69250d18012e5783e6a37b405c2afb95", "fusion_lon": 0.0, "rental_uris": {"android": "https://dc.lft.to/lastmile_qr_scan", "ios": "https://dc.lft.to/lastmile_qr_scan"}, "name": "69250d18012e5783e6a37b405c2afb95", "type": "electric_scooter", "lat": 38.9100545, "is_disabled": 0}, {"fusion_lat": 0.0, "lon": -77.01150383333334, "is_reserved": 0, "bike_id": "b115e68e3bb645465774a1c484cd8db7", "fusion_lon": 0.0, "rental_uris": {"android": "https://dc.lft.to/lastmile_qr_scan", "ios": "https://dc.lft.to/lastmile_qr_scan"}, "name": "b115e68e3bb645465774a1c484cd8db7", "type": "electric_bike", "lat": 38.9115395, "is_disabled": 0}, {"fusion_lat": 0.0, "lon": -77.0586065, "is_reserved": 0, "bike_id": "f25bee8e8f6f3314aa4207d8e5b4a97e", "fusion_lon": 0.0, "rental_uris": {"android": "https://dc.lft.to/lastmile_qr_scan", "ios": "https://dc.lft.to/lastmile_qr_scan"}, "name": "f25bee8e8f6f3314aa4207d8e5b4a97e", "type": "electric_bike", "lat": 38.936091, "is_disabled": 0}, {"fusion_lat": 0.0, "lon": -77.00197633333333, "is_reserved": 0, "bike_id": "cd6ebad2a9d514ce71d10f72ebe9f961", "fusion_lon": 0.0, "rental_uris": {"android": "https://dc.lft.to/lastmile_qr_scan", "ios": "https://dc.lft.to/lastmile_qr_scan"}, "name": "cd6ebad2a9d514ce71d10f72ebe9f961", "type": "electric_scooter", "lat": 38.90240083333333, "is_disabled": 0}, {"fusion_lat": 0.0, "lon": -77.044453, "is_reserved": 0, "bike_id": "18a238785f52c843e9c64365850dbf88", "fusion_lon": 0.0, "rental_uris": {"android": "https://dc.lft.to/lastmile_qr_scan", "ios": "https://dc.lft.to/lastmile_qr_scan"}, "name": "18a238785f52c843e9c64365850dbf88", "type": "electric_scooter", "lat": 38.92129533333333, "is_disabled": 0}, {"fusion_lat": 0.0, "lon": -76.99787133333334, "is_reserved": 0, "bike_id": "776edf2cab1ae8fefa1da203baa30f58", "fusion_lon": 0.0, "rental_uris": {"android": "https://dc.lft.to/lastmile_qr_scan", "ios": "https://dc.lft.to/lastmile_qr_scan"}, "name": "776edf2cab1ae8fefa1da203baa30f58", "type": "electric_scooter", "lat": 38.91052416666667, "is_disabled": 0}, {"fusion_lat": 0.0, "lon": -76.93737266666666, "is_reserved": 0, "bike_id": "a025ce471c0399af87a2bcf832e83ccc", "fusion_lon": 0.0, "rental_uris": {"android": "https://dc.lft.to/lastmile_qr_scan", "ios": "https://dc.lft.to/lastmile_qr_scan"}, "name": "a025ce471c0399af87a2bcf832e83ccc", "type": "electric_scooter", "lat": 38.89015366666667, "is_disabled": 0}, {"fusion_lat": 0.0, "lon": -77.01197566666667, "is_reserved": 0, "bike_id": "c8ef9de3af7acb9e1d7b8f14ff1113cc", "fusion_lon": 0.0, "rental_uris": {"android": "https://dc.lft.to/lastmile_qr_scan", "ios": "https://dc.lft.to/lastmile_qr_scan"}, "name": "c8ef9de3af7acb9e1d7b8f14ff1113cc", "type": "electric_scooter", "lat": 38.893168833333334, "is_disabled": 0}, {"fusion_lat": 0.0, "lon": -76.97731583333334, "is_reserved": 0, "bike_id": "88993d85e43d2d50d05dc6429f6c0bce", "fusion_lon": 0.0, "rental_uris": {"android": "https://dc.lft.to/lastmile_qr_scan", "ios": "https://dc.lft.to/lastmile_qr_scan"}, "name": "88993d85e43d2d50d05dc6429f6c0bce", "type": "electric_scooter", "lat": 38.872913, "is_disabled": 0}, {"fusion_lat": 0.0, "lon": -76.9953065, "is_reserved": 0, "bike_id": "1934ad8dd6a8e4e53c2306800ba93220", "fusion_lon": 0.0, "rental_uris": {"android": "https://dc.lft.to/lastmile_qr_scan", "ios": "https://dc.lft.to/lastmile_qr_scan"}, "name": "1934ad8dd6a8e4e53c2306800ba93220", "type": "electric_scooter", "lat": 38.8621145, "is_disabled": 0}, {"fusion_lat": 0.0, "lon": -77.0386685, "is_reserved": 0, "bike_id": "eb993a9e578918280e038bbbcc5b17d6", "fusion_lon": 0.0, "rental_uris": {"android": "https://dc.lft.to/lastmile_qr_scan", "ios": "https://dc.lft.to/lastmile_qr_scan"}, "name": "eb993a9e578918280e038bbbcc5b17d6", "type": "electric_scooter", "lat": 38.912563, "is_disabled": 0}, {"fusion_lat": 0.0, "lon": -77.01135533333333, "is_reserved": 0, "bike_id": "05439c5e61c373b99430426ecf6a72ac", "fusion_lon": 0.0, "rental_uris": {"android": "https://dc.lft.to/lastmile_qr_scan", "ios": "https://dc.lft.to/lastmile_qr_scan"}, "name": "05439c5e61c373b99430426ecf6a72ac", "type": "electric_scooter", "lat": 38.9159, "is_disabled": 0}, {"fusion_lat": 0.0, "lon": -76.99165533333333, "is_reserved": 0, "bike_id": "5d354d072c2b33b9e6a2899dfcc3f38f", "fusion_lon": 0.0, "rental_uris": {"android": "https://dc.lft.to/lastmile_qr_scan", "ios": "https://dc.lft.to/lastmile_qr_scan"}, "name": "5d354d072c2b33b9e6a2899dfcc3f38f", "type": "electric_scooter", "lat": 38.88334733333333, "is_disabled": 0}, {"fusion_lat": 0.0, "lon": -77.0345145, "is_reserved": 0, "bike_id": "5d7758a28523230a071a50d549ab875d", "fusion_lon": 0.0, "rental_uris": {"android": "https://dc.lft.to/lastmile_qr_scan", "ios": "https://dc.lft.to/lastmile_qr_scan"}, "name": "5d7758a28523230a071a50d549ab875d", "type": "electric_scooter", "lat": 38.925459333333336, "is_disabled": 0}, {"fusion_lat": 0.0, "lon": -77.04040716666667, "is_reserved": 0, "bike_id": "9c2577b99d5eab9b3c3f3ba758ae909e", "fusion_lon": 0.0, "rental_uris": {"android": "https://dc.lft.to/lastmile_qr_scan", "ios": "https://dc.lft.to/lastmile_qr_scan"}, "name": "9c2577b99d5eab9b3c3f3ba758ae909e", "type": "electric_scooter", "lat": 38.911108, "is_disabled": 0}, {"fusion_lat": 0.0, "lon": -77.07791933333333, "is_reserved": 0, "bike_id": "45a47a2961be6469609839bf87611b07", "fusion_lon": 0.0, "rental_uris": {"android": "https://dc.lft.to/lastmile_qr_scan", "ios": "https://dc.lft.to/lastmile_qr_scan"}, "name": "45a47a2961be6469609839bf87611b07", "type": "electric_bike", "lat": 38.99604883333333, "is_disabled": 0}, {"fusion_lat": 0.0, "lon": -77.02933533333334, "is_reserved": 0, "bike_id": "eb4d65e76462eaf8afb42f23f0f0b2b1", "fusion_lon": 0.0, "rental_uris": {"android": "https://dc.lft.to/lastmile_qr_scan", "ios": "https://dc.lft.to/lastmile_qr_scan"}, "name": "eb4d65e76462eaf8afb42f23f0f0b2b1", "type": "electric_scooter", "lat": 38.899973, "is_disabled": 0}, {"fusion_lat": 0.0, "lon": -76.97010116666667, "is_reserved": 0, "bike_id": "77ed676e20e10cae075c53701b886932", "fusion_lon": 0.0, "rental_uris": {"android": "https://dc.lft.to/lastmile_qr_scan", "ios": "https://dc.lft.to/lastmile_qr_scan"}, "name": "77ed676e20e10cae075c53701b886932", "type": "electric_bike", "lat": 38.8636935, "is_disabled": 0}, {"fusion_lat": 0.0, "lon": -77.06065716666667, "is_reserved": 0, "bike_id": "c8d8bfe50a5ec33763efd1bbd86574f9", "fusion_lon": 0.0, "rental_uris": {"android": "https://dc.lft.to/lastmile_qr_scan", "ios": "https://dc.lft.to/lastmile_qr_scan"}, "name": "c8d8bfe50a5ec33763efd1bbd86574f9", "type": "electric_scooter", "lat": 38.939119833333336, "is_disabled": 0}, {"fusion_lat": 0.0, "lon": -77.0332325, "is_reserved": 0, "bike_id": "4b90e245d34686b46f9e2b6ce172c7bd", "fusion_lon": 0.0, "rental_uris": {"android": "https://dc.lft.to/lastmile_qr_scan", "ios": "https://dc.lft.to/lastmile_qr_scan"}, "name": "4b90e245d34686b46f9e2b6ce172c7bd", "type": "electric_scooter", "lat": 38.947182833333336, "is_disabled": 0}, {"fusion_lat": 0.0, "lon": -77.04011483333333, "is_reserved": 0, "bike_id": "2eaadd0fec87b59e59e74747d9036a89", "fusion_lon": 0.0, "rental_uris": {"android": "https://dc.lft.to/lastmile_qr_scan", "ios": "https://dc.lft.to/lastmile_qr_scan"}, "name": "2eaadd0fec87b59e59e74747d9036a89", "type": "electric_scooter", "lat": 38.924562, "is_disabled": 0}, {"fusion_lat": 0.0, "lon": -77.04362133333333, "is_reserved": 0, "bike_id": "d96e054a6794ed683c085b6c0c4a54f1", "fusion_lon": 0.0, "rental_uris": {"android": "https://dc.lft.to/lastmile_qr_scan", "ios": "https://dc.lft.to/lastmile_qr_scan"}, "name": "d96e054a6794ed683c085b6c0c4a54f1", "type": "electric_scooter", "lat": 38.9042365, "is_disabled": 0}, {"fusion_lat": 0.0, "lon": -76.99603966666666, "is_reserved": 0, "bike_id": "4abdbdd8629f56ac414c24545125f0f4", "fusion_lon": 0.0, "rental_uris": {"android": "https://dc.lft.to/lastmile_qr_scan", "ios": "https://dc.lft.to/lastmile_qr_scan"}, "name": "4abdbdd8629f56ac414c24545125f0f4", "type": "electric_scooter", "lat": 38.90013016666666, "is_disabled": 0}, {"fusion_lat": 0.0, "lon": -77.02968366666667, "is_reserved": 0, "bike_id": "da0c57851377fbae2f31f61b3c96b822", "fusion_lon": 0.0, "rental_uris": {"android": "https://dc.lft.to/lastmile_qr_scan", "ios": "https://dc.lft.to/lastmile_qr_scan"}, "name": "da0c57851377fbae2f31f61b3c96b822", "type": "electric_scooter", "lat": 38.91056783333333, "is_disabled": 0}, {"fusion_lat": 0.0, "lon": -76.99466416666667, "is_reserved": 0, "bike_id": "2c5c58844246ebd13e507813999c7ef6", "fusion_lon": 0.0, "rental_uris": {"android": "https://dc.lft.to/lastmile_qr_scan", "ios": "https://dc.lft.to/lastmile_qr_scan"}, "name": "2c5c58844246ebd13e507813999c7ef6", "type": "electric_scooter", "lat": 38.8622505, "is_disabled": 0}, {"fusion_lat": 0.0, "lon": -77.0072535, "is_reserved": 0, "bike_id": "ab1be3332df11b84d9cf33664938eccf", "fusion_lon": 0.0, "rental_uris": {"android": "https://dc.lft.to/lastmile_qr_scan", "ios": "https://dc.lft.to/lastmile_qr_scan"}, "name": "ab1be3332df11b84d9cf33664938eccf", "type": "electric_scooter", "lat": 38.878345833333334, "is_disabled": 0}, {"fusion_lat": 0.0, "lon": -77.01751416666667, "is_reserved": 0, "bike_id": "19e163402198dec84b805fe0d1279aa5", "fusion_lon": 0.0, "rental_uris": {"android": "https://dc.lft.to/lastmile_qr_scan", "ios": "https://dc.lft.to/lastmile_qr_scan"}, "name": "19e163402198dec84b805fe0d1279aa5", "type": "electric_scooter", "lat": 38.8727085, "is_disabled": 0}, {"fusion_lat": 0.0, "lon": -77.02467183333333, "is_reserved": 0, "bike_id": "6a5eed8aae3c02a37f8cad3dcb2371f6", "fusion_lon": 0.0, "rental_uris": {"android": "https://dc.lft.to/lastmile_qr_scan", "ios": "https://dc.lft.to/lastmile_qr_scan"}, "name": "6a5eed8aae3c02a37f8cad3dcb2371f6", "type": "electric_scooter", "lat": 38.93715916666667, "is_disabled": 0}, {"fusion_lat": 0.0, "lon": -77.03843233333333, "is_reserved": 0, "bike_id": "3e98a35675d5c9df4967153d90c736ec", "fusion_lon": 0.0, "rental_uris": {"android": "https://dc.lft.to/lastmile_qr_scan", "ios": "https://dc.lft.to/lastmile_qr_scan"}, "name": "3e98a35675d5c9df4967153d90c736ec", "type": "electric_scooter", "lat": 38.909909166666665, "is_disabled": 0}, {"fusion_lat": 0.0, "lon": -77.04209816666666, "is_reserved": 0, "bike_id": "57c3d38a1b5efc4d9b0e60df38a12a96", "fusion_lon": 0.0, "rental_uris": {"android": "https://dc.lft.to/lastmile_qr_scan", "ios": "https://dc.lft.to/lastmile_qr_scan"}, "name": "57c3d38a1b5efc4d9b0e60df38a12a96", "type": "electric_scooter", "lat": 38.919674666666666, "is_disabled": 0}, {"fusion_lat": 0.0, "lon": -77.01618266666667, "is_reserved": 0, "bike_id": "e0432b939e3d89805cff9e6885515ad0", "fusion_lon": 0.0, "rental_uris": {"android": "https://dc.lft.to/lastmile_qr_scan", "ios": "https://dc.lft.to/lastmile_qr_scan"}, "name": "e0432b939e3d89805cff9e6885515ad0", "type": "electric_scooter", "lat": 38.883286, "is_disabled": 0}, {"fusion_lat": 0.0, "lon": -76.99758666666666, "is_reserved": 0, "bike_id": "9faac1e6da18e65dca983e48c8c9c781", "fusion_lon": 0.0, "rental_uris": {"android": "https://dc.lft.to/lastmile_qr_scan", "ios": "https://dc.lft.to/lastmile_qr_scan"}, "name": "9faac1e6da18e65dca983e48c8c9c781", "type": "electric_scooter", "lat": 38.908411, "is_disabled": 0}, {"fusion_lat": 0.0, "lon": -77.0734305, "is_reserved": 0, "bike_id": "beaede08b128d2f42e01a836e772236b", "fusion_lon": 0.0, "rental_uris": {"android": "https://dc.lft.to/lastmile_qr_scan", "ios": "https://dc.lft.to/lastmile_qr_scan"}, "name": "beaede08b128d2f42e01a836e772236b", "type": "electric_scooter", "lat": 38.91102266666667, "is_disabled": 0}, {"fusion_lat": 0.0, "lon": -76.9814625, "is_reserved": 0, "bike_id": "ff7f771d5a3f37e18654376067ed0e5e", "fusion_lon": 0.0, "rental_uris": {"android": "https://dc.lft.to/lastmile_qr_scan", "ios": "https://dc.lft.to/lastmile_qr_scan"}, "name": "ff7f771d5a3f37e18654376067ed0e5e", "type": "electric_scooter", "lat": 38.90566, "is_disabled": 0}, {"fusion_lat": 0.0, "lon": -77.0613035, "is_reserved": 0, "bike_id": "ff7bd639c91886802a8fa307a7632010", "fusion_lon": 0.0, "rental_uris": {"android": "https://dc.lft.to/lastmile_qr_scan", "ios": "https://dc.lft.to/lastmile_qr_scan"}, "name": "ff7bd639c91886802a8fa307a7632010", "type": "electric_scooter", "lat": 38.94089816666666, "is_disabled": 0}, {"fusion_lat": 0.0, "lon": -77.0278135, "is_reserved": 0, "bike_id": "dee19e90f045e226ea063608e589f0e4", "fusion_lon": 0.0, "rental_uris": {"android": "https://dc.lft.to/lastmile_qr_scan", "ios": "https://dc.lft.to/lastmile_qr_scan"}, "name": "dee19e90f045e226ea063608e589f0e4", "type": "electric_scooter", "lat": 38.926843833333336, "is_disabled": 0}, {"fusion_lat": 0.0, "lon": -77.08073366666666, "is_reserved": 0, "bike_id": "3ec74cf1ce721d6e9693f392c660cb4a", "fusion_lon": 0.0, "rental_uris": {"android": "https://dc.lft.to/lastmile_qr_scan", "ios": "https://dc.lft.to/lastmile_qr_scan"}, "name": "3ec74cf1ce721d6e9693f392c660cb4a", "type": "electric_bike", "lat": 39.052794166666665, "is_disabled": 0}, {"fusion_lat": 0.0, "lon": -77.02337833333333, "is_reserved": 0, "bike_id": "32248a27ad97f1bb4e9a87a55b428b79", "fusion_lon": 0.0, "rental_uris": {"android": "https://dc.lft.to/lastmile_qr_scan", "ios": "https://dc.lft.to/lastmile_qr_scan"}, "name": "32248a27ad97f1bb4e9a87a55b428b79", "type": "electric_scooter", "lat": 38.9247965, "is_disabled": 0}, {"fusion_lat": 0.0, "lon": -77.040387, "is_reserved": 0, "bike_id": "15b3d2dd1e306aedcbbabd2df0beeeb9", "fusion_lon": 0.0, "rental_uris": {"android": "https://dc.lft.to/lastmile_qr_scan", "ios": "https://dc.lft.to/lastmile_qr_scan"}, "name": "15b3d2dd1e306aedcbbabd2df0beeeb9", "type": "electric_scooter", "lat": 38.91863016666667, "is_disabled": 0}, {"fusion_lat": 0.0, "lon": -77.04871683333333, "is_reserved": 0, "bike_id": "16089f00dcf78e2098ff4a69d6561533", "fusion_lon": 0.0, "rental_uris": {"android": "https://dc.lft.to/lastmile_qr_scan", "ios": "https://dc.lft.to/lastmile_qr_scan"}, "name": "16089f00dcf78e2098ff4a69d6561533", "type": "electric_scooter", "lat": 38.90977816666667, "is_disabled": 0}, {"fusion_lat": 0.0, "lon": -76.98749666666667, "is_reserved": 0, "bike_id": "17e128475eafed72d58d1ddfe50bf24c", "fusion_lon": 0.0, "rental_uris": {"android": "https://dc.lft.to/lastmile_qr_scan", "ios": "https://dc.lft.to/lastmile_qr_scan"}, "name": "17e128475eafed72d58d1ddfe50bf24c", "type": "electric_bike", "lat": 38.85767383333334, "is_disabled": 0}, {"fusion_lat": 0.0, "lon": -77.04213383333334, "is_reserved": 0, "bike_id": "7aef66d377a19651111f28b145cd67a1", "fusion_lon": 0.0, "rental_uris": {"android": "https://dc.lft.to/lastmile_qr_scan", "ios": "https://dc.lft.to/lastmile_qr_scan"}, "name": "7aef66d377a19651111f28b145cd67a1", "type": "electric_scooter", "lat": 38.906615, "is_disabled": 0}, {"fusion_lat": 0.0, "lon": -77.02797916666667, "is_reserved": 0, "bike_id": "0b7e30ddf5573c8f0978fc8859e16796", "fusion_lon": 0.0, "rental_uris": {"android": "https://dc.lft.to/lastmile_qr_scan", "ios": "https://dc.lft.to/lastmile_qr_scan"}, "name": "0b7e30ddf5573c8f0978fc8859e16796", "type": "electric_scooter", "lat": 38.895267, "is_disabled": 0}, {"fusion_lat": 0.0, "lon": -77.0343435, "is_reserved": 0, "bike_id": "6988fd2e5b92c73eb54c7d01c8524660", "fusion_lon": 0.0, "rental_uris": {"android": "https://dc.lft.to/lastmile_qr_scan", "ios": "https://dc.lft.to/lastmile_qr_scan"}, "name": "6988fd2e5b92c73eb54c7d01c8524660", "type": "electric_bike", "lat": 38.966211666666666, "is_disabled": 0}, {"fusion_lat": 0.0, "lon": -77.07353033333334, "is_reserved": 0, "bike_id": "a2c4072f6cbf88f93018d5151942a7e5", "fusion_lon": 0.0, "rental_uris": {"android": "https://dc.lft.to/lastmile_qr_scan", "ios": "https://dc.lft.to/lastmile_qr_scan"}, "name": "a2c4072f6cbf88f93018d5151942a7e5", "type": "electric_scooter", "lat": 38.933525833333334, "is_disabled": 0}, {"fusion_lat": 0.0, "lon": -77.029065, "is_reserved": 0, "bike_id": "c7efb23c83805c461db923d18680a8ca", "fusion_lon": 0.0, "rental_uris": {"android": "https://dc.lft.to/lastmile_qr_scan", "ios": "https://dc.lft.to/lastmile_qr_scan"}, "name": "c7efb23c83805c461db923d18680a8ca", "type": "electric_scooter", "lat": 39.03750216666667, "is_disabled": 0}, {"fusion_lat": 0.0, "lon": -77.04884283333334, "is_reserved": 0, "bike_id": "51bc7e300f0e8cf30fadb45ebb9bb345", "fusion_lon": 0.0, "rental_uris": {"android": "https://dc.lft.to/lastmile_qr_scan", "ios": "https://dc.lft.to/lastmile_qr_scan"}, "name": "51bc7e300f0e8cf30fadb45ebb9bb345", "type": "electric_scooter", "lat": 38.91567533333333, "is_disabled": 0}, {"fusion_lat": 0.0, "lon": -77.0067715, "is_reserved": 0, "bike_id": "49eefc7d6799eb56af04fd320e67b71d", "fusion_lon": 0.0, "rental_uris": {"android": "https://dc.lft.to/lastmile_qr_scan", "ios": "https://dc.lft.to/lastmile_qr_scan"}, "name": "49eefc7d6799eb56af04fd320e67b71d", "type": "electric_scooter", "lat": 38.900112666666665, "is_disabled": 0}, {"fusion_lat": 0.0, "lon": -76.97424666666667, "is_reserved": 0, "bike_id": "a7eb2a2500f5ba6800ecd727b10c6a24", "fusion_lon": 0.0, "rental_uris": {"android": "https://dc.lft.to/lastmile_qr_scan", "ios": "https://dc.lft.to/lastmile_qr_scan"}, "name": "a7eb2a2500f5ba6800ecd727b10c6a24", "type": "electric_scooter", "lat": 38.90451633333333, "is_disabled": 0}, {"fusion_lat": 0.0, "lon": -76.97479616666666, "is_reserved": 0, "bike_id": "a08e915a568f14b5a4a3f3e775e5abc2", "fusion_lon": 0.0, "rental_uris": {"android": "https://dc.lft.to/lastmile_qr_scan", "ios": "https://dc.lft.to/lastmile_qr_scan"}, "name": "a08e915a568f14b5a4a3f3e775e5abc2", "type": "electric_scooter", "lat": 38.90350433333333, "is_disabled": 0}, {"fusion_lat": 0.0, "lon": -77.02881933333333, "is_reserved": 0, "bike_id": "60f26653ebdc1c3c52db432368fe173e", "fusion_lon": 0.0, "rental_uris": {"android": "https://dc.lft.to/lastmile_qr_scan", "ios": "https://dc.lft.to/lastmile_qr_scan"}, "name": "60f26653ebdc1c3c52db432368fe173e", "type": "electric_scooter", "lat": 38.90324116666667, "is_disabled": 0}, {"fusion_lat": 0.0, "lon": -77.04672383333333, "is_reserved": 0, "bike_id": "973617a68410d2c9c60f3c06ad7fcc20", "fusion_lon": 0.0, "rental_uris": {"android": "https://dc.lft.to/lastmile_qr_scan", "ios": "https://dc.lft.to/lastmile_qr_scan"}, "name": "973617a68410d2c9c60f3c06ad7fcc20", "type": "electric_scooter", "lat": 38.913447833333336, "is_disabled": 0}, {"fusion_lat": 0.0, "lon": -77.019887, "is_reserved": 0, "bike_id": "85bb556be495154c18e4fd6e97a4ac06", "fusion_lon": 0.0, "rental_uris": {"android": "https://dc.lft.to/lastmile_qr_scan", "ios": "https://dc.lft.to/lastmile_qr_scan"}, "name": "85bb556be495154c18e4fd6e97a4ac06", "type": "electric_scooter", "lat": 38.914354833333334, "is_disabled": 0}, {"fusion_lat": 0.0, "lon": -77.0407125, "is_reserved": 0, "bike_id": "97df4b5d63d9102b3e363a4f7b6ef444", "fusion_lon": 0.0, "rental_uris": {"android": "https://dc.lft.to/lastmile_qr_scan", "ios": "https://dc.lft.to/lastmile_qr_scan"}, "name": "97df4b5d63d9102b3e363a4f7b6ef444", "type": "electric_scooter", "lat": 38.917109333333336, "is_disabled": 0}, {"fusion_lat": 0.0, "lon": -77.02741416666667, "is_reserved": 0, "bike_id": "ec5cb9d5c1dc281b7d6623a57a879c04", "fusion_lon": 0.0, "rental_uris": {"android": "https://dc.lft.to/lastmile_qr_scan", "ios": "https://dc.lft.to/lastmile_qr_scan"}, "name": "ec5cb9d5c1dc281b7d6623a57a879c04", "type": "electric_scooter", "lat": 38.92412016666667, "is_disabled": 0}, {"fusion_lat": 0.0, "lon": -77.034877, "is_reserved": 0, "bike_id": "1d631d7862fca3be45bc27b68011e23a", "fusion_lon": 0.0, "rental_uris": {"android": "https://dc.lft.to/lastmile_qr_scan", "ios": "https://dc.lft.to/lastmile_qr_scan"}, "name": "1d631d7862fca3be45bc27b68011e23a", "type": "electric_scooter", "lat": 38.93272783333333, "is_disabled": 0}, {"fusion_lat": 0.0, "lon": -77.02496433333333, "is_reserved": 0, "bike_id": "c71b6acecdaae7adf8d97d71c70507b4", "fusion_lon": 0.0, "rental_uris": {"android": "https://dc.lft.to/lastmile_qr_scan", "ios": "https://dc.lft.to/lastmile_qr_scan"}, "name": "c71b6acecdaae7adf8d97d71c70507b4", "type": "electric_scooter", "lat": 38.93867016666667, "is_disabled": 0}, {"fusion_lat": 0.0, "lon": -77.0305275, "is_reserved": 0, "bike_id": "482dd88140e428fe7e71603444f39f4e", "fusion_lon": 0.0, "rental_uris": {"android": "https://dc.lft.to/lastmile_qr_scan", "ios": "https://dc.lft.to/lastmile_qr_scan"}, "name": "482dd88140e428fe7e71603444f39f4e", "type": "electric_scooter", "lat": 38.92376816666667, "is_disabled": 0}, {"fusion_lat": 0.0, "lon": -77.02100066666667, "is_reserved": 0, "bike_id": "3b633571e52e5e53765c0d4da44d12da", "fusion_lon": 0.0, "rental_uris": {"android": "https://dc.lft.to/lastmile_qr_scan", "ios": "https://dc.lft.to/lastmile_qr_scan"}, "name": "3b633571e52e5e53765c0d4da44d12da", "type": "electric_scooter", "lat": 38.9143045, "is_disabled": 0}, {"fusion_lat": 0.0, "lon": -77.00742016666666, "is_reserved": 0, "bike_id": "c68117f8c5acf224d3eb6719c4945474", "fusion_lon": 0.0, "rental_uris": {"android": "https://dc.lft.to/lastmile_qr_scan", "ios": "https://dc.lft.to/lastmile_qr_scan"}, "name": "c68117f8c5acf224d3eb6719c4945474", "type": "electric_scooter", "lat": 38.90355183333333, "is_disabled": 0}, {"fusion_lat": 0.0, "lon": -77.019053, "is_reserved": 0, "bike_id": "0212420738ca3065320f224cb87d0a85", "fusion_lon": 0.0, "rental_uris": {"android": "https://dc.lft.to/lastmile_qr_scan", "ios": "https://dc.lft.to/lastmile_qr_scan"}, "name": "0212420738ca3065320f224cb87d0a85", "type": "electric_scooter", "lat": 38.941260666666665, "is_disabled": 0}, {"fusion_lat": 0.0, "lon": -77.02853, "is_reserved": 0, "bike_id": "6cc01c15b5e1ea5f92ed2bc6357c8010", "fusion_lon": 0.0, "rental_uris": {"android": "https://dc.lft.to/lastmile_qr_scan", "ios": "https://dc.lft.to/lastmile_qr_scan"}, "name": "6cc01c15b5e1ea5f92ed2bc6357c8010", "type": "electric_scooter", "lat": 38.91168666666667, "is_disabled": 0}, {"fusion_lat": 0.0, "lon": -77.01012333333334, "is_reserved": 0, "bike_id": "d09e2ad269f90dae61eb962884dbf2f7", "fusion_lon": 0.0, "rental_uris": {"android": "https://dc.lft.to/lastmile_qr_scan", "ios": "https://dc.lft.to/lastmile_qr_scan"}, "name": "d09e2ad269f90dae61eb962884dbf2f7", "type": "electric_bike", "lat": 38.87967783333333, "is_disabled": 0}, {"fusion_lat": 0.0, "lon": -77.05430983333333, "is_reserved": 0, "bike_id": "c6c6c92b686aa250bf4ca4df14d9ae33", "fusion_lon": 0.0, "rental_uris": {"android": "https://dc.lft.to/lastmile_qr_scan", "ios": "https://dc.lft.to/lastmile_qr_scan"}, "name": "c6c6c92b686aa250bf4ca4df14d9ae33", "type": "electric_scooter", "lat": 38.9234525, "is_disabled": 0}, {"fusion_lat": 0.0, "lon": -77.04244916666667, "is_reserved": 0, "bike_id": "b10ee3623480319b9e145586d1875b88", "fusion_lon": 0.0, "rental_uris": {"android": "https://dc.lft.to/lastmile_qr_scan", "ios": "https://dc.lft.to/lastmile_qr_scan"}, "name": "b10ee3623480319b9e145586d1875b88", "type": "electric_scooter", "lat": 38.9064675, "is_disabled": 0}, {"fusion_lat": 0.0, "lon": -77.04016866666667, "is_reserved": 0, "bike_id": "df9eb0ca3d65e8dd1670f19c89157f7b", "fusion_lon": 0.0, "rental_uris": {"android": "https://dc.lft.to/lastmile_qr_scan", "ios": "https://dc.lft.to/lastmile_qr_scan"}, "name": "df9eb0ca3d65e8dd1670f19c89157f7b", "type": "electric_scooter", "lat": 38.918411166666665, "is_disabled": 0}, {"fusion_lat": 0.0, "lon": -77.0120855, "is_reserved": 0, "bike_id": "db55ef2ab834775a31e38a5dba92f744", "fusion_lon": 0.0, "rental_uris": {"android": "https://dc.lft.to/lastmile_qr_scan", "ios": "https://dc.lft.to/lastmile_qr_scan"}, "name": "db55ef2ab834775a31e38a5dba92f744", "type": "electric_scooter", "lat": 38.91837533333333, "is_disabled": 0}, {"fusion_lat": 0.0, "lon": -77.04548283333334, "is_reserved": 0, "bike_id": "a4296b10c00b109a4fcaffb575cacc70", "fusion_lon": 0.0, "rental_uris": {"android": "https://dc.lft.to/lastmile_qr_scan", "ios": "https://dc.lft.to/lastmile_qr_scan"}, "name": "a4296b10c00b109a4fcaffb575cacc70", "type": "electric_scooter", "lat": 38.93413283333334, "is_disabled": 0}, {"fusion_lat": 0.0, "lon": -77.02953816666667, "is_reserved": 0, "bike_id": "4ca3ab7713d08a3bf0943594ddbf7229", "fusion_lon": 0.0, "rental_uris": {"android": "https://dc.lft.to/lastmile_qr_scan", "ios": "https://dc.lft.to/lastmile_qr_scan"}, "name": "4ca3ab7713d08a3bf0943594ddbf7229", "type": "electric_scooter", "lat": 38.928584666666666, "is_disabled": 0}, {"fusion_lat": 0.0, "lon": -77.0393465, "is_reserved": 0, "bike_id": "8fd65f9ba994d0b0ee49835d42ffc627", "fusion_lon": 0.0, "rental_uris": {"android": "https://dc.lft.to/lastmile_qr_scan", "ios": "https://dc.lft.to/lastmile_qr_scan"}, "name": "8fd65f9ba994d0b0ee49835d42ffc627", "type": "electric_scooter", "lat": 38.91756183333333, "is_disabled": 0}, {"fusion_lat": 0.0, "lon": -77.03774966666667, "is_reserved": 0, "bike_id": "abe860471759fb5dfe3140fadcc90935", "fusion_lon": 0.0, "rental_uris": {"android": "https://dc.lft.to/lastmile_qr_scan", "ios": "https://dc.lft.to/lastmile_qr_scan"}, "name": "abe860471759fb5dfe3140fadcc90935", "type": "electric_scooter", "lat": 38.9220835, "is_disabled": 0}, {"fusion_lat": 0.0, "lon": -77.02661716666667, "is_reserved": 0, "bike_id": "66f641b1f06c2e2b58f10574917fae18", "fusion_lon": 0.0, "rental_uris": {"android": "https://dc.lft.to/lastmile_qr_scan", "ios": "https://dc.lft.to/lastmile_qr_scan"}, "name": "66f641b1f06c2e2b58f10574917fae18", "type": "electric_scooter", "lat": 38.931019166666665, "is_disabled": 0}, {"fusion_lat": 0.0, "lon": -77.004031, "is_reserved": 0, "bike_id": "38f01d0cc6b4ce52d81b99656de346cf", "fusion_lon": 0.0, "rental_uris": {"android": "https://dc.lft.to/lastmile_qr_scan", "ios": "https://dc.lft.to/lastmile_qr_scan"}, "name": "38f01d0cc6b4ce52d81b99656de346cf", "type": "electric_bike", "lat": 38.9855305, "is_disabled": 0}, {"fusion_lat": 0.0, "lon": -76.962491, "is_reserved": 0, "bike_id": "e004f16e8369567ce3f6a612cdaa3b72", "fusion_lon": 0.0, "rental_uris": {"android": "https://dc.lft.to/lastmile_qr_scan", "ios": "https://dc.lft.to/lastmile_qr_scan"}, "name": "e004f16e8369567ce3f6a612cdaa3b72", "type": "electric_scooter", "lat": 38.8776635, "is_disabled": 0}, {"fusion_lat": 0.0, "lon": -76.997538, "is_reserved": 0, "bike_id": "41a450a23a6d71b50a7e5fd50cc77570", "fusion_lon": 0.0, "rental_uris": {"android": "https://dc.lft.to/lastmile_qr_scan", "ios": "https://dc.lft.to/lastmile_qr_scan"}, "name": "41a450a23a6d71b50a7e5fd50cc77570", "type": "electric_scooter", "lat": 38.90021866666667, "is_disabled": 0}, {"fusion_lat": 0.0, "lon": -77.07391116666666, "is_reserved": 0, "bike_id": "4ae0bf00f7dd141f75cb232a14b60b85", "fusion_lon": 0.0, "rental_uris": {"android": "https://dc.lft.to/lastmile_qr_scan", "ios": "https://dc.lft.to/lastmile_qr_scan"}, "name": "4ae0bf00f7dd141f75cb232a14b60b85", "type": "electric_bike", "lat": 38.96187466666667, "is_disabled": 0}, {"fusion_lat": 0.0, "lon": -77.03872783333334, "is_reserved": 0, "bike_id": "bfc9d4b7c2443e10fcc03bb2d38ec3c7", "fusion_lon": 0.0, "rental_uris": {"android": "https://dc.lft.to/lastmile_qr_scan", "ios": "https://dc.lft.to/lastmile_qr_scan"}, "name": "bfc9d4b7c2443e10fcc03bb2d38ec3c7", "type": "electric_scooter", "lat": 38.9215335, "is_disabled": 0}, {"fusion_lat": 0.0, "lon": -76.99066483333333, "is_reserved": 0, "bike_id": "c04fd5dd01862056aa8b84350b4873c0", "fusion_lon": 0.0, "rental_uris": {"android": "https://dc.lft.to/lastmile_qr_scan", "ios": "https://dc.lft.to/lastmile_qr_scan"}, "name": "c04fd5dd01862056aa8b84350b4873c0", "type": "electric_bike", "lat": 38.8981045, "is_disabled": 0}, {"fusion_lat": 0.0, "lon": -77.04373083333333, "is_reserved": 0, "bike_id": "78ecece28daec627fabd228dd8c3292a", "fusion_lon": 0.0, "rental_uris": {"android": "https://dc.lft.to/lastmile_qr_scan", "ios": "https://dc.lft.to/lastmile_qr_scan"}, "name": "78ecece28daec627fabd228dd8c3292a", "type": "electric_scooter", "lat": 38.892201666666665, "is_disabled": 0}, {"fusion_lat": 0.0, "lon": -77.02995383333334, "is_reserved": 0, "bike_id": "e64b9be5a7c7b2a7f3bb9e30b78508e1", "fusion_lon": 0.0, "rental_uris": {"android": "https://dc.lft.to/lastmile_qr_scan", "ios": "https://dc.lft.to/lastmile_qr_scan"}, "name": "e64b9be5a7c7b2a7f3bb9e30b78508e1", "type": "electric_scooter", "lat": 38.90720816666666, "is_disabled": 0}, {"fusion_lat": 0.0, "lon": -77.04234066666666, "is_reserved": 0, "bike_id": "0222a22cc2f62e15d11460a555683f73", "fusion_lon": 0.0, "rental_uris": {"android": "https://dc.lft.to/lastmile_qr_scan", "ios": "https://dc.lft.to/lastmile_qr_scan"}, "name": "0222a22cc2f62e15d11460a555683f73", "type": "electric_scooter", "lat": 38.9140905, "is_disabled": 0}, {"fusion_lat": 0.0, "lon": -77.03405933333333, "is_reserved": 0, "bike_id": "710655a0bdd7aeada4e0159fa3dde25c", "fusion_lon": 0.0, "rental_uris": {"android": "https://dc.lft.to/lastmile_qr_scan", "ios": "https://dc.lft.to/lastmile_qr_scan"}, "name": "710655a0bdd7aeada4e0159fa3dde25c", "type": "electric_scooter", "lat": 38.922526833333336, "is_disabled": 0}, {"fusion_lat": 0.0, "lon": -77.0298375, "is_reserved": 0, "bike_id": "0d77adc6716382da554809e33ba96d59", "fusion_lon": 0.0, "rental_uris": {"android": "https://dc.lft.to/lastmile_qr_scan", "ios": "https://dc.lft.to/lastmile_qr_scan"}, "name": "0d77adc6716382da554809e33ba96d59", "type": "electric_scooter", "lat": 38.9073305, "is_disabled": 0}, {"fusion_lat": 0.0, "lon": -77.02284016666667, "is_reserved": 0, "bike_id": "2331e751ed1c77c36eedc410a232c9c3", "fusion_lon": 0.0, "rental_uris": {"android": "https://dc.lft.to/lastmile_qr_scan", "ios": "https://dc.lft.to/lastmile_qr_scan"}, "name": "2331e751ed1c77c36eedc410a232c9c3", "type": "electric_scooter", "lat": 38.9163935, "is_disabled": 0}, {"fusion_lat": 0.0, "lon": -77.02984316666667, "is_reserved": 0, "bike_id": "20af1948f383ec6c522f80cdd5c135eb", "fusion_lon": 0.0, "rental_uris": {"android": "https://dc.lft.to/lastmile_qr_scan", "ios": "https://dc.lft.to/lastmile_qr_scan"}, "name": "20af1948f383ec6c522f80cdd5c135eb", "type": "electric_scooter", "lat": 38.90730283333333, "is_disabled": 0}, {"fusion_lat": 0.0, "lon": -77.03753233333333, "is_reserved": 0, "bike_id": "5d3977973fbf39e3a336dc6ddef69746", "fusion_lon": 0.0, "rental_uris": {"android": "https://dc.lft.to/lastmile_qr_scan", "ios": "https://dc.lft.to/lastmile_qr_scan"}, "name": "5d3977973fbf39e3a336dc6ddef69746", "type": "electric_scooter", "lat": 38.9169985, "is_disabled": 0}, {"fusion_lat": 0.0, "lon": -77.03697583333333, "is_reserved": 0, "bike_id": "d2fdf4cddfc046a0b93ed0964398276a", "fusion_lon": 0.0, "rental_uris": {"android": "https://dc.lft.to/lastmile_qr_scan", "ios": "https://dc.lft.to/lastmile_qr_scan"}, "name": "d2fdf4cddfc046a0b93ed0964398276a", "type": "electric_scooter", "lat": 38.926126833333335, "is_disabled": 0}, {"fusion_lat": 0.0, "lon": -77.10713966666667, "is_reserved": 0, "bike_id": "a9cffee153cccdc915ddb70ca9e26089", "fusion_lon": 0.0, "rental_uris": {"android": "https://dc.lft.to/lastmile_qr_scan", "ios": "https://dc.lft.to/lastmile_qr_scan"}, "name": "a9cffee153cccdc915ddb70ca9e26089", "type": "electric_bike", "lat": 38.855373666666665, "is_disabled": 0}, {"fusion_lat": 0.0, "lon": -77.0077025, "is_reserved": 0, "bike_id": "28f587c87986a1ee09f52f0a51e6ad5e", "fusion_lon": 0.0, "rental_uris": {"android": "https://dc.lft.to/lastmile_qr_scan", "ios": "https://dc.lft.to/lastmile_qr_scan"}, "name": "28f587c87986a1ee09f52f0a51e6ad5e", "type": "electric_scooter", "lat": 38.926752666666665, "is_disabled": 0}, {"fusion_lat": 0.0, "lon": -77.02799166666667, "is_reserved": 0, "bike_id": "460bfb7c12f4d90f8f9107c8e6af661d", "fusion_lon": 0.0, "rental_uris": {"android": "https://dc.lft.to/lastmile_qr_scan", "ios": "https://dc.lft.to/lastmile_qr_scan"}, "name": "460bfb7c12f4d90f8f9107c8e6af661d", "type": "electric_scooter", "lat": 38.9330035, "is_disabled": 0}, {"fusion_lat": 0.0, "lon": -77.00713733333333, "is_reserved": 0, "bike_id": "99b6fb49e3789f75e598869da6f5a309", "fusion_lon": 0.0, "rental_uris": {"android": "https://dc.lft.to/lastmile_qr_scan", "ios": "https://dc.lft.to/lastmile_qr_scan"}, "name": "99b6fb49e3789f75e598869da6f5a309", "type": "electric_scooter", "lat": 38.91702566666667, "is_disabled": 0}, {"fusion_lat": 0.0, "lon": -77.02320266666666, "is_reserved": 0, "bike_id": "16d13670931174914e56087a043de79b", "fusion_lon": 0.0, "rental_uris": {"android": "https://dc.lft.to/lastmile_qr_scan", "ios": "https://dc.lft.to/lastmile_qr_scan"}, "name": "16d13670931174914e56087a043de79b", "type": "electric_scooter", "lat": 38.940889, "is_disabled": 0}, {"fusion_lat": 0.0, "lon": -77.08456466666667, "is_reserved": 0, "bike_id": "e88b976fe96a7214139d34a8b11bc85d", "fusion_lon": 0.0, "rental_uris": {"android": "https://dc.lft.to/lastmile_qr_scan", "ios": "https://dc.lft.to/lastmile_qr_scan"}, "name": "e88b976fe96a7214139d34a8b11bc85d", "type": "electric_bike", "lat": 38.84817966666667, "is_disabled": 0}, {"fusion_lat": 0.0, "lon": -77.02719616666667, "is_reserved": 0, "bike_id": "f62ac1a60169cd3070a625c8882a5eb4", "fusion_lon": 0.0, "rental_uris": {"android": "https://dc.lft.to/lastmile_qr_scan", "ios": "https://dc.lft.to/lastmile_qr_scan"}, "name": "f62ac1a60169cd3070a625c8882a5eb4", "type": "electric_scooter", "lat": 38.9369675, "is_disabled": 0}, {"fusion_lat": 0.0, "lon": -77.01335, "is_reserved": 0, "bike_id": "2cc015c7c59052aefc090dc8ad89a7db", "fusion_lon": 0.0, "rental_uris": {"android": "https://dc.lft.to/lastmile_qr_scan", "ios": "https://dc.lft.to/lastmile_qr_scan"}, "name": "2cc015c7c59052aefc090dc8ad89a7db", "type": "electric_scooter", "lat": 38.8792935, "is_disabled": 0}, {"fusion_lat": 0.0, "lon": -77.02959766666666, "is_reserved": 0, "bike_id": "912ca1625588992327ac70d1668f0b9e", "fusion_lon": 0.0, "rental_uris": {"android": "https://dc.lft.to/lastmile_qr_scan", "ios": "https://dc.lft.to/lastmile_qr_scan"}, "name": "912ca1625588992327ac70d1668f0b9e", "type": "electric_scooter", "lat": 38.93996283333333, "is_disabled": 0}, {"fusion_lat": 0.0, "lon": -77.038476, "is_reserved": 0, "bike_id": "e2aa59ee4593f9e1cf52d3a8f6cb410c", "fusion_lon": 0.0, "rental_uris": {"android": "https://dc.lft.to/lastmile_qr_scan", "ios": "https://dc.lft.to/lastmile_qr_scan"}, "name": "e2aa59ee4593f9e1cf52d3a8f6cb410c", "type": "electric_scooter", "lat": 38.92529616666667, "is_disabled": 0}, {"fusion_lat": 0.0, "lon": -77.04504783333333, "is_reserved": 0, "bike_id": "25f60b546232c78d67acf22af7f9a101", "fusion_lon": 0.0, "rental_uris": {"android": "https://dc.lft.to/lastmile_qr_scan", "ios": "https://dc.lft.to/lastmile_qr_scan"}, "name": "25f60b546232c78d67acf22af7f9a101", "type": "electric_scooter", "lat": 38.911071666666665, "is_disabled": 0}, {"fusion_lat": 0.0, "lon": -77.00382316666666, "is_reserved": 0, "bike_id": "559a3d40387957eba15c1688ebd0b02c", "fusion_lon": 0.0, "rental_uris": {"android": "https://dc.lft.to/lastmile_qr_scan", "ios": "https://dc.lft.to/lastmile_qr_scan"}, "name": "559a3d40387957eba15c1688ebd0b02c", "type": "electric_scooter", "lat": 38.87639933333333, "is_disabled": 0}, {"fusion_lat": 0.0, "lon": -77.0034435, "is_reserved": 0, "bike_id": "ec61b49f3d1c39a38466eb9851ca4ff2", "fusion_lon": 0.0, "rental_uris": {"android": "https://dc.lft.to/lastmile_qr_scan", "ios": "https://dc.lft.to/lastmile_qr_scan"}, "name": "ec61b49f3d1c39a38466eb9851ca4ff2", "type": "electric_scooter", "lat": 38.903628499999996, "is_disabled": 0}, {"fusion_lat": 0.0, "lon": -77.04497183333334, "is_reserved": 0, "bike_id": "45d907e4d5d514a8c36894c7199149d5", "fusion_lon": 0.0, "rental_uris": {"android": "https://dc.lft.to/lastmile_qr_scan", "ios": "https://dc.lft.to/lastmile_qr_scan"}, "name": "45d907e4d5d514a8c36894c7199149d5", "type": "electric_scooter", "lat": 38.905198166666665, "is_disabled": 0}, {"fusion_lat": 0.0, "lon": -77.07879883333334, "is_reserved": 0, "bike_id": "d6cc2acd748f35110eaceca3d9235ba4", "fusion_lon": 0.0, "rental_uris": {"android": "https://dc.lft.to/lastmile_qr_scan", "ios": "https://dc.lft.to/lastmile_qr_scan"}, "name": "d6cc2acd748f35110eaceca3d9235ba4", "type": "electric_bike", "lat": 38.9502725, "is_disabled": 0}, {"fusion_lat": 0.0, "lon": -76.94196216666667, "is_reserved": 0, "bike_id": "7913255de5d87d1fd96e2982130a1f08", "fusion_lon": 0.0, "rental_uris": {"android": "https://dc.lft.to/lastmile_qr_scan", "ios": "https://dc.lft.to/lastmile_qr_scan"}, "name": "7913255de5d87d1fd96e2982130a1f08", "type": "electric_scooter", "lat": 38.89377483333333, "is_disabled": 0}, {"fusion_lat": 0.0, "lon": -76.99758866666667, "is_reserved": 0, "bike_id": "62056434a9afd927fd35ced50e411204", "fusion_lon": 0.0, "rental_uris": {"android": "https://dc.lft.to/lastmile_qr_scan", "ios": "https://dc.lft.to/lastmile_qr_scan"}, "name": "62056434a9afd927fd35ced50e411204", "type": "electric_scooter", "lat": 38.88770366666667, "is_disabled": 0}, {"fusion_lat": 0.0, "lon": -77.03749133333334, "is_reserved": 0, "bike_id": "abdb7a3edc83ce94449a5744acb51ec8", "fusion_lon": 0.0, "rental_uris": {"android": "https://dc.lft.to/lastmile_qr_scan", "ios": "https://dc.lft.to/lastmile_qr_scan"}, "name": "abdb7a3edc83ce94449a5744acb51ec8", "type": "electric_scooter", "lat": 38.9111965, "is_disabled": 0}, {"fusion_lat": 0.0, "lon": -77.03152183333333, "is_reserved": 0, "bike_id": "b722e1569d5ae94cf6b3d06fe59facc1", "fusion_lon": 0.0, "rental_uris": {"android": "https://dc.lft.to/lastmile_qr_scan", "ios": "https://dc.lft.to/lastmile_qr_scan"}, "name": "b722e1569d5ae94cf6b3d06fe59facc1", "type": "electric_scooter", "lat": 38.927915, "is_disabled": 0}, {"fusion_lat": 0.0, "lon": -77.04359533333333, "is_reserved": 0, "bike_id": "41caad7f03981adf7e166dcda5d43f81", "fusion_lon": 0.0, "rental_uris": {"android": "https://dc.lft.to/lastmile_qr_scan", "ios": "https://dc.lft.to/lastmile_qr_scan"}, "name": "41caad7f03981adf7e166dcda5d43f81", "type": "electric_scooter", "lat": 38.89230833333333, "is_disabled": 0}, {"fusion_lat": 0.0, "lon": -76.9468435, "is_reserved": 0, "bike_id": "f72a5be9748547dd3efee6994df47114", "fusion_lon": 0.0, "rental_uris": {"android": "https://dc.lft.to/lastmile_qr_scan", "ios": "https://dc.lft.to/lastmile_qr_scan"}, "name": "f72a5be9748547dd3efee6994df47114", "type": "electric_scooter", "lat": 38.88631066666667, "is_disabled": 0}, {"fusion_lat": 0.0, "lon": -76.9892185, "is_reserved": 0, "bike_id": "1e77bebe5836e1aa69d7505ef0f3b3b0", "fusion_lon": 0.0, "rental_uris": {"android": "https://dc.lft.to/lastmile_qr_scan", "ios": "https://dc.lft.to/lastmile_qr_scan"}, "name": "1e77bebe5836e1aa69d7505ef0f3b3b0", "type": "electric_scooter", "lat": 38.858145666666665, "is_disabled": 0}, {"fusion_lat": 0.0, "lon": -76.90706816666666, "is_reserved": 0, "bike_id": "f2abfb90c5c9ac7ec5c27bcb35c61a96", "fusion_lon": 0.0, "rental_uris": {"android": "https://dc.lft.to/lastmile_qr_scan", "ios": "https://dc.lft.to/lastmile_qr_scan"}, "name": "f2abfb90c5c9ac7ec5c27bcb35c61a96", "type": "electric_bike", "lat": 38.89601483333333, "is_disabled": 0}, {"fusion_lat": 0.0, "lon": -77.01387083333333, "is_reserved": 0, "bike_id": "f597c450c7be3252105cca3206c91cc1", "fusion_lon": 0.0, "rental_uris": {"android": "https://dc.lft.to/lastmile_qr_scan", "ios": "https://dc.lft.to/lastmile_qr_scan"}, "name": "f597c450c7be3252105cca3206c91cc1", "type": "electric_scooter", "lat": 38.875850166666666, "is_disabled": 0}, {"fusion_lat": 0.0, "lon": -76.98085533333334, "is_reserved": 0, "bike_id": "10d3b0e851eac54538fb34f55b884438", "fusion_lon": 0.0, "rental_uris": {"android": "https://dc.lft.to/lastmile_qr_scan", "ios": "https://dc.lft.to/lastmile_qr_scan"}, "name": "10d3b0e851eac54538fb34f55b884438", "type": "electric_bike", "lat": 38.9535805, "is_disabled": 0}, {"fusion_lat": 0.0, "lon": -77.00337866666666, "is_reserved": 0, "bike_id": "82eb09d6d07394b981e50882e13a4436", "fusion_lon": 0.0, "rental_uris": {"android": "https://dc.lft.to/lastmile_qr_scan", "ios": "https://dc.lft.to/lastmile_qr_scan"}, "name": "82eb09d6d07394b981e50882e13a4436", "type": "electric_scooter", "lat": 38.9161305, "is_disabled": 0}, {"fusion_lat": 0.0, "lon": -77.002283, "is_reserved": 0, "bike_id": "b7291d26a96ec305bb72f47c655f130a", "fusion_lon": 0.0, "rental_uris": {"android": "https://dc.lft.to/lastmile_qr_scan", "ios": "https://dc.lft.to/lastmile_qr_scan"}, "name": "b7291d26a96ec305bb72f47c655f130a", "type": "electric_scooter", "lat": 38.90031116666667, "is_disabled": 0}, {"fusion_lat": 0.0, "lon": -77.021852, "is_reserved": 0, "bike_id": "f2cdf4266eed125bbf3109a025a824c9", "fusion_lon": 0.0, "rental_uris": {"android": "https://dc.lft.to/lastmile_qr_scan", "ios": "https://dc.lft.to/lastmile_qr_scan"}, "name": "f2cdf4266eed125bbf3109a025a824c9", "type": "electric_scooter", "lat": 38.90952716666666, "is_disabled": 0}, {"fusion_lat": 0.0, "lon": -77.0365805, "is_reserved": 0, "bike_id": "21b1717605078ed8aaf96dfb100f6431", "fusion_lon": 0.0, "rental_uris": {"android": "https://dc.lft.to/lastmile_qr_scan", "ios": "https://dc.lft.to/lastmile_qr_scan"}, "name": "21b1717605078ed8aaf96dfb100f6431", "type": "electric_scooter", "lat": 38.9315935, "is_disabled": 0}, {"fusion_lat": 0.0, "lon": -77.02212, "is_reserved": 0, "bike_id": "34ea812d3824ad8fd7f7f87be880727a", "fusion_lon": 0.0, "rental_uris": {"android": "https://dc.lft.to/lastmile_qr_scan", "ios": "https://dc.lft.to/lastmile_qr_scan"}, "name": "34ea812d3824ad8fd7f7f87be880727a", "type": "electric_scooter", "lat": 38.920431666666666, "is_disabled": 0}, {"fusion_lat": 0.0, "lon": -77.02245266666667, "is_reserved": 0, "bike_id": "6cefc20a07b09ed0145e1f3ade866f67", "fusion_lon": 0.0, "rental_uris": {"android": "https://dc.lft.to/lastmile_qr_scan", "ios": "https://dc.lft.to/lastmile_qr_scan"}, "name": "6cefc20a07b09ed0145e1f3ade866f67", "type": "electric_scooter", "lat": 38.9261375, "is_disabled": 0}, {"fusion_lat": 0.0, "lon": -77.01987666666666, "is_reserved": 0, "bike_id": "f9f9a76e7936aa86fc50f957054c8227", "fusion_lon": 0.0, "rental_uris": {"android": "https://dc.lft.to/lastmile_qr_scan", "ios": "https://dc.lft.to/lastmile_qr_scan"}, "name": "f9f9a76e7936aa86fc50f957054c8227", "type": "electric_bike", "lat": 38.922708666666665, "is_disabled": 0}, {"fusion_lat": 0.0, "lon": -77.044058, "is_reserved": 0, "bike_id": "a131e0c2e39d6bdbf7c2f88eace19b5f", "fusion_lon": 0.0, "rental_uris": {"android": "https://dc.lft.to/lastmile_qr_scan", "ios": "https://dc.lft.to/lastmile_qr_scan"}, "name": "a131e0c2e39d6bdbf7c2f88eace19b5f", "type": "electric_scooter", "lat": 38.9245055, "is_disabled": 0}, {"fusion_lat": 0.0, "lon": -77.03835133333334, "is_reserved": 0, "bike_id": "f9c8e2d559d85633c908e2ae79e5e44f", "fusion_lon": 0.0, "rental_uris": {"android": "https://dc.lft.to/lastmile_qr_scan", "ios": "https://dc.lft.to/lastmile_qr_scan"}, "name": "f9c8e2d559d85633c908e2ae79e5e44f", "type": "electric_scooter", "lat": 38.903758, "is_disabled": 0}, {"fusion_lat": 0.0, "lon": -76.990319, "is_reserved": 0, "bike_id": "b6397fcf411805992db6af2b93956474", "fusion_lon": 0.0, "rental_uris": {"android": "https://dc.lft.to/lastmile_qr_scan", "ios": "https://dc.lft.to/lastmile_qr_scan"}, "name": "b6397fcf411805992db6af2b93956474", "type": "electric_scooter", "lat": 38.89856233333333, "is_disabled": 0}, {"fusion_lat": 0.0, "lon": -77.06976933333333, "is_reserved": 0, "bike_id": "4cb9e1a389bd6231455cc51fa73b3ae5", "fusion_lon": 0.0, "rental_uris": {"android": "https://dc.lft.to/lastmile_qr_scan", "ios": "https://dc.lft.to/lastmile_qr_scan"}, "name": "4cb9e1a389bd6231455cc51fa73b3ae5", "type": "electric_scooter", "lat": 38.9525525, "is_disabled": 0}, {"fusion_lat": 0.0, "lon": -77.03641183333333, "is_reserved": 0, "bike_id": "7eb84a407f059a0e84a4a07582ea8eae", "fusion_lon": 0.0, "rental_uris": {"android": "https://dc.lft.to/lastmile_qr_scan", "ios": "https://dc.lft.to/lastmile_qr_scan"}, "name": "7eb84a407f059a0e84a4a07582ea8eae", "type": "electric_scooter", "lat": 38.92265833333333, "is_disabled": 0}, {"fusion_lat": 0.0, "lon": -76.98790416666667, "is_reserved": 0, "bike_id": "0947d191eaffd76d86003ad3be542a39", "fusion_lon": 0.0, "rental_uris": {"android": "https://dc.lft.to/lastmile_qr_scan", "ios": "https://dc.lft.to/lastmile_qr_scan"}, "name": "0947d191eaffd76d86003ad3be542a39", "type": "electric_bike", "lat": 38.90612516666667, "is_disabled": 0}, {"fusion_lat": 0.0, "lon": -77.02166166666666, "is_reserved": 0, "bike_id": "064bf27928be4e286add6b8c687bd0d9", "fusion_lon": 0.0, "rental_uris": {"android": "https://dc.lft.to/lastmile_qr_scan", "ios": "https://dc.lft.to/lastmile_qr_scan"}, "name": "064bf27928be4e286add6b8c687bd0d9", "type": "electric_scooter", "lat": 38.9161505, "is_disabled": 0}, {"fusion_lat": 0.0, "lon": -76.94965816666667, "is_reserved": 0, "bike_id": "ff8a6a2091c89463e5245a8a143dc5ad", "fusion_lon": 0.0, "rental_uris": {"android": "https://dc.lft.to/lastmile_qr_scan", "ios": "https://dc.lft.to/lastmile_qr_scan"}, "name": "ff8a6a2091c89463e5245a8a143dc5ad", "type": "electric_scooter", "lat": 38.905001166666665, "is_disabled": 0}, {"fusion_lat": 0.0, "lon": -77.031321, "is_reserved": 0, "bike_id": "89784e5055a4300d348bdcb11ef02b0a", "fusion_lon": 0.0, "rental_uris": {"android": "https://dc.lft.to/lastmile_qr_scan", "ios": "https://dc.lft.to/lastmile_qr_scan"}, "name": "89784e5055a4300d348bdcb11ef02b0a", "type": "electric_scooter", "lat": 38.91494383333333, "is_disabled": 0}, {"fusion_lat": 0.0, "lon": -77.00190933333333, "is_reserved": 0, "bike_id": "fd99c9eb70e2e58ed550f20ebf2a24f1", "fusion_lon": 0.0, "rental_uris": {"android": "https://dc.lft.to/lastmile_qr_scan", "ios": "https://dc.lft.to/lastmile_qr_scan"}, "name": "fd99c9eb70e2e58ed550f20ebf2a24f1", "type": "electric_scooter", "lat": 38.90381266666667, "is_disabled": 0}, {"fusion_lat": 0.0, "lon": -76.95758416666666, "is_reserved": 0, "bike_id": "c0b7afe87a83b35d1b8be25f24689881", "fusion_lon": 0.0, "rental_uris": {"android": "https://dc.lft.to/lastmile_qr_scan", "ios": "https://dc.lft.to/lastmile_qr_scan"}, "name": "c0b7afe87a83b35d1b8be25f24689881", "type": "electric_scooter", "lat": 38.88430816666666, "is_disabled": 0}, {"fusion_lat": 0.0, "lon": -77.047173, "is_reserved": 0, "bike_id": "6f3bacf80c275c053884b7e3130f5843", "fusion_lon": 0.0, "rental_uris": {"android": "https://dc.lft.to/lastmile_qr_scan", "ios": "https://dc.lft.to/lastmile_qr_scan"}, "name": "6f3bacf80c275c053884b7e3130f5843", "type": "electric_scooter", "lat": 38.9222465, "is_disabled": 0}, {"fusion_lat": 0.0, "lon": -76.95129166666666, "is_reserved": 0, "bike_id": "8d6b431e2877a1caa27853c51d388c21", "fusion_lon": 0.0, "rental_uris": {"android": "https://dc.lft.to/lastmile_qr_scan", "ios": "https://dc.lft.to/lastmile_qr_scan"}, "name": "8d6b431e2877a1caa27853c51d388c21", "type": "electric_scooter", "lat": 38.89030416666667, "is_disabled": 0}, {"fusion_lat": 0.0, "lon": -77.05014466666667, "is_reserved": 0, "bike_id": "26fd9e1911f8a2c9be311917883a8d7c", "fusion_lon": 0.0, "rental_uris": {"android": "https://dc.lft.to/lastmile_qr_scan", "ios": "https://dc.lft.to/lastmile_qr_scan"}, "name": "26fd9e1911f8a2c9be311917883a8d7c", "type": "electric_scooter", "lat": 38.902904, "is_disabled": 0}, {"fusion_lat": 0.0, "lon": -77.0073635, "is_reserved": 0, "bike_id": "9d213cf5e1d8635faabede14b95a7be5", "fusion_lon": 0.0, "rental_uris": {"android": "https://dc.lft.to/lastmile_qr_scan", "ios": "https://dc.lft.to/lastmile_qr_scan"}, "name": "9d213cf5e1d8635faabede14b95a7be5", "type": "electric_scooter", "lat": 38.9254595, "is_disabled": 0}, {"fusion_lat": 0.0, "lon": -77.049996, "is_reserved": 0, "bike_id": "80b24c827a9e9ff4e8fe77e1d192ea08", "fusion_lon": 0.0, "rental_uris": {"android": "https://dc.lft.to/lastmile_qr_scan", "ios": "https://dc.lft.to/lastmile_qr_scan"}, "name": "80b24c827a9e9ff4e8fe77e1d192ea08", "type": "electric_scooter", "lat": 38.892308, "is_disabled": 0}, {"fusion_lat": 0.0, "lon": -76.9546815, "is_reserved": 0, "bike_id": "b14656ed7373d0b036fa11d75c865c37", "fusion_lon": 0.0, "rental_uris": {"android": "https://dc.lft.to/lastmile_qr_scan", "ios": "https://dc.lft.to/lastmile_qr_scan"}, "name": "b14656ed7373d0b036fa11d75c865c37", "type": "electric_scooter", "lat": 38.88642316666667, "is_disabled": 0}, {"fusion_lat": 0.0, "lon": -77.00970016666666, "is_reserved": 0, "bike_id": "75e546dc5a131e2065de1d2ce0127e2c", "fusion_lon": 0.0, "rental_uris": {"android": "https://dc.lft.to/lastmile_qr_scan", "ios": "https://dc.lft.to/lastmile_qr_scan"}, "name": "75e546dc5a131e2065de1d2ce0127e2c", "type": "electric_scooter", "lat": 38.908047333333336, "is_disabled": 0}, {"fusion_lat": 0.0, "lon": -77.02230633333333, "is_reserved": 0, "bike_id": "75065715536d225444360fdf634f6a95", "fusion_lon": 0.0, "rental_uris": {"android": "https://dc.lft.to/lastmile_qr_scan", "ios": "https://dc.lft.to/lastmile_qr_scan"}, "name": "75065715536d225444360fdf634f6a95", "type": "electric_scooter", "lat": 38.892249166666666, "is_disabled": 0}, {"fusion_lat": 0.0, "lon": -76.9452855, "is_reserved": 0, "bike_id": "ac2b4b046ec70ad1ae911a4d7ed1b17f", "fusion_lon": 0.0, "rental_uris": {"android": "https://dc.lft.to/lastmile_qr_scan", "ios": "https://dc.lft.to/lastmile_qr_scan"}, "name": "ac2b4b046ec70ad1ae911a4d7ed1b17f", "type": "electric_bike", "lat": 38.867621166666666, "is_disabled": 0}, {"fusion_lat": 0.0, "lon": -77.00045183333333, "is_reserved": 0, "bike_id": "05a1fb660a69e479463ab0311c8e0be7", "fusion_lon": 0.0, "rental_uris": {"android": "https://dc.lft.to/lastmile_qr_scan", "ios": "https://dc.lft.to/lastmile_qr_scan"}, "name": "05a1fb660a69e479463ab0311c8e0be7", "type": "electric_scooter", "lat": 38.896342, "is_disabled": 0}, {"fusion_lat": 0.0, "lon": -76.9399175, "is_reserved": 0, "bike_id": "2824a5a343265ac08327031238b4ae03", "fusion_lon": 0.0, "rental_uris": {"android": "https://dc.lft.to/lastmile_qr_scan", "ios": "https://dc.lft.to/lastmile_qr_scan"}, "name": "2824a5a343265ac08327031238b4ae03", "type": "electric_scooter", "lat": 38.89982466666667, "is_disabled": 0}, {"fusion_lat": 0.0, "lon": -77.03837683333333, "is_reserved": 0, "bike_id": "cc6d5d1b5e67ba97cc5e5656248baaf4", "fusion_lon": 0.0, "rental_uris": {"android": "https://dc.lft.to/lastmile_qr_scan", "ios": "https://dc.lft.to/lastmile_qr_scan"}, "name": "cc6d5d1b5e67ba97cc5e5656248baaf4", "type": "electric_scooter", "lat": 38.916453, "is_disabled": 0}, {"fusion_lat": 0.0, "lon": -77.03640166666666, "is_reserved": 0, "bike_id": "b61ab330a474afb048a8dafbd09d8fbf", "fusion_lon": 0.0, "rental_uris": {"android": "https://dc.lft.to/lastmile_qr_scan", "ios": "https://dc.lft.to/lastmile_qr_scan"}, "name": "b61ab330a474afb048a8dafbd09d8fbf", "type": "electric_scooter", "lat": 38.93677733333333, "is_disabled": 0}, {"fusion_lat": 0.0, "lon": -77.036681, "is_reserved": 0, "bike_id": "cb3de337a444be87d9df6ef16962761d", "fusion_lon": 0.0, "rental_uris": {"android": "https://dc.lft.to/lastmile_qr_scan", "ios": "https://dc.lft.to/lastmile_qr_scan"}, "name": "cb3de337a444be87d9df6ef16962761d", "type": "electric_scooter", "lat": 38.92320433333333, "is_disabled": 0}, {"fusion_lat": 0.0, "lon": -77.1829115, "is_reserved": 0, "bike_id": "e46f3c2f4df2f998d812884612c78200", "fusion_lon": 0.0, "rental_uris": {"android": "https://dc.lft.to/lastmile_qr_scan", "ios": "https://dc.lft.to/lastmile_qr_scan"}, "name": "e46f3c2f4df2f998d812884612c78200", "type": "electric_bike", "lat": 38.8908735, "is_disabled": 0}, {"fusion_lat": 0.0, "lon": -77.00038333333333, "is_reserved": 0, "bike_id": "348381743dc3e58528be61937fb20a4c", "fusion_lon": 0.0, "rental_uris": {"android": "https://dc.lft.to/lastmile_qr_scan", "ios": "https://dc.lft.to/lastmile_qr_scan"}, "name": "348381743dc3e58528be61937fb20a4c", "type": "electric_scooter", "lat": 38.89742233333333, "is_disabled": 0}, {"fusion_lat": 0.0, "lon": -77.036788, "is_reserved": 0, "bike_id": "bdcdf4f7ea9581c6af8b3bf00dbcde71", "fusion_lon": 0.0, "rental_uris": {"android": "https://dc.lft.to/lastmile_qr_scan", "ios": "https://dc.lft.to/lastmile_qr_scan"}, "name": "bdcdf4f7ea9581c6af8b3bf00dbcde71", "type": "electric_scooter", "lat": 38.9203295, "is_disabled": 0}, {"fusion_lat": 0.0, "lon": -77.0238405, "is_reserved": 0, "bike_id": "f487f74abefa61289dc19df6c1ccba29", "fusion_lon": 0.0, "rental_uris": {"android": "https://dc.lft.to/lastmile_qr_scan", "ios": "https://dc.lft.to/lastmile_qr_scan"}, "name": "f487f74abefa61289dc19df6c1ccba29", "type": "electric_scooter", "lat": 38.897819, "is_disabled": 0}, {"fusion_lat": 0.0, "lon": -76.98658416666666, "is_reserved": 0, "bike_id": "04f9afa7ea066fa0fee485b1182fd3b2", "fusion_lon": 0.0, "rental_uris": {"android": "https://dc.lft.to/lastmile_qr_scan", "ios": "https://dc.lft.to/lastmile_qr_scan"}, "name": "04f9afa7ea066fa0fee485b1182fd3b2", "type": "electric_scooter", "lat": 38.86722783333333, "is_disabled": 0}, {"fusion_lat": 0.0, "lon": -77.03763933333333, "is_reserved": 0, "bike_id": "11b0a82570e836c42b1946892d782aae", "fusion_lon": 0.0, "rental_uris": {"android": "https://dc.lft.to/lastmile_qr_scan", "ios": "https://dc.lft.to/lastmile_qr_scan"}, "name": "11b0a82570e836c42b1946892d782aae", "type": "electric_scooter", "lat": 38.9068245, "is_disabled": 0}, {"fusion_lat": 0.0, "lon": -76.99887183333334, "is_reserved": 0, "bike_id": "1b7f1625c411433c3adc85746d5f1844", "fusion_lon": 0.0, "rental_uris": {"android": "https://dc.lft.to/lastmile_qr_scan", "ios": "https://dc.lft.to/lastmile_qr_scan"}, "name": "1b7f1625c411433c3adc85746d5f1844", "type": "electric_scooter", "lat": 38.9077705, "is_disabled": 0}, {"fusion_lat": 0.0, "lon": -77.03174566666667, "is_reserved": 0, "bike_id": "21f4962eda49090fc96f0a741ea2a11f", "fusion_lon": 0.0, "rental_uris": {"android": "https://dc.lft.to/lastmile_qr_scan", "ios": "https://dc.lft.to/lastmile_qr_scan"}, "name": "21f4962eda49090fc96f0a741ea2a11f", "type": "electric_scooter", "lat": 38.9180965, "is_disabled": 0}, {"fusion_lat": 0.0, "lon": -77.03007566666666, "is_reserved": 0, "bike_id": "0186c2126620a0ba6c6abd0f7fff96a0", "fusion_lon": 0.0, "rental_uris": {"android": "https://dc.lft.to/lastmile_qr_scan", "ios": "https://dc.lft.to/lastmile_qr_scan"}, "name": "0186c2126620a0ba6c6abd0f7fff96a0", "type": "electric_scooter", "lat": 38.920527666666665, "is_disabled": 0}, {"fusion_lat": 0.0, "lon": -76.97648666666667, "is_reserved": 0, "bike_id": "eb37bce65ba1f88d7754224cf0501087", "fusion_lon": 0.0, "rental_uris": {"android": "https://dc.lft.to/lastmile_qr_scan", "ios": "https://dc.lft.to/lastmile_qr_scan"}, "name": "eb37bce65ba1f88d7754224cf0501087", "type": "electric_scooter", "lat": 38.864592333333334, "is_disabled": 0}, {"fusion_lat": 0.0, "lon": -77.0383475, "is_reserved": 0, "bike_id": "40fdd5b6db644b4ac9bfe2bbb3600ab1", "fusion_lon": 0.0, "rental_uris": {"android": "https://dc.lft.to/lastmile_qr_scan", "ios": "https://dc.lft.to/lastmile_qr_scan"}, "name": "40fdd5b6db644b4ac9bfe2bbb3600ab1", "type": "electric_scooter", "lat": 38.911220166666666, "is_disabled": 0}, {"fusion_lat": 0.0, "lon": -76.99510816666667, "is_reserved": 0, "bike_id": "937d3e11aafa79fb52caf10a4579599a", "fusion_lon": 0.0, "rental_uris": {"android": "https://dc.lft.to/lastmile_qr_scan", "ios": "https://dc.lft.to/lastmile_qr_scan"}, "name": "937d3e11aafa79fb52caf10a4579599a", "type": "electric_scooter", "lat": 38.89730483333334, "is_disabled": 0}, {"fusion_lat": 0.0, "lon": -76.9575595, "is_reserved": 0, "bike_id": "fdc4d66445a028cce7e724b6419a5bf1", "fusion_lon": 0.0, "rental_uris": {"android": "https://dc.lft.to/lastmile_qr_scan", "ios": "https://dc.lft.to/lastmile_qr_scan"}, "name": "fdc4d66445a028cce7e724b6419a5bf1", "type": "electric_scooter", "lat": 38.8843435, "is_disabled": 0}, {"fusion_lat": 0.0, "lon": -77.03897466666666, "is_reserved": 0, "bike_id": "ba32cd830e5d3f4245ca88f571e13f84", "fusion_lon": 0.0, "rental_uris": {"android": "https://dc.lft.to/lastmile_qr_scan", "ios": "https://dc.lft.to/lastmile_qr_scan"}, "name": "ba32cd830e5d3f4245ca88f571e13f84", "type": "electric_scooter", "lat": 38.91008016666667, "is_disabled": 0}, {"fusion_lat": 0.0, "lon": -76.98012, "is_reserved": 0, "bike_id": "13ad14040af38d4ba0ea197e69648a04", "fusion_lon": 0.0, "rental_uris": {"android": "https://dc.lft.to/lastmile_qr_scan", "ios": "https://dc.lft.to/lastmile_qr_scan"}, "name": "13ad14040af38d4ba0ea197e69648a04", "type": "electric_bike", "lat": 38.85314, "is_disabled": 0}, {"fusion_lat": 0.0, "lon": -77.009262, "is_reserved": 0, "bike_id": "0da137b0e4c04bca334c09bccb9a3b74", "fusion_lon": 0.0, "rental_uris": {"android": "https://dc.lft.to/lastmile_qr_scan", "ios": "https://dc.lft.to/lastmile_qr_scan"}, "name": "0da137b0e4c04bca334c09bccb9a3b74", "type": "electric_scooter", "lat": 38.89607866666667, "is_disabled": 0}, {"fusion_lat": 0.0, "lon": -77.05321283333333, "is_reserved": 0, "bike_id": "07be1009e58f1c970fd87efc3be00d24", "fusion_lon": 0.0, "rental_uris": {"android": "https://dc.lft.to/lastmile_qr_scan", "ios": "https://dc.lft.to/lastmile_qr_scan"}, "name": "07be1009e58f1c970fd87efc3be00d24", "type": "electric_scooter", "lat": 38.91553066666667, "is_disabled": 0}, {"fusion_lat": 0.0, "lon": -76.99509883333333, "is_reserved": 0, "bike_id": "ad00a022d51e3527c3d71e0d3f5b03e3", "fusion_lon": 0.0, "rental_uris": {"android": "https://dc.lft.to/lastmile_qr_scan", "ios": "https://dc.lft.to/lastmile_qr_scan"}, "name": "ad00a022d51e3527c3d71e0d3f5b03e3", "type": "electric_scooter", "lat": 38.882624, "is_disabled": 0}, {"fusion_lat": 0.0, "lon": -77.0417285, "is_reserved": 0, "bike_id": "2729220e85145b5b98712bf0f8205545", "fusion_lon": 0.0, "rental_uris": {"android": "https://dc.lft.to/lastmile_qr_scan", "ios": "https://dc.lft.to/lastmile_qr_scan"}, "name": "2729220e85145b5b98712bf0f8205545", "type": "electric_scooter", "lat": 38.91728333333333, "is_disabled": 0}, {"fusion_lat": 0.0, "lon": -77.07700166666666, "is_reserved": 0, "bike_id": "89a7f4377361ed7d74c631af261b4452", "fusion_lon": 0.0, "rental_uris": {"android": "https://dc.lft.to/lastmile_qr_scan", "ios": "https://dc.lft.to/lastmile_qr_scan"}, "name": "89a7f4377361ed7d74c631af261b4452", "type": "electric_bike", "lat": 38.840862666666666, "is_disabled": 0}, {"fusion_lat": 0.0, "lon": -77.04326733333333, "is_reserved": 0, "bike_id": "99cfa26ecb9b34978e237dd9b299c8e4", "fusion_lon": 0.0, "rental_uris": {"android": "https://dc.lft.to/lastmile_qr_scan", "ios": "https://dc.lft.to/lastmile_qr_scan"}, "name": "99cfa26ecb9b34978e237dd9b299c8e4", "type": "electric_scooter", "lat": 38.89224333333333, "is_disabled": 0}, {"fusion_lat": 0.0, "lon": -77.04345433333333, "is_reserved": 0, "bike_id": "add20332562c1c3af54036589ac00ab9", "fusion_lon": 0.0, "rental_uris": {"android": "https://dc.lft.to/lastmile_qr_scan", "ios": "https://dc.lft.to/lastmile_qr_scan"}, "name": "add20332562c1c3af54036589ac00ab9", "type": "electric_scooter", "lat": 38.9034415, "is_disabled": 0}, {"fusion_lat": 0.0, "lon": -76.973309, "is_reserved": 0, "bike_id": "278a76b942c23f3515953b83c2c296e5", "fusion_lon": 0.0, "rental_uris": {"android": "https://dc.lft.to/lastmile_qr_scan", "ios": "https://dc.lft.to/lastmile_qr_scan"}, "name": "278a76b942c23f3515953b83c2c296e5", "type": "electric_scooter", "lat": 38.904112, "is_disabled": 0}, {"fusion_lat": 0.0, "lon": -77.00067, "is_reserved": 0, "bike_id": "707edee41aa3c3f67ace2ccdcf6c5968", "fusion_lon": 0.0, "rental_uris": {"android": "https://dc.lft.to/lastmile_qr_scan", "ios": "https://dc.lft.to/lastmile_qr_scan"}, "name": "707edee41aa3c3f67ace2ccdcf6c5968", "type": "electric_scooter", "lat": 38.92439433333333, "is_disabled": 0}, {"fusion_lat": 0.0, "lon": -77.06577566666667, "is_reserved": 0, "bike_id": "9ab0f61d26bfb8ba1b98ed48d0b99a17", "fusion_lon": 0.0, "rental_uris": {"android": "https://dc.lft.to/lastmile_qr_scan", "ios": "https://dc.lft.to/lastmile_qr_scan"}, "name": "9ab0f61d26bfb8ba1b98ed48d0b99a17", "type": "electric_bike", "lat": 38.911330666666665, "is_disabled": 0}, {"fusion_lat": 0.0, "lon": -77.03494033333334, "is_reserved": 0, "bike_id": "7094bb46d23113910f9f78387b837751", "fusion_lon": 0.0, "rental_uris": {"android": "https://dc.lft.to/lastmile_qr_scan", "ios": "https://dc.lft.to/lastmile_qr_scan"}, "name": "7094bb46d23113910f9f78387b837751", "type": "electric_bike", "lat": 38.937578333333335, "is_disabled": 0}, {"fusion_lat": 0.0, "lon": -77.05582883333334, "is_reserved": 0, "bike_id": "b860d826f40c2a579855aa0b497c58b4", "fusion_lon": 0.0, "rental_uris": {"android": "https://dc.lft.to/lastmile_qr_scan", "ios": "https://dc.lft.to/lastmile_qr_scan"}, "name": "b860d826f40c2a579855aa0b497c58b4", "type": "electric_scooter", "lat": 38.936157333333334, "is_disabled": 0}, {"fusion_lat": 0.0, "lon": -77.0071675, "is_reserved": 0, "bike_id": "f52117984c0dc4a1aff9031f5837e67b", "fusion_lon": 0.0, "rental_uris": {"android": "https://dc.lft.to/lastmile_qr_scan", "ios": "https://dc.lft.to/lastmile_qr_scan"},