{"data": {"bikes": [{"lon": -76.96997116666667, "bike_id": "dff8a91b3f69b7fec0571b3b68c956f2", "lat": 38.873708, "fusion_lon": 0.0, "fusion_lat": 0.0, "type": "electric_scooter", "name": "dff8a91b3f69b7fec0571b3b68c956f2", "is_disabled": 0, "rental_uris": {"ios": "https://dc.lft.to/lastmile_qr_scan", "android": "https://dc.lft.to/lastmile_qr_scan"}, "is_reserved": 0}, {"lon": -77.061345, "bike_id": "ffa1268c2a3754e9f731776a6869ea95", "lat": 38.9435415, "fusion_lon": 0.0, "fusion_lat": 0.0, "type": "electric_scooter", "name": "ffa1268c2a3754e9f731776a6869ea95", "is_disabled": 0, "rental_uris": {"ios": "https://dc.lft.to/lastmile_qr_scan", "android": "https://dc.lft.to/lastmile_qr_scan"}, "is_reserved": 0}, {"lon": -77.02455016666667, "bike_id": "208aeb399967731aeeb30a9126b00b16", "lat": 38.884075333333335, "fusion_lon": 0.0, "fusion_lat": 0.0, "type": "electric_scooter", "name": "208aeb399967731aeeb30a9126b00b16", "is_disabled": 0, "rental_uris": {"ios": "https://dc.lft.to/lastmile_qr_scan", "android": "https://dc.lft.to/lastmile_qr_scan"}, "is_reserved": 0}, {"lon": -76.99622783333334, "bike_id": "d81979eb411f24980e711e540205c83d", "lat": 38.90897283333334, "fusion_lon": 0.0, "fusion_lat": 0.0, "type": "electric_scooter", "name": "d81979eb411f24980e711e540205c83d", "is_disabled": 0, "rental_uris": {"ios": "https://dc.lft.to/lastmile_qr_scan", "android": "https://dc.lft.to/lastmile_qr_scan"}, "is_reserved": 0}, {"lon": -77.03481383333333, "bike_id": "63a0501ebf1120a76381460c516cb9c0", "lat": 38.9274105, "fusion_lon": 0.0, "fusion_lat": 0.0, "type": "electric_scooter", "name": "63a0501ebf1120a76381460c516cb9c0", "is_disabled": 0, "rental_uris": {"ios": "https://dc.lft.to/lastmile_qr_scan", "android": "https://dc.lft.to/lastmile_qr_scan"}, "is_reserved": 0}, {"lon": -77.04979483333334, "bike_id": "2b32020c699cbd1e9b8e614b35d9f928", "lat": 38.899775166666664, "fusion_lon": 0.0, "fusion_lat": 0.0, "type": "electric_scooter", "name": "2b32020c699cbd1e9b8e614b35d9f928", "is_disabled": 0, "rental_uris": {"ios": "https://dc.lft.to/lastmile_qr_scan", "android": "https://dc.lft.to/lastmile_qr_scan"}, "is_reserved": 0}, {"lon": -77.07796833333333, "bike_id": "bfda7e9bbc722276e8602748a2e29b22", "lat": 38.99600866666667, "fusion_lon": 0.0, "fusion_lat": 0.0, "type": "electric_bike", "name": "bfda7e9bbc722276e8602748a2e29b22", "is_disabled": 0, "rental_uris": {"ios": "https://dc.lft.to/lastmile_qr_scan", "android": "https://dc.lft.to/lastmile_qr_scan"}, "is_reserved": 0}, {"lon": -77.025269, "bike_id": "e007c8dda147bcae36ccd304de2e7ea1", "lat": 38.90395983333333, "fusion_lon": 0.0, "fusion_lat": 0.0, "type": "electric_scooter", "name": "e007c8dda147bcae36ccd304de2e7ea1", "is_disabled": 0, "rental_uris": {"ios": "https://dc.lft.to/lastmile_qr_scan", "android": "https://dc.lft.to/lastmile_qr_scan"}, "is_reserved": 0}, {"lon": -77.06579833333333, "bike_id": "7a697d3625da68e448df1b9fb89da81b", "lat": 38.9112525, "fusion_lon": 0.0, "fusion_lat": 0.0, "type": "electric_bike", "name": "7a697d3625da68e448df1b9fb89da81b", "is_disabled": 0, "rental_uris": {"ios": "https://dc.lft.to/lastmile_qr_scan", "android": "https://dc.lft.to/lastmile_qr_scan"}, "is_reserved": 0}, {"lon": -77.022254, "bike_id": "19529c7a7d56cc7fbb65703ef8a3cf55", "lat": 38.899884166666666, "fusion_lon": 0.0, "fusion_lat": 0.0, "type": "electric_scooter", "name": "19529c7a7d56cc7fbb65703ef8a3cf55", "is_disabled": 0, "rental_uris": {"ios": "https://dc.lft.to/lastmile_qr_scan", "android": "https://dc.lft.to/lastmile_qr_scan"}, "is_reserved": 0}, {"lon": -77.00131083333333, "bike_id": "a1c1886c50a7068a97020691c25cf48b", "lat": 38.88521516666667, "fusion_lon": 0.0, "fusion_lat": 0.0, "type": "electric_scooter", "name": "a1c1886c50a7068a97020691c25cf48b", "is_disabled": 0, "rental_uris": {"ios": "https://dc.lft.to/lastmile_qr_scan", "android": "https://dc.lft.to/lastmile_qr_scan"}, "is_reserved": 0}, {"lon": -77.02979116666667, "bike_id": "92aa0e0f2c0de83cabecca41b0212fc3", "lat": 38.93695833333334, "fusion_lon": 0.0, "fusion_lat": 0.0, "type": "electric_bike", "name": "92aa0e0f2c0de83cabecca41b0212fc3", "is_disabled": 0, "rental_uris": {"ios": "https://dc.lft.to/lastmile_qr_scan", "android": "https://dc.lft.to/lastmile_qr_scan"}, "is_reserved": 0}, {"lon": -77.03670783333334, "bike_id": "3a3a90f1d14685d2474a6e8efb0f0a73", "lat": 38.9232965, "fusion_lon": 0.0, "fusion_lat": 0.0, "type": "electric_scooter", "name": "3a3a90f1d14685d2474a6e8efb0f0a73", "is_disabled": 0, "rental_uris": {"ios": "https://dc.lft.to/lastmile_qr_scan", "android": "https://dc.lft.to/lastmile_qr_scan"}, "is_reserved": 0}, {"lon": -77.025342, "bike_id": "352ce6589415c5230318378a93878c86", "lat": 38.943007333333334, "fusion_lon": 0.0, "fusion_lat": 0.0, "type": "electric_scooter", "name": "352ce6589415c5230318378a93878c86", "is_disabled": 0, "rental_uris": {"ios": "https://dc.lft.to/lastmile_qr_scan", "android": "https://dc.lft.to/lastmile_qr_scan"}, "is_reserved": 0}, {"lon": -77.036492, "bike_id": "4b1a49e934a6d8215b037278c55c234f", "lat": 38.926162, "fusion_lon": 0.0, "fusion_lat": 0.0, "type": "electric_scooter", "name": "4b1a49e934a6d8215b037278c55c234f", "is_disabled": 0, "rental_uris": {"ios": "https://dc.lft.to/lastmile_qr_scan", "android": "https://dc.lft.to/lastmile_qr_scan"}, "is_reserved": 0}, {"lon": -77.04715716666666, "bike_id": "c1bda5af965a2f8a5dd1608952daa67e", "lat": 38.922327833333334, "fusion_lon": 0.0, "fusion_lat": 0.0, "type": "electric_scooter", "name": "c1bda5af965a2f8a5dd1608952daa67e", "is_disabled": 0, "rental_uris": {"ios": "https://dc.lft.to/lastmile_qr_scan", "android": "https://dc.lft.to/lastmile_qr_scan"}, "is_reserved": 0}, {"lon": -77.0211355, "bike_id": "4df1ea7d10a3d1396bfecf4eabfe816d", "lat": 38.936962666666666, "fusion_lon": 0.0, "fusion_lat": 0.0, "type": "electric_scooter", "name": "4df1ea7d10a3d1396bfecf4eabfe816d", "is_disabled": 0, "rental_uris": {"ios": "https://dc.lft.to/lastmile_qr_scan", "android": "https://dc.lft.to/lastmile_qr_scan"}, "is_reserved": 0}, {"lon": -77.0353245, "bike_id": "145e0b6369c46c887a8684f7fff627e7", "lat": 38.90659316666667, "fusion_lon": 0.0, "fusion_lat": 0.0, "type": "electric_scooter", "name": "145e0b6369c46c887a8684f7fff627e7", "is_disabled": 0, "rental_uris": {"ios": "https://dc.lft.to/lastmile_qr_scan", "android": "https://dc.lft.to/lastmile_qr_scan"}, "is_reserved": 0}, {"lon": -76.97620366666666, "bike_id": "e475acfdf48de1a9afedd8aafbb2ab86", "lat": 38.903796666666665, "fusion_lon": 0.0, "fusion_lat": 0.0, "type": "electric_scooter", "name": "e475acfdf48de1a9afedd8aafbb2ab86", "is_disabled": 0, "rental_uris": {"ios": "https://dc.lft.to/lastmile_qr_scan", "android": "https://dc.lft.to/lastmile_qr_scan"}, "is_reserved": 0}, {"lon": -77.00066866666667, "bike_id": "1db4cde599a9780121ab3f6573770a8f", "lat": 38.92434633333333, "fusion_lon": 0.0, "fusion_lat": 0.0, "type": "electric_scooter", "name": "1db4cde599a9780121ab3f6573770a8f", "is_disabled": 0, "rental_uris": {"ios": "https://dc.lft.to/lastmile_qr_scan", "android": "https://dc.lft.to/lastmile_qr_scan"}, "is_reserved": 0}, {"lon": -76.997746, "bike_id": "0b6442bb4e8d9f5fcecbef3762c70ff0", "lat": 38.9229465, "fusion_lon": 0.0, "fusion_lat": 0.0, "type": "electric_scooter", "name": "0b6442bb4e8d9f5fcecbef3762c70ff0", "is_disabled": 0, "rental_uris": {"ios": "https://dc.lft.to/lastmile_qr_scan", "android": "https://dc.lft.to/lastmile_qr_scan"}, "is_reserved": 0}, {"lon": -76.96358133333334, "bike_id": "5a46a015b836e5dd07b86452fa060149", "lat": 38.9349745, "fusion_lon": 0.0, "fusion_lat": 0.0, "type": "electric_scooter", "name": "5a46a015b836e5dd07b86452fa060149", "is_disabled": 0, "rental_uris": {"ios": "https://dc.lft.to/lastmile_qr_scan", "android": "https://dc.lft.to/lastmile_qr_scan"}, "is_reserved": 0}, {"lon": -77.00913166666666, "bike_id": "1dc1b13056b07c10deb2cb21456dbf49", "lat": 38.827858, "fusion_lon": 0.0, "fusion_lat": 0.0, "type": "electric_bike", "name": "1dc1b13056b07c10deb2cb21456dbf49", "is_disabled": 0, "rental_uris": {"ios": "https://dc.lft.to/lastmile_qr_scan", "android": "https://dc.lft.to/lastmile_qr_scan"}, "is_reserved": 0}, {"lon": -77.03244033333333, "bike_id": "5a34348d76d6d03895fecd5537292bf1", "lat": 38.905407833333335, "fusion_lon": 0.0, "fusion_lat": 0.0, "type": "electric_scooter", "name": "5a34348d76d6d03895fecd5537292bf1", "is_disabled": 0, "rental_uris": {"ios": "https://dc.lft.to/lastmile_qr_scan", "android": "https://dc.lft.to/lastmile_qr_scan"}, "is_reserved": 0}, {"lon": -77.03181316666667, "bike_id": "63a74f2655591ebb265aac493e5bc48f", "lat": 38.91927616666667, "fusion_lon": 0.0, "fusion_lat": 0.0, "type": "electric_scooter", "name": "63a74f2655591ebb265aac493e5bc48f", "is_disabled": 0, "rental_uris": {"ios": "https://dc.lft.to/lastmile_qr_scan", "android": "https://dc.lft.to/lastmile_qr_scan"}, "is_reserved": 0}, {"lon": -77.02222533333334, "bike_id": "084c675b431494f7d3ad4234d000452a", "lat": 38.899799, "fusion_lon": 0.0, "fusion_lat": 0.0, "type": "electric_scooter", "name": "084c675b431494f7d3ad4234d000452a", "is_disabled": 0, "rental_uris": {"ios": "https://dc.lft.to/lastmile_qr_scan", "android": "https://dc.lft.to/lastmile_qr_scan"}, "is_reserved": 0}, {"lon": -77.000757, "bike_id": "1a566321897dd81d9322c39cc1790e6f", "lat": 38.873861166666664, "fusion_lon": 0.0, "fusion_lat": 0.0, "type": "electric_scooter", "name": "1a566321897dd81d9322c39cc1790e6f", "is_disabled": 0, "rental_uris": {"ios": "https://dc.lft.to/lastmile_qr_scan", "android": "https://dc.lft.to/lastmile_qr_scan"}, "is_reserved": 0}, {"lon": -76.965197, "bike_id": "c79ad32afbeaec415e6e3ea4ee434374", "lat": 38.8747835, "fusion_lon": 0.0, "fusion_lat": 0.0, "type": "electric_scooter", "name": "c79ad32afbeaec415e6e3ea4ee434374", "is_disabled": 0, "rental_uris": {"ios": "https://dc.lft.to/lastmile_qr_scan", "android": "https://dc.lft.to/lastmile_qr_scan"}, "is_reserved": 0}, {"lon": -77.02114733333333, "bike_id": "9b01dde92c853d35873fdb952fc4cdad", "lat": 38.93699466666666, "fusion_lon": 0.0, "fusion_lat": 0.0, "type": "electric_scooter", "name": "9b01dde92c853d35873fdb952fc4cdad", "is_disabled": 0, "rental_uris": {"ios": "https://dc.lft.to/lastmile_qr_scan", "android": "https://dc.lft.to/lastmile_qr_scan"}, "is_reserved": 0}, {"lon": -77.02563133333334, "bike_id": "da08ebcf07a6d6bd76600e4011c2718a", "lat": 38.93355716666667, "fusion_lon": 0.0, "fusion_lat": 0.0, "type": "electric_scooter", "name": "da08ebcf07a6d6bd76600e4011c2718a", "is_disabled": 0, "rental_uris": {"ios": "https://dc.lft.to/lastmile_qr_scan", "android": "https://dc.lft.to/lastmile_qr_scan"}, "is_reserved": 0}, {"lon": -77.04029666666666, "bike_id": "2c668ad10824189d77d7760ddbd3b8f0", "lat": 38.9238435, "fusion_lon": 0.0, "fusion_lat": 0.0, "type": "electric_scooter", "name": "2c668ad10824189d77d7760ddbd3b8f0", "is_disabled": 0, "rental_uris": {"ios": "https://dc.lft.to/lastmile_qr_scan", "android": "https://dc.lft.to/lastmile_qr_scan"}, "is_reserved": 0}, {"lon": -77.02153683333333, "bike_id": "cf6a1408a4db740356312d1ec3428f35", "lat": 38.8948815, "fusion_lon": 0.0, "fusion_lat": 0.0, "type": "electric_scooter", "name": "cf6a1408a4db740356312d1ec3428f35", "is_disabled": 0, "rental_uris": {"ios": "https://dc.lft.to/lastmile_qr_scan", "android": "https://dc.lft.to/lastmile_qr_scan"}, "is_reserved": 0}, {"lon": -77.02172916666666, "bike_id": "84000cf0abd4ce3ddd6cf27cb696dbaf", "lat": 38.9428885, "fusion_lon": 0.0, "fusion_lat": 0.0, "type": "electric_scooter", "name": "84000cf0abd4ce3ddd6cf27cb696dbaf", "is_disabled": 0, "rental_uris": {"ios": "https://dc.lft.to/lastmile_qr_scan", "android": "https://dc.lft.to/lastmile_qr_scan"}, "is_reserved": 0}, {"lon": -76.94629883333333, "bike_id": "205bbd32eb1cf08afd1c6f2da5998d85", "lat": 38.8983165, "fusion_lon": 0.0, "fusion_lat": 0.0, "type": "electric_scooter", "name": "205bbd32eb1cf08afd1c6f2da5998d85", "is_disabled": 0, "rental_uris": {"ios": "https://dc.lft.to/lastmile_qr_scan", "android": "https://dc.lft.to/lastmile_qr_scan"}, "is_reserved": 0}, {"lon": -76.99204833333333, "bike_id": "c588eb6ce30f65071f2d6b9680c04367", "lat": 38.898246, "fusion_lon": 0.0, "fusion_lat": 0.0, "type": "electric_scooter", "name": "c588eb6ce30f65071f2d6b9680c04367", "is_disabled": 0, "rental_uris": {"ios": "https://dc.lft.to/lastmile_qr_scan", "android": "https://dc.lft.to/lastmile_qr_scan"}, "is_reserved": 0}, {"lon": -77.02242316666667, "bike_id": "fbec9d5ad1ffcfe5f8cce13c914ac9c3", "lat": 38.92898916666667, "fusion_lon": 0.0, "fusion_lat": 0.0, "type": "electric_scooter", "name": "fbec9d5ad1ffcfe5f8cce13c914ac9c3", "is_disabled": 0, "rental_uris": {"ios": "https://dc.lft.to/lastmile_qr_scan", "android": "https://dc.lft.to/lastmile_qr_scan"}, "is_reserved": 0}, {"lon": -76.9761845, "bike_id": "bee4f3ed172aada59e2c8d08776020ff", "lat": 38.9265575, "fusion_lon": 0.0, "fusion_lat": 0.0, "type": "electric_scooter", "name": "bee4f3ed172aada59e2c8d08776020ff", "is_disabled": 0, "rental_uris": {"ios": "https://dc.lft.to/lastmile_qr_scan", "android": "https://dc.lft.to/lastmile_qr_scan"}, "is_reserved": 0}, {"lon": -77.0205215, "bike_id": "2be04fa7cb1e2e1e96463705a606deda", "lat": 38.92388, "fusion_lon": 0.0, "fusion_lat": 0.0, "type": "electric_scooter", "name": "2be04fa7cb1e2e1e96463705a606deda", "is_disabled": 0, "rental_uris": {"ios": "https://dc.lft.to/lastmile_qr_scan", "android": "https://dc.lft.to/lastmile_qr_scan"}, "is_reserved": 0}, {"lon": -77.009688, "bike_id": "f39c2964e5e918a5315a5b1c31d64f86", "lat": 38.90790033333333, "fusion_lon": 0.0, "fusion_lat": 0.0, "type": "electric_scooter", "name": "f39c2964e5e918a5315a5b1c31d64f86", "is_disabled": 0, "rental_uris": {"ios": "https://dc.lft.to/lastmile_qr_scan", "android": "https://dc.lft.to/lastmile_qr_scan"}, "is_reserved": 0}, {"lon": -77.07294816666666, "bike_id": "836c511d8bc913da1bfe9c7b12051b9e", "lat": 38.930519333333336, "fusion_lon": 0.0, "fusion_lat": 0.0, "type": "electric_scooter", "name": "836c511d8bc913da1bfe9c7b12051b9e", "is_disabled": 0, "rental_uris": {"ios": "https://dc.lft.to/lastmile_qr_scan", "android": "https://dc.lft.to/lastmile_qr_scan"}, "is_reserved": 0}, {"lon": -77.05236166666667, "bike_id": "3d4443af779c35125dcebe52fbbec86e", "lat": 38.9246155, "fusion_lon": 0.0, "fusion_lat": 0.0, "type": "electric_scooter", "name": "3d4443af779c35125dcebe52fbbec86e", "is_disabled": 0, "rental_uris": {"ios": "https://dc.lft.to/lastmile_qr_scan", "android": "https://dc.lft.to/lastmile_qr_scan"}, "is_reserved": 0}, {"lon": -77.0226715, "bike_id": "322f4335834a8bb4b7c20dd7cb3e8d64", "lat": 38.937713, "fusion_lon": 0.0, "fusion_lat": 0.0, "type": "electric_scooter", "name": "322f4335834a8bb4b7c20dd7cb3e8d64", "is_disabled": 0, "rental_uris": {"ios": "https://dc.lft.to/lastmile_qr_scan", "android": "https://dc.lft.to/lastmile_qr_scan"}, "is_reserved": 0}, {"lon": -77.03269333333333, "bike_id": "f6372afe220fea5a809d1394abac7f31", "lat": 38.92749083333333, "fusion_lon": 0.0, "fusion_lat": 0.0, "type": "electric_scooter", "name": "f6372afe220fea5a809d1394abac7f31", "is_disabled": 0, "rental_uris": {"ios": "https://dc.lft.to/lastmile_qr_scan", "android": "https://dc.lft.to/lastmile_qr_scan"}, "is_reserved": 0}, {"lon": -77.05012783333333, "bike_id": "f16d6fa5bba660a95236e7afbf6a5f94", "lat": 38.89691066666666, "fusion_lon": 0.0, "fusion_lat": 0.0, "type": "electric_scooter", "name": "f16d6fa5bba660a95236e7afbf6a5f94", "is_disabled": 0, "rental_uris": {"ios": "https://dc.lft.to/lastmile_qr_scan", "android": "https://dc.lft.to/lastmile_qr_scan"}, "is_reserved": 0}, {"lon": -77.024699, "bike_id": "3dad5afdfff378018746854f419bf398", "lat": 38.904014333333336, "fusion_lon": 0.0, "fusion_lat": 0.0, "type": "electric_scooter", "name": "3dad5afdfff378018746854f419bf398", "is_disabled": 0, "rental_uris": {"ios": "https://dc.lft.to/lastmile_qr_scan", "android": "https://dc.lft.to/lastmile_qr_scan"}, "is_reserved": 0}, {"lon": -77.04580816666666, "bike_id": "e189437faf12ae5129fe298739fb4223", "lat": 38.92132, "fusion_lon": 0.0, "fusion_lat": 0.0, "type": "electric_scooter", "name": "e189437faf12ae5129fe298739fb4223", "is_disabled": 0, "rental_uris": {"ios": "https://dc.lft.to/lastmile_qr_scan", "android": "https://dc.lft.to/lastmile_qr_scan"}, "is_reserved": 0}, {"lon": -77.00319333333333, "bike_id": "80facc39f596825853c0f8527bfb1534", "lat": 38.90744383333333, "fusion_lon": 0.0, "fusion_lat": 0.0, "type": "electric_bike", "name": "80facc39f596825853c0f8527bfb1534", "is_disabled": 0, "rental_uris": {"ios": "https://dc.lft.to/lastmile_qr_scan", "android": "https://dc.lft.to/lastmile_qr_scan"}, "is_reserved": 0}, {"lon": -77.04251383333333, "bike_id": "f2d6316c275f1b4832b003547f52ace4", "lat": 38.926319, "fusion_lon": 0.0, "fusion_lat": 0.0, "type": "electric_scooter", "name": "f2d6316c275f1b4832b003547f52ace4", "is_disabled": 0, "rental_uris": {"ios": "https://dc.lft.to/lastmile_qr_scan", "android": "https://dc.lft.to/lastmile_qr_scan"}, "is_reserved": 0}, {"lon": -77.04397733333333, "bike_id": "efb578973338e5ce913bf504df73078a", "lat": 38.93320383333333, "fusion_lon": 0.0, "fusion_lat": 0.0, "type": "electric_scooter", "name": "efb578973338e5ce913bf504df73078a", "is_disabled": 0, "rental_uris": {"ios": "https://dc.lft.to/lastmile_qr_scan", "android": "https://dc.lft.to/lastmile_qr_scan"}, "is_reserved": 0}, {"lon": -77.03269166666666, "bike_id": "62b3c3d0bd90927bb1d4b835e5c1b29b", "lat": 38.9254395, "fusion_lon": 0.0, "fusion_lat": 0.0, "type": "electric_scooter", "name": "62b3c3d0bd90927bb1d4b835e5c1b29b", "is_disabled": 0, "rental_uris": {"ios": "https://dc.lft.to/lastmile_qr_scan", "android": "https://dc.lft.to/lastmile_qr_scan"}, "is_reserved": 0}, {"lon": -77.05241816666667, "bike_id": "97488f30308f720b501488035b65af4a", "lat": 38.92463883333333, "fusion_lon": 0.0, "fusion_lat": 0.0, "type": "electric_scooter", "name": "97488f30308f720b501488035b65af4a", "is_disabled": 0, "rental_uris": {"ios": "https://dc.lft.to/lastmile_qr_scan", "android": "https://dc.lft.to/lastmile_qr_scan"}, "is_reserved": 0}, {"lon": -77.02736233333333, "bike_id": "8141bf151323a5324475058d4804c14f", "lat": 38.93206133333333, "fusion_lon": 0.0, "fusion_lat": 0.0, "type": "electric_scooter", "name": "8141bf151323a5324475058d4804c14f", "is_disabled": 0, "rental_uris": {"ios": "https://dc.lft.to/lastmile_qr_scan", "android": "https://dc.lft.to/lastmile_qr_scan"}, "is_reserved": 0}, {"lon": -77.01091966666667, "bike_id": "e83ceb600b559920d2fad5f54d267b40", "lat": 38.91562716666667, "fusion_lon": 0.0, "fusion_lat": 0.0, "type": "electric_scooter", "name": "e83ceb600b559920d2fad5f54d267b40", "is_disabled": 0, "rental_uris": {"ios": "https://dc.lft.to/lastmile_qr_scan", "android": "https://dc.lft.to/lastmile_qr_scan"}, "is_reserved": 0}, {"lon": -77.02794983333334, "bike_id": "261ea5212f33d13ea1aa0184437e5257", "lat": 38.920276333333334, "fusion_lon": 0.0, "fusion_lat": 0.0, "type": "electric_scooter", "name": "261ea5212f33d13ea1aa0184437e5257", "is_disabled": 0, "rental_uris": {"ios": "https://dc.lft.to/lastmile_qr_scan", "android": "https://dc.lft.to/lastmile_qr_scan"}, "is_reserved": 0}, {"lon": -77.0529555, "bike_id": "5afff8d3679bc591543ccfe93be526ef", "lat": 38.91016883333333, "fusion_lon": 0.0, "fusion_lat": 0.0, "type": "electric_scooter", "name": "5afff8d3679bc591543ccfe93be526ef", "is_disabled": 0, "rental_uris": {"ios": "https://dc.lft.to/lastmile_qr_scan", "android": "https://dc.lft.to/lastmile_qr_scan"}, "is_reserved": 0}, {"lon": -77.014819, "bike_id": "6f442a22706c8fa61f247acc9e7665d1", "lat": 38.917679166666666, "fusion_lon": 0.0, "fusion_lat": 0.0, "type": "electric_scooter", "name": "6f442a22706c8fa61f247acc9e7665d1", "is_disabled": 0, "rental_uris": {"ios": "https://dc.lft.to/lastmile_qr_scan", "android": "https://dc.lft.to/lastmile_qr_scan"}, "is_reserved": 0}, {"lon": -77.02791516666667, "bike_id": "d8745e526616e50abca817c95da77f5f", "lat": 38.956798666666664, "fusion_lon": 0.0, "fusion_lat": 0.0, "type": "electric_scooter", "name": "d8745e526616e50abca817c95da77f5f", "is_disabled": 0, "rental_uris": {"ios": "https://dc.lft.to/lastmile_qr_scan", "android": "https://dc.lft.to/lastmile_qr_scan"}, "is_reserved": 0}, {"lon": -76.99377783333334, "bike_id": "7d0e806fad7f7f23dbe42e2e25fa42a5", "lat": 38.97184266666667, "fusion_lon": 0.0, "fusion_lat": 0.0, "type": "electric_bike", "name": "7d0e806fad7f7f23dbe42e2e25fa42a5", "is_disabled": 0, "rental_uris": {"ios": "https://dc.lft.to/lastmile_qr_scan", "android": "https://dc.lft.to/lastmile_qr_scan"}, "is_reserved": 0}, {"lon": -76.94877783333334, "bike_id": "9caed7e8d1c4e7a872e6c4cb6d486034", "lat": 38.89544, "fusion_lon": 0.0, "fusion_lat": 0.0, "type": "electric_scooter", "name": "9caed7e8d1c4e7a872e6c4cb6d486034", "is_disabled": 0, "rental_uris": {"ios": "https://dc.lft.to/lastmile_qr_scan", "android": "https://dc.lft.to/lastmile_qr_scan"}, "is_reserved": 0}, {"lon": -77.03205716666666, "bike_id": "b7306b3e120ad45ca3ca9af1cde322a3", "lat": 38.919264166666665, "fusion_lon": 0.0, "fusion_lat": 0.0, "type": "electric_scooter", "name": "b7306b3e120ad45ca3ca9af1cde322a3", "is_disabled": 0, "rental_uris": {"ios": "https://dc.lft.to/lastmile_qr_scan", "android": "https://dc.lft.to/lastmile_qr_scan"}, "is_reserved": 0}, {"lon": -77.0487935, "bike_id": "ec1fc205865fd6d016b1d9e15c05be86", "lat": 38.892297166666665, "fusion_lon": 0.0, "fusion_lat": 0.0, "type": "electric_scooter", "name": "ec1fc205865fd6d016b1d9e15c05be86", "is_disabled": 0, "rental_uris": {"ios": "https://dc.lft.to/lastmile_qr_scan", "android": "https://dc.lft.to/lastmile_qr_scan"}, "is_reserved": 0}, {"lon": -77.01302533333333, "bike_id": "b232e0cdb3fc5ecb7f8128f69951b1d9", "lat": 38.943233, "fusion_lon": 0.0, "fusion_lat": 0.0, "type": "electric_scooter", "name": "b232e0cdb3fc5ecb7f8128f69951b1d9", "is_disabled": 0, "rental_uris": {"ios": "https://dc.lft.to/lastmile_qr_scan", "android": "https://dc.lft.to/lastmile_qr_scan"}, "is_reserved": 0}, {"lon": -76.98099316666666, "bike_id": "3db8610de02c33b25a40ab2fd0d05248", "lat": 38.905281333333335, "fusion_lon": 0.0, "fusion_lat": 0.0, "type": "electric_scooter", "name": "3db8610de02c33b25a40ab2fd0d05248", "is_disabled": 0, "rental_uris": {"ios": "https://dc.lft.to/lastmile_qr_scan", "android": "https://dc.lft.to/lastmile_qr_scan"}, "is_reserved": 0}, {"lon": -77.0700675, "bike_id": "734067afa13270cf9cc1d876ce8ce523", "lat": 38.95847666666667, "fusion_lon": 0.0, "fusion_lat": 0.0, "type": "electric_scooter", "name": "734067afa13270cf9cc1d876ce8ce523", "is_disabled": 0, "rental_uris": {"ios": "https://dc.lft.to/lastmile_qr_scan", "android": "https://dc.lft.to/lastmile_qr_scan"}, "is_reserved": 0}, {"lon": -76.99953616666667, "bike_id": "30bb10e1bab2e5ce6d8e93d7df8a736c", "lat": 38.898210166666665, "fusion_lon": 0.0, "fusion_lat": 0.0, "type": "electric_scooter", "name": "30bb10e1bab2e5ce6d8e93d7df8a736c", "is_disabled": 0, "rental_uris": {"ios": "https://dc.lft.to/lastmile_qr_scan", "android": "https://dc.lft.to/lastmile_qr_scan"}, "is_reserved": 0}, {"lon": -77.0367155, "bike_id": "dada4a20e6855b1ba46dd5fb6c5aba0c", "lat": 38.923308666666664, "fusion_lon": 0.0, "fusion_lat": 0.0, "type": "electric_scooter", "name": "dada4a20e6855b1ba46dd5fb6c5aba0c", "is_disabled": 0, "rental_uris": {"ios": "https://dc.lft.to/lastmile_qr_scan", "android": "https://dc.lft.to/lastmile_qr_scan"}, "is_reserved": 0}, {"lon": -77.03936933333334, "bike_id": "069f3e3b466df388ee5cfb78540a5e3e", "lat": 38.900767, "fusion_lon": 0.0, "fusion_lat": 0.0, "type": "electric_scooter", "name": "069f3e3b466df388ee5cfb78540a5e3e", "is_disabled": 0, "rental_uris": {"ios": "https://dc.lft.to/lastmile_qr_scan", "android": "https://dc.lft.to/lastmile_qr_scan"}, "is_reserved": 0}, {"lon": -77.00579683333333, "bike_id": "72bd07343371ebd6fa20f83136d51c8d", "lat": 38.83586733333333, "fusion_lon": 0.0, "fusion_lat": 0.0, "type": "electric_scooter", "name": "72bd07343371ebd6fa20f83136d51c8d", "is_disabled": 0, "rental_uris": {"ios": "https://dc.lft.to/lastmile_qr_scan", "android": "https://dc.lft.to/lastmile_qr_scan"}, "is_reserved": 0}, {"lon": -77.03263566666666, "bike_id": "7e098c34b66c3da756e02a615bd1e3d5", "lat": 38.93663866666667, "fusion_lon": 0.0, "fusion_lat": 0.0, "type": "electric_scooter", "name": "7e098c34b66c3da756e02a615bd1e3d5", "is_disabled": 0, "rental_uris": {"ios": "https://dc.lft.to/lastmile_qr_scan", "android": "https://dc.lft.to/lastmile_qr_scan"}, "is_reserved": 0}, {"lon": -77.0398975, "bike_id": "249835044d900f5fe702aaf5f23a4f3d", "lat": 38.91628516666667, "fusion_lon": 0.0, "fusion_lat": 0.0, "type": "electric_scooter", "name": "249835044d900f5fe702aaf5f23a4f3d", "is_disabled": 0, "rental_uris": {"ios": "https://dc.lft.to/lastmile_qr_scan", "android": "https://dc.lft.to/lastmile_qr_scan"}, "is_reserved": 0}, {"lon": -77.02172266666666, "bike_id": "09d13d086597356a715f44adcfcb0a12", "lat": 38.89744016666667, "fusion_lon": 0.0, "fusion_lat": 0.0, "type": "electric_scooter", "name": "09d13d086597356a715f44adcfcb0a12", "is_disabled": 0, "rental_uris": {"ios": "https://dc.lft.to/lastmile_qr_scan", "android": "https://dc.lft.to/lastmile_qr_scan"}, "is_reserved": 0}, {"lon": -77.002118, "bike_id": "e7472f2c559ef7a00d1f26e6a69b40b3", "lat": 38.900445500000004, "fusion_lon": 0.0, "fusion_lat": 0.0, "type": "electric_scooter", "name": "e7472f2c559ef7a00d1f26e6a69b40b3", "is_disabled": 0, "rental_uris": {"ios": "https://dc.lft.to/lastmile_qr_scan", "android": "https://dc.lft.to/lastmile_qr_scan"}, "is_reserved": 0}, {"lon": -77.01048916666667, "bike_id": "c46a20cdb156e3ad32bf9bb0ed79f3b0", "lat": 38.9634795, "fusion_lon": 0.0, "fusion_lat": 0.0, "type": "electric_scooter", "name": "c46a20cdb156e3ad32bf9bb0ed79f3b0", "is_disabled": 0, "rental_uris": {"ios": "https://dc.lft.to/lastmile_qr_scan", "android": "https://dc.lft.to/lastmile_qr_scan"}, "is_reserved": 0}, {"lon": -77.01610916666667, "bike_id": "2f723672e172a361a26953bc67f0e9eb", "lat": 38.89990983333333, "fusion_lon": 0.0, "fusion_lat": 0.0, "type": "electric_scooter", "name": "2f723672e172a361a26953bc67f0e9eb", "is_disabled": 0, "rental_uris": {"ios": "https://dc.lft.to/lastmile_qr_scan", "android": "https://dc.lft.to/lastmile_qr_scan"}, "is_reserved": 0}, {"lon": -77.0283285, "bike_id": "d37211d2ac1172adf85e7f4bab3e69ac", "lat": 38.89523166666667, "fusion_lon": 0.0, "fusion_lat": 0.0, "type": "electric_scooter", "name": "d37211d2ac1172adf85e7f4bab3e69ac", "is_disabled": 0, "rental_uris": {"ios": "https://dc.lft.to/lastmile_qr_scan", "android": "https://dc.lft.to/lastmile_qr_scan"}, "is_reserved": 0}, {"lon": -77.0098915, "bike_id": "3c14313c5073b53e437fd40d515d6438", "lat": 38.90385033333333, "fusion_lon": 0.0, "fusion_lat": 0.0, "type": "electric_scooter", "name": "3c14313c5073b53e437fd40d515d6438", "is_disabled": 0, "rental_uris": {"ios": "https://dc.lft.to/lastmile_qr_scan", "android": "https://dc.lft.to/lastmile_qr_scan"}, "is_reserved": 0}, {"lon": -77.02598116666667, "bike_id": "a03fa6fc49c5fe1d977b592dd923c43b", "lat": 38.90500483333334, "fusion_lon": 0.0, "fusion_lat": 0.0, "type": "electric_scooter", "name": "a03fa6fc49c5fe1d977b592dd923c43b", "is_disabled": 0, "rental_uris": {"ios": "https://dc.lft.to/lastmile_qr_scan", "android": "https://dc.lft.to/lastmile_qr_scan"}, "is_reserved": 0}, {"lon": -77.02281533333333, "bike_id": "edd73380aea105a3595512e1e5ced723", "lat": 38.9121605, "fusion_lon": 0.0, "fusion_lat": 0.0, "type": "electric_scooter", "name": "edd73380aea105a3595512e1e5ced723", "is_disabled": 0, "rental_uris": {"ios": "https://dc.lft.to/lastmile_qr_scan", "android": "https://dc.lft.to/lastmile_qr_scan"}, "is_reserved": 0}, {"lon": -76.993565, "bike_id": "edbfd345e0d4bec8edefd76dd23941f1", "lat": 38.845047666666666, "fusion_lon": 0.0, "fusion_lat": 0.0, "type": "electric_bike", "name": "edbfd345e0d4bec8edefd76dd23941f1", "is_disabled": 0, "rental_uris": {"ios": "https://dc.lft.to/lastmile_qr_scan", "android": "https://dc.lft.to/lastmile_qr_scan"}, "is_reserved": 0}, {"lon": -77.0418085, "bike_id": "19edabff31a1d37b8732f1f2f6ed3737", "lat": 38.923078333333336, "fusion_lon": 0.0, "fusion_lat": 0.0, "type": "electric_scooter", "name": "19edabff31a1d37b8732f1f2f6ed3737", "is_disabled": 0, "rental_uris": {"ios": "https://dc.lft.to/lastmile_qr_scan", "android": "https://dc.lft.to/lastmile_qr_scan"}, "is_reserved": 0}, {"lon": -76.99883966666667, "bike_id": "14b65fe192baac6e853920c195899adb", "lat": 38.9205595, "fusion_lon": 0.0, "fusion_lat": 0.0, "type": "electric_scooter", "name": "14b65fe192baac6e853920c195899adb", "is_disabled": 0, "rental_uris": {"ios": "https://dc.lft.to/lastmile_qr_scan", "android": "https://dc.lft.to/lastmile_qr_scan"}, "is_reserved": 0}, {"lon": -77.01059166666667, "bike_id": "2d99f30312d81224e4178faf34c93108", "lat": 38.878660333333336, "fusion_lon": 0.0, "fusion_lat": 0.0, "type": "electric_scooter", "name": "2d99f30312d81224e4178faf34c93108", "is_disabled": 0, "rental_uris": {"ios": "https://dc.lft.to/lastmile_qr_scan", "android": "https://dc.lft.to/lastmile_qr_scan"}, "is_reserved": 0}, {"lon": -77.03290016666666, "bike_id": "0b0516a77aad86b3f46cb48f1d6c0ba3", "lat": 38.90091833333334, "fusion_lon": 0.0, "fusion_lat": 0.0, "type": "electric_scooter", "name": "0b0516a77aad86b3f46cb48f1d6c0ba3", "is_disabled": 0, "rental_uris": {"ios": "https://dc.lft.to/lastmile_qr_scan", "android": "https://dc.lft.to/lastmile_qr_scan"}, "is_reserved": 0}, {"lon": -77.015364, "bike_id": "33c6c82c764784a7281c2d6d83fc40b7", "lat": 38.88737733333333, "fusion_lon": 0.0, "fusion_lat": 0.0, "type": "electric_scooter", "name": "33c6c82c764784a7281c2d6d83fc40b7", "is_disabled": 0, "rental_uris": {"ios": "https://dc.lft.to/lastmile_qr_scan", "android": "https://dc.lft.to/lastmile_qr_scan"}, "is_reserved": 0}, {"lon": -76.97301133333333, "bike_id": "66eb091d661ded42aa19e68f6aa21562", "lat": 38.91643883333333, "fusion_lon": 0.0, "fusion_lat": 0.0, "type": "electric_scooter", "name": "66eb091d661ded42aa19e68f6aa21562", "is_disabled": 0, "rental_uris": {"ios": "https://dc.lft.to/lastmile_qr_scan", "android": "https://dc.lft.to/lastmile_qr_scan"}, "is_reserved": 0}, {"lon": -77.0056195, "bike_id": "8904f21c4a1f80f49aabd0d5010b5223", "lat": 38.90576333333333, "fusion_lon": 0.0, "fusion_lat": 0.0, "type": "electric_scooter", "name": "8904f21c4a1f80f49aabd0d5010b5223", "is_disabled": 0, "rental_uris": {"ios": "https://dc.lft.to/lastmile_qr_scan", "android": "https://dc.lft.to/lastmile_qr_scan"}, "is_reserved": 0}, {"lon": -76.9440615, "bike_id": "3751967d9dbb0dc668d6981e7d5c64ab", "lat": 38.88139833333334, "fusion_lon": 0.0, "fusion_lat": 0.0, "type": "electric_scooter", "name": "3751967d9dbb0dc668d6981e7d5c64ab", "is_disabled": 0, "rental_uris": {"ios": "https://dc.lft.to/lastmile_qr_scan", "android": "https://dc.lft.to/lastmile_qr_scan"}, "is_reserved": 0}, {"lon": -77.05049916666667, "bike_id": "d0d0c3cf91f3484aa7e9b9a74a0b15ca", "lat": 38.924110166666665, "fusion_lon": 0.0, "fusion_lat": 0.0, "type": "electric_bike", "name": "d0d0c3cf91f3484aa7e9b9a74a0b15ca", "is_disabled": 0, "rental_uris": {"ios": "https://dc.lft.to/lastmile_qr_scan", "android": "https://dc.lft.to/lastmile_qr_scan"}, "is_reserved": 0}, {"lon": -76.99077066666666, "bike_id": "bbc4865d5919275f147fbb91c4af9f3c", "lat": 38.898118333333336, "fusion_lon": 0.0, "fusion_lat": 0.0, "type": "electric_bike", "name": "bbc4865d5919275f147fbb91c4af9f3c", "is_disabled": 0, "rental_uris": {"ios": "https://dc.lft.to/lastmile_qr_scan", "android": "https://dc.lft.to/lastmile_qr_scan"}, "is_reserved": 0}, {"lon": -76.97244383333333, "bike_id": "5c0337993fe8f09f49323eb144530b5f", "lat": 38.903394166666665, "fusion_lon": 0.0, "fusion_lat": 0.0, "type": "electric_scooter", "name": "5c0337993fe8f09f49323eb144530b5f", "is_disabled": 0, "rental_uris": {"ios": "https://dc.lft.to/lastmile_qr_scan", "android": "https://dc.lft.to/lastmile_qr_scan"}, "is_reserved": 0}, {"lon": -76.983325, "bike_id": "4d85a3a128ec2b523ef25ebfb0552da6", "lat": 38.895455, "fusion_lon": 0.0, "fusion_lat": 0.0, "type": "electric_scooter", "name": "4d85a3a128ec2b523ef25ebfb0552da6", "is_disabled": 0, "rental_uris": {"ios": "https://dc.lft.to/lastmile_qr_scan", "android": "https://dc.lft.to/lastmile_qr_scan"}, "is_reserved": 0}, {"lon": -77.01994716666667, "bike_id": "d631d022c963aeead94bf2fa9a00b417", "lat": 38.886029666666666, "fusion_lon": 0.0, "fusion_lat": 0.0, "type": "electric_scooter", "name": "d631d022c963aeead94bf2fa9a00b417", "is_disabled": 0, "rental_uris": {"ios": "https://dc.lft.to/lastmile_qr_scan", "android": "https://dc.lft.to/lastmile_qr_scan"}, "is_reserved": 0}, {"lon": -76.997148, "bike_id": "c1f820ae4aae8531b655ba54cc0afc3a", "lat": 38.892536166666666, "fusion_lon": 0.0, "fusion_lat": 0.0, "type": "electric_scooter", "name": "c1f820ae4aae8531b655ba54cc0afc3a", "is_disabled": 0, "rental_uris": {"ios": "https://dc.lft.to/lastmile_qr_scan", "android": "https://dc.lft.to/lastmile_qr_scan"}, "is_reserved": 0}, {"lon": -77.039077, "bike_id": "f9e154315de986d1fabf27bcd5e7129f", "lat": 38.918438333333334, "fusion_lon": 0.0, "fusion_lat": 0.0, "type": "electric_scooter", "name": "f9e154315de986d1fabf27bcd5e7129f", "is_disabled": 0, "rental_uris": {"ios": "https://dc.lft.to/lastmile_qr_scan", "android": "https://dc.lft.to/lastmile_qr_scan"}, "is_reserved": 0}, {"lon": -77.018368, "bike_id": "4ae94203b2ec1b84fc27126cce0cb275", "lat": 38.909290666666664, "fusion_lon": 0.0, "fusion_lat": 0.0, "type": "electric_scooter", "name": "4ae94203b2ec1b84fc27126cce0cb275", "is_disabled": 0, "rental_uris": {"ios": "https://dc.lft.to/lastmile_qr_scan", "android": "https://dc.lft.to/lastmile_qr_scan"}, "is_reserved": 0}, {"lon": -77.01519816666666, "bike_id": "55307fead889fbc276fb8f2b61322f54", "lat": 38.91870083333333, "fusion_lon": 0.0, "fusion_lat": 0.0, "type": "electric_scooter", "name": "55307fead889fbc276fb8f2b61322f54", "is_disabled": 0, "rental_uris": {"ios": "https://dc.lft.to/lastmile_qr_scan", "android": "https://dc.lft.to/lastmile_qr_scan"}, "is_reserved": 0}, {"lon": -77.04862716666666, "bike_id": "82342f8ca0bd07a614485745a3da6e6f", "lat": 38.9060455, "fusion_lon": 0.0, "fusion_lat": 0.0, "type": "electric_scooter", "name": "82342f8ca0bd07a614485745a3da6e6f", "is_disabled": 0, "rental_uris": {"ios": "https://dc.lft.to/lastmile_qr_scan", "android": "https://dc.lft.to/lastmile_qr_scan"}, "is_reserved": 0}, {"lon": -77.01702, "bike_id": "f998df1d9be7fcce4bb7d0b8b328b84c", "lat": 38.90457983333334, "fusion_lon": 0.0, "fusion_lat": 0.0, "type": "electric_scooter", "name": "f998df1d9be7fcce4bb7d0b8b328b84c", "is_disabled": 0, "rental_uris": {"ios": "https://dc.lft.to/lastmile_qr_scan", "android": "https://dc.lft.to/lastmile_qr_scan"}, "is_reserved": 0}, {"lon": -77.0340175, "bike_id": "8da8f2346ee8deedd8df4cff38d86d37", "lat": 38.96030716666667, "fusion_lon": 0.0, "fusion_lat": 0.0, "type": "electric_bike", "name": "8da8f2346ee8deedd8df4cff38d86d37", "is_disabled": 0, "rental_uris": {"ios": "https://dc.lft.to/lastmile_qr_scan", "android": "https://dc.lft.to/lastmile_qr_scan"}, "is_reserved": 0}, {"lon": -77.02713383333334, "bike_id": "fd81f59be2b5c71527ecc6e6cf1c5474", "lat": 38.934713, "fusion_lon": 0.0, "fusion_lat": 0.0, "type": "electric_scooter", "name": "fd81f59be2b5c71527ecc6e6cf1c5474", "is_disabled": 0, "rental_uris": {"ios": "https://dc.lft.to/lastmile_qr_scan", "android": "https://dc.lft.to/lastmile_qr_scan"}, "is_reserved": 0}, {"lon": -77.0028005, "bike_id": "078fa9076700642dbe54be317227366d", "lat": 38.957118, "fusion_lon": 0.0, "fusion_lat": 0.0, "type": "electric_bike", "name": "078fa9076700642dbe54be317227366d", "is_disabled": 0, "rental_uris": {"ios": "https://dc.lft.to/lastmile_qr_scan", "android": "https://dc.lft.to/lastmile_qr_scan"}, "is_reserved": 0}, {"lon": -76.96583133333333, "bike_id": "e4f0eb06ba755aaa17072bb07ea4f705", "lat": 38.8712925, "fusion_lon": 0.0, "fusion_lat": 0.0, "type": "electric_scooter", "name": "e4f0eb06ba755aaa17072bb07ea4f705", "is_disabled": 0, "rental_uris": {"ios": "https://dc.lft.to/lastmile_qr_scan", "android": "https://dc.lft.to/lastmile_qr_scan"}, "is_reserved": 0}, {"lon": -77.0285585, "bike_id": "ba08951bd68ac5edac952434cb0199ae", "lat": 38.92760916666667, "fusion_lon": 0.0, "fusion_lat": 0.0, "type": "electric_scooter", "name": "ba08951bd68ac5edac952434cb0199ae", "is_disabled": 0, "rental_uris": {"ios": "https://dc.lft.to/lastmile_qr_scan", "android": "https://dc.lft.to/lastmile_qr_scan"}, "is_reserved": 0}, {"lon": -76.99607466666667, "bike_id": "59b669c79d621a4eaa1814144ce4d73f", "lat": 38.887161, "fusion_lon": 0.0, "fusion_lat": 0.0, "type": "electric_scooter", "name": "59b669c79d621a4eaa1814144ce4d73f", "is_disabled": 0, "rental_uris": {"ios": "https://dc.lft.to/lastmile_qr_scan", "android": "https://dc.lft.to/lastmile_qr_scan"}, "is_reserved": 0}, {"lon": -77.02478333333333, "bike_id": "1fc79185981d83a535e880468ec3ca97", "lat": 38.938508166666665, "fusion_lon": 0.0, "fusion_lat": 0.0, "type": "electric_scooter", "name": "1fc79185981d83a535e880468ec3ca97", "is_disabled": 0, "rental_uris": {"ios": "https://dc.lft.to/lastmile_qr_scan", "android": "https://dc.lft.to/lastmile_qr_scan"}, "is_reserved": 0}, {"lon": -76.99854683333334, "bike_id": "2807486a7ca5c9bdd7d7ae777aa61041", "lat": 38.84161433333333, "fusion_lon": 0.0, "fusion_lat": 0.0, "type": "electric_scooter", "name": "2807486a7ca5c9bdd7d7ae777aa61041", "is_disabled": 0, "rental_uris": {"ios": "https://dc.lft.to/lastmile_qr_scan", "android": "https://dc.lft.to/lastmile_qr_scan"}, "is_reserved": 0}, {"lon": -77.06432783333334, "bike_id": "5f7f7ac0bd7608a2a2fbcf7174291c18", "lat": 38.908890666666665, "fusion_lon": 0.0, "fusion_lat": 0.0, "type": "electric_scooter", "name": "5f7f7ac0bd7608a2a2fbcf7174291c18", "is_disabled": 0, "rental_uris": {"ios": "https://dc.lft.to/lastmile_qr_scan", "android": "https://dc.lft.to/lastmile_qr_scan"}, "is_reserved": 0}, {"lon": -77.0431985, "bike_id": "3f55f41fb5f258028141d159c8f3a821", "lat": 38.91877733333333, "fusion_lon": 0.0, "fusion_lat": 0.0, "type": "electric_scooter", "name": "3f55f41fb5f258028141d159c8f3a821", "is_disabled": 0, "rental_uris": {"ios": "https://dc.lft.to/lastmile_qr_scan", "android": "https://dc.lft.to/lastmile_qr_scan"}, "is_reserved": 0}, {"lon": -77.02259133333334, "bike_id": "ea49c39e994c1cf8029b6fc0633669c2", "lat": 38.9282455, "fusion_lon": 0.0, "fusion_lat": 0.0, "type": "electric_scooter", "name": "ea49c39e994c1cf8029b6fc0633669c2", "is_disabled": 0, "rental_uris": {"ios": "https://dc.lft.to/lastmile_qr_scan", "android": "https://dc.lft.to/lastmile_qr_scan"}, "is_reserved": 0}, {"lon": -77.05769216666667, "bike_id": "2470ab3b16f11c7e2542ff7672de2b55", "lat": 38.93617016666666, "fusion_lon": 0.0, "fusion_lat": 0.0, "type": "electric_scooter", "name": "2470ab3b16f11c7e2542ff7672de2b55", "is_disabled": 0, "rental_uris": {"ios": "https://dc.lft.to/lastmile_qr_scan", "android": "https://dc.lft.to/lastmile_qr_scan"}, "is_reserved": 0}, {"lon": -77.02385766666667, "bike_id": "f8e13543050c2097f998499f335629d8", "lat": 38.93410883333333, "fusion_lon": 0.0, "fusion_lat": 0.0, "type": "electric_scooter", "name": "f8e13543050c2097f998499f335629d8", "is_disabled": 0, "rental_uris": {"ios": "https://dc.lft.to/lastmile_qr_scan", "android": "https://dc.lft.to/lastmile_qr_scan"}, "is_reserved": 0}, {"lon": -77.12491833333333, "bike_id": "ce7cc9bc8439d599db7e54705682cc42", "lat": 38.827856833333335, "fusion_lon": 0.0, "fusion_lat": 0.0, "type": "electric_bike", "name": "ce7cc9bc8439d599db7e54705682cc42", "is_disabled": 0, "rental_uris": {"ios": "https://dc.lft.to/lastmile_qr_scan", "android": "https://dc.lft.to/lastmile_qr_scan"}, "is_reserved": 0}, {"lon": -76.99517516666667, "bike_id": "5deffd3e1b8688098ba3b107bf6a2860", "lat": 38.900260833333334, "fusion_lon": 0.0, "fusion_lat": 0.0, "type": "electric_scooter", "name": "5deffd3e1b8688098ba3b107bf6a2860", "is_disabled": 0, "rental_uris": {"ios": "https://dc.lft.to/lastmile_qr_scan", "android": "https://dc.lft.to/lastmile_qr_scan"}, "is_reserved": 0}, {"lon": -77.051786, "bike_id": "c9cb0c7f7debbd45c72de3d851f0122a", "lat": 38.924257833333336, "fusion_lon": 0.0, "fusion_lat": 0.0, "type": "electric_scooter", "name": "c9cb0c7f7debbd45c72de3d851f0122a", "is_disabled": 0, "rental_uris": {"ios": "https://dc.lft.to/lastmile_qr_scan", "android": "https://dc.lft.to/lastmile_qr_scan"}, "is_reserved": 0}, {"lon": -77.03415883333334, "bike_id": "ea3ac0a76395d0cdf4549023776d7493", "lat": 38.92742366666667, "fusion_lon": 0.0, "fusion_lat": 0.0, "type": "electric_scooter", "name": "ea3ac0a76395d0cdf4549023776d7493", "is_disabled": 0, "rental_uris": {"ios": "https://dc.lft.to/lastmile_qr_scan", "android": "https://dc.lft.to/lastmile_qr_scan"}, "is_reserved": 0}, {"lon": -76.9801645, "bike_id": "960dd58821432e2fa46039a84dd4d6fd", "lat": 38.90332166666666, "fusion_lon": 0.0, "fusion_lat": 0.0, "type": "electric_scooter", "name": "960dd58821432e2fa46039a84dd4d6fd", "is_disabled": 0, "rental_uris": {"ios": "https://dc.lft.to/lastmile_qr_scan", "android": "https://dc.lft.to/lastmile_qr_scan"}, "is_reserved": 0}, {"lon": -77.00369633333334, "bike_id": "036fcd34f374c834c117f6c687be3e10", "lat": 38.89732983333333, "fusion_lon": 0.0, "fusion_lat": 0.0, "type": "electric_scooter", "name": "036fcd34f374c834c117f6c687be3e10", "is_disabled": 0, "rental_uris": {"ios": "https://dc.lft.to/lastmile_qr_scan", "android": "https://dc.lft.to/lastmile_qr_scan"}, "is_reserved": 0}, {"lon": -77.05416666666666, "bike_id": "de51b10e71cd4adbc2bc7df8edc69904", "lat": 38.92839766666667, "fusion_lon": 0.0, "fusion_lat": 0.0, "type": "electric_scooter", "name": "de51b10e71cd4adbc2bc7df8edc69904", "is_disabled": 0, "rental_uris": {"ios": "https://dc.lft.to/lastmile_qr_scan", "android": "https://dc.lft.to/lastmile_qr_scan"}, "is_reserved": 0}, {"lon": -77.0192935, "bike_id": "21458058a2ea46244aed8c97eda3991e", "lat": 38.9221765, "fusion_lon": 0.0, "fusion_lat": 0.0, "type": "electric_scooter", "name": "21458058a2ea46244aed8c97eda3991e", "is_disabled": 0, "rental_uris": {"ios": "https://dc.lft.to/lastmile_qr_scan", "android": "https://dc.lft.to/lastmile_qr_scan"}, "is_reserved": 0}, {"lon": -77.13103516666666, "bike_id": "afdc4f3986eda1e334208f4dbe826982", "lat": 39.02432433333333, "fusion_lon": 0.0, "fusion_lat": 0.0, "type": "electric_bike", "name": "afdc4f3986eda1e334208f4dbe826982", "is_disabled": 0, "rental_uris": {"ios": "https://dc.lft.to/lastmile_qr_scan", "android": "https://dc.lft.to/lastmile_qr_scan"}, "is_reserved": 0}, {"lon": -77.02069666666667, "bike_id": "5f3b07b8ff7763634289290c73b15e14", "lat": 38.932608333333334, "fusion_lon": 0.0, "fusion_lat": 0.0, "type": "electric_bike", "name": "5f3b07b8ff7763634289290c73b15e14", "is_disabled": 0, "rental_uris": {"ios": "https://dc.lft.to/lastmile_qr_scan", "android": "https://dc.lft.to/lastmile_qr_scan"}, "is_reserved": 0}, {"lon": -77.034714, "bike_id": "0d84ea3f8caf486a3e8014dc314a70c9", "lat": 38.92152, "fusion_lon": 0.0, "fusion_lat": 0.0, "type": "electric_scooter", "name": "0d84ea3f8caf486a3e8014dc314a70c9", "is_disabled": 0, "rental_uris": {"ios": "https://dc.lft.to/lastmile_qr_scan", "android": "https://dc.lft.to/lastmile_qr_scan"}, "is_reserved": 0}, {"lon": -77.0034895, "bike_id": "1ae40a8a25f958ca69ab0b6ed68b9b8b", "lat": 38.88717366666667, "fusion_lon": 0.0, "fusion_lat": 0.0, "type": "electric_scooter", "name": "1ae40a8a25f958ca69ab0b6ed68b9b8b", "is_disabled": 0, "rental_uris": {"ios": "https://dc.lft.to/lastmile_qr_scan", "android": "https://dc.lft.to/lastmile_qr_scan"}, "is_reserved": 0}, {"lon": -77.05062983333333, "bike_id": "2524aab6e0920794abfd6fc05e886b2e", "lat": 38.90065416666667, "fusion_lon": 0.0, "fusion_lat": 0.0, "type": "electric_scooter", "name": "2524aab6e0920794abfd6fc05e886b2e", "is_disabled": 0, "rental_uris": {"ios": "https://dc.lft.to/lastmile_qr_scan", "android": "https://dc.lft.to/lastmile_qr_scan"}, "is_reserved": 0}, {"lon": -77.02954533333333, "bike_id": "756df21287ef3363ed4db5e5cf64a365", "lat": 38.90647883333333, "fusion_lon": 0.0, "fusion_lat": 0.0, "type": "electric_scooter", "name": "756df21287ef3363ed4db5e5cf64a365", "is_disabled": 0, "rental_uris": {"ios": "https://dc.lft.to/lastmile_qr_scan", "android": "https://dc.lft.to/lastmile_qr_scan"}, "is_reserved": 0}, {"lon": -77.03978183333334, "bike_id": "8ff8cbb582caebb1f4e37a4a38f59b5b", "lat": 38.911881666666666, "fusion_lon": 0.0, "fusion_lat": 0.0, "type": "electric_scooter", "name": "8ff8cbb582caebb1f4e37a4a38f59b5b", "is_disabled": 0, "rental_uris": {"ios": "https://dc.lft.to/lastmile_qr_scan", "android": "https://dc.lft.to/lastmile_qr_scan"}, "is_reserved": 0}, {"lon": -77.032909, "bike_id": "336abb2e79d1ec3c16fc2ea2bedfcada", "lat": 38.909762666666666, "fusion_lon": 0.0, "fusion_lat": 0.0, "type": "electric_scooter", "name": "336abb2e79d1ec3c16fc2ea2bedfcada", "is_disabled": 0, "rental_uris": {"ios": "https://dc.lft.to/lastmile_qr_scan", "android": "https://dc.lft.to/lastmile_qr_scan"}, "is_reserved": 0}, {"lon": -76.99517733333333, "bike_id": "fad8b68a2e7f1bf45cf5a3e2f8d9480a", "lat": 38.86260016666667, "fusion_lon": 0.0, "fusion_lat": 0.0, "type": "electric_scooter", "name": "fad8b68a2e7f1bf45cf5a3e2f8d9480a", "is_disabled": 0, "rental_uris": {"ios": "https://dc.lft.to/lastmile_qr_scan", "android": "https://dc.lft.to/lastmile_qr_scan"}, "is_reserved": 0}, {"lon": -77.03424666666666, "bike_id": "573d78aa392285ad926c12dfee96b790", "lat": 38.926365, "fusion_lon": 0.0, "fusion_lat": 0.0, "type": "electric_scooter", "name": "573d78aa392285ad926c12dfee96b790", "is_disabled": 0, "rental_uris": {"ios": "https://dc.lft.to/lastmile_qr_scan", "android": "https://dc.lft.to/lastmile_qr_scan"}, "is_reserved": 0}, {"lon": -77.05235566666667, "bike_id": "5c64cac61f0d5d9651eba470c289566f", "lat": 38.924588, "fusion_lon": 0.0, "fusion_lat": 0.0, "type": "electric_scooter", "name": "5c64cac61f0d5d9651eba470c289566f", "is_disabled": 0, "rental_uris": {"ios": "https://dc.lft.to/lastmile_qr_scan", "android": "https://dc.lft.to/lastmile_qr_scan"}, "is_reserved": 0}, {"lon": -77.03508866666667, "bike_id": "af3af2036c8dc0a31ca46f76132d82d4", "lat": 38.921502, "fusion_lon": 0.0, "fusion_lat": 0.0, "type": "electric_scooter", "name": "af3af2036c8dc0a31ca46f76132d82d4", "is_disabled": 0, "rental_uris": {"ios": "https://dc.lft.to/lastmile_qr_scan", "android": "https://dc.lft.to/lastmile_qr_scan"}, "is_reserved": 0}, {"lon": -77.06734133333333, "bike_id": "c3af812f44f5723420f336010745a6fc", "lat": 38.90359733333333, "fusion_lon": 0.0, "fusion_lat": 0.0, "type": "electric_bike", "name": "c3af812f44f5723420f336010745a6fc", "is_disabled": 0, "rental_uris": {"ios": "https://dc.lft.to/lastmile_qr_scan", "android": "https://dc.lft.to/lastmile_qr_scan"}, "is_reserved": 0}, {"lon": -77.02408583333333, "bike_id": "61f0b9dadf1fdb4c253e52296d12f2f7", "lat": 38.919663166666666, "fusion_lon": 0.0, "fusion_lat": 0.0, "type": "electric_scooter", "name": "61f0b9dadf1fdb4c253e52296d12f2f7", "is_disabled": 0, "rental_uris": {"ios": "https://dc.lft.to/lastmile_qr_scan", "android": "https://dc.lft.to/lastmile_qr_scan"}, "is_reserved": 0}, {"lon": -76.989886, "bike_id": "ac0b69d3902828d3df7b2d4c3e41fb72", "lat": 38.9336345, "fusion_lon": 0.0, "fusion_lat": 0.0, "type": "electric_scooter", "name": "ac0b69d3902828d3df7b2d4c3e41fb72", "is_disabled": 0, "rental_uris": {"ios": "https://dc.lft.to/lastmile_qr_scan", "android": "https://dc.lft.to/lastmile_qr_scan"}, "is_reserved": 0}, {"lon": -77.0215825, "bike_id": "948256a607c7ba23bbec0b2f54659c6a", "lat": 38.9507255, "fusion_lon": 0.0, "fusion_lat": 0.0, "type": "electric_scooter", "name": "948256a607c7ba23bbec0b2f54659c6a", "is_disabled": 0, "rental_uris": {"ios": "https://dc.lft.to/lastmile_qr_scan", "android": "https://dc.lft.to/lastmile_qr_scan"}, "is_reserved": 0}, {"lon": -77.00707016666667, "bike_id": "9ef2b5080987a0a536dbe54c51daa758", "lat": 38.89910583333333, "fusion_lon": 0.0, "fusion_lat": 0.0, "type": "electric_scooter", "name": "9ef2b5080987a0a536dbe54c51daa758", "is_disabled": 0, "rental_uris": {"ios": "https://dc.lft.to/lastmile_qr_scan", "android": "https://dc.lft.to/lastmile_qr_scan"}, "is_reserved": 0}, {"lon": -77.0588065, "bike_id": "9b38636906961f795f4a013a14d6ffb4", "lat": 38.862823166666665, "fusion_lon": 0.0, "fusion_lat": 0.0, "type": "electric_bike", "name": "9b38636906961f795f4a013a14d6ffb4", "is_disabled": 0, "rental_uris": {"ios": "https://dc.lft.to/lastmile_qr_scan", "android": "https://dc.lft.to/lastmile_qr_scan"}, "is_reserved": 0}, {"lon": -76.98016633333333, "bike_id": "0610bba3a02ac7e95177fe71f8370e24", "lat": 38.85314, "fusion_lon": 0.0, "fusion_lat": 0.0, "type": "electric_bike", "name": "0610bba3a02ac7e95177fe71f8370e24", "is_disabled": 0, "rental_uris": {"ios": "https://dc.lft.to/lastmile_qr_scan", "android": "https://dc.lft.to/lastmile_qr_scan"}, "is_reserved": 0}, {"lon": -77.02095566666667, "bike_id": "e2b11ddd7f99fad17c96d73411a3ab4b", "lat": 38.92714983333333, "fusion_lon": 0.0, "fusion_lat": 0.0, "type": "electric_scooter", "name": "e2b11ddd7f99fad17c96d73411a3ab4b", "is_disabled": 0, "rental_uris": {"ios": "https://dc.lft.to/lastmile_qr_scan", "android": "https://dc.lft.to/lastmile_qr_scan"}, "is_reserved": 0}, {"lon": -77.03652733333334, "bike_id": "8bb038832fbe2cce234ba9d21173b7fa", "lat": 38.936229833333336, "fusion_lon": 0.0, "fusion_lat": 0.0, "type": "electric_bike", "name": "8bb038832fbe2cce234ba9d21173b7fa", "is_disabled": 0, "rental_uris": {"ios": "https://dc.lft.to/lastmile_qr_scan", "android": "https://dc.lft.to/lastmile_qr_scan"}, "is_reserved": 0}, {"lon": -77.0323535, "bike_id": "2ed604d006656602a779f3be2e686ff2", "lat": 38.905466, "fusion_lon": 0.0, "fusion_lat": 0.0, "type": "electric_scooter", "name": "2ed604d006656602a779f3be2e686ff2", "is_disabled": 0, "rental_uris": {"ios": "https://dc.lft.to/lastmile_qr_scan", "android": "https://dc.lft.to/lastmile_qr_scan"}, "is_reserved": 0}, {"lon": -77.020099, "bike_id": "8873d5b3ee4d993faa5756e351ef7b8b", "lat": 38.92408783333333, "fusion_lon": 0.0, "fusion_lat": 0.0, "type": "electric_scooter", "name": "8873d5b3ee4d993faa5756e351ef7b8b", "is_disabled": 0, "rental_uris": {"ios": "https://dc.lft.to/lastmile_qr_scan", "android": "https://dc.lft.to/lastmile_qr_scan"}, "is_reserved": 0}, {"lon": -77.01767483333333, "bike_id": "39d7e6a06200297896c5aea7cee5edd1", "lat": 38.92109516666667, "fusion_lon": 0.0, "fusion_lat": 0.0, "type": "electric_scooter", "name": "39d7e6a06200297896c5aea7cee5edd1", "is_disabled": 0, "rental_uris": {"ios": "https://dc.lft.to/lastmile_qr_scan", "android": "https://dc.lft.to/lastmile_qr_scan"}, "is_reserved": 0}, {"lon": -77.02378466666667, "bike_id": "d0154ba172071dfad19050cf1d802f63", "lat": 38.90214233333333, "fusion_lon": 0.0, "fusion_lat": 0.0, "type": "electric_scooter", "name": "d0154ba172071dfad19050cf1d802f63", "is_disabled": 0, "rental_uris": {"ios": "https://dc.lft.to/lastmile_qr_scan", "android": "https://dc.lft.to/lastmile_qr_scan"}, "is_reserved": 0}, {"lon": -77.02155333333333, "bike_id": "dd14d3bc58dbd9c97e40f4f635078f55", "lat": 38.929973833333335, "fusion_lon": 0.0, "fusion_lat": 0.0, "type": "electric_scooter", "name": "dd14d3bc58dbd9c97e40f4f635078f55", "is_disabled": 0, "rental_uris": {"ios": "https://dc.lft.to/lastmile_qr_scan", "android": "https://dc.lft.to/lastmile_qr_scan"}, "is_reserved": 0}, {"lon": -77.05296883333334, "bike_id": "5827b97ea0db9b550b61f2eaa85b2182", "lat": 38.898857666666665, "fusion_lon": 0.0, "fusion_lat": 0.0, "type": "electric_scooter", "name": "5827b97ea0db9b550b61f2eaa85b2182", "is_disabled": 0, "rental_uris": {"ios": "https://dc.lft.to/lastmile_qr_scan", "android": "https://dc.lft.to/lastmile_qr_scan"}, "is_reserved": 0}, {"lon": -77.00575483333333, "bike_id": "a480372cb65273901e2523fb325c96d5", "lat": 38.87664916666667, "fusion_lon": 0.0, "fusion_lat": 0.0, "type": "electric_scooter", "name": "a480372cb65273901e2523fb325c96d5", "is_disabled": 0, "rental_uris": {"ios": "https://dc.lft.to/lastmile_qr_scan", "android": "https://dc.lft.to/lastmile_qr_scan"}, "is_reserved": 0}, {"lon": -76.94729016666666, "bike_id": "676a5449d68aafbcc89dd4faa9c550ad", "lat": 38.8973545, "fusion_lon": 0.0, "fusion_lat": 0.0, "type": "electric_scooter", "name": "676a5449d68aafbcc89dd4faa9c550ad", "is_disabled": 0, "rental_uris": {"ios": "https://dc.lft.to/lastmile_qr_scan", "android": "https://dc.lft.to/lastmile_qr_scan"}, "is_reserved": 0}, {"lon": -77.0162195, "bike_id": "0d7077b89b642ed05c210203d1bf2403", "lat": 38.965733166666666, "fusion_lon": 0.0, "fusion_lat": 0.0, "type": "electric_scooter", "name": "0d7077b89b642ed05c210203d1bf2403", "is_disabled": 0, "rental_uris": {"ios": "https://dc.lft.to/lastmile_qr_scan", "android": "https://dc.lft.to/lastmile_qr_scan"}, "is_reserved": 0}, {"lon": -77.032883, "bike_id": "be3e2e7c6bfc4c8f3b79fd19e674c735", "lat": 38.93976766666667, "fusion_lon": 0.0, "fusion_lat": 0.0, "type": "electric_scooter", "name": "be3e2e7c6bfc4c8f3b79fd19e674c735", "is_disabled": 0, "rental_uris": {"ios": "https://dc.lft.to/lastmile_qr_scan", "android": "https://dc.lft.to/lastmile_qr_scan"}, "is_reserved": 0}, {"lon": -76.97702883333334, "bike_id": "6ba326247db10745bbcbd6a0b550a078", "lat": 38.94911233333333, "fusion_lon": 0.0, "fusion_lat": 0.0, "type": "electric_bike", "name": "6ba326247db10745bbcbd6a0b550a078", "is_disabled": 0, "rental_uris": {"ios": "https://dc.lft.to/lastmile_qr_scan", "android": "https://dc.lft.to/lastmile_qr_scan"}, "is_reserved": 0}, {"lon": -77.02009166666667, "bike_id": "a4764ef49d37d843bdc2d8d92a4f3ef1", "lat": 38.924081, "fusion_lon": 0.0, "fusion_lat": 0.0, "type": "electric_scooter", "name": "a4764ef49d37d843bdc2d8d92a4f3ef1", "is_disabled": 0, "rental_uris": {"ios": "https://dc.lft.to/lastmile_qr_scan", "android": "https://dc.lft.to/lastmile_qr_scan"}, "is_reserved": 0}, {"lon": -77.03559416666667, "bike_id": "271e9066c3022ab619ed679be7fcfdac", "lat": 38.92739683333333, "fusion_lon": 0.0, "fusion_lat": 0.0, "type": "electric_scooter", "name": "271e9066c3022ab619ed679be7fcfdac", "is_disabled": 0, "rental_uris": {"ios": "https://dc.lft.to/lastmile_qr_scan", "android": "https://dc.lft.to/lastmile_qr_scan"}, "is_reserved": 0}, {"lon": -77.03276516666666, "bike_id": "09ad8ba7fb933e868ebd4645e837076e", "lat": 38.93198983333333, "fusion_lon": 0.0, "fusion_lat": 0.0, "type": "electric_scooter", "name": "09ad8ba7fb933e868ebd4645e837076e", "is_disabled": 0, "rental_uris": {"ios": "https://dc.lft.to/lastmile_qr_scan", "android": "https://dc.lft.to/lastmile_qr_scan"}, "is_reserved": 0}, {"lon": -77.00545083333333, "bike_id": "65124146662d2729176aa0131071fbed", "lat": 38.912636, "fusion_lon": 0.0, "fusion_lat": 0.0, "type": "electric_scooter", "name": "65124146662d2729176aa0131071fbed", "is_disabled": 0, "rental_uris": {"ios": "https://dc.lft.to/lastmile_qr_scan", "android": "https://dc.lft.to/lastmile_qr_scan"}, "is_reserved": 0}, {"lon": -77.3609225, "bike_id": "0e11a7120245561901c053fe04b52a4d", "lat": 38.93955066666667, "fusion_lon": 0.0, "fusion_lat": 0.0, "type": "electric_bike", "name": "0e11a7120245561901c053fe04b52a4d", "is_disabled": 0, "rental_uris": {"ios": "https://dc.lft.to/lastmile_qr_scan", "android": "https://dc.lft.to/lastmile_qr_scan"}, "is_reserved": 0}, {"lon": -77.01206116666667, "bike_id": "4f9098c3ffe9c874af9b58536797614e", "lat": 38.88552, "fusion_lon": 0.0, "fusion_lat": 0.0, "type": "electric_scooter", "name": "4f9098c3ffe9c874af9b58536797614e", "is_disabled": 0, "rental_uris": {"ios": "https://dc.lft.to/lastmile_qr_scan", "android": "https://dc.lft.to/lastmile_qr_scan"}, "is_reserved": 0}, {"lon": -76.904893, "bike_id": "3116b187037e37b727927d98e0ba206c", "lat": 39.002866, "fusion_lon": 0.0, "fusion_lat": 0.0, "type": "electric_bike", "name": "3116b187037e37b727927d98e0ba206c", "is_disabled": 0, "rental_uris": {"ios": "https://dc.lft.to/lastmile_qr_scan", "android": "https://dc.lft.to/lastmile_qr_scan"}, "is_reserved": 0}, {"lon": -76.96061116666667, "bike_id": "910e64a66aecf0bc3f9292c9299317b9", "lat": 38.88406466666667, "fusion_lon": 0.0, "fusion_lat": 0.0, "type": "electric_bike", "name": "910e64a66aecf0bc3f9292c9299317b9", "is_disabled": 0, "rental_uris": {"ios": "https://dc.lft.to/lastmile_qr_scan", "android": "https://dc.lft.to/lastmile_qr_scan"}, "is_reserved": 0}, {"lon": -76.98713183333334, "bike_id": "b58d9aad8a30cec48561ed9ba454b8a6", "lat": 38.866248, "fusion_lon": 0.0, "fusion_lat": 0.0, "type": "electric_scooter", "name": "b58d9aad8a30cec48561ed9ba454b8a6", "is_disabled": 0, "rental_uris": {"ios": "https://dc.lft.to/lastmile_qr_scan", "android": "https://dc.lft.to/lastmile_qr_scan"}, "is_reserved": 0}, {"lon": -77.00216183333333, "bike_id": "8b33c5861dc3301bc5b9697cc3f97daf", "lat": 38.900414166666664, "fusion_lon": 0.0, "fusion_lat": 0.0, "type": "electric_scooter", "name": "8b33c5861dc3301bc5b9697cc3f97daf", "is_disabled": 0, "rental_uris": {"ios": "https://dc.lft.to/lastmile_qr_scan", "android": "https://dc.lft.to/lastmile_qr_scan"}, "is_reserved": 0}, {"lon": -77.0344895, "bike_id": "150fc9ff6f353765bfd03d03948f7bac", "lat": 38.9100205, "fusion_lon": 0.0, "fusion_lat": 0.0, "type": "electric_scooter", "name": "150fc9ff6f353765bfd03d03948f7bac", "is_disabled": 0, "rental_uris": {"ios": "https://dc.lft.to/lastmile_qr_scan", "android": "https://dc.lft.to/lastmile_qr_scan"}, "is_reserved": 0}, {"lon": -77.011351, "bike_id": "50d37a4828a139606f9d84ebca13f448", "lat": 38.90725833333333, "fusion_lon": 0.0, "fusion_lat": 0.0, "type": "electric_scooter", "name": "50d37a4828a139606f9d84ebca13f448", "is_disabled": 0, "rental_uris": {"ios": "https://dc.lft.to/lastmile_qr_scan", "android": "https://dc.lft.to/lastmile_qr_scan"}, "is_reserved": 0}, {"lon": -76.98888283333334, "bike_id": "046e71984564d79bd8e340905d21c1e5", "lat": 38.866524166666665, "fusion_lon": 0.0, "fusion_lat": 0.0, "type": "electric_scooter", "name": "046e71984564d79bd8e340905d21c1e5", "is_disabled": 0, "rental_uris": {"ios": "https://dc.lft.to/lastmile_qr_scan", "android": "https://dc.lft.to/lastmile_qr_scan"}, "is_reserved": 0}, {"lon": -77.02165883333333, "bike_id": "c503287d4108adaf5baf9b8735a75a9b", "lat": 38.9224, "fusion_lon": 0.0, "fusion_lat": 0.0, "type": "electric_scooter", "name": "c503287d4108adaf5baf9b8735a75a9b", "is_disabled": 0, "rental_uris": {"ios": "https://dc.lft.to/lastmile_qr_scan", "android": "https://dc.lft.to/lastmile_qr_scan"}, "is_reserved": 0}, {"lon": -76.92772116666667, "bike_id": "1179842dd4b8198530c4ca9c704dee41", "lat": 38.900868, "fusion_lon": 0.0, "fusion_lat": 0.0, "type": "electric_scooter", "name": "1179842dd4b8198530c4ca9c704dee41", "is_disabled": 0, "rental_uris": {"ios": "https://dc.lft.to/lastmile_qr_scan", "android": "https://dc.lft.to/lastmile_qr_scan"}, "is_reserved": 0}, {"lon": -77.05492633333333, "bike_id": "2709c0063aed2a0805faf5b66d6dbe37", "lat": 38.9084115, "fusion_lon": 0.0, "fusion_lat": 0.0, "type": "electric_scooter", "name": "2709c0063aed2a0805faf5b66d6dbe37", "is_disabled": 0, "rental_uris": {"ios": "https://dc.lft.to/lastmile_qr_scan", "android": "https://dc.lft.to/lastmile_qr_scan"}, "is_reserved": 0}, {"lon": -77.05195133333334, "bike_id": "0ab183457dce240b0ae87decd2f6e84b", "lat": 38.924502833333335, "fusion_lon": 0.0, "fusion_lat": 0.0, "type": "electric_scooter", "name": "0ab183457dce240b0ae87decd2f6e84b", "is_disabled": 0, "rental_uris": {"ios": "https://dc.lft.to/lastmile_qr_scan", "android": "https://dc.lft.to/lastmile_qr_scan"}, "is_reserved": 0}, {"lon": -76.98312233333333, "bike_id": "0ed9dab57b0f8a10338254d98a5490e6", "lat": 38.86880083333333, "fusion_lon": 0.0, "fusion_lat": 0.0, "type": "electric_scooter", "name": "0ed9dab57b0f8a10338254d98a5490e6", "is_disabled": 0, "rental_uris": {"ios": "https://dc.lft.to/lastmile_qr_scan", "android": "https://dc.lft.to/lastmile_qr_scan"}, "is_reserved": 0}, {"lon": -77.0237675, "bike_id": "a0c5070ba1d2710ecc7728b7ae023c80", "lat": 38.90232483333333, "fusion_lon": 0.0, "fusion_lat": 0.0, "type": "electric_scooter", "name": "a0c5070ba1d2710ecc7728b7ae023c80", "is_disabled": 0, "rental_uris": {"ios": "https://dc.lft.to/lastmile_qr_scan", "android": "https://dc.lft.to/lastmile_qr_scan"}, "is_reserved": 0}, {"lon": -76.9836415, "bike_id": "319b4f9056bc6fc8eb96bebdb05b00cd", "lat": 38.861092666666664, "fusion_lon": 0.0, "fusion_lat": 0.0, "type": "electric_scooter", "name": "319b4f9056bc6fc8eb96bebdb05b00cd", "is_disabled": 0, "rental_uris": {"ios": "https://dc.lft.to/lastmile_qr_scan", "android": "https://dc.lft.to/lastmile_qr_scan"}, "is_reserved": 0}, {"lon": -77.03760316666667, "bike_id": "e437f72939f2cd36e97019c5fd267416", "lat": 38.9078015, "fusion_lon": 0.0, "fusion_lat": 0.0, "type": "electric_scooter", "name": "e437f72939f2cd36e97019c5fd267416", "is_disabled": 0, "rental_uris": {"ios": "https://dc.lft.to/lastmile_qr_scan", "android": "https://dc.lft.to/lastmile_qr_scan"}, "is_reserved": 0}, {"lon": -77.045719, "bike_id": "e5dcd23c85906cedf3f761d3aa9c3416", "lat": 38.91354283333333, "fusion_lon": 0.0, "fusion_lat": 0.0, "type": "electric_scooter", "name": "e5dcd23c85906cedf3f761d3aa9c3416", "is_disabled": 0, "rental_uris": {"ios": "https://dc.lft.to/lastmile_qr_scan", "android": "https://dc.lft.to/lastmile_qr_scan"}, "is_reserved": 0}, {"lon": -77.02943383333333, "bike_id": "1a754489ecd6df3d237669c1cf733841", "lat": 38.905086, "fusion_lon": 0.0, "fusion_lat": 0.0, "type": "electric_scooter", "name": "1a754489ecd6df3d237669c1cf733841", "is_disabled": 0, "rental_uris": {"ios": "https://dc.lft.to/lastmile_qr_scan", "android": "https://dc.lft.to/lastmile_qr_scan"}, "is_reserved": 0}, {"lon": -77.03881416666667, "bike_id": "00a0a460b1a2a49eebf4808de9dd3687", "lat": 38.91118016666667, "fusion_lon": 0.0, "fusion_lat": 0.0, "type": "electric_scooter", "name": "00a0a460b1a2a49eebf4808de9dd3687", "is_disabled": 0, "rental_uris": {"ios": "https://dc.lft.to/lastmile_qr_scan", "android": "https://dc.lft.to/lastmile_qr_scan"}, "is_reserved": 0}, {"lon": -77.01607433333334, "bike_id": "9c95be6d83b388e027d043fad3c6a295", "lat": 38.910639, "fusion_lon": 0.0, "fusion_lat": 0.0, "type": "electric_scooter", "name": "9c95be6d83b388e027d043fad3c6a295", "is_disabled": 0, "rental_uris": {"ios": "https://dc.lft.to/lastmile_qr_scan", "android": "https://dc.lft.to/lastmile_qr_scan"}, "is_reserved": 0}, {"lon": -77.02487616666667, "bike_id": "7cfa24235b6e6f2ae14248bc4d06dd59", "lat": 38.931026333333335, "fusion_lon": 0.0, "fusion_lat": 0.0, "type": "electric_scooter", "name": "7cfa24235b6e6f2ae14248bc4d06dd59", "is_disabled": 0, "rental_uris": {"ios": "https://dc.lft.to/lastmile_qr_scan", "android": "https://dc.lft.to/lastmile_qr_scan"}, "is_reserved": 0}, {"lon": -77.00816616666667, "bike_id": "d24a3aca7c6b12520df914afa30f99e8", "lat": 38.9169475, "fusion_lon": 0.0, "fusion_lat": 0.0, "type": "electric_scooter", "name": "d24a3aca7c6b12520df914afa30f99e8", "is_disabled": 0, "rental_uris": {"ios": "https://dc.lft.to/lastmile_qr_scan", "android": "https://dc.lft.to/lastmile_qr_scan"}, "is_reserved": 0}, {"lon": -76.99568633333334, "bike_id": "31cda62398caae01dad2848dbddb7247", "lat": 38.851806, "fusion_lon": 0.0, "fusion_lat": 0.0, "type": "electric_bike", "name": "31cda62398caae01dad2848dbddb7247", "is_disabled": 0, "rental_uris": {"ios": "https://dc.lft.to/lastmile_qr_scan", "android": "https://dc.lft.to/lastmile_qr_scan"}, "is_reserved": 0}, {"lon": -76.93175366666667, "bike_id": "a87d720df65ccabefd66c85caeb623b7", "lat": 38.898827, "fusion_lon": 0.0, "fusion_lat": 0.0, "type": "electric_scooter", "name": "a87d720df65ccabefd66c85caeb623b7", "is_disabled": 0, "rental_uris": {"ios": "https://dc.lft.to/lastmile_qr_scan", "android": "https://dc.lft.to/lastmile_qr_scan"}, "is_reserved": 0}, {"lon": -77.03600166666666, "bike_id": "c920707b88962d6d356bd7bcf00c43b5", "lat": 38.909551666666665, "fusion_lon": 0.0, "fusion_lat": 0.0, "type": "electric_scooter", "name": "c920707b88962d6d356bd7bcf00c43b5", "is_disabled": 0, "rental_uris": {"ios": "https://dc.lft.to/lastmile_qr_scan", "android": "https://dc.lft.to/lastmile_qr_scan"}, "is_reserved": 0}, {"lon": -76.933674, "bike_id": "2eca0efa521b9bab03e710615726b4b0", "lat": 38.899132, "fusion_lon": 0.0, "fusion_lat": 0.0, "type": "electric_scooter", "name": "2eca0efa521b9bab03e710615726b4b0", "is_disabled": 0, "rental_uris": {"ios": "https://dc.lft.to/lastmile_qr_scan", "android": "https://dc.lft.to/lastmile_qr_scan"}, "is_reserved": 0}, {"lon": -77.04103816666667, "bike_id": "580ea5acb4df9f23d7ceee2e2c2b1265", "lat": 38.920171833333335, "fusion_lon": 0.0, "fusion_lat": 0.0, "type": "electric_scooter", "name": "580ea5acb4df9f23d7ceee2e2c2b1265", "is_disabled": 0, "rental_uris": {"ios": "https://dc.lft.to/lastmile_qr_scan", "android": "https://dc.lft.to/lastmile_qr_scan"}, "is_reserved": 0}, {"lon": -76.99746916666666, "bike_id": "e83c78db9efe35c7efed1a4d758b9d00", "lat": 38.90041166666666, "fusion_lon": 0.0, "fusion_lat": 0.0, "type": "electric_scooter", "name": "e83c78db9efe35c7efed1a4d758b9d00", "is_disabled": 0, "rental_uris": {"ios": "https://dc.lft.to/lastmile_qr_scan", "android": "https://dc.lft.to/lastmile_qr_scan"}, "is_reserved": 0}, {"lon": -76.951931, "bike_id": "6b58e1b5467621c3ac5c1eb25676deee", "lat": 38.90003166666666, "fusion_lon": 0.0, "fusion_lat": 0.0, "type": "electric_scooter", "name": "6b58e1b5467621c3ac5c1eb25676deee", "is_disabled": 0, "rental_uris": {"ios": "https://dc.lft.to/lastmile_qr_scan", "android": "https://dc.lft.to/lastmile_qr_scan"}, "is_reserved": 0}, {"lon": -77.0158205, "bike_id": "ec391670c8db43a70624728b084f4084", "lat": 38.894664, "fusion_lon": 0.0, "fusion_lat": 0.0, "type": "electric_scooter", "name": "ec391670c8db43a70624728b084f4084", "is_disabled": 0, "rental_uris": {"ios": "https://dc.lft.to/lastmile_qr_scan", "android": "https://dc.lft.to/lastmile_qr_scan"}, "is_reserved": 0}, {"lon": -76.9961335, "bike_id": "e37c9852dcbbca5e498115f7fcf917b7", "lat": 38.88313183333333, "fusion_lon": 0.0, "fusion_lat": 0.0, "type": "electric_scooter", "name": "e37c9852dcbbca5e498115f7fcf917b7", "is_disabled": 0, "rental_uris": {"ios": "https://dc.lft.to/lastmile_qr_scan", "android": "https://dc.lft.to/lastmile_qr_scan"}, "is_reserved": 0}, {"lon": -76.99739583333333, "bike_id": "09005fb0b619ebee1fceb8169fe5dae0", "lat": 38.909645166666664, "fusion_lon": 0.0, "fusion_lat": 0.0, "type": "electric_scooter", "name": "09005fb0b619ebee1fceb8169fe5dae0", "is_disabled": 0, "rental_uris": {"ios": "https://dc.lft.to/lastmile_qr_scan", "android": "https://dc.lft.to/lastmile_qr_scan"}, "is_reserved": 0}, {"lon": -77.04500366666667, "bike_id": "eebccd94da156b902e4b976753773461", "lat": 38.9193515, "fusion_lon": 0.0, "fusion_lat": 0.0, "type": "electric_scooter", "name": "eebccd94da156b902e4b976753773461", "is_disabled": 0, "rental_uris": {"ios": "https://dc.lft.to/lastmile_qr_scan", "android": "https://dc.lft.to/lastmile_qr_scan"}, "is_reserved": 0}, {"lon": -77.04454416666667, "bike_id": "6cf0cad22406d350b900880a308358f5", "lat": 38.9193905, "fusion_lon": 0.0, "fusion_lat": 0.0, "type": "electric_scooter", "name": "6cf0cad22406d350b900880a308358f5", "is_disabled": 0, "rental_uris": {"ios": "https://dc.lft.to/lastmile_qr_scan", "android": "https://dc.lft.to/lastmile_qr_scan"}, "is_reserved": 0}, {"lon": -77.0334905, "bike_id": "d3608456b7cafa2bb62248389c6555ea", "lat": 38.94713866666667, "fusion_lon": 0.0, "fusion_lat": 0.0, "type": "electric_scooter", "name": "d3608456b7cafa2bb62248389c6555ea", "is_disabled": 0, "rental_uris": {"ios": "https://dc.lft.to/lastmile_qr_scan", "android": "https://dc.lft.to/lastmile_qr_scan"}, "is_reserved": 0}, {"lon": -76.9500595, "bike_id": "c6159ebdb2d0941fb9973dccc17521dd", "lat": 38.89379016666667, "fusion_lon": 0.0, "fusion_lat": 0.0, "type": "electric_scooter", "name": "c6159ebdb2d0941fb9973dccc17521dd", "is_disabled": 0, "rental_uris": {"ios": "https://dc.lft.to/lastmile_qr_scan", "android": "https://dc.lft.to/lastmile_qr_scan"}, "is_reserved": 0}, {"lon": -77.07714966666667, "bike_id": "555f7e4399e5acc89be6f482edc66aa9", "lat": 38.92521516666667, "fusion_lon": 0.0, "fusion_lat": 0.0, "type": "electric_scooter", "name": "555f7e4399e5acc89be6f482edc66aa9", "is_disabled": 0, "rental_uris": {"ios": "https://dc.lft.to/lastmile_qr_scan", "android": "https://dc.lft.to/lastmile_qr_scan"}, "is_reserved": 0}, {"lon": -77.0109985, "bike_id": "5a457710be44bada0d29c294fdb36bed", "lat": 38.908456666666666, "fusion_lon": 0.0, "fusion_lat": 0.0, "type": "electric_scooter", "name": "5a457710be44bada0d29c294fdb36bed", "is_disabled": 0, "rental_uris": {"ios": "https://dc.lft.to/lastmile_qr_scan", "android": "https://dc.lft.to/lastmile_qr_scan"}, "is_reserved": 0}, {"lon": -77.0326455, "bike_id": "bc1461237514226a8e2af12612c52a5f", "lat": 38.9377415, "fusion_lon": 0.0, "fusion_lat": 0.0, "type": "electric_scooter", "name": "bc1461237514226a8e2af12612c52a5f", "is_disabled": 0, "rental_uris": {"ios": "https://dc.lft.to/lastmile_qr_scan", "android": "https://dc.lft.to/lastmile_qr_scan"}, "is_reserved": 0}, {"lon": -77.014433, "bike_id": "09a90966b22ed9bf5a4d0a3219616c34", "lat": 38.905387, "fusion_lon": 0.0, "fusion_lat": 0.0, "type": "electric_scooter", "name": "09a90966b22ed9bf5a4d0a3219616c34", "is_disabled": 0, "rental_uris": {"ios": "https://dc.lft.to/lastmile_qr_scan", "android": "https://dc.lft.to/lastmile_qr_scan"}, "is_reserved": 0}, {"lon": -77.032555, "bike_id": "7b0807c8ba09bd1a979049aa8f69ce0e", "lat": 38.93130283333333, "fusion_lon": 0.0, "fusion_lat": 0.0, "type": "electric_scooter", "name": "7b0807c8ba09bd1a979049aa8f69ce0e", "is_disabled": 0, "rental_uris": {"ios": "https://dc.lft.to/lastmile_qr_scan", "android": "https://dc.lft.to/lastmile_qr_scan"}, "is_reserved": 0}, {"lon": -77.02087433333334, "bike_id": "2bf29dfe039584b3c9b3f7f2357e5246", "lat": 38.9291275, "fusion_lon": 0.0, "fusion_lat": 0.0, "type": "electric_scooter", "name": "2bf29dfe039584b3c9b3f7f2357e5246", "is_disabled": 0, "rental_uris": {"ios": "https://dc.lft.to/lastmile_qr_scan", "android": "https://dc.lft.to/lastmile_qr_scan"}, "is_reserved": 0}, {"lon": -76.97863933333333, "bike_id": "de247e59a0c4c1ef64dce2ece9e30a24", "lat": 38.9072305, "fusion_lon": 0.0, "fusion_lat": 0.0, "type": "electric_scooter", "name": "de247e59a0c4c1ef64dce2ece9e30a24", "is_disabled": 0, "rental_uris": {"ios": "https://dc.lft.to/lastmile_qr_scan", "android": "https://dc.lft.to/lastmile_qr_scan"}, "is_reserved": 0}, {"lon": -76.97562233333333, "bike_id": "a69bc8c43b24f709951b4e181b53475e", "lat": 38.92455133333333, "fusion_lon": 0.0, "fusion_lat": 0.0, "type": "electric_bike", "name": "a69bc8c43b24f709951b4e181b53475e", "is_disabled": 0, "rental_uris": {"ios": "https://dc.lft.to/lastmile_qr_scan", "android": "https://dc.lft.to/lastmile_qr_scan"}, "is_reserved": 0}, {"lon": -76.9975765, "bike_id": "9f2d328874cd78670f4a86fba16afdf5", "lat": 38.95007583333334, "fusion_lon": 0.0, "fusion_lat": 0.0, "type": "electric_bike", "name": "9f2d328874cd78670f4a86fba16afdf5", "is_disabled": 0, "rental_uris": {"ios": "https://dc.lft.to/lastmile_qr_scan", "android": "https://dc.lft.to/lastmile_qr_scan"}, "is_reserved": 0}, {"lon": -77.00402466666667, "bike_id": "3608e00f64903106b74e6a53b950a4e7", "lat": 38.92133483333333, "fusion_lon": 0.0, "fusion_lat": 0.0, "type": "electric_scooter", "name": "3608e00f64903106b74e6a53b950a4e7", "is_disabled": 0, "rental_uris": {"ios": "https://dc.lft.to/lastmile_qr_scan", "android": "https://dc.lft.to/lastmile_qr_scan"}, "is_reserved": 0}, {"lon": -77.02327483333333, "bike_id": "94e2e4851422128431e508e76b97e827", "lat": 38.93527733333333, "fusion_lon": 0.0, "fusion_lat": 0.0, "type": "electric_scooter", "name": "94e2e4851422128431e508e76b97e827", "is_disabled": 0, "rental_uris": {"ios": "https://dc.lft.to/lastmile_qr_scan", "android": "https://dc.lft.to/lastmile_qr_scan"}, "is_reserved": 0}, {"lon": -77.01546233333333, "bike_id": "e91f37e54940928f4277cedd3ebda3ae", "lat": 38.88320433333333, "fusion_lon": 0.0, "fusion_lat": 0.0, "type": "electric_scooter", "name": "e91f37e54940928f4277cedd3ebda3ae", "is_disabled": 0, "rental_uris": {"ios": "https://dc.lft.to/lastmile_qr_scan", "android": "https://dc.lft.to/lastmile_qr_scan"}, "is_reserved": 0}, {"lon": -77.01482416666667, "bike_id": "16e547fedc228deb373b3cc677b758a0", "lat": 38.958660333333334, "fusion_lon": 0.0, "fusion_lat": 0.0, "type": "electric_scooter", "name": "16e547fedc228deb373b3cc677b758a0", "is_disabled": 0, "rental_uris": {"ios": "https://dc.lft.to/lastmile_qr_scan", "android": "https://dc.lft.to/lastmile_qr_scan"}, "is_reserved": 0}, {"lon": -77.0364645, "bike_id": "2f8659b843ea7b23c077f67d587ab9cb", "lat": 38.918225, "fusion_lon": 0.0, "fusion_lat": 0.0, "type": "electric_scooter", "name": "2f8659b843ea7b23c077f67d587ab9cb", "is_disabled": 0, "rental_uris": {"ios": "https://dc.lft.to/lastmile_qr_scan", "android": "https://dc.lft.to/lastmile_qr_scan"}, "is_reserved": 0}, {"lon": -77.073862, "bike_id": "ea5f9228b8e8e6713922b56fe289f43c", "lat": 38.962232, "fusion_lon": 0.0, "fusion_lat": 0.0, "type": "electric_scooter", "name": "ea5f9228b8e8e6713922b56fe289f43c", "is_disabled": 0, "rental_uris": {"ios": "https://dc.lft.to/lastmile_qr_scan", "android": "https://dc.lft.to/lastmile_qr_scan"}, "is_reserved": 0}, {"lon": -77.02696016666667, "bike_id": "bd2a1edfc5986613c1baef39ba12df3e", "lat": 38.90266066666667, "fusion_lon": 0.0, "fusion_lat": 0.0, "type": "electric_scooter", "name": "bd2a1edfc5986613c1baef39ba12df3e", "is_disabled": 0, "rental_uris": {"ios": "https://dc.lft.to/lastmile_qr_scan", "android": "https://dc.lft.to/lastmile_qr_scan"}, "is_reserved": 0}, {"lon": -77.034492, "bike_id": "c8d1d35756919fdb3588f8e8bf45d745", "lat": 38.936147, "fusion_lon": 0.0, "fusion_lat": 0.0, "type": "electric_scooter", "name": "c8d1d35756919fdb3588f8e8bf45d745", "is_disabled": 0, "rental_uris": {"ios": "https://dc.lft.to/lastmile_qr_scan", "android": "https://dc.lft.to/lastmile_qr_scan"}, "is_reserved": 0}, {"lon": -76.98531483333333, "bike_id": "3e0d9a0661e6c3ae5d90a85db0827ce9", "lat": 38.86683466666667, "fusion_lon": 0.0, "fusion_lat": 0.0, "type": "electric_scooter", "name": "3e0d9a0661e6c3ae5d90a85db0827ce9", "is_disabled": 0, "rental_uris": {"ios": "https://dc.lft.to/lastmile_qr_scan", "android": "https://dc.lft.to/lastmile_qr_scan"}, "is_reserved": 0}, {"lon": -77.1157675, "bike_id": "3f1e1253d450814530db96b81d9c5e64", "lat": 38.99343316666667, "fusion_lon": 0.0, "fusion_lat": 0.0, "type": "electric_bike", "name": "3f1e1253d450814530db96b81d9c5e64", "is_disabled": 0, "rental_uris": {"ios": "https://dc.lft.to/lastmile_qr_scan", "android": "https://dc.lft.to/lastmile_qr_scan"}, "is_reserved": 0}, {"lon": -77.041708, "bike_id": "c5381e2062f1ecaf34d3ab83419ba976", "lat": 38.90600966666667, "fusion_lon": 0.0, "fusion_lat": 0.0, "type": "electric_scooter", "name": "c5381e2062f1ecaf34d3ab83419ba976", "is_disabled": 0, "rental_uris": {"ios": "https://dc.lft.to/lastmile_qr_scan", "android": "https://dc.lft.to/lastmile_qr_scan"}, "is_reserved": 0}, {"lon": -77.02932033333333, "bike_id": "b01f6b2dffdc4051d6a970b4a3a8e16e", "lat": 38.9169475, "fusion_lon": 0.0, "fusion_lat": 0.0, "type": "electric_scooter", "name": "b01f6b2dffdc4051d6a970b4a3a8e16e", "is_disabled": 0, "rental_uris": {"ios": "https://dc.lft.to/lastmile_qr_scan", "android": "https://dc.lft.to/lastmile_qr_scan"}, "is_reserved": 0}, {"lon": -77.037846, "bike_id": "c461d5f999a8a9ac45ceb40d93017d87", "lat": 38.92578433333333, "fusion_lon": 0.0, "fusion_lat": 0.0, "type": "electric_scooter", "name": "c461d5f999a8a9ac45ceb40d93017d87", "is_disabled": 0, "rental_uris": {"ios": "https://dc.lft.to/lastmile_qr_scan", "android": "https://dc.lft.to/lastmile_qr_scan"}, "is_reserved": 0}, {"lon": -76.97925633333334, "bike_id": "f427ee0fcf6ac538e3973d1118df4bdf", "lat": 38.9050595, "fusion_lon": 0.0, "fusion_lat": 0.0, "type": "electric_scooter", "name": "f427ee0fcf6ac538e3973d1118df4bdf", "is_disabled": 0, "rental_uris": {"ios": "https://dc.lft.to/lastmile_qr_scan", "android": "https://dc.lft.to/lastmile_qr_scan"}, "is_reserved": 0}, {"lon": -77.09869016666667, "bike_id": "d2e8f0124e18f712a62358a9ca1fbba1", "lat": 38.949627666666665, "fusion_lon": 0.0, "fusion_lat": 0.0, "type": "electric_scooter", "name": "d2e8f0124e18f712a62358a9ca1fbba1", "is_disabled": 0, "rental_uris": {"ios": "https://dc.lft.to/lastmile_qr_scan", "android": "https://dc.lft.to/lastmile_qr_scan"}, "is_reserved": 0}, {"lon": -76.990036, "bike_id": "1b44910718e0282ac73fdd292458c8ce", "lat": 38.86507733333333, "fusion_lon": 0.0, "fusion_lat": 0.0, "type": "electric_scooter", "name": "1b44910718e0282ac73fdd292458c8ce", "is_disabled": 0, "rental_uris": {"ios": "https://dc.lft.to/lastmile_qr_scan", "android": "https://dc.lft.to/lastmile_qr_scan"}, "is_reserved": 0}, {"lon": -76.9937025, "bike_id": "f47eea454739aaf77507fd4d4236eade", "lat": 38.87974166666667, "fusion_lon": 0.0, "fusion_lat": 0.0, "type": "electric_scooter", "name": "f47eea454739aaf77507fd4d4236eade", "is_disabled": 0, "rental_uris": {"ios": "https://dc.lft.to/lastmile_qr_scan", "android": "https://dc.lft.to/lastmile_qr_scan"}, "is_reserved": 0}, {"lon": -77.02710133333333, "bike_id": "61d344063c8a5a4bae58c93d6bd33c58", "lat": 38.897156, "fusion_lon": 0.0, "fusion_lat": 0.0, "type": "electric_scooter", "name": "61d344063c8a5a4bae58c93d6bd33c58", "is_disabled": 0, "rental_uris": {"ios": "https://dc.lft.to/lastmile_qr_scan", "android": "https://dc.lft.to/lastmile_qr_scan"}, "is_reserved": 0}, {"lon": -76.9945755, "bike_id": "2bcf6ff3a75323308a06270e3112bbbc", "lat": 38.966171833333334, "fusion_lon": 0.0, "fusion_lat": 0.0, "type": "electric_bike", "name": "2bcf6ff3a75323308a06270e3112bbbc", "is_disabled": 0, "rental_uris": {"ios": "https://dc.lft.to/lastmile_qr_scan", "android": "https://dc.lft.to/lastmile_qr_scan"}, "is_reserved": 0}, {"lon": -77.03743166666666, "bike_id": "022ee80b588a3fd1740fcf3b48ce8b8c", "lat": 38.918087, "fusion_lon": 0.0, "fusion_lat": 0.0, "type": "electric_scooter", "name": "022ee80b588a3fd1740fcf3b48ce8b8c", "is_disabled": 0, "rental_uris": {"ios": "https://dc.lft.to/lastmile_qr_scan", "android": "https://dc.lft.to/lastmile_qr_scan"}, "is_reserved": 0}, {"lon": -77.01315866666667, "bike_id": "076edf1ce14e60af9d94cad8340e19d5", "lat": 38.87151566666667, "fusion_lon": 0.0, "fusion_lat": 0.0, "type": "electric_scooter", "name": "076edf1ce14e60af9d94cad8340e19d5", "is_disabled": 0, "rental_uris": {"ios": "https://dc.lft.to/lastmile_qr_scan", "android": "https://dc.lft.to/lastmile_qr_scan"}, "is_reserved": 0}, {"lon": -77.0113285, "bike_id": "ba543a9d1c4d4451314a400df88d6970", "lat": 38.900296, "fusion_lon": 0.0, "fusion_lat": 0.0, "type": "electric_scooter", "name": "ba543a9d1c4d4451314a400df88d6970", "is_disabled": 0, "rental_uris": {"ios": "https://dc.lft.to/lastmile_qr_scan", "android": "https://dc.lft.to/lastmile_qr_scan"}, "is_reserved": 0}, {"lon": -76.990349, "bike_id": "288913b3248b1b0e57f910e4c1e3408b", "lat": 38.898517, "fusion_lon": 0.0, "fusion_lat": 0.0, "type": "electric_scooter", "name": "288913b3248b1b0e57f910e4c1e3408b", "is_disabled": 0, "rental_uris": {"ios": "https://dc.lft.to/lastmile_qr_scan", "android": "https://dc.lft.to/lastmile_qr_scan"}, "is_reserved": 0}, {"lon": -77.02085816666667, "bike_id": "80d8b3afb928d20efffe93d3c1d22b64", "lat": 38.881812833333335, "fusion_lon": 0.0, "fusion_lat": 0.0, "type": "electric_scooter", "name": "80d8b3afb928d20efffe93d3c1d22b64", "is_disabled": 0, "rental_uris": {"ios": "https://dc.lft.to/lastmile_qr_scan", "android": "https://dc.lft.to/lastmile_qr_scan"}, "is_reserved": 0}, {"lon": -77.10029183333333, "bike_id": "263998830d5a15af6ba77a7083334b0e", "lat": 38.87133716666666, "fusion_lon": 0.0, "fusion_lat": 0.0, "type": "electric_bike", "name": "263998830d5a15af6ba77a7083334b0e", "is_disabled": 0, "rental_uris": {"ios": "https://dc.lft.to/lastmile_qr_scan", "android": "https://dc.lft.to/lastmile_qr_scan"}, "is_reserved": 0}, {"lon": -77.02529816666667, "bike_id": "9464f78d130977e005c0e7138399956e", "lat": 38.928944, "fusion_lon": 0.0, "fusion_lat": 0.0, "type": "electric_scooter", "name": "9464f78d130977e005c0e7138399956e", "is_disabled": 0, "rental_uris": {"ios": "https://dc.lft.to/lastmile_qr_scan", "android": "https://dc.lft.to/lastmile_qr_scan"}, "is_reserved": 0}, {"lon": -76.96530816666667, "bike_id": "a9c60b642ed7a9471c711cc2d0b84db2", "lat": 38.876263333333334, "fusion_lon": 0.0, "fusion_lat": 0.0, "type": "electric_scooter", "name": "a9c60b642ed7a9471c711cc2d0b84db2", "is_disabled": 0, "rental_uris": {"ios": "https://dc.lft.to/lastmile_qr_scan", "android": "https://dc.lft.to/lastmile_qr_scan"}, "is_reserved": 0}, {"lon": -77.03760483333333, "bike_id": "d868f4363a53e2893d6c4afab961fd70", "lat": 38.907767, "fusion_lon": 0.0, "fusion_lat": 0.0, "type": "electric_scooter", "name": "d868f4363a53e2893d6c4afab961fd70", "is_disabled": 0, "rental_uris": {"ios": "https://dc.lft.to/lastmile_qr_scan", "android": "https://dc.lft.to/lastmile_qr_scan"}, "is_reserved": 0}, {"lon": -77.005626, "bike_id": "b66f2e6c8892e36ca64fba35576583a3", "lat": 38.905626, "fusion_lon": 0.0, "fusion_lat": 0.0, "type": "electric_scooter", "name": "b66f2e6c8892e36ca64fba35576583a3", "is_disabled": 0, "rental_uris": {"ios": "https://dc.lft.to/lastmile_qr_scan", "android": "https://dc.lft.to/lastmile_qr_scan"}, "is_reserved": 0}, {"lon": -77.02752766666667, "bike_id": "d714d400f06e253a431606cd40994202", "lat": 38.928944666666666, "fusion_lon": 0.0, "fusion_lat": 0.0, "type": "electric_scooter", "name": "d714d400f06e253a431606cd40994202", "is_disabled": 0, "rental_uris": {"ios": "https://dc.lft.to/lastmile_qr_scan", "android": "https://dc.lft.to/lastmile_qr_scan"}, "is_reserved": 0}, {"lon": -77.01347016666666, "bike_id": "2d2e8f8570222cf3d156600c64b04a5e", "lat": 38.8781335, "fusion_lon": 0.0, "fusion_lat": 0.0, "type": "electric_scooter", "name": "2d2e8f8570222cf3d156600c64b04a5e", "is_disabled": 0, "rental_uris": {"ios": "https://dc.lft.to/lastmile_qr_scan", "android": "https://dc.lft.to/lastmile_qr_scan"}, "is_reserved": 0}, {"lon": -77.02873183333334, "bike_id": "4205c7fe9ed5293c9e2c083fedf493f9", "lat": 38.916860166666666, "fusion_lon": 0.0, "fusion_lat": 0.0, "type": "electric_scooter", "name": "4205c7fe9ed5293c9e2c083fedf493f9", "is_disabled": 0, "rental_uris": {"ios": "https://dc.lft.to/lastmile_qr_scan", "android": "https://dc.lft.to/lastmile_qr_scan"}, "is_reserved": 0}, {"lon": -76.94879633333333, "bike_id": "afdf03d21b6a99351e9c6243e4278c8a", "lat": 38.89553033333333, "fusion_lon": 0.0, "fusion_lat": 0.0, "type": "electric_scooter", "name": "afdf03d21b6a99351e9c6243e4278c8a", "is_disabled": 0, "rental_uris": {"ios": "https://dc.lft.to/lastmile_qr_scan", "android": "https://dc.lft.to/lastmile_qr_scan"}, "is_reserved": 0}, {"lon": -77.02949716666667, "bike_id": "ec89a375577717f397919b2b8bbd276e", "lat": 38.92371, "fusion_lon": 0.0, "fusion_lat": 0.0, "type": "electric_scooter", "name": "ec89a375577717f397919b2b8bbd276e", "is_disabled": 0, "rental_uris": {"ios": "https://dc.lft.to/lastmile_qr_scan", "android": "https://dc.lft.to/lastmile_qr_scan"}, "is_reserved": 0}, {"lon": -77.04798283333334, "bike_id": "10cd9b7c289d1aabcc5966d1f90770b2", "lat": 38.90968, "fusion_lon": 0.0, "fusion_lat": 0.0, "type": "electric_scooter", "name": "10cd9b7c289d1aabcc5966d1f90770b2", "is_disabled": 0, "rental_uris": {"ios": "https://dc.lft.to/lastmile_qr_scan", "android": "https://dc.lft.to/lastmile_qr_scan"}, "is_reserved": 0}, {"lon": -77.02797883333334, "bike_id": "df237c6b53791dde98c94054dab49a1f", "lat": 38.92975966666667, "fusion_lon": 0.0, "fusion_lat": 0.0, "type": "electric_scooter", "name": "df237c6b53791dde98c94054dab49a1f", "is_disabled": 0, "rental_uris": {"ios": "https://dc.lft.to/lastmile_qr_scan", "android": "https://dc.lft.to/lastmile_qr_scan"}, "is_reserved": 0}, {"lon": -76.93359016666666, "bike_id": "e093463944856d9601e3a92a83034c6f", "lat": 38.8879195, "fusion_lon": 0.0, "fusion_lat": 0.0, "type": "electric_scooter", "name": "e093463944856d9601e3a92a83034c6f", "is_disabled": 0, "rental_uris": {"ios": "https://dc.lft.to/lastmile_qr_scan", "android": "https://dc.lft.to/lastmile_qr_scan"}, "is_reserved": 0}, {"lon": -77.042549, "bike_id": "37fb2454ddc3534b3b06ea3b5252aafb", "lat": 38.907141333333335, "fusion_lon": 0.0, "fusion_lat": 0.0, "type": "electric_scooter", "name": "37fb2454ddc3534b3b06ea3b5252aafb", "is_disabled": 0, "rental_uris": {"ios": "https://dc.lft.to/lastmile_qr_scan", "android": "https://dc.lft.to/lastmile_qr_scan"}, "is_reserved": 0}, {"lon": -77.0327705, "bike_id": "86d6d4fa8285fadf773b1ae3d794e29b", "lat": 38.93250916666667, "fusion_lon": 0.0, "fusion_lat": 0.0, "type": "electric_scooter", "name": "86d6d4fa8285fadf773b1ae3d794e29b", "is_disabled": 0, "rental_uris": {"ios": "https://dc.lft.to/lastmile_qr_scan", "android": "https://dc.lft.to/lastmile_qr_scan"}, "is_reserved": 0}, {"lon": -77.0100205, "bike_id": "28c7bd498c2bd7f24f1b2b1baeb7a266", "lat": 38.919239, "fusion_lon": 0.0, "fusion_lat": 0.0, "type": "electric_scooter", "name": "28c7bd498c2bd7f24f1b2b1baeb7a266", "is_disabled": 0, "rental_uris": {"ios": "https://dc.lft.to/lastmile_qr_scan", "android": "https://dc.lft.to/lastmile_qr_scan"}, "is_reserved": 0}, {"lon": -77.02505966666666, "bike_id": "696981f7ac312ce8d2c55dca42ffa8b3", "lat": 38.93093233333333, "fusion_lon": 0.0, "fusion_lat": 0.0, "type": "electric_scooter", "name": "696981f7ac312ce8d2c55dca42ffa8b3", "is_disabled": 0, "rental_uris": {"ios": "https://dc.lft.to/lastmile_qr_scan", "android": "https://dc.lft.to/lastmile_qr_scan"}, "is_reserved": 0}, {"lon": -77.07238066666666, "bike_id": "597b2c71f583fde295cedbdf4964f968", "lat": 38.89890466666667, "fusion_lon": 0.0, "fusion_lat": 0.0, "type": "electric_scooter", "name": "597b2c71f583fde295cedbdf4964f968", "is_disabled": 0, "rental_uris": {"ios": "https://dc.lft.to/lastmile_qr_scan", "android": "https://dc.lft.to/lastmile_qr_scan"}, "is_reserved": 0}, {"lon": -76.9723655, "bike_id": "4b236ccb951b9004cb13e3e81fc86b90", "lat": 38.90339483333333, "fusion_lon": 0.0, "fusion_lat": 0.0, "type": "electric_scooter", "name": "4b236ccb951b9004cb13e3e81fc86b90", "is_disabled": 0, "rental_uris": {"ios": "https://dc.lft.to/lastmile_qr_scan", "android": "https://dc.lft.to/lastmile_qr_scan"}, "is_reserved": 0}, {"lon": -77.04917716666667, "bike_id": "4b17db15b0fbce1a2c9908d11578de58", "lat": 38.90849466666667, "fusion_lon": 0.0, "fusion_lat": 0.0, "type": "electric_scooter", "name": "4b17db15b0fbce1a2c9908d11578de58", "is_disabled": 0, "rental_uris": {"ios": "https://dc.lft.to/lastmile_qr_scan", "android": "https://dc.lft.to/lastmile_qr_scan"}, "is_reserved": 0}, {"lon": -77.02307166666667, "bike_id": "4fa19bee40607e90195ecead71c35c5e", "lat": 38.94200933333333, "fusion_lon": 0.0, "fusion_lat": 0.0, "type": "electric_scooter", "name": "4fa19bee40607e90195ecead71c35c5e", "is_disabled": 0, "rental_uris": {"ios": "https://dc.lft.to/lastmile_qr_scan", "android": "https://dc.lft.to/lastmile_qr_scan"}, "is_reserved": 0}, {"lon": -77.04603766666666, "bike_id": "25d3fd722a17199c11952fada28ad4b6", "lat": 38.853059, "fusion_lon": 0.0, "fusion_lat": 0.0, "type": "electric_bike", "name": "25d3fd722a17199c11952fada28ad4b6", "is_disabled": 0, "rental_uris": {"ios": "https://dc.lft.to/lastmile_qr_scan", "android": "https://dc.lft.to/lastmile_qr_scan"}, "is_reserved": 0}, {"lon": -77.00056666666667, "bike_id": "72fce1c2a9b2ab55f1a3682b9467ac0b", "lat": 38.92388433333333, "fusion_lon": 0.0, "fusion_lat": 0.0, "type": "electric_scooter", "name": "72fce1c2a9b2ab55f1a3682b9467ac0b", "is_disabled": 0, "rental_uris": {"ios": "https://dc.lft.to/lastmile_qr_scan", "android": "https://dc.lft.to/lastmile_qr_scan"}, "is_reserved": 0}, {"lon": -77.0572315, "bike_id": "6406e8662576551e08a8ed3553ef0e6e", "lat": 38.93365766666667, "fusion_lon": 0.0, "fusion_lat": 0.0, "type": "electric_scooter", "name": "6406e8662576551e08a8ed3553ef0e6e", "is_disabled": 0, "rental_uris": {"ios": "https://dc.lft.to/lastmile_qr_scan", "android": "https://dc.lft.to/lastmile_qr_scan"}, "is_reserved": 0}, {"lon": -77.0317885, "bike_id": "cccd674b33eee5e707fe2bc614c2ddf6", "lat": 38.8922425, "fusion_lon": 0.0, "fusion_lat": 0.0, "type": "electric_scooter", "name": "cccd674b33eee5e707fe2bc614c2ddf6", "is_disabled": 0, "rental_uris": {"ios": "https://dc.lft.to/lastmile_qr_scan", "android": "https://dc.lft.to/lastmile_qr_scan"}, "is_reserved": 0}, {"lon": -76.99836616666667, "bike_id": "b4b7c386452540bfd16b35def784d942", "lat": 38.9000775, "fusion_lon": 0.0, "fusion_lat": 0.0, "type": "electric_scooter", "name": "b4b7c386452540bfd16b35def784d942", "is_disabled": 0, "rental_uris": {"ios": "https://dc.lft.to/lastmile_qr_scan", "android": "https://dc.lft.to/lastmile_qr_scan"}, "is_reserved": 0}, {"lon": -77.04808783333333, "bike_id": "3fd1df7c6af300760a51ab8d8d5f819f", "lat": 38.89731616666667, "fusion_lon": 0.0, "fusion_lat": 0.0, "type": "electric_scooter", "name": "3fd1df7c6af300760a51ab8d8d5f819f", "is_disabled": 0, "rental_uris": {"ios": "https://dc.lft.to/lastmile_qr_scan", "android": "https://dc.lft.to/lastmile_qr_scan"}, "is_reserved": 0}, {"lon": -77.04005333333333, "bike_id": "5076707efe0f6abd47cef6490e4678cc", "lat": 38.90992883333333, "fusion_lon": 0.0, "fusion_lat": 0.0, "type": "electric_scooter", "name": "5076707efe0f6abd47cef6490e4678cc", "is_disabled": 0, "rental_uris": {"ios": "https://dc.lft.to/lastmile_qr_scan", "android": "https://dc.lft.to/lastmile_qr_scan"}, "is_reserved": 0}, {"lon": -77.02171866666667, "bike_id": "476ab4df2c1472e4e409ab14e96ca12a", "lat": 38.930682, "fusion_lon": 0.0, "fusion_lat": 0.0, "type": "electric_scooter", "name": "476ab4df2c1472e4e409ab14e96ca12a", "is_disabled": 0, "rental_uris": {"ios": "https://dc.lft.to/lastmile_qr_scan", "android": "https://dc.lft.to/lastmile_qr_scan"}, "is_reserved": 0}, {"lon": -76.98836366666667, "bike_id": "f4bf96c11323678ad0c33021e1e93bc8", "lat": 38.84280833333333, "fusion_lon": 0.0, "fusion_lat": 0.0, "type": "electric_bike", "name": "f4bf96c11323678ad0c33021e1e93bc8", "is_disabled": 0, "rental_uris": {"ios": "https://dc.lft.to/lastmile_qr_scan", "android": "https://dc.lft.to/lastmile_qr_scan"}, "is_reserved": 0}, {"lon": -77.03900166666666, "bike_id": "4d2ca0a3b73f314f90f01f6de2e957fe", "lat": 38.91845266666667, "fusion_lon": 0.0, "fusion_lat": 0.0, "type": "electric_scooter", "name": "4d2ca0a3b73f314f90f01f6de2e957fe", "is_disabled": 0, "rental_uris": {"ios": "https://dc.lft.to/lastmile_qr_scan", "android": "https://dc.lft.to/lastmile_qr_scan"}, "is_reserved": 0}, {"lon": -77.038565, "bike_id": "9028f6311db50e8244ac8497bf4d5841", "lat": 38.914575666666664, "fusion_lon": 0.0, "fusion_lat": 0.0, "type": "electric_scooter", "name": "9028f6311db50e8244ac8497bf4d5841", "is_disabled": 0, "rental_uris": {"ios": "https://dc.lft.to/lastmile_qr_scan", "android": "https://dc.lft.to/lastmile_qr_scan"}, "is_reserved": 0}, {"lon": -77.01268, "bike_id": "885aa466e2bf61fde07f6ae2ef8284ff", "lat": 38.864565999999996, "fusion_lon": 0.0, "fusion_lat": 0.0, "type": "electric_scooter", "name": "885aa466e2bf61fde07f6ae2ef8284ff", "is_disabled": 0, "rental_uris": {"ios": "https://dc.lft.to/lastmile_qr_scan", "android": "https://dc.lft.to/lastmile_qr_scan"}, "is_reserved": 0}, {"lon": -76.99464933333333, "bike_id": "01455c19f682ed93631de58f5c33a4c4", "lat": 38.903704833333336, "fusion_lon": 0.0, "fusion_lat": 0.0, "type": "electric_scooter", "name": "01455c19f682ed93631de58f5c33a4c4", "is_disabled": 0, "rental_uris": {"ios": "https://dc.lft.to/lastmile_qr_scan", "android": "https://dc.lft.to/lastmile_qr_scan"}, "is_reserved": 0}, {"lon": -77.02253, "bike_id": "204cfa745ce82bfb58fd29f640d31e48", "lat": 38.92678516666667, "fusion_lon": 0.0, "fusion_lat": 0.0, "type": "electric_scooter", "name": "204cfa745ce82bfb58fd29f640d31e48", "is_disabled": 0, "rental_uris": {"ios": "https://dc.lft.to/lastmile_qr_scan", "android": "https://dc.lft.to/lastmile_qr_scan"}, "is_reserved": 0}, {"lon": -77.0000905, "bike_id": "7cae7cb28e3db28bec7b770a63a05529", "lat": 38.897416166666666, "fusion_lon": 0.0, "fusion_lat": 0.0, "type": "electric_scooter", "name": "7cae7cb28e3db28bec7b770a63a05529", "is_disabled": 0, "rental_uris": {"ios": "https://dc.lft.to/lastmile_qr_scan", "android": "https://dc.lft.to/lastmile_qr_scan"}, "is_reserved": 0}, {"lon": -77.03991183333333, "bike_id": "b1d71ada2fd350eac175ba7268a5f276", "lat": 38.933933333333336, "fusion_lon": 0.0, "fusion_lat": 0.0, "type": "electric_bike", "name": "b1d71ada2fd350eac175ba7268a5f276", "is_disabled": 0, "rental_uris": {"ios": "https://dc.lft.to/lastmile_qr_scan", "android": "https://dc.lft.to/lastmile_qr_scan"}, "is_reserved": 0}, {"lon": -77.03337633333334, "bike_id": "b6bcd2e0480855ee723bdf8c238c3588", "lat": 38.907236833333336, "fusion_lon": 0.0, "fusion_lat": 0.0, "type": "electric_scooter", "name": "b6bcd2e0480855ee723bdf8c238c3588", "is_disabled": 0, "rental_uris": {"ios": "https://dc.lft.to/lastmile_qr_scan", "android": "https://dc.lft.to/lastmile_qr_scan"}, "is_reserved": 0}, {"lon": -77.0251025, "bike_id": "9293988061acb18ca5847fb538495218", "lat": 38.920759833333335, "fusion_lon": 0.0, "fusion_lat": 0.0, "type": "electric_scooter", "name": "9293988061acb18ca5847fb538495218", "is_disabled": 0, "rental_uris": {"ios": "https://dc.lft.to/lastmile_qr_scan", "android": "https://dc.lft.to/lastmile_qr_scan"}, "is_reserved": 0}, {"lon": -77.03221183333333, "bike_id": "4402612518e4613d227d159fc68c02a6", "lat": 38.89219333333333, "fusion_lon": 0.0, "fusion_lat": 0.0, "type": "electric_scooter", "name": "4402612518e4613d227d159fc68c02a6", "is_disabled": 0, "rental_uris": {"ios": "https://dc.lft.to/lastmile_qr_scan", "android": "https://dc.lft.to/lastmile_qr_scan"}, "is_reserved": 0}, {"lon": -77.01532983333334, "bike_id": "fb9ecbe4cee1a4428c51d921d7d69124", "lat": 38.884941, "fusion_lon": 0.0, "fusion_lat": 0.0, "type": "electric_scooter", "name": "fb9ecbe4cee1a4428c51d921d7d69124", "is_disabled": 0, "rental_uris": {"ios": "https://dc.lft.to/lastmile_qr_scan", "android": "https://dc.lft.to/lastmile_qr_scan"}, "is_reserved": 0}, {"lon": -77.03183216666666, "bike_id": "868c8a4b61ecf7dd8986ee9466624a3c", "lat": 38.90300716666667, "fusion_lon": 0.0, "fusion_lat": 0.0, "type": "electric_scooter", "name": "868c8a4b61ecf7dd8986ee9466624a3c", "is_disabled": 0, "rental_uris": {"ios": "https://dc.lft.to/lastmile_qr_scan", "android": "https://dc.lft.to/lastmile_qr_scan"}, "is_reserved": 0}, {"lon": -77.03508183333334, "bike_id": "2925d3175edc295bf12ae0f748e8ad01", "lat": 38.921494833333334, "fusion_lon": 0.0, "fusion_lat": 0.0, "type": "electric_scooter", "name": "2925d3175edc295bf12ae0f748e8ad01", "is_disabled": 0, "rental_uris": {"ios": "https://dc.lft.to/lastmile_qr_scan", "android": "https://dc.lft.to/lastmile_qr_scan"}, "is_reserved": 0}, {"lon": -77.06490416666666, "bike_id": "c8f61c3176a09ba967be4ae57429fe08", "lat": 38.9097485, "fusion_lon": 0.0, "fusion_lat": 0.0, "type": "electric_scooter", "name": "c8f61c3176a09ba967be4ae57429fe08", "is_disabled": 0, "rental_uris": {"ios": "https://dc.lft.to/lastmile_qr_scan", "android": "https://dc.lft.to/lastmile_qr_scan"}, "is_reserved": 0}, {"lon": -77.04594616666667, "bike_id": "898b7b20735c509dbf78aa2ae4b6ebea", "lat": 38.913542166666666, "fusion_lon": 0.0, "fusion_lat": 0.0, "type": "electric_scooter", "name": "898b7b20735c509dbf78aa2ae4b6ebea", "is_disabled": 0, "rental_uris": {"ios": "https://dc.lft.to/lastmile_qr_scan", "android": "https://dc.lft.to/lastmile_qr_scan"}, "is_reserved": 0}, {"lon": -77.00568033333333, "bike_id": "e86dfe6d9140e5d5a881a5d1dcf44eff", "lat": 38.90559183333333, "fusion_lon": 0.0, "fusion_lat": 0.0, "type": "electric_scooter", "name": "e86dfe6d9140e5d5a881a5d1dcf44eff", "is_disabled": 0, "rental_uris": {"ios": "https://dc.lft.to/lastmile_qr_scan", "android": "https://dc.lft.to/lastmile_qr_scan"}, "is_reserved": 0}, {"lon": -77.02179783333334, "bike_id": "ddeab2b29e48366e5f77d9ca93339ee9", "lat": 38.893544, "fusion_lon": 0.0, "fusion_lat": 0.0, "type": "electric_scooter", "name": "ddeab2b29e48366e5f77d9ca93339ee9", "is_disabled": 0, "rental_uris": {"ios": "https://dc.lft.to/lastmile_qr_scan", "android": "https://dc.lft.to/lastmile_qr_scan"}, "is_reserved": 0}, {"lon": -77.1080325, "bike_id": "20a7a773f63e6c175a89d5a01790df89", "lat": 38.81203416666666, "fusion_lon": 0.0, "fusion_lat": 0.0, "type": "electric_bike", "name": "20a7a773f63e6c175a89d5a01790df89", "is_disabled": 0, "rental_uris": {"ios": "https://dc.lft.to/lastmile_qr_scan", "android": "https://dc.lft.to/lastmile_qr_scan"}, "is_reserved": 0}, {"lon": -77.054377, "bike_id": "7e616e4730f1994eacae6bc575a0f9e4", "lat": 38.9284885, "fusion_lon": 0.0, "fusion_lat": 0.0, "type": "electric_bike", "name": "7e616e4730f1994eacae6bc575a0f9e4", "is_disabled": 0, "rental_uris": {"ios": "https://dc.lft.to/lastmile_qr_scan", "android": "https://dc.lft.to/lastmile_qr_scan"}, "is_reserved": 0}, {"lon": -76.97427916666666, "bike_id": "fef1930b623d5e50c7c7fedf6b42e623", "lat": 38.90396783333333, "fusion_lon": 0.0, "fusion_lat": 0.0, "type": "electric_scooter", "name": "fef1930b623d5e50c7c7fedf6b42e623", "is_disabled": 0, "rental_uris": {"ios": "https://dc.lft.to/lastmile_qr_scan", "android": "https://dc.lft.to/lastmile_qr_scan"}, "is_reserved": 0}, {"lon": -77.04184416666666, "bike_id": "659b058ecb5995279da11e69f9575d01", "lat": 38.905471666666664, "fusion_lon": 0.0, "fusion_lat": 0.0, "type": "electric_scooter", "name": "659b058ecb5995279da11e69f9575d01", "is_disabled": 0, "rental_uris": {"ios": "https://dc.lft.to/lastmile_qr_scan", "android": "https://dc.lft.to/lastmile_qr_scan"}, "is_reserved": 0}, {"lon": -76.96604166666667, "bike_id": "3a7e2d58cb662cdd1048a5949ec86874", "lat": 38.87111433333333, "fusion_lon": 0.0, "fusion_lat": 0.0, "type": "electric_scooter", "name": "3a7e2d58cb662cdd1048a5949ec86874", "is_disabled": 0, "rental_uris": {"ios": "https://dc.lft.to/lastmile_qr_scan", "android": "https://dc.lft.to/lastmile_qr_scan"}, "is_reserved": 0}, {"lon": -77.03667866666666, "bike_id": "f07ad46d74cd1791bac806b0b9797650", "lat": 38.9181245, "fusion_lon": 0.0, "fusion_lat": 0.0, "type": "electric_scooter", "name": "f07ad46d74cd1791bac806b0b9797650", "is_disabled": 0, "rental_uris": {"ios": "https://dc.lft.to/lastmile_qr_scan", "android": "https://dc.lft.to/lastmile_qr_scan"}, "is_reserved": 0}, {"lon": -77.010463, "bike_id": "4222dc5f61452ff1df7e299ecc033be5", "lat": 38.92123483333334, "fusion_lon": 0.0, "fusion_lat": 0.0, "type": "electric_scooter", "name": "4222dc5f61452ff1df7e299ecc033be5", "is_disabled": 0, "rental_uris": {"ios": "https://dc.lft.to/lastmile_qr_scan", "android": "https://dc.lft.to/lastmile_qr_scan"}, "is_reserved": 0}, {"lon": -77.03202, "bike_id": "0cd28fbb3ecd0c6497bc1ad00f95fe96", "lat": 38.90724483333334, "fusion_lon": 0.0, "fusion_lat": 0.0, "type": "electric_scooter", "name": "0cd28fbb3ecd0c6497bc1ad00f95fe96", "is_disabled": 0, "rental_uris": {"ios": "https://dc.lft.to/lastmile_qr_scan", "android": "https://dc.lft.to/lastmile_qr_scan"}, "is_reserved": 0}, {"lon": -77.021744, "bike_id": "05cd4b856435b32e407e8ba508d371cb", "lat": 38.89745683333334, "fusion_lon": 0.0, "fusion_lat": 0.0, "type": "electric_scooter", "name": "05cd4b856435b32e407e8ba508d371cb", "is_disabled": 0, "rental_uris": {"ios": "https://dc.lft.to/lastmile_qr_scan", "android": "https://dc.lft.to/lastmile_qr_scan"}, "is_reserved": 0}, {"lon": -77.02188633333333, "bike_id": "6c58591463974de70b4f9e2c48012781", "lat": 38.909575, "fusion_lon": 0.0, "fusion_lat": 0.0, "type": "electric_scooter", "name": "6c58591463974de70b4f9e2c48012781", "is_disabled": 0, "rental_uris": {"ios": "https://dc.lft.to/lastmile_qr_scan", "android": "https://dc.lft.to/lastmile_qr_scan"}, "is_reserved": 0},