{"data": {"bikes": [{"rental_uris": {"ios": "https://dc.lft.to/lastmile_qr_scan", "android": "https://dc.lft.to/lastmile_qr_scan"}, "lon": -76.94184116666666, "type": "electric_scooter", "fusion_lat": 0.0, "lat": 38.882233166666666, "name": "9e8727c99a7951646f3b97ca7404c8c6", "fusion_lon": 0.0, "bike_id": "9e8727c99a7951646f3b97ca7404c8c6", "is_disabled": 0, "is_reserved": 0}, {"rental_uris": {"ios": "https://dc.lft.to/lastmile_qr_scan", "android": "https://dc.lft.to/lastmile_qr_scan"}, "lon": -77.03615566666667, "type": "electric_scooter", "fusion_lat": 0.0, "lat": 38.932520833333335, "name": "6888b6ed84933a06063655cef5756aa6", "fusion_lon": 0.0, "bike_id": "6888b6ed84933a06063655cef5756aa6", "is_disabled": 0, "is_reserved": 0}, {"rental_uris": {"ios": "https://dc.lft.to/lastmile_qr_scan", "android": "https://dc.lft.to/lastmile_qr_scan"}, "lon": -77.05475083333333, "type": "electric_scooter", "fusion_lat": 0.0, "lat": 38.92106733333333, "name": "2197e7f871f02772a386c187eef60ec9", "fusion_lon": 0.0, "bike_id": "2197e7f871f02772a386c187eef60ec9", "is_disabled": 0, "is_reserved": 0}, {"rental_uris": {"ios": "https://dc.lft.to/lastmile_qr_scan", "android": "https://dc.lft.to/lastmile_qr_scan"}, "lon": -76.991471, "type": "electric_scooter", "fusion_lat": 0.0, "lat": 38.900475166666666, "name": "fc9628d6847f2484f7916f3fa9cbb8c3", "fusion_lon": 0.0, "bike_id": "fc9628d6847f2484f7916f3fa9cbb8c3", "is_disabled": 0, "is_reserved": 0}, {"rental_uris": {"ios": "https://dc.lft.to/lastmile_qr_scan", "android": "https://dc.lft.to/lastmile_qr_scan"}, "lon": -77.02715966666666, "type": "electric_scooter", "fusion_lat": 0.0, "lat": 38.92473416666667, "name": "6545a39265b9b3327567d139add583a4", "fusion_lon": 0.0, "bike_id": "6545a39265b9b3327567d139add583a4", "is_disabled": 0, "is_reserved": 0}, {"rental_uris": {"ios": "https://dc.lft.to/lastmile_qr_scan", "android": "https://dc.lft.to/lastmile_qr_scan"}, "lon": -77.034548, "type": "electric_scooter", "fusion_lat": 0.0, "lat": 38.907361, "name": "04426b989e389bc9f79a396fe41990f2", "fusion_lon": 0.0, "bike_id": "04426b989e389bc9f79a396fe41990f2", "is_disabled": 0, "is_reserved": 0}, {"rental_uris": {"ios": "https://dc.lft.to/lastmile_qr_scan", "android": "https://dc.lft.to/lastmile_qr_scan"}, "lon": -76.95529633333334, "type": "electric_scooter", "fusion_lat": 0.0, "lat": 38.8878805, "name": "2d9a295b873110f300e7417179a82b83", "fusion_lon": 0.0, "bike_id": "2d9a295b873110f300e7417179a82b83", "is_disabled": 0, "is_reserved": 0}, {"rental_uris": {"ios": "https://dc.lft.to/lastmile_qr_scan", "android": "https://dc.lft.to/lastmile_qr_scan"}, "lon": -77.03754466666666, "type": "electric_scooter", "fusion_lat": 0.0, "lat": 38.92900733333333, "name": "d79eb687f8f4743117d18677cb79a8ad", "fusion_lon": 0.0, "bike_id": "d79eb687f8f4743117d18677cb79a8ad", "is_disabled": 0, "is_reserved": 0}, {"rental_uris": {"ios": "https://dc.lft.to/lastmile_qr_scan", "android": "https://dc.lft.to/lastmile_qr_scan"}, "lon": -77.05119816666667, "type": "electric_scooter", "fusion_lat": 0.0, "lat": 38.9050945, "name": "92877ec593b39633a9c333f4b421db5d", "fusion_lon": 0.0, "bike_id": "92877ec593b39633a9c333f4b421db5d", "is_disabled": 0, "is_reserved": 0}, {"rental_uris": {"ios": "https://dc.lft.to/lastmile_qr_scan", "android": "https://dc.lft.to/lastmile_qr_scan"}, "lon": -77.06017666666666, "type": "electric_scooter", "fusion_lat": 0.0, "lat": 38.912628833333336, "name": "5b1b429ca2f64ad5a9ff63851d5a6423", "fusion_lon": 0.0, "bike_id": "5b1b429ca2f64ad5a9ff63851d5a6423", "is_disabled": 0, "is_reserved": 0}, {"rental_uris": {"ios": "https://dc.lft.to/lastmile_qr_scan", "android": "https://dc.lft.to/lastmile_qr_scan"}, "lon": -77.03872883333334, "type": "electric_scooter", "fusion_lat": 0.0, "lat": 38.9156295, "name": "771ef2c638452f5c7548f9b88557c027", "fusion_lon": 0.0, "bike_id": "771ef2c638452f5c7548f9b88557c027", "is_disabled": 0, "is_reserved": 0}, {"rental_uris": {"ios": "https://dc.lft.to/lastmile_qr_scan", "android": "https://dc.lft.to/lastmile_qr_scan"}, "lon": -77.02099216666667, "type": "electric_scooter", "fusion_lat": 0.0, "lat": 38.9141305, "name": "f10960327fd6725f0c2f08f1d1d70b2b", "fusion_lon": 0.0, "bike_id": "f10960327fd6725f0c2f08f1d1d70b2b", "is_disabled": 0, "is_reserved": 0}, {"rental_uris": {"ios": "https://dc.lft.to/lastmile_qr_scan", "android": "https://dc.lft.to/lastmile_qr_scan"}, "lon": -76.9871615, "type": "electric_scooter", "fusion_lat": 0.0, "lat": 38.86259016666666, "name": "4505c4ce81648a4928a6bf6c24c5690c", "fusion_lon": 0.0, "bike_id": "4505c4ce81648a4928a6bf6c24c5690c", "is_disabled": 0, "is_reserved": 0}, {"rental_uris": {"ios": "https://dc.lft.to/lastmile_qr_scan", "android": "https://dc.lft.to/lastmile_qr_scan"}, "lon": -77.005608, "type": "electric_scooter", "fusion_lat": 0.0, "lat": 38.879175833333335, "name": "931aa73169c894226d0a5b4235984ac4", "fusion_lon": 0.0, "bike_id": "931aa73169c894226d0a5b4235984ac4", "is_disabled": 0, "is_reserved": 0}, {"rental_uris": {"ios": "https://dc.lft.to/lastmile_qr_scan", "android": "https://dc.lft.to/lastmile_qr_scan"}, "lon": -77.08199466666667, "type": "electric_scooter", "fusion_lat": 0.0, "lat": 38.9492825, "name": "0cb62f19a247ed9063aa4e5f624e6f99", "fusion_lon": 0.0, "bike_id": "0cb62f19a247ed9063aa4e5f624e6f99", "is_disabled": 0, "is_reserved": 0}, {"rental_uris": {"ios": "https://dc.lft.to/lastmile_qr_scan", "android": "https://dc.lft.to/lastmile_qr_scan"}, "lon": -77.02582333333334, "type": "electric_scooter", "fusion_lat": 0.0, "lat": 38.887420666666664, "name": "bdc9fdaf936fb4607e9c6cf059be6bae", "fusion_lon": 0.0, "bike_id": "bdc9fdaf936fb4607e9c6cf059be6bae", "is_disabled": 0, "is_reserved": 0}, {"rental_uris": {"ios": "https://dc.lft.to/lastmile_qr_scan", "android": "https://dc.lft.to/lastmile_qr_scan"}, "lon": -76.908159, "type": "electric_bike", "fusion_lat": 0.0, "lat": 38.99458283333333, "name": "93be59e3b1563bb2abe2584e48e39fed", "fusion_lon": 0.0, "bike_id": "93be59e3b1563bb2abe2584e48e39fed", "is_disabled": 0, "is_reserved": 0}, {"rental_uris": {"ios": "https://dc.lft.to/lastmile_qr_scan", "android": "https://dc.lft.to/lastmile_qr_scan"}, "lon": -76.96061566666667, "type": "electric_bike", "fusion_lat": 0.0, "lat": 38.88404, "name": "7b45b3e4f843d239c7aff68d7bab832c", "fusion_lon": 0.0, "bike_id": "7b45b3e4f843d239c7aff68d7bab832c", "is_disabled": 0, "is_reserved": 0}, {"rental_uris": {"ios": "https://dc.lft.to/lastmile_qr_scan", "android": "https://dc.lft.to/lastmile_qr_scan"}, "lon": -76.989375, "type": "electric_bike", "fusion_lat": 0.0, "lat": 38.92861583333333, "name": "8ba52e9173b1d2487ac8506e53a12a0f", "fusion_lon": 0.0, "bike_id": "8ba52e9173b1d2487ac8506e53a12a0f", "is_disabled": 0, "is_reserved": 0}, {"rental_uris": {"ios": "https://dc.lft.to/lastmile_qr_scan", "android": "https://dc.lft.to/lastmile_qr_scan"}, "lon": -77.00758183333333, "type": "electric_scooter", "fusion_lat": 0.0, "lat": 38.89838833333334, "name": "5bc6de6707c366a65338c55ae4ce778a", "fusion_lon": 0.0, "bike_id": "5bc6de6707c366a65338c55ae4ce778a", "is_disabled": 0, "is_reserved": 0}, {"rental_uris": {"ios": "https://dc.lft.to/lastmile_qr_scan", "android": "https://dc.lft.to/lastmile_qr_scan"}, "lon": -77.0436525, "type": "electric_scooter", "fusion_lat": 0.0, "lat": 38.92356366666667, "name": "4f1719467c18bb01405067bba3d2b5a1", "fusion_lon": 0.0, "bike_id": "4f1719467c18bb01405067bba3d2b5a1", "is_disabled": 0, "is_reserved": 0}, {"rental_uris": {"ios": "https://dc.lft.to/lastmile_qr_scan", "android": "https://dc.lft.to/lastmile_qr_scan"}, "lon": -77.04815516666666, "type": "electric_scooter", "fusion_lat": 0.0, "lat": 38.91336716666667, "name": "912f99ab5702099a74f0ce56ef6a985d", "fusion_lon": 0.0, "bike_id": "912f99ab5702099a74f0ce56ef6a985d", "is_disabled": 0, "is_reserved": 0}, {"rental_uris": {"ios": "https://dc.lft.to/lastmile_qr_scan", "android": "https://dc.lft.to/lastmile_qr_scan"}, "lon": -77.04526016666667, "type": "electric_scooter", "fusion_lat": 0.0, "lat": 38.90371183333333, "name": "c089db470fb5646e27ec84ecfdd23f79", "fusion_lon": 0.0, "bike_id": "c089db470fb5646e27ec84ecfdd23f79", "is_disabled": 0, "is_reserved": 0}, {"rental_uris": {"ios": "https://dc.lft.to/lastmile_qr_scan", "android": "https://dc.lft.to/lastmile_qr_scan"}, "lon": -77.03481833333333, "type": "electric_scooter", "fusion_lat": 0.0, "lat": 38.930473, "name": "67f5ad91ecf66d96d3e9a015e1477c2d", "fusion_lon": 0.0, "bike_id": "67f5ad91ecf66d96d3e9a015e1477c2d", "is_disabled": 0, "is_reserved": 0}, {"rental_uris": {"ios": "https://dc.lft.to/lastmile_qr_scan", "android": "https://dc.lft.to/lastmile_qr_scan"}, "lon": -77.011263, "type": "electric_scooter", "fusion_lat": 0.0, "lat": 38.8952885, "name": "df62683534957ac5e3fc43a2660e1aa7", "fusion_lon": 0.0, "bike_id": "df62683534957ac5e3fc43a2660e1aa7", "is_disabled": 0, "is_reserved": 0}, {"rental_uris": {"ios": "https://dc.lft.to/lastmile_qr_scan", "android": "https://dc.lft.to/lastmile_qr_scan"}, "lon": -77.02694266666667, "type": "electric_scooter", "fusion_lat": 0.0, "lat": 38.925950666666665, "name": "9787fed3831595149ab199e9cbb6f1c0", "fusion_lon": 0.0, "bike_id": "9787fed3831595149ab199e9cbb6f1c0", "is_disabled": 0, "is_reserved": 0}, {"rental_uris": {"ios": "https://dc.lft.to/lastmile_qr_scan", "android": "https://dc.lft.to/lastmile_qr_scan"}, "lon": -77.02224216666667, "type": "electric_scooter", "fusion_lat": 0.0, "lat": 38.8935675, "name": "1b5133488b165b085d342041a1973618", "fusion_lon": 0.0, "bike_id": "1b5133488b165b085d342041a1973618", "is_disabled": 0, "is_reserved": 0}, {"rental_uris": {"ios": "https://dc.lft.to/lastmile_qr_scan", "android": "https://dc.lft.to/lastmile_qr_scan"}, "lon": -76.965062, "type": "electric_scooter", "fusion_lat": 0.0, "lat": 38.87647116666667, "name": "85e43c4de9001f276de01bec3b04abfe", "fusion_lon": 0.0, "bike_id": "85e43c4de9001f276de01bec3b04abfe", "is_disabled": 0, "is_reserved": 0}, {"rental_uris": {"ios": "https://dc.lft.to/lastmile_qr_scan", "android": "https://dc.lft.to/lastmile_qr_scan"}, "lon": -77.15269983333333, "type": "electric_bike", "fusion_lat": 0.0, "lat": 39.105661, "name": "a4923f5e5db0c7c1d19736ef8f2f02a7", "fusion_lon": 0.0, "bike_id": "a4923f5e5db0c7c1d19736ef8f2f02a7", "is_disabled": 0, "is_reserved": 0}, {"rental_uris": {"ios": "https://dc.lft.to/lastmile_qr_scan", "android": "https://dc.lft.to/lastmile_qr_scan"}, "lon": -76.93174766666667, "type": "electric_scooter", "fusion_lat": 0.0, "lat": 38.898853, "name": "74425cdf82b4856b742226ec52cdcf49", "fusion_lon": 0.0, "bike_id": "74425cdf82b4856b742226ec52cdcf49", "is_disabled": 0, "is_reserved": 0}, {"rental_uris": {"ios": "https://dc.lft.to/lastmile_qr_scan", "android": "https://dc.lft.to/lastmile_qr_scan"}, "lon": -77.026925, "type": "electric_scooter", "fusion_lat": 0.0, "lat": 38.91333, "name": "ae64d494c1915275f3075e36b3c9d2ad", "fusion_lon": 0.0, "bike_id": "ae64d494c1915275f3075e36b3c9d2ad", "is_disabled": 0, "is_reserved": 0}, {"rental_uris": {"ios": "https://dc.lft.to/lastmile_qr_scan", "android": "https://dc.lft.to/lastmile_qr_scan"}, "lon": -77.03079633333333, "type": "electric_scooter", "fusion_lat": 0.0, "lat": 38.92240833333334, "name": "3b103a1aa9acd8b71d1756e106b108f9", "fusion_lon": 0.0, "bike_id": "3b103a1aa9acd8b71d1756e106b108f9", "is_disabled": 0, "is_reserved": 0}, {"rental_uris": {"ios": "https://dc.lft.to/lastmile_qr_scan", "android": "https://dc.lft.to/lastmile_qr_scan"}, "lon": -76.937935, "type": "electric_scooter", "fusion_lat": 0.0, "lat": 38.890875333333334, "name": "0a72779cf114865fbc041bcfa299987f", "fusion_lon": 0.0, "bike_id": "0a72779cf114865fbc041bcfa299987f", "is_disabled": 0, "is_reserved": 0}, {"rental_uris": {"ios": "https://dc.lft.to/lastmile_qr_scan", "android": "https://dc.lft.to/lastmile_qr_scan"}, "lon": -76.95758, "type": "electric_scooter", "fusion_lat": 0.0, "lat": 38.884354, "name": "bf07375037e71d4a3f8c0d1e8c8eb745", "fusion_lon": 0.0, "bike_id": "bf07375037e71d4a3f8c0d1e8c8eb745", "is_disabled": 0, "is_reserved": 0}, {"rental_uris": {"ios": "https://dc.lft.to/lastmile_qr_scan", "android": "https://dc.lft.to/lastmile_qr_scan"}, "lon": -77.01378566666666, "type": "electric_scooter", "fusion_lat": 0.0, "lat": 38.89226816666667, "name": "5cfe9b8604e8a214a36a47222e3029c9", "fusion_lon": 0.0, "bike_id": "5cfe9b8604e8a214a36a47222e3029c9", "is_disabled": 0, "is_reserved": 0}, {"rental_uris": {"ios": "https://dc.lft.to/lastmile_qr_scan", "android": "https://dc.lft.to/lastmile_qr_scan"}, "lon": -77.02489716666666, "type": "electric_scooter", "fusion_lat": 0.0, "lat": 38.9418345, "name": "472641124f0f6cdf33deaadd532862af", "fusion_lon": 0.0, "bike_id": "472641124f0f6cdf33deaadd532862af", "is_disabled": 0, "is_reserved": 0}, {"rental_uris": {"ios": "https://dc.lft.to/lastmile_qr_scan", "android": "https://dc.lft.to/lastmile_qr_scan"}, "lon": -77.03170333333334, "type": "electric_scooter", "fusion_lat": 0.0, "lat": 38.89958416666666, "name": "7cf705cd9c12b8caab59aeb1cc2b3317", "fusion_lon": 0.0, "bike_id": "7cf705cd9c12b8caab59aeb1cc2b3317", "is_disabled": 0, "is_reserved": 0}, {"rental_uris": {"ios": "https://dc.lft.to/lastmile_qr_scan", "android": "https://dc.lft.to/lastmile_qr_scan"}, "lon": -77.01163816666667, "type": "electric_scooter", "fusion_lat": 0.0, "lat": 38.900253666666664, "name": "e873ad292203ecd5d8c7b5a9be9bd662", "fusion_lon": 0.0, "bike_id": "e873ad292203ecd5d8c7b5a9be9bd662", "is_disabled": 0, "is_reserved": 0}, {"rental_uris": {"ios": "https://dc.lft.to/lastmile_qr_scan", "android": "https://dc.lft.to/lastmile_qr_scan"}, "lon": -77.0384805, "type": "electric_scooter", "fusion_lat": 0.0, "lat": 38.908387, "name": "ee99a92683ea8a859fa983d902d65aec", "fusion_lon": 0.0, "bike_id": "ee99a92683ea8a859fa983d902d65aec", "is_disabled": 0, "is_reserved": 0}, {"rental_uris": {"ios": "https://dc.lft.to/lastmile_qr_scan", "android": "https://dc.lft.to/lastmile_qr_scan"}, "lon": -77.08543666666667, "type": "electric_bike", "fusion_lat": 0.0, "lat": 38.85622, "name": "3a78ee8a4a1e168b62c7c71fa0539863", "fusion_lon": 0.0, "bike_id": "3a78ee8a4a1e168b62c7c71fa0539863", "is_disabled": 0, "is_reserved": 0}, {"rental_uris": {"ios": "https://dc.lft.to/lastmile_qr_scan", "android": "https://dc.lft.to/lastmile_qr_scan"}, "lon": -77.046912, "type": "electric_scooter", "fusion_lat": 0.0, "lat": 38.897442, "name": "1952b5c7f49d6eea81fec669245a57be", "fusion_lon": 0.0, "bike_id": "1952b5c7f49d6eea81fec669245a57be", "is_disabled": 0, "is_reserved": 0}, {"rental_uris": {"ios": "https://dc.lft.to/lastmile_qr_scan", "android": "https://dc.lft.to/lastmile_qr_scan"}, "lon": -77.02658566666666, "type": "electric_scooter", "fusion_lat": 0.0, "lat": 38.91703233333333, "name": "e42b2113dfc1bd701b33fa38f7ec5d1f", "fusion_lon": 0.0, "bike_id": "e42b2113dfc1bd701b33fa38f7ec5d1f", "is_disabled": 0, "is_reserved": 0}, {"rental_uris": {"ios": "https://dc.lft.to/lastmile_qr_scan", "android": "https://dc.lft.to/lastmile_qr_scan"}, "lon": -76.988845, "type": "electric_scooter", "fusion_lat": 0.0, "lat": 38.86663716666666, "name": "bd1860b6a09fe86597a57c4af81a2243", "fusion_lon": 0.0, "bike_id": "bd1860b6a09fe86597a57c4af81a2243", "is_disabled": 0, "is_reserved": 0}, {"rental_uris": {"ios": "https://dc.lft.to/lastmile_qr_scan", "android": "https://dc.lft.to/lastmile_qr_scan"}, "lon": -76.99043516666667, "type": "electric_scooter", "fusion_lat": 0.0, "lat": 38.856648666666665, "name": "5917e3bdda94a43443fe63bd7d5a238a", "fusion_lon": 0.0, "bike_id": "5917e3bdda94a43443fe63bd7d5a238a", "is_disabled": 0, "is_reserved": 0}, {"rental_uris": {"ios": "https://dc.lft.to/lastmile_qr_scan", "android": "https://dc.lft.to/lastmile_qr_scan"}, "lon": -76.93246983333333, "type": "electric_scooter", "fusion_lat": 0.0, "lat": 38.89407, "name": "1cf1dfd8043b784c18a34a24c0b46d00", "fusion_lon": 0.0, "bike_id": "1cf1dfd8043b784c18a34a24c0b46d00", "is_disabled": 0, "is_reserved": 0}, {"rental_uris": {"ios": "https://dc.lft.to/lastmile_qr_scan", "android": "https://dc.lft.to/lastmile_qr_scan"}, "lon": -77.01603183333333, "type": "electric_scooter", "fusion_lat": 0.0, "lat": 38.90204933333333, "name": "79018efa19f4e3d5b540daf4d907c5b6", "fusion_lon": 0.0, "bike_id": "79018efa19f4e3d5b540daf4d907c5b6", "is_disabled": 0, "is_reserved": 0}, {"rental_uris": {"ios": "https://dc.lft.to/lastmile_qr_scan", "android": "https://dc.lft.to/lastmile_qr_scan"}, "lon": -77.12967366666666, "type": "electric_bike", "fusion_lat": 0.0, "lat": 38.80794, "name": "51ba65dd45b08142298838dcb866b70f", "fusion_lon": 0.0, "bike_id": "51ba65dd45b08142298838dcb866b70f", "is_disabled": 0, "is_reserved": 0}, {"rental_uris": {"ios": "https://dc.lft.to/lastmile_qr_scan", "android": "https://dc.lft.to/lastmile_qr_scan"}, "lon": -77.01293766666667, "type": "electric_bike", "fusion_lat": 0.0, "lat": 39.003790333333335, "name": "31d740289f31dfd46986b5a06c2fcb53", "fusion_lon": 0.0, "bike_id": "31d740289f31dfd46986b5a06c2fcb53", "is_disabled": 0, "is_reserved": 0}, {"rental_uris": {"ios": "https://dc.lft.to/lastmile_qr_scan", "android": "https://dc.lft.to/lastmile_qr_scan"}, "lon": -77.033534, "type": "electric_scooter", "fusion_lat": 0.0, "lat": 38.895336, "name": "6f679efcb30e8a58086619936a6d25c4", "fusion_lon": 0.0, "bike_id": "6f679efcb30e8a58086619936a6d25c4", "is_disabled": 0, "is_reserved": 0}, {"rental_uris": {"ios": "https://dc.lft.to/lastmile_qr_scan", "android": "https://dc.lft.to/lastmile_qr_scan"}, "lon": -77.04664666666666, "type": "electric_scooter", "fusion_lat": 0.0, "lat": 38.9330225, "name": "d0bc424b1d2769647b78e0b8d0a5b82c", "fusion_lon": 0.0, "bike_id": "d0bc424b1d2769647b78e0b8d0a5b82c", "is_disabled": 0, "is_reserved": 0}, {"rental_uris": {"ios": "https://dc.lft.to/lastmile_qr_scan", "android": "https://dc.lft.to/lastmile_qr_scan"}, "lon": -77.08389983333333, "type": "electric_scooter", "fusion_lat": 0.0, "lat": 38.96103683333333, "name": "d81220bca5da81ced258836701e1467d", "fusion_lon": 0.0, "bike_id": "d81220bca5da81ced258836701e1467d", "is_disabled": 0, "is_reserved": 0}, {"rental_uris": {"ios": "https://dc.lft.to/lastmile_qr_scan", "android": "https://dc.lft.to/lastmile_qr_scan"}, "lon": -77.04880666666666, "type": "electric_scooter", "fusion_lat": 0.0, "lat": 38.9021225, "name": "5d55d6683b41724d420de83ba8c692a0", "fusion_lon": 0.0, "bike_id": "5d55d6683b41724d420de83ba8c692a0", "is_disabled": 0, "is_reserved": 0}, {"rental_uris": {"ios": "https://dc.lft.to/lastmile_qr_scan", "android": "https://dc.lft.to/lastmile_qr_scan"}, "lon": -77.04507383333333, "type": "electric_scooter", "fusion_lat": 0.0, "lat": 38.911157, "name": "8c584dbb7f2c07b3468da4f9087b3db7", "fusion_lon": 0.0, "bike_id": "8c584dbb7f2c07b3468da4f9087b3db7", "is_disabled": 0, "is_reserved": 0}, {"rental_uris": {"ios": "https://dc.lft.to/lastmile_qr_scan", "android": "https://dc.lft.to/lastmile_qr_scan"}, "lon": -77.0302965, "type": "electric_scooter", "fusion_lat": 0.0, "lat": 38.896071, "name": "e3b0bfa71e5dee7fc166009404fddeef", "fusion_lon": 0.0, "bike_id": "e3b0bfa71e5dee7fc166009404fddeef", "is_disabled": 0, "is_reserved": 0}, {"rental_uris": {"ios": "https://dc.lft.to/lastmile_qr_scan", "android": "https://dc.lft.to/lastmile_qr_scan"}, "lon": -77.0552375, "type": "electric_scooter", "fusion_lat": 0.0, "lat": 38.897322833333334, "name": "fcaec655be196c59a20a49d1d8df7e3c", "fusion_lon": 0.0, "bike_id": "fcaec655be196c59a20a49d1d8df7e3c", "is_disabled": 0, "is_reserved": 0}, {"rental_uris": {"ios": "https://dc.lft.to/lastmile_qr_scan", "android": "https://dc.lft.to/lastmile_qr_scan"}, "lon": -77.04644433333333, "type": "electric_bike", "fusion_lat": 0.0, "lat": 38.85211183333333, "name": "d5677f5bd67e652f9e6849e29e47ee5f", "fusion_lon": 0.0, "bike_id": "d5677f5bd67e652f9e6849e29e47ee5f", "is_disabled": 0, "is_reserved": 0}, {"rental_uris": {"ios": "https://dc.lft.to/lastmile_qr_scan", "android": "https://dc.lft.to/lastmile_qr_scan"}, "lon": -77.03205816666667, "type": "electric_scooter", "fusion_lat": 0.0, "lat": 38.915394, "name": "81845cd0a28f97d31bcdbded6ce804d9", "fusion_lon": 0.0, "bike_id": "81845cd0a28f97d31bcdbded6ce804d9", "is_disabled": 0, "is_reserved": 0}, {"rental_uris": {"ios": "https://dc.lft.to/lastmile_qr_scan", "android": "https://dc.lft.to/lastmile_qr_scan"}, "lon": -77.02963066666666, "type": "electric_scooter", "fusion_lat": 0.0, "lat": 38.92688283333333, "name": "e74ccbc94dbbdcc3e254cacfbf4a9bed", "fusion_lon": 0.0, "bike_id": "e74ccbc94dbbdcc3e254cacfbf4a9bed", "is_disabled": 0, "is_reserved": 0}, {"rental_uris": {"ios": "https://dc.lft.to/lastmile_qr_scan", "android": "https://dc.lft.to/lastmile_qr_scan"}, "lon": -77.032248, "type": "electric_scooter", "fusion_lat": 0.0, "lat": 38.925898333333336, "name": "35bfcbaa49848c5133532c6cc19e8410", "fusion_lon": 0.0, "bike_id": "35bfcbaa49848c5133532c6cc19e8410", "is_disabled": 0, "is_reserved": 0}, {"rental_uris": {"ios": "https://dc.lft.to/lastmile_qr_scan", "android": "https://dc.lft.to/lastmile_qr_scan"}, "lon": -77.011183, "type": "electric_scooter", "fusion_lat": 0.0, "lat": 38.90363083333333, "name": "218bc57dcdae9794aeef9827ab8bc428", "fusion_lon": 0.0, "bike_id": "218bc57dcdae9794aeef9827ab8bc428", "is_disabled": 0, "is_reserved": 0}, {"rental_uris": {"ios": "https://dc.lft.to/lastmile_qr_scan", "android": "https://dc.lft.to/lastmile_qr_scan"}, "lon": -76.96529366666667, "type": "electric_scooter", "fusion_lat": 0.0, "lat": 38.87630633333333, "name": "10204c62d87cb78c14fe01d66c22342a", "fusion_lon": 0.0, "bike_id": "10204c62d87cb78c14fe01d66c22342a", "is_disabled": 0, "is_reserved": 0}, {"rental_uris": {"ios": "https://dc.lft.to/lastmile_qr_scan", "android": "https://dc.lft.to/lastmile_qr_scan"}, "lon": -77.03253233333334, "type": "electric_bike", "fusion_lat": 0.0, "lat": 38.914095, "name": "d13f40fa660169efc1fe5045e9165ce9", "fusion_lon": 0.0, "bike_id": "d13f40fa660169efc1fe5045e9165ce9", "is_disabled": 0, "is_reserved": 0}, {"rental_uris": {"ios": "https://dc.lft.to/lastmile_qr_scan", "android": "https://dc.lft.to/lastmile_qr_scan"}, "lon": -77.02476083333333, "type": "electric_scooter", "fusion_lat": 0.0, "lat": 38.93820983333333, "name": "263f12726df967189c184d9a72425bac", "fusion_lon": 0.0, "bike_id": "263f12726df967189c184d9a72425bac", "is_disabled": 0, "is_reserved": 0}, {"rental_uris": {"ios": "https://dc.lft.to/lastmile_qr_scan", "android": "https://dc.lft.to/lastmile_qr_scan"}, "lon": -76.96379083333333, "type": "electric_bike", "fusion_lat": 0.0, "lat": 38.948995, "name": "14cfa73bbc73d199185615bdb431d568", "fusion_lon": 0.0, "bike_id": "14cfa73bbc73d199185615bdb431d568", "is_disabled": 0, "is_reserved": 0}, {"rental_uris": {"ios": "https://dc.lft.to/lastmile_qr_scan", "android": "https://dc.lft.to/lastmile_qr_scan"}, "lon": -76.947572, "type": "electric_scooter", "fusion_lat": 0.0, "lat": 38.90054533333333, "name": "d27bd112a5747f0f393bc1d910688005", "fusion_lon": 0.0, "bike_id": "d27bd112a5747f0f393bc1d910688005", "is_disabled": 0, "is_reserved": 0}, {"rental_uris": {"ios": "https://dc.lft.to/lastmile_qr_scan", "android": "https://dc.lft.to/lastmile_qr_scan"}, "lon": -77.03644433333334, "type": "electric_scooter", "fusion_lat": 0.0, "lat": 38.917345833333336, "name": "ae1da8751b0aff9a8db2d35550407bc9", "fusion_lon": 0.0, "bike_id": "ae1da8751b0aff9a8db2d35550407bc9", "is_disabled": 0, "is_reserved": 0}, {"rental_uris": {"ios": "https://dc.lft.to/lastmile_qr_scan", "android": "https://dc.lft.to/lastmile_qr_scan"}, "lon": -77.03183216666666, "type": "electric_scooter", "fusion_lat": 0.0, "lat": 38.91797283333333, "name": "46b98ad3c3dd105347999f7e4aef6836", "fusion_lon": 0.0, "bike_id": "46b98ad3c3dd105347999f7e4aef6836", "is_disabled": 0, "is_reserved": 0}, {"rental_uris": {"ios": "https://dc.lft.to/lastmile_qr_scan", "android": "https://dc.lft.to/lastmile_qr_scan"}, "lon": -77.04048633333333, "type": "electric_bike", "fusion_lat": 0.0, "lat": 38.908534333333336, "name": "2302a9f66f13ea290d28c8d88d133d4a", "fusion_lon": 0.0, "bike_id": "2302a9f66f13ea290d28c8d88d133d4a", "is_disabled": 0, "is_reserved": 0}, {"rental_uris": {"ios": "https://dc.lft.to/lastmile_qr_scan", "android": "https://dc.lft.to/lastmile_qr_scan"}, "lon": -77.01287133333334, "type": "electric_scooter", "fusion_lat": 0.0, "lat": 38.900584333333335, "name": "7ead0a1ed0a4d775d092b874060734d1", "fusion_lon": 0.0, "bike_id": "7ead0a1ed0a4d775d092b874060734d1", "is_disabled": 0, "is_reserved": 0}, {"rental_uris": {"ios": "https://dc.lft.to/lastmile_qr_scan", "android": "https://dc.lft.to/lastmile_qr_scan"}, "lon": -77.062882, "type": "electric_bike", "fusion_lat": 0.0, "lat": 38.90457416666667, "name": "bdf639f19cfc01ddd5397db2913f4084", "fusion_lon": 0.0, "bike_id": "bdf639f19cfc01ddd5397db2913f4084", "is_disabled": 0, "is_reserved": 0}, {"rental_uris": {"ios": "https://dc.lft.to/lastmile_qr_scan", "android": "https://dc.lft.to/lastmile_qr_scan"}, "lon": -77.03421183333333, "type": "electric_scooter", "fusion_lat": 0.0, "lat": 38.93543233333333, "name": "15d7eb7f4ec7e96c08c4a38c76309933", "fusion_lon": 0.0, "bike_id": "15d7eb7f4ec7e96c08c4a38c76309933", "is_disabled": 0, "is_reserved": 0}, {"rental_uris": {"ios": "https://dc.lft.to/lastmile_qr_scan", "android": "https://dc.lft.to/lastmile_qr_scan"}, "lon": -77.02860216666667, "type": "electric_scooter", "fusion_lat": 0.0, "lat": 38.9282275, "name": "16942cd360eba86e9138698162bb52f6", "fusion_lon": 0.0, "bike_id": "16942cd360eba86e9138698162bb52f6", "is_disabled": 0, "is_reserved": 0}, {"rental_uris": {"ios": "https://dc.lft.to/lastmile_qr_scan", "android": "https://dc.lft.to/lastmile_qr_scan"}, "lon": -77.0235765, "type": "electric_scooter", "fusion_lat": 0.0, "lat": 38.925082333333336, "name": "3c63daa68e138a8994bbce54a007fcf1", "fusion_lon": 0.0, "bike_id": "3c63daa68e138a8994bbce54a007fcf1", "is_disabled": 0, "is_reserved": 0}, {"rental_uris": {"ios": "https://dc.lft.to/lastmile_qr_scan", "android": "https://dc.lft.to/lastmile_qr_scan"}, "lon": -77.0402115, "type": "electric_scooter", "fusion_lat": 0.0, "lat": 38.92164966666667, "name": "43e48b8d927021a30d01cf78354d7f70", "fusion_lon": 0.0, "bike_id": "43e48b8d927021a30d01cf78354d7f70", "is_disabled": 0, "is_reserved": 0}, {"rental_uris": {"ios": "https://dc.lft.to/lastmile_qr_scan", "android": "https://dc.lft.to/lastmile_qr_scan"}, "lon": -77.0170145, "type": "electric_scooter", "fusion_lat": 0.0, "lat": 38.92029183333333, "name": "d9a71b3722fb455a1e0943242d144767", "fusion_lon": 0.0, "bike_id": "d9a71b3722fb455a1e0943242d144767", "is_disabled": 0, "is_reserved": 0}, {"rental_uris": {"ios": "https://dc.lft.to/lastmile_qr_scan", "android": "https://dc.lft.to/lastmile_qr_scan"}, "lon": -77.03539933333333, "type": "electric_scooter", "fusion_lat": 0.0, "lat": 38.9328795, "name": "a3fe0e56003059dbb7070d50f2b1ce55", "fusion_lon": 0.0, "bike_id": "a3fe0e56003059dbb7070d50f2b1ce55", "is_disabled": 0, "is_reserved": 0}, {"rental_uris": {"ios": "https://dc.lft.to/lastmile_qr_scan", "android": "https://dc.lft.to/lastmile_qr_scan"}, "lon": -77.03348083333333, "type": "electric_scooter", "fusion_lat": 0.0, "lat": 38.934182166666666, "name": "c28884c0464bb2a361fc27e07e61bbd3", "fusion_lon": 0.0, "bike_id": "c28884c0464bb2a361fc27e07e61bbd3", "is_disabled": 0, "is_reserved": 0}, {"rental_uris": {"ios": "https://dc.lft.to/lastmile_qr_scan", "android": "https://dc.lft.to/lastmile_qr_scan"}, "lon": -77.02245033333334, "type": "electric_scooter", "fusion_lat": 0.0, "lat": 38.924647666666665, "name": "7553e012a0484dfc978f366312f33ac8", "fusion_lon": 0.0, "bike_id": "7553e012a0484dfc978f366312f33ac8", "is_disabled": 0, "is_reserved": 0}, {"rental_uris": {"ios": "https://dc.lft.to/lastmile_qr_scan", "android": "https://dc.lft.to/lastmile_qr_scan"}, "lon": -77.04805966666666, "type": "electric_scooter", "fusion_lat": 0.0, "lat": 38.920323, "name": "e27912dcc062068b02b7f63d49785040", "fusion_lon": 0.0, "bike_id": "e27912dcc062068b02b7f63d49785040", "is_disabled": 0, "is_reserved": 0}, {"rental_uris": {"ios": "https://dc.lft.to/lastmile_qr_scan", "android": "https://dc.lft.to/lastmile_qr_scan"}, "lon": -77.02374766666667, "type": "electric_scooter", "fusion_lat": 0.0, "lat": 38.936956333333335, "name": "68714cbec69e98d5d1d7d19298e16346", "fusion_lon": 0.0, "bike_id": "68714cbec69e98d5d1d7d19298e16346", "is_disabled": 0, "is_reserved": 0}, {"rental_uris": {"ios": "https://dc.lft.to/lastmile_qr_scan", "android": "https://dc.lft.to/lastmile_qr_scan"}, "lon": -77.04035916666666, "type": "electric_scooter", "fusion_lat": 0.0, "lat": 38.92472766666667, "name": "2d6e82365b0ae11761812a9c699e689a", "fusion_lon": 0.0, "bike_id": "2d6e82365b0ae11761812a9c699e689a", "is_disabled": 0, "is_reserved": 0}, {"rental_uris": {"ios": "https://dc.lft.to/lastmile_qr_scan", "android": "https://dc.lft.to/lastmile_qr_scan"}, "lon": -76.97276233333334, "type": "electric_bike", "fusion_lat": 0.0, "lat": 38.9197315, "name": "349e0648d8ad262fb6e5da37aa12c8e9", "fusion_lon": 0.0, "bike_id": "349e0648d8ad262fb6e5da37aa12c8e9", "is_disabled": 0, "is_reserved": 0}, {"rental_uris": {"ios": "https://dc.lft.to/lastmile_qr_scan", "android": "https://dc.lft.to/lastmile_qr_scan"}, "lon": -76.99001516666667, "type": "electric_scooter", "fusion_lat": 0.0, "lat": 38.865039333333335, "name": "5b3ca6e3b9f7912f4b97492061760592", "fusion_lon": 0.0, "bike_id": "5b3ca6e3b9f7912f4b97492061760592", "is_disabled": 0, "is_reserved": 0}, {"rental_uris": {"ios": "https://dc.lft.to/lastmile_qr_scan", "android": "https://dc.lft.to/lastmile_qr_scan"}, "lon": -77.11051266666666, "type": "electric_bike", "fusion_lat": 0.0, "lat": 38.870785833333336, "name": "f479d311238560f4a94b221de924bd0c", "fusion_lon": 0.0, "bike_id": "f479d311238560f4a94b221de924bd0c", "is_disabled": 0, "is_reserved": 0}, {"rental_uris": {"ios": "https://dc.lft.to/lastmile_qr_scan", "android": "https://dc.lft.to/lastmile_qr_scan"}, "lon": -76.980215, "type": "electric_scooter", "fusion_lat": 0.0, "lat": 38.88765466666667, "name": "3fb5a869319209028ee87fa5d9dff711", "fusion_lon": 0.0, "bike_id": "3fb5a869319209028ee87fa5d9dff711", "is_disabled": 0, "is_reserved": 0}, {"rental_uris": {"ios": "https://dc.lft.to/lastmile_qr_scan", "android": "https://dc.lft.to/lastmile_qr_scan"}, "lon": -77.02980416666666, "type": "electric_scooter", "fusion_lat": 0.0, "lat": 38.90734366666667, "name": "de2ceb729ba33313cb0768d97d8f52a6", "fusion_lon": 0.0, "bike_id": "de2ceb729ba33313cb0768d97d8f52a6", "is_disabled": 0, "is_reserved": 0}, {"rental_uris": {"ios": "https://dc.lft.to/lastmile_qr_scan", "android": "https://dc.lft.to/lastmile_qr_scan"}, "lon": -77.00738433333333, "type": "electric_scooter", "fusion_lat": 0.0, "lat": 38.9162305, "name": "26a89602c66a6fc7865532441b5338f2", "fusion_lon": 0.0, "bike_id": "26a89602c66a6fc7865532441b5338f2", "is_disabled": 0, "is_reserved": 0}, {"rental_uris": {"ios": "https://dc.lft.to/lastmile_qr_scan", "android": "https://dc.lft.to/lastmile_qr_scan"}, "lon": -77.01745883333334, "type": "electric_scooter", "fusion_lat": 0.0, "lat": 38.87720433333333, "name": "dddf68e1ddd889a746513d7ee504b45f", "fusion_lon": 0.0, "bike_id": "dddf68e1ddd889a746513d7ee504b45f", "is_disabled": 0, "is_reserved": 0}, {"rental_uris": {"ios": "https://dc.lft.to/lastmile_qr_scan", "android": "https://dc.lft.to/lastmile_qr_scan"}, "lon": -77.03289466666666, "type": "electric_scooter", "fusion_lat": 0.0, "lat": 38.928777833333335, "name": "af3022d926c45ccf7ddfdea556014f1b", "fusion_lon": 0.0, "bike_id": "af3022d926c45ccf7ddfdea556014f1b", "is_disabled": 0, "is_reserved": 0}, {"rental_uris": {"ios": "https://dc.lft.to/lastmile_qr_scan", "android": "https://dc.lft.to/lastmile_qr_scan"}, "lon": -77.03152, "type": "electric_scooter", "fusion_lat": 0.0, "lat": 38.9156495, "name": "0ef253989d34ef68b6a760a4254a2a82", "fusion_lon": 0.0, "bike_id": "0ef253989d34ef68b6a760a4254a2a82", "is_disabled": 0, "is_reserved": 0}, {"rental_uris": {"ios": "https://dc.lft.to/lastmile_qr_scan", "android": "https://dc.lft.to/lastmile_qr_scan"}, "lon": -77.0317885, "type": "electric_scooter", "fusion_lat": 0.0, "lat": 38.92970833333333, "name": "2225968ddf8dfedb3d3e7ca46045ee15", "fusion_lon": 0.0, "bike_id": "2225968ddf8dfedb3d3e7ca46045ee15", "is_disabled": 0, "is_reserved": 0}, {"rental_uris": {"ios": "https://dc.lft.to/lastmile_qr_scan", "android": "https://dc.lft.to/lastmile_qr_scan"}, "lon": -77.02599166666667, "type": "electric_scooter", "fusion_lat": 0.0, "lat": 38.91692183333333, "name": "a5028c2d692e9f8130268a3856734aab", "fusion_lon": 0.0, "bike_id": "a5028c2d692e9f8130268a3856734aab", "is_disabled": 0, "is_reserved": 0}, {"rental_uris": {"ios": "https://dc.lft.to/lastmile_qr_scan", "android": "https://dc.lft.to/lastmile_qr_scan"}, "lon": -77.02230183333333, "type": "electric_bike", "fusion_lat": 0.0, "lat": 38.9568925, "name": "92fe926c410e95a34bae13b2d339b8a7", "fusion_lon": 0.0, "bike_id": "92fe926c410e95a34bae13b2d339b8a7", "is_disabled": 0, "is_reserved": 0}, {"rental_uris": {"ios": "https://dc.lft.to/lastmile_qr_scan", "android": "https://dc.lft.to/lastmile_qr_scan"}, "lon": -76.99779816666667, "type": "electric_scooter", "fusion_lat": 0.0, "lat": 38.84429216666667, "name": "473cb40c3d3b49f1a31e1205cef1deb1", "fusion_lon": 0.0, "bike_id": "473cb40c3d3b49f1a31e1205cef1deb1", "is_disabled": 0, "is_reserved": 0}, {"rental_uris": {"ios": "https://dc.lft.to/lastmile_qr_scan", "android": "https://dc.lft.to/lastmile_qr_scan"}, "lon": -77.02212016666667, "type": "electric_scooter", "fusion_lat": 0.0, "lat": 38.89769483333333, "name": "43e3f0bdd9512020f338e275c68bb407", "fusion_lon": 0.0, "bike_id": "43e3f0bdd9512020f338e275c68bb407", "is_disabled": 0, "is_reserved": 0}, {"rental_uris": {"ios": "https://dc.lft.to/lastmile_qr_scan", "android": "https://dc.lft.to/lastmile_qr_scan"}, "lon": -77.01792783333333, "type": "electric_scooter", "fusion_lat": 0.0, "lat": 38.941231333333334, "name": "a1b82b0bf97c470b7aeb0d383b7b0ce5", "fusion_lon": 0.0, "bike_id": "a1b82b0bf97c470b7aeb0d383b7b0ce5", "is_disabled": 0, "is_reserved": 0}, {"rental_uris": {"ios": "https://dc.lft.to/lastmile_qr_scan", "android": "https://dc.lft.to/lastmile_qr_scan"}, "lon": -77.0326115, "type": "electric_scooter", "fusion_lat": 0.0, "lat": 38.944175666666666, "name": "38bd413d535b6e418e22182ee6b3b28c", "fusion_lon": 0.0, "bike_id": "38bd413d535b6e418e22182ee6b3b28c", "is_disabled": 0, "is_reserved": 0}, {"rental_uris": {"ios": "https://dc.lft.to/lastmile_qr_scan", "android": "https://dc.lft.to/lastmile_qr_scan"}, "lon": -77.033408, "type": "electric_scooter", "fusion_lat": 0.0, "lat": 38.89839583333333, "name": "25989b94e1c9d3ac5aab84066c310334", "fusion_lon": 0.0, "bike_id": "25989b94e1c9d3ac5aab84066c310334", "is_disabled": 0, "is_reserved": 0}, {"rental_uris": {"ios": "https://dc.lft.to/lastmile_qr_scan", "android": "https://dc.lft.to/lastmile_qr_scan"}, "lon": -77.03031066666667, "type": "electric_scooter", "fusion_lat": 0.0, "lat": 38.92247716666667, "name": "366b07c21a38c6a33454d0e097b3702e", "fusion_lon": 0.0, "bike_id": "366b07c21a38c6a33454d0e097b3702e", "is_disabled": 0, "is_reserved": 0}, {"rental_uris": {"ios": "https://dc.lft.to/lastmile_qr_scan", "android": "https://dc.lft.to/lastmile_qr_scan"}, "lon": -77.06617383333334, "type": "electric_scooter", "fusion_lat": 0.0, "lat": 38.9052575, "name": "46ddddf4461cc8b98a9aeeae6f22e704", "fusion_lon": 0.0, "bike_id": "46ddddf4461cc8b98a9aeeae6f22e704", "is_disabled": 0, "is_reserved": 0}, {"rental_uris": {"ios": "https://dc.lft.to/lastmile_qr_scan", "android": "https://dc.lft.to/lastmile_qr_scan"}, "lon": -77.02020133333333, "type": "electric_scooter", "fusion_lat": 0.0, "lat": 38.93247233333334, "name": "6222d097c014f61b2e292fb45a1578ed", "fusion_lon": 0.0, "bike_id": "6222d097c014f61b2e292fb45a1578ed", "is_disabled": 0, "is_reserved": 0}, {"rental_uris": {"ios": "https://dc.lft.to/lastmile_qr_scan", "android": "https://dc.lft.to/lastmile_qr_scan"}, "lon": -77.04331033333334, "type": "electric_scooter", "fusion_lat": 0.0, "lat": 38.9278975, "name": "b3fe4fe03ed1918ee070cd8bb1139cfd", "fusion_lon": 0.0, "bike_id": "b3fe4fe03ed1918ee070cd8bb1139cfd", "is_disabled": 0, "is_reserved": 0}, {"rental_uris": {"ios": "https://dc.lft.to/lastmile_qr_scan", "android": "https://dc.lft.to/lastmile_qr_scan"}, "lon": -77.06535083333333, "type": "electric_scooter", "fusion_lat": 0.0, "lat": 38.90487916666667, "name": "e42dd65de718b39368b1705b671da5b7", "fusion_lon": 0.0, "bike_id": "e42dd65de718b39368b1705b671da5b7", "is_disabled": 0, "is_reserved": 0}, {"rental_uris": {"ios": "https://dc.lft.to/lastmile_qr_scan", "android": "https://dc.lft.to/lastmile_qr_scan"}, "lon": -76.99681416666667, "type": "electric_scooter", "fusion_lat": 0.0, "lat": 38.88682983333333, "name": "cb01cdd0761a5ef1c71ff31d9c611e6e", "fusion_lon": 0.0, "bike_id": "cb01cdd0761a5ef1c71ff31d9c611e6e", "is_disabled": 0, "is_reserved": 0}, {"rental_uris": {"ios": "https://dc.lft.to/lastmile_qr_scan", "android": "https://dc.lft.to/lastmile_qr_scan"}, "lon": -77.00779583333333, "type": "electric_scooter", "fusion_lat": 0.0, "lat": 38.89728683333333, "name": "016370c5d22c3fe1f2027172ee383974", "fusion_lon": 0.0, "bike_id": "016370c5d22c3fe1f2027172ee383974", "is_disabled": 0, "is_reserved": 0}, {"rental_uris": {"ios": "https://dc.lft.to/lastmile_qr_scan", "android": "https://dc.lft.to/lastmile_qr_scan"}, "lon": -77.011755, "type": "electric_scooter", "fusion_lat": 0.0, "lat": 38.900278166666666, "name": "c517233edf6c4f9ff9d0b7f0f70c26cb", "fusion_lon": 0.0, "bike_id": "c517233edf6c4f9ff9d0b7f0f70c26cb", "is_disabled": 0, "is_reserved": 0}, {"rental_uris": {"ios": "https://dc.lft.to/lastmile_qr_scan", "android": "https://dc.lft.to/lastmile_qr_scan"}, "lon": -76.95763033333333, "type": "electric_scooter", "fusion_lat": 0.0, "lat": 38.8868735, "name": "367015ef021481bc086b34073abd4c14", "fusion_lon": 0.0, "bike_id": "367015ef021481bc086b34073abd4c14", "is_disabled": 0, "is_reserved": 0}, {"rental_uris": {"ios": "https://dc.lft.to/lastmile_qr_scan", "android": "https://dc.lft.to/lastmile_qr_scan"}, "lon": -76.95890016666667, "type": "electric_scooter", "fusion_lat": 0.0, "lat": 38.858514666666665, "name": "9add5ced732106c6cc81c793a4c030d5", "fusion_lon": 0.0, "bike_id": "9add5ced732106c6cc81c793a4c030d5", "is_disabled": 0, "is_reserved": 0}, {"rental_uris": {"ios": "https://dc.lft.to/lastmile_qr_scan", "android": "https://dc.lft.to/lastmile_qr_scan"}, "lon": -77.0211825, "type": "electric_scooter", "fusion_lat": 0.0, "lat": 38.936995333333336, "name": "ca1f4826270416aed913381266af1b1d", "fusion_lon": 0.0, "bike_id": "ca1f4826270416aed913381266af1b1d", "is_disabled": 0, "is_reserved": 0}, {"rental_uris": {"ios": "https://dc.lft.to/lastmile_qr_scan", "android": "https://dc.lft.to/lastmile_qr_scan"}, "lon": -76.98259933333334, "type": "electric_scooter", "fusion_lat": 0.0, "lat": 38.8635525, "name": "9a5db9dd7a3c5bd6593fd825cc84c58f", "fusion_lon": 0.0, "bike_id": "9a5db9dd7a3c5bd6593fd825cc84c58f", "is_disabled": 0, "is_reserved": 0}, {"rental_uris": {"ios": "https://dc.lft.to/lastmile_qr_scan", "android": "https://dc.lft.to/lastmile_qr_scan"}, "lon": -77.04418466666667, "type": "electric_scooter", "fusion_lat": 0.0, "lat": 38.90578566666667, "name": "674273502f03a23cd6582292feb9f4ec", "fusion_lon": 0.0, "bike_id": "674273502f03a23cd6582292feb9f4ec", "is_disabled": 0, "is_reserved": 0}, {"rental_uris": {"ios": "https://dc.lft.to/lastmile_qr_scan", "android": "https://dc.lft.to/lastmile_qr_scan"}, "lon": -77.05441616666667, "type": "electric_scooter", "fusion_lat": 0.0, "lat": 38.89608616666666, "name": "3f2afd31c6b5bada88eb4179ca116b55", "fusion_lon": 0.0, "bike_id": "3f2afd31c6b5bada88eb4179ca116b55", "is_disabled": 0, "is_reserved": 0}, {"rental_uris": {"ios": "https://dc.lft.to/lastmile_qr_scan", "android": "https://dc.lft.to/lastmile_qr_scan"}, "lon": -77.0467615, "type": "electric_scooter", "fusion_lat": 0.0, "lat": 38.89234, "name": "3464737807656b88ddd889fd83d274cf", "fusion_lon": 0.0, "bike_id": "3464737807656b88ddd889fd83d274cf", "is_disabled": 0, "is_reserved": 0}, {"rental_uris": {"ios": "https://dc.lft.to/lastmile_qr_scan", "android": "https://dc.lft.to/lastmile_qr_scan"}, "lon": -77.040103, "type": "electric_scooter", "fusion_lat": 0.0, "lat": 38.9325485, "name": "76720d8fdb6b4bf7dd94454eaf457e8e", "fusion_lon": 0.0, "bike_id": "76720d8fdb6b4bf7dd94454eaf457e8e", "is_disabled": 0, "is_reserved": 0}, {"rental_uris": {"ios": "https://dc.lft.to/lastmile_qr_scan", "android": "https://dc.lft.to/lastmile_qr_scan"}, "lon": -77.020208, "type": "electric_scooter", "fusion_lat": 0.0, "lat": 38.91653933333333, "name": "1643944fed42eb52bf77f24a4e4b82bf", "fusion_lon": 0.0, "bike_id": "1643944fed42eb52bf77f24a4e4b82bf", "is_disabled": 0, "is_reserved": 0}, {"rental_uris": {"ios": "https://dc.lft.to/lastmile_qr_scan", "android": "https://dc.lft.to/lastmile_qr_scan"}, "lon": -77.03264616666667, "type": "electric_scooter", "fusion_lat": 0.0, "lat": 38.932596, "name": "53371f9b704402eeff243b3502a082da", "fusion_lon": 0.0, "bike_id": "53371f9b704402eeff243b3502a082da", "is_disabled": 0, "is_reserved": 0}, {"rental_uris": {"ios": "https://dc.lft.to/lastmile_qr_scan", "android": "https://dc.lft.to/lastmile_qr_scan"}, "lon": -77.03468116666667, "type": "electric_scooter", "fusion_lat": 0.0, "lat": 38.91993033333333, "name": "7d75d6d2082b6b08a6bd23805cb6520b", "fusion_lon": 0.0, "bike_id": "7d75d6d2082b6b08a6bd23805cb6520b", "is_disabled": 0, "is_reserved": 0}, {"rental_uris": {"ios": "https://dc.lft.to/lastmile_qr_scan", "android": "https://dc.lft.to/lastmile_qr_scan"}, "lon": -77.03209933333333, "type": "electric_scooter", "fusion_lat": 0.0, "lat": 38.918018000000004, "name": "00a963bddccc42f8e1732fff53a70a6d", "fusion_lon": 0.0, "bike_id": "00a963bddccc42f8e1732fff53a70a6d", "is_disabled": 0, "is_reserved": 0}, {"rental_uris": {"ios": "https://dc.lft.to/lastmile_qr_scan", "android": "https://dc.lft.to/lastmile_qr_scan"}, "lon": -76.967585, "type": "electric_bike", "fusion_lat": 0.0, "lat": 38.87551833333333, "name": "ac95a8a35e0236d4fb31333e6ef370b8", "fusion_lon": 0.0, "bike_id": "ac95a8a35e0236d4fb31333e6ef370b8", "is_disabled": 0, "is_reserved": 0}, {"rental_uris": {"ios": "https://dc.lft.to/lastmile_qr_scan", "android": "https://dc.lft.to/lastmile_qr_scan"}, "lon": -76.993775, "type": "electric_scooter", "fusion_lat": 0.0, "lat": 38.897449333333334, "name": "7a9ab13f69e0ff7b65f3d86a1b80c70b", "fusion_lon": 0.0, "bike_id": "7a9ab13f69e0ff7b65f3d86a1b80c70b", "is_disabled": 0, "is_reserved": 0}, {"rental_uris": {"ios": "https://dc.lft.to/lastmile_qr_scan", "android": "https://dc.lft.to/lastmile_qr_scan"}, "lon": -77.0112305, "type": "electric_scooter", "fusion_lat": 0.0, "lat": 38.9000695, "name": "c33174c08f1b9ed0814112269c1e6c93", "fusion_lon": 0.0, "bike_id": "c33174c08f1b9ed0814112269c1e6c93", "is_disabled": 0, "is_reserved": 0}, {"rental_uris": {"ios": "https://dc.lft.to/lastmile_qr_scan", "android": "https://dc.lft.to/lastmile_qr_scan"}, "lon": -77.029464, "type": "electric_scooter", "fusion_lat": 0.0, "lat": 38.90408733333334, "name": "688eb05d94c2561855ab9d3df8ad068f", "fusion_lon": 0.0, "bike_id": "688eb05d94c2561855ab9d3df8ad068f", "is_disabled": 0, "is_reserved": 0}, {"rental_uris": {"ios": "https://dc.lft.to/lastmile_qr_scan", "android": "https://dc.lft.to/lastmile_qr_scan"}, "lon": -77.01365483333333, "type": "electric_scooter", "fusion_lat": 0.0, "lat": 38.8637225, "name": "37dc1560bc6ed120f4a044a0163753d9", "fusion_lon": 0.0, "bike_id": "37dc1560bc6ed120f4a044a0163753d9", "is_disabled": 0, "is_reserved": 0}, {"rental_uris": {"ios": "https://dc.lft.to/lastmile_qr_scan", "android": "https://dc.lft.to/lastmile_qr_scan"}, "lon": -77.03633366666666, "type": "electric_scooter", "fusion_lat": 0.0, "lat": 38.902716833333336, "name": "a143858aa7d69cecbb607d09fc9846ce", "fusion_lon": 0.0, "bike_id": "a143858aa7d69cecbb607d09fc9846ce", "is_disabled": 0, "is_reserved": 0}, {"rental_uris": {"ios": "https://dc.lft.to/lastmile_qr_scan", "android": "https://dc.lft.to/lastmile_qr_scan"}, "lon": -77.03261416666666, "type": "electric_scooter", "fusion_lat": 0.0, "lat": 38.929836333333334, "name": "e145a6a3c569ccf4b48daa70e5ccecd6", "fusion_lon": 0.0, "bike_id": "e145a6a3c569ccf4b48daa70e5ccecd6", "is_disabled": 0, "is_reserved": 0}, {"rental_uris": {"ios": "https://dc.lft.to/lastmile_qr_scan", "android": "https://dc.lft.to/lastmile_qr_scan"}, "lon": -77.07162866666667, "type": "electric_scooter", "fusion_lat": 0.0, "lat": 38.914584833333336, "name": "03168805a6adafcb0140589a1623d01c", "fusion_lon": 0.0, "bike_id": "03168805a6adafcb0140589a1623d01c", "is_disabled": 0, "is_reserved": 0}, {"rental_uris": {"ios": "https://dc.lft.to/lastmile_qr_scan", "android": "https://dc.lft.to/lastmile_qr_scan"}, "lon": -77.04352833333333, "type": "electric_scooter", "fusion_lat": 0.0, "lat": 38.89644833333333, "name": "0513632a0bf83c2df402003b37a994f6", "fusion_lon": 0.0, "bike_id": "0513632a0bf83c2df402003b37a994f6", "is_disabled": 0, "is_reserved": 0}, {"rental_uris": {"ios": "https://dc.lft.to/lastmile_qr_scan", "android": "https://dc.lft.to/lastmile_qr_scan"}, "lon": -77.0356775, "type": "electric_scooter", "fusion_lat": 0.0, "lat": 38.91809, "name": "7dd86cb91a6e652c01354024e8e24209", "fusion_lon": 0.0, "bike_id": "7dd86cb91a6e652c01354024e8e24209", "is_disabled": 0, "is_reserved": 0}, {"rental_uris": {"ios": "https://dc.lft.to/lastmile_qr_scan", "android": "https://dc.lft.to/lastmile_qr_scan"}, "lon": -77.0694535, "type": "electric_scooter", "fusion_lat": 0.0, "lat": 38.905053833333334, "name": "d3b495b1a2ca6b4b0fe525952276a1b1", "fusion_lon": 0.0, "bike_id": "d3b495b1a2ca6b4b0fe525952276a1b1", "is_disabled": 0, "is_reserved": 0}, {"rental_uris": {"ios": "https://dc.lft.to/lastmile_qr_scan", "android": "https://dc.lft.to/lastmile_qr_scan"}, "lon": -77.04203116666666, "type": "electric_scooter", "fusion_lat": 0.0, "lat": 38.91104333333333, "name": "401d13988bf066f6b0c8d899920f00a2", "fusion_lon": 0.0, "bike_id": "401d13988bf066f6b0c8d899920f00a2", "is_disabled": 0, "is_reserved": 0}, {"rental_uris": {"ios": "https://dc.lft.to/lastmile_qr_scan", "android": "https://dc.lft.to/lastmile_qr_scan"}, "lon": -77.03242783333333, "type": "electric_scooter", "fusion_lat": 0.0, "lat": 38.92774883333333, "name": "3fccff1f0a60e00c5d4c7429a39bced0", "fusion_lon": 0.0, "bike_id": "3fccff1f0a60e00c5d4c7429a39bced0", "is_disabled": 0, "is_reserved": 0}, {"rental_uris": {"ios": "https://dc.lft.to/lastmile_qr_scan", "android": "https://dc.lft.to/lastmile_qr_scan"}, "lon": -77.03902716666667, "type": "electric_scooter", "fusion_lat": 0.0, "lat": 38.91843166666666, "name": "031e43f7016fc9ef22a2f93351eb6f23", "fusion_lon": 0.0, "bike_id": "031e43f7016fc9ef22a2f93351eb6f23", "is_disabled": 0, "is_reserved": 0}, {"rental_uris": {"ios": "https://dc.lft.to/lastmile_qr_scan", "android": "https://dc.lft.to/lastmile_qr_scan"}, "lon": -77.00786516666666, "type": "electric_scooter", "fusion_lat": 0.0, "lat": 38.90656166666667, "name": "80da758311f7ea7f2da97966e8351243", "fusion_lon": 0.0, "bike_id": "80da758311f7ea7f2da97966e8351243", "is_disabled": 0, "is_reserved": 0}, {"rental_uris": {"ios": "https://dc.lft.to/lastmile_qr_scan", "android": "https://dc.lft.to/lastmile_qr_scan"}, "lon": -77.02963366666667, "type": "electric_scooter", "fusion_lat": 0.0, "lat": 38.925704333333336, "name": "dd9d59ed3057504f06b1797b92a0f77e", "fusion_lon": 0.0, "bike_id": "dd9d59ed3057504f06b1797b92a0f77e", "is_disabled": 0, "is_reserved": 0}, {"rental_uris": {"ios": "https://dc.lft.to/lastmile_qr_scan", "android": "https://dc.lft.to/lastmile_qr_scan"}, "lon": -77.1180415, "type": "electric_bike", "fusion_lat": 0.0, "lat": 38.898383833333334, "name": "838ef77e5b09eef66c6e71d96f3d353f", "fusion_lon": 0.0, "bike_id": "838ef77e5b09eef66c6e71d96f3d353f", "is_disabled": 0, "is_reserved": 0}, {"rental_uris": {"ios": "https://dc.lft.to/lastmile_qr_scan", "android": "https://dc.lft.to/lastmile_qr_scan"}, "lon": -77.01513616666666, "type": "electric_scooter", "fusion_lat": 0.0, "lat": 38.887417, "name": "7496fcd0bc2f1a873bbc01fd75306cbc", "fusion_lon": 0.0, "bike_id": "7496fcd0bc2f1a873bbc01fd75306cbc", "is_disabled": 0, "is_reserved": 0}, {"rental_uris": {"ios": "https://dc.lft.to/lastmile_qr_scan", "android": "https://dc.lft.to/lastmile_qr_scan"}, "lon": -77.0385535, "type": "electric_scooter", "fusion_lat": 0.0, "lat": 38.9264785, "name": "b3de7b951affe98afd0957b66aa09e01", "fusion_lon": 0.0, "bike_id": "b3de7b951affe98afd0957b66aa09e01", "is_disabled": 0, "is_reserved": 0}, {"rental_uris": {"ios": "https://dc.lft.to/lastmile_qr_scan", "android": "https://dc.lft.to/lastmile_qr_scan"}, "lon": -77.04623416666666, "type": "electric_scooter", "fusion_lat": 0.0, "lat": 38.91906516666667, "name": "1693fd9bbcdccb0bbae964c2e2add282", "fusion_lon": 0.0, "bike_id": "1693fd9bbcdccb0bbae964c2e2add282", "is_disabled": 0, "is_reserved": 0}, {"rental_uris": {"ios": "https://dc.lft.to/lastmile_qr_scan", "android": "https://dc.lft.to/lastmile_qr_scan"}, "lon": -77.04333333333334, "type": "electric_scooter", "fusion_lat": 0.0, "lat": 38.91027966666667, "name": "898d5ae5fdb6d89dd8bf3c9e1f400437", "fusion_lon": 0.0, "bike_id": "898d5ae5fdb6d89dd8bf3c9e1f400437", "is_disabled": 0, "is_reserved": 0}, {"rental_uris": {"ios": "https://dc.lft.to/lastmile_qr_scan", "android": "https://dc.lft.to/lastmile_qr_scan"}, "lon": -77.00940433333334, "type": "electric_scooter", "fusion_lat": 0.0, "lat": 38.87194616666667, "name": "592f9b4c86819c3ec427907d24cd3115", "fusion_lon": 0.0, "bike_id": "592f9b4c86819c3ec427907d24cd3115", "is_disabled": 0, "is_reserved": 0}, {"rental_uris": {"ios": "https://dc.lft.to/lastmile_qr_scan", "android": "https://dc.lft.to/lastmile_qr_scan"}, "lon": -76.97459566666667, "type": "electric_scooter", "fusion_lat": 0.0, "lat": 38.86542033333333, "name": "74dd3f009f8f648df416e3f1151e0b09", "fusion_lon": 0.0, "bike_id": "74dd3f009f8f648df416e3f1151e0b09", "is_disabled": 0, "is_reserved": 0}, {"rental_uris": {"ios": "https://dc.lft.to/lastmile_qr_scan", "android": "https://dc.lft.to/lastmile_qr_scan"}, "lon": -77.03208233333334, "type": "electric_scooter", "fusion_lat": 0.0, "lat": 38.900446, "name": "0c274d67733a41c7b908b2e4fa6ee422", "fusion_lon": 0.0, "bike_id": "0c274d67733a41c7b908b2e4fa6ee422", "is_disabled": 0, "is_reserved": 0}, {"rental_uris": {"ios": "https://dc.lft.to/lastmile_qr_scan", "android": "https://dc.lft.to/lastmile_qr_scan"}, "lon": -76.99065833333333, "type": "electric_scooter", "fusion_lat": 0.0, "lat": 38.86358883333333, "name": "bc029b4a7d4146552bddd31c26d91554", "fusion_lon": 0.0, "bike_id": "bc029b4a7d4146552bddd31c26d91554", "is_disabled": 0, "is_reserved": 0}, {"rental_uris": {"ios": "https://dc.lft.to/lastmile_qr_scan", "android": "https://dc.lft.to/lastmile_qr_scan"}, "lon": -77.0416625, "type": "electric_scooter", "fusion_lat": 0.0, "lat": 38.916096333333336, "name": "51fc00ead8d704d9716e72d993047817", "fusion_lon": 0.0, "bike_id": "51fc00ead8d704d9716e72d993047817", "is_disabled": 0, "is_reserved": 0}, {"rental_uris": {"ios": "https://dc.lft.to/lastmile_qr_scan", "android": "https://dc.lft.to/lastmile_qr_scan"}, "lon": -77.02227616666667, "type": "electric_scooter", "fusion_lat": 0.0, "lat": 38.91270266666667, "name": "efda1c508e81c64048050bc05703c1e6", "fusion_lon": 0.0, "bike_id": "efda1c508e81c64048050bc05703c1e6", "is_disabled": 0, "is_reserved": 0}, {"rental_uris": {"ios": "https://dc.lft.to/lastmile_qr_scan", "android": "https://dc.lft.to/lastmile_qr_scan"}, "lon": -77.0340035, "type": "electric_scooter", "fusion_lat": 0.0, "lat": 38.92152183333334, "name": "c1a691cf0a664c94f97786b7ec03c7c7", "fusion_lon": 0.0, "bike_id": "c1a691cf0a664c94f97786b7ec03c7c7", "is_disabled": 0, "is_reserved": 0}, {"rental_uris": {"ios": "https://dc.lft.to/lastmile_qr_scan", "android": "https://dc.lft.to/lastmile_qr_scan"}, "lon": -76.987936, "type": "electric_bike", "fusion_lat": 0.0, "lat": 38.904227166666665, "name": "30c07c10a530c3a1dc92fad277e40b93", "fusion_lon": 0.0, "bike_id": "30c07c10a530c3a1dc92fad277e40b93", "is_disabled": 0, "is_reserved": 0}, {"rental_uris": {"ios": "https://dc.lft.to/lastmile_qr_scan", "android": "https://dc.lft.to/lastmile_qr_scan"}, "lon": -77.01246033333334, "type": "electric_scooter", "fusion_lat": 0.0, "lat": 38.91708216666667, "name": "8a7057eb9b338975a442930ab11fffba", "fusion_lon": 0.0, "bike_id": "8a7057eb9b338975a442930ab11fffba", "is_disabled": 0, "is_reserved": 0}, {"rental_uris": {"ios": "https://dc.lft.to/lastmile_qr_scan", "android": "https://dc.lft.to/lastmile_qr_scan"}, "lon": -76.954712, "type": "electric_bike", "fusion_lat": 0.0, "lat": 38.88643783333333, "name": "9f4155f0c7cd783b31ae6dbdddd9ae5a", "fusion_lon": 0.0, "bike_id": "9f4155f0c7cd783b31ae6dbdddd9ae5a", "is_disabled": 0, "is_reserved": 0}, {"rental_uris": {"ios": "https://dc.lft.to/lastmile_qr_scan", "android": "https://dc.lft.to/lastmile_qr_scan"}, "lon": -77.0033735, "type": "electric_scooter", "fusion_lat": 0.0, "lat": 38.89728266666667, "name": "885f1a3423f957f2daf0df00104b1a2b", "fusion_lon": 0.0, "bike_id": "885f1a3423f957f2daf0df00104b1a2b", "is_disabled": 0, "is_reserved": 0}, {"rental_uris": {"ios": "https://dc.lft.to/lastmile_qr_scan", "android": "https://dc.lft.to/lastmile_qr_scan"}, "lon": -77.05983916666666, "type": "electric_scooter", "fusion_lat": 0.0, "lat": 38.93550316666666, "name": "4f0d3a0f9f1370a56dd0e978acd49883", "fusion_lon": 0.0, "bike_id": "4f0d3a0f9f1370a56dd0e978acd49883", "is_disabled": 0, "is_reserved": 0}, {"rental_uris": {"ios": "https://dc.lft.to/lastmile_qr_scan", "android": "https://dc.lft.to/lastmile_qr_scan"}, "lon": -77.052299, "type": "electric_scooter", "fusion_lat": 0.0, "lat": 38.898133666666666, "name": "b0c443464919fa9e8a38b0bf287d0d72", "fusion_lon": 0.0, "bike_id": "b0c443464919fa9e8a38b0bf287d0d72", "is_disabled": 0, "is_reserved": 0}, {"rental_uris": {"ios": "https://dc.lft.to/lastmile_qr_scan", "android": "https://dc.lft.to/lastmile_qr_scan"}, "lon": -77.0259165, "type": "electric_scooter", "fusion_lat": 0.0, "lat": 38.9155245, "name": "b7bfea4dcfd5bca37f62eeea72b8c835", "fusion_lon": 0.0, "bike_id": "b7bfea4dcfd5bca37f62eeea72b8c835", "is_disabled": 0, "is_reserved": 0}, {"rental_uris": {"ios": "https://dc.lft.to/lastmile_qr_scan", "android": "https://dc.lft.to/lastmile_qr_scan"}, "lon": -77.04708, "type": "electric_scooter", "fusion_lat": 0.0, "lat": 38.897502833333334, "name": "394292b35c43263a85b4607602c52908", "fusion_lon": 0.0, "bike_id": "394292b35c43263a85b4607602c52908", "is_disabled": 0, "is_reserved": 0}, {"rental_uris": {"ios": "https://dc.lft.to/lastmile_qr_scan", "android": "https://dc.lft.to/lastmile_qr_scan"}, "lon": -77.13095383333334, "type": "electric_bike", "fusion_lat": 0.0, "lat": 38.86165, "name": "5a55fb46cf9243c4e21461bd1e0c485b", "fusion_lon": 0.0, "bike_id": "5a55fb46cf9243c4e21461bd1e0c485b", "is_disabled": 0, "is_reserved": 0}, {"rental_uris": {"ios": "https://dc.lft.to/lastmile_qr_scan", "android": "https://dc.lft.to/lastmile_qr_scan"}, "lon": -76.9907435, "type": "electric_scooter", "fusion_lat": 0.0, "lat": 38.90422866666667, "name": "12bb74855f73f56a726a4374e65fdc6d", "fusion_lon": 0.0, "bike_id": "12bb74855f73f56a726a4374e65fdc6d", "is_disabled": 0, "is_reserved": 0}, {"rental_uris": {"ios": "https://dc.lft.to/lastmile_qr_scan", "android": "https://dc.lft.to/lastmile_qr_scan"}, "lon": -77.02511666666666, "type": "electric_bike", "fusion_lat": 0.0, "lat": 38.93416466666667, "name": "f3a6ce8cecb6d6e38b7ecf3170b870b4", "fusion_lon": 0.0, "bike_id": "f3a6ce8cecb6d6e38b7ecf3170b870b4", "is_disabled": 0, "is_reserved": 0}, {"rental_uris": {"ios": "https://dc.lft.to/lastmile_qr_scan", "android": "https://dc.lft.to/lastmile_qr_scan"}, "lon": -77.02712116666666, "type": "electric_scooter", "fusion_lat": 0.0, "lat": 38.90666216666666, "name": "78a35fb6761d9f5003c0a929fbcc0938", "fusion_lon": 0.0, "bike_id": "78a35fb6761d9f5003c0a929fbcc0938", "is_disabled": 0, "is_reserved": 0}, {"rental_uris": {"ios": "https://dc.lft.to/lastmile_qr_scan", "android": "https://dc.lft.to/lastmile_qr_scan"}, "lon": -77.0436945, "type": "electric_scooter", "fusion_lat": 0.0, "lat": 38.92060466666667, "name": "178b2dddfc18e31d778b804fd45d09af", "fusion_lon": 0.0, "bike_id": "178b2dddfc18e31d778b804fd45d09af", "is_disabled": 0, "is_reserved": 0}, {"rental_uris": {"ios": "https://dc.lft.to/lastmile_qr_scan", "android": "https://dc.lft.to/lastmile_qr_scan"}, "lon": -77.02330583333334, "type": "electric_scooter", "fusion_lat": 0.0, "lat": 38.88335583333333, "name": "2c543e276bbb3042a11efaf06099264b", "fusion_lon": 0.0, "bike_id": "2c543e276bbb3042a11efaf06099264b", "is_disabled": 0, "is_reserved": 0}, {"rental_uris": {"ios": "https://dc.lft.to/lastmile_qr_scan", "android": "https://dc.lft.to/lastmile_qr_scan"}, "lon": -77.01990416666666, "type": "electric_bike", "fusion_lat": 0.0, "lat": 38.956641833333336, "name": "3b41a2e77a9ecddb054415712ee50949", "fusion_lon": 0.0, "bike_id": "3b41a2e77a9ecddb054415712ee50949", "is_disabled": 0, "is_reserved": 0}, {"rental_uris": {"ios": "https://dc.lft.to/lastmile_qr_scan", "android": "https://dc.lft.to/lastmile_qr_scan"}, "lon": -77.0075975, "type": "electric_scooter", "fusion_lat": 0.0, "lat": 38.91031016666667, "name": "80bb7feec9250903423c07526d9c8b10", "fusion_lon": 0.0, "bike_id": "80bb7feec9250903423c07526d9c8b10", "is_disabled": 0, "is_reserved": 0}, {"rental_uris": {"ios": "https://dc.lft.to/lastmile_qr_scan", "android": "https://dc.lft.to/lastmile_qr_scan"}, "lon": -76.985137, "type": "electric_scooter", "fusion_lat": 0.0, "lat": 38.90088566666667, "name": "138a9aab9f5c125597ad8afcf060c2e9", "fusion_lon": 0.0, "bike_id": "138a9aab9f5c125597ad8afcf060c2e9", "is_disabled": 0, "is_reserved": 0}, {"rental_uris": {"ios": "https://dc.lft.to/lastmile_qr_scan", "android": "https://dc.lft.to/lastmile_qr_scan"}, "lon": -77.03980983333334, "type": "electric_scooter", "fusion_lat": 0.0, "lat": 38.901273, "name": "eed6f913d05a13f38389520e79863cde", "fusion_lon": 0.0, "bike_id": "eed6f913d05a13f38389520e79863cde", "is_disabled": 0, "is_reserved": 0}, {"rental_uris": {"ios": "https://dc.lft.to/lastmile_qr_scan", "android": "https://dc.lft.to/lastmile_qr_scan"}, "lon": -77.04204116666666, "type": "electric_scooter", "fusion_lat": 0.0, "lat": 38.911086, "name": "e546e7098d21e3fd0366b47d34268705", "fusion_lon": 0.0, "bike_id": "e546e7098d21e3fd0366b47d34268705", "is_disabled": 0, "is_reserved": 0}, {"rental_uris": {"ios": "https://dc.lft.to/lastmile_qr_scan", "android": "https://dc.lft.to/lastmile_qr_scan"}, "lon": -77.09162816666667, "type": "electric_bike", "fusion_lat": 0.0, "lat": 38.96762583333334, "name": "9366a08233a98afadeae434c8faf0b58", "fusion_lon": 0.0, "bike_id": "9366a08233a98afadeae434c8faf0b58", "is_disabled": 0, "is_reserved": 0}, {"rental_uris": {"ios": "https://dc.lft.to/lastmile_qr_scan", "android": "https://dc.lft.to/lastmile_qr_scan"}, "lon": -77.05411216666667, "type": "electric_scooter", "fusion_lat": 0.0, "lat": 38.90398316666667, "name": "e493ab8734f0995e10a07b49af9879fa", "fusion_lon": 0.0, "bike_id": "e493ab8734f0995e10a07b49af9879fa", "is_disabled": 0, "is_reserved": 0}, {"rental_uris": {"ios": "https://dc.lft.to/lastmile_qr_scan", "android": "https://dc.lft.to/lastmile_qr_scan"}, "lon": -77.0451705, "type": "electric_scooter", "fusion_lat": 0.0, "lat": 38.912943, "name": "e8c33fc35040230c54c45a18d831440e", "fusion_lon": 0.0, "bike_id": "e8c33fc35040230c54c45a18d831440e", "is_disabled": 0, "is_reserved": 0}, {"rental_uris": {"ios": "https://dc.lft.to/lastmile_qr_scan", "android": "https://dc.lft.to/lastmile_qr_scan"}, "lon": -77.03984066666666, "type": "electric_scooter", "fusion_lat": 0.0, "lat": 38.9028475, "name": "57848b3d0bea56c3b5135c53814224f3", "fusion_lon": 0.0, "bike_id": "57848b3d0bea56c3b5135c53814224f3", "is_disabled": 0, "is_reserved": 0}, {"rental_uris": {"ios": "https://dc.lft.to/lastmile_qr_scan", "android": "https://dc.lft.to/lastmile_qr_scan"}, "lon": -77.01642316666667, "type": "electric_scooter", "fusion_lat": 0.0, "lat": 38.90385966666667, "name": "8fd700892272a99bccaacb596b8b7744", "fusion_lon": 0.0, "bike_id": "8fd700892272a99bccaacb596b8b7744", "is_disabled": 0, "is_reserved": 0}, {"rental_uris": {"ios": "https://dc.lft.to/lastmile_qr_scan", "android": "https://dc.lft.to/lastmile_qr_scan"}, "lon": -76.9995, "type": "electric_scooter", "fusion_lat": 0.0, "lat": 38.842903166666666, "name": "756523d5e8f310f8e77752275916cc98", "fusion_lon": 0.0, "bike_id": "756523d5e8f310f8e77752275916cc98", "is_disabled": 0, "is_reserved": 0}, {"rental_uris": {"ios": "https://dc.lft.to/lastmile_qr_scan", "android": "https://dc.lft.to/lastmile_qr_scan"}, "lon": -77.06891, "type": "electric_scooter", "fusion_lat": 0.0, "lat": 38.94031733333333, "name": "f9a091c85bdd17789ab746e002d9e29b", "fusion_lon": 0.0, "bike_id": "f9a091c85bdd17789ab746e002d9e29b", "is_disabled": 0, "is_reserved": 0}, {"rental_uris": {"ios": "https://dc.lft.to/lastmile_qr_scan", "android": "https://dc.lft.to/lastmile_qr_scan"}, "lon": -77.00196216666667, "type": "electric_scooter", "fusion_lat": 0.0, "lat": 38.90836633333333, "name": "8c5900ed6b1f8a7cec446b7353ff69de", "fusion_lon": 0.0, "bike_id": "8c5900ed6b1f8a7cec446b7353ff69de", "is_disabled": 0, "is_reserved": 0}, {"rental_uris": {"ios": "https://dc.lft.to/lastmile_qr_scan", "android": "https://dc.lft.to/lastmile_qr_scan"}, "lon": -77.02582666666666, "type": "electric_scooter", "fusion_lat": 0.0, "lat": 38.90188416666667, "name": "783cedf3164f71e74eb0068bb9b5272e", "fusion_lon": 0.0, "bike_id": "783cedf3164f71e74eb0068bb9b5272e", "is_disabled": 0, "is_reserved": 0}, {"rental_uris": {"ios": "https://dc.lft.to/lastmile_qr_scan", "android": "https://dc.lft.to/lastmile_qr_scan"}, "lon": -77.00931983333334, "type": "electric_scooter", "fusion_lat": 0.0, "lat": 38.8719995, "name": "292403ea69d7b3c4a31e45f7bdaf9262", "fusion_lon": 0.0, "bike_id": "292403ea69d7b3c4a31e45f7bdaf9262", "is_disabled": 0, "is_reserved": 0}, {"rental_uris": {"ios": "https://dc.lft.to/lastmile_qr_scan", "android": "https://dc.lft.to/lastmile_qr_scan"}, "lon": -77.04061416666667, "type": "electric_scooter", "fusion_lat": 0.0, "lat": 38.926502166666666, "name": "f539116916ae8d6a920e120a8ef96973", "fusion_lon": 0.0, "bike_id": "f539116916ae8d6a920e120a8ef96973", "is_disabled": 0, "is_reserved": 0}, {"rental_uris": {"ios": "https://dc.lft.to/lastmile_qr_scan", "android": "https://dc.lft.to/lastmile_qr_scan"}, "lon": -77.043554, "type": "electric_scooter", "fusion_lat": 0.0, "lat": 38.892014833333334, "name": "a69adc9ee2ad56c50ff9e847913ceefd", "fusion_lon": 0.0, "bike_id": "a69adc9ee2ad56c50ff9e847913ceefd", "is_disabled": 0, "is_reserved": 0}, {"rental_uris": {"ios": "https://dc.lft.to/lastmile_qr_scan", "android": "https://dc.lft.to/lastmile_qr_scan"}, "lon": -77.070465, "type": "electric_bike", "fusion_lat": 0.0, "lat": 38.824504833333336, "name": "80337dcb52b0cf5444018b84b4036dcf", "fusion_lon": 0.0, "bike_id": "80337dcb52b0cf5444018b84b4036dcf", "is_disabled": 0, "is_reserved": 0}, {"rental_uris": {"ios": "https://dc.lft.to/lastmile_qr_scan", "android": "https://dc.lft.to/lastmile_qr_scan"}, "lon": -77.0414295, "type": "electric_scooter", "fusion_lat": 0.0, "lat": 38.9221625, "name": "6c52fd0244dffa7bdf4fac5520706662", "fusion_lon": 0.0, "bike_id": "6c52fd0244dffa7bdf4fac5520706662", "is_disabled": 0, "is_reserved": 0}, {"rental_uris": {"ios": "https://dc.lft.to/lastmile_qr_scan", "android": "https://dc.lft.to/lastmile_qr_scan"}, "lon": -77.06366566666667, "type": "electric_scooter", "fusion_lat": 0.0, "lat": 38.90931916666667, "name": "40cc73e689e9ac10a1e732411891955e", "fusion_lon": 0.0, "bike_id": "40cc73e689e9ac10a1e732411891955e", "is_disabled": 0, "is_reserved": 0}, {"rental_uris": {"ios": "https://dc.lft.to/lastmile_qr_scan", "android": "https://dc.lft.to/lastmile_qr_scan"}, "lon": -76.98547233333333, "type": "electric_scooter", "fusion_lat": 0.0, "lat": 38.89959233333333, "name": "c237438f5d2a080fb9a8c1b2b61a74b2", "fusion_lon": 0.0, "bike_id": "c237438f5d2a080fb9a8c1b2b61a74b2", "is_disabled": 0, "is_reserved": 0}, {"rental_uris": {"ios": "https://dc.lft.to/lastmile_qr_scan", "android": "https://dc.lft.to/lastmile_qr_scan"}, "lon": -77.04147466666667, "type": "electric_scooter", "fusion_lat": 0.0, "lat": 38.922984166666666, "name": "a7063810a9a05d4b259984fa15ba59b9", "fusion_lon": 0.0, "bike_id": "a7063810a9a05d4b259984fa15ba59b9", "is_disabled": 0, "is_reserved": 0}, {"rental_uris": {"ios": "https://dc.lft.to/lastmile_qr_scan", "android": "https://dc.lft.to/lastmile_qr_scan"}, "lon": -77.041745, "type": "electric_scooter", "fusion_lat": 0.0, "lat": 38.914033833333335, "name": "a818fdf9d14e21992ee6cd43a4e9416e", "fusion_lon": 0.0, "bike_id": "a818fdf9d14e21992ee6cd43a4e9416e", "is_disabled": 0, "is_reserved": 0}, {"rental_uris": {"ios": "https://dc.lft.to/lastmile_qr_scan", "android": "https://dc.lft.to/lastmile_qr_scan"}, "lon": -77.09671433333334, "type": "electric_scooter", "fusion_lat": 0.0, "lat": 38.9176905, "name": "9371ba819c4e0579311f4820a9265a1a", "fusion_lon": 0.0, "bike_id": "9371ba819c4e0579311f4820a9265a1a", "is_disabled": 0, "is_reserved": 0}, {"rental_uris": {"ios": "https://dc.lft.to/lastmile_qr_scan", "android": "https://dc.lft.to/lastmile_qr_scan"}, "lon": -77.0318015, "type": "electric_scooter", "fusion_lat": 0.0, "lat": 38.9181115, "name": "e6335d40a393e5a279ba569cd846c7a7", "fusion_lon": 0.0, "bike_id": "e6335d40a393e5a279ba569cd846c7a7", "is_disabled": 0, "is_reserved": 0}, {"rental_uris": {"ios": "https://dc.lft.to/lastmile_qr_scan", "android": "https://dc.lft.to/lastmile_qr_scan"}, "lon": -76.98885716666666, "type": "electric_scooter", "fusion_lat": 0.0, "lat": 38.866611666666664, "name": "8ccef7f61c50a25b4b57400cd735fc66", "fusion_lon": 0.0, "bike_id": "8ccef7f61c50a25b4b57400cd735fc66", "is_disabled": 0, "is_reserved": 0}, {"rental_uris": {"ios": "https://dc.lft.to/lastmile_qr_scan", "android": "https://dc.lft.to/lastmile_qr_scan"}, "lon": -77.04687233333334, "type": "electric_scooter", "fusion_lat": 0.0, "lat": 38.896078833333334, "name": "c1d1c113657e0629eb7f0fb86dbc95f6", "fusion_lon": 0.0, "bike_id": "c1d1c113657e0629eb7f0fb86dbc95f6", "is_disabled": 0, "is_reserved": 0}, {"rental_uris": {"ios": "https://dc.lft.to/lastmile_qr_scan", "android": "https://dc.lft.to/lastmile_qr_scan"}, "lon": -77.03222733333334, "type": "electric_scooter", "fusion_lat": 0.0, "lat": 38.908710166666665, "name": "6a8c05484fcf9abfe68cfda28d5710a9", "fusion_lon": 0.0, "bike_id": "6a8c05484fcf9abfe68cfda28d5710a9", "is_disabled": 0, "is_reserved": 0}, {"rental_uris": {"ios": "https://dc.lft.to/lastmile_qr_scan", "android": "https://dc.lft.to/lastmile_qr_scan"}, "lon": -76.97705983333333, "type": "electric_scooter", "fusion_lat": 0.0, "lat": 38.90250966666667, "name": "314daeca1f2c936f1ab7742d3bcf6cf5", "fusion_lon": 0.0, "bike_id": "314daeca1f2c936f1ab7742d3bcf6cf5", "is_disabled": 0, "is_reserved": 0}, {"rental_uris": {"ios": "https://dc.lft.to/lastmile_qr_scan", "android": "https://dc.lft.to/lastmile_qr_scan"}, "lon": -77.014002, "type": "electric_scooter", "fusion_lat": 0.0, "lat": 38.9194645, "name": "868554554ce68f4169f7a6bce0d74c08", "fusion_lon": 0.0, "bike_id": "868554554ce68f4169f7a6bce0d74c08", "is_disabled": 0, "is_reserved": 0}, {"rental_uris": {"ios": "https://dc.lft.to/lastmile_qr_scan", "android": "https://dc.lft.to/lastmile_qr_scan"}, "lon": -76.98594233333333, "type": "electric_bike", "fusion_lat": 0.0, "lat": 38.906214, "name": "49cc65a97fff43dc80a33a8799c58d1e", "fusion_lon": 0.0, "bike_id": "49cc65a97fff43dc80a33a8799c58d1e", "is_disabled": 0, "is_reserved": 0}, {"rental_uris": {"ios": "https://dc.lft.to/lastmile_qr_scan", "android": "https://dc.lft.to/lastmile_qr_scan"}, "lon": -77.03290416666667, "type": "electric_scooter", "fusion_lat": 0.0, "lat": 38.934934, "name": "afdbfefcb813dc19f41d318c1ce22991", "fusion_lon": 0.0, "bike_id": "afdbfefcb813dc19f41d318c1ce22991", "is_disabled": 0, "is_reserved": 0}, {"rental_uris": {"ios": "https://dc.lft.to/lastmile_qr_scan", "android": "https://dc.lft.to/lastmile_qr_scan"}, "lon": -76.93748366666667, "type": "electric_scooter", "fusion_lat": 0.0, "lat": 38.912913333333336, "name": "fb22c211b5285028ec7704a5673d7fad", "fusion_lon": 0.0, "bike_id": "fb22c211b5285028ec7704a5673d7fad", "is_disabled": 0, "is_reserved": 0}, {"rental_uris": {"ios": "https://dc.lft.to/lastmile_qr_scan", "android": "https://dc.lft.to/lastmile_qr_scan"}, "lon": -77.02231833333333, "type": "electric_scooter", "fusion_lat": 0.0, "lat": 38.891938833333334, "name": "816f913266d14aa9d3a1f80ba89b56ea", "fusion_lon": 0.0, "bike_id": "816f913266d14aa9d3a1f80ba89b56ea", "is_disabled": 0, "is_reserved": 0}, {"rental_uris": {"ios": "https://dc.lft.to/lastmile_qr_scan", "android": "https://dc.lft.to/lastmile_qr_scan"}, "lon": -77.04256383333333, "type": "electric_scooter", "fusion_lat": 0.0, "lat": 38.920604, "name": "4c6098bf05eea1ee9e86e87cc4205227", "fusion_lon": 0.0, "bike_id": "4c6098bf05eea1ee9e86e87cc4205227", "is_disabled": 0, "is_reserved": 0}, {"rental_uris": {"ios": "https://dc.lft.to/lastmile_qr_scan", "android": "https://dc.lft.to/lastmile_qr_scan"}, "lon": -77.04707816666667, "type": "electric_scooter", "fusion_lat": 0.0, "lat": 38.908627, "name": "2220758c6513e5ecefe3dfd78ef5fad5", "fusion_lon": 0.0, "bike_id": "2220758c6513e5ecefe3dfd78ef5fad5", "is_disabled": 0, "is_reserved": 0}, {"rental_uris": {"ios": "https://dc.lft.to/lastmile_qr_scan", "android": "https://dc.lft.to/lastmile_qr_scan"}, "lon": -77.02854533333333, "type": "electric_scooter", "fusion_lat": 0.0, "lat": 38.9237395, "name": "02b0a110ca1e969f6a15b1178d5c4f0f", "fusion_lon": 0.0, "bike_id": "02b0a110ca1e969f6a15b1178d5c4f0f", "is_disabled": 0, "is_reserved": 0}, {"rental_uris": {"ios": "https://dc.lft.to/lastmile_qr_scan", "android": "https://dc.lft.to/lastmile_qr_scan"}, "lon": -77.03867133333334, "type": "electric_scooter", "fusion_lat": 0.0, "lat": 38.915634, "name": "d1979391608e47be72fa90cfdaa721fb", "fusion_lon": 0.0, "bike_id": "d1979391608e47be72fa90cfdaa721fb", "is_disabled": 0, "is_reserved": 0}, {"rental_uris": {"ios": "https://dc.lft.to/lastmile_qr_scan", "android": "https://dc.lft.to/lastmile_qr_scan"}, "lon": -77.009196, "type": "electric_scooter", "fusion_lat": 0.0, "lat": 38.91242366666667, "name": "576618600badfdfd9a2c1fe43bef97b7", "fusion_lon": 0.0, "bike_id": "576618600badfdfd9a2c1fe43bef97b7", "is_disabled": 0, "is_reserved": 0}, {"rental_uris": {"ios": "https://dc.lft.to/lastmile_qr_scan", "android": "https://dc.lft.to/lastmile_qr_scan"}, "lon": -77.06692383333333, "type": "electric_scooter", "fusion_lat": 0.0, "lat": 38.90973066666667, "name": "7761f9c244fc5ecdcfdd9acb2f27911a", "fusion_lon": 0.0, "bike_id": "7761f9c244fc5ecdcfdd9acb2f27911a", "is_disabled": 0, "is_reserved": 0}, {"rental_uris": {"ios": "https://dc.lft.to/lastmile_qr_scan", "android": "https://dc.lft.to/lastmile_qr_scan"}, "lon": -76.990381, "type": "electric_scooter", "fusion_lat": 0.0, "lat": 38.858715, "name": "f56453d1d1f71ac3e8682693bc36285b", "fusion_lon": 0.0, "bike_id": "f56453d1d1f71ac3e8682693bc36285b", "is_disabled": 0, "is_reserved": 0}, {"rental_uris": {"ios": "https://dc.lft.to/lastmile_qr_scan", "android": "https://dc.lft.to/lastmile_qr_scan"}, "lon": -77.03961483333333, "type": "electric_scooter", "fusion_lat": 0.0, "lat": 38.9162845, "name": "d068cd34419f4aaa3939bc37474786de", "fusion_lon": 0.0, "bike_id": "d068cd34419f4aaa3939bc37474786de", "is_disabled": 0, "is_reserved": 0}, {"rental_uris": {"ios": "https://dc.lft.to/lastmile_qr_scan", "android": "https://dc.lft.to/lastmile_qr_scan"}, "lon": -76.97612233333334, "type": "electric_bike", "fusion_lat": 0.0, "lat": 38.91311733333333, "name": "9123aa3961ce0ba8856bd024f969f66b", "fusion_lon": 0.0, "bike_id": "9123aa3961ce0ba8856bd024f969f66b", "is_disabled": 0, "is_reserved": 0}, {"rental_uris": {"ios": "https://dc.lft.to/lastmile_qr_scan", "android": "https://dc.lft.to/lastmile_qr_scan"}, "lon": -77.06612983333333, "type": "electric_bike", "fusion_lat": 0.0, "lat": 38.911330166666666, "name": "f5570000aced9a58edf1e24c43fb0f82", "fusion_lon": 0.0, "bike_id": "f5570000aced9a58edf1e24c43fb0f82", "is_disabled": 0, "is_reserved": 0}, {"rental_uris": {"ios": "https://dc.lft.to/lastmile_qr_scan", "android": "https://dc.lft.to/lastmile_qr_scan"}, "lon": -77.02958666666666, "type": "electric_scooter", "fusion_lat": 0.0, "lat": 38.905196833333335, "name": "851afb72343ec0c70a701c1d0089b0b5", "fusion_lon": 0.0, "bike_id": "851afb72343ec0c70a701c1d0089b0b5", "is_disabled": 0, "is_reserved": 0}, {"rental_uris": {"ios": "https://dc.lft.to/lastmile_qr_scan", "android": "https://dc.lft.to/lastmile_qr_scan"}, "lon": -77.03175383333334, "type": "electric_scooter", "fusion_lat": 0.0, "lat": 38.899661333333334, "name": "56abfe77f864c8117ab0a5b5eb90e096", "fusion_lon": 0.0, "bike_id": "56abfe77f864c8117ab0a5b5eb90e096", "is_disabled": 0, "is_reserved": 0}, {"rental_uris": {"ios": "https://dc.lft.to/lastmile_qr_scan", "android": "https://dc.lft.to/lastmile_qr_scan"}, "lon": -77.05027783333334, "type": "electric_scooter", "fusion_lat": 0.0, "lat": 38.896538, "name": "96cef2233e0a30b0731a366d35087684", "fusion_lon": 0.0, "bike_id": "96cef2233e0a30b0731a366d35087684", "is_disabled": 0, "is_reserved": 0}, {"rental_uris": {"ios": "https://dc.lft.to/lastmile_qr_scan", "android": "https://dc.lft.to/lastmile_qr_scan"}, "lon": -77.11429716666666, "type": "electric_bike", "fusion_lat": 0.0, "lat": 38.85245966666667, "name": "362c5cae4d8d547e7f606215588f0b1c", "fusion_lon": 0.0, "bike_id": "362c5cae4d8d547e7f606215588f0b1c", "is_disabled": 0, "is_reserved": 0}, {"rental_uris": {"ios": "https://dc.lft.to/lastmile_qr_scan", "android": "https://dc.lft.to/lastmile_qr_scan"}, "lon": -77.03477683333334, "type": "electric_scooter", "fusion_lat": 0.0, "lat": 38.9028375, "name": "3cdb8d080d40a7d0916c374b7ee05674", "fusion_lon": 0.0, "bike_id": "3cdb8d080d40a7d0916c374b7ee05674", "is_disabled": 0, "is_reserved": 0}, {"rental_uris": {"ios": "https://dc.lft.to/lastmile_qr_scan", "android": "https://dc.lft.to/lastmile_qr_scan"}, "lon": -77.03326533333333, "type": "electric_scooter", "fusion_lat": 0.0, "lat": 38.92160633333334, "name": "6e16ec5a4e39a65f50ad85415127c9e8", "fusion_lon": 0.0, "bike_id": "6e16ec5a4e39a65f50ad85415127c9e8", "is_disabled": 0, "is_reserved": 0}, {"rental_uris": {"ios": "https://dc.lft.to/lastmile_qr_scan", "android": "https://dc.lft.to/lastmile_qr_scan"}, "lon": -77.02387966666667, "type": "electric_scooter", "fusion_lat": 0.0, "lat": 38.91792233333334, "name": "a96251614517b5e501c77d03d74b03da", "fusion_lon": 0.0, "bike_id": "a96251614517b5e501c77d03d74b03da", "is_disabled": 0, "is_reserved": 0}, {"rental_uris": {"ios": "https://dc.lft.to/lastmile_qr_scan", "android": "https://dc.lft.to/lastmile_qr_scan"}, "lon": -76.984112, "type": "electric_scooter", "fusion_lat": 0.0, "lat": 38.9139055, "name": "f6e5694a73c43b729438c98ba84752b8", "fusion_lon": 0.0, "bike_id": "f6e5694a73c43b729438c98ba84752b8", "is_disabled": 0, "is_reserved": 0}, {"rental_uris": {"ios": "https://dc.lft.to/lastmile_qr_scan", "android": "https://dc.lft.to/lastmile_qr_scan"}, "lon": -76.993828, "type": "electric_scooter", "fusion_lat": 0.0, "lat": 38.88723016666667, "name": "89a8ad460af236d86fbbdd1d02e6a24b", "fusion_lon": 0.0, "bike_id": "89a8ad460af236d86fbbdd1d02e6a24b", "is_disabled": 0, "is_reserved": 0}, {"rental_uris": {"ios": "https://dc.lft.to/lastmile_qr_scan", "android": "https://dc.lft.to/lastmile_qr_scan"}, "lon": -77.036395, "type": "electric_scooter", "fusion_lat": 0.0, "lat": 38.918185333333334, "name": "3a15ffbad4588c796a930b58235d9113", "fusion_lon": 0.0, "bike_id": "3a15ffbad4588c796a930b58235d9113", "is_disabled": 0, "is_reserved": 0}, {"rental_uris": {"ios": "https://dc.lft.to/lastmile_qr_scan", "android": "https://dc.lft.to/lastmile_qr_scan"}, "lon": -77.00228816666667, "type": "electric_scooter", "fusion_lat": 0.0, "lat": 38.9056525, "name": "877ca04df705b6e0440039cbeac1a663", "fusion_lon": 0.0, "bike_id": "877ca04df705b6e0440039cbeac1a663", "is_disabled": 0, "is_reserved": 0}, {"rental_uris": {"ios": "https://dc.lft.to/lastmile_qr_scan", "android": "https://dc.lft.to/lastmile_qr_scan"}, "lon": -77.00296116666667, "type": "electric_scooter", "fusion_lat": 0.0, "lat": 38.909150333333336, "name": "62ed8cdc39dd0bf42f0058f617f9547d", "fusion_lon": 0.0, "bike_id": "62ed8cdc39dd0bf42f0058f617f9547d", "is_disabled": 0, "is_reserved": 0}, {"rental_uris": {"ios": "https://dc.lft.to/lastmile_qr_scan", "android": "https://dc.lft.to/lastmile_qr_scan"}, "lon": -76.96788583333333, "type": "electric_scooter", "fusion_lat": 0.0, "lat": 38.861439833333336, "name": "158a119d7aca479eaaceb5739d11cde4", "fusion_lon": 0.0, "bike_id": "158a119d7aca479eaaceb5739d11cde4", "is_disabled": 0, "is_reserved": 0}, {"rental_uris": {"ios": "https://dc.lft.to/lastmile_qr_scan", "android": "https://dc.lft.to/lastmile_qr_scan"}, "lon": -77.02209233333333, "type": "electric_scooter", "fusion_lat": 0.0, "lat": 38.909747, "name": "d39e2397482868748d4b1658d7b601c5", "fusion_lon": 0.0, "bike_id": "d39e2397482868748d4b1658d7b601c5", "is_disabled": 0, "is_reserved": 0}, {"rental_uris": {"ios": "https://dc.lft.to/lastmile_qr_scan", "android": "https://dc.lft.to/lastmile_qr_scan"}, "lon": -77.02806366666667, "type": "electric_scooter", "fusion_lat": 0.0, "lat": 38.91063316666666, "name": "1667bc65932f7e9a0c1eb2740aa059b7", "fusion_lon": 0.0, "bike_id": "1667bc65932f7e9a0c1eb2740aa059b7", "is_disabled": 0, "is_reserved": 0}, {"rental_uris": {"ios": "https://dc.lft.to/lastmile_qr_scan", "android": "https://dc.lft.to/lastmile_qr_scan"}, "lon": -77.01071966666666, "type": "electric_scooter", "fusion_lat": 0.0, "lat": 38.87478616666667, "name": "1d7b45f413ef84fc0535760f5e5c0497", "fusion_lon": 0.0, "bike_id": "1d7b45f413ef84fc0535760f5e5c0497", "is_disabled": 0, "is_reserved": 0}, {"rental_uris": {"ios": "https://dc.lft.to/lastmile_qr_scan", "android": "https://dc.lft.to/lastmile_qr_scan"}, "lon": -76.916613, "type": "electric_bike", "fusion_lat": 0.0, "lat": 38.86871466666667, "name": "744b55910e574799513d82569baa3708", "fusion_lon": 0.0, "bike_id": "744b55910e574799513d82569baa3708", "is_disabled": 0, "is_reserved": 0}, {"rental_uris": {"ios": "https://dc.lft.to/lastmile_qr_scan", "android": "https://dc.lft.to/lastmile_qr_scan"}, "lon": -76.990096, "type": "electric_scooter", "fusion_lat": 0.0, "lat": 38.903963166666664, "name": "7c5b8c8419d54e91a444b6a02f71e35e", "fusion_lon": 0.0, "bike_id": "7c5b8c8419d54e91a444b6a02f71e35e", "is_disabled": 0, "is_reserved": 0}, {"rental_uris": {"ios": "https://dc.lft.to/lastmile_qr_scan", "android": "https://dc.lft.to/lastmile_qr_scan"}, "lon": -77.00975533333333, "type": "electric_scooter", "fusion_lat": 0.0, "lat": 38.914198166666665, "name": "ad0ef22d95fae20726282b0c54389832", "fusion_lon": 0.0, "bike_id": "ad0ef22d95fae20726282b0c54389832", "is_disabled": 0, "is_reserved": 0}, {"rental_uris": {"ios": "https://dc.lft.to/lastmile_qr_scan", "android": "https://dc.lft.to/lastmile_qr_scan"}, "lon": -77.0467625, "type": "electric_scooter", "fusion_lat": 0.0, "lat": 38.89236316666667, "name": "402069a2bb1ca3c51ec9c157e390aa2d", "fusion_lon": 0.0, "bike_id": "402069a2bb1ca3c51ec9c157e390aa2d", "is_disabled": 0, "is_reserved": 0}, {"rental_uris": {"ios": "https://dc.lft.to/lastmile_qr_scan", "android": "https://dc.lft.to/lastmile_qr_scan"}, "lon": -77.16234266666666, "type": "electric_bike", "fusion_lat": 0.0, "lat": 38.8866195, "name": "dd93e77bf872f07c9aad9cee7278bc40", "fusion_lon": 0.0, "bike_id": "dd93e77bf872f07c9aad9cee7278bc40", "is_disabled": 0, "is_reserved": 0}, {"rental_uris": {"ios": "https://dc.lft.to/lastmile_qr_scan", "android": "https://dc.lft.to/lastmile_qr_scan"}, "lon": -76.94867816666667, "type": "electric_scooter", "fusion_lat": 0.0, "lat": 38.895962, "name": "fd090646b5dd76fae291acd1ab17353b", "fusion_lon": 0.0, "bike_id": "fd090646b5dd76fae291acd1ab17353b", "is_disabled": 0, "is_reserved": 0}, {"rental_uris": {"ios": "https://dc.lft.to/lastmile_qr_scan", "android": "https://dc.lft.to/lastmile_qr_scan"}, "lon": -77.03299716666666, "type": "electric_scooter", "fusion_lat": 0.0, "lat": 38.9096695, "name": "f48559592c3cb74b41178898b24b73f1", "fusion_lon": 0.0, "bike_id": "f48559592c3cb74b41178898b24b73f1", "is_disabled": 0, "is_reserved": 0}, {"rental_uris": {"ios": "https://dc.lft.to/lastmile_qr_scan", "android": "https://dc.lft.to/lastmile_qr_scan"}, "lon": -77.02226483333334, "type": "electric_scooter", "fusion_lat": 0.0, "lat": 38.912719833333334, "name": "57c9cd00194e710fb4503103d7153113", "fusion_lon": 0.0, "bike_id": "57c9cd00194e710fb4503103d7153113", "is_disabled": 0, "is_reserved": 0}, {"rental_uris": {"ios": "https://dc.lft.to/lastmile_qr_scan", "android": "https://dc.lft.to/lastmile_qr_scan"}, "lon": -77.0241945, "type": "electric_scooter", "fusion_lat": 0.0, "lat": 38.92657033333333, "name": "f370d2e9ddaf8f2f5cf0387ecb04d99f", "fusion_lon": 0.0, "bike_id": "f370d2e9ddaf8f2f5cf0387ecb04d99f", "is_disabled": 0, "is_reserved": 0}, {"rental_uris": {"ios": "https://dc.lft.to/lastmile_qr_scan", "android": "https://dc.lft.to/lastmile_qr_scan"}, "lon": -77.04891266666667, "type": "electric_scooter", "fusion_lat": 0.0, "lat": 38.8966955, "name": "24463857f40b39b61ba3a39ef72c8184", "fusion_lon": 0.0, "bike_id": "24463857f40b39b61ba3a39ef72c8184", "is_disabled": 0, "is_reserved": 0}, {"rental_uris": {"ios": "https://dc.lft.to/lastmile_qr_scan", "android": "https://dc.lft.to/lastmile_qr_scan"}, "lon": -77.03568116666666, "type": "electric_scooter", "fusion_lat": 0.0, "lat": 38.918076666666664, "name": "2b728a970277351d78c7c06267e19f2e", "fusion_lon": 0.0, "bike_id": "2b728a970277351d78c7c06267e19f2e", "is_disabled": 0, "is_reserved": 0}, {"rental_uris": {"ios": "https://dc.lft.to/lastmile_qr_scan", "android": "https://dc.lft.to/lastmile_qr_scan"}, "lon": -77.0345705, "type": "electric_scooter", "fusion_lat": 0.0, "lat": 38.917071, "name": "8065e9044218fba7c9817f3df00474ce", "fusion_lon": 0.0, "bike_id": "8065e9044218fba7c9817f3df00474ce", "is_disabled": 0, "is_reserved": 0}, {"rental_uris": {"ios": "https://dc.lft.to/lastmile_qr_scan", "android": "https://dc.lft.to/lastmile_qr_scan"}, "lon": -77.0235885, "type": "electric_scooter", "fusion_lat": 0.0, "lat": 38.92515566666667, "name": "18d89d0d6c1e33754b0cab05252e568f", "fusion_lon": 0.0, "bike_id": "18d89d0d6c1e33754b0cab05252e568f", "is_disabled": 0, "is_reserved": 0}, {"rental_uris": {"ios": "https://dc.lft.to/lastmile_qr_scan", "android": "https://dc.lft.to/lastmile_qr_scan"}, "lon": -76.97706866666667, "type": "electric_scooter", "fusion_lat": 0.0, "lat": 38.897133, "name": "b0f7a62d38e844646a7527abe0f8792d", "fusion_lon": 0.0, "bike_id": "b0f7a62d38e844646a7527abe0f8792d", "is_disabled": 0, "is_reserved": 0}, {"rental_uris": {"ios": "https://dc.lft.to/lastmile_qr_scan", "android": "https://dc.lft.to/lastmile_qr_scan"}, "lon": -77.02432833333333, "type": "electric_scooter", "fusion_lat": 0.0, "lat": 38.9072845, "name": "8d30e327710bf001df420d201a995b20", "fusion_lon": 0.0, "bike_id": "8d30e327710bf001df420d201a995b20", "is_disabled": 0, "is_reserved": 0}, {"rental_uris": {"ios": "https://dc.lft.to/lastmile_qr_scan", "android": "https://dc.lft.to/lastmile_qr_scan"}, "lon": -77.04686183333334, "type": "electric_scooter", "fusion_lat": 0.0, "lat": 38.892261500000004, "name": "fa0d0bcd08a2a2f3a7782543db051e63", "fusion_lon": 0.0, "bike_id": "fa0d0bcd08a2a2f3a7782543db051e63", "is_disabled": 0, "is_reserved": 0}, {"rental_uris": {"ios": "https://dc.lft.to/lastmile_qr_scan", "android": "https://dc.lft.to/lastmile_qr_scan"}, "lon": -77.0350985, "type": "electric_scooter", "fusion_lat": 0.0, "lat": 38.90035233333333, "name": "8fd26e8da08e9bfbb0b5fce6a45265f2", "fusion_lon": 0.0, "bike_id": "8fd26e8da08e9bfbb0b5fce6a45265f2", "is_disabled": 0, "is_reserved": 0}, {"rental_uris": {"ios": "https://dc.lft.to/lastmile_qr_scan", "android": "https://dc.lft.to/lastmile_qr_scan"}, "lon": -77.0358535, "type": "electric_scooter", "fusion_lat": 0.0, "lat": 38.90768333333333, "name": "fbbe183dbb61433a2997cbb4742e1a49", "fusion_lon": 0.0, "bike_id": "fbbe183dbb61433a2997cbb4742e1a49", "is_disabled": 0, "is_reserved": 0}, {"rental_uris": {"ios": "https://dc.lft.to/lastmile_qr_scan", "android": "https://dc.lft.to/lastmile_qr_scan"}, "lon": -77.01766366666666, "type": "electric_scooter", "fusion_lat": 0.0, "lat": 38.887329666666666, "name": "3ed26b70d8a6f19f9ed328111750f586", "fusion_lon": 0.0, "bike_id": "3ed26b70d8a6f19f9ed328111750f586", "is_disabled": 0, "is_reserved": 0}, {"rental_uris": {"ios": "https://dc.lft.to/lastmile_qr_scan", "android": "https://dc.lft.to/lastmile_qr_scan"}, "lon": -77.027024, "type": "electric_scooter", "fusion_lat": 0.0, "lat": 38.906713, "name": "a4cdb63c068c3968db914b4d86a8fd3e", "fusion_lon": 0.0, "bike_id": "a4cdb63c068c3968db914b4d86a8fd3e", "is_disabled": 0, "is_reserved": 0}, {"rental_uris": {"ios": "https://dc.lft.to/lastmile_qr_scan", "android": "https://dc.lft.to/lastmile_qr_scan"}, "lon": -77.03869483333334, "type": "electric_scooter", "fusion_lat": 0.0, "lat": 38.90974533333333, "name": "3bb763f0a157fa51e5f157e280a12a74", "fusion_lon": 0.0, "bike_id": "3bb763f0a157fa51e5f157e280a12a74", "is_disabled": 0, "is_reserved": 0}, {"rental_uris": {"ios": "https://dc.lft.to/lastmile_qr_scan", "android": "https://dc.lft.to/lastmile_qr_scan"}, "lon": -77.04621266666666, "type": "electric_bike", "fusion_lat": 0.0, "lat": 38.99912616666667, "name": "33643087ed37f86be1492f4bf84a1cfc", "fusion_lon": 0.0, "bike_id": "33643087ed37f86be1492f4bf84a1cfc", "is_disabled": 0, "is_reserved": 0}, {"rental_uris": {"ios": "https://dc.lft.to/lastmile_qr_scan", "android": "https://dc.lft.to/lastmile_qr_scan"}, "lon": -77.09623533333334, "type": "electric_bike", "fusion_lat": 0.0, "lat": 38.845735166666664, "name": "eb7ec26bad3db50aa526dbf7608d7e05", "fusion_lon": 0.0, "bike_id": "eb7ec26bad3db50aa526dbf7608d7e05", "is_disabled": 0, "is_reserved": 0}, {"rental_uris": {"ios": "https://dc.lft.to/lastmile_qr_scan", "android": "https://dc.lft.to/lastmile_qr_scan"}, "lon": -77.03819833333333, "type": "electric_scooter", "fusion_lat": 0.0, "lat": 38.9311605, "name": "a4f7dea87138cc9bf609f62a98e7d3d9", "fusion_lon": 0.0, "bike_id": "a4f7dea87138cc9bf609f62a98e7d3d9", "is_disabled": 0, "is_reserved": 0}, {"rental_uris": {"ios": "https://dc.lft.to/lastmile_qr_scan", "android": "https://dc.lft.to/lastmile_qr_scan"}, "lon": -77.033931, "type": "electric_scooter", "fusion_lat": 0.0, "lat": 38.920553, "name": "3a08ac616f71dd25c71b012f05c7878f", "fusion_lon": 0.0, "bike_id": "3a08ac616f71dd25c71b012f05c7878f", "is_disabled": 0, "is_reserved": 0}, {"rental_uris": {"ios": "https://dc.lft.to/lastmile_qr_scan", "android": "https://dc.lft.to/lastmile_qr_scan"}, "lon": -77.06476583333334, "type": "electric_bike", "fusion_lat": 0.0, "lat": 38.97386933333333, "name": "458c7c41b8db271db1c8e73a285c8d67", "fusion_lon": 0.0, "bike_id": "458c7c41b8db271db1c8e73a285c8d67", "is_disabled": 0, "is_reserved": 0}, {"rental_uris": {"ios": "https://dc.lft.to/lastmile_qr_scan", "android": "https://dc.lft.to/lastmile_qr_scan"}, "lon": -76.99749966666667, "type": "electric_scooter", "fusion_lat": 0.0, "lat": 38.932263, "name": "88eaaae1b61db7695729effe47be34bf", "fusion_lon": 0.0, "bike_id": "88eaaae1b61db7695729effe47be34bf", "is_disabled": 0, "is_reserved": 0}, {"rental_uris": {"ios": "https://dc.lft.to/lastmile_qr_scan", "android": "https://dc.lft.to/lastmile_qr_scan"}, "lon": -77.037913, "type": "electric_scooter", "fusion_lat": 0.0, "lat": 38.9302135, "name": "95f8ec76b3920b483f5a8fed2d645678", "fusion_lon": 0.0, "bike_id": "95f8ec76b3920b483f5a8fed2d645678", "is_disabled": 0, "is_reserved": 0}, {"rental_uris": {"ios": "https://dc.lft.to/lastmile_qr_scan", "android": "https://dc.lft.to/lastmile_qr_scan"}, "lon": -77.03184733333333, "type": "electric_scooter", "fusion_lat": 0.0, "lat": 38.8957785, "name": "8f0c69ece9416d3273ece4644f6e6aef", "fusion_lon": 0.0, "bike_id": "8f0c69ece9416d3273ece4644f6e6aef", "is_disabled": 0, "is_reserved": 0}, {"rental_uris": {"ios": "https://dc.lft.to/lastmile_qr_scan", "android": "https://dc.lft.to/lastmile_qr_scan"}, "lon": -77.04257683333333, "type": "electric_scooter", "fusion_lat": 0.0, "lat": 38.916046333333334, "name": "00647ff1b3dee5628c0a1da3fb964f99", "fusion_lon": 0.0, "bike_id": "00647ff1b3dee5628c0a1da3fb964f99", "is_disabled": 0, "is_reserved": 0}, {"rental_uris": {"ios": "https://dc.lft.to/lastmile_qr_scan", "android": "https://dc.lft.to/lastmile_qr_scan"}, "lon": -77.022318, "type": "electric_scooter", "fusion_lat": 0.0, "lat": 38.91426466666667, "name": "4507670d4606df2af86a64a669d2898c", "fusion_lon": 0.0, "bike_id": "4507670d4606df2af86a64a669d2898c", "is_disabled": 0, "is_reserved": 0}, {"rental_uris": {"ios": "https://dc.lft.to/lastmile_qr_scan", "android": "https://dc.lft.to/lastmile_qr_scan"}, "lon": -77.03709316666666, "type": "electric_scooter", "fusion_lat": 0.0, "lat": 38.905648666666664, "name": "b97b767afb9cebb9700fa5756b2a899f", "fusion_lon": 0.0, "bike_id": "b97b767afb9cebb9700fa5756b2a899f", "is_disabled": 0, "is_reserved": 0}, {"rental_uris": {"ios": "https://dc.lft.to/lastmile_qr_scan", "android": "https://dc.lft.to/lastmile_qr_scan"}, "lon": -77.03226466666666, "type": "electric_scooter", "fusion_lat": 0.0, "lat": 38.91713416666666, "name": "45fde6306a5b621184aedc940e4aa0cd", "fusion_lon": 0.0, "bike_id": "45fde6306a5b621184aedc940e4aa0cd", "is_disabled": 0, "is_reserved": 0}, {"rental_uris": {"ios": "https://dc.lft.to/lastmile_qr_scan", "android": "https://dc.lft.to/lastmile_qr_scan"}, "lon": -76.98714233333334, "type": "electric_scooter", "fusion_lat": 0.0, "lat": 38.86702616666667, "name": "9604d73017e607d15dc50d42fc261002", "fusion_lon": 0.0, "bike_id": "9604d73017e607d15dc50d42fc261002", "is_disabled": 0, "is_reserved": 0}, {"rental_uris": {"ios": "https://dc.lft.to/lastmile_qr_scan", "android": "https://dc.lft.to/lastmile_qr_scan"}, "lon": -77.00219066666666, "type": "electric_scooter", "fusion_lat": 0.0, "lat": 38.91106333333333, "name": "3a1b9c63ba1fc0cdedec7234a32540f5", "fusion_lon": 0.0, "bike_id": "3a1b9c63ba1fc0cdedec7234a32540f5", "is_disabled": 0, "is_reserved": 0}, {"rental_uris": {"ios": "https://dc.lft.to/lastmile_qr_scan", "android": "https://dc.lft.to/lastmile_qr_scan"}, "lon": -77.0588655, "type": "electric_scooter", "fusion_lat": 0.0, "lat": 38.936387333333336, "name": "b871657e5714537f2303e8e242748e4d", "fusion_lon": 0.0, "bike_id": "b871657e5714537f2303e8e242748e4d", "is_disabled": 0, "is_reserved": 0}, {"rental_uris": {"ios": "https://dc.lft.to/lastmile_qr_scan", "android": "https://dc.lft.to/lastmile_qr_scan"}, "lon": -77.03639583333333, "type": "electric_scooter", "fusion_lat": 0.0, "lat": 38.91693083333333, "name": "16eedd3b43c13fbc7509b47e8a90193f", "fusion_lon": 0.0, "bike_id": "16eedd3b43c13fbc7509b47e8a90193f", "is_disabled": 0, "is_reserved": 0}, {"rental_uris": {"ios": "https://dc.lft.to/lastmile_qr_scan", "android": "https://dc.lft.to/lastmile_qr_scan"}, "lon": -77.048178, "type": "electric_scooter", "fusion_lat": 0.0, "lat": 38.896275833333334, "name": "410c3b3d119d52ced6cd26ea74140409", "fusion_lon": 0.0, "bike_id": "410c3b3d119d52ced6cd26ea74140409", "is_disabled": 0, "is_reserved": 0}, {"rental_uris": {"ios": "https://dc.lft.to/lastmile_qr_scan", "android": "https://dc.lft.to/lastmile_qr_scan"}, "lon": -77.02220783333334, "type": "electric_scooter", "fusion_lat": 0.0, "lat": 38.93869733333333, "name": "badc2d47e5e5358a598645290517b429", "fusion_lon": 0.0, "bike_id": "badc2d47e5e5358a598645290517b429", "is_disabled": 0, "is_reserved": 0}, {"rental_uris": {"ios": "https://dc.lft.to/lastmile_qr_scan", "android": "https://dc.lft.to/lastmile_qr_scan"}, "lon": -77.021658, "type": "electric_scooter", "fusion_lat": 0.0, "lat": 38.926164666666665, "name": "89c7156a0bd9815e989e946153dbb097", "fusion_lon": 0.0, "bike_id": "89c7156a0bd9815e989e946153dbb097", "is_disabled": 0, "is_reserved": 0}, {"rental_uris": {"ios": "https://dc.lft.to/lastmile_qr_scan", "android": "https://dc.lft.to/lastmile_qr_scan"}, "lon": -77.00248233333333, "type": "electric_scooter", "fusion_lat": 0.0, "lat": 38.911743, "name": "c741251b84bdbdb63a60dcf53b83f2aa", "fusion_lon": 0.0, "bike_id": "c741251b84bdbdb63a60dcf53b83f2aa", "is_disabled": 0, "is_reserved": 0}, {"rental_uris": {"ios": "https://dc.lft.to/lastmile_qr_scan", "android": "https://dc.lft.to/lastmile_qr_scan"}, "lon": -77.006555, "type": "electric_scooter", "fusion_lat": 0.0, "lat": 38.8718315, "name": "5996ebec4a9bd0e748780de79f3b2773", "fusion_lon": 0.0, "bike_id": "5996ebec4a9bd0e748780de79f3b2773", "is_disabled": 0, "is_reserved": 0}, {"rental_uris": {"ios": "https://dc.lft.to/lastmile_qr_scan", "android": "https://dc.lft.to/lastmile_qr_scan"}, "lon": -77.02599366666666, "type": "electric_scooter", "fusion_lat": 0.0, "lat": 38.892668666666665, "name": "5ae57c5017c69dcd79a1fb9c916fb9ca", "fusion_lon": 0.0, "bike_id": "5ae57c5017c69dcd79a1fb9c916fb9ca", "is_disabled": 0, "is_reserved": 0}, {"rental_uris": {"ios": "https://dc.lft.to/lastmile_qr_scan", "android": "https://dc.lft.to/lastmile_qr_scan"}, "lon": -77.040091, "type": "electric_scooter", "fusion_lat": 0.0, "lat": 38.909993, "name": "7c8d9a4865fb8d28510e0cb99f189f36", "fusion_lon": 0.0, "bike_id": "7c8d9a4865fb8d28510e0cb99f189f36", "is_disabled": 0, "is_reserved": 0}, {"rental_uris": {"ios": "https://dc.lft.to/lastmile_qr_scan", "android": "https://dc.lft.to/lastmile_qr_scan"}, "lon": -77.05809883333333, "type": "electric_scooter", "fusion_lat": 0.0, "lat": 38.934584666666666, "name": "35c80f4eec870bf54d287a444a0ef598", "fusion_lon": 0.0, "bike_id": "35c80f4eec870bf54d287a444a0ef598", "is_disabled": 0, "is_reserved": 0}, {"rental_uris": {"ios": "https://dc.lft.to/lastmile_qr_scan", "android": "https://dc.lft.to/lastmile_qr_scan"}, "lon": -76.97494566666667, "type": "electric_bike", "fusion_lat": 0.0, "lat": 38.9200995, "name": "ad20d195952ac58d128a791afad89388", "fusion_lon": 0.0, "bike_id": "ad20d195952ac58d128a791afad89388", "is_disabled": 0, "is_reserved": 0}, {"rental_uris": {"ios": "https://dc.lft.to/lastmile_qr_scan", "android": "https://dc.lft.to/lastmile_qr_scan"}, "lon": -76.97405266666667, "type": "electric_scooter", "fusion_lat": 0.0, "lat": 38.90161883333333, "name": "c01fd349dc39aed913d5a8948973ebf2", "fusion_lon": 0.0, "bike_id": "c01fd349dc39aed913d5a8948973ebf2", "is_disabled": 0, "is_reserved": 0}, {"rental_uris": {"ios": "https://dc.lft.to/lastmile_qr_scan", "android": "https://dc.lft.to/lastmile_qr_scan"}, "lon": -77.04866816666667, "type": "electric_scooter", "fusion_lat": 0.0, "lat": 38.90851933333333, "name": "367181fb1c9d4231d6306baa4f98e0ae", "fusion_lon": 0.0, "bike_id": "367181fb1c9d4231d6306baa4f98e0ae", "is_disabled": 0, "is_reserved": 0}, {"rental_uris": {"ios": "https://dc.lft.to/lastmile_qr_scan", "android": "https://dc.lft.to/lastmile_qr_scan"}, "lon": -77.03223883333334, "type": "electric_scooter", "fusion_lat": 0.0, "lat": 38.9266875, "name": "e3493a0f7a2c30d1af200924ea685092", "fusion_lon": 0.0, "bike_id": "e3493a0f7a2c30d1af200924ea685092", "is_disabled": 0, "is_reserved": 0}, {"rental_uris": {"ios": "https://dc.lft.to/lastmile_qr_scan", "android": "https://dc.lft.to/lastmile_qr_scan"}, "lon": -77.02952416666666, "type": "electric_scooter", "fusion_lat": 0.0, "lat": 38.90523, "name": "ba363158331fb1d91d927dcc26b4bf5d", "fusion_lon": 0.0, "bike_id": "ba363158331fb1d91d927dcc26b4bf5d", "is_disabled": 0, "is_reserved": 0}, {"rental_uris": {"ios": "https://dc.lft.to/lastmile_qr_scan", "android": "https://dc.lft.to/lastmile_qr_scan"}, "lon": -77.04288916666667, "type": "electric_scooter", "fusion_lat": 0.0, "lat": 38.9081585, "name": "6458535977c9d1901c126f1051c29741", "fusion_lon": 0.0, "bike_id": "6458535977c9d1901c126f1051c29741", "is_disabled": 0, "is_reserved": 0}, {"rental_uris": {"ios": "https://dc.lft.to/lastmile_qr_scan", "android": "https://dc.lft.to/lastmile_qr_scan"}, "lon": -76.99780716666666, "type": "electric_scooter", "fusion_lat": 0.0, "lat": 38.908744, "name": "613be8f6e0afb701f0ee0b0677b6c22e", "fusion_lon": 0.0, "bike_id": "613be8f6e0afb701f0ee0b0677b6c22e", "is_disabled": 0, "is_reserved": 0}, {"rental_uris": {"ios": "https://dc.lft.to/lastmile_qr_scan", "android": "https://dc.lft.to/lastmile_qr_scan"}, "lon": -77.05621816666667, "type": "electric_bike", "fusion_lat": 0.0, "lat": 38.92414083333333, "name": "4cea0525443723ebc9d16a303cd6dd8d", "fusion_lon": 0.0, "bike_id": "4cea0525443723ebc9d16a303cd6dd8d", "is_disabled": 0, "is_reserved": 0}, {"rental_uris": {"ios": "https://dc.lft.to/lastmile_qr_scan", "android": "https://dc.lft.to/lastmile_qr_scan"}, "lon": -76.93719366666667, "type": "electric_scooter", "fusion_lat": 0.0, "lat": 38.895869166666664, "name": "5fd05944d0434b91e378339772609ad4", "fusion_lon": 0.0, "bike_id": "5fd05944d0434b91e378339772609ad4", "is_disabled": 0, "is_reserved": 0}, {"rental_uris": {"ios": "https://dc.lft.to/lastmile_qr_scan", "android": "https://dc.lft.to/lastmile_qr_scan"}, "lon": -77.04110983333334, "type": "electric_scooter", "fusion_lat": 0.0, "lat": 38.92444916666667, "name": "bb0438034ed5c4556121eff3f7fd8918", "fusion_lon": 0.0, "bike_id": "bb0438034ed5c4556121eff3f7fd8918", "is_disabled": 0, "is_reserved": 0}, {"rental_uris": {"ios": "https://dc.lft.to/lastmile_qr_scan", "android": "https://dc.lft.to/lastmile_qr_scan"}, "lon": -77.03427966666666, "type": "electric_scooter", "fusion_lat": 0.0, "lat": 38.935455833333336, "name": "0ccd365345254456ed7cd500957aa872", "fusion_lon": 0.0, "bike_id": "0ccd365345254456ed7cd500957aa872", "is_disabled": 0, "is_reserved": 0}, {"rental_uris": {"ios": "https://dc.lft.to/lastmile_qr_scan", "android": "https://dc.lft.to/lastmile_qr_scan"}, "lon": -77.017456, "type": "electric_scooter", "fusion_lat": 0.0, "lat": 38.88334666666667, "name": "5804e555df9a06182ead3dee5b712a23", "fusion_lon": 0.0, "bike_id": "5804e555df9a06182ead3dee5b712a23", "is_disabled": 0, "is_reserved": 0}, {"rental_uris": {"ios": "https://dc.lft.to/lastmile_qr_scan", "android": "https://dc.lft.to/lastmile_qr_scan"}, "lon": -77.012583, "type": "electric_scooter", "fusion_lat": 0.0, "lat": 38.899654, "name": "0cead732b4a7cbb05d6a457a283b9b46", "fusion_lon": 0.0, "bike_id": "0cead732b4a7cbb05d6a457a283b9b46", "is_disabled": 0, "is_reserved": 0}, {"rental_uris": {"ios": "https://dc.lft.to/lastmile_qr_scan", "android": "https://dc.lft.to/lastmile_qr_scan"}, "lon": -77.03956966666667, "type": "electric_scooter", "fusion_lat": 0.0, "lat": 38.92466483333333, "name": "2f3811082803ea1f56b7a6eb9f4c90c4", "fusion_lon": 0.0, "bike_id": "2f3811082803ea1f56b7a6eb9f4c90c4", "is_disabled": 0, "is_reserved": 0}, {"rental_uris": {"ios": "https://dc.lft.to/lastmile_qr_scan", "android": "https://dc.lft.to/lastmile_qr_scan"}, "lon": -76.9914825, "type": "electric_scooter", "fusion_lat": 0.0, "lat": 38.9004405, "name": "360c4e3360278ca686d0bd9f3b339511", "fusion_lon": 0.0, "bike_id": "360c4e3360278ca686d0bd9f3b339511", "is_disabled": 0, "is_reserved": 0}, {"rental_uris": {"ios": "https://dc.lft.to/lastmile_qr_scan", "android": "https://dc.lft.to/lastmile_qr_scan"}, "lon": -77.01176883333333, "type": "electric_scooter", "fusion_lat": 0.0, "lat": 38.90031116666667, "name": "8dbef07e3c606ed0f7a9d5750eb05a9e", "fusion_lon": 0.0, "bike_id": "8dbef07e3c606ed0f7a9d5750eb05a9e", "is_disabled": 0, "is_reserved": 0}, {"rental_uris": {"ios": "https://dc.lft.to/lastmile_qr_scan", "android": "https://dc.lft.to/lastmile_qr_scan"}, "lon": -76.98610833333333, "type": "electric_scooter", "fusion_lat": 0.0, "lat": 38.86832366666667, "name": "72b6771f2546923ec8c5dea377db4693", "fusion_lon": 0.0, "bike_id": "72b6771f2546923ec8c5dea377db4693", "is_disabled": 0, "is_reserved": 0}, {"rental_uris": {"ios": "https://dc.lft.to/lastmile_qr_scan", "android": "https://dc.lft.to/lastmile_qr_scan"},