{"data": {"bikes": [{"fusion_lon": 0.0, "bike_id": "1d70928beb1cb0b8823a9b42a0c88a03", "name": "1d70928beb1cb0b8823a9b42a0c88a03", "type": "electric_bike", "lon": -76.9159565, "rental_uris": {"android": "https://dc.lft.to/lastmile_qr_scan", "ios": "https://dc.lft.to/lastmile_qr_scan"}, "lat": 38.880114166666665, "is_reserved": 0, "is_disabled": 0, "fusion_lat": 0.0}, {"fusion_lon": 0.0, "bike_id": "e52b19891f7e14ef766f6ada2e1d4314", "name": "e52b19891f7e14ef766f6ada2e1d4314", "type": "electric_scooter", "lon": -77.0272005, "rental_uris": {"android": "https://dc.lft.to/lastmile_qr_scan", "ios": "https://dc.lft.to/lastmile_qr_scan"}, "lat": 38.90751216666666, "is_reserved": 0, "is_disabled": 0, "fusion_lat": 0.0}, {"fusion_lon": 0.0, "bike_id": "9ae2035cce33fc3d5afaf1417745fe2b", "name": "9ae2035cce33fc3d5afaf1417745fe2b", "type": "electric_scooter", "lon": -76.98420566666667, "rental_uris": {"android": "https://dc.lft.to/lastmile_qr_scan", "ios": "https://dc.lft.to/lastmile_qr_scan"}, "lat": 38.85969883333333, "is_reserved": 0, "is_disabled": 0, "fusion_lat": 0.0}, {"fusion_lon": 0.0, "bike_id": "a29af0f1a7a0bf89cee8b20ecaa039ee", "name": "a29af0f1a7a0bf89cee8b20ecaa039ee", "type": "electric_scooter", "lon": -77.0331745, "rental_uris": {"android": "https://dc.lft.to/lastmile_qr_scan", "ios": "https://dc.lft.to/lastmile_qr_scan"}, "lat": 38.960193, "is_reserved": 0, "is_disabled": 0, "fusion_lat": 0.0}, {"fusion_lon": 0.0, "bike_id": "414ebc5142a8bcbc1cf426c8e8348d80", "name": "414ebc5142a8bcbc1cf426c8e8348d80", "type": "electric_scooter", "lon": -77.00334, "rental_uris": {"android": "https://dc.lft.to/lastmile_qr_scan", "ios": "https://dc.lft.to/lastmile_qr_scan"}, "lat": 38.88321116666667, "is_reserved": 0, "is_disabled": 0, "fusion_lat": 0.0}, {"fusion_lon": 0.0, "bike_id": "73827aab9c6970015f883f21b5c8d614", "name": "73827aab9c6970015f883f21b5c8d614", "type": "electric_bike", "lon": -76.90817216666667, "rental_uris": {"android": "https://dc.lft.to/lastmile_qr_scan", "ios": "https://dc.lft.to/lastmile_qr_scan"}, "lat": 38.9945125, "is_reserved": 0, "is_disabled": 0, "fusion_lat": 0.0}, {"fusion_lon": 0.0, "bike_id": "505d837f448bb94564a65f7c8b50fd92", "name": "505d837f448bb94564a65f7c8b50fd92", "type": "electric_scooter", "lon": -77.022914, "rental_uris": {"android": "https://dc.lft.to/lastmile_qr_scan", "ios": "https://dc.lft.to/lastmile_qr_scan"}, "lat": 38.917696166666666, "is_reserved": 0, "is_disabled": 0, "fusion_lat": 0.0}, {"fusion_lon": 0.0, "bike_id": "8aa014494f42cefef50634dd9386a24c", "name": "8aa014494f42cefef50634dd9386a24c", "type": "electric_scooter", "lon": -77.01902, "rental_uris": {"android": "https://dc.lft.to/lastmile_qr_scan", "ios": "https://dc.lft.to/lastmile_qr_scan"}, "lat": 38.877578666666665, "is_reserved": 0, "is_disabled": 0, "fusion_lat": 0.0}, {"fusion_lon": 0.0, "bike_id": "d79affe9ba3e6e841e834a1458b46359", "name": "d79affe9ba3e6e841e834a1458b46359", "type": "electric_bike", "lon": -76.97891816666667, "rental_uris": {"android": "https://dc.lft.to/lastmile_qr_scan", "ios": "https://dc.lft.to/lastmile_qr_scan"}, "lat": 38.85494683333334, "is_reserved": 0, "is_disabled": 0, "fusion_lat": 0.0}, {"fusion_lon": 0.0, "bike_id": "d54204d539209fc4dc1e6507f7819a9b", "name": "d54204d539209fc4dc1e6507f7819a9b", "type": "electric_scooter", "lon": -76.955349, "rental_uris": {"android": "https://dc.lft.to/lastmile_qr_scan", "ios": "https://dc.lft.to/lastmile_qr_scan"}, "lat": 38.8876955, "is_reserved": 0, "is_disabled": 0, "fusion_lat": 0.0}, {"fusion_lon": 0.0, "bike_id": "c3d4e3f6dd3b50a2375e4e1279b6498d", "name": "c3d4e3f6dd3b50a2375e4e1279b6498d", "type": "electric_scooter", "lon": -77.10311533333334, "rental_uris": {"android": "https://dc.lft.to/lastmile_qr_scan", "ios": "https://dc.lft.to/lastmile_qr_scan"}, "lat": 38.92671833333333, "is_reserved": 0, "is_disabled": 0, "fusion_lat": 0.0}, {"fusion_lon": 0.0, "bike_id": "bc59bd77fa287fb77eeca095e9ac7e0c", "name": "bc59bd77fa287fb77eeca095e9ac7e0c", "type": "electric_scooter", "lon": -77.06232716666666, "rental_uris": {"android": "https://dc.lft.to/lastmile_qr_scan", "ios": "https://dc.lft.to/lastmile_qr_scan"}, "lat": 38.90528166666667, "is_reserved": 0, "is_disabled": 0, "fusion_lat": 0.0}, {"fusion_lon": 0.0, "bike_id": "233f94e3050dc56bd8e61a6b3c0edc15", "name": "233f94e3050dc56bd8e61a6b3c0edc15", "type": "electric_scooter", "lon": -77.05095066666667, "rental_uris": {"android": "https://dc.lft.to/lastmile_qr_scan", "ios": "https://dc.lft.to/lastmile_qr_scan"}, "lat": 38.923475833333335, "is_reserved": 0, "is_disabled": 0, "fusion_lat": 0.0}, {"fusion_lon": 0.0, "bike_id": "e61ffe6ad44aa728e53cf13661fa53be", "name": "e61ffe6ad44aa728e53cf13661fa53be", "type": "electric_scooter", "lon": -76.98338033333333, "rental_uris": {"android": "https://dc.lft.to/lastmile_qr_scan", "ios": "https://dc.lft.to/lastmile_qr_scan"}, "lat": 38.912768166666666, "is_reserved": 0, "is_disabled": 0, "fusion_lat": 0.0}, {"fusion_lon": 0.0, "bike_id": "8ac8d1f8c2c51a3837f03a05bf285997", "name": "8ac8d1f8c2c51a3837f03a05bf285997", "type": "electric_scooter", "lon": -77.01354516666666, "rental_uris": {"android": "https://dc.lft.to/lastmile_qr_scan", "ios": "https://dc.lft.to/lastmile_qr_scan"}, "lat": 38.903863, "is_reserved": 0, "is_disabled": 0, "fusion_lat": 0.0}, {"fusion_lon": 0.0, "bike_id": "463aec04a9160cea50b0665de096caad", "name": "463aec04a9160cea50b0665de096caad", "type": "electric_scooter", "lon": -77.03182283333334, "rental_uris": {"android": "https://dc.lft.to/lastmile_qr_scan", "ios": "https://dc.lft.to/lastmile_qr_scan"}, "lat": 38.919309, "is_reserved": 0, "is_disabled": 0, "fusion_lat": 0.0}, {"fusion_lon": 0.0, "bike_id": "0fba9890a26b8f11368f031044ec8ba8", "name": "0fba9890a26b8f11368f031044ec8ba8", "type": "electric_scooter", "lon": -77.03222966666667, "rental_uris": {"android": "https://dc.lft.to/lastmile_qr_scan", "ios": "https://dc.lft.to/lastmile_qr_scan"}, "lat": 38.907708166666666, "is_reserved": 0, "is_disabled": 0, "fusion_lat": 0.0}, {"fusion_lon": 0.0, "bike_id": "53043043f97843c9b57527b494ce28af", "name": "53043043f97843c9b57527b494ce28af", "type": "electric_scooter", "lon": -77.052738, "rental_uris": {"android": "https://dc.lft.to/lastmile_qr_scan", "ios": "https://dc.lft.to/lastmile_qr_scan"}, "lat": 38.927647666666665, "is_reserved": 0, "is_disabled": 0, "fusion_lat": 0.0}, {"fusion_lon": 0.0, "bike_id": "f31da047e9b7b945293cdd374af935f9", "name": "f31da047e9b7b945293cdd374af935f9", "type": "electric_scooter", "lon": -76.9859035, "rental_uris": {"android": "https://dc.lft.to/lastmile_qr_scan", "ios": "https://dc.lft.to/lastmile_qr_scan"}, "lat": 38.8897455, "is_reserved": 0, "is_disabled": 0, "fusion_lat": 0.0}, {"fusion_lon": 0.0, "bike_id": "76602088157cb54dfc5d221d123b4023", "name": "76602088157cb54dfc5d221d123b4023", "type": "electric_scooter", "lon": -76.9575605, "rental_uris": {"android": "https://dc.lft.to/lastmile_qr_scan", "ios": "https://dc.lft.to/lastmile_qr_scan"}, "lat": 38.884352166666666, "is_reserved": 0, "is_disabled": 0, "fusion_lat": 0.0}, {"fusion_lon": 0.0, "bike_id": "6a9076ee9a6ff2409456a671b071f2f3", "name": "6a9076ee9a6ff2409456a671b071f2f3", "type": "electric_bike", "lon": -76.87496216666666, "rental_uris": {"android": "https://dc.lft.to/lastmile_qr_scan", "ios": "https://dc.lft.to/lastmile_qr_scan"}, "lat": 38.99090433333333, "is_reserved": 0, "is_disabled": 0, "fusion_lat": 0.0}, {"fusion_lon": 0.0, "bike_id": "12cf6caf26d9865524b556653fa725a7", "name": "12cf6caf26d9865524b556653fa725a7", "type": "electric_scooter", "lon": -77.04352333333334, "rental_uris": {"android": "https://dc.lft.to/lastmile_qr_scan", "ios": "https://dc.lft.to/lastmile_qr_scan"}, "lat": 38.913628833333334, "is_reserved": 0, "is_disabled": 0, "fusion_lat": 0.0}, {"fusion_lon": 0.0, "bike_id": "866fd8cac8f8d0db67bbacb64694e415", "name": "866fd8cac8f8d0db67bbacb64694e415", "type": "electric_scooter", "lon": -77.0233725, "rental_uris": {"android": "https://dc.lft.to/lastmile_qr_scan", "ios": "https://dc.lft.to/lastmile_qr_scan"}, "lat": 38.915554166666666, "is_reserved": 0, "is_disabled": 0, "fusion_lat": 0.0}, {"fusion_lon": 0.0, "bike_id": "f491be48feced41d6ea6d9284104c954", "name": "f491be48feced41d6ea6d9284104c954", "type": "electric_scooter", "lon": -77.01895466666667, "rental_uris": {"android": "https://dc.lft.to/lastmile_qr_scan", "ios": "https://dc.lft.to/lastmile_qr_scan"}, "lat": 38.9001215, "is_reserved": 0, "is_disabled": 0, "fusion_lat": 0.0}, {"fusion_lon": 0.0, "bike_id": "fe2ab3c5326a1dd4d74255b456708c12", "name": "fe2ab3c5326a1dd4d74255b456708c12", "type": "electric_scooter", "lon": -77.02275333333333, "rental_uris": {"android": "https://dc.lft.to/lastmile_qr_scan", "ios": "https://dc.lft.to/lastmile_qr_scan"}, "lat": 38.92503966666666, "is_reserved": 0, "is_disabled": 0, "fusion_lat": 0.0}, {"fusion_lon": 0.0, "bike_id": "622f13dc2b811004a7bfded61601ecf2", "name": "622f13dc2b811004a7bfded61601ecf2", "type": "electric_scooter", "lon": -77.0103915, "rental_uris": {"android": "https://dc.lft.to/lastmile_qr_scan", "ios": "https://dc.lft.to/lastmile_qr_scan"}, "lat": 38.88452216666667, "is_reserved": 0, "is_disabled": 0, "fusion_lat": 0.0}, {"fusion_lon": 0.0, "bike_id": "e8861ef8c4b96ab774a171185b66a0f2", "name": "e8861ef8c4b96ab774a171185b66a0f2", "type": "electric_scooter", "lon": -77.038481, "rental_uris": {"android": "https://dc.lft.to/lastmile_qr_scan", "ios": "https://dc.lft.to/lastmile_qr_scan"}, "lat": 38.916654, "is_reserved": 0, "is_disabled": 0, "fusion_lat": 0.0}, {"fusion_lon": 0.0, "bike_id": "fcce91c0e2835f905c69c4a3508c392b", "name": "fcce91c0e2835f905c69c4a3508c392b", "type": "electric_scooter", "lon": -77.04110533333333, "rental_uris": {"android": "https://dc.lft.to/lastmile_qr_scan", "ios": "https://dc.lft.to/lastmile_qr_scan"}, "lat": 38.901452666666664, "is_reserved": 0, "is_disabled": 0, "fusion_lat": 0.0}, {"fusion_lon": 0.0, "bike_id": "89a208cd0bddd62a2943503ca1fdf13c", "name": "89a208cd0bddd62a2943503ca1fdf13c", "type": "electric_scooter", "lon": -76.99531633333334, "rental_uris": {"android": "https://dc.lft.to/lastmile_qr_scan", "ios": "https://dc.lft.to/lastmile_qr_scan"}, "lat": 38.90031033333333, "is_reserved": 0, "is_disabled": 0, "fusion_lat": 0.0}, {"fusion_lon": 0.0, "bike_id": "e49dd4ee234b34cd1c98681176187f73", "name": "e49dd4ee234b34cd1c98681176187f73", "type": "electric_scooter", "lon": -77.03453, "rental_uris": {"android": "https://dc.lft.to/lastmile_qr_scan", "ios": "https://dc.lft.to/lastmile_qr_scan"}, "lat": 38.91801783333333, "is_reserved": 0, "is_disabled": 0, "fusion_lat": 0.0}, {"fusion_lon": 0.0, "bike_id": "5143672099818426f0f24d1550c2076d", "name": "5143672099818426f0f24d1550c2076d", "type": "electric_scooter", "lon": -77.022248, "rental_uris": {"android": "https://dc.lft.to/lastmile_qr_scan", "ios": "https://dc.lft.to/lastmile_qr_scan"}, "lat": 38.912690833333336, "is_reserved": 0, "is_disabled": 0, "fusion_lat": 0.0}, {"fusion_lon": 0.0, "bike_id": "50acd9d4718788cff246724c67d150f9", "name": "50acd9d4718788cff246724c67d150f9", "type": "electric_scooter", "lon": -77.0241975, "rental_uris": {"android": "https://dc.lft.to/lastmile_qr_scan", "ios": "https://dc.lft.to/lastmile_qr_scan"}, "lat": 38.918291833333335, "is_reserved": 0, "is_disabled": 0, "fusion_lat": 0.0}, {"fusion_lon": 0.0, "bike_id": "de8104423de1bde6d5fa651b7abea370", "name": "de8104423de1bde6d5fa651b7abea370", "type": "electric_bike", "lon": -76.98472866666667, "rental_uris": {"android": "https://dc.lft.to/lastmile_qr_scan", "ios": "https://dc.lft.to/lastmile_qr_scan"}, "lat": 38.891523, "is_reserved": 0, "is_disabled": 0, "fusion_lat": 0.0}, {"fusion_lon": 0.0, "bike_id": "839d4f533147b02d671fd0d4f0eb1b4c", "name": "839d4f533147b02d671fd0d4f0eb1b4c", "type": "electric_scooter", "lon": -77.0363775, "rental_uris": {"android": "https://dc.lft.to/lastmile_qr_scan", "ios": "https://dc.lft.to/lastmile_qr_scan"}, "lat": 38.91228783333333, "is_reserved": 0, "is_disabled": 0, "fusion_lat": 0.0}, {"fusion_lon": 0.0, "bike_id": "bcf594383e5a5d1de45604f82d005fc7", "name": "bcf594383e5a5d1de45604f82d005fc7", "type": "electric_bike", "lon": -76.96386816666667, "rental_uris": {"android": "https://dc.lft.to/lastmile_qr_scan", "ios": "https://dc.lft.to/lastmile_qr_scan"}, "lat": 38.9758115, "is_reserved": 0, "is_disabled": 0, "fusion_lat": 0.0}, {"fusion_lon": 0.0, "bike_id": "60e438dbfd8b8d8c2cb7fbc4d424111e", "name": "60e438dbfd8b8d8c2cb7fbc4d424111e", "type": "electric_bike", "lon": -76.87771183333334, "rental_uris": {"android": "https://dc.lft.to/lastmile_qr_scan", "ios": "https://dc.lft.to/lastmile_qr_scan"}, "lat": 38.9922845, "is_reserved": 0, "is_disabled": 0, "fusion_lat": 0.0}, {"fusion_lon": 0.0, "bike_id": "233d9e2af53494fc615a570394d30b92", "name": "233d9e2af53494fc615a570394d30b92", "type": "electric_scooter", "lon": -77.01442616666667, "rental_uris": {"android": "https://dc.lft.to/lastmile_qr_scan", "ios": "https://dc.lft.to/lastmile_qr_scan"}, "lat": 38.91967233333333, "is_reserved": 0, "is_disabled": 0, "fusion_lat": 0.0}, {"fusion_lon": 0.0, "bike_id": "4d099ab3e829c04807a472964dc7f914", "name": "4d099ab3e829c04807a472964dc7f914", "type": "electric_scooter", "lon": -76.97821216666667, "rental_uris": {"android": "https://dc.lft.to/lastmile_qr_scan", "ios": "https://dc.lft.to/lastmile_qr_scan"}, "lat": 38.846144, "is_reserved": 0, "is_disabled": 0, "fusion_lat": 0.0}, {"fusion_lon": 0.0, "bike_id": "264f0d6897a759753770093998699a85", "name": "264f0d6897a759753770093998699a85", "type": "electric_scooter", "lon": -77.00325283333333, "rental_uris": {"android": "https://dc.lft.to/lastmile_qr_scan", "ios": "https://dc.lft.to/lastmile_qr_scan"}, "lat": 38.902672833333334, "is_reserved": 0, "is_disabled": 0, "fusion_lat": 0.0}, {"fusion_lon": 0.0, "bike_id": "b3dfdb035159b783cf301d8066abea31", "name": "b3dfdb035159b783cf301d8066abea31", "type": "electric_bike", "lon": -76.94869066666666, "rental_uris": {"android": "https://dc.lft.to/lastmile_qr_scan", "ios": "https://dc.lft.to/lastmile_qr_scan"}, "lat": 38.88969383333333, "is_reserved": 0, "is_disabled": 0, "fusion_lat": 0.0}, {"fusion_lon": 0.0, "bike_id": "0dc9c6802915fc9e59c5d561e697c9f4", "name": "0dc9c6802915fc9e59c5d561e697c9f4", "type": "electric_bike", "lon": -76.98523366666667, "rental_uris": {"android": "https://dc.lft.to/lastmile_qr_scan", "ios": "https://dc.lft.to/lastmile_qr_scan"}, "lat": 38.91998, "is_reserved": 0, "is_disabled": 0, "fusion_lat": 0.0}, {"fusion_lon": 0.0, "bike_id": "e553d232bb385829f0a471b91abcdb1e", "name": "e553d232bb385829f0a471b91abcdb1e", "type": "electric_scooter", "lon": -77.05930916666667, "rental_uris": {"android": "https://dc.lft.to/lastmile_qr_scan", "ios": "https://dc.lft.to/lastmile_qr_scan"}, "lat": 38.93669516666667, "is_reserved": 0, "is_disabled": 0, "fusion_lat": 0.0}, {"fusion_lon": 0.0, "bike_id": "88aa08ee452cc9d91839edea404d5319", "name": "88aa08ee452cc9d91839edea404d5319", "type": "electric_scooter", "lon": -77.0328365, "rental_uris": {"android": "https://dc.lft.to/lastmile_qr_scan", "ios": "https://dc.lft.to/lastmile_qr_scan"}, "lat": 38.932556, "is_reserved": 0, "is_disabled": 0, "fusion_lat": 0.0}, {"fusion_lon": 0.0, "bike_id": "185b1d725941b0eb5d5f977ddbdb3a74", "name": "185b1d725941b0eb5d5f977ddbdb3a74", "type": "electric_scooter", "lon": -76.990255, "rental_uris": {"android": "https://dc.lft.to/lastmile_qr_scan", "ios": "https://dc.lft.to/lastmile_qr_scan"}, "lat": 38.85874733333333, "is_reserved": 0, "is_disabled": 0, "fusion_lat": 0.0}, {"fusion_lon": 0.0, "bike_id": "71cb8f202a25f758c5dfba84a0e80717", "name": "71cb8f202a25f758c5dfba84a0e80717", "type": "electric_scooter", "lon": -77.02465033333333, "rental_uris": {"android": "https://dc.lft.to/lastmile_qr_scan", "ios": "https://dc.lft.to/lastmile_qr_scan"}, "lat": 38.93907216666667, "is_reserved": 0, "is_disabled": 0, "fusion_lat": 0.0}, {"fusion_lon": 0.0, "bike_id": "1f6e6f0644462b8f0d8210d8c92f74eb", "name": "1f6e6f0644462b8f0d8210d8c92f74eb", "type": "electric_scooter", "lon": -77.02779666666666, "rental_uris": {"android": "https://dc.lft.to/lastmile_qr_scan", "ios": "https://dc.lft.to/lastmile_qr_scan"}, "lat": 38.89223883333333, "is_reserved": 0, "is_disabled": 0, "fusion_lat": 0.0}, {"fusion_lon": 0.0, "bike_id": "5f89c4c08f75839eff92ee2729e77ae6", "name": "5f89c4c08f75839eff92ee2729e77ae6", "type": "electric_scooter", "lon": -77.04816866666667, "rental_uris": {"android": "https://dc.lft.to/lastmile_qr_scan", "ios": "https://dc.lft.to/lastmile_qr_scan"}, "lat": 38.920349, "is_reserved": 0, "is_disabled": 0, "fusion_lat": 0.0}, {"fusion_lon": 0.0, "bike_id": "9de0cefe7bac3a8b217fe5bb844a504e", "name": "9de0cefe7bac3a8b217fe5bb844a504e", "type": "electric_scooter", "lon": -77.03836216666667, "rental_uris": {"android": "https://dc.lft.to/lastmile_qr_scan", "ios": "https://dc.lft.to/lastmile_qr_scan"}, "lat": 38.90673, "is_reserved": 0, "is_disabled": 0, "fusion_lat": 0.0}, {"fusion_lon": 0.0, "bike_id": "19b12e9497cf5115c3364cdb6934d256", "name": "19b12e9497cf5115c3364cdb6934d256", "type": "electric_scooter", "lon": -77.0328625, "rental_uris": {"android": "https://dc.lft.to/lastmile_qr_scan", "ios": "https://dc.lft.to/lastmile_qr_scan"}, "lat": 38.92888633333333, "is_reserved": 0, "is_disabled": 0, "fusion_lat": 0.0}, {"fusion_lon": 0.0, "bike_id": "ab8c0ea2676b1239b79e53b1b110fbb9", "name": "ab8c0ea2676b1239b79e53b1b110fbb9", "type": "electric_scooter", "lon": -77.04868966666666, "rental_uris": {"android": "https://dc.lft.to/lastmile_qr_scan", "ios": "https://dc.lft.to/lastmile_qr_scan"}, "lat": 38.89230666666667, "is_reserved": 0, "is_disabled": 0, "fusion_lat": 0.0}, {"fusion_lon": 0.0, "bike_id": "69127d0206058b26bd8baeb1bdc47141", "name": "69127d0206058b26bd8baeb1bdc47141", "type": "electric_scooter", "lon": -76.9808675, "rental_uris": {"android": "https://dc.lft.to/lastmile_qr_scan", "ios": "https://dc.lft.to/lastmile_qr_scan"}, "lat": 38.8572505, "is_reserved": 0, "is_disabled": 0, "fusion_lat": 0.0}, {"fusion_lon": 0.0, "bike_id": "36b9bb0b9e82c4ebebcdb7f85facb826", "name": "36b9bb0b9e82c4ebebcdb7f85facb826", "type": "electric_scooter", "lon": -77.022224, "rental_uris": {"android": "https://dc.lft.to/lastmile_qr_scan", "ios": "https://dc.lft.to/lastmile_qr_scan"}, "lat": 38.892226, "is_reserved": 0, "is_disabled": 0, "fusion_lat": 0.0}, {"fusion_lon": 0.0, "bike_id": "673126613447ed7d2522d3dcfca3e66a", "name": "673126613447ed7d2522d3dcfca3e66a", "type": "electric_bike", "lon": -77.18300116666667, "rental_uris": {"android": "https://dc.lft.to/lastmile_qr_scan", "ios": "https://dc.lft.to/lastmile_qr_scan"}, "lat": 38.8834655, "is_reserved": 0, "is_disabled": 0, "fusion_lat": 0.0}, {"fusion_lon": 0.0, "bike_id": "244938a5f9f3eb23da64a6c25e484977", "name": "244938a5f9f3eb23da64a6c25e484977", "type": "electric_scooter", "lon": -77.017039, "rental_uris": {"android": "https://dc.lft.to/lastmile_qr_scan", "ios": "https://dc.lft.to/lastmile_qr_scan"}, "lat": 38.907337166666665, "is_reserved": 0, "is_disabled": 0, "fusion_lat": 0.0}, {"fusion_lon": 0.0, "bike_id": "82f62faa7136574f5e8fae1de5d272dd", "name": "82f62faa7136574f5e8fae1de5d272dd", "type": "electric_scooter", "lon": -77.048724, "rental_uris": {"android": "https://dc.lft.to/lastmile_qr_scan", "ios": "https://dc.lft.to/lastmile_qr_scan"}, "lat": 38.8923035, "is_reserved": 0, "is_disabled": 0, "fusion_lat": 0.0}, {"fusion_lon": 0.0, "bike_id": "ea3299c3fb27446e92678a9919dafbb6", "name": "ea3299c3fb27446e92678a9919dafbb6", "type": "electric_scooter", "lon": -77.0558645, "rental_uris": {"android": "https://dc.lft.to/lastmile_qr_scan", "ios": "https://dc.lft.to/lastmile_qr_scan"}, "lat": 38.900104666666664, "is_reserved": 0, "is_disabled": 0, "fusion_lat": 0.0}, {"fusion_lon": 0.0, "bike_id": "e86842e625ca85c1a65da8a220b8a7d2", "name": "e86842e625ca85c1a65da8a220b8a7d2", "type": "electric_scooter", "lon": -76.987707, "rental_uris": {"android": "https://dc.lft.to/lastmile_qr_scan", "ios": "https://dc.lft.to/lastmile_qr_scan"}, "lat": 38.84477416666667, "is_reserved": 0, "is_disabled": 0, "fusion_lat": 0.0}, {"fusion_lon": 0.0, "bike_id": "93d9bfc70bdcc815f64ac261dcdb3fa5", "name": "93d9bfc70bdcc815f64ac261dcdb3fa5", "type": "electric_scooter", "lon": -76.98872883333334, "rental_uris": {"android": "https://dc.lft.to/lastmile_qr_scan", "ios": "https://dc.lft.to/lastmile_qr_scan"}, "lat": 38.8667675, "is_reserved": 0, "is_disabled": 0, "fusion_lat": 0.0}, {"fusion_lon": 0.0, "bike_id": "a82e619439693498a51c1a419c4da5cd", "name": "a82e619439693498a51c1a419c4da5cd", "type": "electric_bike", "lon": -77.02714433333334, "rental_uris": {"android": "https://dc.lft.to/lastmile_qr_scan", "ios": "https://dc.lft.to/lastmile_qr_scan"}, "lat": 38.98191166666667, "is_reserved": 0, "is_disabled": 0, "fusion_lat": 0.0}, {"fusion_lon": 0.0, "bike_id": "1c4daedfb90424a3b949c5137e7f4784", "name": "1c4daedfb90424a3b949c5137e7f4784", "type": "electric_scooter", "lon": -77.020485, "rental_uris": {"android": "https://dc.lft.to/lastmile_qr_scan", "ios": "https://dc.lft.to/lastmile_qr_scan"}, "lat": 38.915596, "is_reserved": 0, "is_disabled": 0, "fusion_lat": 0.0}, {"fusion_lon": 0.0, "bike_id": "b48f5bf4a60a6810fe4f28bcda12e6e4", "name": "b48f5bf4a60a6810fe4f28bcda12e6e4", "type": "electric_scooter", "lon": -77.0191055, "rental_uris": {"android": "https://dc.lft.to/lastmile_qr_scan", "ios": "https://dc.lft.to/lastmile_qr_scan"}, "lat": 38.8787815, "is_reserved": 0, "is_disabled": 0, "fusion_lat": 0.0}, {"fusion_lon": 0.0, "bike_id": "211dea5cff1ecfcbfd21b6dd5ecc7657", "name": "211dea5cff1ecfcbfd21b6dd5ecc7657", "type": "electric_scooter", "lon": -76.99504966666666, "rental_uris": {"android": "https://dc.lft.to/lastmile_qr_scan", "ios": "https://dc.lft.to/lastmile_qr_scan"}, "lat": 38.885845333333336, "is_reserved": 0, "is_disabled": 0, "fusion_lat": 0.0}, {"fusion_lon": 0.0, "bike_id": "64411d07bb7e8d52d8e4e01a7143b066", "name": "64411d07bb7e8d52d8e4e01a7143b066", "type": "electric_scooter", "lon": -77.06537733333333, "rental_uris": {"android": "https://dc.lft.to/lastmile_qr_scan", "ios": "https://dc.lft.to/lastmile_qr_scan"}, "lat": 38.95071016666667, "is_reserved": 0, "is_disabled": 0, "fusion_lat": 0.0}, {"fusion_lon": 0.0, "bike_id": "751b0317cf69a2f39e92a68d748aacb2", "name": "751b0317cf69a2f39e92a68d748aacb2", "type": "electric_bike", "lon": -77.17799983333333, "rental_uris": {"android": "https://dc.lft.to/lastmile_qr_scan", "ios": "https://dc.lft.to/lastmile_qr_scan"}, "lat": 39.08846416666667, "is_reserved": 0, "is_disabled": 0, "fusion_lat": 0.0}, {"fusion_lon": 0.0, "bike_id": "a9ff5bf1791ed772f1c686078d15a13e", "name": "a9ff5bf1791ed772f1c686078d15a13e", "type": "electric_scooter", "lon": -77.071654, "rental_uris": {"android": "https://dc.lft.to/lastmile_qr_scan", "ios": "https://dc.lft.to/lastmile_qr_scan"}, "lat": 38.907817, "is_reserved": 0, "is_disabled": 0, "fusion_lat": 0.0}, {"fusion_lon": 0.0, "bike_id": "3c69dab96545d0457d9bed84aafe5006", "name": "3c69dab96545d0457d9bed84aafe5006", "type": "electric_bike", "lon": -77.028094, "rental_uris": {"android": "https://dc.lft.to/lastmile_qr_scan", "ios": "https://dc.lft.to/lastmile_qr_scan"}, "lat": 38.96607433333333, "is_reserved": 0, "is_disabled": 0, "fusion_lat": 0.0}, {"fusion_lon": 0.0, "bike_id": "a4b49a96aaf7b1e4443be09fb49aa662", "name": "a4b49a96aaf7b1e4443be09fb49aa662", "type": "electric_scooter", "lon": -77.02604583333333, "rental_uris": {"android": "https://dc.lft.to/lastmile_qr_scan", "ios": "https://dc.lft.to/lastmile_qr_scan"}, "lat": 38.91690633333333, "is_reserved": 0, "is_disabled": 0, "fusion_lat": 0.0}, {"fusion_lon": 0.0, "bike_id": "55918a714cf00c8a582b2cb0f2b972f4", "name": "55918a714cf00c8a582b2cb0f2b972f4", "type": "electric_scooter", "lon": -77.03731866666666, "rental_uris": {"android": "https://dc.lft.to/lastmile_qr_scan", "ios": "https://dc.lft.to/lastmile_qr_scan"}, "lat": 38.928547, "is_reserved": 0, "is_disabled": 0, "fusion_lat": 0.0}, {"fusion_lon": 0.0, "bike_id": "1170a5f91b6c49960f05d7ff0960bb35", "name": "1170a5f91b6c49960f05d7ff0960bb35", "type": "electric_scooter", "lon": -77.044561, "rental_uris": {"android": "https://dc.lft.to/lastmile_qr_scan", "ios": "https://dc.lft.to/lastmile_qr_scan"}, "lat": 38.89618183333333, "is_reserved": 0, "is_disabled": 0, "fusion_lat": 0.0}, {"fusion_lon": 0.0, "bike_id": "787ebdcf42676d1f27719eb08904d75d", "name": "787ebdcf42676d1f27719eb08904d75d", "type": "electric_scooter", "lon": -77.03294383333333, "rental_uris": {"android": "https://dc.lft.to/lastmile_qr_scan", "ios": "https://dc.lft.to/lastmile_qr_scan"}, "lat": 38.9206055, "is_reserved": 0, "is_disabled": 0, "fusion_lat": 0.0}, {"fusion_lon": 0.0, "bike_id": "c5199a6fc94076e179538729ac9dcb19", "name": "c5199a6fc94076e179538729ac9dcb19", "type": "electric_scooter", "lon": -77.03260166666666, "rental_uris": {"android": "https://dc.lft.to/lastmile_qr_scan", "ios": "https://dc.lft.to/lastmile_qr_scan"}, "lat": 38.91338966666667, "is_reserved": 0, "is_disabled": 0, "fusion_lat": 0.0}, {"fusion_lon": 0.0, "bike_id": "520a917a234f2006dfb61002c564f680", "name": "520a917a234f2006dfb61002c564f680", "type": "electric_scooter", "lon": -76.99356016666667, "rental_uris": {"android": "https://dc.lft.to/lastmile_qr_scan", "ios": "https://dc.lft.to/lastmile_qr_scan"}, "lat": 38.896133666666664, "is_reserved": 0, "is_disabled": 0, "fusion_lat": 0.0}, {"fusion_lon": 0.0, "bike_id": "0087d3d9311b4204ca41cc481700f727", "name": "0087d3d9311b4204ca41cc481700f727", "type": "electric_scooter", "lon": -77.02743916666667, "rental_uris": {"android": "https://dc.lft.to/lastmile_qr_scan", "ios": "https://dc.lft.to/lastmile_qr_scan"}, "lat": 38.932093333333334, "is_reserved": 0, "is_disabled": 0, "fusion_lat": 0.0}, {"fusion_lon": 0.0, "bike_id": "ce0d6534d42f5eb25fb3e95c35f8d122", "name": "ce0d6534d42f5eb25fb3e95c35f8d122", "type": "electric_scooter", "lon": -77.051181, "rental_uris": {"android": "https://dc.lft.to/lastmile_qr_scan", "ios": "https://dc.lft.to/lastmile_qr_scan"}, "lat": 38.9234895, "is_reserved": 0, "is_disabled": 0, "fusion_lat": 0.0}, {"fusion_lon": 0.0, "bike_id": "a6828c250f171e6e8a6924ffb61d2d13", "name": "a6828c250f171e6e8a6924ffb61d2d13", "type": "electric_scooter", "lon": -77.02812133333333, "rental_uris": {"android": "https://dc.lft.to/lastmile_qr_scan", "ios": "https://dc.lft.to/lastmile_qr_scan"}, "lat": 38.916326166666664, "is_reserved": 0, "is_disabled": 0, "fusion_lat": 0.0}, {"fusion_lon": 0.0, "bike_id": "3e05ab945391a83fae13e5c3def2222f", "name": "3e05ab945391a83fae13e5c3def2222f", "type": "electric_scooter", "lon": -77.0515715, "rental_uris": {"android": "https://dc.lft.to/lastmile_qr_scan", "ios": "https://dc.lft.to/lastmile_qr_scan"}, "lat": 38.900849666666666, "is_reserved": 0, "is_disabled": 0, "fusion_lat": 0.0}, {"fusion_lon": 0.0, "bike_id": "1cbc95ef9effc9a7940ddf7c2ae85f35", "name": "1cbc95ef9effc9a7940ddf7c2ae85f35", "type": "electric_scooter", "lon": -76.99648, "rental_uris": {"android": "https://dc.lft.to/lastmile_qr_scan", "ios": "https://dc.lft.to/lastmile_qr_scan"}, "lat": 38.9325425, "is_reserved": 0, "is_disabled": 0, "fusion_lat": 0.0}, {"fusion_lon": 0.0, "bike_id": "8b56a436b3c68bb577b4b3713eb14742", "name": "8b56a436b3c68bb577b4b3713eb14742", "type": "electric_scooter", "lon": -77.01010916666667, "rental_uris": {"android": "https://dc.lft.to/lastmile_qr_scan", "ios": "https://dc.lft.to/lastmile_qr_scan"}, "lat": 38.879670833333336, "is_reserved": 0, "is_disabled": 0, "fusion_lat": 0.0}, {"fusion_lon": 0.0, "bike_id": "8a767f5864cceb67241be05290dad380", "name": "8a767f5864cceb67241be05290dad380", "type": "electric_scooter", "lon": -77.00704333333333, "rental_uris": {"android": "https://dc.lft.to/lastmile_qr_scan", "ios": "https://dc.lft.to/lastmile_qr_scan"}, "lat": 38.876712833333336, "is_reserved": 0, "is_disabled": 0, "fusion_lat": 0.0}, {"fusion_lon": 0.0, "bike_id": "74036b828a2bd33a0130ed6ddfef3954", "name": "74036b828a2bd33a0130ed6ddfef3954", "type": "electric_scooter", "lon": -76.99057966666666, "rental_uris": {"android": "https://dc.lft.to/lastmile_qr_scan", "ios": "https://dc.lft.to/lastmile_qr_scan"}, "lat": 38.86367383333334, "is_reserved": 0, "is_disabled": 0, "fusion_lat": 0.0}, {"fusion_lon": 0.0, "bike_id": "12382ca8ad5446b41d61615681e7f985", "name": "12382ca8ad5446b41d61615681e7f985", "type": "electric_scooter", "lon": -77.03357666666666, "rental_uris": {"android": "https://dc.lft.to/lastmile_qr_scan", "ios": "https://dc.lft.to/lastmile_qr_scan"}, "lat": 38.909733833333334, "is_reserved": 0, "is_disabled": 0, "fusion_lat": 0.0}, {"fusion_lon": 0.0, "bike_id": "eacd869b7521a9cf990b326ec9620e89", "name": "eacd869b7521a9cf990b326ec9620e89", "type": "electric_scooter", "lon": -77.03270733333333, "rental_uris": {"android": "https://dc.lft.to/lastmile_qr_scan", "ios": "https://dc.lft.to/lastmile_qr_scan"}, "lat": 38.93208666666666, "is_reserved": 0, "is_disabled": 0, "fusion_lat": 0.0}, {"fusion_lon": 0.0, "bike_id": "52e3dda60d7539c454d136e2fcb0a6d1", "name": "52e3dda60d7539c454d136e2fcb0a6d1", "type": "electric_scooter", "lon": -77.054222, "rental_uris": {"android": "https://dc.lft.to/lastmile_qr_scan", "ios": "https://dc.lft.to/lastmile_qr_scan"}, "lat": 38.92800533333333, "is_reserved": 0, "is_disabled": 0, "fusion_lat": 0.0}, {"fusion_lon": 0.0, "bike_id": "fa93b8542522d623383f1ea3cdf3f599", "name": "fa93b8542522d623383f1ea3cdf3f599", "type": "electric_scooter", "lon": -77.00649466666667, "rental_uris": {"android": "https://dc.lft.to/lastmile_qr_scan", "ios": "https://dc.lft.to/lastmile_qr_scan"}, "lat": 38.91181433333333, "is_reserved": 0, "is_disabled": 0, "fusion_lat": 0.0}, {"fusion_lon": 0.0, "bike_id": "0dcea422a1e3a32c11423968f98ce60a", "name": "0dcea422a1e3a32c11423968f98ce60a", "type": "electric_scooter", "lon": -77.02584916666666, "rental_uris": {"android": "https://dc.lft.to/lastmile_qr_scan", "ios": "https://dc.lft.to/lastmile_qr_scan"}, "lat": 38.942113666666664, "is_reserved": 0, "is_disabled": 0, "fusion_lat": 0.0}, {"fusion_lon": 0.0, "bike_id": "345050d9b380404e1d667d83d6b645c2", "name": "345050d9b380404e1d667d83d6b645c2", "type": "electric_bike", "lon": -76.98178866666666, "rental_uris": {"android": "https://dc.lft.to/lastmile_qr_scan", "ios": "https://dc.lft.to/lastmile_qr_scan"}, "lat": 38.98498, "is_reserved": 0, "is_disabled": 0, "fusion_lat": 0.0}, {"fusion_lon": 0.0, "bike_id": "5e11dce9595b18ab438e896f9ca9845d", "name": "5e11dce9595b18ab438e896f9ca9845d", "type": "electric_scooter", "lon": -77.03146916666667, "rental_uris": {"android": "https://dc.lft.to/lastmile_qr_scan", "ios": "https://dc.lft.to/lastmile_qr_scan"}, "lat": 38.927268833333336, "is_reserved": 0, "is_disabled": 0, "fusion_lat": 0.0}, {"fusion_lon": 0.0, "bike_id": "254d1b51108d80b75f7b98a408509762", "name": "254d1b51108d80b75f7b98a408509762", "type": "electric_scooter", "lon": -77.03858933333333, "rental_uris": {"android": "https://dc.lft.to/lastmile_qr_scan", "ios": "https://dc.lft.to/lastmile_qr_scan"}, "lat": 38.91809133333334, "is_reserved": 0, "is_disabled": 0, "fusion_lat": 0.0}, {"fusion_lon": 0.0, "bike_id": "35a3e3cd59513a9dfc1c22715fd10c49", "name": "35a3e3cd59513a9dfc1c22715fd10c49", "type": "electric_scooter", "lon": -77.02691, "rental_uris": {"android": "https://dc.lft.to/lastmile_qr_scan", "ios": "https://dc.lft.to/lastmile_qr_scan"}, "lat": 38.90737566666667, "is_reserved": 0, "is_disabled": 0, "fusion_lat": 0.0}, {"fusion_lon": 0.0, "bike_id": "95f4b769178efbd1185cb85d43c0efb0", "name": "95f4b769178efbd1185cb85d43c0efb0", "type": "electric_scooter", "lon": -77.00732766666667, "rental_uris": {"android": "https://dc.lft.to/lastmile_qr_scan", "ios": "https://dc.lft.to/lastmile_qr_scan"}, "lat": 38.87656666666667, "is_reserved": 0, "is_disabled": 0, "fusion_lat": 0.0}, {"fusion_lon": 0.0, "bike_id": "53d52fa221964a3df415c20232d6d071", "name": "53d52fa221964a3df415c20232d6d071", "type": "electric_scooter", "lon": -76.96544516666667, "rental_uris": {"android": "https://dc.lft.to/lastmile_qr_scan", "ios": "https://dc.lft.to/lastmile_qr_scan"}, "lat": 38.9189585, "is_reserved": 0, "is_disabled": 0, "fusion_lat": 0.0}, {"fusion_lon": 0.0, "bike_id": "296307a631ae2dc6cd1e098c42c325d8", "name": "296307a631ae2dc6cd1e098c42c325d8", "type": "electric_scooter", "lon": -77.02759, "rental_uris": {"android": "https://dc.lft.to/lastmile_qr_scan", "ios": "https://dc.lft.to/lastmile_qr_scan"}, "lat": 38.95416983333333, "is_reserved": 0, "is_disabled": 0, "fusion_lat": 0.0}, {"fusion_lon": 0.0, "bike_id": "f0629eb8c0323cdbb2cda7c34c94f80d", "name": "f0629eb8c0323cdbb2cda7c34c94f80d", "type": "electric_scooter", "lon": -77.04019666666667, "rental_uris": {"android": "https://dc.lft.to/lastmile_qr_scan", "ios": "https://dc.lft.to/lastmile_qr_scan"}, "lat": 38.9133005, "is_reserved": 0, "is_disabled": 0, "fusion_lat": 0.0}, {"fusion_lon": 0.0, "bike_id": "0467b8e0a4391de44563fd8d3467e8fb", "name": "0467b8e0a4391de44563fd8d3467e8fb", "type": "electric_bike", "lon": -76.93412583333334, "rental_uris": {"android": "https://dc.lft.to/lastmile_qr_scan", "ios": "https://dc.lft.to/lastmile_qr_scan"}, "lat": 38.946255, "is_reserved": 0, "is_disabled": 0, "fusion_lat": 0.0}, {"fusion_lon": 0.0, "bike_id": "9a6a131a0597bf74c4688ba2d0696f26", "name": "9a6a131a0597bf74c4688ba2d0696f26", "type": "electric_scooter", "lon": -77.02948133333334, "rental_uris": {"android": "https://dc.lft.to/lastmile_qr_scan", "ios": "https://dc.lft.to/lastmile_qr_scan"}, "lat": 38.905007166666664, "is_reserved": 0, "is_disabled": 0, "fusion_lat": 0.0}, {"fusion_lon": 0.0, "bike_id": "62e71932f09dacb6c6a0ec427068ae36", "name": "62e71932f09dacb6c6a0ec427068ae36", "type": "electric_scooter", "lon": -77.01257583333333, "rental_uris": {"android": "https://dc.lft.to/lastmile_qr_scan", "ios": "https://dc.lft.to/lastmile_qr_scan"}, "lat": 38.876341, "is_reserved": 0, "is_disabled": 0, "fusion_lat": 0.0}, {"fusion_lon": 0.0, "bike_id": "4ed9e37422235d27fa9005e6cf203c66", "name": "4ed9e37422235d27fa9005e6cf203c66", "type": "electric_scooter", "lon": -77.0222515, "rental_uris": {"android": "https://dc.lft.to/lastmile_qr_scan", "ios": "https://dc.lft.to/lastmile_qr_scan"}, "lat": 38.93557, "is_reserved": 0, "is_disabled": 0, "fusion_lat": 0.0}, {"fusion_lon": 0.0, "bike_id": "ee0445c90c07b24e9c3833e4802dd4fe", "name": "ee0445c90c07b24e9c3833e4802dd4fe", "type": "electric_scooter", "lon": -77.01224433333333, "rental_uris": {"android": "https://dc.lft.to/lastmile_qr_scan", "ios": "https://dc.lft.to/lastmile_qr_scan"}, "lat": 38.867236166666665, "is_reserved": 0, "is_disabled": 0, "fusion_lat": 0.0}, {"fusion_lon": 0.0, "bike_id": "ae5957ca40b569e3e62a25ddf020521d", "name": "ae5957ca40b569e3e62a25ddf020521d", "type": "electric_scooter", "lon": -76.972324, "rental_uris": {"android": "https://dc.lft.to/lastmile_qr_scan", "ios": "https://dc.lft.to/lastmile_qr_scan"}, "lat": 38.854636666666664, "is_reserved": 0, "is_disabled": 0, "fusion_lat": 0.0}, {"fusion_lon": 0.0, "bike_id": "30a566d00fc2638b572c8b3cf8f02f35", "name": "30a566d00fc2638b572c8b3cf8f02f35", "type": "electric_scooter", "lon": -77.04628333333334, "rental_uris": {"android": "https://dc.lft.to/lastmile_qr_scan", "ios": "https://dc.lft.to/lastmile_qr_scan"}, "lat": 38.914986166666665, "is_reserved": 0, "is_disabled": 0, "fusion_lat": 0.0}, {"fusion_lon": 0.0, "bike_id": "a3ae608130e36a70f3020794f2434582", "name": "a3ae608130e36a70f3020794f2434582", "type": "electric_bike", "lon": -77.09151683333333, "rental_uris": {"android": "https://dc.lft.to/lastmile_qr_scan", "ios": "https://dc.lft.to/lastmile_qr_scan"}, "lat": 38.96764966666667, "is_reserved": 0, "is_disabled": 0, "fusion_lat": 0.0}, {"fusion_lon": 0.0, "bike_id": "3eb3217bbf5d3aa27ea5f5db2ad6765a", "name": "3eb3217bbf5d3aa27ea5f5db2ad6765a", "type": "electric_scooter", "lon": -77.046541, "rental_uris": {"android": "https://dc.lft.to/lastmile_qr_scan", "ios": "https://dc.lft.to/lastmile_qr_scan"}, "lat": 38.892992, "is_reserved": 0, "is_disabled": 0, "fusion_lat": 0.0}, {"fusion_lon": 0.0, "bike_id": "6ae83af3282aa7066f18a9954022f804", "name": "6ae83af3282aa7066f18a9954022f804", "type": "electric_scooter", "lon": -77.0051955, "rental_uris": {"android": "https://dc.lft.to/lastmile_qr_scan", "ios": "https://dc.lft.to/lastmile_qr_scan"}, "lat": 38.874746333333334, "is_reserved": 0, "is_disabled": 0, "fusion_lat": 0.0}, {"fusion_lon": 0.0, "bike_id": "db2daf438e8221c9272b665f12838875", "name": "db2daf438e8221c9272b665f12838875", "type": "electric_scooter", "lon": -77.02392733333333, "rental_uris": {"android": "https://dc.lft.to/lastmile_qr_scan", "ios": "https://dc.lft.to/lastmile_qr_scan"}, "lat": 38.91963, "is_reserved": 0, "is_disabled": 0, "fusion_lat": 0.0}, {"fusion_lon": 0.0, "bike_id": "e62212ba7cc3eb1f410d4bfbbf5bc8a3", "name": "e62212ba7cc3eb1f410d4bfbbf5bc8a3", "type": "electric_scooter", "lon": -77.03724966666667, "rental_uris": {"android": "https://dc.lft.to/lastmile_qr_scan", "ios": "https://dc.lft.to/lastmile_qr_scan"}, "lat": 38.9182155, "is_reserved": 0, "is_disabled": 0, "fusion_lat": 0.0}, {"fusion_lon": 0.0, "bike_id": "3b2e7ae62c30bc08c02a5b965d363687", "name": "3b2e7ae62c30bc08c02a5b965d363687", "type": "electric_scooter", "lon": -77.036565, "rental_uris": {"android": "https://dc.lft.to/lastmile_qr_scan", "ios": "https://dc.lft.to/lastmile_qr_scan"}, "lat": 38.94179883333334, "is_reserved": 0, "is_disabled": 0, "fusion_lat": 0.0}, {"fusion_lon": 0.0, "bike_id": "48dd327208a1dc4a732340eb3c7c5a7b", "name": "48dd327208a1dc4a732340eb3c7c5a7b", "type": "electric_scooter", "lon": -77.04873883333333, "rental_uris": {"android": "https://dc.lft.to/lastmile_qr_scan", "ios": "https://dc.lft.to/lastmile_qr_scan"}, "lat": 38.905742000000004, "is_reserved": 0, "is_disabled": 0, "fusion_lat": 0.0}, {"fusion_lon": 0.0, "bike_id": "7cb6cba7774e11110bca364f881b0f32", "name": "7cb6cba7774e11110bca364f881b0f32", "type": "electric_scooter", "lon": -77.02075633333334, "rental_uris": {"android": "https://dc.lft.to/lastmile_qr_scan", "ios": "https://dc.lft.to/lastmile_qr_scan"}, "lat": 38.94901866666667, "is_reserved": 0, "is_disabled": 0, "fusion_lat": 0.0}, {"fusion_lon": 0.0, "bike_id": "ca87237c34bc50d9c005b6cbffa4f87b", "name": "ca87237c34bc50d9c005b6cbffa4f87b", "type": "electric_scooter", "lon": -76.99699583333333, "rental_uris": {"android": "https://dc.lft.to/lastmile_qr_scan", "ios": "https://dc.lft.to/lastmile_qr_scan"}, "lat": 38.83873216666667, "is_reserved": 0, "is_disabled": 0, "fusion_lat": 0.0}, {"fusion_lon": 0.0, "bike_id": "ba62b1836cd160361c03273cf49aa4cd", "name": "ba62b1836cd160361c03273cf49aa4cd", "type": "electric_scooter", "lon": -77.0438785, "rental_uris": {"android": "https://dc.lft.to/lastmile_qr_scan", "ios": "https://dc.lft.to/lastmile_qr_scan"}, "lat": 38.874271, "is_reserved": 0, "is_disabled": 0, "fusion_lat": 0.0}, {"fusion_lon": 0.0, "bike_id": "ed6021cf72422e68cb079397e9767b5c", "name": "ed6021cf72422e68cb079397e9767b5c", "type": "electric_scooter", "lon": -77.0014665, "rental_uris": {"android": "https://dc.lft.to/lastmile_qr_scan", "ios": "https://dc.lft.to/lastmile_qr_scan"}, "lat": 38.907454333333334, "is_reserved": 0, "is_disabled": 0, "fusion_lat": 0.0}, {"fusion_lon": 0.0, "bike_id": "9e43fe2823a798e86d5029bbb74df666", "name": "9e43fe2823a798e86d5029bbb74df666", "type": "electric_scooter", "lon": -77.0451365, "rental_uris": {"android": "https://dc.lft.to/lastmile_qr_scan", "ios": "https://dc.lft.to/lastmile_qr_scan"}, "lat": 38.92150683333333, "is_reserved": 0, "is_disabled": 0, "fusion_lat": 0.0}, {"fusion_lon": 0.0, "bike_id": "0128fa29c0923d10de28ce2959f8fc86", "name": "0128fa29c0923d10de28ce2959f8fc86", "type": "electric_bike", "lon": -76.99763083333333, "rental_uris": {"android": "https://dc.lft.to/lastmile_qr_scan", "ios": "https://dc.lft.to/lastmile_qr_scan"}, "lat": 39.00595766666667, "is_reserved": 0, "is_disabled": 0, "fusion_lat": 0.0}, {"fusion_lon": 0.0, "bike_id": "4a7088b4ee952e37ea48e8e8da9e85b9", "name": "4a7088b4ee952e37ea48e8e8da9e85b9", "type": "electric_scooter", "lon": -77.01887416666666, "rental_uris": {"android": "https://dc.lft.to/lastmile_qr_scan", "ios": "https://dc.lft.to/lastmile_qr_scan"}, "lat": 38.946448333333336, "is_reserved": 0, "is_disabled": 0, "fusion_lat": 0.0}, {"fusion_lon": 0.0, "bike_id": "9f8628b4f9959f34f2226299833516da", "name": "9f8628b4f9959f34f2226299833516da", "type": "electric_scooter", "lon": -77.06661983333333, "rental_uris": {"android": "https://dc.lft.to/lastmile_qr_scan", "ios": "https://dc.lft.to/lastmile_qr_scan"}, "lat": 38.94973866666667, "is_reserved": 0, "is_disabled": 0, "fusion_lat": 0.0}, {"fusion_lon": 0.0, "bike_id": "ec3ca9050ee264a5eb2a85eca26e5284", "name": "ec3ca9050ee264a5eb2a85eca26e5284", "type": "electric_bike", "lon": -77.1143205, "rental_uris": {"android": "https://dc.lft.to/lastmile_qr_scan", "ios": "https://dc.lft.to/lastmile_qr_scan"}, "lat": 38.85247283333333, "is_reserved": 0, "is_disabled": 0, "fusion_lat": 0.0}, {"fusion_lon": 0.0, "bike_id": "2159ba45021d98111d5ab230d359058a", "name": "2159ba45021d98111d5ab230d359058a", "type": "electric_scooter", "lon": -77.0270965, "rental_uris": {"android": "https://dc.lft.to/lastmile_qr_scan", "ios": "https://dc.lft.to/lastmile_qr_scan"}, "lat": 38.90986766666666, "is_reserved": 0, "is_disabled": 0, "fusion_lat": 0.0}, {"fusion_lon": 0.0, "bike_id": "2f96aec1c0f524d0153f4260433a402b", "name": "2f96aec1c0f524d0153f4260433a402b", "type": "electric_scooter", "lon": -76.989571, "rental_uris": {"android": "https://dc.lft.to/lastmile_qr_scan", "ios": "https://dc.lft.to/lastmile_qr_scan"}, "lat": 38.8440265, "is_reserved": 0, "is_disabled": 0, "fusion_lat": 0.0}, {"fusion_lon": 0.0, "bike_id": "e9e30a556a95cfa1d639ae0c25b76dfc", "name": "e9e30a556a95cfa1d639ae0c25b76dfc", "type": "electric_scooter", "lon": -77.0134805, "rental_uris": {"android": "https://dc.lft.to/lastmile_qr_scan", "ios": "https://dc.lft.to/lastmile_qr_scan"}, "lat": 38.907228, "is_reserved": 0, "is_disabled": 0, "fusion_lat": 0.0}, {"fusion_lon": 0.0, "bike_id": "d1e2252b25d8141cf65549b5173ffddf", "name": "d1e2252b25d8141cf65549b5173ffddf", "type": "electric_scooter", "lon": -77.02390566666666, "rental_uris": {"android": "https://dc.lft.to/lastmile_qr_scan", "ios": "https://dc.lft.to/lastmile_qr_scan"}, "lat": 38.920781833333336, "is_reserved": 0, "is_disabled": 0, "fusion_lat": 0.0}, {"fusion_lon": 0.0, "bike_id": "6ab3b10be0163e73f2289508ecd3f073", "name": "6ab3b10be0163e73f2289508ecd3f073", "type": "electric_scooter", "lon": -77.05516266666666, "rental_uris": {"android": "https://dc.lft.to/lastmile_qr_scan", "ios": "https://dc.lft.to/lastmile_qr_scan"}, "lat": 38.910614333333335, "is_reserved": 0, "is_disabled": 0, "fusion_lat": 0.0}, {"fusion_lon": 0.0, "bike_id": "1af20ae4e0e989f41f262e51410f06c9", "name": "1af20ae4e0e989f41f262e51410f06c9", "type": "electric_scooter", "lon": -77.03858666666666, "rental_uris": {"android": "https://dc.lft.to/lastmile_qr_scan", "ios": "https://dc.lft.to/lastmile_qr_scan"}, "lat": 38.918427333333334, "is_reserved": 0, "is_disabled": 0, "fusion_lat": 0.0}, {"fusion_lon": 0.0, "bike_id": "03e7350bdae8d1c70bb7843142de78f0", "name": "03e7350bdae8d1c70bb7843142de78f0", "type": "electric_scooter", "lon": -76.98260083333334, "rental_uris": {"android": "https://dc.lft.to/lastmile_qr_scan", "ios": "https://dc.lft.to/lastmile_qr_scan"}, "lat": 38.86357733333333, "is_reserved": 0, "is_disabled": 0, "fusion_lat": 0.0}, {"fusion_lon": 0.0, "bike_id": "c9f5f7aa171b379899f8abe966b55c85", "name": "c9f5f7aa171b379899f8abe966b55c85", "type": "electric_scooter", "lon": -77.02186083333333, "rental_uris": {"android": "https://dc.lft.to/lastmile_qr_scan", "ios": "https://dc.lft.to/lastmile_qr_scan"}, "lat": 38.919776666666664, "is_reserved": 0, "is_disabled": 0, "fusion_lat": 0.0}, {"fusion_lon": 0.0, "bike_id": "99e90900bbcafd9e583fdf79d9560398", "name": "99e90900bbcafd9e583fdf79d9560398", "type": "electric_scooter", "lon": -76.9826985, "rental_uris": {"android": "https://dc.lft.to/lastmile_qr_scan", "ios": "https://dc.lft.to/lastmile_qr_scan"}, "lat": 38.885372833333335, "is_reserved": 0, "is_disabled": 0, "fusion_lat": 0.0}, {"fusion_lon": 0.0, "bike_id": "3a042e685c8ab8b79bcf4e9aa9c8024e", "name": "3a042e685c8ab8b79bcf4e9aa9c8024e", "type": "electric_scooter", "lon": -77.032171, "rental_uris": {"android": "https://dc.lft.to/lastmile_qr_scan", "ios": "https://dc.lft.to/lastmile_qr_scan"}, "lat": 38.92581116666667, "is_reserved": 0, "is_disabled": 0, "fusion_lat": 0.0}, {"fusion_lon": 0.0, "bike_id": "5661544e423f3261f32e89ee35f233c0", "name": "5661544e423f3261f32e89ee35f233c0", "type": "electric_scooter", "lon": -77.04796416666667, "rental_uris": {"android": "https://dc.lft.to/lastmile_qr_scan", "ios": "https://dc.lft.to/lastmile_qr_scan"}, "lat": 38.90239833333333, "is_reserved": 0, "is_disabled": 0, "fusion_lat": 0.0}, {"fusion_lon": 0.0, "bike_id": "a3e3c10643533e483bcd03f188473bfe", "name": "a3e3c10643533e483bcd03f188473bfe", "type": "electric_scooter", "lon": -76.99084416666666, "rental_uris": {"android": "https://dc.lft.to/lastmile_qr_scan", "ios": "https://dc.lft.to/lastmile_qr_scan"}, "lat": 38.8623965, "is_reserved": 0, "is_disabled": 0, "fusion_lat": 0.0}, {"fusion_lon": 0.0, "bike_id": "8226e7f78610cc7702da0272b746e8cd", "name": "8226e7f78610cc7702da0272b746e8cd", "type": "electric_scooter", "lon": -77.03233, "rental_uris": {"android": "https://dc.lft.to/lastmile_qr_scan", "ios": "https://dc.lft.to/lastmile_qr_scan"}, "lat": 38.90439166666667, "is_reserved": 0, "is_disabled": 0, "fusion_lat": 0.0}, {"fusion_lon": 0.0, "bike_id": "514a712e9b97e177439860d24251513f", "name": "514a712e9b97e177439860d24251513f", "type": "electric_scooter", "lon": -77.05997733333334, "rental_uris": {"android": "https://dc.lft.to/lastmile_qr_scan", "ios": "https://dc.lft.to/lastmile_qr_scan"}, "lat": 38.905239, "is_reserved": 0, "is_disabled": 0, "fusion_lat": 0.0}, {"fusion_lon": 0.0, "bike_id": "658c3eb10b3659b54591b05a4de608ef", "name": "658c3eb10b3659b54591b05a4de608ef", "type": "electric_scooter", "lon": -77.034318, "rental_uris": {"android": "https://dc.lft.to/lastmile_qr_scan", "ios": "https://dc.lft.to/lastmile_qr_scan"}, "lat": 38.92871783333333, "is_reserved": 0, "is_disabled": 0, "fusion_lat": 0.0}, {"fusion_lon": 0.0, "bike_id": "3a3fac5b34bc84ca2e1c71c358083a26", "name": "3a3fac5b34bc84ca2e1c71c358083a26", "type": "electric_scooter", "lon": -76.98723016666666, "rental_uris": {"android": "https://dc.lft.to/lastmile_qr_scan", "ios": "https://dc.lft.to/lastmile_qr_scan"}, "lat": 38.867186, "is_reserved": 0, "is_disabled": 0, "fusion_lat": 0.0}, {"fusion_lon": 0.0, "bike_id": "e2d69b43fdf50a08855d897201a40de0", "name": "e2d69b43fdf50a08855d897201a40de0", "type": "electric_scooter", "lon": -77.03093933333334, "rental_uris": {"android": "https://dc.lft.to/lastmile_qr_scan", "ios": "https://dc.lft.to/lastmile_qr_scan"}, "lat": 38.919215333333334, "is_reserved": 0, "is_disabled": 0, "fusion_lat": 0.0}, {"fusion_lon": 0.0, "bike_id": "adb066e12016aed13b263e36aaf26073", "name": "adb066e12016aed13b263e36aaf26073", "type": "electric_scooter", "lon": -77.02983283333333, "rental_uris": {"android": "https://dc.lft.to/lastmile_qr_scan", "ios": "https://dc.lft.to/lastmile_qr_scan"}, "lat": 38.92542366666667, "is_reserved": 0, "is_disabled": 0, "fusion_lat": 0.0}, {"fusion_lon": 0.0, "bike_id": "922238a495c462ad44644f243b599ed4", "name": "922238a495c462ad44644f243b599ed4", "type": "electric_scooter", "lon": -76.94985316666667, "rental_uris": {"android": "https://dc.lft.to/lastmile_qr_scan", "ios": "https://dc.lft.to/lastmile_qr_scan"}, "lat": 38.89436766666667, "is_reserved": 0, "is_disabled": 0, "fusion_lat": 0.0}, {"fusion_lon": 0.0, "bike_id": "6ddada5e5ed6ad049c07674fdda48872", "name": "6ddada5e5ed6ad049c07674fdda48872", "type": "electric_scooter", "lon": -77.02487183333334, "rental_uris": {"android": "https://dc.lft.to/lastmile_qr_scan", "ios": "https://dc.lft.to/lastmile_qr_scan"}, "lat": 38.932909333333335, "is_reserved": 0, "is_disabled": 0, "fusion_lat": 0.0}, {"fusion_lon": 0.0, "bike_id": "af64df005b8df8e1acbd6e7c664a8395", "name": "af64df005b8df8e1acbd6e7c664a8395", "type": "electric_scooter", "lon": -77.0281125, "rental_uris": {"android": "https://dc.lft.to/lastmile_qr_scan", "ios": "https://dc.lft.to/lastmile_qr_scan"}, "lat": 38.91418733333333, "is_reserved": 0, "is_disabled": 0, "fusion_lat": 0.0}, {"fusion_lon": 0.0, "bike_id": "d7ae23b00e3646b8a8cb76b98d6f4ea5", "name": "d7ae23b00e3646b8a8cb76b98d6f4ea5", "type": "electric_scooter", "lon": -76.98092716666666, "rental_uris": {"android": "https://dc.lft.to/lastmile_qr_scan", "ios": "https://dc.lft.to/lastmile_qr_scan"}, "lat": 38.8571815, "is_reserved": 0, "is_disabled": 0, "fusion_lat": 0.0}, {"fusion_lon": 0.0, "bike_id": "efa76018616eaf96df4a9666201983e0", "name": "efa76018616eaf96df4a9666201983e0", "type": "electric_scooter", "lon": -77.02707083333334, "rental_uris": {"android": "https://dc.lft.to/lastmile_qr_scan", "ios": "https://dc.lft.to/lastmile_qr_scan"}, "lat": 38.88160366666666, "is_reserved": 0, "is_disabled": 0, "fusion_lat": 0.0}, {"fusion_lon": 0.0, "bike_id": "442d59248d18d9051b1826ef85db663f", "name": "442d59248d18d9051b1826ef85db663f", "type": "electric_scooter", "lon": -77.0334495, "rental_uris": {"android": "https://dc.lft.to/lastmile_qr_scan", "ios": "https://dc.lft.to/lastmile_qr_scan"}, "lat": 38.92238066666667, "is_reserved": 0, "is_disabled": 0, "fusion_lat": 0.0}, {"fusion_lon": 0.0, "bike_id": "7ea899cbfab69ff732e7921d204c2e14", "name": "7ea899cbfab69ff732e7921d204c2e14", "type": "electric_scooter", "lon": -77.04168383333334, "rental_uris": {"android": "https://dc.lft.to/lastmile_qr_scan", "ios": "https://dc.lft.to/lastmile_qr_scan"}, "lat": 38.90936466666667, "is_reserved": 0, "is_disabled": 0, "fusion_lat": 0.0}, {"fusion_lon": 0.0, "bike_id": "61bc53eab1df9bda7bef257eba037b4e", "name": "61bc53eab1df9bda7bef257eba037b4e", "type": "electric_scooter", "lon": -77.0237195, "rental_uris": {"android": "https://dc.lft.to/lastmile_qr_scan", "ios": "https://dc.lft.to/lastmile_qr_scan"}, "lat": 38.907347666666666, "is_reserved": 0, "is_disabled": 0, "fusion_lat": 0.0}, {"fusion_lon": 0.0, "bike_id": "1ffae02aaac5ca282962b846e51f787b", "name": "1ffae02aaac5ca282962b846e51f787b", "type": "electric_scooter", "lon": -77.00752033333333, "rental_uris": {"android": "https://dc.lft.to/lastmile_qr_scan", "ios": "https://dc.lft.to/lastmile_qr_scan"}, "lat": 38.91557533333334, "is_reserved": 0, "is_disabled": 0, "fusion_lat": 0.0}, {"fusion_lon": 0.0, "bike_id": "d2a32741bca68a960078889976f51d63", "name": "d2a32741bca68a960078889976f51d63", "type": "electric_scooter", "lon": -77.0385515, "rental_uris": {"android": "https://dc.lft.to/lastmile_qr_scan", "ios": "https://dc.lft.to/lastmile_qr_scan"}, "lat": 38.91075766666667, "is_reserved": 0, "is_disabled": 0, "fusion_lat": 0.0}, {"fusion_lon": 0.0, "bike_id": "8c7ce606653dcd2c917642dcf1ac358e", "name": "8c7ce606653dcd2c917642dcf1ac358e", "type": "electric_scooter", "lon": -76.9981595, "rental_uris": {"android": "https://dc.lft.to/lastmile_qr_scan", "ios": "https://dc.lft.to/lastmile_qr_scan"}, "lat": 38.84439783333333, "is_reserved": 0, "is_disabled": 0, "fusion_lat": 0.0}, {"fusion_lon": 0.0, "bike_id": "ea13810fe5c5d372574ea00e0a586089", "name": "ea13810fe5c5d372574ea00e0a586089", "type": "electric_scooter", "lon": -76.98855366666666, "rental_uris": {"android": "https://dc.lft.to/lastmile_qr_scan", "ios": "https://dc.lft.to/lastmile_qr_scan"}, "lat": 38.907028833333335, "is_reserved": 0, "is_disabled": 0, "fusion_lat": 0.0}, {"fusion_lon": 0.0, "bike_id": "39116ebac04051dca173c2f5a4a0a98d", "name": "39116ebac04051dca173c2f5a4a0a98d", "type": "electric_scooter", "lon": -77.02955283333333, "rental_uris": {"android": "https://dc.lft.to/lastmile_qr_scan", "ios": "https://dc.lft.to/lastmile_qr_scan"}, "lat": 38.89227566666667, "is_reserved": 0, "is_disabled": 0, "fusion_lat": 0.0}, {"fusion_lon": 0.0, "bike_id": "4f6c9244ce756277535332df6f312cec", "name": "4f6c9244ce756277535332df6f312cec", "type": "electric_bike", "lon": -77.126266, "rental_uris": {"android": "https://dc.lft.to/lastmile_qr_scan", "ios": "https://dc.lft.to/lastmile_qr_scan"}, "lat": 39.058143333333334, "is_reserved": 0, "is_disabled": 0, "fusion_lat": 0.0}, {"fusion_lon": 0.0, "bike_id": "4726df1550fc2c6a08e9500db318b5cf", "name": "4726df1550fc2c6a08e9500db318b5cf", "type": "electric_scooter", "lon": -77.04866983333334, "rental_uris": {"android": "https://dc.lft.to/lastmile_qr_scan", "ios": "https://dc.lft.to/lastmile_qr_scan"}, "lat": 38.900863, "is_reserved": 0, "is_disabled": 0, "fusion_lat": 0.0}, {"fusion_lon": 0.0, "bike_id": "f66bff149f09b85ba2fed9d8fe86d8e1", "name": "f66bff149f09b85ba2fed9d8fe86d8e1", "type": "electric_scooter", "lon": -77.02398533333333, "rental_uris": {"android": "https://dc.lft.to/lastmile_qr_scan", "ios": "https://dc.lft.to/lastmile_qr_scan"}, "lat": 38.905866333333336, "is_reserved": 0, "is_disabled": 0, "fusion_lat": 0.0}, {"fusion_lon": 0.0, "bike_id": "cd6be8663d2591cb58a2eb7ee8195b7d", "name": "cd6be8663d2591cb58a2eb7ee8195b7d", "type": "electric_scooter", "lon": -77.03176166666667, "rental_uris": {"android": "https://dc.lft.to/lastmile_qr_scan", "ios": "https://dc.lft.to/lastmile_qr_scan"}, "lat": 38.91937333333333, "is_reserved": 0, "is_disabled": 0, "fusion_lat": 0.0}, {"fusion_lon": 0.0, "bike_id": "da745edeba29ff2774ed8e8b3096a5e9", "name": "da745edeba29ff2774ed8e8b3096a5e9", "type": "electric_scooter", "lon": -77.020481, "rental_uris": {"android": "https://dc.lft.to/lastmile_qr_scan", "ios": "https://dc.lft.to/lastmile_qr_scan"}, "lat": 38.94124466666667, "is_reserved": 0, "is_disabled": 0, "fusion_lat": 0.0}, {"fusion_lon": 0.0, "bike_id": "4e2e0c14d861731d565ac3bc8b0e4ec9", "name": "4e2e0c14d861731d565ac3bc8b0e4ec9", "type": "electric_scooter", "lon": -77.01745883333334, "rental_uris": {"android": "https://dc.lft.to/lastmile_qr_scan", "ios": "https://dc.lft.to/lastmile_qr_scan"}, "lat": 38.901381666666666, "is_reserved": 0, "is_disabled": 0, "fusion_lat": 0.0}, {"fusion_lon": 0.0, "bike_id": "286a09de166e28a917b98214e6903702", "name": "286a09de166e28a917b98214e6903702", "type": "electric_scooter", "lon": -77.03860366666666, "rental_uris": {"android": "https://dc.lft.to/lastmile_qr_scan", "ios": "https://dc.lft.to/lastmile_qr_scan"}, "lat": 38.9078625, "is_reserved": 0, "is_disabled": 0, "fusion_lat": 0.0}, {"fusion_lon": 0.0, "bike_id": "06e42594909701c351104164441be8c3", "name": "06e42594909701c351104164441be8c3", "type": "electric_scooter", "lon": -76.974289, "rental_uris": {"android": "https://dc.lft.to/lastmile_qr_scan", "ios": "https://dc.lft.to/lastmile_qr_scan"}, "lat": 38.864165166666666, "is_reserved": 0, "is_disabled": 0, "fusion_lat": 0.0}, {"fusion_lon": 0.0, "bike_id": "4350cdad0a72317b1f5914d10aaf9b61", "name": "4350cdad0a72317b1f5914d10aaf9b61", "type": "electric_scooter", "lon": -77.02048816666667, "rental_uris": {"android": "https://dc.lft.to/lastmile_qr_scan", "ios": "https://dc.lft.to/lastmile_qr_scan"}, "lat": 38.9587085, "is_reserved": 0, "is_disabled": 0, "fusion_lat": 0.0}, {"fusion_lon": 0.0, "bike_id": "c6beb7bc781dfedb86f8dcceb2caf04b", "name": "c6beb7bc781dfedb86f8dcceb2caf04b", "type": "electric_scooter", "lon": -77.02561233333333, "rental_uris": {"android": "https://dc.lft.to/lastmile_qr_scan", "ios": "https://dc.lft.to/lastmile_qr_scan"}, "lat": 38.91419, "is_reserved": 0, "is_disabled": 0, "fusion_lat": 0.0}, {"fusion_lon": 0.0, "bike_id": "ff7d448ed48f6b6bac3bb6de12afd646", "name": "ff7d448ed48f6b6bac3bb6de12afd646", "type": "electric_scooter", "lon": -77.03511933333333, "rental_uris": {"android": "https://dc.lft.to/lastmile_qr_scan", "ios": "https://dc.lft.to/lastmile_qr_scan"}, "lat": 38.9360655, "is_reserved": 0, "is_disabled": 0, "fusion_lat": 0.0}, {"fusion_lon": 0.0, "bike_id": "b0ce7d8b7c3e418dd063849f2e40eb41", "name": "b0ce7d8b7c3e418dd063849f2e40eb41", "type": "electric_scooter", "lon": -77.04405366666667, "rental_uris": {"android": "https://dc.lft.to/lastmile_qr_scan", "ios": "https://dc.lft.to/lastmile_qr_scan"}, "lat": 38.929508, "is_reserved": 0, "is_disabled": 0, "fusion_lat": 0.0}, {"fusion_lon": 0.0, "bike_id": "701d5fbd88390fc966a50a74752f1706", "name": "701d5fbd88390fc966a50a74752f1706", "type": "electric_scooter", "lon": -77.030722, "rental_uris": {"android": "https://dc.lft.to/lastmile_qr_scan", "ios": "https://dc.lft.to/lastmile_qr_scan"}, "lat": 38.907571833333336, "is_reserved": 0, "is_disabled": 0, "fusion_lat": 0.0}, {"fusion_lon": 0.0, "bike_id": "922f5de6d65c0fda0503fae40aad0162", "name": "922f5de6d65c0fda0503fae40aad0162", "type": "electric_scooter", "lon": -77.03168583333333, "rental_uris": {"android": "https://dc.lft.to/lastmile_qr_scan", "ios": "https://dc.lft.to/lastmile_qr_scan"}, "lat": 38.929163, "is_reserved": 0, "is_disabled": 0, "fusion_lat": 0.0}, {"fusion_lon": 0.0, "bike_id": "c7768622d55407f6fa519ceeb0d7d339", "name": "c7768622d55407f6fa519ceeb0d7d339", "type": "electric_scooter", "lon": -77.04166966666666, "rental_uris": {"android": "https://dc.lft.to/lastmile_qr_scan", "ios": "https://dc.lft.to/lastmile_qr_scan"}, "lat": 38.907272166666665, "is_reserved": 0, "is_disabled": 0, "fusion_lat": 0.0}, {"fusion_lon": 0.0, "bike_id": "31f26a3d74c9e0ffbb06dbc7bba9b5ff", "name": "31f26a3d74c9e0ffbb06dbc7bba9b5ff", "type": "electric_bike", "lon": -77.027401, "rental_uris": {"android": "https://dc.lft.to/lastmile_qr_scan", "ios": "https://dc.lft.to/lastmile_qr_scan"}, "lat": 38.92100766666667, "is_reserved": 0, "is_disabled": 0, "fusion_lat": 0.0}, {"fusion_lon": 0.0, "bike_id": "89a3c27fa4a51111dd113595d76f6134", "name": "89a3c27fa4a51111dd113595d76f6134", "type": "electric_scooter", "lon": -77.071054, "rental_uris": {"android": "https://dc.lft.to/lastmile_qr_scan", "ios": "https://dc.lft.to/lastmile_qr_scan"}, "lat": 38.919745, "is_reserved": 0, "is_disabled": 0, "fusion_lat": 0.0}, {"fusion_lon": 0.0, "bike_id": "6c4b7f40f541e6ad471c2de6afbbf05f", "name": "6c4b7f40f541e6ad471c2de6afbbf05f", "type": "electric_bike", "lon": -76.9462025, "rental_uris": {"android": "https://dc.lft.to/lastmile_qr_scan", "ios": "https://dc.lft.to/lastmile_qr_scan"}, "lat": 38.83236083333333, "is_reserved": 0, "is_disabled": 0, "fusion_lat": 0.0}, {"fusion_lon": 0.0, "bike_id": "ffdf03368112c4e95b9b9bd8e5550fef", "name": "ffdf03368112c4e95b9b9bd8e5550fef", "type": "electric_scooter", "lon": -76.9916025, "rental_uris": {"android": "https://dc.lft.to/lastmile_qr_scan", "ios": "https://dc.lft.to/lastmile_qr_scan"}, "lat": 38.89775916666667, "is_reserved": 0, "is_disabled": 0, "fusion_lat": 0.0}, {"fusion_lon": 0.0, "bike_id": "d13d56c6a3327939bff314e18e40a07b", "name": "d13d56c6a3327939bff314e18e40a07b", "type": "electric_scooter", "lon": -76.99444816666667, "rental_uris": {"android": "https://dc.lft.to/lastmile_qr_scan", "ios": "https://dc.lft.to/lastmile_qr_scan"}, "lat": 38.9228, "is_reserved": 0, "is_disabled": 0, "fusion_lat": 0.0}, {"fusion_lon": 0.0, "bike_id": "03f1c9a413107b8a579a535d1ec2fa54", "name": "03f1c9a413107b8a579a535d1ec2fa54", "type": "electric_scooter", "lon": -77.03665633333334, "rental_uris": {"android": "https://dc.lft.to/lastmile_qr_scan", "ios": "https://dc.lft.to/lastmile_qr_scan"}, "lat": 38.927068, "is_reserved": 0, "is_disabled": 0, "fusion_lat": 0.0}, {"fusion_lon": 0.0, "bike_id": "5f40b7992514fe8b43fd2d1da004288b", "name": "5f40b7992514fe8b43fd2d1da004288b", "type": "electric_scooter", "lon": -77.046701, "rental_uris": {"android": "https://dc.lft.to/lastmile_qr_scan", "ios": "https://dc.lft.to/lastmile_qr_scan"}, "lat": 38.907247166666664, "is_reserved": 0, "is_disabled": 0, "fusion_lat": 0.0}, {"fusion_lon": 0.0, "bike_id": "6c55000acc3a86b44c3721556644db6d", "name": "6c55000acc3a86b44c3721556644db6d", "type": "electric_scooter", "lon": -76.98770533333334, "rental_uris": {"android": "https://dc.lft.to/lastmile_qr_scan", "ios": "https://dc.lft.to/lastmile_qr_scan"}, "lat": 38.88316783333333, "is_reserved": 0, "is_disabled": 0, "fusion_lat": 0.0}, {"fusion_lon": 0.0, "bike_id": "897352901d4b8afebb93777e67ae5306", "name": "897352901d4b8afebb93777e67ae5306", "type": "electric_scooter", "lon": -77.03789283333333, "rental_uris": {"android": "https://dc.lft.to/lastmile_qr_scan", "ios": "https://dc.lft.to/lastmile_qr_scan"}, "lat": 38.933238, "is_reserved": 0, "is_disabled": 0, "fusion_lat": 0.0}, {"fusion_lon": 0.0, "bike_id": "3f00e8845513c8c51c649a29d73519cf", "name": "3f00e8845513c8c51c649a29d73519cf", "type": "electric_scooter", "lon": -77.02171516666667, "rental_uris": {"android": "https://dc.lft.to/lastmile_qr_scan", "ios": "https://dc.lft.to/lastmile_qr_scan"}, "lat": 38.94297616666667, "is_reserved": 0, "is_disabled": 0, "fusion_lat": 0.0}, {"fusion_lon": 0.0, "bike_id": "43db8f9c1c1dfc4384cc095af549ddd5", "name": "43db8f9c1c1dfc4384cc095af549ddd5", "type": "electric_scooter", "lon": -76.9907515, "rental_uris": {"android": "https://dc.lft.to/lastmile_qr_scan", "ios": "https://dc.lft.to/lastmile_qr_scan"}, "lat": 38.904253, "is_reserved": 0, "is_disabled": 0, "fusion_lat": 0.0}, {"fusion_lon": 0.0, "bike_id": "9d29d6844f0a9595e1a538a20b221b4d", "name": "9d29d6844f0a9595e1a538a20b221b4d", "type": "electric_scooter", "lon": -77.054366, "rental_uris": {"android": "https://dc.lft.to/lastmile_qr_scan", "ios": "https://dc.lft.to/lastmile_qr_scan"}, "lat": 38.8960625, "is_reserved": 0, "is_disabled": 0, "fusion_lat": 0.0}, {"fusion_lon": 0.0, "bike_id": "1580fc154239394a8af8fe42427a4fe5", "name": "1580fc154239394a8af8fe42427a4fe5", "type": "electric_scooter", "lon": -77.017296, "rental_uris": {"android": "https://dc.lft.to/lastmile_qr_scan", "ios": "https://dc.lft.to/lastmile_qr_scan"}, "lat": 38.874801166666664, "is_reserved": 0, "is_disabled": 0, "fusion_lat": 0.0}, {"fusion_lon": 0.0, "bike_id": "e2d0bbb491077c9b3957a11969a2df4b", "name": "e2d0bbb491077c9b3957a11969a2df4b", "type": "electric_scooter", "lon": -77.00874666666667, "rental_uris": {"android": "https://dc.lft.to/lastmile_qr_scan", "ios": "https://dc.lft.to/lastmile_qr_scan"}, "lat": 38.905454166666665, "is_reserved": 0, "is_disabled": 0, "fusion_lat": 0.0}, {"fusion_lon": 0.0, "bike_id": "456267ddbab0f8e0630fa929f6d12de5", "name": "456267ddbab0f8e0630fa929f6d12de5", "type": "electric_scooter", "lon": -77.007209, "rental_uris": {"android": "https://dc.lft.to/lastmile_qr_scan", "ios": "https://dc.lft.to/lastmile_qr_scan"}, "lat": 38.876816, "is_reserved": 0, "is_disabled": 0, "fusion_lat": 0.0}, {"fusion_lon": 0.0, "bike_id": "8708d42aba26dc86a28dacefcb8fbfd1", "name": "8708d42aba26dc86a28dacefcb8fbfd1", "type": "electric_scooter", "lon": -77.03360783333333, "rental_uris": {"android": "https://dc.lft.to/lastmile_qr_scan", "ios": "https://dc.lft.to/lastmile_qr_scan"}, "lat": 38.91189466666667, "is_reserved": 0, "is_disabled": 0, "fusion_lat": 0.0}, {"fusion_lon": 0.0, "bike_id": "54e4f12fd68f526744cb16d21c4c9499", "name": "54e4f12fd68f526744cb16d21c4c9499", "type": "electric_scooter", "lon": -76.9807715, "rental_uris": {"android": "https://dc.lft.to/lastmile_qr_scan", "ios": "https://dc.lft.to/lastmile_qr_scan"}, "lat": 38.91672033333333, "is_reserved": 0, "is_disabled": 0, "fusion_lat": 0.0}, {"fusion_lon": 0.0, "bike_id": "2fdce06a9aefd3cf1434ddeed847e961", "name": "2fdce06a9aefd3cf1434ddeed847e961", "type": "electric_scooter", "lon": -76.93182366666667, "rental_uris": {"android": "https://dc.lft.to/lastmile_qr_scan", "ios": "https://dc.lft.to/lastmile_qr_scan"}, "lat": 38.8988215, "is_reserved": 0, "is_disabled": 0, "fusion_lat": 0.0}, {"fusion_lon": 0.0, "bike_id": "213d4ef552c1e776a19d022c02da7c49", "name": "213d4ef552c1e776a19d022c02da7c49", "type": "electric_bike", "lon": -77.02489933333334, "rental_uris": {"android": "https://dc.lft.to/lastmile_qr_scan", "ios": "https://dc.lft.to/lastmile_qr_scan"}, "lat": 38.97407033333333, "is_reserved": 0, "is_disabled": 0, "fusion_lat": 0.0}, {"fusion_lon": 0.0, "bike_id": "8751def18a8b3fbf99e9473c7c939950", "name": "8751def18a8b3fbf99e9473c7c939950", "type": "electric_bike", "lon": -77.0008205, "rental_uris": {"android": "https://dc.lft.to/lastmile_qr_scan", "ios": "https://dc.lft.to/lastmile_qr_scan"}, "lat": 38.88602066666667, "is_reserved": 0, "is_disabled": 0, "fusion_lat": 0.0}, {"fusion_lon": 0.0, "bike_id": "7031d28b07c22025b99e5b0394dd2e54", "name": "7031d28b07c22025b99e5b0394dd2e54", "type": "electric_scooter", "lon": -77.02320466666667, "rental_uris": {"android": "https://dc.lft.to/lastmile_qr_scan", "ios": "https://dc.lft.to/lastmile_qr_scan"}, "lat": 38.920718, "is_reserved": 0, "is_disabled": 0, "fusion_lat": 0.0}, {"fusion_lon": 0.0, "bike_id": "80bc64ae40d37ffa8ae40b7c1195b82a", "name": "80bc64ae40d37ffa8ae40b7c1195b82a", "type": "electric_scooter", "lon": -77.03090966666667, "rental_uris": {"android": "https://dc.lft.to/lastmile_qr_scan", "ios": "https://dc.lft.to/lastmile_qr_scan"}, "lat": 38.917067333333335, "is_reserved": 0, "is_disabled": 0, "fusion_lat": 0.0}, {"fusion_lon": 0.0, "bike_id": "681f63c73a6157b7e2e5645b7e29c37f", "name": "681f63c73a6157b7e2e5645b7e29c37f", "type": "electric_scooter", "lon": -77.00916283333333, "rental_uris": {"android": "https://dc.lft.to/lastmile_qr_scan", "ios": "https://dc.lft.to/lastmile_qr_scan"}, "lat": 38.95950166666667, "is_reserved": 0, "is_disabled": 0, "fusion_lat": 0.0}, {"fusion_lon": 0.0, "bike_id": "df7644c27e528c87ef09267e8b8c9b04", "name": "df7644c27e528c87ef09267e8b8c9b04", "type": "electric_scooter", "lon": -76.9995625, "rental_uris": {"android": "https://dc.lft.to/lastmile_qr_scan", "ios": "https://dc.lft.to/lastmile_qr_scan"}, "lat": 38.9038825, "is_reserved": 0, "is_disabled": 0, "fusion_lat": 0.0}, {"fusion_lon": 0.0, "bike_id": "7fedd8b5edaec0628f655861b9a4d0ed", "name": "7fedd8b5edaec0628f655861b9a4d0ed", "type": "electric_scooter", "lon": -77.02897566666667, "rental_uris": {"android": "https://dc.lft.to/lastmile_qr_scan", "ios": "https://dc.lft.to/lastmile_qr_scan"}, "lat": 38.90451133333333, "is_reserved": 0, "is_disabled": 0, "fusion_lat": 0.0}, {"fusion_lon": 0.0, "bike_id": "ebb7909f91677c468c6bfd52efa9a9d7", "name": "ebb7909f91677c468c6bfd52efa9a9d7", "type": "electric_scooter", "lon": -77.04695166666667, "rental_uris": {"android": "https://dc.lft.to/lastmile_qr_scan", "ios": "https://dc.lft.to/lastmile_qr_scan"}, "lat": 38.91670466666667, "is_reserved": 0, "is_disabled": 0, "fusion_lat": 0.0}, {"fusion_lon": 0.0, "bike_id": "ce1e5a34d8c65ad8985a752892d854d6", "name": "ce1e5a34d8c65ad8985a752892d854d6", "type": "electric_scooter", "lon": -77.03516383333333, "rental_uris": {"android": "https://dc.lft.to/lastmile_qr_scan", "ios": "https://dc.lft.to/lastmile_qr_scan"}, "lat": 38.91842783333333, "is_reserved": 0, "is_disabled": 0, "fusion_lat": 0.0}, {"fusion_lon": 0.0, "bike_id": "434010f6c41307e589f92fad334b91f5", "name": "434010f6c41307e589f92fad334b91f5", "type": "electric_scooter", "lon": -77.06052533333333, "rental_uris": {"android": "https://dc.lft.to/lastmile_qr_scan", "ios": "https://dc.lft.to/lastmile_qr_scan"}, "lat": 38.93909416666666, "is_reserved": 0, "is_disabled": 0, "fusion_lat": 0.0}, {"fusion_lon": 0.0, "bike_id": "b85f5094dca6f8aa756fde2dbb7fc14e", "name": "b85f5094dca6f8aa756fde2dbb7fc14e", "type": "electric_scooter", "lon": -77.05078166666667, "rental_uris": {"android": "https://dc.lft.to/lastmile_qr_scan", "ios": "https://dc.lft.to/lastmile_qr_scan"}, "lat": 38.905173, "is_reserved": 0, "is_disabled": 0, "fusion_lat": 0.0}, {"fusion_lon": 0.0, "bike_id": "ce6c64c232ea54ac57425c4e3876dcca", "name": "ce6c64c232ea54ac57425c4e3876dcca", "type": "electric_bike", "lon": -77.02096916666666, "rental_uris": {"android": "https://dc.lft.to/lastmile_qr_scan", "ios": "https://dc.lft.to/lastmile_qr_scan"}, "lat": 39.02298366666667, "is_reserved": 0, "is_disabled": 0, "fusion_lat": 0.0}, {"fusion_lon": 0.0, "bike_id": "2f04feaee64d68f15e75d8ffd693cf0a", "name": "2f04feaee64d68f15e75d8ffd693cf0a", "type": "electric_scooter", "lon": -77.03942483333333, "rental_uris": {"android": "https://dc.lft.to/lastmile_qr_scan", "ios": "https://dc.lft.to/lastmile_qr_scan"}, "lat": 38.90969666666667, "is_reserved": 0, "is_disabled": 0, "fusion_lat": 0.0}, {"fusion_lon": 0.0, "bike_id": "15d406a7912d28704aec6a072ae8e3ec", "name": "15d406a7912d28704aec6a072ae8e3ec", "type": "electric_bike", "lon": -77.12898466666667, "rental_uris": {"android": "https://dc.lft.to/lastmile_qr_scan", "ios": "https://dc.lft.to/lastmile_qr_scan"}, "lat": 38.863808666666664, "is_reserved": 0, "is_disabled": 0, "fusion_lat": 0.0}, {"fusion_lon": 0.0, "bike_id": "6dbb4af0ec97f94f10f495ba3ec75deb", "name": "6dbb4af0ec97f94f10f495ba3ec75deb", "type": "electric_scooter", "lon": -77.02721916666667, "rental_uris": {"android": "https://dc.lft.to/lastmile_qr_scan", "ios": "https://dc.lft.to/lastmile_qr_scan"}, "lat": 38.940890333333336, "is_reserved": 0, "is_disabled": 0, "fusion_lat": 0.0}, {"fusion_lon": 0.0, "bike_id": "c77f7432ff49ff48cb447469cf6d151b", "name": "c77f7432ff49ff48cb447469cf6d151b", "type": "electric_scooter", "lon": -77.0744025, "rental_uris": {"android": "https://dc.lft.to/lastmile_qr_scan", "ios": "https://dc.lft.to/lastmile_qr_scan"}, "lat": 38.9108425, "is_reserved": 0, "is_disabled": 0, "fusion_lat": 0.0}, {"fusion_lon": 0.0, "bike_id": "a7557e607034f26283d009780915a1a7", "name": "a7557e607034f26283d009780915a1a7", "type": "electric_scooter", "lon": -77.04782166666666, "rental_uris": {"android": "https://dc.lft.to/lastmile_qr_scan", "ios": "https://dc.lft.to/lastmile_qr_scan"}, "lat": 38.902402, "is_reserved": 0, "is_disabled": 0, "fusion_lat": 0.0}, {"fusion_lon": 0.0, "bike_id": "9ddf3da3e57c290f61b7021107e60939", "name": "9ddf3da3e57c290f61b7021107e60939", "type": "electric_scooter", "lon": -76.99386733333333, "rental_uris": {"android": "https://dc.lft.to/lastmile_qr_scan", "ios": "https://dc.lft.to/lastmile_qr_scan"}, "lat": 38.88453833333333, "is_reserved": 0, "is_disabled": 0, "fusion_lat": 0.0}, {"fusion_lon": 0.0, "bike_id": "cdeb2e56ad61e46598058675e7582b70", "name": "cdeb2e56ad61e46598058675e7582b70", "type": "electric_scooter", "lon": -77.0709445, "rental_uris": {"android": "https://dc.lft.to/lastmile_qr_scan", "ios": "https://dc.lft.to/lastmile_qr_scan"}, "lat": 38.91995416666666, "is_reserved": 0, "is_disabled": 0, "fusion_lat": 0.0}, {"fusion_lon": 0.0, "bike_id": "ec8886aa4638b30d1a85d47102660d73", "name": "ec8886aa4638b30d1a85d47102660d73", "type": "electric_scooter", "lon": -77.03854966666667, "rental_uris": {"android": "https://dc.lft.to/lastmile_qr_scan", "ios": "https://dc.lft.to/lastmile_qr_scan"}, "lat": 38.921696833333336, "is_reserved": 0, "is_disabled": 0, "fusion_lat": 0.0}, {"fusion_lon": 0.0, "bike_id": "8ce8134345577ce0f3e349e7f178876f", "name": "8ce8134345577ce0f3e349e7f178876f", "type": "electric_scooter", "lon": -76.96573833333333, "rental_uris": {"android": "https://dc.lft.to/lastmile_qr_scan", "ios": "https://dc.lft.to/lastmile_qr_scan"}, "lat": 38.871388, "is_reserved": 0, "is_disabled": 0, "fusion_lat": 0.0}, {"fusion_lon": 0.0, "bike_id": "03cc18bc019fc5f4d518ddcf9cbff445", "name": "03cc18bc019fc5f4d518ddcf9cbff445", "type": "electric_scooter", "lon": -77.01155416666667, "rental_uris": {"android": "https://dc.lft.to/lastmile_qr_scan", "ios": "https://dc.lft.to/lastmile_qr_scan"}, "lat": 38.89598083333333, "is_reserved": 0, "is_disabled": 0, "fusion_lat": 0.0}, {"fusion_lon": 0.0, "bike_id": "199d3d2a4a8f153a17b9a4769a7a78fd", "name": "199d3d2a4a8f153a17b9a4769a7a78fd", "type": "electric_scooter", "lon": -76.99633516666667, "rental_uris": {"android": "https://dc.lft.to/lastmile_qr_scan", "ios": "https://dc.lft.to/lastmile_qr_scan"}, "lat": 38.846209333333334, "is_reserved": 0, "is_disabled": 0, "fusion_lat": 0.0}, {"fusion_lon": 0.0, "bike_id": "5ed483050374b6bf56d3351c64069f83", "name": "5ed483050374b6bf56d3351c64069f83", "type": "electric_scooter", "lon": -77.02393783333333, "rental_uris": {"android": "https://dc.lft.to/lastmile_qr_scan", "ios": "https://dc.lft.to/lastmile_qr_scan"}, "lat": 38.91962983333333, "is_reserved": 0, "is_disabled": 0, "fusion_lat": 0.0}, {"fusion_lon": 0.0, "bike_id": "5216cecd4236d99593dbc210ab1e1a04", "name": "5216cecd4236d99593dbc210ab1e1a04", "type": "electric_scooter", "lon": -76.95756633333333, "rental_uris": {"android": "https://dc.lft.to/lastmile_qr_scan", "ios": "https://dc.lft.to/lastmile_qr_scan"}, "lat": 38.884415833333335, "is_reserved": 0, "is_disabled": 0, "fusion_lat": 0.0}, {"fusion_lon": 0.0, "bike_id": "abe1a7fb3d1336072b56fd9a19b6df58", "name": "abe1a7fb3d1336072b56fd9a19b6df58", "type": "electric_scooter", "lon": -77.04220783333334, "rental_uris": {"android": "https://dc.lft.to/lastmile_qr_scan", "ios": "https://dc.lft.to/lastmile_qr_scan"}, "lat": 38.92067566666667, "is_reserved": 0, "is_disabled": 0, "fusion_lat": 0.0}, {"fusion_lon": 0.0, "bike_id": "4e88a407bf579ff7d9747b67ed12d299", "name": "4e88a407bf579ff7d9747b67ed12d299", "type": "electric_bike", "lon": -77.02488933333333, "rental_uris": {"android": "https://dc.lft.to/lastmile_qr_scan", "ios": "https://dc.lft.to/lastmile_qr_scan"}, "lat": 38.97371666666667, "is_reserved": 0, "is_disabled": 0, "fusion_lat": 0.0}, {"fusion_lon": 0.0, "bike_id": "e6d636bca445ddcf7dc980211edf8586", "name": "e6d636bca445ddcf7dc980211edf8586", "type": "electric_scooter", "lon": -77.02493816666667, "rental_uris": {"android": "https://dc.lft.to/lastmile_qr_scan", "ios": "https://dc.lft.to/lastmile_qr_scan"}, "lat": 38.941851, "is_reserved": 0, "is_disabled": 0, "fusion_lat": 0.0}, {"fusion_lon": 0.0, "bike_id": "cb9786786d8d53532a3660da9f74f4d8", "name": "cb9786786d8d53532a3660da9f74f4d8", "type": "electric_scooter", "lon": -76.99013316666667, "rental_uris": {"android": "https://dc.lft.to/lastmile_qr_scan", "ios": "https://dc.lft.to/lastmile_qr_scan"}, "lat": 38.861086, "is_reserved": 0, "is_disabled": 0, "fusion_lat": 0.0}, {"fusion_lon": 0.0, "bike_id": "66b228f88b312bc75c51a582222647d9", "name": "66b228f88b312bc75c51a582222647d9", "type": "electric_scooter", "lon": -77.04515766666667, "rental_uris": {"android": "https://dc.lft.to/lastmile_qr_scan", "ios": "https://dc.lft.to/lastmile_qr_scan"}, "lat": 38.90782166666666, "is_reserved": 0, "is_disabled": 0, "fusion_lat": 0.0}, {"fusion_lon": 0.0, "bike_id": "9a828ff0ac992c36eb61d877acab46d8", "name": "9a828ff0ac992c36eb61d877acab46d8", "type": "electric_scooter", "lon": -77.03075616666666, "rental_uris": {"android": "https://dc.lft.to/lastmile_qr_scan", "ios": "https://dc.lft.to/lastmile_qr_scan"}, "lat": 38.9238555, "is_reserved": 0, "is_disabled": 0, "fusion_lat": 0.0}, {"fusion_lon": 0.0, "bike_id": "08e181f6d0587dcae01971c7ada9aed4", "name": "08e181f6d0587dcae01971c7ada9aed4", "type": "electric_scooter", "lon": -77.0093255, "rental_uris": {"android": "https://dc.lft.to/lastmile_qr_scan", "ios": "https://dc.lft.to/lastmile_qr_scan"}, "lat": 38.876800333333335, "is_reserved": 0, "is_disabled": 0, "fusion_lat": 0.0}, {"fusion_lon": 0.0, "bike_id": "771396a61a3c228178a6992eb0cb12ec", "name": "771396a61a3c228178a6992eb0cb12ec", "type": "electric_scooter", "lon": -77.03262833333334, "rental_uris": {"android": "https://dc.lft.to/lastmile_qr_scan", "ios": "https://dc.lft.to/lastmile_qr_scan"}, "lat": 38.935256333333335, "is_reserved": 0, "is_disabled": 0, "fusion_lat": 0.0}, {"fusion_lon": 0.0, "bike_id": "fe1647947f53b15f657592532e88da32", "name": "fe1647947f53b15f657592532e88da32", "type": "electric_scooter", "lon": -77.03253316666667, "rental_uris": {"android": "https://dc.lft.to/lastmile_qr_scan", "ios": "https://dc.lft.to/lastmile_qr_scan"}, "lat": 38.9133215, "is_reserved": 0, "is_disabled": 0, "fusion_lat": 0.0}, {"fusion_lon": 0.0, "bike_id": "e42e0287b6119a9491b3d621bd5e2749", "name": "e42e0287b6119a9491b3d621bd5e2749", "type": "electric_bike", "lon": -76.976174, "rental_uris": {"android": "https://dc.lft.to/lastmile_qr_scan", "ios": "https://dc.lft.to/lastmile_qr_scan"}, "lat": 38.89296816666667, "is_reserved": 0, "is_disabled": 0, "fusion_lat": 0.0}, {"fusion_lon": 0.0, "bike_id": "43ca79a7438d7eeba19635aa1bd8773e", "name": "43ca79a7438d7eeba19635aa1bd8773e", "type": "electric_scooter", "lon": -77.0038445, "rental_uris": {"android": "https://dc.lft.to/lastmile_qr_scan", "ios": "https://dc.lft.to/lastmile_qr_scan"}, "lat": 38.90610733333333, "is_reserved": 0, "is_disabled": 0, "fusion_lat": 0.0}, {"fusion_lon": 0.0, "bike_id": "12872d24e1f91e99ed5463e5fddd83a4", "name": "12872d24e1f91e99ed5463e5fddd83a4", "type": "electric_bike", "lon": -77.003244, "rental_uris": {"android": "https://dc.lft.to/lastmile_qr_scan", "ios": "https://dc.lft.to/lastmile_qr_scan"}, "lat": 38.919782, "is_reserved": 0, "is_disabled": 0, "fusion_lat": 0.0}, {"fusion_lon": 0.0, "bike_id": "25746fa8d1de826f1d5e203cc6d73b54", "name": "25746fa8d1de826f1d5e203cc6d73b54", "type": "electric_scooter", "lon": -77.02997666666667, "rental_uris": {"android": "https://dc.lft.to/lastmile_qr_scan", "ios": "https://dc.lft.to/lastmile_qr_scan"}, "lat": 38.92857466666667, "is_reserved": 0, "is_disabled": 0, "fusion_lat": 0.0}, {"fusion_lon": 0.0, "bike_id": "9c37a23d5fa657addbbf48126dcf09ad", "name": "9c37a23d5fa657addbbf48126dcf09ad", "type": "electric_bike", "lon": -76.92339583333333, "rental_uris": {"android": "https://dc.lft.to/lastmile_qr_scan", "ios": "https://dc.lft.to/lastmile_qr_scan"}, "lat": 38.887950833333335, "is_reserved": 0, "is_disabled": 0, "fusion_lat": 0.0}, {"fusion_lon": 0.0, "bike_id": "b8d61088a3988fb182ad6ccb6e7829a9", "name": "b8d61088a3988fb182ad6ccb6e7829a9", "type": "electric_scooter", "lon": -77.000421, "rental_uris": {"android": "https://dc.lft.to/lastmile_qr_scan", "ios": "https://dc.lft.to/lastmile_qr_scan"}, "lat": 38.875341666666664, "is_reserved": 0, "is_disabled": 0, "fusion_lat": 0.0}, {"fusion_lon": 0.0, "bike_id": "5ed0e3d0b22e3436e31854d15cf4f0d0", "name": "5ed0e3d0b22e3436e31854d15cf4f0d0", "type": "electric_scooter", "lon": -77.02799916666666, "rental_uris": {"android": "https://dc.lft.to/lastmile_qr_scan", "ios": "https://dc.lft.to/lastmile_qr_scan"}, "lat": 38.9110585, "is_reserved": 0, "is_disabled": 0, "fusion_lat": 0.0}, {"fusion_lon": 0.0, "bike_id": "e85a452f68f5ba90f2b87b739a11b0f9", "name": "e85a452f68f5ba90f2b87b739a11b0f9", "type": "electric_bike", "lon": -76.98003266666667, "rental_uris": {"android": "https://dc.lft.to/lastmile_qr_scan", "ios": "https://dc.lft.to/lastmile_qr_scan"}, "lat": 38.853263166666665, "is_reserved": 0, "is_disabled": 0, "fusion_lat": 0.0}, {"fusion_lon": 0.0, "bike_id": "a7570252ce78cd0bb76e8f3d796c00f7", "name": "a7570252ce78cd0bb76e8f3d796c00f7", "type": "electric_scooter", "lon": -77.03869683333333, "rental_uris": {"android": "https://dc.lft.to/lastmile_qr_scan", "ios": "https://dc.lft.to/lastmile_qr_scan"}, "lat": 38.91561, "is_reserved": 0, "is_disabled": 0, "fusion_lat": 0.0}, {"fusion_lon": 0.0, "bike_id": "7ce274999f414473b74731d419eda188", "name": "7ce274999f414473b74731d419eda188", "type": "electric_scooter", "lon": -77.032597, "rental_uris": {"android": "https://dc.lft.to/lastmile_qr_scan", "ios": "https://dc.lft.to/lastmile_qr_scan"}, "lat": 38.932668166666666, "is_reserved": 0, "is_disabled": 0, "fusion_lat": 0.0}, {"fusion_lon": 0.0, "bike_id": "7c073c105e8b738a9c05785a89253d86", "name": "7c073c105e8b738a9c05785a89253d86", "type": "electric_scooter", "lon": -77.04174066666667, "rental_uris": {"android": "https://dc.lft.to/lastmile_qr_scan", "ios": "https://dc.lft.to/lastmile_qr_scan"}, "lat": 38.9201215, "is_reserved": 0, "is_disabled": 0, "fusion_lat": 0.0}, {"fusion_lon": 0.0, "bike_id": "35637d6ecec264e2fe322870c4e09670", "name": "35637d6ecec264e2fe322870c4e09670", "type": "electric_scooter", "lon": -77.03424916666667, "rental_uris": {"android": "https://dc.lft.to/lastmile_qr_scan", "ios": "https://dc.lft.to/lastmile_qr_scan"}, "lat": 38.907342, "is_reserved": 0, "is_disabled": 0, "fusion_lat": 0.0}, {"fusion_lon": 0.0, "bike_id": "fd623bb2f152daff1fb7cf3c009c8594", "name": "fd623bb2f152daff1fb7cf3c009c8594", "type": "electric_scooter", "lon": -77.03195433333333, "rental_uris": {"android": "https://dc.lft.to/lastmile_qr_scan", "ios": "https://dc.lft.to/lastmile_qr_scan"}, "lat": 38.9079385, "is_reserved": 0, "is_disabled": 0, "fusion_lat": 0.0}, {"fusion_lon": 0.0, "bike_id": "bb66c271f3fa6e27c0bd7fae217fbcf9", "name": "bb66c271f3fa6e27c0bd7fae217fbcf9", "type": "electric_scooter", "lon": -77.01099883333333, "rental_uris": {"android": "https://dc.lft.to/lastmile_qr_scan", "ios": "https://dc.lft.to/lastmile_qr_scan"}, "lat": 38.909730333333336, "is_reserved": 0, "is_disabled": 0, "fusion_lat": 0.0}, {"fusion_lon": 0.0, "bike_id": "11bcac67b07bdb55044541935f5a9956", "name": "11bcac67b07bdb55044541935f5a9956", "type": "electric_scooter", "lon": -77.0310975, "rental_uris": {"android": "https://dc.lft.to/lastmile_qr_scan", "ios": "https://dc.lft.to/lastmile_qr_scan"}, "lat": 38.9202205, "is_reserved": 0, "is_disabled": 0, "fusion_lat": 0.0}, {"fusion_lon": 0.0, "bike_id": "d6d74a378a9e083640475908766b122f", "name": "d6d74a378a9e083640475908766b122f", "type": "electric_scooter", "lon": -77.02354516666666, "rental_uris": {"android": "https://dc.lft.to/lastmile_qr_scan", "ios": "https://dc.lft.to/lastmile_qr_scan"}, "lat": 38.9353385, "is_reserved": 0, "is_disabled": 0, "fusion_lat": 0.0}, {"fusion_lon": 0.0, "bike_id": "b54cd82a302858c7a33e3b610d27741f", "name": "b54cd82a302858c7a33e3b610d27741f", "type": "electric_scooter", "lon": -77.03206533333334, "rental_uris": {"android": "https://dc.lft.to/lastmile_qr_scan", "ios": "https://dc.lft.to/lastmile_qr_scan"}, "lat": 38.90927716666667, "is_reserved": 0, "is_disabled": 0, "fusion_lat": 0.0}, {"fusion_lon": 0.0, "bike_id": "2ba9bd2fe586abcf48da31d50fddf4db", "name": "2ba9bd2fe586abcf48da31d50fddf4db", "type": "electric_scooter", "lon": -77.04580233333333, "rental_uris": {"android": "https://dc.lft.to/lastmile_qr_scan", "ios": "https://dc.lft.to/lastmile_qr_scan"}, "lat": 38.92416383333333, "is_reserved": 0, "is_disabled": 0, "fusion_lat": 0.0}, {"fusion_lon": 0.0, "bike_id": "8cf62e85c6623318c57835c36e0c5590", "name": "8cf62e85c6623318c57835c36e0c5590", "type": "electric_scooter", "lon": -77.02802266666667, "rental_uris": {"android": "https://dc.lft.to/lastmile_qr_scan", "ios": "https://dc.lft.to/lastmile_qr_scan"}, "lat": 38.91682433333333, "is_reserved": 0, "is_disabled": 0, "fusion_lat": 0.0}, {"fusion_lon": 0.0, "bike_id": "f52d6b23e038bcf5f511b8837a52d130", "name": "f52d6b23e038bcf5f511b8837a52d130", "type": "electric_scooter", "lon": -77.019973, "rental_uris": {"android": "https://dc.lft.to/lastmile_qr_scan", "ios": "https://dc.lft.to/lastmile_qr_scan"}, "lat": 38.966312, "is_reserved": 0, "is_disabled": 0, "fusion_lat": 0.0}, {"fusion_lon": 0.0, "bike_id": "4628a80d6bead30fbcea33708b8a01fa", "name": "4628a80d6bead30fbcea33708b8a01fa", "type": "electric_bike", "lon": -76.94798783333333, "rental_uris": {"android": "https://dc.lft.to/lastmile_qr_scan", "ios": "https://dc.lft.to/lastmile_qr_scan"}, "lat": 38.861974833333335, "is_reserved": 0, "is_disabled": 0, "fusion_lat": 0.0}, {"fusion_lon": 0.0, "bike_id": "78373decff478f6339d2943a110319c4", "name": "78373decff478f6339d2943a110319c4", "type": "electric_scooter", "lon": -77.0019525, "rental_uris": {"android": "https://dc.lft.to/lastmile_qr_scan", "ios": "https://dc.lft.to/lastmile_qr_scan"}, "lat": 38.902320333333336, "is_reserved": 0, "is_disabled": 0, "fusion_lat": 0.0}, {"fusion_lon": 0.0, "bike_id": "92e5889dc8de4f6250a7ce34e063c9b4", "name": "92e5889dc8de4f6250a7ce34e063c9b4", "type": "electric_scooter", "lon": -76.9761655, "rental_uris": {"android": "https://dc.lft.to/lastmile_qr_scan", "ios": "https://dc.lft.to/lastmile_qr_scan"}, "lat": 38.931451, "is_reserved": 0, "is_disabled": 0, "fusion_lat": 0.0}, {"fusion_lon": 0.0, "bike_id": "cde13e4f37fa9e423d3e7a9229c7843c", "name": "cde13e4f37fa9e423d3e7a9229c7843c", "type": "electric_scooter", "lon": -76.99047283333333, "rental_uris": {"android": "https://dc.lft.to/lastmile_qr_scan", "ios": "https://dc.lft.to/lastmile_qr_scan"}, "lat": 38.858990666666664, "is_reserved": 0, "is_disabled": 0, "fusion_lat": 0.0}, {"fusion_lon": 0.0, "bike_id": "e483c75e98e5205e86e0670fc0c93b0c", "name": "e483c75e98e5205e86e0670fc0c93b0c", "type": "electric_scooter", "lon": -77.020104, "rental_uris": {"android": "https://dc.lft.to/lastmile_qr_scan", "ios": "https://dc.lft.to/lastmile_qr_scan"}, "lat": 38.883660666666664, "is_reserved": 0, "is_disabled": 0, "fusion_lat": 0.0}, {"fusion_lon": 0.0, "bike_id": "2528ed64c12c019a8ee6e01ce2c9326d", "name": "2528ed64c12c019a8ee6e01ce2c9326d", "type": "electric_scooter", "lon": -77.0575235, "rental_uris": {"android": "https://dc.lft.to/lastmile_qr_scan", "ios": "https://dc.lft.to/lastmile_qr_scan"}, "lat": 38.924219666666666, "is_reserved": 0, "is_disabled": 0, "fusion_lat": 0.0}, {"fusion_lon": 0.0, "bike_id": "c4839d771993e7d17242024122fc5408", "name": "c4839d771993e7d17242024122fc5408", "type": "electric_scooter", "lon": -76.977284, "rental_uris": {"android": "https://dc.lft.to/lastmile_qr_scan", "ios": "https://dc.lft.to/lastmile_qr_scan"}, "lat": 38.8724435, "is_reserved": 0, "is_disabled": 0, "fusion_lat": 0.0}, {"fusion_lon": 0.0, "bike_id": "c7efcf79f0bb70ab5c687f4c5d7f526c", "name": "c7efcf79f0bb70ab5c687f4c5d7f526c", "type": "electric_scooter", "lon": -77.0372845, "rental_uris": {"android": "https://dc.lft.to/lastmile_qr_scan", "ios": "https://dc.lft.to/lastmile_qr_scan"}, "lat": 38.92657766666667, "is_reserved": 0, "is_disabled": 0, "fusion_lat": 0.0}, {"fusion_lon": 0.0, "bike_id": "ad0048f8e0a43f361f32722c37051d08", "name": "ad0048f8e0a43f361f32722c37051d08", "type": "electric_scooter", "lon": -77.023979, "rental_uris": {"android": "https://dc.lft.to/lastmile_qr_scan", "ios": "https://dc.lft.to/lastmile_qr_scan"}, "lat": 38.91968516666667, "is_reserved": 0, "is_disabled": 0, "fusion_lat": 0.0}, {"fusion_lon": 0.0, "bike_id": "91067325c1075409a1226c78e4752b9e", "name": "91067325c1075409a1226c78e4752b9e", "type": "electric_scooter", "lon": -76.99480333333334, "rental_uris": {"android": "https://dc.lft.to/lastmile_qr_scan", "ios": "https://dc.lft.to/lastmile_qr_scan"}, "lat": 38.8621825, "is_reserved": 0, "is_disabled": 0, "fusion_lat": 0.0}, {"fusion_lon": 0.0, "bike_id": "201f5405a44d5b085ef2887e8d95b064", "name": "201f5405a44d5b085ef2887e8d95b064", "type": "electric_scooter", "lon": -77.004296, "rental_uris": {"android": "https://dc.lft.to/lastmile_qr_scan", "ios": "https://dc.lft.to/lastmile_qr_scan"}, "lat": 38.876822833333335, "is_reserved": 0, "is_disabled": 0, "fusion_lat": 0.0}, {"fusion_lon": 0.0, "bike_id": "a6fc91bd68d6ecbb9b49cd5601178e4b", "name": "a6fc91bd68d6ecbb9b49cd5601178e4b", "type": "electric_scooter", "lon": -77.07232133333333, "rental_uris": {"android": "https://dc.lft.to/lastmile_qr_scan", "ios": "https://dc.lft.to/lastmile_qr_scan"}, "lat": 38.9345835, "is_reserved": 0, "is_disabled": 0, "fusion_lat": 0.0}, {"fusion_lon": 0.0, "bike_id": "1c50d2dc06cd876704aa803667951acf", "name": "1c50d2dc06cd876704aa803667951acf", "type": "electric_bike", "lon": -76.95468033333333, "rental_uris": {"android": "https://dc.lft.to/lastmile_qr_scan", "ios": "https://dc.lft.to/lastmile_qr_scan"}, "lat": 38.935729333333335, "is_reserved": 0, "is_disabled": 0, "fusion_lat": 0.0}, {"fusion_lon": 0.0, "bike_id": "bca4d08610587b603697ba43062e43c4", "name": "bca4d08610587b603697ba43062e43c4", "type": "electric_scooter", "lon": -77.02339283333333, "rental_uris": {"android": "https://dc.lft.to/lastmile_qr_scan", "ios": "https://dc.lft.to/lastmile_qr_scan"}, "lat": 38.915573333333334, "is_reserved": 0, "is_disabled": 0, "fusion_lat": 0.0}, {"fusion_lon": 0.0, "bike_id": "ae2c27bfca400f3eb45c18d8a91f6ebd", "name": "ae2c27bfca400f3eb45c18d8a91f6ebd", "type": "electric_scooter", "lon": -77.0415415, "rental_uris": {"android": "https://dc.lft.to/lastmile_qr_scan", "ios": "https://dc.lft.to/lastmile_qr_scan"}, "lat": 38.917901666666666, "is_reserved": 0, "is_disabled": 0, "fusion_lat": 0.0}, {"fusion_lon": 0.0, "bike_id": "76b5c813862585d34b142aa24a56d1f2", "name": "76b5c813862585d34b142aa24a56d1f2", "type": "electric_scooter", "lon": -77.02387416666667, "rental_uris": {"android": "https://dc.lft.to/lastmile_qr_scan", "ios": "https://dc.lft.to/lastmile_qr_scan"}, "lat": 38.90580116666667, "is_reserved": 0, "is_disabled": 0, "fusion_lat": 0.0}, {"fusion_lon": 0.0, "bike_id": "546202ebbc0b210436112af400cb5adf", "name": "546202ebbc0b210436112af400cb5adf", "type": "electric_scooter", "lon": -77.02704066666666, "rental_uris": {"android": "https://dc.lft.to/lastmile_qr_scan", "ios": "https://dc.lft.to/lastmile_qr_scan"}, "lat": 38.90977, "is_reserved": 0, "is_disabled": 0, "fusion_lat": 0.0}, {"fusion_lon": 0.0, "bike_id": "209ece7b1f0bd48d39d4bd0e16578bbf", "name": "209ece7b1f0bd48d39d4bd0e16578bbf", "type": "electric_scooter", "lon": -77.000765, "rental_uris": {"android": "https://dc.lft.to/lastmile_qr_scan", "ios": "https://dc.lft.to/lastmile_qr_scan"}, "lat": 38.919552, "is_reserved": 0, "is_disabled": 0, "fusion_lat": 0.0}, {"fusion_lon": 0.0, "bike_id": "1ffaca258a22edcec9f2d93b9787b5ce", "name": "1ffaca258a22edcec9f2d93b9787b5ce", "type": "electric_scooter", "lon": -76.98553733333334, "rental_uris": {"android": "https://dc.lft.to/lastmile_qr_scan", "ios": "https://dc.lft.to/lastmile_qr_scan"}, "lat": 38.900446333333335, "is_reserved": 0, "is_disabled": 0, "fusion_lat": 0.0}, {"fusion_lon": 0.0, "bike_id": "8423cf2fe606e699ab61918df5b30fd1", "name": "8423cf2fe606e699ab61918df5b30fd1", "type": "electric_scooter", "lon": -76.9488555, "rental_uris": {"android": "https://dc.lft.to/lastmile_qr_scan", "ios": "https://dc.lft.to/lastmile_qr_scan"}, "lat": 38.895132833333335, "is_reserved": 0, "is_disabled": 0, "fusion_lat": 0.0}, {"fusion_lon": 0.0, "bike_id": "e459b923dc08e9c916cce4806a4cfb6a", "name": "e459b923dc08e9c916cce4806a4cfb6a", "type": "electric_scooter", "lon": -77.00279233333333, "rental_uris": {"android": "https://dc.lft.to/lastmile_qr_scan", "ios": "https://dc.lft.to/lastmile_qr_scan"}, "lat": 38.9392455, "is_reserved": 0, "is_disabled": 0, "fusion_lat": 0.0}, {"fusion_lon": 0.0, "bike_id": "6d85390c29bd8229e05f9ff3112ffbfd", "name": "6d85390c29bd8229e05f9ff3112ffbfd", "type": "electric_scooter", "lon": -77.01480216666667, "rental_uris": {"android": "https://dc.lft.to/lastmile_qr_scan", "ios": "https://dc.lft.to/lastmile_qr_scan"}, "lat": 38.876516333333335, "is_reserved": 0, "is_disabled": 0, "fusion_lat": 0.0}, {"fusion_lon": 0.0, "bike_id": "c7ae2f448ff20ae47a9c152578f093c4", "name": "c7ae2f448ff20ae47a9c152578f093c4", "type": "electric_scooter", "lon": -77.00521883333333, "rental_uris": {"android": "https://dc.lft.to/lastmile_qr_scan", "ios": "https://dc.lft.to/lastmile_qr_scan"}, "lat": 38.8746555, "is_reserved": 0, "is_disabled": 0, "fusion_lat": 0.0}, {"fusion_lon": 0.0, "bike_id": "52231e6264e30a538c6360de9f8ecf48", "name": "52231e6264e30a538c6360de9f8ecf48", "type": "electric_scooter", "lon": -77.04702416666667, "rental_uris": {"android": "https://dc.lft.to/lastmile_qr_scan", "ios": "https://dc.lft.to/lastmile_qr_scan"}, "lat": 38.91270933333333, "is_reserved": 0, "is_disabled": 0, "fusion_lat": 0.0}, {"fusion_lon": 0.0, "bike_id": "24504e437671ed2aff21ad4ebba7c716", "name": "24504e437671ed2aff21ad4ebba7c716", "type": "electric_scooter", "lon": -76.99385, "rental_uris": {"android": "https://dc.lft.to/lastmile_qr_scan", "ios": "https://dc.lft.to/lastmile_qr_scan"}, "lat": 38.92103483333333, "is_reserved": 0, "is_disabled": 0, "fusion_lat": 0.0}, {"fusion_lon": 0.0, "bike_id": "3ceb03623cd9660674942b0fb03681fe", "name": "3ceb03623cd9660674942b0fb03681fe", "type": "electric_scooter", "lon": -77.0144195, "rental_uris": {"android": "https://dc.lft.to/lastmile_qr_scan", "ios": "https://dc.lft.to/lastmile_qr_scan"}, "lat": 38.91255483333333, "is_reserved": 0, "is_disabled": 0, "fusion_lat": 0.0}, {"fusion_lon": 0.0, "bike_id": "81b82bf69ed8c104bfef7a5f9cbf6ba8", "name": "81b82bf69ed8c104bfef7a5f9cbf6ba8", "type": "electric_scooter", "lon": -76.98846483333334, "rental_uris": {"android": "https://dc.lft.to/lastmile_qr_scan", "ios": "https://dc.lft.to/lastmile_qr_scan"}, "lat": 38.900285833333335, "is_reserved": 0, "is_disabled": 0, "fusion_lat": 0.0}, {"fusion_lon": 0.0, "bike_id": "007cfcb724b6bb336c9b834dd583ce0f", "name": "007cfcb724b6bb336c9b834dd583ce0f", "type": "electric_scooter", "lon": -77.04224333333333, "rental_uris": {"android": "https://dc.lft.to/lastmile_qr_scan", "ios": "https://dc.lft.to/lastmile_qr_scan"}, "lat": 38.921783, "is_reserved": 0, "is_disabled": 0, "fusion_lat": 0.0}, {"fusion_lon": 0.0, "bike_id": "00bda3832f43c89adbd8682fe7fec590", "name": "00bda3832f43c89adbd8682fe7fec590", "type": "electric_scooter", "lon": -76.99376183333334, "rental_uris": {"android": "https://dc.lft.to/lastmile_qr_scan", "ios": "https://dc.lft.to/lastmile_qr_scan"}, "lat": 38.924107, "is_reserved": 0, "is_disabled": 0, "fusion_lat": 0.0}, {"fusion_lon": 0.0, "bike_id": "e09a014efb179d57d5c06b7f52a12d17", "name": "e09a014efb179d57d5c06b7f52a12d17", "type": "electric_scooter", "lon": -77.02959766666666, "rental_uris": {"android": "https://dc.lft.to/lastmile_qr_scan", "ios": "https://dc.lft.to/lastmile_qr_scan"}, "lat": 38.92073283333333, "is_reserved": 0, "is_disabled": 0, "fusion_lat": 0.0}, {"fusion_lon": 0.0, "bike_id": "5f7aab9b8ebc816014e8b43894e6fe4b", "name": "5f7aab9b8ebc816014e8b43894e6fe4b", "type": "electric_scooter", "lon": -77.02374116666667, "rental_uris": {"android": "https://dc.lft.to/lastmile_qr_scan", "ios": "https://dc.lft.to/lastmile_qr_scan"}, "lat": 38.907277, "is_reserved": 0, "is_disabled": 0, "fusion_lat": 0.0}, {"fusion_lon": 0.0, "bike_id": "a7a0720a284ccb2762f61a976701cf27", "name": "a7a0720a284ccb2762f61a976701cf27", "type": "electric_scooter", "lon": -77.02186616666667, "rental_uris": {"android": "https://dc.lft.to/lastmile_qr_scan", "ios": "https://dc.lft.to/lastmile_qr_scan"}, "lat": 38.907899666666665, "is_reserved": 0, "is_disabled": 0, "fusion_lat": 0.0}, {"fusion_lon": 0.0, "bike_id": "04b10ffcda95498eac05be0475721e67", "name": "04b10ffcda95498eac05be0475721e67", "type": "electric_scooter", "lon": -77.03466566666667, "rental_uris": {"android": "https://dc.lft.to/lastmile_qr_scan", "ios": "https://dc.lft.to/lastmile_qr_scan"}, "lat": 38.921579666666666, "is_reserved": 0, "is_disabled": 0, "fusion_lat": 0.0}, {"fusion_lon": 0.0, "bike_id": "905e49cc828ffbb3547f95bdea2b0bbd", "name": "905e49cc828ffbb3547f95bdea2b0bbd", "type": "electric_scooter", "lon": -77.0373135, "rental_uris": {"android": "https://dc.lft.to/lastmile_qr_scan", "ios": "https://dc.lft.to/lastmile_qr_scan"}, "lat": 38.928569333333336, "is_reserved": 0, "is_disabled": 0, "fusion_lat": 0.0}, {"fusion_lon": 0.0, "bike_id": "6734bfd627424e252de988f229d0e0aa", "name": "6734bfd627424e252de988f229d0e0aa", "type": "electric_scooter", "lon": -77.038355, "rental_uris": {"android": "https://dc.lft.to/lastmile_qr_scan", "ios": "https://dc.lft.to/lastmile_qr_scan"}, "lat": 38.91117216666667, "is_reserved": 0, "is_disabled": 0, "fusion_lat": 0.0}, {"fusion_lon": 0.0, "bike_id": "c9d49bc47b192e02c0618f70dbc19cd0", "name": "c9d49bc47b192e02c0618f70dbc19cd0", "type": "electric_scooter", "lon": -77.03289666666667, "rental_uris": {"android": "https://dc.lft.to/lastmile_qr_scan", "ios": "https://dc.lft.to/lastmile_qr_scan"}, "lat": 38.9387925, "is_reserved": 0, "is_disabled": 0, "fusion_lat": 0.0}, {"fusion_lon": 0.0, "bike_id": "4ac5cf0bf712811260aa5e734ae00abf", "name": "4ac5cf0bf712811260aa5e734ae00abf", "type": "electric_scooter", "lon": -77.0441675, "rental_uris": {"android": "https://dc.lft.to/lastmile_qr_scan", "ios": "https://dc.lft.to/lastmile_qr_scan"}, "lat": 38.894091833333334, "is_reserved": 0, "is_disabled": 0, "fusion_lat": 0.0}, {"fusion_lon": 0.0, "bike_id": "eae0de550b2d29ecc01c803610fbb046", "name": "eae0de550b2d29ecc01c803610fbb046", "type": "electric_scooter", "lon": -76.94633233333333, "rental_uris": {"android": "https://dc.lft.to/lastmile_qr_scan", "ios": "https://dc.lft.to/lastmile_qr_scan"}, "lat": 38.89846283333333, "is_reserved": 0, "is_disabled": 0, "fusion_lat": 0.0}, {"fusion_lon": 0.0, "bike_id": "6306f5a7d0d893280c09089a50f564de", "name": "6306f5a7d0d893280c09089a50f564de", "type": "electric_scooter", "lon": -76.98990783333333, "rental_uris": {"android": "https://dc.lft.to/lastmile_qr_scan", "ios": "https://dc.lft.to/lastmile_qr_scan"}, "lat": 38.86444566666667, "is_reserved": 0, "is_disabled": 0, "fusion_lat": 0.0}, {"fusion_lon": 0.0, "bike_id": "d4d8f5d2f7b1ed4aa399812986a3cb3b", "name": "d4d8f5d2f7b1ed4aa399812986a3cb3b", "type": "electric_scooter", "lon": -77.02696616666667, "rental_uris": {"android": "https://dc.lft.to/lastmile_qr_scan", "ios": "https://dc.lft.to/lastmile_qr_scan"}, "lat": 38.93635416666667, "is_reserved": 0, "is_disabled": 0, "fusion_lat": 0.0}, {"fusion_lon": 0.0, "bike_id": "5bd596d863b6d7dff270fedac565bfa1", "name": "5bd596d863b6d7dff270fedac565bfa1", "type": "electric_scooter", "lon": -77.04992416666667, "rental_uris": {"android": "https://dc.lft.to/lastmile_qr_scan", "ios": "https://dc.lft.to/lastmile_qr_scan"}, "lat": 38.89664633333334, "is_reserved": 0, "is_disabled": 0, "fusion_lat": 0.0}, {"fusion_lon": 0.0, "bike_id": "e67ad9beaf6ae8b83455e91a771a9f8e", "name": "e67ad9beaf6ae8b83455e91a771a9f8e", "type": "electric_scooter", "lon": -77.0044705, "rental_uris": {"android": "https://dc.lft.to/lastmile_qr_scan", "ios": "https://dc.lft.to/lastmile_qr_scan"}, "lat": 38.911767, "is_reserved": 0, "is_disabled": 0, "fusion_lat": 0.0}, {"fusion_lon": 0.0, "bike_id": "09e8006489973f25c20e6e24fe7bc225", "name": "09e8006489973f25c20e6e24fe7bc225", "type": "electric_bike", "lon": -77.01377583333333, "rental_uris": {"android": "https://dc.lft.to/lastmile_qr_scan", "ios": "https://dc.lft.to/lastmile_qr_scan"}, "lat": 38.942368, "is_reserved": 0, "is_disabled": 0, "fusion_lat": 0.0}, {"fusion_lon": 0.0, "bike_id": "0c012cc7067756bccd0bf121f93e3865", "name": "0c012cc7067756bccd0bf121f93e3865", "type": "electric_bike", "lon": -76.9516145, "rental_uris": {"android": "https://dc.lft.to/lastmile_qr_scan", "ios": "https://dc.lft.to/lastmile_qr_scan"}, "lat": 38.885137, "is_reserved": 0, "is_disabled": 0, "fusion_lat": 0.0}, {"fusion_lon": 0.0, "bike_id": "ce39be7df2044a4bb9a1e16221a56acb", "name": "ce39be7df2044a4bb9a1e16221a56acb", "type": "electric_scooter", "lon": -77.0416935, "rental_uris": {"android": "https://dc.lft.to/lastmile_qr_scan", "ios": "https://dc.lft.to/lastmile_qr_scan"}, "lat": 38.91099066666666, "is_reserved": 0, "is_disabled": 0, "fusion_lat": 0.0}, {"fusion_lon": 0.0, "bike_id": "dbcedb3e1b3e9e4883e1ce2ea3e6a793", "name": "dbcedb3e1b3e9e4883e1ce2ea3e6a793", "type": "electric_scooter", "lon": -77.036352, "rental_uris": {"android": "https://dc.lft.to/lastmile_qr_scan", "ios": "https://dc.lft.to/lastmile_qr_scan"}, "lat": 38.93668, "is_reserved": 0, "is_disabled": 0, "fusion_lat": 0.0}, {"fusion_lon": 0.0, "bike_id": "efbe46d7c390dac779dd74fc93d116fd", "name": "efbe46d7c390dac779dd74fc93d116fd", "type": "electric_bike", "lon": -77.02790683333333, "rental_uris": {"android": "https://dc.lft.to/lastmile_qr_scan", "ios": "https://dc.lft.to/lastmile_qr_scan"}, "lat": 38.93951633333333, "is_reserved": 0, "is_disabled": 0, "fusion_lat": 0.0}, {"fusion_lon": 0.0, "bike_id": "2e578794c27d7fda08620930f4733795", "name": "2e578794c27d7fda08620930f4733795", "type": "electric_scooter", "lon": -77.04155183333333, "rental_uris": {"android": "https://dc.lft.to/lastmile_qr_scan", "ios": "https://dc.lft.to/lastmile_qr_scan"}, "lat": 38.91753, "is_reserved": 0, "is_disabled": 0, "fusion_lat": 0.0}, {"fusion_lon": 0.0, "bike_id": "f08ea194e4eb92c00e4c58a17d347f98", "name": "f08ea194e4eb92c00e4c58a17d347f98", "type": "electric_scooter", "lon": -77.01615933333333, "rental_uris": {"android": "https://dc.lft.to/lastmile_qr_scan", "ios": "https://dc.lft.to/lastmile_qr_scan"},