{"data": {"bikes": [{"fusion_lat": 0.0, "name": "dc1cf59a6fd28d90745aa86347fcadd6", "is_disabled": 0, "rental_uris": {"android": "https://dc.lft.to/lastmile_qr_scan", "ios": "https://dc.lft.to/lastmile_qr_scan"}, "fusion_lon": 0.0, "lat": 38.8823405, "bike_id": "dc1cf59a6fd28d90745aa86347fcadd6", "type": "electric_scooter", "is_reserved": 0, "lon": -77.02613183333334}, {"fusion_lat": 0.0, "name": "8285f01f3029095c9ab77e1760d45f36", "is_disabled": 0, "rental_uris": {"android": "https://dc.lft.to/lastmile_qr_scan", "ios": "https://dc.lft.to/lastmile_qr_scan"}, "fusion_lon": 0.0, "lat": 38.87909833333333, "bike_id": "8285f01f3029095c9ab77e1760d45f36", "type": "electric_scooter", "is_reserved": 0, "lon": -77.0088615}, {"fusion_lat": 0.0, "name": "4ae9becebd78132dff16a9de5e4a981c", "is_disabled": 0, "rental_uris": {"android": "https://dc.lft.to/lastmile_qr_scan", "ios": "https://dc.lft.to/lastmile_qr_scan"}, "fusion_lon": 0.0, "lat": 38.9326, "bike_id": "4ae9becebd78132dff16a9de5e4a981c", "type": "electric_scooter", "is_reserved": 0, "lon": -77.03274283333333}, {"fusion_lat": 0.0, "name": "8105944b6565e060c2f969e6888cfcf6", "is_disabled": 0, "rental_uris": {"android": "https://dc.lft.to/lastmile_qr_scan", "ios": "https://dc.lft.to/lastmile_qr_scan"}, "fusion_lon": 0.0, "lat": 38.95881466666667, "bike_id": "8105944b6565e060c2f969e6888cfcf6", "type": "electric_scooter", "is_reserved": 0, "lon": -77.01167316666667}, {"fusion_lat": 0.0, "name": "ccd6ea36d10aec901d0c6dc76df3688e", "is_disabled": 0, "rental_uris": {"android": "https://dc.lft.to/lastmile_qr_scan", "ios": "https://dc.lft.to/lastmile_qr_scan"}, "fusion_lon": 0.0, "lat": 38.909837833333334, "bike_id": "ccd6ea36d10aec901d0c6dc76df3688e", "type": "electric_scooter", "is_reserved": 0, "lon": -77.0340085}, {"fusion_lat": 0.0, "name": "4c5ae680f5a43d30d060a7a40eb2c00f", "is_disabled": 0, "rental_uris": {"android": "https://dc.lft.to/lastmile_qr_scan", "ios": "https://dc.lft.to/lastmile_qr_scan"}, "fusion_lon": 0.0, "lat": 38.9125865, "bike_id": "4c5ae680f5a43d30d060a7a40eb2c00f", "type": "electric_scooter", "is_reserved": 0, "lon": -77.03830283333333}, {"fusion_lat": 0.0, "name": "a06f6a915b4ab7a91dcb8fd3654cde79", "is_disabled": 0, "rental_uris": {"android": "https://dc.lft.to/lastmile_qr_scan", "ios": "https://dc.lft.to/lastmile_qr_scan"}, "fusion_lon": 0.0, "lat": 38.894853499999996, "bike_id": "a06f6a915b4ab7a91dcb8fd3654cde79", "type": "electric_scooter", "is_reserved": 0, "lon": -77.0216755}, {"fusion_lat": 0.0, "name": "45131951f8fe139585fbe8362104f38c", "is_disabled": 0, "rental_uris": {"android": "https://dc.lft.to/lastmile_qr_scan", "ios": "https://dc.lft.to/lastmile_qr_scan"}, "fusion_lon": 0.0, "lat": 38.9248725, "bike_id": "45131951f8fe139585fbe8362104f38c", "type": "electric_scooter", "is_reserved": 0, "lon": -77.02545133333334}, {"fusion_lat": 0.0, "name": "ea18d1bf0a9584362f6cbac6e4547c3f", "is_disabled": 0, "rental_uris": {"android": "https://dc.lft.to/lastmile_qr_scan", "ios": "https://dc.lft.to/lastmile_qr_scan"}, "fusion_lon": 0.0, "lat": 38.87660266666666, "bike_id": "ea18d1bf0a9584362f6cbac6e4547c3f", "type": "electric_scooter", "is_reserved": 0, "lon": -77.00917683333333}, {"fusion_lat": 0.0, "name": "eb3adf6cbf3d405ac1f11b0672c87e24", "is_disabled": 0, "rental_uris": {"android": "https://dc.lft.to/lastmile_qr_scan", "ios": "https://dc.lft.to/lastmile_qr_scan"}, "fusion_lon": 0.0, "lat": 38.93073583333333, "bike_id": "eb3adf6cbf3d405ac1f11b0672c87e24", "type": "electric_scooter", "is_reserved": 0, "lon": -77.02985683333333}, {"fusion_lat": 0.0, "name": "6304ae73cea63d2573d0a008d7e6db21", "is_disabled": 0, "rental_uris": {"android": "https://dc.lft.to/lastmile_qr_scan", "ios": "https://dc.lft.to/lastmile_qr_scan"}, "fusion_lon": 0.0, "lat": 38.93429166666667, "bike_id": "6304ae73cea63d2573d0a008d7e6db21", "type": "electric_scooter", "is_reserved": 0, "lon": -77.044266}, {"fusion_lat": 0.0, "name": "a37b9b7dacc774b061b602df6a1804e7", "is_disabled": 0, "rental_uris": {"android": "https://dc.lft.to/lastmile_qr_scan", "ios": "https://dc.lft.to/lastmile_qr_scan"}, "fusion_lon": 0.0, "lat": 38.93180733333333, "bike_id": "a37b9b7dacc774b061b602df6a1804e7", "type": "electric_scooter", "is_reserved": 0, "lon": -77.0341275}, {"fusion_lat": 0.0, "name": "d4450896533d09abb25abb23334743af", "is_disabled": 0, "rental_uris": {"android": "https://dc.lft.to/lastmile_qr_scan", "ios": "https://dc.lft.to/lastmile_qr_scan"}, "fusion_lon": 0.0, "lat": 38.905047, "bike_id": "d4450896533d09abb25abb23334743af", "type": "electric_scooter", "is_reserved": 0, "lon": -77.03444483333334}, {"fusion_lat": 0.0, "name": "b573eaeefd2559c420b45d447f51d158", "is_disabled": 0, "rental_uris": {"android": "https://dc.lft.to/lastmile_qr_scan", "ios": "https://dc.lft.to/lastmile_qr_scan"}, "fusion_lon": 0.0, "lat": 38.9318695, "bike_id": "b573eaeefd2559c420b45d447f51d158", "type": "electric_scooter", "is_reserved": 0, "lon": -77.04287866666667}, {"fusion_lat": 0.0, "name": "9eb0a2a61aa63a7a404b6aab03205824", "is_disabled": 0, "rental_uris": {"android": "https://dc.lft.to/lastmile_qr_scan", "ios": "https://dc.lft.to/lastmile_qr_scan"}, "fusion_lon": 0.0, "lat": 38.91713266666667, "bike_id": "9eb0a2a61aa63a7a404b6aab03205824", "type": "electric_scooter", "is_reserved": 0, "lon": -77.04127033333333}, {"fusion_lat": 0.0, "name": "9f2e13eebaf16bb42af75ce88be8f8f8", "is_disabled": 0, "rental_uris": {"android": "https://dc.lft.to/lastmile_qr_scan", "ios": "https://dc.lft.to/lastmile_qr_scan"}, "fusion_lon": 0.0, "lat": 38.9055675, "bike_id": "9f2e13eebaf16bb42af75ce88be8f8f8", "type": "electric_scooter", "is_reserved": 0, "lon": -77.013114}, {"fusion_lat": 0.0, "name": "41f3cc53918df81a58ae874970b2e15c", "is_disabled": 0, "rental_uris": {"android": "https://dc.lft.to/lastmile_qr_scan", "ios": "https://dc.lft.to/lastmile_qr_scan"}, "fusion_lon": 0.0, "lat": 38.896374, "bike_id": "41f3cc53918df81a58ae874970b2e15c", "type": "electric_scooter", "is_reserved": 0, "lon": -77.04658866666666}, {"fusion_lat": 0.0, "name": "0fc4bb8211b19081abdb2bbcb9a4315c", "is_disabled": 0, "rental_uris": {"android": "https://dc.lft.to/lastmile_qr_scan", "ios": "https://dc.lft.to/lastmile_qr_scan"}, "fusion_lon": 0.0, "lat": 38.903149166666665, "bike_id": "0fc4bb8211b19081abdb2bbcb9a4315c", "type": "electric_scooter", "is_reserved": 0, "lon": -77.06519}, {"fusion_lat": 0.0, "name": "027ab843044c8e0bb176d0e7b9a56986", "is_disabled": 0, "rental_uris": {"android": "https://dc.lft.to/lastmile_qr_scan", "ios": "https://dc.lft.to/lastmile_qr_scan"}, "fusion_lon": 0.0, "lat": 38.918042, "bike_id": "027ab843044c8e0bb176d0e7b9a56986", "type": "electric_scooter", "is_reserved": 0, "lon": -77.03442516666667}, {"fusion_lat": 0.0, "name": "82ede2b41d8f456a0ccdc537396ae9ea", "is_disabled": 0, "rental_uris": {"android": "https://dc.lft.to/lastmile_qr_scan", "ios": "https://dc.lft.to/lastmile_qr_scan"}, "fusion_lon": 0.0, "lat": 38.901906333333336, "bike_id": "82ede2b41d8f456a0ccdc537396ae9ea", "type": "electric_scooter", "is_reserved": 0, "lon": -77.0132745}, {"fusion_lat": 0.0, "name": "324f15e66486b3d39d72fa74b4f0bb6d", "is_disabled": 0, "rental_uris": {"android": "https://dc.lft.to/lastmile_qr_scan", "ios": "https://dc.lft.to/lastmile_qr_scan"}, "fusion_lon": 0.0, "lat": 38.88489333333333, "bike_id": "324f15e66486b3d39d72fa74b4f0bb6d", "type": "electric_scooter", "is_reserved": 0, "lon": -77.00712116666666}, {"fusion_lat": 0.0, "name": "286b64a19b9ea60a64410f45a51c8cc1", "is_disabled": 0, "rental_uris": {"android": "https://dc.lft.to/lastmile_qr_scan", "ios": "https://dc.lft.to/lastmile_qr_scan"}, "fusion_lon": 0.0, "lat": 38.86770883333333, "bike_id": "286b64a19b9ea60a64410f45a51c8cc1", "type": "electric_scooter", "is_reserved": 0, "lon": -76.98274033333334}, {"fusion_lat": 0.0, "name": "c4e2bb96391d8737c5121181dc351d15", "is_disabled": 0, "rental_uris": {"android": "https://dc.lft.to/lastmile_qr_scan", "ios": "https://dc.lft.to/lastmile_qr_scan"}, "fusion_lon": 0.0, "lat": 38.88903466666667, "bike_id": "c4e2bb96391d8737c5121181dc351d15", "type": "electric_scooter", "is_reserved": 0, "lon": -76.9774105}, {"fusion_lat": 0.0, "name": "66352ecc7e05d91912aa9cdbe0d855c7", "is_disabled": 0, "rental_uris": {"android": "https://dc.lft.to/lastmile_qr_scan", "ios": "https://dc.lft.to/lastmile_qr_scan"}, "fusion_lon": 0.0, "lat": 38.9125945, "bike_id": "66352ecc7e05d91912aa9cdbe0d855c7", "type": "electric_scooter", "is_reserved": 0, "lon": -77.0387155}, {"fusion_lat": 0.0, "name": "ad84ccb0a36a1e4bacd1eea19edf8ebd", "is_disabled": 0, "rental_uris": {"android": "https://dc.lft.to/lastmile_qr_scan", "ios": "https://dc.lft.to/lastmile_qr_scan"}, "fusion_lon": 0.0, "lat": 38.90587766666667, "bike_id": "ad84ccb0a36a1e4bacd1eea19edf8ebd", "type": "electric_scooter", "is_reserved": 0, "lon": -77.00319416666666}, {"fusion_lat": 0.0, "name": "2c318a270569fa642498cc53d709fd15", "is_disabled": 0, "rental_uris": {"android": "https://dc.lft.to/lastmile_qr_scan", "ios": "https://dc.lft.to/lastmile_qr_scan"}, "fusion_lon": 0.0, "lat": 38.91568633333333, "bike_id": "2c318a270569fa642498cc53d709fd15", "type": "electric_scooter", "is_reserved": 0, "lon": -77.03169483333333}, {"fusion_lat": 0.0, "name": "eae2706a96774e5607350b2a7c67aed0", "is_disabled": 0, "rental_uris": {"android": "https://dc.lft.to/lastmile_qr_scan", "ios": "https://dc.lft.to/lastmile_qr_scan"}, "fusion_lon": 0.0, "lat": 38.934662333333335, "bike_id": "eae2706a96774e5607350b2a7c67aed0", "type": "electric_scooter", "is_reserved": 0, "lon": -77.05781366666666}, {"fusion_lat": 0.0, "name": "34b1f13cfdcde525d762979be49fdd05", "is_disabled": 0, "rental_uris": {"android": "https://dc.lft.to/lastmile_qr_scan", "ios": "https://dc.lft.to/lastmile_qr_scan"}, "fusion_lon": 0.0, "lat": 38.92104483333333, "bike_id": "34b1f13cfdcde525d762979be49fdd05", "type": "electric_scooter", "is_reserved": 0, "lon": -77.0467165}, {"fusion_lat": 0.0, "name": "1ff0524507fd7464aefe7e433ea2693a", "is_disabled": 0, "rental_uris": {"android": "https://dc.lft.to/lastmile_qr_scan", "ios": "https://dc.lft.to/lastmile_qr_scan"}, "fusion_lon": 0.0, "lat": 38.91667283333334, "bike_id": "1ff0524507fd7464aefe7e433ea2693a", "type": "electric_scooter", "is_reserved": 0, "lon": -77.04196666666667}, {"fusion_lat": 0.0, "name": "b8f6521bfb81e8dd250d393ee6e6efca", "is_disabled": 0, "rental_uris": {"android": "https://dc.lft.to/lastmile_qr_scan", "ios": "https://dc.lft.to/lastmile_qr_scan"}, "fusion_lon": 0.0, "lat": 38.9155055, "bike_id": "b8f6521bfb81e8dd250d393ee6e6efca", "type": "electric_scooter", "is_reserved": 0, "lon": -77.03851633333333}, {"fusion_lat": 0.0, "name": "09ad467832776f5b1a36abadbc62db92", "is_disabled": 0, "rental_uris": {"android": "https://dc.lft.to/lastmile_qr_scan", "ios": "https://dc.lft.to/lastmile_qr_scan"}, "fusion_lon": 0.0, "lat": 38.91228383333333, "bike_id": "09ad467832776f5b1a36abadbc62db92", "type": "electric_scooter", "is_reserved": 0, "lon": -77.04878316666667}, {"fusion_lat": 0.0, "name": "eca97b70903fc86c541a8f1f0c4c0fd0", "is_disabled": 0, "rental_uris": {"android": "https://dc.lft.to/lastmile_qr_scan", "ios": "https://dc.lft.to/lastmile_qr_scan"}, "fusion_lon": 0.0, "lat": 38.92458, "bike_id": "eca97b70903fc86c541a8f1f0c4c0fd0", "type": "electric_scooter", "is_reserved": 0, "lon": -77.02409866666666}, {"fusion_lat": 0.0, "name": "f46af459fc006bc0788fd28b58b589f6", "is_disabled": 0, "rental_uris": {"android": "https://dc.lft.to/lastmile_qr_scan", "ios": "https://dc.lft.to/lastmile_qr_scan"}, "fusion_lon": 0.0, "lat": 38.933653666666665, "bike_id": "f46af459fc006bc0788fd28b58b589f6", "type": "electric_scooter", "is_reserved": 0, "lon": -77.0307945}, {"fusion_lat": 0.0, "name": "4a9610cdc2e17571a16e8b25cb49a5ab", "is_disabled": 0, "rental_uris": {"android": "https://dc.lft.to/lastmile_qr_scan", "ios": "https://dc.lft.to/lastmile_qr_scan"}, "fusion_lon": 0.0, "lat": 38.909013, "bike_id": "4a9610cdc2e17571a16e8b25cb49a5ab", "type": "electric_scooter", "is_reserved": 0, "lon": -77.04389883333333}, {"fusion_lat": 0.0, "name": "4076ad5a13bda82c65a3c9dc860a55b6", "is_disabled": 0, "rental_uris": {"android": "https://dc.lft.to/lastmile_qr_scan", "ios": "https://dc.lft.to/lastmile_qr_scan"}, "fusion_lon": 0.0, "lat": 38.90119, "bike_id": "4076ad5a13bda82c65a3c9dc860a55b6", "type": "electric_scooter", "is_reserved": 0, "lon": -77.038494}, {"fusion_lat": 0.0, "name": "0c063af69b81ef020f0b0f650d385b1c", "is_disabled": 0, "rental_uris": {"android": "https://dc.lft.to/lastmile_qr_scan", "ios": "https://dc.lft.to/lastmile_qr_scan"}, "fusion_lon": 0.0, "lat": 38.935456333333335, "bike_id": "0c063af69b81ef020f0b0f650d385b1c", "type": "electric_scooter", "is_reserved": 0, "lon": -77.023463}, {"fusion_lat": 0.0, "name": "2de1168119b3e8fd7d12d623078369bd", "is_disabled": 0, "rental_uris": {"android": "https://dc.lft.to/lastmile_qr_scan", "ios": "https://dc.lft.to/lastmile_qr_scan"}, "fusion_lon": 0.0, "lat": 38.91821566666667, "bike_id": "2de1168119b3e8fd7d12d623078369bd", "type": "electric_scooter", "is_reserved": 0, "lon": -77.03274466666667}, {"fusion_lat": 0.0, "name": "d5d01c304edfb38aed65ae0df0ea2008", "is_disabled": 0, "rental_uris": {"android": "https://dc.lft.to/lastmile_qr_scan", "ios": "https://dc.lft.to/lastmile_qr_scan"}, "fusion_lon": 0.0, "lat": 38.89728, "bike_id": "d5d01c304edfb38aed65ae0df0ea2008", "type": "electric_scooter", "is_reserved": 0, "lon": -77.03969033333334}, {"fusion_lat": 0.0, "name": "a68b1c839ab35f8421313cb5d3d56a50", "is_disabled": 0, "rental_uris": {"android": "https://dc.lft.to/lastmile_qr_scan", "ios": "https://dc.lft.to/lastmile_qr_scan"}, "fusion_lon": 0.0, "lat": 38.914728333333336, "bike_id": "a68b1c839ab35f8421313cb5d3d56a50", "type": "electric_scooter", "is_reserved": 0, "lon": -77.03855883333334}, {"fusion_lat": 0.0, "name": "8e1095dc25067676696efb07d38d1060", "is_disabled": 0, "rental_uris": {"android": "https://dc.lft.to/lastmile_qr_scan", "ios": "https://dc.lft.to/lastmile_qr_scan"}, "fusion_lon": 0.0, "lat": 38.919169, "bike_id": "8e1095dc25067676696efb07d38d1060", "type": "electric_scooter", "is_reserved": 0, "lon": -77.03311433333333}, {"fusion_lat": 0.0, "name": "6fee98e945cb164de39c0dd51735734f", "is_disabled": 0, "rental_uris": {"android": "https://dc.lft.to/lastmile_qr_scan", "ios": "https://dc.lft.to/lastmile_qr_scan"}, "fusion_lon": 0.0, "lat": 38.842779, "bike_id": "6fee98e945cb164de39c0dd51735734f", "type": "electric_bike", "is_reserved": 0, "lon": -76.98844333333334}, {"fusion_lat": 0.0, "name": "087bd349cd0e726648636df1fd1a113b", "is_disabled": 0, "rental_uris": {"android": "https://dc.lft.to/lastmile_qr_scan", "ios": "https://dc.lft.to/lastmile_qr_scan"}, "fusion_lon": 0.0, "lat": 38.8739635, "bike_id": "087bd349cd0e726648636df1fd1a113b", "type": "electric_scooter", "is_reserved": 0, "lon": -77.00046333333333}, {"fusion_lat": 0.0, "name": "e8becabaa814aebf329f55c5fcfa62fe", "is_disabled": 0, "rental_uris": {"android": "https://dc.lft.to/lastmile_qr_scan", "ios": "https://dc.lft.to/lastmile_qr_scan"}, "fusion_lon": 0.0, "lat": 39.070565333333334, "bike_id": "e8becabaa814aebf329f55c5fcfa62fe", "type": "electric_bike", "is_reserved": 0, "lon": -77.11483783333334}, {"fusion_lat": 0.0, "name": "d419e84b351bcc744d129480a8f5506a", "is_disabled": 0, "rental_uris": {"android": "https://dc.lft.to/lastmile_qr_scan", "ios": "https://dc.lft.to/lastmile_qr_scan"}, "fusion_lon": 0.0, "lat": 38.945342, "bike_id": "d419e84b351bcc744d129480a8f5506a", "type": "electric_scooter", "is_reserved": 0, "lon": -77.02534566666667}, {"fusion_lat": 0.0, "name": "c899db736540f3d18afb1ee60a4c59ff", "is_disabled": 0, "rental_uris": {"android": "https://dc.lft.to/lastmile_qr_scan", "ios": "https://dc.lft.to/lastmile_qr_scan"}, "fusion_lon": 0.0, "lat": 38.92196466666667, "bike_id": "c899db736540f3d18afb1ee60a4c59ff", "type": "electric_scooter", "is_reserved": 0, "lon": -76.9976605}, {"fusion_lat": 0.0, "name": "91384e28ed4841d59e986911e7a7161c", "is_disabled": 0, "rental_uris": {"android": "https://dc.lft.to/lastmile_qr_scan", "ios": "https://dc.lft.to/lastmile_qr_scan"}, "fusion_lon": 0.0, "lat": 38.90590516666666, "bike_id": "91384e28ed4841d59e986911e7a7161c", "type": "electric_scooter", "is_reserved": 0, "lon": -77.00760833333334}, {"fusion_lat": 0.0, "name": "2ea691c20d9fdd704b07ee7ad07d64fc", "is_disabled": 0, "rental_uris": {"android": "https://dc.lft.to/lastmile_qr_scan", "ios": "https://dc.lft.to/lastmile_qr_scan"}, "fusion_lon": 0.0, "lat": 38.88299833333333, "bike_id": "2ea691c20d9fdd704b07ee7ad07d64fc", "type": "electric_scooter", "is_reserved": 0, "lon": -76.94857283333333}, {"fusion_lat": 0.0, "name": "16f3feb18e0f5757ab3c91e29d35a5c5", "is_disabled": 0, "rental_uris": {"android": "https://dc.lft.to/lastmile_qr_scan", "ios": "https://dc.lft.to/lastmile_qr_scan"}, "fusion_lon": 0.0, "lat": 38.904559166666665, "bike_id": "16f3feb18e0f5757ab3c91e29d35a5c5", "type": "electric_scooter", "is_reserved": 0, "lon": -77.06276966666667}, {"fusion_lat": 0.0, "name": "33ccd21914a543fe56788205655a24d9", "is_disabled": 0, "rental_uris": {"android": "https://dc.lft.to/lastmile_qr_scan", "ios": "https://dc.lft.to/lastmile_qr_scan"}, "fusion_lon": 0.0, "lat": 38.909787666666666, "bike_id": "33ccd21914a543fe56788205655a24d9", "type": "electric_scooter", "is_reserved": 0, "lon": -77.00886666666666}, {"fusion_lat": 0.0, "name": "39a56b4506b0b1ce055e41621bf80571", "is_disabled": 0, "rental_uris": {"android": "https://dc.lft.to/lastmile_qr_scan", "ios": "https://dc.lft.to/lastmile_qr_scan"}, "fusion_lon": 0.0, "lat": 38.915519833333335, "bike_id": "39a56b4506b0b1ce055e41621bf80571", "type": "electric_scooter", "is_reserved": 0, "lon": -77.01206466666666}, {"fusion_lat": 0.0, "name": "91ca738ffbd3723fdaed05c9af59eec8", "is_disabled": 0, "rental_uris": {"android": "https://dc.lft.to/lastmile_qr_scan", "ios": "https://dc.lft.to/lastmile_qr_scan"}, "fusion_lon": 0.0, "lat": 38.85455816666666, "bike_id": "91ca738ffbd3723fdaed05c9af59eec8", "type": "electric_scooter", "is_reserved": 0, "lon": -76.97222233333333}, {"fusion_lat": 0.0, "name": "9af5b28dccfd1e7c3dd190b4ed9e8631", "is_disabled": 0, "rental_uris": {"android": "https://dc.lft.to/lastmile_qr_scan", "ios": "https://dc.lft.to/lastmile_qr_scan"}, "fusion_lon": 0.0, "lat": 38.9057775, "bike_id": "9af5b28dccfd1e7c3dd190b4ed9e8631", "type": "electric_scooter", "is_reserved": 0, "lon": -77.02029083333333}, {"fusion_lat": 0.0, "name": "a54dab876cd469d64f7ceee2061317e7", "is_disabled": 0, "rental_uris": {"android": "https://dc.lft.to/lastmile_qr_scan", "ios": "https://dc.lft.to/lastmile_qr_scan"}, "fusion_lon": 0.0, "lat": 38.906285, "bike_id": "a54dab876cd469d64f7ceee2061317e7", "type": "electric_scooter", "is_reserved": 0, "lon": -77.00569983333334}, {"fusion_lat": 0.0, "name": "d2f98b98dab9bdf4067f624004fe9501", "is_disabled": 0, "rental_uris": {"android": "https://dc.lft.to/lastmile_qr_scan", "ios": "https://dc.lft.to/lastmile_qr_scan"}, "fusion_lon": 0.0, "lat": 38.8861315, "bike_id": "d2f98b98dab9bdf4067f624004fe9501", "type": "electric_scooter", "is_reserved": 0, "lon": -77.01560716666667}, {"fusion_lat": 0.0, "name": "78ada097b0a8714b9dd71f2b4f20268b", "is_disabled": 0, "rental_uris": {"android": "https://dc.lft.to/lastmile_qr_scan", "ios": "https://dc.lft.to/lastmile_qr_scan"}, "fusion_lon": 0.0, "lat": 38.92852533333333, "bike_id": "78ada097b0a8714b9dd71f2b4f20268b", "type": "electric_scooter", "is_reserved": 0, "lon": -77.02440916666667}, {"fusion_lat": 0.0, "name": "6f17c70697fe558f95709dd33e6e7463", "is_disabled": 0, "rental_uris": {"android": "https://dc.lft.to/lastmile_qr_scan", "ios": "https://dc.lft.to/lastmile_qr_scan"}, "fusion_lon": 0.0, "lat": 38.9637605, "bike_id": "6f17c70697fe558f95709dd33e6e7463", "type": "electric_scooter", "is_reserved": 0, "lon": -77.02058383333333}, {"fusion_lat": 0.0, "name": "1569ff84302f43493e2ac496fc9912ea", "is_disabled": 0, "rental_uris": {"android": "https://dc.lft.to/lastmile_qr_scan", "ios": "https://dc.lft.to/lastmile_qr_scan"}, "fusion_lon": 0.0, "lat": 38.921156333333336, "bike_id": "1569ff84302f43493e2ac496fc9912ea", "type": "electric_scooter", "is_reserved": 0, "lon": -77.04389333333333}, {"fusion_lat": 0.0, "name": "05563a2d1909e1a4f131f94e2f3b2e41", "is_disabled": 0, "rental_uris": {"android": "https://dc.lft.to/lastmile_qr_scan", "ios": "https://dc.lft.to/lastmile_qr_scan"}, "fusion_lon": 0.0, "lat": 38.89230966666667, "bike_id": "05563a2d1909e1a4f131f94e2f3b2e41", "type": "electric_scooter", "is_reserved": 0, "lon": -77.01712716666667}, {"fusion_lat": 0.0, "name": "66fa25d5599df9f563fb9d1a939f6d04", "is_disabled": 0, "rental_uris": {"android": "https://dc.lft.to/lastmile_qr_scan", "ios": "https://dc.lft.to/lastmile_qr_scan"}, "fusion_lon": 0.0, "lat": 38.906928666666666, "bike_id": "66fa25d5599df9f563fb9d1a939f6d04", "type": "electric_scooter", "is_reserved": 0, "lon": -76.9850875}, {"fusion_lat": 0.0, "name": "c5ba2785896ca2defaf45e5cb4b15080", "is_disabled": 0, "rental_uris": {"android": "https://dc.lft.to/lastmile_qr_scan", "ios": "https://dc.lft.to/lastmile_qr_scan"}, "fusion_lon": 0.0, "lat": 38.921402, "bike_id": "c5ba2785896ca2defaf45e5cb4b15080", "type": "electric_scooter", "is_reserved": 0, "lon": -77.00960783333333}, {"fusion_lat": 0.0, "name": "d864873871d8ea6f994fd645ec641181", "is_disabled": 0, "rental_uris": {"android": "https://dc.lft.to/lastmile_qr_scan", "ios": "https://dc.lft.to/lastmile_qr_scan"}, "fusion_lon": 0.0, "lat": 38.887711333333336, "bike_id": "d864873871d8ea6f994fd645ec641181", "type": "electric_scooter", "is_reserved": 0, "lon": -76.97749516666667}, {"fusion_lat": 0.0, "name": "dcf41af7f1dee6f52ec6968453f0a4a7", "is_disabled": 0, "rental_uris": {"android": "https://dc.lft.to/lastmile_qr_scan", "ios": "https://dc.lft.to/lastmile_qr_scan"}, "fusion_lon": 0.0, "lat": 38.90051066666667, "bike_id": "dcf41af7f1dee6f52ec6968453f0a4a7", "type": "electric_scooter", "is_reserved": 0, "lon": -77.0188535}, {"fusion_lat": 0.0, "name": "35d6900b5b74cf74aaae88a8dfff2572", "is_disabled": 0, "rental_uris": {"android": "https://dc.lft.to/lastmile_qr_scan", "ios": "https://dc.lft.to/lastmile_qr_scan"}, "fusion_lon": 0.0, "lat": 38.89641233333333, "bike_id": "35d6900b5b74cf74aaae88a8dfff2572", "type": "electric_scooter", "is_reserved": 0, "lon": -77.009217}, {"fusion_lat": 0.0, "name": "131b2c53bb73de705d2b30e50644d0a5", "is_disabled": 0, "rental_uris": {"android": "https://dc.lft.to/lastmile_qr_scan", "ios": "https://dc.lft.to/lastmile_qr_scan"}, "fusion_lon": 0.0, "lat": 38.89525533333333, "bike_id": "131b2c53bb73de705d2b30e50644d0a5", "type": "electric_scooter", "is_reserved": 0, "lon": -77.01185733333334}, {"fusion_lat": 0.0, "name": "cd854bffbd87f83b1768b055bcfcd9b1", "is_disabled": 0, "rental_uris": {"android": "https://dc.lft.to/lastmile_qr_scan", "ios": "https://dc.lft.to/lastmile_qr_scan"}, "fusion_lon": 0.0, "lat": 38.9252065, "bike_id": "cd854bffbd87f83b1768b055bcfcd9b1", "type": "electric_scooter", "is_reserved": 0, "lon": -76.99565783333334}, {"fusion_lat": 0.0, "name": "c90faa770741dee357a29f64bf02a953", "is_disabled": 0, "rental_uris": {"android": "https://dc.lft.to/lastmile_qr_scan", "ios": "https://dc.lft.to/lastmile_qr_scan"}, "fusion_lon": 0.0, "lat": 38.89067216666667, "bike_id": "c90faa770741dee357a29f64bf02a953", "type": "electric_scooter", "is_reserved": 0, "lon": -76.94456966666667}, {"fusion_lat": 0.0, "name": "f0ca1a0f69929b2327bc7044716d415d", "is_disabled": 0, "rental_uris": {"android": "https://dc.lft.to/lastmile_qr_scan", "ios": "https://dc.lft.to/lastmile_qr_scan"}, "fusion_lon": 0.0, "lat": 38.87551933333334, "bike_id": "f0ca1a0f69929b2327bc7044716d415d", "type": "electric_scooter", "is_reserved": 0, "lon": -77.00565616666667}, {"fusion_lat": 0.0, "name": "887ce6684527c7914427695b3c005842", "is_disabled": 0, "rental_uris": {"android": "https://dc.lft.to/lastmile_qr_scan", "ios": "https://dc.lft.to/lastmile_qr_scan"}, "fusion_lon": 0.0, "lat": 38.913997333333334, "bike_id": "887ce6684527c7914427695b3c005842", "type": "electric_scooter", "is_reserved": 0, "lon": -77.03322783333333}, {"fusion_lat": 0.0, "name": "4580d757f0ca1a9970118c6fb501fb0b", "is_disabled": 0, "rental_uris": {"android": "https://dc.lft.to/lastmile_qr_scan", "ios": "https://dc.lft.to/lastmile_qr_scan"}, "fusion_lon": 0.0, "lat": 38.90763616666667, "bike_id": "4580d757f0ca1a9970118c6fb501fb0b", "type": "electric_scooter", "is_reserved": 0, "lon": -77.03848533333333}, {"fusion_lat": 0.0, "name": "543a8f7db2efdd8d700bc6b1badf8e44", "is_disabled": 0, "rental_uris": {"android": "https://dc.lft.to/lastmile_qr_scan", "ios": "https://dc.lft.to/lastmile_qr_scan"}, "fusion_lon": 0.0, "lat": 38.9167945, "bike_id": "543a8f7db2efdd8d700bc6b1badf8e44", "type": "electric_scooter", "is_reserved": 0, "lon": -77.03213566666666}, {"fusion_lat": 0.0, "name": "a9ecdc172b5fade85186fa0e93e1184e", "is_disabled": 0, "rental_uris": {"android": "https://dc.lft.to/lastmile_qr_scan", "ios": "https://dc.lft.to/lastmile_qr_scan"}, "fusion_lon": 0.0, "lat": 38.90125466666667, "bike_id": "a9ecdc172b5fade85186fa0e93e1184e", "type": "electric_scooter", "is_reserved": 0, "lon": -77.0025285}, {"fusion_lat": 0.0, "name": "300277f0e72532cc7762f30c53b78a07", "is_disabled": 0, "rental_uris": {"android": "https://dc.lft.to/lastmile_qr_scan", "ios": "https://dc.lft.to/lastmile_qr_scan"}, "fusion_lon": 0.0, "lat": 38.891721833333335, "bike_id": "300277f0e72532cc7762f30c53b78a07", "type": "electric_scooter", "is_reserved": 0, "lon": -76.99459366666666}, {"fusion_lat": 0.0, "name": "c41656fca713fbddab933206578ecb29", "is_disabled": 0, "rental_uris": {"android": "https://dc.lft.to/lastmile_qr_scan", "ios": "https://dc.lft.to/lastmile_qr_scan"}, "fusion_lon": 0.0, "lat": 38.93197883333333, "bike_id": "c41656fca713fbddab933206578ecb29", "type": "electric_scooter", "is_reserved": 0, "lon": -77.028001}, {"fusion_lat": 0.0, "name": "02e2b08e3cc29a1276787d044b01da5e", "is_disabled": 0, "rental_uris": {"android": "https://dc.lft.to/lastmile_qr_scan", "ios": "https://dc.lft.to/lastmile_qr_scan"}, "fusion_lon": 0.0, "lat": 38.8925025, "bike_id": "02e2b08e3cc29a1276787d044b01da5e", "type": "electric_scooter", "is_reserved": 0, "lon": -77.0464725}, {"fusion_lat": 0.0, "name": "33199b0840545d3687bafb20aaa56c91", "is_disabled": 0, "rental_uris": {"android": "https://dc.lft.to/lastmile_qr_scan", "ios": "https://dc.lft.to/lastmile_qr_scan"}, "fusion_lon": 0.0, "lat": 38.908409, "bike_id": "33199b0840545d3687bafb20aaa56c91", "type": "electric_scooter", "is_reserved": 0, "lon": -77.03290066666666}, {"fusion_lat": 0.0, "name": "0ab959baef2154a60f998e1bd1636e96", "is_disabled": 0, "rental_uris": {"android": "https://dc.lft.to/lastmile_qr_scan", "ios": "https://dc.lft.to/lastmile_qr_scan"}, "fusion_lon": 0.0, "lat": 38.89829, "bike_id": "0ab959baef2154a60f998e1bd1636e96", "type": "electric_scooter", "is_reserved": 0, "lon": -77.0465055}, {"fusion_lat": 0.0, "name": "3d891fcc2605669606b126ddbeb56839", "is_disabled": 0, "rental_uris": {"android": "https://dc.lft.to/lastmile_qr_scan", "ios": "https://dc.lft.to/lastmile_qr_scan"}, "fusion_lon": 0.0, "lat": 38.85600483333333, "bike_id": "3d891fcc2605669606b126ddbeb56839", "type": "electric_scooter", "is_reserved": 0, "lon": -76.9727345}, {"fusion_lat": 0.0, "name": "88dc0a2f8f0fea4c2a0396263a385492", "is_disabled": 0, "rental_uris": {"android": "https://dc.lft.to/lastmile_qr_scan", "ios": "https://dc.lft.to/lastmile_qr_scan"}, "fusion_lon": 0.0, "lat": 38.92137666666667, "bike_id": "88dc0a2f8f0fea4c2a0396263a385492", "type": "electric_scooter", "is_reserved": 0, "lon": -77.02537383333333}, {"fusion_lat": 0.0, "name": "8da1fca0e58e2b2571febbd21be872bd", "is_disabled": 0, "rental_uris": {"android": "https://dc.lft.to/lastmile_qr_scan", "ios": "https://dc.lft.to/lastmile_qr_scan"}, "fusion_lon": 0.0, "lat": 38.949753333333334, "bike_id": "8da1fca0e58e2b2571febbd21be872bd", "type": "electric_scooter", "is_reserved": 0, "lon": -77.06644433333334}, {"fusion_lat": 0.0, "name": "410b92975d622a453868de2acf798be9", "is_disabled": 0, "rental_uris": {"android": "https://dc.lft.to/lastmile_qr_scan", "ios": "https://dc.lft.to/lastmile_qr_scan"}, "fusion_lon": 0.0, "lat": 38.915517666666666, "bike_id": "410b92975d622a453868de2acf798be9", "type": "electric_scooter", "is_reserved": 0, "lon": -77.0347645}, {"fusion_lat": 0.0, "name": "88a86b96e72e45cea52cb86dbe53fb93", "is_disabled": 0, "rental_uris": {"android": "https://dc.lft.to/lastmile_qr_scan", "ios": "https://dc.lft.to/lastmile_qr_scan"}, "fusion_lon": 0.0, "lat": 38.8663105, "bike_id": "88a86b96e72e45cea52cb86dbe53fb93", "type": "electric_scooter", "is_reserved": 0, "lon": -76.98717066666667}, {"fusion_lat": 0.0, "name": "3ea6707c2fe80d3514473107d77dc562", "is_disabled": 0, "rental_uris": {"android": "https://dc.lft.to/lastmile_qr_scan", "ios": "https://dc.lft.to/lastmile_qr_scan"}, "fusion_lon": 0.0, "lat": 38.89791133333333, "bike_id": "3ea6707c2fe80d3514473107d77dc562", "type": "electric_bike", "is_reserved": 0, "lon": -76.999633}, {"fusion_lat": 0.0, "name": "f0a1df33e8f23a99418c4ee7186c5e00", "is_disabled": 0, "rental_uris": {"android": "https://dc.lft.to/lastmile_qr_scan", "ios": "https://dc.lft.to/lastmile_qr_scan"}, "fusion_lon": 0.0, "lat": 38.81977, "bike_id": "f0a1df33e8f23a99418c4ee7186c5e00", "type": "electric_bike", "is_reserved": 0, "lon": -76.99808933333334}, {"fusion_lat": 0.0, "name": "62b9c0458affb123e68e85ffd6c2d302", "is_disabled": 0, "rental_uris": {"android": "https://dc.lft.to/lastmile_qr_scan", "ios": "https://dc.lft.to/lastmile_qr_scan"}, "fusion_lon": 0.0, "lat": 38.9505885, "bike_id": "62b9c0458affb123e68e85ffd6c2d302", "type": "electric_scooter", "is_reserved": 0, "lon": -77.08024933333333}, {"fusion_lat": 0.0, "name": "64c28ebfa20f711308255fb0ff49ce64", "is_disabled": 0, "rental_uris": {"android": "https://dc.lft.to/lastmile_qr_scan", "ios": "https://dc.lft.to/lastmile_qr_scan"}, "fusion_lon": 0.0, "lat": 38.87679466666667, "bike_id": "64c28ebfa20f711308255fb0ff49ce64", "type": "electric_bike", "is_reserved": 0, "lon": -77.0146255}, {"fusion_lat": 0.0, "name": "f50dd80c9fc5141eae2c67757f31a6f0", "is_disabled": 0, "rental_uris": {"android": "https://dc.lft.to/lastmile_qr_scan", "ios": "https://dc.lft.to/lastmile_qr_scan"}, "fusion_lon": 0.0, "lat": 38.903070666666665, "bike_id": "f50dd80c9fc5141eae2c67757f31a6f0", "type": "electric_scooter", "is_reserved": 0, "lon": -77.06031116666666}, {"fusion_lat": 0.0, "name": "e086df0f76ae734c2b854e692f8be10a", "is_disabled": 0, "rental_uris": {"android": "https://dc.lft.to/lastmile_qr_scan", "ios": "https://dc.lft.to/lastmile_qr_scan"}, "fusion_lon": 0.0, "lat": 38.93733983333333, "bike_id": "e086df0f76ae734c2b854e692f8be10a", "type": "electric_scooter", "is_reserved": 0, "lon": -77.024433}, {"fusion_lat": 0.0, "name": "26acb78916327d5c172af8dfb9013a2c", "is_disabled": 0, "rental_uris": {"android": "https://dc.lft.to/lastmile_qr_scan", "ios": "https://dc.lft.to/lastmile_qr_scan"}, "fusion_lon": 0.0, "lat": 38.9317515, "bike_id": "26acb78916327d5c172af8dfb9013a2c", "type": "electric_scooter", "is_reserved": 0, "lon": -77.03635466666667}, {"fusion_lat": 0.0, "name": "2c21060da53652fc53860e9139afcb7e", "is_disabled": 0, "rental_uris": {"android": "https://dc.lft.to/lastmile_qr_scan", "ios": "https://dc.lft.to/lastmile_qr_scan"}, "fusion_lon": 0.0, "lat": 38.919305666666666, "bike_id": "2c21060da53652fc53860e9139afcb7e", "type": "electric_scooter", "is_reserved": 0, "lon": -77.03422983333333}, {"fusion_lat": 0.0, "name": "1d80163fedbae488fb686e75cc396e39", "is_disabled": 0, "rental_uris": {"android": "https://dc.lft.to/lastmile_qr_scan", "ios": "https://dc.lft.to/lastmile_qr_scan"}, "fusion_lon": 0.0, "lat": 38.91754483333333, "bike_id": "1d80163fedbae488fb686e75cc396e39", "type": "electric_scooter", "is_reserved": 0, "lon": -77.031866}, {"fusion_lat": 0.0, "name": "a607216501ecbe0438dbc61936b79bf8", "is_disabled": 0, "rental_uris": {"android": "https://dc.lft.to/lastmile_qr_scan", "ios": "https://dc.lft.to/lastmile_qr_scan"}, "fusion_lon": 0.0, "lat": 38.876381333333335, "bike_id": "a607216501ecbe0438dbc61936b79bf8", "type": "electric_scooter", "is_reserved": 0, "lon": -77.00653416666667}, {"fusion_lat": 0.0, "name": "506127600856bca06c5fd2d8b1045432", "is_disabled": 0, "rental_uris": {"android": "https://dc.lft.to/lastmile_qr_scan", "ios": "https://dc.lft.to/lastmile_qr_scan"}, "fusion_lon": 0.0, "lat": 38.908887, "bike_id": "506127600856bca06c5fd2d8b1045432", "type": "electric_scooter", "is_reserved": 0, "lon": -77.00315666666667}, {"fusion_lat": 0.0, "name": "ecb9470e31cdd830f81cd70b5aa712b4", "is_disabled": 0, "rental_uris": {"android": "https://dc.lft.to/lastmile_qr_scan", "ios": "https://dc.lft.to/lastmile_qr_scan"}, "fusion_lon": 0.0, "lat": 38.95311516666666, "bike_id": "ecb9470e31cdd830f81cd70b5aa712b4", "type": "electric_bike", "is_reserved": 0, "lon": -77.00053833333334}, {"fusion_lat": 0.0, "name": "3b5528fa6d56bf3f8755d628f39d9c57", "is_disabled": 0, "rental_uris": {"android": "https://dc.lft.to/lastmile_qr_scan", "ios": "https://dc.lft.to/lastmile_qr_scan"}, "fusion_lon": 0.0, "lat": 38.898453, "bike_id": "3b5528fa6d56bf3f8755d628f39d9c57", "type": "electric_scooter", "is_reserved": 0, "lon": -77.03161916666667}, {"fusion_lat": 0.0, "name": "83cb93b81d919d2204977c0b65491c30", "is_disabled": 0, "rental_uris": {"android": "https://dc.lft.to/lastmile_qr_scan", "ios": "https://dc.lft.to/lastmile_qr_scan"}, "fusion_lon": 0.0, "lat": 38.94295283333334, "bike_id": "83cb93b81d919d2204977c0b65491c30", "type": "electric_scooter", "is_reserved": 0, "lon": -77.021709}, {"fusion_lat": 0.0, "name": "f2eb4d908bdba3cc830a63d8564ce088", "is_disabled": 0, "rental_uris": {"android": "https://dc.lft.to/lastmile_qr_scan", "ios": "https://dc.lft.to/lastmile_qr_scan"}, "fusion_lon": 0.0, "lat": 38.92399366666667, "bike_id": "f2eb4d908bdba3cc830a63d8564ce088", "type": "electric_scooter", "is_reserved": 0, "lon": -77.04317916666666}, {"fusion_lat": 0.0, "name": "81e54dfd3663af4138c84afcefd52946", "is_disabled": 0, "rental_uris": {"android": "https://dc.lft.to/lastmile_qr_scan", "ios": "https://dc.lft.to/lastmile_qr_scan"}, "fusion_lon": 0.0, "lat": 38.909539, "bike_id": "81e54dfd3663af4138c84afcefd52946", "type": "electric_scooter", "is_reserved": 0, "lon": -76.98541133333333}, {"fusion_lat": 0.0, "name": "dbc1df7c35e234ad3480d106e8a37d44", "is_disabled": 0, "rental_uris": {"android": "https://dc.lft.to/lastmile_qr_scan", "ios": "https://dc.lft.to/lastmile_qr_scan"}, "fusion_lon": 0.0, "lat": 38.93123816666667, "bike_id": "dbc1df7c35e234ad3480d106e8a37d44", "type": "electric_scooter", "is_reserved": 0, "lon": -76.98441166666667}, {"fusion_lat": 0.0, "name": "90bc9ad92fa3decbdfe65921dfb22d17", "is_disabled": 0, "rental_uris": {"android": "https://dc.lft.to/lastmile_qr_scan", "ios": "https://dc.lft.to/lastmile_qr_scan"}, "fusion_lon": 0.0, "lat": 38.91881566666667, "bike_id": "90bc9ad92fa3decbdfe65921dfb22d17", "type": "electric_scooter", "is_reserved": 0, "lon": -77.02443733333334}, {"fusion_lat": 0.0, "name": "0bcddd9fdb8b10cbde437533ced8239d", "is_disabled": 0, "rental_uris": {"android": "https://dc.lft.to/lastmile_qr_scan", "ios": "https://dc.lft.to/lastmile_qr_scan"}, "fusion_lon": 0.0, "lat": 38.897529, "bike_id": "0bcddd9fdb8b10cbde437533ced8239d", "type": "electric_scooter", "is_reserved": 0, "lon": -77.02376183333334}, {"fusion_lat": 0.0, "name": "03c5ff82782212866dd8dcee0715465f", "is_disabled": 0, "rental_uris": {"android": "https://dc.lft.to/lastmile_qr_scan", "ios": "https://dc.lft.to/lastmile_qr_scan"}, "fusion_lon": 0.0, "lat": 38.90961716666666, "bike_id": "03c5ff82782212866dd8dcee0715465f", "type": "electric_scooter", "is_reserved": 0, "lon": -77.03849166666667}, {"fusion_lat": 0.0, "name": "5ef8c17c9613d9131fd6c7b1276d1060", "is_disabled": 0, "rental_uris": {"android": "https://dc.lft.to/lastmile_qr_scan", "ios": "https://dc.lft.to/lastmile_qr_scan"}, "fusion_lon": 0.0, "lat": 38.841288, "bike_id": "5ef8c17c9613d9131fd6c7b1276d1060", "type": "electric_bike", "is_reserved": 0, "lon": -77.063094}, {"fusion_lat": 0.0, "name": "0b4bd3d1185b3036139a4467a049f811", "is_disabled": 0, "rental_uris": {"android": "https://dc.lft.to/lastmile_qr_scan", "ios": "https://dc.lft.to/lastmile_qr_scan"}, "fusion_lon": 0.0, "lat": 38.911570166666664, "bike_id": "0b4bd3d1185b3036139a4467a049f811", "type": "electric_scooter", "is_reserved": 0, "lon": -77.01627033333334}, {"fusion_lat": 0.0, "name": "3cd0ea7c7b781d36ae4104487ad6ac8f", "is_disabled": 0, "rental_uris": {"android": "https://dc.lft.to/lastmile_qr_scan", "ios": "https://dc.lft.to/lastmile_qr_scan"}, "fusion_lon": 0.0, "lat": 38.90637, "bike_id": "3cd0ea7c7b781d36ae4104487ad6ac8f", "type": "electric_scooter", "is_reserved": 0, "lon": -77.0058535}, {"fusion_lat": 0.0, "name": "a28b221de1c953430696ff4863c9da2c", "is_disabled": 0, "rental_uris": {"android": "https://dc.lft.to/lastmile_qr_scan", "ios": "https://dc.lft.to/lastmile_qr_scan"}, "fusion_lon": 0.0, "lat": 38.8949165, "bike_id": "a28b221de1c953430696ff4863c9da2c", "type": "electric_scooter", "is_reserved": 0, "lon": -77.00259716666666}, {"fusion_lat": 0.0, "name": "7275fd6612f58d62282ad1f71f62a32d", "is_disabled": 0, "rental_uris": {"android": "https://dc.lft.to/lastmile_qr_scan", "ios": "https://dc.lft.to/lastmile_qr_scan"}, "fusion_lon": 0.0, "lat": 38.89223716666667, "bike_id": "7275fd6612f58d62282ad1f71f62a32d", "type": "electric_scooter", "is_reserved": 0, "lon": -77.04511016666666}, {"fusion_lat": 0.0, "name": "ae9f385f160fdbb71bf6e402bcf599e8", "is_disabled": 0, "rental_uris": {"android": "https://dc.lft.to/lastmile_qr_scan", "ios": "https://dc.lft.to/lastmile_qr_scan"}, "fusion_lon": 0.0, "lat": 38.89963916666667, "bike_id": "ae9f385f160fdbb71bf6e402bcf599e8", "type": "electric_scooter", "is_reserved": 0, "lon": -76.981658}, {"fusion_lat": 0.0, "name": "66665fb6633da0eb064ad15152be9bad", "is_disabled": 0, "rental_uris": {"android": "https://dc.lft.to/lastmile_qr_scan", "ios": "https://dc.lft.to/lastmile_qr_scan"}, "fusion_lon": 0.0, "lat": 38.997772166666664, "bike_id": "66665fb6633da0eb064ad15152be9bad", "type": "electric_bike", "is_reserved": 0, "lon": -77.0471695}, {"fusion_lat": 0.0, "name": "799e03f0130624b87bd2c2640612ddea", "is_disabled": 0, "rental_uris": {"android": "https://dc.lft.to/lastmile_qr_scan", "ios": "https://dc.lft.to/lastmile_qr_scan"}, "fusion_lon": 0.0, "lat": 38.902927, "bike_id": "799e03f0130624b87bd2c2640612ddea", "type": "electric_scooter", "is_reserved": 0, "lon": -76.97634683333334}, {"fusion_lat": 0.0, "name": "10649f7b294766cc249c151fccd0f3c2", "is_disabled": 0, "rental_uris": {"android": "https://dc.lft.to/lastmile_qr_scan", "ios": "https://dc.lft.to/lastmile_qr_scan"}, "fusion_lon": 0.0, "lat": 38.918206, "bike_id": "10649f7b294766cc249c151fccd0f3c2", "type": "electric_scooter", "is_reserved": 0, "lon": -77.03134850000001}, {"fusion_lat": 0.0, "name": "54ee411a8522cc72f673f428c3f490a7", "is_disabled": 0, "rental_uris": {"android": "https://dc.lft.to/lastmile_qr_scan", "ios": "https://dc.lft.to/lastmile_qr_scan"}, "fusion_lon": 0.0, "lat": 38.896217666666665, "bike_id": "54ee411a8522cc72f673f428c3f490a7", "type": "electric_scooter", "is_reserved": 0, "lon": -77.0316915}, {"fusion_lat": 0.0, "name": "9b65056c845485b60a6d6ebc9f2edbb1", "is_disabled": 0, "rental_uris": {"android": "https://dc.lft.to/lastmile_qr_scan", "ios": "https://dc.lft.to/lastmile_qr_scan"}, "fusion_lon": 0.0, "lat": 38.918319333333336, "bike_id": "9b65056c845485b60a6d6ebc9f2edbb1", "type": "electric_scooter", "is_reserved": 0, "lon": -77.03635233333334}, {"fusion_lat": 0.0, "name": "bb4f8a64800ca252775041c36aac48e9", "is_disabled": 0, "rental_uris": {"android": "https://dc.lft.to/lastmile_qr_scan", "ios": "https://dc.lft.to/lastmile_qr_scan"}, "fusion_lon": 0.0, "lat": 38.941567666666664, "bike_id": "bb4f8a64800ca252775041c36aac48e9", "type": "electric_scooter", "is_reserved": 0, "lon": -77.026296}, {"fusion_lat": 0.0, "name": "b0eddc2a352f6f96a35cb046a1335d4d", "is_disabled": 0, "rental_uris": {"android": "https://dc.lft.to/lastmile_qr_scan", "ios": "https://dc.lft.to/lastmile_qr_scan"}, "fusion_lon": 0.0, "lat": 38.8841475, "bike_id": "b0eddc2a352f6f96a35cb046a1335d4d", "type": "electric_scooter", "is_reserved": 0, "lon": -77.02175116666666}, {"fusion_lat": 0.0, "name": "8a27a49746daa68e7d7de1e9dc1f6ce8", "is_disabled": 0, "rental_uris": {"android": "https://dc.lft.to/lastmile_qr_scan", "ios": "https://dc.lft.to/lastmile_qr_scan"}, "fusion_lon": 0.0, "lat": 38.91248866666667, "bike_id": "8a27a49746daa68e7d7de1e9dc1f6ce8", "type": "electric_scooter", "is_reserved": 0, "lon": -77.01963716666667}, {"fusion_lat": 0.0, "name": "da873dd414d6732ebcc3dbd6d2e88324", "is_disabled": 0, "rental_uris": {"android": "https://dc.lft.to/lastmile_qr_scan", "ios": "https://dc.lft.to/lastmile_qr_scan"}, "fusion_lon": 0.0, "lat": 38.90971066666667, "bike_id": "da873dd414d6732ebcc3dbd6d2e88324", "type": "electric_scooter", "is_reserved": 0, "lon": -77.03873266666666}, {"fusion_lat": 0.0, "name": "fbf1208f332b9d81d3d760ebda4791ed", "is_disabled": 0, "rental_uris": {"android": "https://dc.lft.to/lastmile_qr_scan", "ios": "https://dc.lft.to/lastmile_qr_scan"}, "fusion_lon": 0.0, "lat": 38.92074433333333, "bike_id": "fbf1208f332b9d81d3d760ebda4791ed", "type": "electric_scooter", "is_reserved": 0, "lon": -77.0231875}, {"fusion_lat": 0.0, "name": "c439fdddf6ec2ec10b781b2b4c5b5a1f", "is_disabled": 0, "rental_uris": {"android": "https://dc.lft.to/lastmile_qr_scan", "ios": "https://dc.lft.to/lastmile_qr_scan"}, "fusion_lon": 0.0, "lat": 38.92230133333333, "bike_id": "c439fdddf6ec2ec10b781b2b4c5b5a1f", "type": "electric_scooter", "is_reserved": 0, "lon": -77.023333}, {"fusion_lat": 0.0, "name": "c41e63770b86f779e8b65616942d9415", "is_disabled": 0, "rental_uris": {"android": "https://dc.lft.to/lastmile_qr_scan", "ios": "https://dc.lft.to/lastmile_qr_scan"}, "fusion_lon": 0.0, "lat": 38.933983, "bike_id": "c41e63770b86f779e8b65616942d9415", "type": "electric_scooter", "is_reserved": 0, "lon": -77.057492}, {"fusion_lat": 0.0, "name": "d0a6dc0954a94ba9bcbad009a2eb4a4a", "is_disabled": 0, "rental_uris": {"android": "https://dc.lft.to/lastmile_qr_scan", "ios": "https://dc.lft.to/lastmile_qr_scan"}, "fusion_lon": 0.0, "lat": 38.8871665, "bike_id": "d0a6dc0954a94ba9bcbad009a2eb4a4a", "type": "electric_scooter", "is_reserved": 0, "lon": -77.013325}, {"fusion_lat": 0.0, "name": "d240a447e4bf1c43dd141e1c1c88e36b", "is_disabled": 0, "rental_uris": {"android": "https://dc.lft.to/lastmile_qr_scan", "ios": "https://dc.lft.to/lastmile_qr_scan"}, "fusion_lon": 0.0, "lat": 38.96204633333333, "bike_id": "d240a447e4bf1c43dd141e1c1c88e36b", "type": "electric_scooter", "is_reserved": 0, "lon": -77.0224105}, {"fusion_lat": 0.0, "name": "bebd7daa23fda6357eaf5575bf355e1a", "is_disabled": 0, "rental_uris": {"android": "https://dc.lft.to/lastmile_qr_scan", "ios": "https://dc.lft.to/lastmile_qr_scan"}, "fusion_lon": 0.0, "lat": 38.9353405, "bike_id": "bebd7daa23fda6357eaf5575bf355e1a", "type": "electric_scooter", "is_reserved": 0, "lon": -77.02356866666666}, {"fusion_lat": 0.0, "name": "5a7057d2aa69d236d3a75bd47e0baca7", "is_disabled": 0, "rental_uris": {"android": "https://dc.lft.to/lastmile_qr_scan", "ios": "https://dc.lft.to/lastmile_qr_scan"}, "fusion_lon": 0.0, "lat": 38.9030555, "bike_id": "5a7057d2aa69d236d3a75bd47e0baca7", "type": "electric_bike", "is_reserved": 0, "lon": -76.97655183333333}, {"fusion_lat": 0.0, "name": "655d4563d85fdb4fbe7c45b5c6bb5e8b", "is_disabled": 0, "rental_uris": {"android": "https://dc.lft.to/lastmile_qr_scan", "ios": "https://dc.lft.to/lastmile_qr_scan"}, "fusion_lon": 0.0, "lat": 38.8779745, "bike_id": "655d4563d85fdb4fbe7c45b5c6bb5e8b", "type": "electric_scooter", "is_reserved": 0, "lon": -77.00130616666667}, {"fusion_lat": 0.0, "name": "098b1261c1b5d52f4103ae473c2dadec", "is_disabled": 0, "rental_uris": {"android": "https://dc.lft.to/lastmile_qr_scan", "ios": "https://dc.lft.to/lastmile_qr_scan"}, "fusion_lon": 0.0, "lat": 38.879429, "bike_id": "098b1261c1b5d52f4103ae473c2dadec", "type": "electric_scooter", "is_reserved": 0, "lon": -77.00904216666666}, {"fusion_lat": 0.0, "name": "bddd46962dfc2234d6f8edaf8e37933e", "is_disabled": 0, "rental_uris": {"android": "https://dc.lft.to/lastmile_qr_scan", "ios": "https://dc.lft.to/lastmile_qr_scan"}, "fusion_lon": 0.0, "lat": 38.95180583333333, "bike_id": "bddd46962dfc2234d6f8edaf8e37933e", "type": "electric_scooter", "is_reserved": 0, "lon": -77.02730166666667}, {"fusion_lat": 0.0, "name": "78d99008a78cf9afa67eaf0ecdf5c7f9", "is_disabled": 0, "rental_uris": {"android": "https://dc.lft.to/lastmile_qr_scan", "ios": "https://dc.lft.to/lastmile_qr_scan"}, "fusion_lon": 0.0, "lat": 38.91827683333333, "bike_id": "78d99008a78cf9afa67eaf0ecdf5c7f9", "type": "electric_scooter", "is_reserved": 0, "lon": -77.0417315}, {"fusion_lat": 0.0, "name": "73f00f896a13557d10453b6d499dc7c9", "is_disabled": 0, "rental_uris": {"android": "https://dc.lft.to/lastmile_qr_scan", "ios": "https://dc.lft.to/lastmile_qr_scan"}, "fusion_lon": 0.0, "lat": 38.89210283333333, "bike_id": "73f00f896a13557d10453b6d499dc7c9", "type": "electric_scooter", "is_reserved": 0, "lon": -76.9971875}, {"fusion_lat": 0.0, "name": "aa99160b081565c67cf021346dbf73c3", "is_disabled": 0, "rental_uris": {"android": "https://dc.lft.to/lastmile_qr_scan", "ios": "https://dc.lft.to/lastmile_qr_scan"}, "fusion_lon": 0.0, "lat": 38.8973865, "bike_id": "aa99160b081565c67cf021346dbf73c3", "type": "electric_scooter", "is_reserved": 0, "lon": -77.04431633333333}, {"fusion_lat": 0.0, "name": "374d185d7a9953d2a08efad84ed159a1", "is_disabled": 0, "rental_uris": {"android": "https://dc.lft.to/lastmile_qr_scan", "ios": "https://dc.lft.to/lastmile_qr_scan"}, "fusion_lon": 0.0, "lat": 38.884118666666666, "bike_id": "374d185d7a9953d2a08efad84ed159a1", "type": "electric_bike", "is_reserved": 0, "lon": -76.95397483333333}, {"fusion_lat": 0.0, "name": "14608a10f598e77020519872528b25de", "is_disabled": 0, "rental_uris": {"android": "https://dc.lft.to/lastmile_qr_scan", "ios": "https://dc.lft.to/lastmile_qr_scan"}, "fusion_lon": 0.0, "lat": 38.92776816666667, "bike_id": "14608a10f598e77020519872528b25de", "type": "electric_scooter", "is_reserved": 0, "lon": -77.0278925}, {"fusion_lat": 0.0, "name": "500c35dddef99287b86df761bb5c3377", "is_disabled": 0, "rental_uris": {"android": "https://dc.lft.to/lastmile_qr_scan", "ios": "https://dc.lft.to/lastmile_qr_scan"}, "fusion_lon": 0.0, "lat": 38.90140866666667, "bike_id": "500c35dddef99287b86df761bb5c3377", "type": "electric_scooter", "is_reserved": 0, "lon": -77.023862}, {"fusion_lat": 0.0, "name": "f206e147d97d8e27ecead8989f46095a", "is_disabled": 0, "rental_uris": {"android": "https://dc.lft.to/lastmile_qr_scan", "ios": "https://dc.lft.to/lastmile_qr_scan"}, "fusion_lon": 0.0, "lat": 39.0343295, "bike_id": "f206e147d97d8e27ecead8989f46095a", "type": "electric_bike", "is_reserved": 0, "lon": -77.04306016666666}, {"fusion_lat": 0.0, "name": "2f5e45229979bfeebbda5883fe64af67", "is_disabled": 0, "rental_uris": {"android": "https://dc.lft.to/lastmile_qr_scan", "ios": "https://dc.lft.to/lastmile_qr_scan"}, "fusion_lon": 0.0, "lat": 38.9260435, "bike_id": "2f5e45229979bfeebbda5883fe64af67", "type": "electric_scooter", "is_reserved": 0, "lon": -77.03759083333334}, {"fusion_lat": 0.0, "name": "b0196db0a38fe296e4d6fb7a84ecbcb8", "is_disabled": 0, "rental_uris": {"android": "https://dc.lft.to/lastmile_qr_scan", "ios": "https://dc.lft.to/lastmile_qr_scan"}, "fusion_lon": 0.0, "lat": 38.9069855, "bike_id": "b0196db0a38fe296e4d6fb7a84ecbcb8", "type": "electric_scooter", "is_reserved": 0, "lon": -77.06530266666667}, {"fusion_lat": 0.0, "name": "99420080255f15e55616113f4be59653", "is_disabled": 0, "rental_uris": {"android": "https://dc.lft.to/lastmile_qr_scan", "ios": "https://dc.lft.to/lastmile_qr_scan"}, "fusion_lon": 0.0, "lat": 38.924478666666666, "bike_id": "99420080255f15e55616113f4be59653", "type": "electric_scooter", "is_reserved": 0, "lon": -77.00877483333333}, {"fusion_lat": 0.0, "name": "07a683699a63f01aa5ff6952411a1c09", "is_disabled": 0, "rental_uris": {"android": "https://dc.lft.to/lastmile_qr_scan", "ios": "https://dc.lft.to/lastmile_qr_scan"}, "fusion_lon": 0.0, "lat": 38.8831775, "bike_id": "07a683699a63f01aa5ff6952411a1c09", "type": "electric_scooter", "is_reserved": 0, "lon": -77.013856}, {"fusion_lat": 0.0, "name": "1915b9d8c8190f431ac38e27ae5756fd", "is_disabled": 0, "rental_uris": {"android": "https://dc.lft.to/lastmile_qr_scan", "ios": "https://dc.lft.to/lastmile_qr_scan"}, "fusion_lon": 0.0, "lat": 38.9232955, "bike_id": "1915b9d8c8190f431ac38e27ae5756fd", "type": "electric_scooter", "is_reserved": 0, "lon": -77.029699}, {"fusion_lat": 0.0, "name": "1e268e9504fdebc78c58255d1e8d3316", "is_disabled": 0, "rental_uris": {"android": "https://dc.lft.to/lastmile_qr_scan", "ios": "https://dc.lft.to/lastmile_qr_scan"}, "fusion_lon": 0.0, "lat": 38.8947185, "bike_id": "1e268e9504fdebc78c58255d1e8d3316", "type": "electric_scooter", "is_reserved": 0, "lon": -77.0269405}, {"fusion_lat": 0.0, "name": "cf85b6a8c2471c927044837287f58992", "is_disabled": 0, "rental_uris": {"android": "https://dc.lft.to/lastmile_qr_scan", "ios": "https://dc.lft.to/lastmile_qr_scan"}, "fusion_lon": 0.0, "lat": 38.89670316666667, "bike_id": "cf85b6a8c2471c927044837287f58992", "type": "electric_scooter", "is_reserved": 0, "lon": -77.050885}, {"fusion_lat": 0.0, "name": "d86a4c61558206e8ad2ee31f98a2386a", "is_disabled": 0, "rental_uris": {"android": "https://dc.lft.to/lastmile_qr_scan", "ios": "https://dc.lft.to/lastmile_qr_scan"}, "fusion_lon": 0.0, "lat": 38.9725615, "bike_id": "d86a4c61558206e8ad2ee31f98a2386a", "type": "electric_bike", "is_reserved": 0, "lon": -76.992711}, {"fusion_lat": 0.0, "name": "b45b99c643ae607780c7b66af9babeaa", "is_disabled": 0, "rental_uris": {"android": "https://dc.lft.to/lastmile_qr_scan", "ios": "https://dc.lft.to/lastmile_qr_scan"}, "fusion_lon": 0.0, "lat": 38.8974725, "bike_id": "b45b99c643ae607780c7b66af9babeaa", "type": "electric_scooter", "is_reserved": 0, "lon": -77.03197066666667}, {"fusion_lat": 0.0, "name": "600bb1b3e02bb9d2ff187148791d81b1", "is_disabled": 0, "rental_uris": {"android": "https://dc.lft.to/lastmile_qr_scan", "ios": "https://dc.lft.to/lastmile_qr_scan"}, "fusion_lon": 0.0, "lat": 38.8982975, "bike_id": "600bb1b3e02bb9d2ff187148791d81b1", "type": "electric_scooter", "is_reserved": 0, "lon": -76.94629733333333}, {"fusion_lat": 0.0, "name": "42298a7cb3b1a52ab0ba4f48c614680c", "is_disabled": 0, "rental_uris": {"android": "https://dc.lft.to/lastmile_qr_scan", "ios": "https://dc.lft.to/lastmile_qr_scan"}, "fusion_lon": 0.0, "lat": 38.9148175, "bike_id": "42298a7cb3b1a52ab0ba4f48c614680c", "type": "electric_scooter", "is_reserved": 0, "lon": -77.04553866666667}, {"fusion_lat": 0.0, "name": "4845a15b1e48d9a70a62ab26a39e6702", "is_disabled": 0, "rental_uris": {"android": "https://dc.lft.to/lastmile_qr_scan", "ios": "https://dc.lft.to/lastmile_qr_scan"}, "fusion_lon": 0.0, "lat": 38.82174666666667, "bike_id": "4845a15b1e48d9a70a62ab26a39e6702", "type": "electric_bike", "is_reserved": 0, "lon": -76.99513983333334}, {"fusion_lat": 0.0, "name": "c7ca75760b7539534a276f2cd8e40565", "is_disabled": 0, "rental_uris": {"android": "https://dc.lft.to/lastmile_qr_scan", "ios": "https://dc.lft.to/lastmile_qr_scan"}, "fusion_lon": 0.0, "lat": 38.9035545, "bike_id": "c7ca75760b7539534a276f2cd8e40565", "type": "electric_scooter", "is_reserved": 0, "lon": -76.99954133333334}, {"fusion_lat": 0.0, "name": "14a1a957b801c67009b67417ff79b693", "is_disabled": 0, "rental_uris": {"android": "https://dc.lft.to/lastmile_qr_scan", "ios": "https://dc.lft.to/lastmile_qr_scan"}, "fusion_lon": 0.0, "lat": 38.9040705, "bike_id": "14a1a957b801c67009b67417ff79b693", "type": "electric_scooter", "is_reserved": 0, "lon": -76.9733635}, {"fusion_lat": 0.0, "name": "348dd38911c01aacb48d9fd520c6bf36", "is_disabled": 0, "rental_uris": {"android": "https://dc.lft.to/lastmile_qr_scan", "ios": "https://dc.lft.to/lastmile_qr_scan"}, "fusion_lon": 0.0, "lat": 38.887082166666666, "bike_id": "348dd38911c01aacb48d9fd520c6bf36", "type": "electric_scooter", "is_reserved": 0, "lon": -77.002478}, {"fusion_lat": 0.0, "name": "c7ef607b110a723cd48124d1f93ce01b", "is_disabled": 0, "rental_uris": {"android": "https://dc.lft.to/lastmile_qr_scan", "ios": "https://dc.lft.to/lastmile_qr_scan"}, "fusion_lon": 0.0, "lat": 38.91978616666667, "bike_id": "c7ef607b110a723cd48124d1f93ce01b", "type": "electric_scooter", "is_reserved": 0, "lon": -77.041684}, {"fusion_lat": 0.0, "name": "7f61f9abe3990000bfde1c21dafa8827", "is_disabled": 0, "rental_uris": {"android": "https://dc.lft.to/lastmile_qr_scan", "ios": "https://dc.lft.to/lastmile_qr_scan"}, "fusion_lon": 0.0, "lat": 38.92606466666667, "bike_id": "7f61f9abe3990000bfde1c21dafa8827", "type": "electric_scooter", "is_reserved": 0, "lon": -77.02157983333333}, {"fusion_lat": 0.0, "name": "f4b4016c94111ebf51281b3f1378ed42", "is_disabled": 0, "rental_uris": {"android": "https://dc.lft.to/lastmile_qr_scan", "ios": "https://dc.lft.to/lastmile_qr_scan"}, "fusion_lon": 0.0, "lat": 38.9064195, "bike_id": "f4b4016c94111ebf51281b3f1378ed42", "type": "electric_scooter", "is_reserved": 0, "lon": -77.00583466666667}, {"fusion_lat": 0.0, "name": "216211dfc80c7de19132502a6d5b4752", "is_disabled": 0, "rental_uris": {"android": "https://dc.lft.to/lastmile_qr_scan", "ios": "https://dc.lft.to/lastmile_qr_scan"}, "fusion_lon": 0.0, "lat": 38.918834333333336, "bike_id": "216211dfc80c7de19132502a6d5b4752", "type": "electric_scooter", "is_reserved": 0, "lon": -77.035052}, {"fusion_lat": 0.0, "name": "9110e89b713fbb63a4a088c88868db6a", "is_disabled": 0, "rental_uris": {"android": "https://dc.lft.to/lastmile_qr_scan", "ios": "https://dc.lft.to/lastmile_qr_scan"}, "fusion_lon": 0.0, "lat": 38.9020775, "bike_id": "9110e89b713fbb63a4a088c88868db6a", "type": "electric_scooter", "is_reserved": 0, "lon": -77.051327}, {"fusion_lat": 0.0, "name": "e49f3dd19bea7e22150fe36eac531b37", "is_disabled": 0, "rental_uris": {"android": "https://dc.lft.to/lastmile_qr_scan", "ios": "https://dc.lft.to/lastmile_qr_scan"}, "fusion_lon": 0.0, "lat": 38.9186605, "bike_id": "e49f3dd19bea7e22150fe36eac531b37", "type": "electric_scooter", "is_reserved": 0, "lon": -77.0407525}, {"fusion_lat": 0.0, "name": "d07f978112eab506986f5a4ee0279e25", "is_disabled": 0, "rental_uris": {"android": "https://dc.lft.to/lastmile_qr_scan", "ios": "https://dc.lft.to/lastmile_qr_scan"}, "fusion_lon": 0.0, "lat": 38.80453266666667, "bike_id": "d07f978112eab506986f5a4ee0279e25", "type": "electric_bike", "is_reserved": 0, "lon": -77.05390466666667}, {"fusion_lat": 0.0, "name": "abb23a44b8d2e403c82ebd6c9cba7785", "is_disabled": 0, "rental_uris": {"android": "https://dc.lft.to/lastmile_qr_scan", "ios": "https://dc.lft.to/lastmile_qr_scan"}, "fusion_lon": 0.0, "lat": 38.8774995, "bike_id": "abb23a44b8d2e403c82ebd6c9cba7785", "type": "electric_scooter", "is_reserved": 0, "lon": -77.014316}, {"fusion_lat": 0.0, "name": "8aa9f7894aa095ddc8d6a743c19ce564", "is_disabled": 0, "rental_uris": {"android": "https://dc.lft.to/lastmile_qr_scan", "ios": "https://dc.lft.to/lastmile_qr_scan"}, "fusion_lon": 0.0, "lat": 38.87958166666667, "bike_id": "8aa9f7894aa095ddc8d6a743c19ce564", "type": "electric_scooter", "is_reserved": 0, "lon": -76.99012383333333}, {"fusion_lat": 0.0, "name": "27d4af3a28467d99d47e69fec6f272ef", "is_disabled": 0, "rental_uris": {"android": "https://dc.lft.to/lastmile_qr_scan", "ios": "https://dc.lft.to/lastmile_qr_scan"}, "fusion_lon": 0.0, "lat": 38.91637033333333, "bike_id": "27d4af3a28467d99d47e69fec6f272ef", "type": "electric_scooter", "is_reserved": 0, "lon": -77.031631}, {"fusion_lat": 0.0, "name": "e941d7bbf2b7c44974fd2d324851e0d4", "is_disabled": 0, "rental_uris": {"android": "https://dc.lft.to/lastmile_qr_scan", "ios": "https://dc.lft.to/lastmile_qr_scan"}, "fusion_lon": 0.0, "lat": 38.8833385, "bike_id": "e941d7bbf2b7c44974fd2d324851e0d4", "type": "electric_scooter", "is_reserved": 0, "lon": -77.01772366666667}, {"fusion_lat": 0.0, "name": "1cf87e3975e88db88d41f8752369c330", "is_disabled": 0, "rental_uris": {"android": "https://dc.lft.to/lastmile_qr_scan", "ios": "https://dc.lft.to/lastmile_qr_scan"}, "fusion_lon": 0.0, "lat": 38.910451333333334, "bike_id": "1cf87e3975e88db88d41f8752369c330", "type": "electric_scooter", "is_reserved": 0, "lon": -77.03436166666667}, {"fusion_lat": 0.0, "name": "e849f9f387c98956e41c8cbdfab9ab02", "is_disabled": 0, "rental_uris": {"android": "https://dc.lft.to/lastmile_qr_scan", "ios": "https://dc.lft.to/lastmile_qr_scan"}, "fusion_lon": 0.0, "lat": 38.842842833333336, "bike_id": "e849f9f387c98956e41c8cbdfab9ab02", "type": "electric_bike", "is_reserved": 0, "lon": -77.04503866666667}, {"fusion_lat": 0.0, "name": "d897ac502c4c0a57cf53fec2dd7a54fc", "is_disabled": 0, "rental_uris": {"android": "https://dc.lft.to/lastmile_qr_scan", "ios": "https://dc.lft.to/lastmile_qr_scan"}, "fusion_lon": 0.0, "lat": 38.866793333333334, "bike_id": "d897ac502c4c0a57cf53fec2dd7a54fc", "type": "electric_scooter", "is_reserved": 0, "lon": -76.98568083333333}, {"fusion_lat": 0.0, "name": "223c6277f5c13d7f07e831f8e2d80b15", "is_disabled": 0, "rental_uris": {"android": "https://dc.lft.to/lastmile_qr_scan", "ios": "https://dc.lft.to/lastmile_qr_scan"}, "fusion_lon": 0.0, "lat": 38.92248583333333, "bike_id": "223c6277f5c13d7f07e831f8e2d80b15", "type": "electric_scooter", "is_reserved": 0, "lon": -77.030897}, {"fusion_lat": 0.0, "name": "8c527985f36ebf71c35d342fe30ae3df", "is_disabled": 0, "rental_uris": {"android": "https://dc.lft.to/lastmile_qr_scan", "ios": "https://dc.lft.to/lastmile_qr_scan"}, "fusion_lon": 0.0, "lat": 38.905754333333334, "bike_id": "8c527985f36ebf71c35d342fe30ae3df", "type": "electric_scooter", "is_reserved": 0, "lon": -77.0240115}, {"fusion_lat": 0.0, "name": "a9d5f6c55184c27b0b8dd0568e729095", "is_disabled": 0, "rental_uris": {"android": "https://dc.lft.to/lastmile_qr_scan", "ios": "https://dc.lft.to/lastmile_qr_scan"}, "fusion_lon": 0.0, "lat": 38.884872666666666, "bike_id": "a9d5f6c55184c27b0b8dd0568e729095", "type": "electric_scooter", "is_reserved": 0, "lon": -77.00711433333333}, {"fusion_lat": 0.0, "name": "ba16626d415d53b66fa762aeaabff3b3", "is_disabled": 0, "rental_uris": {"android": "https://dc.lft.to/lastmile_qr_scan", "ios": "https://dc.lft.to/lastmile_qr_scan"}, "fusion_lon": 0.0, "lat": 38.922480166666666, "bike_id": "ba16626d415d53b66fa762aeaabff3b3", "type": "electric_scooter", "is_reserved": 0, "lon": -77.04201083333334}, {"fusion_lat": 0.0, "name": "ab6176842cb21c0d00677fa6f0f732f8", "is_disabled": 0, "rental_uris": {"android": "https://dc.lft.to/lastmile_qr_scan", "ios": "https://dc.lft.to/lastmile_qr_scan"}, "fusion_lon": 0.0, "lat": 38.935305, "bike_id": "ab6176842cb21c0d00677fa6f0f732f8", "type": "electric_scooter", "is_reserved": 0, "lon": -77.03656966666667}, {"fusion_lat": 0.0, "name": "b66a42923c1ee6caf827c6cad8c97ed6", "is_disabled": 0, "rental_uris": {"android": "https://dc.lft.to/lastmile_qr_scan", "ios": "https://dc.lft.to/lastmile_qr_scan"}, "fusion_lon": 0.0, "lat": 38.8986575, "bike_id": "b66a42923c1ee6caf827c6cad8c97ed6", "type": "electric_scooter", "is_reserved": 0, "lon": -76.946414}, {"fusion_lat": 0.0, "name": "24a812ec2e95ca01844bc3a83c24b00c", "is_disabled": 0, "rental_uris": {"android": "https://dc.lft.to/lastmile_qr_scan", "ios": "https://dc.lft.to/lastmile_qr_scan"}, "fusion_lon": 0.0, "lat": 38.89978333333333, "bike_id": "24a812ec2e95ca01844bc3a83c24b00c", "type": "electric_scooter", "is_reserved": 0, "lon": -77.00683533333333}, {"fusion_lat": 0.0, "name": "be6d1ef79890741ccce58410f7954651", "is_disabled": 0, "rental_uris": {"android": "https://dc.lft.to/lastmile_qr_scan", "ios": "https://dc.lft.to/lastmile_qr_scan"}, "fusion_lon": 0.0, "lat": 38.89729883333333, "bike_id": "be6d1ef79890741ccce58410f7954651", "type": "electric_scooter", "is_reserved": 0, "lon": -77.04358316666666}, {"fusion_lat": 0.0, "name": "b6ad9d5358219413e3b5c39e73749695", "is_disabled": 0, "rental_uris": {"android": "https://dc.lft.to/lastmile_qr_scan", "ios": "https://dc.lft.to/lastmile_qr_scan"}, "fusion_lon": 0.0, "lat": 38.9282715, "bike_id": "b6ad9d5358219413e3b5c39e73749695", "type": "electric_scooter", "is_reserved": 0, "lon": -77.032729}, {"fusion_lat": 0.0, "name": "eb5ebca80a19646f4aa6cfd8ba9be87d", "is_disabled": 0, "rental_uris": {"android": "https://dc.lft.to/lastmile_qr_scan", "ios": "https://dc.lft.to/lastmile_qr_scan"}, "fusion_lon": 0.0, "lat": 38.9346305, "bike_id": "eb5ebca80a19646f4aa6cfd8ba9be87d", "type": "electric_scooter", "is_reserved": 0, "lon": -77.04129216666666}, {"fusion_lat": 0.0, "name": "fe83b9f96daa4d0155dcf0d5bc106922", "is_disabled": 0, "rental_uris": {"android": "https://dc.lft.to/lastmile_qr_scan", "ios": "https://dc.lft.to/lastmile_qr_scan"}, "fusion_lon": 0.0, "lat": 38.921297833333334, "bike_id": "fe83b9f96daa4d0155dcf0d5bc106922", "type": "electric_bike", "is_reserved": 0, "lon": -77.01081466666666}, {"fusion_lat": 0.0, "name": "fba3d946979a1c67b0339a10a63fe182", "is_disabled": 0, "rental_uris": {"android": "https://dc.lft.to/lastmile_qr_scan", "ios": "https://dc.lft.to/lastmile_qr_scan"}, "fusion_lon": 0.0, "lat": 38.8246435, "bike_id": "fba3d946979a1c67b0339a10a63fe182", "type": "electric_bike", "is_reserved": 0, "lon": -77.00799816666667}, {"fusion_lat": 0.0, "name": "cd959e17211957e8cdfc8ce9b097d31a", "is_disabled": 0, "rental_uris": {"android": "https://dc.lft.to/lastmile_qr_scan", "ios": "https://dc.lft.to/lastmile_qr_scan"}, "fusion_lon": 0.0, "lat": 38.90421, "bike_id": "cd959e17211957e8cdfc8ce9b097d31a", "type": "electric_scooter", "is_reserved": 0, "lon": -77.00138116666666}, {"fusion_lat": 0.0, "name": "8ebb2fd3976051e8b6b6222198da3d23", "is_disabled": 0, "rental_uris": {"android": "https://dc.lft.to/lastmile_qr_scan", "ios": "https://dc.lft.to/lastmile_qr_scan"}, "fusion_lon": 0.0, "lat": 38.88774, "bike_id": "8ebb2fd3976051e8b6b6222198da3d23", "type": "electric_scooter", "is_reserved": 0, "lon": -76.97756166666667}, {"fusion_lat": 0.0, "name": "8a90ae2efe58689697c4459ba8fc9cf8", "is_disabled": 0, "rental_uris": {"android": "https://dc.lft.to/lastmile_qr_scan", "ios": "https://dc.lft.to/lastmile_qr_scan"}, "fusion_lon": 0.0, "lat": 38.9061775, "bike_id": "8a90ae2efe58689697c4459ba8fc9cf8", "type": "electric_scooter", "is_reserved": 0, "lon": -77.04053416666666}, {"fusion_lat": 0.0, "name": "9bbea747c1d6b194e041779b2dc166f5", "is_disabled": 0, "rental_uris": {"android": "https://dc.lft.to/lastmile_qr_scan", "ios": "https://dc.lft.to/lastmile_qr_scan"}, "fusion_lon": 0.0, "lat": 38.89994333333333, "bike_id": "9bbea747c1d6b194e041779b2dc166f5", "type": "electric_scooter", "is_reserved": 0, "lon": -77.00712533333333}, {"fusion_lat": 0.0, "name": "6a2a43da5590c655c166dcb7181c5078", "is_disabled": 0, "rental_uris": {"android": "https://dc.lft.to/lastmile_qr_scan", "ios": "https://dc.lft.to/lastmile_qr_scan"}, "fusion_lon": 0.0, "lat": 38.90952633333333, "bike_id": "6a2a43da5590c655c166dcb7181c5078", "type": "electric_scooter", "is_reserved": 0, "lon": -76.98543283333333}, {"fusion_lat": 0.0, "name": "1de3a3826c807c69c294d94d28abd51d", "is_disabled": 0, "rental_uris": {"android": "https://dc.lft.to/lastmile_qr_scan", "ios": "https://dc.lft.to/lastmile_qr_scan"}, "fusion_lon": 0.0, "lat": 38.9126535, "bike_id": "1de3a3826c807c69c294d94d28abd51d", "type": "electric_scooter", "is_reserved": 0, "lon": -77.048399}, {"fusion_lat": 0.0, "name": "35712d714c68417c8b50283ee483c752", "is_disabled": 0, "rental_uris": {"android": "https://dc.lft.to/lastmile_qr_scan", "ios": "https://dc.lft.to/lastmile_qr_scan"}, "fusion_lon": 0.0, "lat": 38.917040166666666, "bike_id": "35712d714c68417c8b50283ee483c752", "type": "electric_scooter", "is_reserved": 0, "lon": -77.04215383333333}, {"fusion_lat": 0.0, "name": "ff645a8cc2a4097df54c9ac644f6151d", "is_disabled": 0, "rental_uris": {"android": "https://dc.lft.to/lastmile_qr_scan", "ios": "https://dc.lft.to/lastmile_qr_scan"}, "fusion_lon": 0.0, "lat": 38.858805333333336, "bike_id": "ff645a8cc2a4097df54c9ac644f6151d", "type": "electric_bike", "is_reserved": 0, "lon": -77.09565316666666}, {"fusion_lat": 0.0, "name": "11198c260d21b7857986e9aab4677b68", "is_disabled": 0, "rental_uris": {"android": "https://dc.lft.to/lastmile_qr_scan", "ios": "https://dc.lft.to/lastmile_qr_scan"}, "fusion_lon": 0.0, "lat": 38.874735666666666, "bike_id": "11198c260d21b7857986e9aab4677b68", "type": "electric_bike", "is_reserved": 0, "lon": -77.0087365}, {"fusion_lat": 0.0, "name": "6dd4e548a7e00f204394eb6264f12db2", "is_disabled": 0, "rental_uris": {"android": "https://dc.lft.to/lastmile_qr_scan", "ios": "https://dc.lft.to/lastmile_qr_scan"}, "fusion_lon": 0.0, "lat": 38.918061, "bike_id": "6dd4e548a7e00f204394eb6264f12db2", "type": "electric_scooter", "is_reserved": 0, "lon": -77.046315}, {"fusion_lat": 0.0, "name": "9aab914b858837b55f64af91f2300a7c", "is_disabled": 0, "rental_uris": {"android": "https://dc.lft.to/lastmile_qr_scan", "ios": "https://dc.lft.to/lastmile_qr_scan"}, "fusion_lon": 0.0, "lat": 38.8936135, "bike_id": "9aab914b858837b55f64af91f2300a7c", "type": "electric_scooter", "is_reserved": 0, "lon": -76.92596466666667}, {"fusion_lat": 0.0, "name": "a81fe3eff181d4f13edcb634fc02196f", "is_disabled": 0, "rental_uris": {"android": "https://dc.lft.to/lastmile_qr_scan", "ios": "https://dc.lft.to/lastmile_qr_scan"}, "fusion_lon": 0.0, "lat": 38.909737, "bike_id": "a81fe3eff181d4f13edcb634fc02196f", "type": "electric_scooter", "is_reserved": 0, "lon": -77.03448766666666}, {"fusion_lat": 0.0, "name": "105fd4eeb718e26bc30290ed68ff694a", "is_disabled": 0, "rental_uris": {"android": "https://dc.lft.to/lastmile_qr_scan", "ios": "https://dc.lft.to/lastmile_qr_scan"}, "fusion_lon": 0.0, "lat": 38.876644666666664, "bike_id": "105fd4eeb718e26bc30290ed68ff694a", "type": "electric_scooter", "is_reserved": 0, "lon": -77.0074375}, {"fusion_lat": 0.0, "name": "ef921e43a4d7fc54cfb776d540858643", "is_disabled": 0, "rental_uris": {"android": "https://dc.lft.to/lastmile_qr_scan", "ios": "https://dc.lft.to/lastmile_qr_scan"}, "fusion_lon": 0.0, "lat": 38.9087205, "bike_id": "ef921e43a4d7fc54cfb776d540858643", "type": "electric_scooter", "is_reserved": 0, "lon": -77.0858965}, {"fusion_lat": 0.0, "name": "ced1148db138a37ac9871a9448529598", "is_disabled": 0, "rental_uris": {"android": "https://dc.lft.to/lastmile_qr_scan", "ios": "https://dc.lft.to/lastmile_qr_scan"}, "fusion_lon": 0.0, "lat": 38.91300016666667, "bike_id": "ced1148db138a37ac9871a9448529598", "type": "electric_scooter", "is_reserved": 0, "lon": -76.98469633333333}, {"fusion_lat": 0.0, "name": "8aca0acefdd415222b92fbb42dafb2c7", "is_disabled": 0, "rental_uris": {"android": "https://dc.lft.to/lastmile_qr_scan", "ios": "https://dc.lft.to/lastmile_qr_scan"}, "fusion_lon": 0.0, "lat": 38.897418, "bike_id": "8aca0acefdd415222b92fbb42dafb2c7", "type": "electric_scooter", "is_reserved": 0, "lon": -77.0337405}, {"fusion_lat": 0.0, "name": "36a97e57364f80f5a1c3a36592970cb5", "is_disabled": 0, "rental_uris": {"android": "https://dc.lft.to/lastmile_qr_scan", "ios": "https://dc.lft.to/lastmile_qr_scan"}, "fusion_lon": 0.0, "lat": 38.914169666666666, "bike_id": "36a97e57364f80f5a1c3a36592970cb5", "type": "electric_scooter", "is_reserved": 0, "lon": -77.0457675}, {"fusion_lat": 0.0, "name": "81d0c8074d97054b7647962a357adb3f", "is_disabled": 0, "rental_uris": {"android": "https://dc.lft.to/lastmile_qr_scan", "ios": "https://dc.lft.to/lastmile_qr_scan"}, "fusion_lon": 0.0, "lat": 38.923134166666664, "bike_id": "81d0c8074d97054b7647962a357adb3f", "type": "electric_scooter", "is_reserved": 0, "lon": -77.04118633333333}, {"fusion_lat": 0.0, "name": "cc839ea7ceee62b497d072ce834c5d1b", "is_disabled": 0, "rental_uris": {"android": "https://dc.lft.to/lastmile_qr_scan", "ios": "https://dc.lft.to/lastmile_qr_scan"}, "fusion_lon": 0.0, "lat": 38.91193616666666, "bike_id": "cc839ea7ceee62b497d072ce834c5d1b", "type": "electric_scooter", "is_reserved": 0, "lon": -77.0424035}, {"fusion_lat": 0.0, "name": "42b5500ac87e196b70d610daa6fe3ad0", "is_disabled": 0, "rental_uris": {"android": "https://dc.lft.to/lastmile_qr_scan", "ios": "https://dc.lft.to/lastmile_qr_scan"}, "fusion_lon": 0.0, "lat": 38.925418, "bike_id": "42b5500ac87e196b70d610daa6fe3ad0", "type": "electric_scooter", "is_reserved": 0, "lon": -77.0347615}, {"fusion_lat": 0.0, "name": "1b8f8fe1fce9f7eb7fbae77c826c1c2a", "is_disabled": 0, "rental_uris": {"android": "https://dc.lft.to/lastmile_qr_scan", "ios": "https://dc.lft.to/lastmile_qr_scan"}, "fusion_lon": 0.0, "lat": 38.961551666666665, "bike_id": "1b8f8fe1fce9f7eb7fbae77c826c1c2a", "type": "electric_scooter", "is_reserved": 0, "lon": -77.0735945}, {"fusion_lat": 0.0, "name": "474c246f2baa9d499bbd14e046bf94b3", "is_disabled": 0, "rental_uris": {"android": "https://dc.lft.to/lastmile_qr_scan", "ios": "https://dc.lft.to/lastmile_qr_scan"}, "fusion_lon": 0.0, "lat": 38.90270683333333, "bike_id": "474c246f2baa9d499bbd14e046bf94b3", "type": "electric_scooter", "is_reserved": 0, "lon": -77.03245883333334}, {"fusion_lat": 0.0, "name": "2819c0106972c07aa8c20a829ab540b2", "is_disabled": 0, "rental_uris": {"android": "https://dc.lft.to/lastmile_qr_scan", "ios": "https://dc.lft.to/lastmile_qr_scan"}, "fusion_lon": 0.0, "lat": 38.9016255, "bike_id": "2819c0106972c07aa8c20a829ab540b2", "type": "electric_scooter", "is_reserved": 0, "lon": -77.043779}, {"fusion_lat": 0.0, "name": "04c23547030c1bb7b7511744895bf31d", "is_disabled": 0, "rental_uris": {"android": "https://dc.lft.to/lastmile_qr_scan", "ios": "https://dc.lft.to/lastmile_qr_scan"}, "fusion_lon": 0.0, "lat": 38.954088166666665, "bike_id": "04c23547030c1bb7b7511744895bf31d", "type": "electric_scooter", "is_reserved": 0, "lon": -77.02750933333333}, {"fusion_lat": 0.0, "name": "0854d8a968789db9d179f2debd31c3e5", "is_disabled": 0, "rental_uris": {"android": "https://dc.lft.to/lastmile_qr_scan", "ios": "https://dc.lft.to/lastmile_qr_scan"}, "fusion_lon": 0.0, "lat": 38.905794, "bike_id": "0854d8a968789db9d179f2debd31c3e5", "type": "electric_scooter", "is_reserved": 0, "lon": -77.00884633333334}, {"fusion_lat": 0.0, "name": "95212a4c172f862ff09064d52a68a1ef", "is_disabled": 0, "rental_uris": {"android": "https://dc.lft.to/lastmile_qr_scan", "ios": "https://dc.lft.to/lastmile_qr_scan"}, "fusion_lon": 0.0, "lat": 38.909821, "bike_id": "95212a4c172f862ff09064d52a68a1ef", "type": "electric_scooter", "is_reserved": 0, "lon": -77.00884566666667}, {"fusion_lat": 0.0, "name": "80e2e88eb537489fb2f690beeee554b3", "is_disabled": 0, "rental_uris": {"android": "https://dc.lft.to/lastmile_qr_scan", "ios": "https://dc.lft.to/lastmile_qr_scan"}, "fusion_lon": 0.0, "lat": 38.91216, "bike_id": "80e2e88eb537489fb2f690beeee554b3", "type": "electric_scooter", "is_reserved": 0, "lon": -77.03837816666666}, {"fusion_lat": 0.0, "name": "f69df0ad570cf68f8af3cfff5a01dbaf", "is_disabled": 0, "rental_uris": {"android": "https://dc.lft.to/lastmile_qr_scan", "ios": "https://dc.lft.to/lastmile_qr_scan"}, "fusion_lon": 0.0, "lat": 38.917168333333336, "bike_id": "f69df0ad570cf68f8af3cfff5a01dbaf", "type": "electric_scooter", "is_reserved": 0, "lon": -77.03858883333334}, {"fusion_lat": 0.0, "name": "dc2ec5c7389b4b136010b8817c6dd3ea", "is_disabled": 0, "rental_uris": {"android": "https://dc.lft.to/lastmile_qr_scan", "ios": "https://dc.lft.to/lastmile_qr_scan"}, "fusion_lon": 0.0, "lat": 38.925047, "bike_id": "dc2ec5c7389b4b136010b8817c6dd3ea", "type": "electric_bike", "is_reserved": 0, "lon": -77.05755183333333}, {"fusion_lat": 0.0, "name": "17ca940331d020880c5e094ac26345ef", "is_disabled": 0, "rental_uris": {"android": "https://dc.lft.to/lastmile_qr_scan", "ios": "https://dc.lft.to/lastmile_qr_scan"}, "fusion_lon": 0.0, "lat": 38.8843285, "bike_id": "17ca940331d020880c5e094ac26345ef", "type": "electric_scooter", "is_reserved": 0, "lon": -76.9959575}, {"fusion_lat": 0.0, "name": "23e0b03c994090aaf8e9d5d7e6ae0d6f", "is_disabled": 0, "rental_uris": {"android": "https://dc.lft.to/lastmile_qr_scan", "ios": "https://dc.lft.to/lastmile_qr_scan"}, "fusion_lon": 0.0, "lat": 38.90784166666667, "bike_id": "23e0b03c994090aaf8e9d5d7e6ae0d6f", "type": "electric_scooter", "is_reserved": 0, "lon": -77.00971966666667}, {"fusion_lat": 0.0, "name": "800aed23834970031f481f68f420603a", "is_disabled": 0, "rental_uris": {"android": "https://dc.lft.to/lastmile_qr_scan", "ios": "https://dc.lft.to/lastmile_qr_scan"}, "fusion_lon": 0.0, "lat": 38.92060583333333, "bike_id": "800aed23834970031f481f68f420603a", "type": "electric_scooter", "is_reserved": 0, "lon": -76.99883}, {"fusion_lat": 0.0, "name": "263890df5bfcf69f4d88aefe6c66ff76", "is_disabled": 0, "rental_uris": {"android": "https://dc.lft.to/lastmile_qr_scan", "ios": "https://dc.lft.to/lastmile_qr_scan"}, "fusion_lon": 0.0, "lat": 38.909732, "bike_id": "263890df5bfcf69f4d88aefe6c66ff76", "type": "electric_scooter", "is_reserved": 0, "lon": -77.0370615}, {"fusion_lat": 0.0, "name": "54bae58a95423f3fd965e893685e46d3", "is_disabled": 0, "rental_uris": {"android": "https://dc.lft.to/lastmile_qr_scan", "ios": "https://dc.lft.to/lastmile_qr_scan"}, "fusion_lon": 0.0, "lat": 38.88750833333334, "bike_id": "54bae58a95423f3fd965e893685e46d3", "type": "electric_scooter", "is_reserved": 0, "lon": -76.99840383333333}, {"fusion_lat": 0.0, "name": "3cc1130aa54e1048f087aff6d4d90a6e", "is_disabled": 0, "rental_uris": {"android": "https://dc.lft.to/lastmile_qr_scan", "ios": "https://dc.lft.to/lastmile_qr_scan"}, "fusion_lon": 0.0, "lat": 38.80670516666667, "bike_id": "3cc1130aa54e1048f087aff6d4d90a6e", "type": "electric_bike", "is_reserved": 0, "lon": -77.06915116666667}, {"fusion_lat": 0.0, "name": "8a30f004cc8e21e5de8c9ca84c0390ea", "is_disabled": 0, "rental_uris": {"android": "https://dc.lft.to/lastmile_qr_scan", "ios": "https://dc.lft.to/lastmile_qr_scan"}, "fusion_lon": 0.0, "lat": 38.9001425, "bike_id": "8a30f004cc8e21e5de8c9ca84c0390ea", "type": "electric_scooter", "is_reserved": 0, "lon": -77.04476333333334}, {"fusion_lat": 0.0, "name": "c0d39c08a10bea41f06a1d8841332fec", "is_disabled": 0, "rental_uris": {"android": "https://dc.lft.to/lastmile_qr_scan", "ios": "https://dc.lft.to/lastmile_qr_scan"}, "fusion_lon": 0.0, "lat": 38.91786916666667, "bike_id": "c0d39c08a10bea41f06a1d8841332fec", "type": "electric_scooter", "is_reserved": 0, "lon": -77.02311116666667}, {"fusion_lat": 0.0, "name": "2635b463eee0596a3c0c661d70e54b01", "is_disabled": 0, "rental_uris": {"android": "https://dc.lft.to/lastmile_qr_scan", "ios": "https://dc.lft.to/lastmile_qr_scan"}, "fusion_lon": 0.0, "lat": 38.91713016666667, "bike_id": "2635b463eee0596a3c0c661d70e54b01", "type": "electric_scooter", "is_reserved": 0, "lon": -77.0257325}, {"fusion_lat": 0.0, "name": "bde464fd6c337ebd3aba36efbdf45852", "is_disabled": 0, "rental_uris": {"android": "https://dc.lft.to/lastmile_qr_scan", "ios": "https://dc.lft.to/lastmile_qr_scan"}, "fusion_lon": 0.0, "lat": 38.91268616666667, "bike_id": "bde464fd6c337ebd3aba36efbdf45852", "type": "electric_scooter", "is_reserved": 0, "lon": -77.0383475}, {"fusion_lat": 0.0, "name": "200ef17580da66d2aea435c6f54d8532", "is_disabled": 0, "rental_uris": {"android": "https://dc.lft.to/lastmile_qr_scan", "ios": "https://dc.lft.to/lastmile_qr_scan"}, "fusion_lon": 0.0, "lat": 38.8923455, "bike_id": "200ef17580da66d2aea435c6f54d8532", "type": "electric_scooter", "is_reserved": 0, "lon": -77.0317425}, {"fusion_lat": 0.0, "name": "1bdc9524e13085ec71af20246f79391f", "is_disabled": 0, "rental_uris": {"android": "https://dc.lft.to/lastmile_qr_scan", "ios": "https://dc.lft.to/lastmile_qr_scan"}, "fusion_lon": 0.0, "lat": 38.91327533333333, "bike_id": "1bdc9524e13085ec71af20246f79391f", "type": "electric_scooter", "is_reserved": 0, "lon": -77.03184616666667}, {"fusion_lat": 0.0, "name": "c4e93a4e8e6fb71bd844e42b45c58a3a", "is_disabled": 0, "rental_uris": {"android": "https://dc.lft.to/lastmile_qr_scan", "ios": "https://dc.lft.to/lastmile_qr_scan"}, "fusion_lon": 0.0, "lat": 38.923993, "bike_id": "c4e93a4e8e6fb71bd844e42b45c58a3a", "type": "electric_scooter", "is_reserved": 0, "lon": -77.024929}, {"fusion_lat": 0.0, "name": "d2d791af369572d190d17739e8a69600", "is_disabled": 0, "rental_uris": {"android": "https://dc.lft.to/lastmile_qr_scan", "ios": "https://dc.lft.to/lastmile_qr_scan"}, "fusion_lon": 0.0, "lat": 38.9098445, "bike_id": "d2d791af369572d190d17739e8a69600", "type": "electric_scooter", "is_reserved": 0, "lon": -77.042641}, {"fusion_lat": 0.0, "name": "15ab57ba65af1021f2f19f818bb28035", "is_disabled": 0, "rental_uris": {"android": "https://dc.lft.to/lastmile_qr_scan", "ios": "https://dc.lft.to/lastmile_qr_scan"}, "fusion_lon": 0.0, "lat": 38.88176583333333, "bike_id": "15ab57ba65af1021f2f19f818bb28035", "type": "electric_scooter", "is_reserved": 0, "lon": -77.026913}, {"fusion_lat": 0.0, "name": "f0d6699ac3e54aa967f4447e31d4e042", "is_disabled": 0, "rental_uris": {"android": "https://dc.lft.to/lastmile_qr_scan", "ios": "https://dc.lft.to/lastmile_qr_scan"}, "fusion_lon": 0.0, "lat": 38.887695, "bike_id": "f0d6699ac3e54aa967f4447e31d4e042", "type": "electric_scooter", "is_reserved": 0, "lon": -77.00260933333334}, {"fusion_lat": 0.0, "name": "f37ce65c63a02834576836cb7c372ff5", "is_disabled": 0, "rental_uris": {"android": "https://dc.lft.to/lastmile_qr_scan", "ios": "https://dc.lft.to/lastmile_qr_scan"}, "fusion_lon": 0.0, "lat": 38.90410283333333, "bike_id": "f37ce65c63a02834576836cb7c372ff5", "type": "electric_scooter", "is_reserved": 0, "lon": -76.97331233333334}, {"fusion_lat": 0.0, "name": "4a5212afb18c0534a1ca809d6499d64b", "is_disabled": 0, "rental_uris": {"android": "https://dc.lft.to/lastmile_qr_scan", "ios": "https://dc.lft.to/lastmile_qr_scan"}, "fusion_lon": 0.0, "lat": 38.902576833333335, "bike_id": "4a5212afb18c0534a1ca809d6499d64b", "type": "electric_scooter", "is_reserved": 0, "lon": -76.97456983333333}, {"fusion_lat": 0.0, "name": "d24ba2b49002d6fd950cc7e686d2a6a9", "is_disabled": 0, "rental_uris": {"android": "https://dc.lft.to/lastmile_qr_scan", "ios": "https://dc.lft.to/lastmile_qr_scan"}, "fusion_lon": 0.0, "lat": 38.9361615, "bike_id": "d24ba2b49002d6fd950cc7e686d2a6a9", "type": "electric_scooter", "is_reserved": 0, "lon": -77.02416883333333}, {"fusion_lat": 0.0, "name": "37c33fc10f7d35d2e9ce06a972a8a22a", "is_disabled": 0, "rental_uris": {"android": "https://dc.lft.to/lastmile_qr_scan", "ios": "https://dc.lft.to/lastmile_qr_scan"}, "fusion_lon": 0.0, "lat": 38.89739316666667, "bike_id": "37c33fc10f7d35d2e9ce06a972a8a22a", "type": "electric_scooter", "is_reserved": 0, "lon": -77.02466483333333}, {"fusion_lat": 0.0, "name": "96b79cdaeaa0aefbc38f362930bac412", "is_disabled": 0, "rental_uris": {"android": "https://dc.lft.to/lastmile_qr_scan", "ios": "https://dc.lft.to/lastmile_qr_scan"}, "fusion_lon": 0.0, "lat": 38.907629166666666, "bike_id": "96b79cdaeaa0aefbc38f362930bac412", "type": "electric_scooter", "is_reserved": 0, "lon": -77.04145033333333}, {"fusion_lat": 0.0, "name": "21048ad8a183f6261cab1aadabd5b118", "is_disabled": 0, "rental_uris": {"android": "https://dc.lft.to/lastmile_qr_scan", "ios": "https://dc.lft.to/lastmile_qr_scan"}, "fusion_lon": 0.0, "lat": 38.893056, "bike_id": "21048ad8a183f6261cab1aadabd5b118", "type": "electric_scooter", "is_reserved": 0, "lon": -77.02151}, {"fusion_lat": 0.0, "name": "f9ed8ff0bcca62d2d9dfc1d63849ca80", "is_disabled": 0, "rental_uris": {"android": "https://dc.lft.to/lastmile_qr_scan", "ios": "https://dc.lft.to/lastmile_qr_scan"}, "fusion_lon": 0.0, "lat": 38.91747183333333, "bike_id": "f9ed8ff0bcca62d2d9dfc1d63849ca80", "type": "electric_scooter", "is_reserved": 0, "lon": -77.04156666666667}, {"fusion_lat": 0.0, "name": "07a895c1db7e6f03c540b36027ef9371", "is_disabled": 0, "rental_uris": {"android": "https://dc.lft.to/lastmile_qr_scan", "ios": "https://dc.lft.to/lastmile_qr_scan"}, "fusion_lon": 0.0, "lat": 38.794690833333334, "bike_id": "07a895c1db7e6f03c540b36027ef9371", "type": "electric_bike", "is_reserved": 0, "lon": -76.99250516666666}, {"fusion_lat": 0.0, "name": "cc74bab9a13f734be609e80d47f1c5b7", "is_disabled": 0, "rental_uris": {"android": "https://dc.lft.to/lastmile_qr_scan", "ios": "https://dc.lft.to/lastmile_qr_scan"}, "fusion_lon": 0.0, "lat": 38.900275, "bike_id": "cc74bab9a13f734be609e80d47f1c5b7", "type": "electric_scooter", "is_reserved": 0, "lon": -77.058291}, {"fusion_lat": 0.0, "name": "9cb2abe269ff8031cd2a86a958e22bd7", "is_disabled": 0, "rental_uris": {"android": "https://dc.lft.to/lastmile_qr_scan", "ios": "https://dc.lft.to/lastmile_qr_scan"}, "fusion_lon": 0.0, "lat": 38.9089465, "bike_id": "9cb2abe269ff8031cd2a86a958e22bd7", "type": "electric_scooter", "is_reserved": 0, "lon": -77.043835}, {"fusion_lat": 0.0, "name": "9715e7ba1b5c3b4a5a4ba60857556683", "is_disabled": 0, "rental_uris": {"android": "https://dc.lft.to/lastmile_qr_scan", "ios": "https://dc.lft.to/lastmile_qr_scan"}, "fusion_lon": 0.0, "lat": 38.9483385, "bike_id": "9715e7ba1b5c3b4a5a4ba60857556683", "type": "electric_scooter", "is_reserved": 0, "lon": -77.0256185}, {"fusion_lat": 0.0, "name": "6c4b99aaf66b9ed301617e3eccbb367d", "is_disabled": 0, "rental_uris": {"android": "https://dc.lft.to/lastmile_qr_scan", "ios": "https://dc.lft.to/lastmile_qr_scan"}, "fusion_lon": 0.0, "lat": 38.89797133333333, "bike_id": "6c4b99aaf66b9ed301617e3eccbb367d", "type": "electric_scooter", "is_reserved": 0, "lon": -77.04653366666666}, {"fusion_lat": 0.0, "name": "2250c97ac898a90c95b8be1841a5ad19", "is_disabled": 0, "rental_uris": {"android": "https://dc.lft.to/lastmile_qr_scan", "ios": "https://dc.lft.to/lastmile_qr_scan"}, "fusion_lon": 0.0, "lat": 38.900433166666666, "bike_id": "2250c97ac898a90c95b8be1841a5ad19", "type": "electric_scooter", "is_reserved": 0, "lon": -77.05585416666666}, {"fusion_lat": 0.0, "name": "a5f4066fbcca9c9ba2c726737a6187b0", "is_disabled": 0, "rental_uris": {"android": "https://dc.lft.to/lastmile_qr_scan", "ios": "https://dc.lft.to/lastmile_qr_scan"}, "fusion_lon": 0.0, "lat": 38.946636, "bike_id": "a5f4066fbcca9c9ba2c726737a6187b0", "type": "electric_bike", "is_reserved": 0, "lon": -76.956706}, {"fusion_lat": 0.0, "name": "34c5ad7defe929b9d0a2402ce8de32bc", "is_disabled": 0, "rental_uris": {"android": "https://dc.lft.to/lastmile_qr_scan", "ios": "https://dc.lft.to/lastmile_qr_scan"}, "fusion_lon": 0.0, "lat": 38.919043, "bike_id": "34c5ad7defe929b9d0a2402ce8de32bc", "type": "electric_scooter", "is_reserved": 0, "lon": -77.0275765}, {"fusion_lat": 0.0, "name": "89aec99addc6e736fe3667ac3acf5421", "is_disabled": 0, "rental_uris": {"android": "https://dc.lft.to/lastmile_qr_scan", "ios": "https://dc.lft.to/lastmile_qr_scan"}, "fusion_lon": 0.0, "lat": 38.92250583333333, "bike_id": "89aec99addc6e736fe3667ac3acf5421", "type": "electric_scooter", "is_reserved": 0, "lon": -77.02980333333333}, {"fusion_lat": 0.0, "name": "bdd99366f23f4d8038f21e62de90625e", "is_disabled": 0, "rental_uris": {"android": "https://dc.lft.to/lastmile_qr_scan", "ios": "https://dc.lft.to/lastmile_qr_scan"}, "fusion_lon": 0.0, "lat": 38.911283833333336, "bike_id": "bdd99366f23f4d8038f21e62de90625e", "type": "electric_scooter", "is_reserved": 0, "lon": -77.03207733333333}, {"fusion_lat": 0.0, "name": "f6a302549a5c7b33659ebc816af44b37", "is_disabled": 0, "rental_uris": {"android": "https://dc.lft.to/lastmile_qr_scan", "ios": "https://dc.lft.to/lastmile_qr_scan"}, "fusion_lon": 0.0, "lat": 38.92403816666667, "bike_id": "f6a302549a5c7b33659ebc816af44b37", "type": "electric_scooter", "is_reserved": 0, "lon": -77.04298466666667}, {"fusion_lat": 0.0, "name": "26c3c49a3e5672e7fbae874015d94654", "is_disabled": 0, "rental_uris": {"android": "https://dc.lft.to/lastmile_qr_scan", "ios": "https://dc.lft.to/lastmile_qr_scan"}, "fusion_lon": 0.0, "lat": 38.88511116666667, "bike_id": "26c3c49a3e5672e7fbae874015d94654", "type": "electric_scooter", "is_reserved": 0, "lon": -77.01503816666667}, {"fusion_lat": 0.0, "name": "405b2d09c91fef5b376962d665477485", "is_disabled": 0, "rental_uris": {"android": "https://dc.lft.to/lastmile_qr_scan", "ios": "https://dc.lft.to/lastmile_qr_scan"}, "fusion_lon": 0.0, "lat": 38.904227, "bike_id": "405b2d09c91fef5b376962d665477485", "type": "electric_scooter", "is_reserved": 0, "lon": -76.94978166666667}, {"fusion_lat": 0.0, "name": "8a347fe1c837ba7f5dca542bd754e772", "is_disabled": 0, "rental_uris": {"android": "https://dc.lft.to/lastmile_qr_scan", "ios": "https://dc.lft.to/lastmile_qr_scan"}, "fusion_lon": 0.0, "lat": 38.89713316666667, "bike_id": "8a347fe1c837ba7f5dca542bd754e772", "type": "electric_scooter", "is_reserved": 0, "lon": -77.01314833333333}, {"fusion_lat": 0.0, "name": "c1613327c97c2e2119175342771a2dc2", "is_disabled": 0, "rental_uris": {"android": "https://dc.lft.to/lastmile_qr_scan", "ios": "https://dc.lft.to/lastmile_qr_scan"}, "fusion_lon": 0.0, "lat": 38.913448, "bike_id": "c1613327c97c2e2119175342771a2dc2", "type": "electric_scooter", "is_reserved": 0, "lon": -77.031781}, {"fusion_lat": 0.0, "name": "226f51138c2734cd419dfbb73992fde4", "is_disabled": 0, "rental_uris": {"android": "https://dc.lft.to/lastmile_qr_scan", "ios": "https://dc.lft.to/lastmile_qr_scan"}, "fusion_lon": 0.0, "lat": 38.934559, "bike_id": "226f51138c2734cd419dfbb73992fde4", "type": "electric_scooter", "is_reserved": 0, "lon": -77.07265566666666}, {"fusion_lat": 0.0, "name": "97a179171fac07f2261e726e877650b6", "is_disabled": 0, "rental_uris": {"android": "https://dc.lft.to/lastmile_qr_scan", "ios": "https://dc.lft.to/lastmile_qr_scan"}, "fusion_lon": 0.0, "lat": 38.9370435, "bike_id": "97a179171fac07f2261e726e877650b6", "type": "electric_scooter", "is_reserved": 0, "lon": -77.03280533333333}, {"fusion_lat": 0.0, "name": "21a684120ebbbb357e0d875c44e9e8d7", "is_disabled": 0, "rental_uris": {"android": "https://dc.lft.to/lastmile_qr_scan", "ios": "https://dc.lft.to/lastmile_qr_scan"}, "fusion_lon": 0.0, "lat": 38.899828, "bike_id": "21a684120ebbbb357e0d875c44e9e8d7", "type": "electric_scooter", "is_reserved": 0, "lon": -77.006893}, {"fusion_lat": 0.0, "name": "c3abc6d0b14d68c4796bbfa7973a7746", "is_disabled": 0, "rental_uris": {"android": "https://dc.lft.to/lastmile_qr_scan", "ios": "https://dc.lft.to/lastmile_qr_scan"}, "fusion_lon": 0.0, "lat": 38.91825983333333, "bike_id": "c3abc6d0b14d68c4796bbfa7973a7746", "type": "electric_scooter", "is_reserved": 0, "lon": -77.0121375}, {"fusion_lat": 0.0, "name": "6dda50bb7ee640dc882290cadbce0b6d", "is_disabled": 0, "rental_uris": {"android": "https://dc.lft.to/lastmile_qr_scan", "ios": "https://dc.lft.to/lastmile_qr_scan"}, "fusion_lon": 0.0, "lat": 38.9090735, "bike_id": "6dda50bb7ee640dc882290cadbce0b6d", "type": "electric_scooter", "is_reserved": 0, "lon": -76.99898516666667}, {"fusion_lat": 0.0, "name": "3205d8c32cd423238110bb1823f3335c", "is_disabled": 0, "rental_uris": {"android": "https://dc.lft.to/lastmile_qr_scan", "ios": "https://dc.lft.to/lastmile_qr_scan"}, "fusion_lon": 0.0, "lat": 38.990976333333336, "bike_id": "3205d8c32cd423238110bb1823f3335c", "type": "electric_bike", "is_reserved": 0, "lon": -76.993725}, {"fusion_lat": 0.0, "name": "eb940cf363ef51912695af1739677a20", "is_disabled": 0, "rental_uris": {"android": "https://dc.lft.to/lastmile_qr_scan", "ios": "https://dc.lft.to/lastmile_qr_scan"}, "fusion_lon": 0.0, "lat": 38.9068665, "bike_id": "eb940cf363ef51912695af1739677a20", "type": "electric_scooter", "is_reserved": 0, "lon": -77.01083416666667}, {"fusion_lat": 0.0, "name": "3e763a84286208ba02ced657cf2099f5", "is_disabled": 0, "rental_uris": {"android": "https://dc.lft.to/lastmile_qr_scan", "ios": "https://dc.lft.to/lastmile_qr_scan"}, "fusion_lon": 0.0, "lat": 38.907013166666665, "bike_id": "3e763a84286208ba02ced657cf2099f5", "type": "electric_scooter", "is_reserved": 0, "lon": -76.98698333333333}, {"fusion_lat": 0.0, "name": "8cbd364c7ad18ebf54d16ebedb317370", "is_disabled": 0, "rental_uris": {"android": "https://dc.lft.to/lastmile_qr_scan", "ios": "https://dc.lft.to/lastmile_qr_scan"}, "fusion_lon": 0.0, "lat": 38.898981, "bike_id": "8cbd364c7ad18ebf54d16ebedb317370", "type": "electric_bike", "is_reserved": 0, "lon": -77.096164}, {"fusion_lat": 0.0, "name": "c1ffdeaa107ac9ff2cc1e9bb5263f163", "is_disabled": 0, "rental_uris": {"android": "https://dc.lft.to/lastmile_qr_scan", "ios": "https://dc.lft.to/lastmile_qr_scan"}, "fusion_lon": 0.0, "lat": 38.89198616666667, "bike_id": "c1ffdeaa107ac9ff2cc1e9bb5263f163", "type": "electric_scooter", "is_reserved": 0, "lon": -77.021302}, {"fusion_lat": 0.0, "name": "5f0a49ea101682a60a31cb2d6cc88c99", "is_disabled": 0, "rental_uris": {"android": "https://dc.lft.to/lastmile_qr_scan", "ios": "https://dc.lft.to/lastmile_qr_scan"}, "fusion_lon": 0.0, "lat": 38.917478, "bike_id": "5f0a49ea101682a60a31cb2d6cc88c99", "type": "electric_scooter", "is_reserved": 0, "lon": -77.02396533333334}, {"fusion_lat": 0.0, "name": "421b041e735316c9922013a4909ad451", "is_disabled": 0, "rental_uris": {"android": "https://dc.lft.to/lastmile_qr_scan", "ios": "https://dc.lft.to/lastmile_qr_scan"}, "fusion_lon": 0.0, "lat": 38.89603733333333, "bike_id": "421b041e735316c9922013a4909ad451", "type": "electric_scooter", "is_reserved": 0, "lon": -77.00330533333333}, {"fusion_lat": 0.0, "name": "17627c65a45405ea8a03180c66416fd0", "is_disabled": 0, "rental_uris": {"android": "https://dc.lft.to/lastmile_qr_scan", "ios": "https://dc.lft.to/lastmile_qr_scan"}, "fusion_lon": 0.0, "lat": 38.92111516666667, "bike_id": "17627c65a45405ea8a03180c66416fd0", "type": "electric_scooter", "is_reserved": 0, "lon": -77.07475883333333}, {"fusion_lat": 0.0, "name": "018ba90b084fb92a4690c1849a4f90af", "is_disabled": 0, "rental_uris": {"android": "https://dc.lft.to/lastmile_qr_scan", "ios": "https://dc.lft.to/lastmile_qr_scan"}, "fusion_lon": 0.0, "lat": 38.9154695, "bike_id": "018ba90b084fb92a4690c1849a4f90af", "type": "electric_scooter", "is_reserved": 0, "lon": -77.038488}, {"fusion_lat": 0.0, "name": "608806d56248589375162a33b75f10ef", "is_disabled": 0, "rental_uris": {"android": "https://dc.lft.to/lastmile_qr_scan", "ios": "https://dc.lft.to/lastmile_qr_scan"}, "fusion_lon": 0.0, "lat": 38.9206375, "bike_id": "608806d56248589375162a33b75f10ef", "type": "electric_scooter", "is_reserved": 0, "lon": -77.0346325}, {"fusion_lat": 0.0, "name": "b57baf0ed9221c625edcdc97a80c55b2", "is_disabled": 0, "rental_uris": {"android": "https://dc.lft.to/lastmile_qr_scan", "ios": "https://dc.lft.to/lastmile_qr_scan"}, "fusion_lon": 0.0, "lat": 38.866499, "bike_id": "b57baf0ed9221c625edcdc97a80c55b2", "type": "electric_scooter", "is_reserved": 0, "lon": -76.985166}, {"fusion_lat": 0.0, "name": "e2300605a2e4eaa53381cc58a6291f9c", "is_disabled": 0, "rental_uris": {"android": "https://dc.lft.to/lastmile_qr_scan", "ios": "https://dc.lft.to/lastmile_qr_scan"}, "fusion_lon": 0.0, "lat": 38.865226166666666, "bike_id": "e2300605a2e4eaa53381cc58a6291f9c", "type": "electric_bike", "is_reserved": 0, "lon": -76.9734145}, {"fusion_lat": 0.0, "name": "e255dfa7e3f5666ffe54a4bdab6c5372", "is_disabled": 0, "rental_uris": {"android": "https://dc.lft.to/lastmile_qr_scan", "ios": "https://dc.lft.to/lastmile_qr_scan"}, "fusion_lon": 0.0, "lat": 38.90843133333333, "bike_id": "e255dfa7e3f5666ffe54a4bdab6c5372", "type": "electric_scooter", "is_reserved": 0, "lon": -77.03295133333333}, {"fusion_lat": 0.0, "name": "716fe21cfee8302e9e1e33e794331960", "is_disabled": 0, "rental_uris": {"android": "https://dc.lft.to/lastmile_qr_scan", "ios": "https://dc.lft.to/lastmile_qr_scan"}, "fusion_lon": 0.0, "lat": 38.932707, "bike_id": "716fe21cfee8302e9e1e33e794331960", "type": "electric_scooter", "is_reserved": 0, "lon": -77.0453755}, {"fusion_lat": 0.0, "name": "48088e89dfca43cf6d8aad68224935b6", "is_disabled": 0, "rental_uris": {"android": "https://dc.lft.to/lastmile_qr_scan", "ios": "https://dc.lft.to/lastmile_qr_scan"}, "fusion_lon": 0.0, "lat": 38.912957666666664, "bike_id": "48088e89dfca43cf6d8aad68224935b6", "type": "electric_scooter", "is_reserved": 0, "lon": -77.03181116666667}, {"fusion_lat": 0.0, "name": "dc25e81d2c8e5ed7c19bb6433b1e7d27", "is_disabled": 0, "rental_uris": {"android": "https://dc.lft.to/lastmile_qr_scan", "ios": "https://dc.lft.to/lastmile_qr_scan"}, "fusion_lon": 0.0, "lat": 38.89722066666667, "bike_id": "dc25e81d2c8e5ed7c19bb6433b1e7d27", "type": "electric_scooter", "is_reserved": 0, "lon": -77.008012}, {"fusion_lat": 0.0, "name": "6b9f2d9125723ff907b0797c6933dc38", "is_disabled": 0, "rental_uris": {"android": "https://dc.lft.to/lastmile_qr_scan", "ios": "https://dc.lft.to/lastmile_qr_scan"}, "fusion_lon": 0.0, "lat": 38.90003866666667, "bike_id": "6b9f2d9125723ff907b0797c6933dc38", "type": "electric_scooter", "is_reserved": 0, "lon": -77.041077}, {"fusion_lat": 0.0, "name": "3bcf5dd12ed8e0f30ca4259c786b15a6", "is_disabled": 0, "rental_uris": {"android": "https://dc.lft.to/lastmile_qr_scan", "ios": "https://dc.lft.to/lastmile_qr_scan"}, "fusion_lon": 0.0, "lat": 38.955402, "bike_id": "3bcf5dd12ed8e0f30ca4259c786b15a6", "type": "electric_scooter", "is_reserved": 0, "lon": -77.02792866666667}, {"fusion_lat": 0.0, "name": "e185eb2dd80749c34dae9b5f2297f22c", "is_disabled": 0, "rental_uris": {"android": "https://dc.lft.to/lastmile_qr_scan", "ios": "https://dc.lft.to/lastmile_qr_scan"}, "fusion_lon": 0.0, "lat": 38.919817, "bike_id": "e185eb2dd80749c34dae9b5f2297f22c", "type": "electric_scooter", "is_reserved": 0, "lon": -77.041771}, {"fusion_lat": 0.0, "name": "f997fe786e07f085ec9c7b8bbfd9cdc4", "is_disabled": 0, "rental_uris": {"android": "https://dc.lft.to/lastmile_qr_scan", "ios": "https://dc.lft.to/lastmile_qr_scan"}, "fusion_lon": 0.0, "lat": 38.90465716666667, "bike_id": "f997fe786e07f085ec9c7b8bbfd9cdc4", "type": "electric_scooter", "is_reserved": 0, "lon": -77.04343283333333}, {"fusion_lat": 0.0, "name": "9c5fe2b18a46eb901dd10acb06ba18e0", "is_disabled": 0, "rental_uris": {"android": "https://dc.lft.to/lastmile_qr_scan", "ios": "https://dc.lft.to/lastmile_qr_scan"}, "fusion_lon": 0.0, "lat": 38.916279833333334, "bike_id": "9c5fe2b18a46eb901dd10acb06ba18e0", "type": "electric_scooter", "is_reserved": 0, "lon": -77.03207966666666}, {"fusion_lat": 0.0, "name": "834e61e99d9d8f1bbc91931a5078f967", "is_disabled": 0, "rental_uris": {"android": "https://dc.lft.to/lastmile_qr_scan", "ios": "https://dc.lft.to/lastmile_qr_scan"}, "fusion_lon": 0.0, "lat": 38.8473075, "bike_id": "834e61e99d9d8f1bbc91931a5078f967", "type": "electric_scooter", "is_reserved": 0, "lon": -76.982559}, {"fusion_lat": 0.0, "name": "3f0b91f278e106d113ec5fded149f391", "is_disabled": 0, "rental_uris": {"android": "https://dc.lft.to/lastmile_qr_scan", "ios": "https://dc.lft.to/lastmile_qr_scan"}, "fusion_lon": 0.0, "lat": 38.8922175, "bike_id": "3f0b91f278e106d113ec5fded149f391", "type": "electric_scooter", "is_reserved": 0, "lon": -77.02670283333333}, {"fusion_lat": 0.0, "name": "c9ef4b312632c9e3288fc7f96ab84190", "is_disabled": 0, "rental_uris": {"android": "https://dc.lft.to/lastmile_qr_scan", "ios": "https://dc.lft.to/lastmile_qr_scan"}, "fusion_lon": 0.0, "lat": 38.928781666666666, "bike_id": "c9ef4b312632c9e3288fc7f96ab84190", "type": "electric_scooter", "is_reserved": 0, "lon": -77.03737583333333}, {"fusion_lat": 0.0, "name": "1ae643dec0e2f3e4242ba3094000f6e0", "is_disabled": 0, "rental_uris": {"android": "https://dc.lft.to/lastmile_qr_scan", "ios": "https://dc.lft.to/lastmile_qr_scan"}, "fusion_lon": 0.0, "lat": 38.902704, "bike_id": "1ae643dec0e2f3e4242ba3094000f6e0", "type": "electric_scooter", "is_reserved": 0, "lon": -77.03847833333333}, {"fusion_lat": 0.0, "name": "0adf5cbea9a736307c023809b070e3a2", "is_disabled": 0, "rental_uris": {"android": "https://dc.lft.to/lastmile_qr_scan", "ios": "https://dc.lft.to/lastmile_qr_scan"}, "fusion_lon": 0.0, "lat": 38.90795033333333, "bike_id": "0adf5cbea9a736307c023809b070e3a2", "type": "electric_scooter", "is_reserved": 0, "lon": -77.03185066666667}, {"fusion_lat": 0.0, "name": "8f5e920bf07c4751f2dfd88683c32462", "is_disabled": 0, "rental_uris": {"android": "https://dc.lft.to/lastmile_qr_scan", "ios": "https://dc.lft.to/lastmile_qr_scan"}, "fusion_lon": 0.0, "lat": 38.8788175, "bike_id": "8f5e920bf07c4751f2dfd88683c32462", "type": "electric_scooter", "is_reserved": 0, "lon": -77.02317183333334}, {"fusion_lat": 0.0, "name": "b7e7a89a16e48b89eb8eea010e409549", "is_disabled": 0, "rental_uris": {"android": "https://dc.lft.to/lastmile_qr_scan", "ios": "https://dc.lft.to/lastmile_qr_scan"}, "fusion_lon": 0.0, "lat": 38.9193015, "bike_id": "b7e7a89a16e48b89eb8eea010e409549", "type": "electric_scooter", "is_reserved": 0, "lon": -77.02479816666667}, {"fusion_lat": 0.0, "name": "35365e710ee87abccbd76ca061610a33", "is_disabled": 0, "rental_uris": {"android": "https://dc.lft.to/lastmile_qr_scan", "ios": "https://dc.lft.to/lastmile_qr_scan"}, "fusion_lon": 0.0, "lat": 38.91957883333333, "bike_id": "35365e710ee87abccbd76ca061610a33", "type": "electric_scooter", "is_reserved": 0, "lon": -77.076076}, {"fusion_lat": 0.0, "name": "291340b8254917cca45bfa5a1fc2c246", "is_disabled": 0, "rental_uris": {"android": "https://dc.lft.to/lastmile_qr_scan", "ios": "https://dc.lft.to/lastmile_qr_scan"}, "fusion_lon": 0.0, "lat": 38.90632333333333, "bike_id": "291340b8254917cca45bfa5a1fc2c246", "type": "electric_scooter", "is_reserved": 0, "lon": -77.03416483333334}, {"fusion_lat": 0.0, "name": "2a1fe484d1c240dd1705c24d7959d389", "is_disabled": 0, "rental_uris": {"android": "https://dc.lft.to/lastmile_qr_scan", "ios": "https://dc.lft.to/lastmile_qr_scan"}, "fusion_lon": 0.0, "lat": 38.90139666666666, "bike_id": "2a1fe484d1c240dd1705c24d7959d389", "type": "electric_scooter", "is_reserved": 0, "lon": -77.01905466666666}, {"fusion_lat": 0.0, "name": "0dd671d16ade8ae0b9a5e893705b4185", "is_disabled": 0, "rental_uris": {"android": "https://dc.lft.to/lastmile_qr_scan", "ios": "https://dc.lft.to/lastmile_qr_scan"}, "fusion_lon": 0.0, "lat": 38.840513333333334, "bike_id": "0dd671d16ade8ae0b9a5e893705b4185", "type": "electric_scooter", "is_reserved": 0, "lon": -76.97670566666666}, {"fusion_lat": 0.0, "name": "597453cf4708d0e2da41dd23961afe0d", "is_disabled": 0, "rental_uris": {"android": "https://dc.lft.to/lastmile_qr_scan", "ios": "https://dc.lft.to/lastmile_qr_scan"}, "fusion_lon": 0.0, "lat": 38.95086916666666, "bike_id": "597453cf4708d0e2da41dd23961afe0d", "type": "electric_scooter", "is_reserved": 0, "lon": -77.02824233333334}, {"fusion_lat": 0.0, "name": "91e642d2898206ddb2ea5867f1c24cef", "is_disabled": 0, "rental_uris": {"android": "https://dc.lft.to/lastmile_qr_scan", "ios": "https://dc.lft.to/lastmile_qr_scan"}, "fusion_lon": 0.0, "lat": 38.8976295, "bike_id": "91e642d2898206ddb2ea5867f1c24cef", "type": "electric_scooter", "is_reserved": 0, "lon": -76.98558583333333}, {"fusion_lat": 0.0, "name": "fbd207c41291c6f4b7e94af66cd3da83", "is_disabled": 0, "rental_uris": {"android": "https://dc.lft.to/lastmile_qr_scan", "ios": "https://dc.lft.to/lastmile_qr_scan"}, "fusion_lon": 0.0, "lat": 38.898353666666665, "bike_id": "fbd207c41291c6f4b7e94af66cd3da83", "type": "electric_scooter", "is_reserved": 0, "lon": -76.93180633333333}, {"fusion_lat": 0.0, "name": "7f3c197fdde3abd2ea364bd4af349168", "is_disabled": 0, "rental_uris": {"android": "https://dc.lft.to/lastmile_qr_scan", "ios": "https://dc.lft.to/lastmile_qr_scan"}, "fusion_lon": 0.0, "lat": 38.946452666666666, "bike_id": "7f3c197fdde3abd2ea364bd4af349168", "type": "electric_scooter", "is_reserved": 0, "lon": -77.06471066666667}, {"fusion_lat": 0.0, "name": "195e86509273b158c54fed511d1992cb", "is_disabled": 0, "rental_uris": {"android": "https://dc.lft.to/lastmile_qr_scan", "ios": "https://dc.lft.to/lastmile_qr_scan"}, "fusion_lon": 0.0, "lat": 38.90448516666667, "bike_id": "195e86509273b158c54fed511d1992cb", "type": "electric_bike", "is_reserved": 0, "lon": -76.9742155},