{"data": {"bikes": [{"name": "8b0488cd3044cefc2f688999dd97b587", "fusion_lat": 0.0, "type": "electric_scooter", "lat": 38.932, "is_reserved": 0, "is_disabled": 0, "fusion_lon": 0.0, "bike_id": "8b0488cd3044cefc2f688999dd97b587", "lon": -77.038558, "rental_uris": {"ios": "https://dc.lft.to/lastmile_qr_scan", "android": "https://dc.lft.to/lastmile_qr_scan"}}, {"name": "082ef08a6a3daa618dc44818fdced259", "fusion_lat": 0.0, "type": "electric_scooter", "lat": 38.917012166666666, "is_reserved": 0, "is_disabled": 0, "fusion_lon": 0.0, "bike_id": "082ef08a6a3daa618dc44818fdced259", "lon": -77.00813116666667, "rental_uris": {"ios": "https://dc.lft.to/lastmile_qr_scan", "android": "https://dc.lft.to/lastmile_qr_scan"}}, {"name": "4e19332845aefb6a53f6a1f11c41c8cf", "fusion_lat": 0.0, "type": "electric_scooter", "lat": 38.906980833333336, "is_reserved": 0, "is_disabled": 0, "fusion_lon": 0.0, "bike_id": "4e19332845aefb6a53f6a1f11c41c8cf", "lon": -77.0320825, "rental_uris": {"ios": "https://dc.lft.to/lastmile_qr_scan", "android": "https://dc.lft.to/lastmile_qr_scan"}}, {"name": "0c0c0df64126ae866e44b8ce695c6c11", "fusion_lat": 0.0, "type": "electric_bike", "lat": 38.90232566666667, "is_reserved": 0, "is_disabled": 0, "fusion_lon": 0.0, "bike_id": "0c0c0df64126ae866e44b8ce695c6c11", "lon": -77.06234383333333, "rental_uris": {"ios": "https://dc.lft.to/lastmile_qr_scan", "android": "https://dc.lft.to/lastmile_qr_scan"}}, {"name": "fa3692db7652764a1d75dae291d700fa", "fusion_lat": 0.0, "type": "electric_scooter", "lat": 38.89475183333333, "is_reserved": 0, "is_disabled": 0, "fusion_lon": 0.0, "bike_id": "fa3692db7652764a1d75dae291d700fa", "lon": -76.986019, "rental_uris": {"ios": "https://dc.lft.to/lastmile_qr_scan", "android": "https://dc.lft.to/lastmile_qr_scan"}}, {"name": "48992c7b87760d3ae7734126f5906464", "fusion_lat": 0.0, "type": "electric_scooter", "lat": 38.89987633333333, "is_reserved": 0, "is_disabled": 0, "fusion_lon": 0.0, "bike_id": "48992c7b87760d3ae7734126f5906464", "lon": -77.02283233333333, "rental_uris": {"ios": "https://dc.lft.to/lastmile_qr_scan", "android": "https://dc.lft.to/lastmile_qr_scan"}}, {"name": "36084d465713e5cbdd7d5b015d99b700", "fusion_lat": 0.0, "type": "electric_scooter", "lat": 38.90397816666667, "is_reserved": 0, "is_disabled": 0, "fusion_lon": 0.0, "bike_id": "36084d465713e5cbdd7d5b015d99b700", "lon": -77.04032916666667, "rental_uris": {"ios": "https://dc.lft.to/lastmile_qr_scan", "android": "https://dc.lft.to/lastmile_qr_scan"}}, {"name": "aebca4f6d938369779cbc1eb5390cf3b", "fusion_lat": 0.0, "type": "electric_scooter", "lat": 38.89622516666667, "is_reserved": 0, "is_disabled": 0, "fusion_lon": 0.0, "bike_id": "aebca4f6d938369779cbc1eb5390cf3b", "lon": -77.02796116666667, "rental_uris": {"ios": "https://dc.lft.to/lastmile_qr_scan", "android": "https://dc.lft.to/lastmile_qr_scan"}}, {"name": "9f98a5e985ad615c831dc1ff04623b43", "fusion_lat": 0.0, "type": "electric_scooter", "lat": 38.92535983333333, "is_reserved": 0, "is_disabled": 0, "fusion_lon": 0.0, "bike_id": "9f98a5e985ad615c831dc1ff04623b43", "lon": -77.02637783333333, "rental_uris": {"ios": "https://dc.lft.to/lastmile_qr_scan", "android": "https://dc.lft.to/lastmile_qr_scan"}}, {"name": "ceab591e66594fbea3322e10b5186635", "fusion_lat": 0.0, "type": "electric_scooter", "lat": 38.9498035, "is_reserved": 0, "is_disabled": 0, "fusion_lon": 0.0, "bike_id": "ceab591e66594fbea3322e10b5186635", "lon": -77.067003, "rental_uris": {"ios": "https://dc.lft.to/lastmile_qr_scan", "android": "https://dc.lft.to/lastmile_qr_scan"}}, {"name": "c0ed8035d1867b8b6aa0472a58dbb329", "fusion_lat": 0.0, "type": "electric_scooter", "lat": 38.937726833333336, "is_reserved": 0, "is_disabled": 0, "fusion_lon": 0.0, "bike_id": "c0ed8035d1867b8b6aa0472a58dbb329", "lon": -77.03260683333333, "rental_uris": {"ios": "https://dc.lft.to/lastmile_qr_scan", "android": "https://dc.lft.to/lastmile_qr_scan"}}, {"name": "eb9568e4bb24c1b6060bbb0cb48bb147", "fusion_lat": 0.0, "type": "electric_scooter", "lat": 38.903284666666664, "is_reserved": 0, "is_disabled": 0, "fusion_lon": 0.0, "bike_id": "eb9568e4bb24c1b6060bbb0cb48bb147", "lon": -77.03627166666666, "rental_uris": {"ios": "https://dc.lft.to/lastmile_qr_scan", "android": "https://dc.lft.to/lastmile_qr_scan"}}, {"name": "9ab38a509ff1b6c26a7dbc32650afb45", "fusion_lat": 0.0, "type": "electric_scooter", "lat": 38.903184833333334, "is_reserved": 0, "is_disabled": 0, "fusion_lon": 0.0, "bike_id": "9ab38a509ff1b6c26a7dbc32650afb45", "lon": -77.03440666666667, "rental_uris": {"ios": "https://dc.lft.to/lastmile_qr_scan", "android": "https://dc.lft.to/lastmile_qr_scan"}}, {"name": "d503d324dde8d4d188fcebdb67276a82", "fusion_lat": 0.0, "type": "electric_bike", "lat": 38.850599333333335, "is_reserved": 0, "is_disabled": 0, "fusion_lon": 0.0, "bike_id": "d503d324dde8d4d188fcebdb67276a82", "lon": -76.9733235, "rental_uris": {"ios": "https://dc.lft.to/lastmile_qr_scan", "android": "https://dc.lft.to/lastmile_qr_scan"}}, {"name": "8f1e3e86dcc7dab07e1fb0aec3aa0922", "fusion_lat": 0.0, "type": "electric_scooter", "lat": 38.9071655, "is_reserved": 0, "is_disabled": 0, "fusion_lon": 0.0, "bike_id": "8f1e3e86dcc7dab07e1fb0aec3aa0922", "lon": -76.98601716666667, "rental_uris": {"ios": "https://dc.lft.to/lastmile_qr_scan", "android": "https://dc.lft.to/lastmile_qr_scan"}}, {"name": "35b31655bfff214c14640c79145012fa", "fusion_lat": 0.0, "type": "electric_scooter", "lat": 38.883517166666664, "is_reserved": 0, "is_disabled": 0, "fusion_lon": 0.0, "bike_id": "35b31655bfff214c14640c79145012fa", "lon": -76.9961145, "rental_uris": {"ios": "https://dc.lft.to/lastmile_qr_scan", "android": "https://dc.lft.to/lastmile_qr_scan"}}, {"name": "3798f54af5fd87358805ac4e758b830c", "fusion_lat": 0.0, "type": "electric_scooter", "lat": 38.923573833333336, "is_reserved": 0, "is_disabled": 0, "fusion_lon": 0.0, "bike_id": "3798f54af5fd87358805ac4e758b830c", "lon": -77.05082966666667, "rental_uris": {"ios": "https://dc.lft.to/lastmile_qr_scan", "android": "https://dc.lft.to/lastmile_qr_scan"}}, {"name": "0501f6d1e55ead015fee297afc61df32", "fusion_lat": 0.0, "type": "electric_scooter", "lat": 38.90026183333333, "is_reserved": 0, "is_disabled": 0, "fusion_lon": 0.0, "bike_id": "0501f6d1e55ead015fee297afc61df32", "lon": -77.0075995, "rental_uris": {"ios": "https://dc.lft.to/lastmile_qr_scan", "android": "https://dc.lft.to/lastmile_qr_scan"}}, {"name": "fb58096e23c438e7cc15b36c6c3d8729", "fusion_lat": 0.0, "type": "electric_scooter", "lat": 38.90063166666667, "is_reserved": 0, "is_disabled": 0, "fusion_lon": 0.0, "bike_id": "fb58096e23c438e7cc15b36c6c3d8729", "lon": -77.0453815, "rental_uris": {"ios": "https://dc.lft.to/lastmile_qr_scan", "android": "https://dc.lft.to/lastmile_qr_scan"}}, {"name": "a8a581f95844cb0f9fa083978e963ff5", "fusion_lat": 0.0, "type": "electric_scooter", "lat": 38.906437, "is_reserved": 0, "is_disabled": 0, "fusion_lon": 0.0, "bike_id": "a8a581f95844cb0f9fa083978e963ff5", "lon": -77.03874616666667, "rental_uris": {"ios": "https://dc.lft.to/lastmile_qr_scan", "android": "https://dc.lft.to/lastmile_qr_scan"}}, {"name": "ab54859401997604ad3f10221d22ccc7", "fusion_lat": 0.0, "type": "electric_scooter", "lat": 38.8901395, "is_reserved": 0, "is_disabled": 0, "fusion_lon": 0.0, "bike_id": "ab54859401997604ad3f10221d22ccc7", "lon": -76.93743383333333, "rental_uris": {"ios": "https://dc.lft.to/lastmile_qr_scan", "android": "https://dc.lft.to/lastmile_qr_scan"}}, {"name": "6b55d6aaf12cd4b8cd81d8dcc963e4e2", "fusion_lat": 0.0, "type": "electric_scooter", "lat": 38.9360495, "is_reserved": 0, "is_disabled": 0, "fusion_lon": 0.0, "bike_id": "6b55d6aaf12cd4b8cd81d8dcc963e4e2", "lon": -77.05862566666667, "rental_uris": {"ios": "https://dc.lft.to/lastmile_qr_scan", "android": "https://dc.lft.to/lastmile_qr_scan"}}, {"name": "c789640a930f643bfc21b737604de819", "fusion_lat": 0.0, "type": "electric_scooter", "lat": 38.920402, "is_reserved": 0, "is_disabled": 0, "fusion_lon": 0.0, "bike_id": "c789640a930f643bfc21b737604de819", "lon": -77.07146516666667, "rental_uris": {"ios": "https://dc.lft.to/lastmile_qr_scan", "android": "https://dc.lft.to/lastmile_qr_scan"}}, {"name": "315b6e61665606d4bf7f39b281f009c3", "fusion_lat": 0.0, "type": "electric_scooter", "lat": 38.917232166666665, "is_reserved": 0, "is_disabled": 0, "fusion_lon": 0.0, "bike_id": "315b6e61665606d4bf7f39b281f009c3", "lon": -77.04178966666667, "rental_uris": {"ios": "https://dc.lft.to/lastmile_qr_scan", "android": "https://dc.lft.to/lastmile_qr_scan"}}, {"name": "2d279c5e5550682eac2e097e513a17d2", "fusion_lat": 0.0, "type": "electric_scooter", "lat": 38.90138916666667, "is_reserved": 0, "is_disabled": 0, "fusion_lon": 0.0, "bike_id": "2d279c5e5550682eac2e097e513a17d2", "lon": -77.04240866666666, "rental_uris": {"ios": "https://dc.lft.to/lastmile_qr_scan", "android": "https://dc.lft.to/lastmile_qr_scan"}}, {"name": "82c42437bf71a6b81dd918ac6b434b4b", "fusion_lat": 0.0, "type": "electric_scooter", "lat": 38.9013125, "is_reserved": 0, "is_disabled": 0, "fusion_lon": 0.0, "bike_id": "82c42437bf71a6b81dd918ac6b434b4b", "lon": -77.04395516666666, "rental_uris": {"ios": "https://dc.lft.to/lastmile_qr_scan", "android": "https://dc.lft.to/lastmile_qr_scan"}}, {"name": "8c669795e85acd347c91bd18ac44ec40", "fusion_lat": 0.0, "type": "electric_scooter", "lat": 38.89710316666667, "is_reserved": 0, "is_disabled": 0, "fusion_lon": 0.0, "bike_id": "8c669795e85acd347c91bd18ac44ec40", "lon": -77.03374716666667, "rental_uris": {"ios": "https://dc.lft.to/lastmile_qr_scan", "android": "https://dc.lft.to/lastmile_qr_scan"}}, {"name": "aaa686222dd95e2fc7c63ee3852d3b7a", "fusion_lat": 0.0, "type": "electric_scooter", "lat": 38.945987833333334, "is_reserved": 0, "is_disabled": 0, "fusion_lon": 0.0, "bike_id": "aaa686222dd95e2fc7c63ee3852d3b7a", "lon": -77.02977666666666, "rental_uris": {"ios": "https://dc.lft.to/lastmile_qr_scan", "android": "https://dc.lft.to/lastmile_qr_scan"}}, {"name": "0e4f2d9d9d967b4f45207bede5411f80", "fusion_lat": 0.0, "type": "electric_scooter", "lat": 38.90376283333333, "is_reserved": 0, "is_disabled": 0, "fusion_lon": 0.0, "bike_id": "0e4f2d9d9d967b4f45207bede5411f80", "lon": -77.03863333333334, "rental_uris": {"ios": "https://dc.lft.to/lastmile_qr_scan", "android": "https://dc.lft.to/lastmile_qr_scan"}}, {"name": "05f50fc05f47c603bf2d49e9660e8ccd", "fusion_lat": 0.0, "type": "electric_scooter", "lat": 38.9095605, "is_reserved": 0, "is_disabled": 0, "fusion_lon": 0.0, "bike_id": "05f50fc05f47c603bf2d49e9660e8ccd", "lon": -77.03945216666666, "rental_uris": {"ios": "https://dc.lft.to/lastmile_qr_scan", "android": "https://dc.lft.to/lastmile_qr_scan"}}, {"name": "f4e70370d00e63b0b1591d38dda33782", "fusion_lat": 0.0, "type": "electric_scooter", "lat": 38.9487115, "is_reserved": 0, "is_disabled": 0, "fusion_lon": 0.0, "bike_id": "f4e70370d00e63b0b1591d38dda33782", "lon": -77.08010516666667, "rental_uris": {"ios": "https://dc.lft.to/lastmile_qr_scan", "android": "https://dc.lft.to/lastmile_qr_scan"}}, {"name": "23fd7e421c333193e366cfd30650ae95", "fusion_lat": 0.0, "type": "electric_scooter", "lat": 38.902866833333334, "is_reserved": 0, "is_disabled": 0, "fusion_lon": 0.0, "bike_id": "23fd7e421c333193e366cfd30650ae95", "lon": -77.03682316666666, "rental_uris": {"ios": "https://dc.lft.to/lastmile_qr_scan", "android": "https://dc.lft.to/lastmile_qr_scan"}}, {"name": "e1314465bc80819ec7c0cd2292b98160", "fusion_lat": 0.0, "type": "electric_scooter", "lat": 38.90273883333333, "is_reserved": 0, "is_disabled": 0, "fusion_lon": 0.0, "bike_id": "e1314465bc80819ec7c0cd2292b98160", "lon": -77.03834333333333, "rental_uris": {"ios": "https://dc.lft.to/lastmile_qr_scan", "android": "https://dc.lft.to/lastmile_qr_scan"}}, {"name": "08004eae04bde571818c77639a038b5e", "fusion_lat": 0.0, "type": "electric_scooter", "lat": 38.858027666666665, "is_reserved": 0, "is_disabled": 0, "fusion_lon": 0.0, "bike_id": "08004eae04bde571818c77639a038b5e", "lon": -76.991227, "rental_uris": {"ios": "https://dc.lft.to/lastmile_qr_scan", "android": "https://dc.lft.to/lastmile_qr_scan"}}, {"name": "0cc1b6815def2c6261b2b94378f5f40c", "fusion_lat": 0.0, "type": "electric_scooter", "lat": 38.91571533333333, "is_reserved": 0, "is_disabled": 0, "fusion_lon": 0.0, "bike_id": "0cc1b6815def2c6261b2b94378f5f40c", "lon": -77.03180916666666, "rental_uris": {"ios": "https://dc.lft.to/lastmile_qr_scan", "android": "https://dc.lft.to/lastmile_qr_scan"}}, {"name": "176a54e2c64991ede42f7b950b1d4ecf", "fusion_lat": 0.0, "type": "electric_scooter", "lat": 38.90306916666667, "is_reserved": 0, "is_disabled": 0, "fusion_lon": 0.0, "bike_id": "176a54e2c64991ede42f7b950b1d4ecf", "lon": -77.02371033333333, "rental_uris": {"ios": "https://dc.lft.to/lastmile_qr_scan", "android": "https://dc.lft.to/lastmile_qr_scan"}}, {"name": "b34e67275495e1cde21f2cbca4004861", "fusion_lat": 0.0, "type": "electric_scooter", "lat": 38.89427383333334, "is_reserved": 0, "is_disabled": 0, "fusion_lon": 0.0, "bike_id": "b34e67275495e1cde21f2cbca4004861", "lon": -76.932618, "rental_uris": {"ios": "https://dc.lft.to/lastmile_qr_scan", "android": "https://dc.lft.to/lastmile_qr_scan"}}, {"name": "56f542663635f49d391b8a588aee59f5", "fusion_lat": 0.0, "type": "electric_scooter", "lat": 38.90965683333334, "is_reserved": 0, "is_disabled": 0, "fusion_lon": 0.0, "bike_id": "56f542663635f49d391b8a588aee59f5", "lon": -77.03819816666666, "rental_uris": {"ios": "https://dc.lft.to/lastmile_qr_scan", "android": "https://dc.lft.to/lastmile_qr_scan"}}, {"name": "b7eae66fdd8366dab99cdfa5dac368fa", "fusion_lat": 0.0, "type": "electric_bike", "lat": 39.003804833333334, "is_reserved": 0, "is_disabled": 0, "fusion_lon": 0.0, "bike_id": "b7eae66fdd8366dab99cdfa5dac368fa", "lon": -77.01300666666667, "rental_uris": {"ios": "https://dc.lft.to/lastmile_qr_scan", "android": "https://dc.lft.to/lastmile_qr_scan"}}, {"name": "bdc19f5ef29a7dd5a48206040a098597", "fusion_lat": 0.0, "type": "electric_scooter", "lat": 38.92475666666667, "is_reserved": 0, "is_disabled": 0, "fusion_lon": 0.0, "bike_id": "bdc19f5ef29a7dd5a48206040a098597", "lon": -77.05212716666666, "rental_uris": {"ios": "https://dc.lft.to/lastmile_qr_scan", "android": "https://dc.lft.to/lastmile_qr_scan"}}, {"name": "fa47307becfb455e42c492d1bd016fbd", "fusion_lat": 0.0, "type": "electric_scooter", "lat": 38.9563795, "is_reserved": 0, "is_disabled": 0, "fusion_lon": 0.0, "bike_id": "fa47307becfb455e42c492d1bd016fbd", "lon": -77.03282716666666, "rental_uris": {"ios": "https://dc.lft.to/lastmile_qr_scan", "android": "https://dc.lft.to/lastmile_qr_scan"}}, {"name": "b6d42fdcebdf942c29cb63010beb249d", "fusion_lat": 0.0, "type": "electric_scooter", "lat": 38.907756, "is_reserved": 0, "is_disabled": 0, "fusion_lon": 0.0, "bike_id": "b6d42fdcebdf942c29cb63010beb249d", "lon": -77.071659, "rental_uris": {"ios": "https://dc.lft.to/lastmile_qr_scan", "android": "https://dc.lft.to/lastmile_qr_scan"}}, {"name": "09d12ce3d62b370a733c452cad23cb03", "fusion_lat": 0.0, "type": "electric_scooter", "lat": 38.9085835, "is_reserved": 0, "is_disabled": 0, "fusion_lon": 0.0, "bike_id": "09d12ce3d62b370a733c452cad23cb03", "lon": -76.98615383333333, "rental_uris": {"ios": "https://dc.lft.to/lastmile_qr_scan", "android": "https://dc.lft.to/lastmile_qr_scan"}}, {"name": "066deda03df893e26f15a9a22ebe419d", "fusion_lat": 0.0, "type": "electric_scooter", "lat": 38.9180905, "is_reserved": 0, "is_disabled": 0, "fusion_lon": 0.0, "bike_id": "066deda03df893e26f15a9a22ebe419d", "lon": -77.01458466666666, "rental_uris": {"ios": "https://dc.lft.to/lastmile_qr_scan", "android": "https://dc.lft.to/lastmile_qr_scan"}}, {"name": "f1c01c0b3987b722dd531e7d689574b9", "fusion_lat": 0.0, "type": "electric_scooter", "lat": 38.94045716666667, "is_reserved": 0, "is_disabled": 0, "fusion_lon": 0.0, "bike_id": "f1c01c0b3987b722dd531e7d689574b9", "lon": -77.02979916666666, "rental_uris": {"ios": "https://dc.lft.to/lastmile_qr_scan", "android": "https://dc.lft.to/lastmile_qr_scan"}}, {"name": "1b8a755a6831dc4dfe23db60c848ed80", "fusion_lat": 0.0, "type": "electric_scooter", "lat": 38.9655785, "is_reserved": 0, "is_disabled": 0, "fusion_lon": 0.0, "bike_id": "1b8a755a6831dc4dfe23db60c848ed80", "lon": -77.01625583333333, "rental_uris": {"ios": "https://dc.lft.to/lastmile_qr_scan", "android": "https://dc.lft.to/lastmile_qr_scan"}}, {"name": "f47178bafc245d436b3cf16f1cd73875", "fusion_lat": 0.0, "type": "electric_scooter", "lat": 38.9001195, "is_reserved": 0, "is_disabled": 0, "fusion_lon": 0.0, "bike_id": "f47178bafc245d436b3cf16f1cd73875", "lon": -77.0115475, "rental_uris": {"ios": "https://dc.lft.to/lastmile_qr_scan", "android": "https://dc.lft.to/lastmile_qr_scan"}}, {"name": "df858571fbc57d5367af10e9e0ac2838", "fusion_lat": 0.0, "type": "electric_scooter", "lat": 38.884651166666664, "is_reserved": 0, "is_disabled": 0, "fusion_lon": 0.0, "bike_id": "df858571fbc57d5367af10e9e0ac2838", "lon": -77.02840033333334, "rental_uris": {"ios": "https://dc.lft.to/lastmile_qr_scan", "android": "https://dc.lft.to/lastmile_qr_scan"}}, {"name": "96dc76bfed64a53f6ef7dc279b4e1257", "fusion_lat": 0.0, "type": "electric_bike", "lat": 38.92865966666667, "is_reserved": 0, "is_disabled": 0, "fusion_lon": 0.0, "bike_id": "96dc76bfed64a53f6ef7dc279b4e1257", "lon": -76.9611385, "rental_uris": {"ios": "https://dc.lft.to/lastmile_qr_scan", "android": "https://dc.lft.to/lastmile_qr_scan"}}, {"name": "99311f85b4229f47e61802d91d10be94", "fusion_lat": 0.0, "type": "electric_scooter", "lat": 38.8975655, "is_reserved": 0, "is_disabled": 0, "fusion_lon": 0.0, "bike_id": "99311f85b4229f47e61802d91d10be94", "lon": -77.03259966666667, "rental_uris": {"ios": "https://dc.lft.to/lastmile_qr_scan", "android": "https://dc.lft.to/lastmile_qr_scan"}}, {"name": "2f07625ffebde599c97f31f3f5adeb1e", "fusion_lat": 0.0, "type": "electric_bike", "lat": 38.930001, "is_reserved": 0, "is_disabled": 0, "fusion_lon": 0.0, "bike_id": "2f07625ffebde599c97f31f3f5adeb1e", "lon": -77.01085983333333, "rental_uris": {"ios": "https://dc.lft.to/lastmile_qr_scan", "android": "https://dc.lft.to/lastmile_qr_scan"}}, {"name": "62b572e510f3e7e97425e26218ddc0b1", "fusion_lat": 0.0, "type": "electric_scooter", "lat": 38.909125833333334, "is_reserved": 0, "is_disabled": 0, "fusion_lon": 0.0, "bike_id": "62b572e510f3e7e97425e26218ddc0b1", "lon": -77.03659533333334, "rental_uris": {"ios": "https://dc.lft.to/lastmile_qr_scan", "android": "https://dc.lft.to/lastmile_qr_scan"}}, {"name": "47a4d6ef4501fe138649fe5845a51579", "fusion_lat": 0.0, "type": "electric_scooter", "lat": 38.900292, "is_reserved": 0, "is_disabled": 0, "fusion_lon": 0.0, "bike_id": "47a4d6ef4501fe138649fe5845a51579", "lon": -77.00101466666666, "rental_uris": {"ios": "https://dc.lft.to/lastmile_qr_scan", "android": "https://dc.lft.to/lastmile_qr_scan"}}, {"name": "59d3d8f57cc1c63d5895e5a50e5b77a2", "fusion_lat": 0.0, "type": "electric_scooter", "lat": 38.8749545, "is_reserved": 0, "is_disabled": 0, "fusion_lon": 0.0, "bike_id": "59d3d8f57cc1c63d5895e5a50e5b77a2", "lon": -76.99798766666666, "rental_uris": {"ios": "https://dc.lft.to/lastmile_qr_scan", "android": "https://dc.lft.to/lastmile_qr_scan"}}, {"name": "34cedb9fd79ec3e207baaf8e7f0d1659", "fusion_lat": 0.0, "type": "electric_scooter", "lat": 38.918963166666664, "is_reserved": 0, "is_disabled": 0, "fusion_lon": 0.0, "bike_id": "34cedb9fd79ec3e207baaf8e7f0d1659", "lon": -77.01973766666667, "rental_uris": {"ios": "https://dc.lft.to/lastmile_qr_scan", "android": "https://dc.lft.to/lastmile_qr_scan"}}, {"name": "4d257de9191f996216574c10fb7b2871", "fusion_lat": 0.0, "type": "electric_scooter", "lat": 38.877058, "is_reserved": 0, "is_disabled": 0, "fusion_lon": 0.0, "bike_id": "4d257de9191f996216574c10fb7b2871", "lon": -76.99389416666666, "rental_uris": {"ios": "https://dc.lft.to/lastmile_qr_scan", "android": "https://dc.lft.to/lastmile_qr_scan"}}, {"name": "77c400d28ba8b924b0382057021ec46b", "fusion_lat": 0.0, "type": "electric_scooter", "lat": 38.9277725, "is_reserved": 0, "is_disabled": 0, "fusion_lon": 0.0, "bike_id": "77c400d28ba8b924b0382057021ec46b", "lon": -77.02783633333334, "rental_uris": {"ios": "https://dc.lft.to/lastmile_qr_scan", "android": "https://dc.lft.to/lastmile_qr_scan"}}, {"name": "cd643d7b0aad41c4222d8e818e7e0af1", "fusion_lat": 0.0, "type": "electric_scooter", "lat": 38.91818583333333, "is_reserved": 0, "is_disabled": 0, "fusion_lon": 0.0, "bike_id": "cd643d7b0aad41c4222d8e818e7e0af1", "lon": -77.03334316666667, "rental_uris": {"ios": "https://dc.lft.to/lastmile_qr_scan", "android": "https://dc.lft.to/lastmile_qr_scan"}}, {"name": "da8c545ce7d5a15c2d40307297ab160e", "fusion_lat": 0.0, "type": "electric_bike", "lat": 38.90897283333334, "is_reserved": 0, "is_disabled": 0, "fusion_lon": 0.0, "bike_id": "da8c545ce7d5a15c2d40307297ab160e", "lon": -77.03155966666667, "rental_uris": {"ios": "https://dc.lft.to/lastmile_qr_scan", "android": "https://dc.lft.to/lastmile_qr_scan"}}, {"name": "c19af243524d8c4824ca98b3034060e3", "fusion_lat": 0.0, "type": "electric_scooter", "lat": 38.92890466666667, "is_reserved": 0, "is_disabled": 0, "fusion_lon": 0.0, "bike_id": "c19af243524d8c4824ca98b3034060e3", "lon": -77.01663233333333, "rental_uris": {"ios": "https://dc.lft.to/lastmile_qr_scan", "android": "https://dc.lft.to/lastmile_qr_scan"}}, {"name": "66f57e71a63cfcf6c1fd0dfab5774fca", "fusion_lat": 0.0, "type": "electric_scooter", "lat": 38.892261, "is_reserved": 0, "is_disabled": 0, "fusion_lon": 0.0, "bike_id": "66f57e71a63cfcf6c1fd0dfab5774fca", "lon": -77.0500435, "rental_uris": {"ios": "https://dc.lft.to/lastmile_qr_scan", "android": "https://dc.lft.to/lastmile_qr_scan"}}, {"name": "76d271dd39f79bebfa0f8d473745613d", "fusion_lat": 0.0, "type": "electric_scooter", "lat": 38.89218966666667, "is_reserved": 0, "is_disabled": 0, "fusion_lon": 0.0, "bike_id": "76d271dd39f79bebfa0f8d473745613d", "lon": -77.02624166666666, "rental_uris": {"ios": "https://dc.lft.to/lastmile_qr_scan", "android": "https://dc.lft.to/lastmile_qr_scan"}}, {"name": "d79c56053e199da20e1764f33e84f862", "fusion_lat": 0.0, "type": "electric_scooter", "lat": 38.921669, "is_reserved": 0, "is_disabled": 0, "fusion_lon": 0.0, "bike_id": "d79c56053e199da20e1764f33e84f862", "lon": -77.02684383333333, "rental_uris": {"ios": "https://dc.lft.to/lastmile_qr_scan", "android": "https://dc.lft.to/lastmile_qr_scan"}}, {"name": "2656627338226984d433245e5ac0c513", "fusion_lat": 0.0, "type": "electric_scooter", "lat": 38.91131633333333, "is_reserved": 0, "is_disabled": 0, "fusion_lon": 0.0, "bike_id": "2656627338226984d433245e5ac0c513", "lon": -77.0435385, "rental_uris": {"ios": "https://dc.lft.to/lastmile_qr_scan", "android": "https://dc.lft.to/lastmile_qr_scan"}}, {"name": "2df81a2deb240dd290fa66fc6f673c67", "fusion_lat": 0.0, "type": "electric_scooter", "lat": 38.92942516666667, "is_reserved": 0, "is_disabled": 0, "fusion_lon": 0.0, "bike_id": "2df81a2deb240dd290fa66fc6f673c67", "lon": -76.99744083333333, "rental_uris": {"ios": "https://dc.lft.to/lastmile_qr_scan", "android": "https://dc.lft.to/lastmile_qr_scan"}}, {"name": "52cbf8e088d2b188e23e4afafe362c96", "fusion_lat": 0.0, "type": "electric_scooter", "lat": 38.89533633333333, "is_reserved": 0, "is_disabled": 0, "fusion_lon": 0.0, "bike_id": "52cbf8e088d2b188e23e4afafe362c96", "lon": -77.02429566666666, "rental_uris": {"ios": "https://dc.lft.to/lastmile_qr_scan", "android": "https://dc.lft.to/lastmile_qr_scan"}}, {"name": "b19fbb2672ece23ff3cf8a5544f8fcb8", "fusion_lat": 0.0, "type": "electric_scooter", "lat": 38.8801095, "is_reserved": 0, "is_disabled": 0, "fusion_lon": 0.0, "bike_id": "b19fbb2672ece23ff3cf8a5544f8fcb8", "lon": -77.02488583333333, "rental_uris": {"ios": "https://dc.lft.to/lastmile_qr_scan", "android": "https://dc.lft.to/lastmile_qr_scan"}}, {"name": "7b123215c8932d2dfe879c4972b70877", "fusion_lat": 0.0, "type": "electric_bike", "lat": 38.948942, "is_reserved": 0, "is_disabled": 0, "fusion_lon": 0.0, "bike_id": "7b123215c8932d2dfe879c4972b70877", "lon": -76.96369883333334, "rental_uris": {"ios": "https://dc.lft.to/lastmile_qr_scan", "android": "https://dc.lft.to/lastmile_qr_scan"}}, {"name": "bb7a8ac9d77463a72cd95bfa89bb897c", "fusion_lat": 0.0, "type": "electric_scooter", "lat": 38.92706483333333, "is_reserved": 0, "is_disabled": 0, "fusion_lon": 0.0, "bike_id": "bb7a8ac9d77463a72cd95bfa89bb897c", "lon": -77.02077366666667, "rental_uris": {"ios": "https://dc.lft.to/lastmile_qr_scan", "android": "https://dc.lft.to/lastmile_qr_scan"}}, {"name": "37a3852bc78b875885924f9ee5720886", "fusion_lat": 0.0, "type": "electric_scooter", "lat": 38.906569, "is_reserved": 0, "is_disabled": 0, "fusion_lon": 0.0, "bike_id": "37a3852bc78b875885924f9ee5720886", "lon": -77.03854416666667, "rental_uris": {"ios": "https://dc.lft.to/lastmile_qr_scan", "android": "https://dc.lft.to/lastmile_qr_scan"}}, {"name": "025099b7e208644ac650bd71aa16fbde", "fusion_lat": 0.0, "type": "electric_scooter", "lat": 38.89221216666667, "is_reserved": 0, "is_disabled": 0, "fusion_lon": 0.0, "bike_id": "025099b7e208644ac650bd71aa16fbde", "lon": -77.04369266666667, "rental_uris": {"ios": "https://dc.lft.to/lastmile_qr_scan", "android": "https://dc.lft.to/lastmile_qr_scan"}}, {"name": "1663d7d0c7c703a48fdb417239b95918", "fusion_lat": 0.0, "type": "electric_scooter", "lat": 38.896753, "is_reserved": 0, "is_disabled": 0, "fusion_lon": 0.0, "bike_id": "1663d7d0c7c703a48fdb417239b95918", "lon": -77.05155016666667, "rental_uris": {"ios": "https://dc.lft.to/lastmile_qr_scan", "android": "https://dc.lft.to/lastmile_qr_scan"}}, {"name": "d768d14d84ef2200151d9f4c4c9c2948", "fusion_lat": 0.0, "type": "electric_scooter", "lat": 38.866541166666664, "is_reserved": 0, "is_disabled": 0, "fusion_lon": 0.0, "bike_id": "d768d14d84ef2200151d9f4c4c9c2948", "lon": -76.988857, "rental_uris": {"ios": "https://dc.lft.to/lastmile_qr_scan", "android": "https://dc.lft.to/lastmile_qr_scan"}}, {"name": "b3452dfa855585d99a4764f93c38e80c", "fusion_lat": 0.0, "type": "electric_scooter", "lat": 38.92453483333333, "is_reserved": 0, "is_disabled": 0, "fusion_lon": 0.0, "bike_id": "b3452dfa855585d99a4764f93c38e80c", "lon": -77.03969283333333, "rental_uris": {"ios": "https://dc.lft.to/lastmile_qr_scan", "android": "https://dc.lft.to/lastmile_qr_scan"}}, {"name": "5b2809589816c78e9de02b25378b117c", "fusion_lat": 0.0, "type": "electric_scooter", "lat": 38.9540125, "is_reserved": 0, "is_disabled": 0, "fusion_lon": 0.0, "bike_id": "5b2809589816c78e9de02b25378b117c", "lon": -77.027521, "rental_uris": {"ios": "https://dc.lft.to/lastmile_qr_scan", "android": "https://dc.lft.to/lastmile_qr_scan"}}, {"name": "25c2a84eaf1f3bb0024feb8dbc2c68d0", "fusion_lat": 0.0, "type": "electric_scooter", "lat": 38.93711066666667, "is_reserved": 0, "is_disabled": 0, "fusion_lon": 0.0, "bike_id": "25c2a84eaf1f3bb0024feb8dbc2c68d0", "lon": -77.03651733333334, "rental_uris": {"ios": "https://dc.lft.to/lastmile_qr_scan", "android": "https://dc.lft.to/lastmile_qr_scan"}}, {"name": "dd4db79d3b990b291ae0b8830401509a", "fusion_lat": 0.0, "type": "electric_bike", "lat": 39.03050183333333, "is_reserved": 0, "is_disabled": 0, "fusion_lon": 0.0, "bike_id": "dd4db79d3b990b291ae0b8830401509a", "lon": -77.09482383333334, "rental_uris": {"ios": "https://dc.lft.to/lastmile_qr_scan", "android": "https://dc.lft.to/lastmile_qr_scan"}}, {"name": "893c9b09fb7bec1c7a3b5bfb8b21c943", "fusion_lat": 0.0, "type": "electric_scooter", "lat": 38.9184095, "is_reserved": 0, "is_disabled": 0, "fusion_lon": 0.0, "bike_id": "893c9b09fb7bec1c7a3b5bfb8b21c943", "lon": -77.0615225, "rental_uris": {"ios": "https://dc.lft.to/lastmile_qr_scan", "android": "https://dc.lft.to/lastmile_qr_scan"}}, {"name": "1445cd03a74d78317b70e06f713a3e63", "fusion_lat": 0.0, "type": "electric_scooter", "lat": 38.922886, "is_reserved": 0, "is_disabled": 0, "fusion_lon": 0.0, "bike_id": "1445cd03a74d78317b70e06f713a3e63", "lon": -77.03199816666667, "rental_uris": {"ios": "https://dc.lft.to/lastmile_qr_scan", "android": "https://dc.lft.to/lastmile_qr_scan"}}, {"name": "0a563e25aa935051523273fb961af5b0", "fusion_lat": 0.0, "type": "electric_scooter", "lat": 38.920647, "is_reserved": 0, "is_disabled": 0, "fusion_lon": 0.0, "bike_id": "0a563e25aa935051523273fb961af5b0", "lon": -77.03400683333334, "rental_uris": {"ios": "https://dc.lft.to/lastmile_qr_scan", "android": "https://dc.lft.to/lastmile_qr_scan"}}, {"name": "7967df83f1f61a751a02d397afbdfd9e", "fusion_lat": 0.0, "type": "electric_bike", "lat": 38.89660416666667, "is_reserved": 0, "is_disabled": 0, "fusion_lon": 0.0, "bike_id": "7967df83f1f61a751a02d397afbdfd9e", "lon": -77.02586533333333, "rental_uris": {"ios": "https://dc.lft.to/lastmile_qr_scan", "android": "https://dc.lft.to/lastmile_qr_scan"}}, {"name": "46cfea403e90df86189e95330baf85db", "fusion_lat": 0.0, "type": "electric_scooter", "lat": 38.92312966666667, "is_reserved": 0, "is_disabled": 0, "fusion_lon": 0.0, "bike_id": "46cfea403e90df86189e95330baf85db", "lon": -77.02982033333333, "rental_uris": {"ios": "https://dc.lft.to/lastmile_qr_scan", "android": "https://dc.lft.to/lastmile_qr_scan"}}, {"name": "32c02f8391db4887b78b10810beefb9a", "fusion_lat": 0.0, "type": "electric_bike", "lat": 38.9705655, "is_reserved": 0, "is_disabled": 0, "fusion_lon": 0.0, "bike_id": "32c02f8391db4887b78b10810beefb9a", "lon": -76.93619416666667, "rental_uris": {"ios": "https://dc.lft.to/lastmile_qr_scan", "android": "https://dc.lft.to/lastmile_qr_scan"}}, {"name": "83ea86204edab526411a985b3604220a", "fusion_lat": 0.0, "type": "electric_scooter", "lat": 38.90532, "is_reserved": 0, "is_disabled": 0, "fusion_lon": 0.0, "bike_id": "83ea86204edab526411a985b3604220a", "lon": -77.051975, "rental_uris": {"ios": "https://dc.lft.to/lastmile_qr_scan", "android": "https://dc.lft.to/lastmile_qr_scan"}}, {"name": "46e63d4e7c3f774704b4c84fb42e9564", "fusion_lat": 0.0, "type": "electric_scooter", "lat": 38.88048, "is_reserved": 0, "is_disabled": 0, "fusion_lon": 0.0, "bike_id": "46e63d4e7c3f774704b4c84fb42e9564", "lon": -77.0132805, "rental_uris": {"ios": "https://dc.lft.to/lastmile_qr_scan", "android": "https://dc.lft.to/lastmile_qr_scan"}}, {"name": "b687dcc5fdd5225eb3b164e080f2d3f1", "fusion_lat": 0.0, "type": "electric_scooter", "lat": 38.92052983333333, "is_reserved": 0, "is_disabled": 0, "fusion_lon": 0.0, "bike_id": "b687dcc5fdd5225eb3b164e080f2d3f1", "lon": -77.02379966666666, "rental_uris": {"ios": "https://dc.lft.to/lastmile_qr_scan", "android": "https://dc.lft.to/lastmile_qr_scan"}}, {"name": "4e26a3b96e1beb12ec4607196f21d2c4", "fusion_lat": 0.0, "type": "electric_scooter", "lat": 38.892231833333334, "is_reserved": 0, "is_disabled": 0, "fusion_lon": 0.0, "bike_id": "4e26a3b96e1beb12ec4607196f21d2c4", "lon": -77.04540516666667, "rental_uris": {"ios": "https://dc.lft.to/lastmile_qr_scan", "android": "https://dc.lft.to/lastmile_qr_scan"}}, {"name": "637c1c0a1e936b8fa5a40a2d289fb3b7", "fusion_lat": 0.0, "type": "electric_scooter", "lat": 38.896039, "is_reserved": 0, "is_disabled": 0, "fusion_lon": 0.0, "bike_id": "637c1c0a1e936b8fa5a40a2d289fb3b7", "lon": -77.02694633333333, "rental_uris": {"ios": "https://dc.lft.to/lastmile_qr_scan", "android": "https://dc.lft.to/lastmile_qr_scan"}}, {"name": "d87889e8f1fb0fce4f206ef69b002b94", "fusion_lat": 0.0, "type": "electric_scooter", "lat": 38.94206783333333, "is_reserved": 0, "is_disabled": 0, "fusion_lon": 0.0, "bike_id": "d87889e8f1fb0fce4f206ef69b002b94", "lon": -77.03578133333333, "rental_uris": {"ios": "https://dc.lft.to/lastmile_qr_scan", "android": "https://dc.lft.to/lastmile_qr_scan"}}, {"name": "2b21dc3c824f60addbd6c1704b0edaf6", "fusion_lat": 0.0, "type": "electric_scooter", "lat": 38.89824483333334, "is_reserved": 0, "is_disabled": 0, "fusion_lon": 0.0, "bike_id": "2b21dc3c824f60addbd6c1704b0edaf6", "lon": -76.98781816666667, "rental_uris": {"ios": "https://dc.lft.to/lastmile_qr_scan", "android": "https://dc.lft.to/lastmile_qr_scan"}}, {"name": "f5b654aca97fbc890d50899b4cd03325", "fusion_lat": 0.0, "type": "electric_scooter", "lat": 38.9038655, "is_reserved": 0, "is_disabled": 0, "fusion_lon": 0.0, "bike_id": "f5b654aca97fbc890d50899b4cd03325", "lon": -77.03655533333334, "rental_uris": {"ios": "https://dc.lft.to/lastmile_qr_scan", "android": "https://dc.lft.to/lastmile_qr_scan"}}, {"name": "4ba94849ffc31a9ba928a0600be82a26", "fusion_lat": 0.0, "type": "electric_bike", "lat": 38.86735016666667, "is_reserved": 0, "is_disabled": 0, "fusion_lon": 0.0, "bike_id": "4ba94849ffc31a9ba928a0600be82a26", "lon": -76.98952016666667, "rental_uris": {"ios": "https://dc.lft.to/lastmile_qr_scan", "android": "https://dc.lft.to/lastmile_qr_scan"}}, {"name": "794b65d5f15fa0d3fabfaeec77bfae15", "fusion_lat": 0.0, "type": "electric_scooter", "lat": 38.90386383333333, "is_reserved": 0, "is_disabled": 0, "fusion_lon": 0.0, "bike_id": "794b65d5f15fa0d3fabfaeec77bfae15", "lon": -77.03569766666666, "rental_uris": {"ios": "https://dc.lft.to/lastmile_qr_scan", "android": "https://dc.lft.to/lastmile_qr_scan"}}, {"name": "095c29ade5814be42d51c0ef434d5b4f", "fusion_lat": 0.0, "type": "electric_scooter", "lat": 38.904528166666665, "is_reserved": 0, "is_disabled": 0, "fusion_lon": 0.0, "bike_id": "095c29ade5814be42d51c0ef434d5b4f", "lon": -77.0627825, "rental_uris": {"ios": "https://dc.lft.to/lastmile_qr_scan", "android": "https://dc.lft.to/lastmile_qr_scan"}}, {"name": "ebab7d4fa614da720c1c2134cafa440b", "fusion_lat": 0.0, "type": "electric_scooter", "lat": 38.9059685, "is_reserved": 0, "is_disabled": 0, "fusion_lon": 0.0, "bike_id": "ebab7d4fa614da720c1c2134cafa440b", "lon": -77.04002633333333, "rental_uris": {"ios": "https://dc.lft.to/lastmile_qr_scan", "android": "https://dc.lft.to/lastmile_qr_scan"}}, {"name": "1af79200b1ee6277457574b3246c384a", "fusion_lat": 0.0, "type": "electric_scooter", "lat": 38.913347333333334, "is_reserved": 0, "is_disabled": 0, "fusion_lon": 0.0, "bike_id": "1af79200b1ee6277457574b3246c384a", "lon": -77.04844683333333, "rental_uris": {"ios": "https://dc.lft.to/lastmile_qr_scan", "android": "https://dc.lft.to/lastmile_qr_scan"}}, {"name": "c7a54eecce6f42ccad470e1d6a429953", "fusion_lat": 0.0, "type": "electric_scooter", "lat": 38.901034, "is_reserved": 0, "is_disabled": 0, "fusion_lon": 0.0, "bike_id": "c7a54eecce6f42ccad470e1d6a429953", "lon": -77.0499375, "rental_uris": {"ios": "https://dc.lft.to/lastmile_qr_scan", "android": "https://dc.lft.to/lastmile_qr_scan"}}, {"name": "c65aa773318e514a8d9d4a7f80addadd", "fusion_lat": 0.0, "type": "electric_scooter", "lat": 38.89853033333333, "is_reserved": 0, "is_disabled": 0, "fusion_lon": 0.0, "bike_id": "c65aa773318e514a8d9d4a7f80addadd", "lon": -77.01618016666667, "rental_uris": {"ios": "https://dc.lft.to/lastmile_qr_scan", "android": "https://dc.lft.to/lastmile_qr_scan"}}, {"name": "77181775b3bc0f351dcc68b9d35f52ac", "fusion_lat": 0.0, "type": "electric_scooter", "lat": 38.863452833333334, "is_reserved": 0, "is_disabled": 0, "fusion_lon": 0.0, "bike_id": "77181775b3bc0f351dcc68b9d35f52ac", "lon": -76.990675, "rental_uris": {"ios": "https://dc.lft.to/lastmile_qr_scan", "android": "https://dc.lft.to/lastmile_qr_scan"}}, {"name": "93377b9932df864c73d7294041964fae", "fusion_lat": 0.0, "type": "electric_scooter", "lat": 38.911945, "is_reserved": 0, "is_disabled": 0, "fusion_lon": 0.0, "bike_id": "93377b9932df864c73d7294041964fae", "lon": -77.01197233333333, "rental_uris": {"ios": "https://dc.lft.to/lastmile_qr_scan", "android": "https://dc.lft.to/lastmile_qr_scan"}}, {"name": "0dcc8679dbb448c0b8e002948d7743c2", "fusion_lat": 0.0, "type": "electric_scooter", "lat": 38.8988505, "is_reserved": 0, "is_disabled": 0, "fusion_lon": 0.0, "bike_id": "0dcc8679dbb448c0b8e002948d7743c2", "lon": -76.93176283333334, "rental_uris": {"ios": "https://dc.lft.to/lastmile_qr_scan", "android": "https://dc.lft.to/lastmile_qr_scan"}}, {"name": "8cfb21d4bf86f9e26ab7b6c9f4e0f379", "fusion_lat": 0.0, "type": "electric_scooter", "lat": 38.898947666666665, "is_reserved": 0, "is_disabled": 0, "fusion_lon": 0.0, "bike_id": "8cfb21d4bf86f9e26ab7b6c9f4e0f379", "lon": -77.039203, "rental_uris": {"ios": "https://dc.lft.to/lastmile_qr_scan", "android": "https://dc.lft.to/lastmile_qr_scan"}}, {"name": "67089ab8deaf4a633b72c7a9114caf02", "fusion_lat": 0.0, "type": "electric_scooter", "lat": 38.939599333333334, "is_reserved": 0, "is_disabled": 0, "fusion_lon": 0.0, "bike_id": "67089ab8deaf4a633b72c7a9114caf02", "lon": -77.0275045, "rental_uris": {"ios": "https://dc.lft.to/lastmile_qr_scan", "android": "https://dc.lft.to/lastmile_qr_scan"}}, {"name": "b49e23e7c9bb9ccc6579290d136e12a9", "fusion_lat": 0.0, "type": "electric_bike", "lat": 38.832326333333334, "is_reserved": 0, "is_disabled": 0, "fusion_lon": 0.0, "bike_id": "b49e23e7c9bb9ccc6579290d136e12a9", "lon": -76.94622316666667, "rental_uris": {"ios": "https://dc.lft.to/lastmile_qr_scan", "android": "https://dc.lft.to/lastmile_qr_scan"}}, {"name": "93a7d83fef738f06774ce071bf76cd5b", "fusion_lat": 0.0, "type": "electric_scooter", "lat": 38.88719616666667, "is_reserved": 0, "is_disabled": 0, "fusion_lon": 0.0, "bike_id": "93a7d83fef738f06774ce071bf76cd5b", "lon": -76.95376116666667, "rental_uris": {"ios": "https://dc.lft.to/lastmile_qr_scan", "android": "https://dc.lft.to/lastmile_qr_scan"}}, {"name": "57de937b6ff9addfab4a13a9166b1be6", "fusion_lat": 0.0, "type": "electric_scooter", "lat": 38.931185666666664, "is_reserved": 0, "is_disabled": 0, "fusion_lon": 0.0, "bike_id": "57de937b6ff9addfab4a13a9166b1be6", "lon": -77.03805533333333, "rental_uris": {"ios": "https://dc.lft.to/lastmile_qr_scan", "android": "https://dc.lft.to/lastmile_qr_scan"}}, {"name": "dbd20c9dfd3e22308599b877660c0a57", "fusion_lat": 0.0, "type": "electric_scooter", "lat": 38.9444175, "is_reserved": 0, "is_disabled": 0, "fusion_lon": 0.0, "bike_id": "dbd20c9dfd3e22308599b877660c0a57", "lon": -77.063536, "rental_uris": {"ios": "https://dc.lft.to/lastmile_qr_scan", "android": "https://dc.lft.to/lastmile_qr_scan"}}, {"name": "4e34f0f55c03f17749ceea2d38558593", "fusion_lat": 0.0, "type": "electric_scooter", "lat": 38.90980416666667, "is_reserved": 0, "is_disabled": 0, "fusion_lon": 0.0, "bike_id": "4e34f0f55c03f17749ceea2d38558593", "lon": -77.04869966666666, "rental_uris": {"ios": "https://dc.lft.to/lastmile_qr_scan", "android": "https://dc.lft.to/lastmile_qr_scan"}}, {"name": "294b6a3f807ac41f24c75bc5132dd93f", "fusion_lat": 0.0, "type": "electric_scooter", "lat": 38.90148666666666, "is_reserved": 0, "is_disabled": 0, "fusion_lon": 0.0, "bike_id": "294b6a3f807ac41f24c75bc5132dd93f", "lon": -77.02021366666666, "rental_uris": {"ios": "https://dc.lft.to/lastmile_qr_scan", "android": "https://dc.lft.to/lastmile_qr_scan"}}, {"name": "31b7ed2483127974f2a212bf6dbdb8c6", "fusion_lat": 0.0, "type": "electric_scooter", "lat": 38.899081, "is_reserved": 0, "is_disabled": 0, "fusion_lon": 0.0, "bike_id": "31b7ed2483127974f2a212bf6dbdb8c6", "lon": -77.0330355, "rental_uris": {"ios": "https://dc.lft.to/lastmile_qr_scan", "android": "https://dc.lft.to/lastmile_qr_scan"}}, {"name": "54ff59447cd5be611fb6756c92c1dfee", "fusion_lat": 0.0, "type": "electric_bike", "lat": 39.05811533333333, "is_reserved": 0, "is_disabled": 0, "fusion_lon": 0.0, "bike_id": "54ff59447cd5be611fb6756c92c1dfee", "lon": -77.126288, "rental_uris": {"ios": "https://dc.lft.to/lastmile_qr_scan", "android": "https://dc.lft.to/lastmile_qr_scan"}}, {"name": "2377ec50c1991cc84fc0dd65cd96a7e6", "fusion_lat": 0.0, "type": "electric_scooter", "lat": 38.9191385, "is_reserved": 0, "is_disabled": 0, "fusion_lon": 0.0, "bike_id": "2377ec50c1991cc84fc0dd65cd96a7e6", "lon": -77.0318275, "rental_uris": {"ios": "https://dc.lft.to/lastmile_qr_scan", "android": "https://dc.lft.to/lastmile_qr_scan"}}, {"name": "6686bb76720e64db2efea9f48780b7e6", "fusion_lat": 0.0, "type": "electric_bike", "lat": 38.95751766666667, "is_reserved": 0, "is_disabled": 0, "fusion_lon": 0.0, "bike_id": "6686bb76720e64db2efea9f48780b7e6", "lon": -76.98025866666667, "rental_uris": {"ios": "https://dc.lft.to/lastmile_qr_scan", "android": "https://dc.lft.to/lastmile_qr_scan"}}, {"name": "363fe2090bdc13d40886a73cbd5e8304", "fusion_lat": 0.0, "type": "electric_scooter", "lat": 38.912674333333335, "is_reserved": 0, "is_disabled": 0, "fusion_lon": 0.0, "bike_id": "363fe2090bdc13d40886a73cbd5e8304", "lon": -77.045018, "rental_uris": {"ios": "https://dc.lft.to/lastmile_qr_scan", "android": "https://dc.lft.to/lastmile_qr_scan"}}, {"name": "c2f5720d1b731b3d083c12427be5ead0", "fusion_lat": 0.0, "type": "electric_bike", "lat": 38.84608733333334, "is_reserved": 0, "is_disabled": 0, "fusion_lon": 0.0, "bike_id": "c2f5720d1b731b3d083c12427be5ead0", "lon": -76.97833883333334, "rental_uris": {"ios": "https://dc.lft.to/lastmile_qr_scan", "android": "https://dc.lft.to/lastmile_qr_scan"}}, {"name": "13b1e50d7bbb5a441ccedb7255186586", "fusion_lat": 0.0, "type": "electric_scooter", "lat": 38.907836, "is_reserved": 0, "is_disabled": 0, "fusion_lon": 0.0, "bike_id": "13b1e50d7bbb5a441ccedb7255186586", "lon": -77.00204666666667, "rental_uris": {"ios": "https://dc.lft.to/lastmile_qr_scan", "android": "https://dc.lft.to/lastmile_qr_scan"}}, {"name": "49b9e3e8a19898922cafc170c87eded3", "fusion_lat": 0.0, "type": "electric_scooter", "lat": 38.89726533333334, "is_reserved": 0, "is_disabled": 0, "fusion_lon": 0.0, "bike_id": "49b9e3e8a19898922cafc170c87eded3", "lon": -77.00927316666667, "rental_uris": {"ios": "https://dc.lft.to/lastmile_qr_scan", "android": "https://dc.lft.to/lastmile_qr_scan"}}, {"name": "4f598a049f35cee5065f66af2bd5372b", "fusion_lat": 0.0, "type": "electric_scooter", "lat": 38.93250316666666, "is_reserved": 0, "is_disabled": 0, "fusion_lon": 0.0, "bike_id": "4f598a049f35cee5065f66af2bd5372b", "lon": -77.03252716666667, "rental_uris": {"ios": "https://dc.lft.to/lastmile_qr_scan", "android": "https://dc.lft.to/lastmile_qr_scan"}}, {"name": "22584d6b9d0803eec8a97bb3d0a4f9b1", "fusion_lat": 0.0, "type": "electric_scooter", "lat": 38.91333766666666, "is_reserved": 0, "is_disabled": 0, "fusion_lon": 0.0, "bike_id": "22584d6b9d0803eec8a97bb3d0a4f9b1", "lon": -77.04581816666666, "rental_uris": {"ios": "https://dc.lft.to/lastmile_qr_scan", "android": "https://dc.lft.to/lastmile_qr_scan"}}, {"name": "03f27253642bcc92bf911688728850d7", "fusion_lat": 0.0, "type": "electric_scooter", "lat": 38.899599, "is_reserved": 0, "is_disabled": 0, "fusion_lon": 0.0, "bike_id": "03f27253642bcc92bf911688728850d7", "lon": -76.987061, "rental_uris": {"ios": "https://dc.lft.to/lastmile_qr_scan", "android": "https://dc.lft.to/lastmile_qr_scan"}}, {"name": "e318dec650b07ea886feb7517d616cb2", "fusion_lat": 0.0, "type": "electric_scooter", "lat": 38.93465833333333, "is_reserved": 0, "is_disabled": 0, "fusion_lon": 0.0, "bike_id": "e318dec650b07ea886feb7517d616cb2", "lon": -77.03051733333334, "rental_uris": {"ios": "https://dc.lft.to/lastmile_qr_scan", "android": "https://dc.lft.to/lastmile_qr_scan"}}, {"name": "d826fbcca21414d39fe5c3f824bdb206", "fusion_lat": 0.0, "type": "electric_scooter", "lat": 38.915638333333334, "is_reserved": 0, "is_disabled": 0, "fusion_lon": 0.0, "bike_id": "d826fbcca21414d39fe5c3f824bdb206", "lon": -77.02956516666667, "rental_uris": {"ios": "https://dc.lft.to/lastmile_qr_scan", "android": "https://dc.lft.to/lastmile_qr_scan"}}, {"name": "c34844c8462f40b8cc66e6b4c2af80b3", "fusion_lat": 0.0, "type": "electric_scooter", "lat": 38.94183016666667, "is_reserved": 0, "is_disabled": 0, "fusion_lon": 0.0, "bike_id": "c34844c8462f40b8cc66e6b4c2af80b3", "lon": -77.03029883333333, "rental_uris": {"ios": "https://dc.lft.to/lastmile_qr_scan", "android": "https://dc.lft.to/lastmile_qr_scan"}}, {"name": "d0695ab7fc6b704abd67fb13807a26d1", "fusion_lat": 0.0, "type": "electric_scooter", "lat": 38.961104666666664, "is_reserved": 0, "is_disabled": 0, "fusion_lon": 0.0, "bike_id": "d0695ab7fc6b704abd67fb13807a26d1", "lon": -77.0281295, "rental_uris": {"ios": "https://dc.lft.to/lastmile_qr_scan", "android": "https://dc.lft.to/lastmile_qr_scan"}}, {"name": "8e071f524e70621a618be4231b792109", "fusion_lat": 0.0, "type": "electric_scooter", "lat": 38.894716833333334, "is_reserved": 0, "is_disabled": 0, "fusion_lon": 0.0, "bike_id": "8e071f524e70621a618be4231b792109", "lon": -76.984021, "rental_uris": {"ios": "https://dc.lft.to/lastmile_qr_scan", "android": "https://dc.lft.to/lastmile_qr_scan"}}, {"name": "4acceefdf8aaffb8f16b44f28252bfa7", "fusion_lat": 0.0, "type": "electric_bike", "lat": 38.872606166666664, "is_reserved": 0, "is_disabled": 0, "fusion_lon": 0.0, "bike_id": "4acceefdf8aaffb8f16b44f28252bfa7", "lon": -77.01692466666667, "rental_uris": {"ios": "https://dc.lft.to/lastmile_qr_scan", "android": "https://dc.lft.to/lastmile_qr_scan"}}, {"name": "e33a994f6a6063a9732fe11cb6c02745", "fusion_lat": 0.0, "type": "electric_scooter", "lat": 38.943088, "is_reserved": 0, "is_disabled": 0, "fusion_lon": 0.0, "bike_id": "e33a994f6a6063a9732fe11cb6c02745", "lon": -77.05925383333333, "rental_uris": {"ios": "https://dc.lft.to/lastmile_qr_scan", "android": "https://dc.lft.to/lastmile_qr_scan"}}, {"name": "b731aa3dbe2d2ae316b4c105eb8eb1f2", "fusion_lat": 0.0, "type": "electric_scooter", "lat": 38.86941366666667, "is_reserved": 0, "is_disabled": 0, "fusion_lon": 0.0, "bike_id": "b731aa3dbe2d2ae316b4c105eb8eb1f2", "lon": -76.978603, "rental_uris": {"ios": "https://dc.lft.to/lastmile_qr_scan", "android": "https://dc.lft.to/lastmile_qr_scan"}}, {"name": "0f9e8d9c64299f51531527aa08bc6c15", "fusion_lat": 0.0, "type": "electric_scooter", "lat": 38.9012745, "is_reserved": 0, "is_disabled": 0, "fusion_lon": 0.0, "bike_id": "0f9e8d9c64299f51531527aa08bc6c15", "lon": -77.04486133333333, "rental_uris": {"ios": "https://dc.lft.to/lastmile_qr_scan", "android": "https://dc.lft.to/lastmile_qr_scan"}}, {"name": "7c8d7acd57e6d79fd7a41bb561658e0d", "fusion_lat": 0.0, "type": "electric_scooter", "lat": 38.930839666666664, "is_reserved": 0, "is_disabled": 0, "fusion_lon": 0.0, "bike_id": "7c8d7acd57e6d79fd7a41bb561658e0d", "lon": -77.03398916666667, "rental_uris": {"ios": "https://dc.lft.to/lastmile_qr_scan", "android": "https://dc.lft.to/lastmile_qr_scan"}}, {"name": "46f37a7bfddb34af77beb1cece4e597c", "fusion_lat": 0.0, "type": "electric_scooter", "lat": 38.9248555, "is_reserved": 0, "is_disabled": 0, "fusion_lon": 0.0, "bike_id": "46f37a7bfddb34af77beb1cece4e597c", "lon": -77.0271535, "rental_uris": {"ios": "https://dc.lft.to/lastmile_qr_scan", "android": "https://dc.lft.to/lastmile_qr_scan"}}, {"name": "a996f837b0ff16fcfb1e389ec1eb0426", "fusion_lat": 0.0, "type": "electric_scooter", "lat": 38.90080283333333, "is_reserved": 0, "is_disabled": 0, "fusion_lon": 0.0, "bike_id": "a996f837b0ff16fcfb1e389ec1eb0426", "lon": -77.05909833333334, "rental_uris": {"ios": "https://dc.lft.to/lastmile_qr_scan", "android": "https://dc.lft.to/lastmile_qr_scan"}}, {"name": "eb958d64840e1dad729692655069f7e9", "fusion_lat": 0.0, "type": "electric_bike", "lat": 38.8803625, "is_reserved": 0, "is_disabled": 0, "fusion_lon": 0.0, "bike_id": "eb958d64840e1dad729692655069f7e9", "lon": -77.02523133333334, "rental_uris": {"ios": "https://dc.lft.to/lastmile_qr_scan", "android": "https://dc.lft.to/lastmile_qr_scan"}}, {"name": "8aaf67bfc326051ae2366253b4c8be44", "fusion_lat": 0.0, "type": "electric_scooter", "lat": 38.899169666666666, "is_reserved": 0, "is_disabled": 0, "fusion_lon": 0.0, "bike_id": "8aaf67bfc326051ae2366253b4c8be44", "lon": -76.93382166666666, "rental_uris": {"ios": "https://dc.lft.to/lastmile_qr_scan", "android": "https://dc.lft.to/lastmile_qr_scan"}}, {"name": "6e07a46d13fdafad3b58e3eb9c2618c8", "fusion_lat": 0.0, "type": "electric_scooter", "lat": 38.865686333333336, "is_reserved": 0, "is_disabled": 0, "fusion_lon": 0.0, "bike_id": "6e07a46d13fdafad3b58e3eb9c2618c8", "lon": -76.98949316666666, "rental_uris": {"ios": "https://dc.lft.to/lastmile_qr_scan", "android": "https://dc.lft.to/lastmile_qr_scan"}}, {"name": "d0a1f0eb315bdfa48076b69490561f54", "fusion_lat": 0.0, "type": "electric_bike", "lat": 38.851558833333335, "is_reserved": 0, "is_disabled": 0, "fusion_lon": 0.0, "bike_id": "d0a1f0eb315bdfa48076b69490561f54", "lon": -77.128797, "rental_uris": {"ios": "https://dc.lft.to/lastmile_qr_scan", "android": "https://dc.lft.to/lastmile_qr_scan"}}, {"name": "f325ee4a1563951caa633eb530706507", "fusion_lat": 0.0, "type": "electric_scooter", "lat": 38.886091666666665, "is_reserved": 0, "is_disabled": 0, "fusion_lon": 0.0, "bike_id": "f325ee4a1563951caa633eb530706507", "lon": -77.0074245, "rental_uris": {"ios": "https://dc.lft.to/lastmile_qr_scan", "android": "https://dc.lft.to/lastmile_qr_scan"}}, {"name": "f48c2e4aadd2dbb6ada7c2080475d34e", "fusion_lat": 0.0, "type": "electric_scooter", "lat": 38.924995833333334, "is_reserved": 0, "is_disabled": 0, "fusion_lon": 0.0, "bike_id": "f48c2e4aadd2dbb6ada7c2080475d34e", "lon": -77.03559366666667, "rental_uris": {"ios": "https://dc.lft.to/lastmile_qr_scan", "android": "https://dc.lft.to/lastmile_qr_scan"}}, {"name": "905224a78e842cbdc3152f35a0c785d6", "fusion_lat": 0.0, "type": "electric_scooter", "lat": 38.9367125, "is_reserved": 0, "is_disabled": 0, "fusion_lon": 0.0, "bike_id": "905224a78e842cbdc3152f35a0c785d6", "lon": -77.03592666666667, "rental_uris": {"ios": "https://dc.lft.to/lastmile_qr_scan", "android": "https://dc.lft.to/lastmile_qr_scan"}}, {"name": "76830ee4eb40a70692583a022e9aea4d", "fusion_lat": 0.0, "type": "electric_scooter", "lat": 38.90201316666667, "is_reserved": 0, "is_disabled": 0, "fusion_lon": 0.0, "bike_id": "76830ee4eb40a70692583a022e9aea4d", "lon": -76.982117, "rental_uris": {"ios": "https://dc.lft.to/lastmile_qr_scan", "android": "https://dc.lft.to/lastmile_qr_scan"}}, {"name": "d9da5906668f1708a9b747dc92e05e9b", "fusion_lat": 0.0, "type": "electric_scooter", "lat": 38.862457666666664, "is_reserved": 0, "is_disabled": 0, "fusion_lon": 0.0, "bike_id": "d9da5906668f1708a9b747dc92e05e9b", "lon": -76.99529066666666, "rental_uris": {"ios": "https://dc.lft.to/lastmile_qr_scan", "android": "https://dc.lft.to/lastmile_qr_scan"}}, {"name": "44cfb6cadacc1d1c8c3745ac91d5ae02", "fusion_lat": 0.0, "type": "electric_scooter", "lat": 38.90058883333333, "is_reserved": 0, "is_disabled": 0, "fusion_lon": 0.0, "bike_id": "44cfb6cadacc1d1c8c3745ac91d5ae02", "lon": -77.02618466666667, "rental_uris": {"ios": "https://dc.lft.to/lastmile_qr_scan", "android": "https://dc.lft.to/lastmile_qr_scan"}}, {"name": "5d8af3d3ac8af1d209db813f2b3da2b9", "fusion_lat": 0.0, "type": "electric_scooter", "lat": 38.917872833333334, "is_reserved": 0, "is_disabled": 0, "fusion_lon": 0.0, "bike_id": "5d8af3d3ac8af1d209db813f2b3da2b9", "lon": -77.04161416666666, "rental_uris": {"ios": "https://dc.lft.to/lastmile_qr_scan", "android": "https://dc.lft.to/lastmile_qr_scan"}}, {"name": "53a6354e7666c7ad3fbb7d5e3680b076", "fusion_lat": 0.0, "type": "electric_scooter", "lat": 38.93732983333334, "is_reserved": 0, "is_disabled": 0, "fusion_lon": 0.0, "bike_id": "53a6354e7666c7ad3fbb7d5e3680b076", "lon": -77.0326085, "rental_uris": {"ios": "https://dc.lft.to/lastmile_qr_scan", "android": "https://dc.lft.to/lastmile_qr_scan"}}, {"name": "6cfd81ac47c0d6e7c098ea43571545f7", "fusion_lat": 0.0, "type": "electric_scooter", "lat": 38.90264766666667, "is_reserved": 0, "is_disabled": 0, "fusion_lon": 0.0, "bike_id": "6cfd81ac47c0d6e7c098ea43571545f7", "lon": -77.026466, "rental_uris": {"ios": "https://dc.lft.to/lastmile_qr_scan", "android": "https://dc.lft.to/lastmile_qr_scan"}}, {"name": "3460b2cb451bae3be9842acce6489c0d", "fusion_lat": 0.0, "type": "electric_scooter", "lat": 38.92151633333334, "is_reserved": 0, "is_disabled": 0, "fusion_lon": 0.0, "bike_id": "3460b2cb451bae3be9842acce6489c0d", "lon": -77.020835, "rental_uris": {"ios": "https://dc.lft.to/lastmile_qr_scan", "android": "https://dc.lft.to/lastmile_qr_scan"}}, {"name": "8f3b65802882b1b35040a22f3b292154", "fusion_lat": 0.0, "type": "electric_scooter", "lat": 38.93671533333333, "is_reserved": 0, "is_disabled": 0, "fusion_lon": 0.0, "bike_id": "8f3b65802882b1b35040a22f3b292154", "lon": -77.03595733333333, "rental_uris": {"ios": "https://dc.lft.to/lastmile_qr_scan", "android": "https://dc.lft.to/lastmile_qr_scan"}}, {"name": "31129382f859364a72ef202edb395c92", "fusion_lat": 0.0, "type": "electric_scooter", "lat": 38.912918166666664, "is_reserved": 0, "is_disabled": 0, "fusion_lon": 0.0, "bike_id": "31129382f859364a72ef202edb395c92", "lon": -77.06118283333333, "rental_uris": {"ios": "https://dc.lft.to/lastmile_qr_scan", "android": "https://dc.lft.to/lastmile_qr_scan"}}, {"name": "35cde96f060259ffe1f73f4df6e81a6d", "fusion_lat": 0.0, "type": "electric_scooter", "lat": 38.903777166666664, "is_reserved": 0, "is_disabled": 0, "fusion_lon": 0.0, "bike_id": "35cde96f060259ffe1f73f4df6e81a6d", "lon": -77.02206683333333, "rental_uris": {"ios": "https://dc.lft.to/lastmile_qr_scan", "android": "https://dc.lft.to/lastmile_qr_scan"}}, {"name": "53d4a255bfa5971f09a1cc75662c41db", "fusion_lat": 0.0, "type": "electric_scooter", "lat": 38.90559666666667, "is_reserved": 0, "is_disabled": 0, "fusion_lon": 0.0, "bike_id": "53d4a255bfa5971f09a1cc75662c41db", "lon": -77.04588366666667, "rental_uris": {"ios": "https://dc.lft.to/lastmile_qr_scan", "android": "https://dc.lft.to/lastmile_qr_scan"}}, {"name": "7269c178c5bb4017a40bd924be0f8833", "fusion_lat": 0.0, "type": "electric_scooter", "lat": 38.91015016666667, "is_reserved": 0, "is_disabled": 0, "fusion_lon": 0.0, "bike_id": "7269c178c5bb4017a40bd924be0f8833", "lon": -77.04878116666667, "rental_uris": {"ios": "https://dc.lft.to/lastmile_qr_scan", "android": "https://dc.lft.to/lastmile_qr_scan"}}, {"name": "bc0fa8ea1ffca3c85545dcb921b3adb1", "fusion_lat": 0.0, "type": "electric_scooter", "lat": 38.9004685, "is_reserved": 0, "is_disabled": 0, "fusion_lon": 0.0, "bike_id": "bc0fa8ea1ffca3c85545dcb921b3adb1", "lon": -77.01874633333334, "rental_uris": {"ios": "https://dc.lft.to/lastmile_qr_scan", "android": "https://dc.lft.to/lastmile_qr_scan"}}, {"name": "2f8fc7a8f1ae4f88d1368ed5c0529160", "fusion_lat": 0.0, "type": "electric_scooter", "lat": 38.9218135, "is_reserved": 0, "is_disabled": 0, "fusion_lon": 0.0, "bike_id": "2f8fc7a8f1ae4f88d1368ed5c0529160", "lon": -77.04277633333334, "rental_uris": {"ios": "https://dc.lft.to/lastmile_qr_scan", "android": "https://dc.lft.to/lastmile_qr_scan"}}, {"name": "73bf45d19a0ac965aecd925d1e1ecd7c", "fusion_lat": 0.0, "type": "electric_scooter", "lat": 38.92862216666666, "is_reserved": 0, "is_disabled": 0, "fusion_lon": 0.0, "bike_id": "73bf45d19a0ac965aecd925d1e1ecd7c", "lon": -77.030927, "rental_uris": {"ios": "https://dc.lft.to/lastmile_qr_scan", "android": "https://dc.lft.to/lastmile_qr_scan"}}, {"name": "cffb661dccaaa8cb9642475973709e1a", "fusion_lat": 0.0, "type": "electric_scooter", "lat": 38.90159583333333, "is_reserved": 0, "is_disabled": 0, "fusion_lon": 0.0, "bike_id": "cffb661dccaaa8cb9642475973709e1a", "lon": -77.022832, "rental_uris": {"ios": "https://dc.lft.to/lastmile_qr_scan", "android": "https://dc.lft.to/lastmile_qr_scan"}}, {"name": "324f44ff75744308929fef7d2493be2c", "fusion_lat": 0.0, "type": "electric_scooter", "lat": 38.9426595, "is_reserved": 0, "is_disabled": 0, "fusion_lon": 0.0, "bike_id": "324f44ff75744308929fef7d2493be2c", "lon": -77.02506833333334, "rental_uris": {"ios": "https://dc.lft.to/lastmile_qr_scan", "android": "https://dc.lft.to/lastmile_qr_scan"}}, {"name": "8431fb094cc6c4eedcca0059c0b5fdc6", "fusion_lat": 0.0, "type": "electric_bike", "lat": 38.83932566666667, "is_reserved": 0, "is_disabled": 0, "fusion_lon": 0.0, "bike_id": "8431fb094cc6c4eedcca0059c0b5fdc6", "lon": -77.07902316666667, "rental_uris": {"ios": "https://dc.lft.to/lastmile_qr_scan", "android": "https://dc.lft.to/lastmile_qr_scan"}}, {"name": "6934395b06dc036f3292e61fc1bf1403", "fusion_lat": 0.0, "type": "electric_scooter", "lat": 38.933108833333335, "is_reserved": 0, "is_disabled": 0, "fusion_lon": 0.0, "bike_id": "6934395b06dc036f3292e61fc1bf1403", "lon": -77.03449583333334, "rental_uris": {"ios": "https://dc.lft.to/lastmile_qr_scan", "android": "https://dc.lft.to/lastmile_qr_scan"}}, {"name": "6973a7d6335d55a1f6e3c4c32177eeee", "fusion_lat": 0.0, "type": "electric_scooter", "lat": 38.892208, "is_reserved": 0, "is_disabled": 0, "fusion_lon": 0.0, "bike_id": "6973a7d6335d55a1f6e3c4c32177eeee", "lon": -77.03342833333333, "rental_uris": {"ios": "https://dc.lft.to/lastmile_qr_scan", "android": "https://dc.lft.to/lastmile_qr_scan"}}, {"name": "24cdbcc232b45ea3f0e66af1aa0fdd8a", "fusion_lat": 0.0, "type": "electric_scooter", "lat": 38.9051995, "is_reserved": 0, "is_disabled": 0, "fusion_lon": 0.0, "bike_id": "24cdbcc232b45ea3f0e66af1aa0fdd8a", "lon": -77.04151516666667, "rental_uris": {"ios": "https://dc.lft.to/lastmile_qr_scan", "android": "https://dc.lft.to/lastmile_qr_scan"}}, {"name": "25f2df35597bb82f6e17b2f1a8432ceb", "fusion_lat": 0.0, "type": "electric_scooter", "lat": 38.897777, "is_reserved": 0, "is_disabled": 0, "fusion_lon": 0.0, "bike_id": "25f2df35597bb82f6e17b2f1a8432ceb", "lon": -77.031628, "rental_uris": {"ios": "https://dc.lft.to/lastmile_qr_scan", "android": "https://dc.lft.to/lastmile_qr_scan"}}, {"name": "4483e2c105d6a3273817762c52c808ee", "fusion_lat": 0.0, "type": "electric_scooter", "lat": 38.8922355, "is_reserved": 0, "is_disabled": 0, "fusion_lon": 0.0, "bike_id": "4483e2c105d6a3273817762c52c808ee", "lon": -77.04643633333333, "rental_uris": {"ios": "https://dc.lft.to/lastmile_qr_scan", "android": "https://dc.lft.to/lastmile_qr_scan"}}, {"name": "15440c148b9e986bf0a118d201c4559e", "fusion_lat": 0.0, "type": "electric_scooter", "lat": 38.949562, "is_reserved": 0, "is_disabled": 0, "fusion_lon": 0.0, "bike_id": "15440c148b9e986bf0a118d201c4559e", "lon": -77.02724216666667, "rental_uris": {"ios": "https://dc.lft.to/lastmile_qr_scan", "android": "https://dc.lft.to/lastmile_qr_scan"}}, {"name": "2061ddeb7a5a285ce0a8693267ed1cfe", "fusion_lat": 0.0, "type": "electric_scooter", "lat": 38.926281, "is_reserved": 0, "is_disabled": 0, "fusion_lon": 0.0, "bike_id": "2061ddeb7a5a285ce0a8693267ed1cfe", "lon": -77.03794816666667, "rental_uris": {"ios": "https://dc.lft.to/lastmile_qr_scan", "android": "https://dc.lft.to/lastmile_qr_scan"}}, {"name": "62d727fc910c28ed77a4651a2f6c7969", "fusion_lat": 0.0, "type": "electric_scooter", "lat": 38.90517583333333, "is_reserved": 0, "is_disabled": 0, "fusion_lon": 0.0, "bike_id": "62d727fc910c28ed77a4651a2f6c7969", "lon": -77.03440233333333, "rental_uris": {"ios": "https://dc.lft.to/lastmile_qr_scan", "android": "https://dc.lft.to/lastmile_qr_scan"}}, {"name": "ecbe053341bc4dc534884b696b108a78", "fusion_lat": 0.0, "type": "electric_scooter", "lat": 38.931422166666664, "is_reserved": 0, "is_disabled": 0, "fusion_lon": 0.0, "bike_id": "ecbe053341bc4dc534884b696b108a78", "lon": -77.0385335, "rental_uris": {"ios": "https://dc.lft.to/lastmile_qr_scan", "android": "https://dc.lft.to/lastmile_qr_scan"}}, {"name": "18782f575f8254ef38ccc794b992f9f5", "fusion_lat": 0.0, "type": "electric_scooter", "lat": 38.9389105, "is_reserved": 0, "is_disabled": 0, "fusion_lon": 0.0, "bike_id": "18782f575f8254ef38ccc794b992f9f5", "lon": -77.02469766666667, "rental_uris": {"ios": "https://dc.lft.to/lastmile_qr_scan", "android": "https://dc.lft.to/lastmile_qr_scan"}}, {"name": "99df5bd491db51e377020b0ee24159bf", "fusion_lat": 0.0, "type": "electric_scooter", "lat": 38.902645666666665, "is_reserved": 0, "is_disabled": 0, "fusion_lon": 0.0, "bike_id": "99df5bd491db51e377020b0ee24159bf", "lon": -77.046147, "rental_uris": {"ios": "https://dc.lft.to/lastmile_qr_scan", "android": "https://dc.lft.to/lastmile_qr_scan"}}, {"name": "647daf48d1289e8be33f76bf80d1ad77", "fusion_lat": 0.0, "type": "electric_scooter", "lat": 38.89993, "is_reserved": 0, "is_disabled": 0, "fusion_lon": 0.0, "bike_id": "647daf48d1289e8be33f76bf80d1ad77", "lon": -77.01134216666667, "rental_uris": {"ios": "https://dc.lft.to/lastmile_qr_scan", "android": "https://dc.lft.to/lastmile_qr_scan"}}, {"name": "155e891f390b6df9689d7c6c9399197f", "fusion_lat": 0.0, "type": "electric_scooter", "lat": 38.898793166666664, "is_reserved": 0, "is_disabled": 0, "fusion_lon": 0.0, "bike_id": "155e891f390b6df9689d7c6c9399197f", "lon": -77.03276416666667, "rental_uris": {"ios": "https://dc.lft.to/lastmile_qr_scan", "android": "https://dc.lft.to/lastmile_qr_scan"}}, {"name": "9417c820b4f41f466023bcc041adcb38", "fusion_lat": 0.0, "type": "electric_scooter", "lat": 38.895045333333336, "is_reserved": 0, "is_disabled": 0, "fusion_lon": 0.0, "bike_id": "9417c820b4f41f466023bcc041adcb38", "lon": -77.011258, "rental_uris": {"ios": "https://dc.lft.to/lastmile_qr_scan", "android": "https://dc.lft.to/lastmile_qr_scan"}}, {"name": "61b2b3a05649df605993904d0874168e", "fusion_lat": 0.0, "type": "electric_scooter", "lat": 38.90588016666667, "is_reserved": 0, "is_disabled": 0, "fusion_lon": 0.0, "bike_id": "61b2b3a05649df605993904d0874168e", "lon": -77.00270916666666, "rental_uris": {"ios": "https://dc.lft.to/lastmile_qr_scan", "android": "https://dc.lft.to/lastmile_qr_scan"}}, {"name": "86a3aee89d4aac555f4a9a6abdfef879", "fusion_lat": 0.0, "type": "electric_scooter", "lat": 38.87709733333333, "is_reserved": 0, "is_disabled": 0, "fusion_lon": 0.0, "bike_id": "86a3aee89d4aac555f4a9a6abdfef879", "lon": -76.993853, "rental_uris": {"ios": "https://dc.lft.to/lastmile_qr_scan", "android": "https://dc.lft.to/lastmile_qr_scan"}}, {"name": "321262b5ebc7864c42ea76df26122626", "fusion_lat": 0.0, "type": "electric_scooter", "lat": 38.91329183333333, "is_reserved": 0, "is_disabled": 0, "fusion_lon": 0.0, "bike_id": "321262b5ebc7864c42ea76df26122626", "lon": -77.04874783333334, "rental_uris": {"ios": "https://dc.lft.to/lastmile_qr_scan", "android": "https://dc.lft.to/lastmile_qr_scan"}}, {"name": "f5f259bcdc74c430b7eb8418978293b5", "fusion_lat": 0.0, "type": "electric_scooter", "lat": 38.887698, "is_reserved": 0, "is_disabled": 0, "fusion_lon": 0.0, "bike_id": "f5f259bcdc74c430b7eb8418978293b5", "lon": -76.92709783333333, "rental_uris": {"ios": "https://dc.lft.to/lastmile_qr_scan", "android": "https://dc.lft.to/lastmile_qr_scan"}}, {"name": "06c34f575dad18c20ac1833dacbde5df", "fusion_lat": 0.0, "type": "electric_scooter", "lat": 38.9067835, "is_reserved": 0, "is_disabled": 0, "fusion_lon": 0.0, "bike_id": "06c34f575dad18c20ac1833dacbde5df", "lon": -77.03831666666666, "rental_uris": {"ios": "https://dc.lft.to/lastmile_qr_scan", "android": "https://dc.lft.to/lastmile_qr_scan"}}, {"name": "2b224a9d3dfa6ddf7c3b1a92849b0f48", "fusion_lat": 0.0, "type": "electric_scooter", "lat": 38.902661, "is_reserved": 0, "is_disabled": 0, "fusion_lon": 0.0, "bike_id": "2b224a9d3dfa6ddf7c3b1a92849b0f48", "lon": -77.05314666666666, "rental_uris": {"ios": "https://dc.lft.to/lastmile_qr_scan", "android": "https://dc.lft.to/lastmile_qr_scan"}}, {"name": "f4b7755b8dc56d118412beeff578ccd0", "fusion_lat": 0.0, "type": "electric_scooter", "lat": 38.90947833333333, "is_reserved": 0, "is_disabled": 0, "fusion_lon": 0.0, "bike_id": "f4b7755b8dc56d118412beeff578ccd0", "lon": -77.04659916666667, "rental_uris": {"ios": "https://dc.lft.to/lastmile_qr_scan", "android": "https://dc.lft.to/lastmile_qr_scan"}}, {"name": "50692eb256237c9d15f75852fbdf82c0", "fusion_lat": 0.0, "type": "electric_scooter", "lat": 38.895007, "is_reserved": 0, "is_disabled": 0, "fusion_lon": 0.0, "bike_id": "50692eb256237c9d15f75852fbdf82c0", "lon": -77.01105233333334, "rental_uris": {"ios": "https://dc.lft.to/lastmile_qr_scan", "android": "https://dc.lft.to/lastmile_qr_scan"}}, {"name": "fde8ce54bcb6533a6c0d3498e3fcba34", "fusion_lat": 0.0, "type": "electric_scooter", "lat": 38.92510333333333, "is_reserved": 0, "is_disabled": 0, "fusion_lon": 0.0, "bike_id": "fde8ce54bcb6533a6c0d3498e3fcba34", "lon": -77.0017625, "rental_uris": {"ios": "https://dc.lft.to/lastmile_qr_scan", "android": "https://dc.lft.to/lastmile_qr_scan"}}, {"name": "15fd32ddccaa4c5d6cfd14b5b590c178", "fusion_lat": 0.0, "type": "electric_scooter", "lat": 38.923544, "is_reserved": 0, "is_disabled": 0, "fusion_lon": 0.0, "bike_id": "15fd32ddccaa4c5d6cfd14b5b590c178", "lon": -77.05840566666667, "rental_uris": {"ios": "https://dc.lft.to/lastmile_qr_scan", "android": "https://dc.lft.to/lastmile_qr_scan"}}, {"name": "1f917a5d3d3f06765cd2d2e713acb8d5", "fusion_lat": 0.0, "type": "electric_scooter", "lat": 38.905500833333335, "is_reserved": 0, "is_disabled": 0, "fusion_lon": 0.0, "bike_id": "1f917a5d3d3f06765cd2d2e713acb8d5", "lon": -77.03254366666667, "rental_uris": {"ios": "https://dc.lft.to/lastmile_qr_scan", "android": "https://dc.lft.to/lastmile_qr_scan"}}, {"name": "429697f9d4b9577ee3d6af276e1c7360", "fusion_lat": 0.0, "type": "electric_scooter", "lat": 38.91273, "is_reserved": 0, "is_disabled": 0, "fusion_lon": 0.0, "bike_id": "429697f9d4b9577ee3d6af276e1c7360", "lon": -77.03734, "rental_uris": {"ios": "https://dc.lft.to/lastmile_qr_scan", "android": "https://dc.lft.to/lastmile_qr_scan"}}, {"name": "082b91056c381ec408de449e3bba61a9", "fusion_lat": 0.0, "type": "electric_scooter", "lat": 38.883743833333334, "is_reserved": 0, "is_disabled": 0, "fusion_lon": 0.0, "bike_id": "082b91056c381ec408de449e3bba61a9", "lon": -76.923723, "rental_uris": {"ios": "https://dc.lft.to/lastmile_qr_scan", "android": "https://dc.lft.to/lastmile_qr_scan"}}, {"name": "272d3b29954515bfeb4a6e95cf86f871", "fusion_lat": 0.0, "type": "electric_scooter", "lat": 38.92883633333334, "is_reserved": 0, "is_disabled": 0, "fusion_lon": 0.0, "bike_id": "272d3b29954515bfeb4a6e95cf86f871", "lon": -77.026642, "rental_uris": {"ios": "https://dc.lft.to/lastmile_qr_scan", "android": "https://dc.lft.to/lastmile_qr_scan"}}, {"name": "5a21f5f634aae04bc5449d5de4dcd0f6", "fusion_lat": 0.0, "type": "electric_scooter", "lat": 38.86657833333334, "is_reserved": 0, "is_disabled": 0, "fusion_lon": 0.0, "bike_id": "5a21f5f634aae04bc5449d5de4dcd0f6", "lon": -76.98881466666667, "rental_uris": {"ios": "https://dc.lft.to/lastmile_qr_scan", "android": "https://dc.lft.to/lastmile_qr_scan"}}, {"name": "be9a99d377ac93d85fc8cf3178cb066b", "fusion_lat": 0.0, "type": "electric_scooter", "lat": 38.92509233333333, "is_reserved": 0, "is_disabled": 0, "fusion_lon": 0.0, "bike_id": "be9a99d377ac93d85fc8cf3178cb066b", "lon": -77.03321083333333, "rental_uris": {"ios": "https://dc.lft.to/lastmile_qr_scan", "android": "https://dc.lft.to/lastmile_qr_scan"}}, {"name": "5592aed834fdbd3a97552f53ceb0039b", "fusion_lat": 0.0, "type": "electric_scooter", "lat": 38.902567166666664, "is_reserved": 0, "is_disabled": 0, "fusion_lon": 0.0, "bike_id": "5592aed834fdbd3a97552f53ceb0039b", "lon": -77.043825, "rental_uris": {"ios": "https://dc.lft.to/lastmile_qr_scan", "android": "https://dc.lft.to/lastmile_qr_scan"}}, {"name": "a6115ba1708d3cbb1b99f2c92c9ae442", "fusion_lat": 0.0, "type": "electric_scooter", "lat": 38.905251666666665, "is_reserved": 0, "is_disabled": 0, "fusion_lon": 0.0, "bike_id": "a6115ba1708d3cbb1b99f2c92c9ae442", "lon": -77.03056916666667, "rental_uris": {"ios": "https://dc.lft.to/lastmile_qr_scan", "android": "https://dc.lft.to/lastmile_qr_scan"}}, {"name": "3211680332fd519045ab5320ad115927", "fusion_lat": 0.0, "type": "electric_bike", "lat": 38.90382816666666, "is_reserved": 0, "is_disabled": 0, "fusion_lon": 0.0, "bike_id": "3211680332fd519045ab5320ad115927", "lon": -77.050833, "rental_uris": {"ios": "https://dc.lft.to/lastmile_qr_scan", "android": "https://dc.lft.to/lastmile_qr_scan"}}, {"name": "bc2f44fb7d1c6be797ed3890c73b00c4", "fusion_lat": 0.0, "type": "electric_scooter", "lat": 38.914381, "is_reserved": 0, "is_disabled": 0, "fusion_lon": 0.0, "bike_id": "bc2f44fb7d1c6be797ed3890c73b00c4", "lon": -77.022123, "rental_uris": {"ios": "https://dc.lft.to/lastmile_qr_scan", "android": "https://dc.lft.to/lastmile_qr_scan"}}, {"name": "1907ccf98d236ed726bb93152cb9e0f3", "fusion_lat": 0.0, "type": "electric_scooter", "lat": 38.89614666666667, "is_reserved": 0, "is_disabled": 0, "fusion_lon": 0.0, "bike_id": "1907ccf98d236ed726bb93152cb9e0f3", "lon": -77.04463516666667, "rental_uris": {"ios": "https://dc.lft.to/lastmile_qr_scan", "android": "https://dc.lft.to/lastmile_qr_scan"}}, {"name": "0167825b266e13f7aafd60056d4fad35", "fusion_lat": 0.0, "type": "electric_scooter", "lat": 38.918055, "is_reserved": 0, "is_disabled": 0, "fusion_lon": 0.0, "bike_id": "0167825b266e13f7aafd60056d4fad35", "lon": -77.01020016666666, "rental_uris": {"ios": "https://dc.lft.to/lastmile_qr_scan", "android": "https://dc.lft.to/lastmile_qr_scan"}}, {"name": "c7a68223aa64583c6573afb2f4c51944", "fusion_lat": 0.0, "type": "electric_bike", "lat": 38.82045516666667, "is_reserved": 0, "is_disabled": 0, "fusion_lon": 0.0, "bike_id": "c7a68223aa64583c6573afb2f4c51944", "lon": -77.05314916666667, "rental_uris": {"ios": "https://dc.lft.to/lastmile_qr_scan", "android": "https://dc.lft.to/lastmile_qr_scan"}}, {"name": "78bb7b583b4fbb9c0cea375b50b8391b", "fusion_lat": 0.0, "type": "electric_scooter", "lat": 38.887426166666664, "is_reserved": 0, "is_disabled": 0, "fusion_lon": 0.0, "bike_id": "78bb7b583b4fbb9c0cea375b50b8391b", "lon": -77.02225716666666, "rental_uris": {"ios": "https://dc.lft.to/lastmile_qr_scan", "android": "https://dc.lft.to/lastmile_qr_scan"}}, {"name": "dd81323159e8621c1107d04f7de46737", "fusion_lat": 0.0, "type": "electric_scooter", "lat": 38.93075116666667, "is_reserved": 0, "is_disabled": 0, "fusion_lon": 0.0, "bike_id": "dd81323159e8621c1107d04f7de46737", "lon": -77.033943, "rental_uris": {"ios": "https://dc.lft.to/lastmile_qr_scan", "android": "https://dc.lft.to/lastmile_qr_scan"}}, {"name": "0800eefd499d175ba5b7f9c2259f2fb3", "fusion_lat": 0.0, "type": "electric_scooter", "lat": 38.900205166666666, "is_reserved": 0, "is_disabled": 0, "fusion_lon": 0.0, "bike_id": "0800eefd499d175ba5b7f9c2259f2fb3", "lon": -77.01153916666667, "rental_uris": {"ios": "https://dc.lft.to/lastmile_qr_scan", "android": "https://dc.lft.to/lastmile_qr_scan"}}, {"name": "8e37ba1e3679d53ac9b2f6810e8c76b4", "fusion_lat": 0.0, "type": "electric_scooter", "lat": 38.900498166666665, "is_reserved": 0, "is_disabled": 0, "fusion_lon": 0.0, "bike_id": "8e37ba1e3679d53ac9b2f6810e8c76b4", "lon": -77.031687, "rental_uris": {"ios": "https://dc.lft.to/lastmile_qr_scan", "android": "https://dc.lft.to/lastmile_qr_scan"}}, {"name": "cc1eb7bfcced8479cd7a8b0d99c52f8e", "fusion_lat": 0.0, "type": "electric_bike", "lat": 38.96548633333333, "is_reserved": 0, "is_disabled": 0, "fusion_lon": 0.0, "bike_id": "cc1eb7bfcced8479cd7a8b0d99c52f8e", "lon": -77.03516, "rental_uris": {"ios": "https://dc.lft.to/lastmile_qr_scan", "android": "https://dc.lft.to/lastmile_qr_scan"}}, {"name": "a7497fff1a25f9fd30e955b6ad89d3a5", "fusion_lat": 0.0, "type": "electric_scooter", "lat": 38.903686666666665, "is_reserved": 0, "is_disabled": 0, "fusion_lon": 0.0, "bike_id": "a7497fff1a25f9fd30e955b6ad89d3a5", "lon": -77.05368983333334, "rental_uris": {"ios": "https://dc.lft.to/lastmile_qr_scan", "android": "https://dc.lft.to/lastmile_qr_scan"}}, {"name": "0dd2ce34e4200d2bd837ad1bda7cf58e", "fusion_lat": 0.0, "type": "electric_scooter", "lat": 38.8656535, "is_reserved": 0, "is_disabled": 0, "fusion_lon": 0.0, "bike_id": "0dd2ce34e4200d2bd837ad1bda7cf58e", "lon": -76.9855045, "rental_uris": {"ios": "https://dc.lft.to/lastmile_qr_scan", "android": "https://dc.lft.to/lastmile_qr_scan"}}, {"name": "cfe8d09f258a43967ca8001c91916c7c", "fusion_lat": 0.0, "type": "electric_scooter", "lat": 38.9003305, "is_reserved": 0, "is_disabled": 0, "fusion_lon": 0.0, "bike_id": "cfe8d09f258a43967ca8001c91916c7c", "lon": -77.00626216666667, "rental_uris": {"ios": "https://dc.lft.to/lastmile_qr_scan", "android": "https://dc.lft.to/lastmile_qr_scan"}}, {"name": "ef95ff99925f6232cb6560664adccf32", "fusion_lat": 0.0, "type": "electric_scooter", "lat": 38.94436983333333, "is_reserved": 0, "is_disabled": 0, "fusion_lon": 0.0, "bike_id": "ef95ff99925f6232cb6560664adccf32", "lon": -77.06349283333333, "rental_uris": {"ios": "https://dc.lft.to/lastmile_qr_scan", "android": "https://dc.lft.to/lastmile_qr_scan"}}, {"name": "c4833155eb7994cf7760cb06b8aad8f0", "fusion_lat": 0.0, "type": "electric_scooter", "lat": 38.890885833333336, "is_reserved": 0, "is_disabled": 0, "fusion_lon": 0.0, "bike_id": "c4833155eb7994cf7760cb06b8aad8f0", "lon": -76.9979065, "rental_uris": {"ios": "https://dc.lft.to/lastmile_qr_scan", "android": "https://dc.lft.to/lastmile_qr_scan"}}, {"name": "75010f8396f605810c9dfd7f99bf1411", "fusion_lat": 0.0, "type": "electric_scooter", "lat": 38.87005283333333, "is_reserved": 0, "is_disabled": 0, "fusion_lon": 0.0, "bike_id": "75010f8396f605810c9dfd7f99bf1411", "lon": -77.012273, "rental_uris": {"ios": "https://dc.lft.to/lastmile_qr_scan", "android": "https://dc.lft.to/lastmile_qr_scan"}}, {"name": "cca268f6b7cba4dc815eec2503455b74", "fusion_lat": 0.0, "type": "electric_scooter", "lat": 38.932637166666666, "is_reserved": 0, "is_disabled": 0, "fusion_lon": 0.0, "bike_id": "cca268f6b7cba4dc815eec2503455b74", "lon": -77.03499983333333, "rental_uris": {"ios": "https://dc.lft.to/lastmile_qr_scan", "android": "https://dc.lft.to/lastmile_qr_scan"}}, {"name": "c971dbe4044c47257ae336292e3aedda", "fusion_lat": 0.0, "type": "electric_scooter", "lat": 38.903149666666664, "is_reserved": 0, "is_disabled": 0, "fusion_lon": 0.0, "bike_id": "c971dbe4044c47257ae336292e3aedda", "lon": -77.032163, "rental_uris": {"ios": "https://dc.lft.to/lastmile_qr_scan", "android": "https://dc.lft.to/lastmile_qr_scan"}}, {"name": "5bf9fac13ac76b41f22b34d611faaa95", "fusion_lat": 0.0, "type": "electric_scooter", "lat": 38.923408333333334, "is_reserved": 0, "is_disabled": 0, "fusion_lon": 0.0, "bike_id": "5bf9fac13ac76b41f22b34d611faaa95", "lon": -77.05096666666667, "rental_uris": {"ios": "https://dc.lft.to/lastmile_qr_scan", "android": "https://dc.lft.to/lastmile_qr_scan"}}, {"name": "b8d2d5224091dbf087a502d04eaf0219", "fusion_lat": 0.0, "type": "electric_scooter", "lat": 38.934841166666665, "is_reserved": 0, "is_disabled": 0, "fusion_lon": 0.0, "bike_id": "b8d2d5224091dbf087a502d04eaf0219", "lon": -77.0328475, "rental_uris": {"ios": "https://dc.lft.to/lastmile_qr_scan", "android": "https://dc.lft.to/lastmile_qr_scan"}}, {"name": "8062e520e3f3a592b228cd89d527d4e3", "fusion_lat": 0.0, "type": "electric_scooter", "lat": 38.89238566666667, "is_reserved": 0, "is_disabled": 0, "fusion_lon": 0.0, "bike_id": "8062e520e3f3a592b228cd89d527d4e3", "lon": -77.01784366666666, "rental_uris": {"ios": "https://dc.lft.to/lastmile_qr_scan", "android": "https://dc.lft.to/lastmile_qr_scan"}}, {"name": "52a4e04cb6a057227430ac1dcc28d4b9", "fusion_lat": 0.0, "type": "electric_scooter", "lat": 38.91630416666667, "is_reserved": 0, "is_disabled": 0, "fusion_lon": 0.0, "bike_id": "52a4e04cb6a057227430ac1dcc28d4b9", "lon": -77.02700416666667, "rental_uris": {"ios": "https://dc.lft.to/lastmile_qr_scan", "android": "https://dc.lft.to/lastmile_qr_scan"}}, {"name": "584bac05ef9554481239680e33f71c77", "fusion_lat": 0.0, "type": "electric_bike", "lat": 38.861597333333336, "is_reserved": 0, "is_disabled": 0, "fusion_lon": 0.0, "bike_id": "584bac05ef9554481239680e33f71c77", "lon": -77.13098283333333, "rental_uris": {"ios": "https://dc.lft.to/lastmile_qr_scan", "android": "https://dc.lft.to/lastmile_qr_scan"}}, {"name": "a3576de40b6707b834d059c37e4760cb", "fusion_lat": 0.0, "type": "electric_bike", "lat": 38.967567333333335, "is_reserved": 0, "is_disabled": 0, "fusion_lon": 0.0, "bike_id": "a3576de40b6707b834d059c37e4760cb", "lon": -77.09164466666667, "rental_uris": {"ios": "https://dc.lft.to/lastmile_qr_scan", "android": "https://dc.lft.to/lastmile_qr_scan"}}, {"name": "f2e6b8bb4bbbbcc3f2227338c96acc17", "fusion_lat": 0.0, "type": "electric_scooter", "lat": 38.902352, "is_reserved": 0, "is_disabled": 0, "fusion_lon": 0.0, "bike_id": "f2e6b8bb4bbbbcc3f2227338c96acc17", "lon": -76.9741225, "rental_uris": {"ios": "https://dc.lft.to/lastmile_qr_scan", "android": "https://dc.lft.to/lastmile_qr_scan"}}, {"name": "3dd6befb5af0885fd81b79fbf20e2c88", "fusion_lat": 0.0, "type": "electric_scooter", "lat": 38.925792666666666, "is_reserved": 0, "is_disabled": 0, "fusion_lon": 0.0, "bike_id": "3dd6befb5af0885fd81b79fbf20e2c88", "lon": -77.02841516666666, "rental_uris": {"ios": "https://dc.lft.to/lastmile_qr_scan", "android": "https://dc.lft.to/lastmile_qr_scan"}}, {"name": "0698bc1074731b5f9e6297d8f0fa2e62", "fusion_lat": 0.0, "type": "electric_scooter", "lat": 38.914053833333334, "is_reserved": 0, "is_disabled": 0, "fusion_lon": 0.0, "bike_id": "0698bc1074731b5f9e6297d8f0fa2e62", "lon": -77.0080795, "rental_uris": {"ios": "https://dc.lft.to/lastmile_qr_scan", "android": "https://dc.lft.to/lastmile_qr_scan"}}, {"name": "7278174b345d153043fe5677a4ddf78b", "fusion_lat": 0.0, "type": "electric_scooter", "lat": 38.92692783333333, "is_reserved": 0, "is_disabled": 0, "fusion_lon": 0.0, "bike_id": "7278174b345d153043fe5677a4ddf78b", "lon": -77.02083516666667, "rental_uris": {"ios": "https://dc.lft.to/lastmile_qr_scan", "android": "https://dc.lft.to/lastmile_qr_scan"}}, {"name": "53b26a0f55f077d29bfd8d1a525c7f3e", "fusion_lat": 0.0, "type": "electric_scooter", "lat": 38.89547833333334, "is_reserved": 0, "is_disabled": 0, "fusion_lon": 0.0, "bike_id": "53b26a0f55f077d29bfd8d1a525c7f3e", "lon": -77.03948366666667, "rental_uris": {"ios": "https://dc.lft.to/lastmile_qr_scan", "android": "https://dc.lft.to/lastmile_qr_scan"}}, {"name": "6f72303f738a7f4e696e5a5f59563c8e", "fusion_lat": 0.0, "type": "electric_scooter", "lat": 38.934165166666666, "is_reserved": 0, "is_disabled": 0, "fusion_lon": 0.0, "bike_id": "6f72303f738a7f4e696e5a5f59563c8e", "lon": -77.072596, "rental_uris": {"ios": "https://dc.lft.to/lastmile_qr_scan", "android": "https://dc.lft.to/lastmile_qr_scan"}}, {"name": "2a1b09dcc6f9380bd177b0b326c59393", "fusion_lat": 0.0, "type": "electric_scooter", "lat": 38.8922095, "is_reserved": 0, "is_disabled": 0, "fusion_lon": 0.0, "bike_id": "2a1b09dcc6f9380bd177b0b326c59393", "lon": -77.030943, "rental_uris": {"ios": "https://dc.lft.to/lastmile_qr_scan", "android": "https://dc.lft.to/lastmile_qr_scan"}}, {"name": "d18fadccb4e52b8bbcb7769a590dd138", "fusion_lat": 0.0, "type": "electric_bike", "lat": 38.8022395, "is_reserved": 0, "is_disabled": 0, "fusion_lon": 0.0, "bike_id": "d18fadccb4e52b8bbcb7769a590dd138", "lon": -77.07917966666666, "rental_uris": {"ios": "https://dc.lft.to/lastmile_qr_scan", "android": "https://dc.lft.to/lastmile_qr_scan"}}, {"name": "edd74d4a82fa580cb2f08a6d0632cdbb", "fusion_lat": 0.0, "type": "electric_scooter", "lat": 38.89737733333333, "is_reserved": 0, "is_disabled": 0, "fusion_lon": 0.0, "bike_id": "edd74d4a82fa580cb2f08a6d0632cdbb", "lon": -77.031219, "rental_uris": {"ios": "https://dc.lft.to/lastmile_qr_scan", "android": "https://dc.lft.to/lastmile_qr_scan"}}, {"name": "a61989bc08442c2cb399fcf174ee36e8", "fusion_lat": 0.0, "type": "electric_scooter", "lat": 38.944471, "is_reserved": 0, "is_disabled": 0, "fusion_lon": 0.0, "bike_id": "a61989bc08442c2cb399fcf174ee36e8", "lon": -77.06353616666667, "rental_uris": {"ios": "https://dc.lft.to/lastmile_qr_scan", "android": "https://dc.lft.to/lastmile_qr_scan"}}, {"name": "79eaef95c4d60f51e3dbae4e3475043d", "fusion_lat": 0.0, "type": "electric_scooter", "lat": 38.904569, "is_reserved": 0, "is_disabled": 0, "fusion_lon": 0.0, "bike_id": "79eaef95c4d60f51e3dbae4e3475043d", "lon": -77.04654083333334, "rental_uris": {"ios": "https://dc.lft.to/lastmile_qr_scan", "android": "https://dc.lft.to/lastmile_qr_scan"}}, {"name": "660eaeeb16a26d557f4bc1dcdc1f5bd3", "fusion_lat": 0.0, "type": "electric_scooter", "lat": 38.912487, "is_reserved": 0, "is_disabled": 0, "fusion_lon": 0.0, "bike_id": "660eaeeb16a26d557f4bc1dcdc1f5bd3", "lon": -77.0384325, "rental_uris": {"ios": "https://dc.lft.to/lastmile_qr_scan", "android": "https://dc.lft.to/lastmile_qr_scan"}}, {"name": "29cb997bd8896b1f289084dccf16d96d", "fusion_lat": 0.0, "type": "electric_scooter", "lat": 38.89526016666667, "is_reserved": 0, "is_disabled": 0, "fusion_lon": 0.0, "bike_id": "29cb997bd8896b1f289084dccf16d96d", "lon": -77.04290666666667, "rental_uris": {"ios": "https://dc.lft.to/lastmile_qr_scan", "android": "https://dc.lft.to/lastmile_qr_scan"}}, {"name": "f1a3c317397ffe97eaa64e118c2feb62", "fusion_lat": 0.0, "type": "electric_bike", "lat": 38.906844, "is_reserved": 0, "is_disabled": 0, "fusion_lon": 0.0, "bike_id": "f1a3c317397ffe97eaa64e118c2feb62", "lon": -76.95191483333333, "rental_uris": {"ios": "https://dc.lft.to/lastmile_qr_scan", "android": "https://dc.lft.to/lastmile_qr_scan"}}, {"name": "3fa1f2c964e2bdd5cf54366d4c848994", "fusion_lat": 0.0, "type": "electric_scooter", "lat": 38.903962, "is_reserved": 0, "is_disabled": 0, "fusion_lon": 0.0, "bike_id": "3fa1f2c964e2bdd5cf54366d4c848994", "lon": -77.01112983333333, "rental_uris": {"ios": "https://dc.lft.to/lastmile_qr_scan", "android": "https://dc.lft.to/lastmile_qr_scan"}}, {"name": "8dd257599c198cd833293a4b1e89ce31", "fusion_lat": 0.0, "type": "electric_scooter", "lat": 38.90739266666667, "is_reserved": 0, "is_disabled": 0, "fusion_lon": 0.0, "bike_id": "8dd257599c198cd833293a4b1e89ce31", "lon": -77.03214766666666, "rental_uris": {"ios": "https://dc.lft.to/lastmile_qr_scan", "android": "https://dc.lft.to/lastmile_qr_scan"}}, {"name": "26037540fd2d1633ee0e5101658d0ba3", "fusion_lat": 0.0, "type": "electric_scooter", "lat": 38.9033445, "is_reserved": 0, "is_disabled": 0, "fusion_lon": 0.0, "bike_id": "26037540fd2d1633ee0e5101658d0ba3", "lon": -76.9985385, "rental_uris": {"ios": "https://dc.lft.to/lastmile_qr_scan", "android": "https://dc.lft.to/lastmile_qr_scan"}}, {"name": "6cdcfd83834f6b33e5178bf4bd78ea36", "fusion_lat": 0.0, "type": "electric_scooter", "lat": 38.90649166666667, "is_reserved": 0, "is_disabled": 0, "fusion_lon": 0.0, "bike_id": "6cdcfd83834f6b33e5178bf4bd78ea36", "lon": -77.02499583333334, "rental_uris": {"ios": "https://dc.lft.to/lastmile_qr_scan", "android": "https://dc.lft.to/lastmile_qr_scan"}}, {"name": "c2d4b922f4820c759b1e33fb84dd061a", "fusion_lat": 0.0, "type": "electric_scooter", "lat": 38.8989075, "is_reserved": 0, "is_disabled": 0, "fusion_lon": 0.0, "bike_id": "c2d4b922f4820c759b1e33fb84dd061a", "lon": -77.03162433333334, "rental_uris": {"ios": "https://dc.lft.to/lastmile_qr_scan", "android": "https://dc.lft.to/lastmile_qr_scan"}}, {"name": "3f46992d4c847f71f8aea9f2ad961171", "fusion_lat": 0.0, "type": "electric_scooter", "lat": 38.90574083333333, "is_reserved": 0, "is_disabled": 0, "fusion_lon": 0.0, "bike_id": "3f46992d4c847f71f8aea9f2ad961171", "lon": -77.03082283333333, "rental_uris": {"ios": "https://dc.lft.to/lastmile_qr_scan", "android": "https://dc.lft.to/lastmile_qr_scan"}}, {"name": "823b37d4b1a873cb9ec4be81a2fc19d3", "fusion_lat": 0.0, "type": "electric_scooter", "lat": 38.9389015, "is_reserved": 0, "is_disabled": 0, "fusion_lon": 0.0, "bike_id": "823b37d4b1a873cb9ec4be81a2fc19d3", "lon": -77.02462766666666, "rental_uris": {"ios": "https://dc.lft.to/lastmile_qr_scan", "android": "https://dc.lft.to/lastmile_qr_scan"}}, {"name": "111f6f240fd22ab80e40142c2679886b", "fusion_lat": 0.0, "type": "electric_scooter", "lat": 38.898513666666666, "is_reserved": 0, "is_disabled": 0, "fusion_lon": 0.0, "bike_id": "111f6f240fd22ab80e40142c2679886b", "lon": -76.99031283333333, "rental_uris": {"ios": "https://dc.lft.to/lastmile_qr_scan", "android": "https://dc.lft.to/lastmile_qr_scan"}}, {"name": "9611d9f58e535d17ba093720e4d8988c", "fusion_lat": 0.0, "type": "electric_scooter", "lat": 38.9153295, "is_reserved": 0, "is_disabled": 0, "fusion_lon": 0.0, "bike_id": "9611d9f58e535d17ba093720e4d8988c", "lon": -77.012202, "rental_uris": {"ios": "https://dc.lft.to/lastmile_qr_scan", "android": "https://dc.lft.to/lastmile_qr_scan"}}, {"name": "bd81740b010ed93a6183b8f39883e192", "fusion_lat": 0.0, "type": "electric_scooter", "lat": 38.9004565, "is_reserved": 0, "is_disabled": 0, "fusion_lon": 0.0, "bike_id": "bd81740b010ed93a6183b8f39883e192", "lon": -77.04333733333333, "rental_uris": {"ios": "https://dc.lft.to/lastmile_qr_scan", "android": "https://dc.lft.to/lastmile_qr_scan"}}, {"name": "ca580cc772a53ab6f26cf9f5961bf39c", "fusion_lat": 0.0, "type": "electric_bike", "lat": 38.97323, "is_reserved": 0, "is_disabled": 0, "fusion_lon": 0.0, "bike_id": "ca580cc772a53ab6f26cf9f5961bf39c", "lon": -77.02151616666667, "rental_uris": {"ios": "https://dc.lft.to/lastmile_qr_scan", "android": "https://dc.lft.to/lastmile_qr_scan"}}, {"name": "f3e14cf93f6565f9d5bdc328e1f18d22", "fusion_lat": 0.0, "type": "electric_scooter", "lat": 38.928888, "is_reserved": 0, "is_disabled": 0, "fusion_lon": 0.0, "bike_id": "f3e14cf93f6565f9d5bdc328e1f18d22", "lon": -77.013709, "rental_uris": {"ios": "https://dc.lft.to/lastmile_qr_scan", "android": "https://dc.lft.to/lastmile_qr_scan"}}, {"name": "3f7062236e247b12a583d80dea82eba3", "fusion_lat": 0.0, "type": "electric_scooter", "lat": 38.90015866666667, "is_reserved": 0, "is_disabled": 0, "fusion_lon": 0.0, "bike_id": "3f7062236e247b12a583d80dea82eba3", "lon": -77.02171033333333, "rental_uris": {"ios": "https://dc.lft.to/lastmile_qr_scan", "android": "https://dc.lft.to/lastmile_qr_scan"}}, {"name": "6af5aed4ed6b104af9a08f09593f09b6", "fusion_lat": 0.0, "type": "electric_scooter", "lat": 38.94185083333333, "is_reserved": 0, "is_disabled": 0, "fusion_lon": 0.0, "bike_id": "6af5aed4ed6b104af9a08f09593f09b6", "lon": -77.0249075, "rental_uris": {"ios": "https://dc.lft.to/lastmile_qr_scan", "android": "https://dc.lft.to/lastmile_qr_scan"}}, {"name": "6708bbd656597079c28e637f95442a21", "fusion_lat": 0.0, "type": "electric_bike", "lat": 38.94553583333333, "is_reserved": 0, "is_disabled": 0, "fusion_lon": 0.0, "bike_id": "6708bbd656597079c28e637f95442a21", "lon": -76.89538, "rental_uris": {"ios": "https://dc.lft.to/lastmile_qr_scan", "android": "https://dc.lft.to/lastmile_qr_scan"}}, {"name": "3009415c99077c16f2ffb576541397b9", "fusion_lat": 0.0, "type": "electric_scooter", "lat": 38.8950415, "is_reserved": 0, "is_disabled": 0, "fusion_lon": 0.0, "bike_id": "3009415c99077c16f2ffb576541397b9", "lon": -77.016122, "rental_uris": {"ios": "https://dc.lft.to/lastmile_qr_scan", "android": "https://dc.lft.to/lastmile_qr_scan"}}, {"name": "f63fcfe2b701d8fd5ebb9a104fc63949", "fusion_lat": 0.0, "type": "electric_scooter", "lat": 38.91613016666667, "is_reserved": 0, "is_disabled": 0, "fusion_lon": 0.0, "bike_id": "f63fcfe2b701d8fd5ebb9a104fc63949", "lon": -77.03853233333334, "rental_uris": {"ios": "https://dc.lft.to/lastmile_qr_scan", "android": "https://dc.lft.to/lastmile_qr_scan"}}, {"name": "0e62a07991399d6d70c6200c3f603b11", "fusion_lat": 0.0, "type": "electric_scooter", "lat": 38.90640483333333, "is_reserved": 0, "is_disabled": 0, "fusion_lon": 0.0, "bike_id": "0e62a07991399d6d70c6200c3f603b11", "lon": -77.00588333333333, "rental_uris": {"ios": "https://dc.lft.to/lastmile_qr_scan", "android": "https://dc.lft.to/lastmile_qr_scan"}}, {"name": "34a4346289662c3d684a128eee2fdf4e", "fusion_lat": 0.0, "type": "electric_scooter", "lat": 38.866941, "is_reserved": 0, "is_disabled": 0, "fusion_lon": 0.0, "bike_id": "34a4346289662c3d684a128eee2fdf4e", "lon": -76.987115, "rental_uris": {"ios": "https://dc.lft.to/lastmile_qr_scan", "android": "https://dc.lft.to/lastmile_qr_scan"}}, {"name": "f61fbf08444e1237c9c3970e9d8544db", "fusion_lat": 0.0, "type": "electric_scooter", "lat": 38.89276483333333, "is_reserved": 0, "is_disabled": 0, "fusion_lon": 0.0, "bike_id": "f61fbf08444e1237c9c3970e9d8544db", "lon": -77.03211933333333, "rental_uris": {"ios": "https://dc.lft.to/lastmile_qr_scan", "android": "https://dc.lft.to/lastmile_qr_scan"}}, {"name": "87469668caf02c944eb50d4f7602b18d", "fusion_lat": 0.0, "type": "electric_scooter", "lat": 38.9147485, "is_reserved": 0, "is_disabled": 0, "fusion_lon": 0.0, "bike_id": "87469668caf02c944eb50d4f7602b18d", "lon": -77.00228683333333, "rental_uris": {"ios": "https://dc.lft.to/lastmile_qr_scan", "android": "https://dc.lft.to/lastmile_qr_scan"}}, {"name": "e9b9b87c66fde506380890f3a5e5b94e", "fusion_lat": 0.0, "type": "electric_scooter", "lat": 38.92052316666667, "is_reserved": 0, "is_disabled": 0, "fusion_lon": 0.0, "bike_id": "e9b9b87c66fde506380890f3a5e5b94e", "lon": -77.03352016666666, "rental_uris": {"ios": "https://dc.lft.to/lastmile_qr_scan", "android": "https://dc.lft.to/lastmile_qr_scan"}}, {"name": "cdab172a39cff2e6c6fedc669fecc0f9", "fusion_lat": 0.0, "type": "electric_scooter", "lat": 38.93124783333333, "is_reserved": 0, "is_disabled": 0, "fusion_lon": 0.0, "bike_id": "cdab172a39cff2e6c6fedc669fecc0f9", "lon": -77.03603683333333, "rental_uris": {"ios": "https://dc.lft.to/lastmile_qr_scan", "android": "https://dc.lft.to/lastmile_qr_scan"}}, {"name": "e06676a0c64aac782b8ba9acd44526da", "fusion_lat": 0.0, "type": "electric_scooter", "lat": 38.93251, "is_reserved": 0, "is_disabled": 0, "fusion_lon": 0.0, "bike_id": "e06676a0c64aac782b8ba9acd44526da", "lon": -77.04006483333333, "rental_uris": {"ios": "https://dc.lft.to/lastmile_qr_scan", "android": "https://dc.lft.to/lastmile_qr_scan"}}, {"name": "b76664e5d1ff4c87f4b66c8f49d98ada", "fusion_lat": 0.0, "type": "electric_scooter", "lat": 38.9140285, "is_reserved": 0, "is_disabled": 0, "fusion_lon": 0.0, "bike_id": "b76664e5d1ff4c87f4b66c8f49d98ada", "lon": -77.03914066666667, "rental_uris": {"ios": "https://dc.lft.to/lastmile_qr_scan", "android": "https://dc.lft.to/lastmile_qr_scan"}}, {"name": "aa16fba861334812a40195483f323da1", "fusion_lat": 0.0, "type": "electric_scooter", "lat": 38.931534166666665, "is_reserved": 0, "is_disabled": 0, "fusion_lon": 0.0, "bike_id": "aa16fba861334812a40195483f323da1", "lon": -77.03892066666667, "rental_uris": {"ios": "https://dc.lft.to/lastmile_qr_scan", "android": "https://dc.lft.to/lastmile_qr_scan"}}, {"name": "831d04580a8754adcbf27935b5785d70", "fusion_lat": 0.0, "type": "electric_scooter", "lat": 38.883986, "is_reserved": 0, "is_disabled": 0, "fusion_lon": 0.0, "bike_id": "831d04580a8754adcbf27935b5785d70", "lon": -76.93046266666667, "rental_uris": {"ios": "https://dc.lft.to/lastmile_qr_scan", "android": "https://dc.lft.to/lastmile_qr_scan"}}, {"name": "8e13a3448a6d227b7695432dbbdbbd6f", "fusion_lat": 0.0, "type": "electric_scooter", "lat": 38.90687833333333, "is_reserved": 0, "is_disabled": 0, "fusion_lon": 0.0, "bike_id": "8e13a3448a6d227b7695432dbbdbbd6f", "lon": -77.03778733333333, "rental_uris": {"ios": "https://dc.lft.to/lastmile_qr_scan", "android": "https://dc.lft.to/lastmile_qr_scan"}}, {"name": "7e2250dade0306bd78bc749c89aa9ad3", "fusion_lat": 0.0, "type": "electric_scooter", "lat": 38.90316966666666, "is_reserved": 0, "is_disabled": 0, "fusion_lon": 0.0, "bike_id": "7e2250dade0306bd78bc749c89aa9ad3", "lon": -77.03819633333333, "rental_uris": {"ios": "https://dc.lft.to/lastmile_qr_scan", "android": "https://dc.lft.to/lastmile_qr_scan"}}, {"name": "c28b6ff38498cd46db4ab088bb06e72e", "fusion_lat": 0.0, "type": "electric_scooter", "lat": 38.92793133333333, "is_reserved": 0, "is_disabled": 0, "fusion_lon": 0.0, "bike_id": "c28b6ff38498cd46db4ab088bb06e72e", "lon": -77.04353516666667, "rental_uris": {"ios": "https://dc.lft.to/lastmile_qr_scan", "android": "https://dc.lft.to/lastmile_qr_scan"}}, {"name": "615949e8737abd8d1eb23ba4e22ad8ae", "fusion_lat": 0.0, "type": "electric_bike", "lat": 38.875036333333334, "is_reserved": 0, "is_disabled": 0, "fusion_lon": 0.0, "bike_id": "615949e8737abd8d1eb23ba4e22ad8ae", "lon": -77.00033316666666, "rental_uris": {"ios": "https://dc.lft.to/lastmile_qr_scan", "android": "https://dc.lft.to/lastmile_qr_scan"}}, {"name": "e0b13aacda3ce6a02ebda43ad4d71013", "fusion_lat": 0.0, "type": "electric_scooter", "lat": 38.927472333333334, "is_reserved": 0, "is_disabled": 0, "fusion_lon": 0.0, "bike_id": "e0b13aacda3ce6a02ebda43ad4d71013", "lon": -77.053652, "rental_uris": {"ios": "https://dc.lft.to/lastmile_qr_scan", "android": "https://dc.lft.to/lastmile_qr_scan"}}, {"name": "9fca5c93f926a23e4e249ea1a2cd823f", "fusion_lat": 0.0, "type": "electric_scooter", "lat": 38.942907166666664, "is_reserved": 0, "is_disabled": 0, "fusion_lon": 0.0, "bike_id": "9fca5c93f926a23e4e249ea1a2cd823f", "lon": -77.02794133333333, "rental_uris": {"ios": "https://dc.lft.to/lastmile_qr_scan", "android": "https://dc.lft.to/lastmile_qr_scan"}}, {"name": "cc4364f6d0a7a72d95d22a1c76f8546c", "fusion_lat": 0.0, "type": "electric_scooter", "lat": 38.930795, "is_reserved": 0, "is_disabled": 0, "fusion_lon": 0.0, "bike_id": "cc4364f6d0a7a72d95d22a1c76f8546c", "lon": -77.02811233333334, "rental_uris": {"ios": "https://dc.lft.to/lastmile_qr_scan", "android": "https://dc.lft.to/lastmile_qr_scan"}}, {"name": "68ae06ec42601efa527ee8b80febf95d", "fusion_lat": 0.0, "type": "electric_scooter", "lat": 38.9494495, "is_reserved": 0, "is_disabled": 0, "fusion_lon": 0.0, "bike_id": "68ae06ec42601efa527ee8b80febf95d", "lon": -77.01622816666666, "rental_uris": {"ios": "https://dc.lft.to/lastmile_qr_scan", "android": "https://dc.lft.to/lastmile_qr_scan"}}, {"name": "2a19df60660377e4e69963e0a3f67ae5", "fusion_lat": 0.0, "type": "electric_bike", "lat": 38.8568455, "is_reserved": 0, "is_disabled": 0, "fusion_lon": 0.0, "bike_id": "2a19df60660377e4e69963e0a3f67ae5", "lon": -77.08544166666667, "rental_uris": {"ios": "https://dc.lft.to/lastmile_qr_scan", "android": "https://dc.lft.to/lastmile_qr_scan"}}, {"name": "269e9c7ae6aaecae14e88c8d1c94c97b", "fusion_lat": 0.0, "type": "electric_bike", "lat": 38.99937, "is_reserved": 0, "is_disabled": 0, "fusion_lon": 0.0, "bike_id": "269e9c7ae6aaecae14e88c8d1c94c97b", "lon": -77.0176935, "rental_uris": {"ios": "https://dc.lft.to/lastmile_qr_scan", "android": "https://dc.lft.to/lastmile_qr_scan"}}, {"name": "79ed2cb3b8c477f5bfc44a5519c38fb6", "fusion_lat": 0.0, "type": "electric_scooter", "lat": 38.866956, "is_reserved": 0, "is_disabled": 0, "fusion_lon": 0.0, "bike_id": "79ed2cb3b8c477f5bfc44a5519c38fb6", "lon": -76.98710516666667, "rental_uris": {"ios": "https://dc.lft.to/lastmile_qr_scan", "android": "https://dc.lft.to/lastmile_qr_scan"}}, {"name": "0d43a797795c18d37ada67473a52cdd1", "fusion_lat": 0.0, "type": "electric_scooter", "lat": 38.90040416666667, "is_reserved": 0, "is_disabled": 0, "fusion_lon": 0.0, "bike_id": "0d43a797795c18d37ada67473a52cdd1", "lon": -77.0150635, "rental_uris": {"ios": "https://dc.lft.to/lastmile_qr_scan", "android": "https://dc.lft.to/lastmile_qr_scan"}}, {"name": "437f280403f2d2b97c3d9faff6f0b481", "fusion_lat": 0.0, "type": "electric_bike", "lat": 38.966244, "is_reserved": 0, "is_disabled": 0, "fusion_lon": 0.0, "bike_id": "437f280403f2d2b97c3d9faff6f0b481", "lon": -76.9767285, "rental_uris": {"ios": "https://dc.lft.to/lastmile_qr_scan", "android": "https://dc.lft.to/lastmile_qr_scan"}}, {"name": "9ced34932d5efc4522910b62946699c1", "fusion_lat": 0.0, "type": "electric_scooter", "lat": 38.924489, "is_reserved": 0, "is_disabled": 0, "fusion_lon": 0.0, "bike_id": "9ced34932d5efc4522910b62946699c1", "lon": -77.03283916666666, "rental_uris": {"ios": "https://dc.lft.to/lastmile_qr_scan", "android": "https://dc.lft.to/lastmile_qr_scan"}}, {"name": "dc10f306fc04b0d9beb3ccdd8e104038", "fusion_lat": 0.0, "type": "electric_scooter", "lat": 38.9205785, "is_reserved": 0, "is_disabled": 0, "fusion_lon": 0.0, "bike_id": "dc10f306fc04b0d9beb3ccdd8e104038", "lon": -77.034625, "rental_uris": {"ios": "https://dc.lft.to/lastmile_qr_scan", "android": "https://dc.lft.to/lastmile_qr_scan"}}, {"name": "ecf0aa876c8fe5a5f6092593a8683560", "fusion_lat": 0.0, "type": "electric_scooter", "lat": 38.93083466666667, "is_reserved": 0, "is_disabled": 0, "fusion_lon": 0.0, "bike_id": "ecf0aa876c8fe5a5f6092593a8683560", "lon": -77.03277783333333, "rental_uris": {"ios": "https://dc.lft.to/lastmile_qr_scan", "android": "https://dc.lft.to/lastmile_qr_scan"}}, {"name": "bc52cbb282c84cc9ce52c85fbd62507b", "fusion_lat": 0.0, "type": "electric_scooter", "lat": 38.939746166666666, "is_reserved": 0, "is_disabled": 0, "fusion_lon": 0.0, "bike_id": "bc52cbb282c84cc9ce52c85fbd62507b", "lon": -77.02896683333333, "rental_uris": {"ios": "https://dc.lft.to/lastmile_qr_scan", "android": "https://dc.lft.to/lastmile_qr_scan"}}, {"name": "3832084cf44ce3805132ea280a879104", "fusion_lat": 0.0, "type": "electric_scooter", "lat": 38.9543665, "is_reserved": 0, "is_disabled": 0, "fusion_lon": 0.0, "bike_id": "3832084cf44ce3805132ea280a879104", "lon": -76.9881295, "rental_uris": {"ios": "https://dc.lft.to/lastmile_qr_scan", "android": "https://dc.lft.to/lastmile_qr_scan"}}, {"name": "c71ac9cd78453f434c8f20834f3c8029", "fusion_lat": 0.0, "type": "electric_scooter", "lat": 38.9224135, "is_reserved": 0, "is_disabled": 0, "fusion_lon": 0.0, "bike_id": "c71ac9cd78453f434c8f20834f3c8029", "lon": -77.03662883333334, "rental_uris": {"ios": "https://dc.lft.to/lastmile_qr_scan", "android": "https://dc.lft.to/lastmile_qr_scan"}}, {"name": "e42a849dc1bbb9f9229e42ad95b2b0d8", "fusion_lat": 0.0, "type": "electric_scooter", "lat": 38.9038775, "is_reserved": 0, "is_disabled": 0, "fusion_lon": 0.0, "bike_id": "e42a849dc1bbb9f9229e42ad95b2b0d8", "lon": -77.01098916666666, "rental_uris": {"ios": "https://dc.lft.to/lastmile_qr_scan", "android": "https://dc.lft.to/lastmile_qr_scan"}}, {"name": "4ee8fc09ea0b4efa1a8c6fa8c8a7f493", "fusion_lat": 0.0, "type": "electric_scooter", "lat": 38.910326166666664, "is_reserved": 0, "is_disabled": 0, "fusion_lon": 0.0, "bike_id": "4ee8fc09ea0b4efa1a8c6fa8c8a7f493", "lon": -77.04818133333333, "rental_uris": {"ios": "https://dc.lft.to/lastmile_qr_scan", "android": "https://dc.lft.to/lastmile_qr_scan"}}, {"name": "c4f4fe865ed61a6b0fe201671bf7c8ed", "fusion_lat": 0.0, "type": "electric_bike", "lat": 38.9489205, "is_reserved": 0, "is_disabled": 0, "fusion_lon": 0.0, "bike_id": "c4f4fe865ed61a6b0fe201671bf7c8ed", "lon": -76.9637455, "rental_uris": {"ios": "https://dc.lft.to/lastmile_qr_scan", "android": "https://dc.lft.to/lastmile_qr_scan"}}, {"name": "812f0a4334b53e9cd9a643d3a317a735", "fusion_lat": 0.0, "type": "electric_bike", "lat": 38.9982555, "is_reserved": 0, "is_disabled": 0, "fusion_lon": 0.0, "bike_id": "812f0a4334b53e9cd9a643d3a317a735", "lon": -76.88367316666667, "rental_uris": {"ios": "https://dc.lft.to/lastmile_qr_scan", "android": "https://dc.lft.to/lastmile_qr_scan"}}, {"name": "c8157c6cd1ec942f1c19067824d00d74", "fusion_lat": 0.0, "type": "electric_bike", "lat": 38.863842, "is_reserved": 0, "is_disabled": 0, "fusion_lon": 0.0, "bike_id": "c8157c6cd1ec942f1c19067824d00d74", "lon": -76.98994366666666, "rental_uris": {"ios": "https://dc.lft.to/lastmile_qr_scan", "android": "https://dc.lft.to/lastmile_qr_scan"}}, {"name": "524fedd4a7f130a05ebe44e29cfcc90f", "fusion_lat": 0.0, "type": "electric_scooter", "lat": 38.9026435, "is_reserved": 0, "is_disabled": 0, "fusion_lon": 0.0, "bike_id": "524fedd4a7f130a05ebe44e29cfcc90f", "lon": -77.034405, "rental_uris": {"ios": "https://dc.lft.to/lastmile_qr_scan", "android": "https://dc.lft.to/lastmile_qr_scan"}}, {"name": "14dcd9f1f484ade35fc4667c33228e7b", "fusion_lat": 0.0, "type": "electric_scooter", "lat": 38.9417235, "is_reserved": 0, "is_disabled": 0, "fusion_lon": 0.0, "bike_id": "14dcd9f1f484ade35fc4667c33228e7b", "lon": -77.041421, "rental_uris": {"ios": "https://dc.lft.to/lastmile_qr_scan", "android": "https://dc.lft.to/lastmile_qr_scan"}}, {"name": "b464738589ef769653f2e044ec640714", "fusion_lat": 0.0, "type": "electric_scooter", "lat": 38.89877166666667, "is_reserved": 0, "is_disabled": 0, "fusion_lon": 0.0, "bike_id": "b464738589ef769653f2e044ec640714", "lon": -76.93159916666667, "rental_uris": {"ios": "https://dc.lft.to/lastmile_qr_scan", "android": "https://dc.lft.to/lastmile_qr_scan"}}, {"name": "58baad93309191a0d6d6afe819691d7e", "fusion_lat": 0.0, "type": "electric_scooter", "lat": 38.928712, "is_reserved": 0, "is_disabled": 0, "fusion_lon": 0.0, "bike_id": "58baad93309191a0d6d6afe819691d7e", "lon": -77.0323345, "rental_uris": {"ios": "https://dc.lft.to/lastmile_qr_scan", "android": "https://dc.lft.to/lastmile_qr_scan"}},