{"data": {"bikes": [{"is_disabled": 0, "rental_uris": {"ios": "https://dc.lft.to/lastmile_qr_scan", "android": "https://dc.lft.to/lastmile_qr_scan"}, "is_reserved": 0, "fusion_lon": 0.0, "lat": 38.9119635, "type": "electric_scooter", "name": "84f507ea094a36eb0daf686c2b09474f", "bike_id": "84f507ea094a36eb0daf686c2b09474f", "fusion_lat": 0.0, "lon": -77.03252416666666}, {"is_disabled": 0, "rental_uris": {"ios": "https://dc.lft.to/lastmile_qr_scan", "android": "https://dc.lft.to/lastmile_qr_scan"}, "is_reserved": 0, "fusion_lon": 0.0, "lat": 38.92293883333333, "type": "electric_scooter", "name": "0656b2c15b084df8e930ce8b36fc07e7", "bike_id": "0656b2c15b084df8e930ce8b36fc07e7", "fusion_lat": 0.0, "lon": -77.04142316666666}, {"is_disabled": 0, "rental_uris": {"ios": "https://dc.lft.to/lastmile_qr_scan", "android": "https://dc.lft.to/lastmile_qr_scan"}, "is_reserved": 0, "fusion_lon": 0.0, "lat": 38.965747666666665, "type": "electric_scooter", "name": "af0d9848e0a7e49b4b7857b98b76762a", "bike_id": "af0d9848e0a7e49b4b7857b98b76762a", "fusion_lat": 0.0, "lon": -77.02762516666667}, {"is_disabled": 0, "rental_uris": {"ios": "https://dc.lft.to/lastmile_qr_scan", "android": "https://dc.lft.to/lastmile_qr_scan"}, "is_reserved": 0, "fusion_lon": 0.0, "lat": 38.90128166666667, "type": "electric_scooter", "name": "73ddc92a2b09e7006937597475f1e381", "bike_id": "73ddc92a2b09e7006937597475f1e381", "fusion_lat": 0.0, "lon": -77.02293066666667}, {"is_disabled": 0, "rental_uris": {"ios": "https://dc.lft.to/lastmile_qr_scan", "android": "https://dc.lft.to/lastmile_qr_scan"}, "is_reserved": 0, "fusion_lon": 0.0, "lat": 38.92134716666666, "type": "electric_scooter", "name": "5480bfd81a7b85fd34b03a534e4dd30b", "bike_id": "5480bfd81a7b85fd34b03a534e4dd30b", "fusion_lat": 0.0, "lon": -77.05152233333334}, {"is_disabled": 0, "rental_uris": {"ios": "https://dc.lft.to/lastmile_qr_scan", "android": "https://dc.lft.to/lastmile_qr_scan"}, "is_reserved": 0, "fusion_lon": 0.0, "lat": 38.950961666666664, "type": "electric_scooter", "name": "b2bc3916516bc5a1ab62759464b2c096", "bike_id": "b2bc3916516bc5a1ab62759464b2c096", "fusion_lat": 0.0, "lon": -77.02963066666666}, {"is_disabled": 0, "rental_uris": {"ios": "https://dc.lft.to/lastmile_qr_scan", "android": "https://dc.lft.to/lastmile_qr_scan"}, "is_reserved": 0, "fusion_lon": 0.0, "lat": 38.90174666666667, "type": "electric_scooter", "name": "afbdbedad152f65de7c79cf24bc94f1d", "bike_id": "afbdbedad152f65de7c79cf24bc94f1d", "fusion_lat": 0.0, "lon": -76.98079416666667}, {"is_disabled": 0, "rental_uris": {"ios": "https://dc.lft.to/lastmile_qr_scan", "android": "https://dc.lft.to/lastmile_qr_scan"}, "is_reserved": 0, "fusion_lon": 0.0, "lat": 38.89221783333333, "type": "electric_scooter", "name": "ca3814fe944a042c81312c017cbac749", "bike_id": "ca3814fe944a042c81312c017cbac749", "fusion_lat": 0.0, "lon": -77.03019666666667}, {"is_disabled": 0, "rental_uris": {"ios": "https://dc.lft.to/lastmile_qr_scan", "android": "https://dc.lft.to/lastmile_qr_scan"}, "is_reserved": 0, "fusion_lon": 0.0, "lat": 38.933447, "type": "electric_scooter", "name": "458e64ad97808be2b1294eda1638d023", "bike_id": "458e64ad97808be2b1294eda1638d023", "fusion_lat": 0.0, "lon": -77.07258533333334}, {"is_disabled": 0, "rental_uris": {"ios": "https://dc.lft.to/lastmile_qr_scan", "android": "https://dc.lft.to/lastmile_qr_scan"}, "is_reserved": 0, "fusion_lon": 0.0, "lat": 38.89603683333333, "type": "electric_scooter", "name": "e51c668c5946b755f7e2a308e8e8f601", "bike_id": "e51c668c5946b755f7e2a308e8e8f601", "fusion_lat": 0.0, "lon": -77.0507985}, {"is_disabled": 0, "rental_uris": {"ios": "https://dc.lft.to/lastmile_qr_scan", "android": "https://dc.lft.to/lastmile_qr_scan"}, "is_reserved": 0, "fusion_lon": 0.0, "lat": 38.92121566666667, "type": "electric_scooter", "name": "586f91c880e0fffbaece3e85b879bd6d", "bike_id": "586f91c880e0fffbaece3e85b879bd6d", "fusion_lat": 0.0, "lon": -77.00940733333333}, {"is_disabled": 0, "rental_uris": {"ios": "https://dc.lft.to/lastmile_qr_scan", "android": "https://dc.lft.to/lastmile_qr_scan"}, "is_reserved": 0, "fusion_lon": 0.0, "lat": 38.941418, "type": "electric_scooter", "name": "c5b05146e86cfbb901d90eabfd1541af", "bike_id": "c5b05146e86cfbb901d90eabfd1541af", "fusion_lat": 0.0, "lon": -77.02326066666667}, {"is_disabled": 0, "rental_uris": {"ios": "https://dc.lft.to/lastmile_qr_scan", "android": "https://dc.lft.to/lastmile_qr_scan"}, "is_reserved": 0, "fusion_lon": 0.0, "lat": 38.87560233333333, "type": "electric_scooter", "name": "d9e6e3423ae17e4d4d00bee30ae5076d", "bike_id": "d9e6e3423ae17e4d4d00bee30ae5076d", "fusion_lat": 0.0, "lon": -77.00598983333333}, {"is_disabled": 0, "rental_uris": {"ios": "https://dc.lft.to/lastmile_qr_scan", "android": "https://dc.lft.to/lastmile_qr_scan"}, "is_reserved": 0, "fusion_lon": 0.0, "lat": 38.89527866666667, "type": "electric_scooter", "name": "db7f001b541d3e3f85bf90cacd92fb6f", "bike_id": "db7f001b541d3e3f85bf90cacd92fb6f", "fusion_lat": 0.0, "lon": -77.03350666666667}, {"is_disabled": 0, "rental_uris": {"ios": "https://dc.lft.to/lastmile_qr_scan", "android": "https://dc.lft.to/lastmile_qr_scan"}, "is_reserved": 0, "fusion_lon": 0.0, "lat": 38.91012033333333, "type": "electric_scooter", "name": "5fa60825c4f9f5548ce566df9e5f420b", "bike_id": "5fa60825c4f9f5548ce566df9e5f420b", "fusion_lat": 0.0, "lon": -77.04454716666666}, {"is_disabled": 0, "rental_uris": {"ios": "https://dc.lft.to/lastmile_qr_scan", "android": "https://dc.lft.to/lastmile_qr_scan"}, "is_reserved": 0, "fusion_lon": 0.0, "lat": 38.8968245, "type": "electric_scooter", "name": "7a9195eb2198831fe4bf3c966bcd7b22", "bike_id": "7a9195eb2198831fe4bf3c966bcd7b22", "fusion_lat": 0.0, "lon": -76.939063}, {"is_disabled": 0, "rental_uris": {"ios": "https://dc.lft.to/lastmile_qr_scan", "android": "https://dc.lft.to/lastmile_qr_scan"}, "is_reserved": 0, "fusion_lon": 0.0, "lat": 38.92787116666667, "type": "electric_scooter", "name": "fc2ecd9d97b375d75d56e5e0ac2617c0", "bike_id": "fc2ecd9d97b375d75d56e5e0ac2617c0", "fusion_lat": 0.0, "lon": -77.05322716666667}, {"is_disabled": 0, "rental_uris": {"ios": "https://dc.lft.to/lastmile_qr_scan", "android": "https://dc.lft.to/lastmile_qr_scan"}, "is_reserved": 0, "fusion_lon": 0.0, "lat": 38.89365766666667, "type": "electric_scooter", "name": "a2a6be9b9ad0eee140d993f8318e414e", "bike_id": "a2a6be9b9ad0eee140d993f8318e414e", "fusion_lat": 0.0, "lon": -77.0466935}, {"is_disabled": 0, "rental_uris": {"ios": "https://dc.lft.to/lastmile_qr_scan", "android": "https://dc.lft.to/lastmile_qr_scan"}, "is_reserved": 0, "fusion_lon": 0.0, "lat": 38.96614483333333, "type": "electric_bike", "name": "61f4afd30430037f08d07d9189038eb4", "bike_id": "61f4afd30430037f08d07d9189038eb4", "fusion_lat": 0.0, "lon": -77.0343315}, {"is_disabled": 0, "rental_uris": {"ios": "https://dc.lft.to/lastmile_qr_scan", "android": "https://dc.lft.to/lastmile_qr_scan"}, "is_reserved": 0, "fusion_lon": 0.0, "lat": 38.954494333333336, "type": "electric_bike", "name": "b209a6e88a4f6327e5976d100010a034", "bike_id": "b209a6e88a4f6327e5976d100010a034", "fusion_lat": 0.0, "lon": -76.98776783333334}, {"is_disabled": 0, "rental_uris": {"ios": "https://dc.lft.to/lastmile_qr_scan", "android": "https://dc.lft.to/lastmile_qr_scan"}, "is_reserved": 0, "fusion_lon": 0.0, "lat": 38.911145833333336, "type": "electric_scooter", "name": "131e91bf0095d2bffa1dac35217e40fb", "bike_id": "131e91bf0095d2bffa1dac35217e40fb", "fusion_lat": 0.0, "lon": -77.043655}, {"is_disabled": 0, "rental_uris": {"ios": "https://dc.lft.to/lastmile_qr_scan", "android": "https://dc.lft.to/lastmile_qr_scan"}, "is_reserved": 0, "fusion_lon": 0.0, "lat": 38.898887333333334, "type": "electric_scooter", "name": "9ecedbb01a227387a25cc44f229cd2b7", "bike_id": "9ecedbb01a227387a25cc44f229cd2b7", "fusion_lat": 0.0, "lon": -77.039495}, {"is_disabled": 0, "rental_uris": {"ios": "https://dc.lft.to/lastmile_qr_scan", "android": "https://dc.lft.to/lastmile_qr_scan"}, "is_reserved": 0, "fusion_lon": 0.0, "lat": 38.924292666666666, "type": "electric_scooter", "name": "64f4817b2bf887fc3ad6917e59a711f8", "bike_id": "64f4817b2bf887fc3ad6917e59a711f8", "fusion_lat": 0.0, "lon": -77.003236}, {"is_disabled": 0, "rental_uris": {"ios": "https://dc.lft.to/lastmile_qr_scan", "android": "https://dc.lft.to/lastmile_qr_scan"}, "is_reserved": 0, "fusion_lon": 0.0, "lat": 38.859489333333336, "type": "electric_scooter", "name": "33494e31b1054001a1c82d4ced368192", "bike_id": "33494e31b1054001a1c82d4ced368192", "fusion_lat": 0.0, "lon": -76.986836}, {"is_disabled": 0, "rental_uris": {"ios": "https://dc.lft.to/lastmile_qr_scan", "android": "https://dc.lft.to/lastmile_qr_scan"}, "is_reserved": 0, "fusion_lon": 0.0, "lat": 38.884075333333335, "type": "electric_scooter", "name": "d4abe3670e8ed321fe2aa44ea550062b", "bike_id": "d4abe3670e8ed321fe2aa44ea550062b", "fusion_lat": 0.0, "lon": -76.99626633333334}, {"is_disabled": 0, "rental_uris": {"ios": "https://dc.lft.to/lastmile_qr_scan", "android": "https://dc.lft.to/lastmile_qr_scan"}, "is_reserved": 0, "fusion_lon": 0.0, "lat": 38.898466666666664, "type": "electric_scooter", "name": "c03e3679dcd949ba237642a413379561", "bike_id": "c03e3679dcd949ba237642a413379561", "fusion_lat": 0.0, "lon": -77.02375216666667}, {"is_disabled": 0, "rental_uris": {"ios": "https://dc.lft.to/lastmile_qr_scan", "android": "https://dc.lft.to/lastmile_qr_scan"}, "is_reserved": 0, "fusion_lon": 0.0, "lat": 38.91762266666667, "type": "electric_scooter", "name": "0ca1238d5ea062927614b644401520fd", "bike_id": "0ca1238d5ea062927614b644401520fd", "fusion_lat": 0.0, "lon": -77.03896866666666}, {"is_disabled": 0, "rental_uris": {"ios": "https://dc.lft.to/lastmile_qr_scan", "android": "https://dc.lft.to/lastmile_qr_scan"}, "is_reserved": 0, "fusion_lon": 0.0, "lat": 38.883897833333336, "type": "electric_scooter", "name": "5990a3ceb12daefb515d3335e7917cea", "bike_id": "5990a3ceb12daefb515d3335e7917cea", "fusion_lat": 0.0, "lon": -76.95762966666666}, {"is_disabled": 0, "rental_uris": {"ios": "https://dc.lft.to/lastmile_qr_scan", "android": "https://dc.lft.to/lastmile_qr_scan"}, "is_reserved": 0, "fusion_lon": 0.0, "lat": 38.92069566666667, "type": "electric_scooter", "name": "989aebb9d49208441a49986e36240799", "bike_id": "989aebb9d49208441a49986e36240799", "fusion_lat": 0.0, "lon": -77.02513133333333}, {"is_disabled": 0, "rental_uris": {"ios": "https://dc.lft.to/lastmile_qr_scan", "android": "https://dc.lft.to/lastmile_qr_scan"}, "is_reserved": 0, "fusion_lon": 0.0, "lat": 38.906955333333336, "type": "electric_scooter", "name": "5a0e2d54bb88db1a8fb883f8df2defd2", "bike_id": "5a0e2d54bb88db1a8fb883f8df2defd2", "fusion_lat": 0.0, "lon": -77.02188166666667}, {"is_disabled": 0, "rental_uris": {"ios": "https://dc.lft.to/lastmile_qr_scan", "android": "https://dc.lft.to/lastmile_qr_scan"}, "is_reserved": 0, "fusion_lon": 0.0, "lat": 38.918073666666665, "type": "electric_scooter", "name": "be0e9fb125e3a6e79e18d305480918ab", "bike_id": "be0e9fb125e3a6e79e18d305480918ab", "fusion_lat": 0.0, "lon": -77.02706716666667}, {"is_disabled": 0, "rental_uris": {"ios": "https://dc.lft.to/lastmile_qr_scan", "android": "https://dc.lft.to/lastmile_qr_scan"}, "is_reserved": 0, "fusion_lon": 0.0, "lat": 38.919957833333335, "type": "electric_scooter", "name": "1872c3be3bbce073661a911a16583fa0", "bike_id": "1872c3be3bbce073661a911a16583fa0", "fusion_lat": 0.0, "lon": -77.04747133333333}, {"is_disabled": 0, "rental_uris": {"ios": "https://dc.lft.to/lastmile_qr_scan", "android": "https://dc.lft.to/lastmile_qr_scan"}, "is_reserved": 0, "fusion_lon": 0.0, "lat": 38.90479083333334, "type": "electric_scooter", "name": "977aaa41af0166ddb6bfe0cf18b25dc6", "bike_id": "977aaa41af0166ddb6bfe0cf18b25dc6", "fusion_lat": 0.0, "lon": -77.04866883333334}, {"is_disabled": 0, "rental_uris": {"ios": "https://dc.lft.to/lastmile_qr_scan", "android": "https://dc.lft.to/lastmile_qr_scan"}, "is_reserved": 0, "fusion_lon": 0.0, "lat": 38.89228683333333, "type": "electric_scooter", "name": "9213841abd358b905a1e3869d47899da", "bike_id": "9213841abd358b905a1e3869d47899da", "fusion_lat": 0.0, "lon": -77.05006366666667}, {"is_disabled": 0, "rental_uris": {"ios": "https://dc.lft.to/lastmile_qr_scan", "android": "https://dc.lft.to/lastmile_qr_scan"}, "is_reserved": 0, "fusion_lon": 0.0, "lat": 38.900452666666666, "type": "electric_bike", "name": "837fd3747f64ee5fbd1c1acd80c296b7", "bike_id": "837fd3747f64ee5fbd1c1acd80c296b7", "fusion_lat": 0.0, "lon": -76.93969616666666}, {"is_disabled": 0, "rental_uris": {"ios": "https://dc.lft.to/lastmile_qr_scan", "android": "https://dc.lft.to/lastmile_qr_scan"}, "is_reserved": 0, "fusion_lon": 0.0, "lat": 38.87162433333334, "type": "electric_scooter", "name": "4771f6706fe15365958689486eb35cd9", "bike_id": "4771f6706fe15365958689486eb35cd9", "fusion_lat": 0.0, "lon": -77.01361283333334}, {"is_disabled": 0, "rental_uris": {"ios": "https://dc.lft.to/lastmile_qr_scan", "android": "https://dc.lft.to/lastmile_qr_scan"}, "is_reserved": 0, "fusion_lon": 0.0, "lat": 38.89617583333333, "type": "electric_scooter", "name": "116290ca0568fefd0e51aa0302ebe08a", "bike_id": "116290ca0568fefd0e51aa0302ebe08a", "fusion_lat": 0.0, "lon": -77.04377116666667}, {"is_disabled": 0, "rental_uris": {"ios": "https://dc.lft.to/lastmile_qr_scan", "android": "https://dc.lft.to/lastmile_qr_scan"}, "is_reserved": 0, "fusion_lon": 0.0, "lat": 38.90838, "type": "electric_scooter", "name": "d8067a8f8086e34af8945b750ad50796", "bike_id": "d8067a8f8086e34af8945b750ad50796", "fusion_lat": 0.0, "lon": -77.02349616666666}, {"is_disabled": 0, "rental_uris": {"ios": "https://dc.lft.to/lastmile_qr_scan", "android": "https://dc.lft.to/lastmile_qr_scan"}, "is_reserved": 0, "fusion_lon": 0.0, "lat": 38.9308385, "type": "electric_scooter", "name": "113561aecfaee63c033f013587ae059b", "bike_id": "113561aecfaee63c033f013587ae059b", "fusion_lat": 0.0, "lon": -77.02549033333334}, {"is_disabled": 0, "rental_uris": {"ios": "https://dc.lft.to/lastmile_qr_scan", "android": "https://dc.lft.to/lastmile_qr_scan"}, "is_reserved": 0, "fusion_lon": 0.0, "lat": 38.90082116666667, "type": "electric_scooter", "name": "85eec61aa19704c803360709c47d0d8b", "bike_id": "85eec61aa19704c803360709c47d0d8b", "fusion_lat": 0.0, "lon": -76.99486633333333}, {"is_disabled": 0, "rental_uris": {"ios": "https://dc.lft.to/lastmile_qr_scan", "android": "https://dc.lft.to/lastmile_qr_scan"}, "is_reserved": 0, "fusion_lon": 0.0, "lat": 38.896286, "type": "electric_scooter", "name": "be4dda6d7bc7e05a01f839ec64e3c771", "bike_id": "be4dda6d7bc7e05a01f839ec64e3c771", "fusion_lat": 0.0, "lon": -77.02200683333334}, {"is_disabled": 0, "rental_uris": {"ios": "https://dc.lft.to/lastmile_qr_scan", "android": "https://dc.lft.to/lastmile_qr_scan"}, "is_reserved": 0, "fusion_lon": 0.0, "lat": 38.884073666666666, "type": "electric_scooter", "name": "2ad777048cedfda8ae9348aa0f951497", "bike_id": "2ad777048cedfda8ae9348aa0f951497", "fusion_lat": 0.0, "lon": -77.02912833333333}, {"is_disabled": 0, "rental_uris": {"ios": "https://dc.lft.to/lastmile_qr_scan", "android": "https://dc.lft.to/lastmile_qr_scan"}, "is_reserved": 0, "fusion_lon": 0.0, "lat": 38.9128045, "type": "electric_scooter", "name": "c1efa39c06faefcf19e329d56d97d24a", "bike_id": "c1efa39c06faefcf19e329d56d97d24a", "fusion_lat": 0.0, "lon": -77.04513433333334}, {"is_disabled": 0, "rental_uris": {"ios": "https://dc.lft.to/lastmile_qr_scan", "android": "https://dc.lft.to/lastmile_qr_scan"}, "is_reserved": 0, "fusion_lon": 0.0, "lat": 38.923579, "type": "electric_scooter", "name": "2e20cc7a3c03f6011439764788a99532", "bike_id": "2e20cc7a3c03f6011439764788a99532", "fusion_lat": 0.0, "lon": -77.03368883333333}, {"is_disabled": 0, "rental_uris": {"ios": "https://dc.lft.to/lastmile_qr_scan", "android": "https://dc.lft.to/lastmile_qr_scan"}, "is_reserved": 0, "fusion_lon": 0.0, "lat": 38.91398783333333, "type": "electric_scooter", "name": "369440f77a185ed59dbf6235c76be962", "bike_id": "369440f77a185ed59dbf6235c76be962", "fusion_lat": 0.0, "lon": -77.04884883333334}, {"is_disabled": 0, "rental_uris": {"ios": "https://dc.lft.to/lastmile_qr_scan", "android": "https://dc.lft.to/lastmile_qr_scan"}, "is_reserved": 0, "fusion_lon": 0.0, "lat": 38.8950985, "type": "electric_scooter", "name": "87cebb4fe8bc165f0a7bfebb6fea7d0a", "bike_id": "87cebb4fe8bc165f0a7bfebb6fea7d0a", "fusion_lat": 0.0, "lon": -76.977297}, {"is_disabled": 0, "rental_uris": {"ios": "https://dc.lft.to/lastmile_qr_scan", "android": "https://dc.lft.to/lastmile_qr_scan"}, "is_reserved": 0, "fusion_lon": 0.0, "lat": 38.93060716666667, "type": "electric_scooter", "name": "71b69b01f02bf6b64820d84d9c073875", "bike_id": "71b69b01f02bf6b64820d84d9c073875", "fusion_lat": 0.0, "lon": -77.02845233333333}, {"is_disabled": 0, "rental_uris": {"ios": "https://dc.lft.to/lastmile_qr_scan", "android": "https://dc.lft.to/lastmile_qr_scan"}, "is_reserved": 0, "fusion_lon": 0.0, "lat": 38.91175483333333, "type": "electric_scooter", "name": "bfaa6a68f6836e0da4b9f22297f6fbf8", "bike_id": "bfaa6a68f6836e0da4b9f22297f6fbf8", "fusion_lat": 0.0, "lon": -77.03870283333333}, {"is_disabled": 0, "rental_uris": {"ios": "https://dc.lft.to/lastmile_qr_scan", "android": "https://dc.lft.to/lastmile_qr_scan"}, "is_reserved": 0, "fusion_lon": 0.0, "lat": 38.91825266666667, "type": "electric_scooter", "name": "bdc9466b094c02e29cc11e3c57e3f056", "bike_id": "bdc9466b094c02e29cc11e3c57e3f056", "fusion_lat": 0.0, "lon": -77.03644733333333}, {"is_disabled": 0, "rental_uris": {"ios": "https://dc.lft.to/lastmile_qr_scan", "android": "https://dc.lft.to/lastmile_qr_scan"}, "is_reserved": 0, "fusion_lon": 0.0, "lat": 38.922003833333335, "type": "electric_scooter", "name": "6badeded1b01d75dad5b779a98c28833", "bike_id": "6badeded1b01d75dad5b779a98c28833", "fusion_lat": 0.0, "lon": -77.02028866666667}, {"is_disabled": 0, "rental_uris": {"ios": "https://dc.lft.to/lastmile_qr_scan", "android": "https://dc.lft.to/lastmile_qr_scan"}, "is_reserved": 0, "fusion_lon": 0.0, "lat": 38.974796166666664, "type": "electric_scooter", "name": "c65c1307a790fe5cb00dae759d1e8a85", "bike_id": "c65c1307a790fe5cb00dae759d1e8a85", "fusion_lat": 0.0, "lon": -77.014892}, {"is_disabled": 0, "rental_uris": {"ios": "https://dc.lft.to/lastmile_qr_scan", "android": "https://dc.lft.to/lastmile_qr_scan"}, "is_reserved": 0, "fusion_lon": 0.0, "lat": 38.916221, "type": "electric_scooter", "name": "83ec87b581b93c9b35e9c8d1cdd7cb3e", "bike_id": "83ec87b581b93c9b35e9c8d1cdd7cb3e", "fusion_lat": 0.0, "lon": -77.05070966666666}, {"is_disabled": 0, "rental_uris": {"ios": "https://dc.lft.to/lastmile_qr_scan", "android": "https://dc.lft.to/lastmile_qr_scan"}, "is_reserved": 0, "fusion_lon": 0.0, "lat": 38.96558983333333, "type": "electric_bike", "name": "d8f704af57e3c8e193b0c13fdf988bb4", "bike_id": "d8f704af57e3c8e193b0c13fdf988bb4", "fusion_lat": 0.0, "lon": -77.02831933333333}, {"is_disabled": 0, "rental_uris": {"ios": "https://dc.lft.to/lastmile_qr_scan", "android": "https://dc.lft.to/lastmile_qr_scan"}, "is_reserved": 0, "fusion_lon": 0.0, "lat": 38.892191833333335, "type": "electric_scooter", "name": "69b48ac9a3d9eb4c574111cb1368c23e", "bike_id": "69b48ac9a3d9eb4c574111cb1368c23e", "fusion_lat": 0.0, "lon": -77.03215166666666}, {"is_disabled": 0, "rental_uris": {"ios": "https://dc.lft.to/lastmile_qr_scan", "android": "https://dc.lft.to/lastmile_qr_scan"}, "is_reserved": 0, "fusion_lon": 0.0, "lat": 38.8874535, "type": "electric_scooter", "name": "01832a347dcc943234e5b36bc8b2c80d", "bike_id": "01832a347dcc943234e5b36bc8b2c80d", "fusion_lat": 0.0, "lon": -77.02225366666667}, {"is_disabled": 0, "rental_uris": {"ios": "https://dc.lft.to/lastmile_qr_scan", "android": "https://dc.lft.to/lastmile_qr_scan"}, "is_reserved": 0, "fusion_lon": 0.0, "lat": 38.9117595, "type": "electric_scooter", "name": "3ca97018baad9d9c5bb65b66b301e033", "bike_id": "3ca97018baad9d9c5bb65b66b301e033", "fusion_lat": 0.0, "lon": -77.02957516666666}, {"is_disabled": 0, "rental_uris": {"ios": "https://dc.lft.to/lastmile_qr_scan", "android": "https://dc.lft.to/lastmile_qr_scan"}, "is_reserved": 0, "fusion_lon": 0.0, "lat": 38.895900833333336, "type": "electric_scooter", "name": "7474296a9ddebffe924defd5b1457d63", "bike_id": "7474296a9ddebffe924defd5b1457d63", "fusion_lat": 0.0, "lon": -77.048065}, {"is_disabled": 0, "rental_uris": {"ios": "https://dc.lft.to/lastmile_qr_scan", "android": "https://dc.lft.to/lastmile_qr_scan"}, "is_reserved": 0, "fusion_lon": 0.0, "lat": 38.891861, "type": "electric_scooter", "name": "519f57ec5c632ce0911a0d9d1fdac1a9", "bike_id": "519f57ec5c632ce0911a0d9d1fdac1a9", "fusion_lat": 0.0, "lon": -76.99851833333334}, {"is_disabled": 0, "rental_uris": {"ios": "https://dc.lft.to/lastmile_qr_scan", "android": "https://dc.lft.to/lastmile_qr_scan"}, "is_reserved": 0, "fusion_lon": 0.0, "lat": 39.00532716666667, "type": "electric_bike", "name": "6ebbd9a2aef799b403b760905b1abc13", "bike_id": "6ebbd9a2aef799b403b760905b1abc13", "fusion_lat": 0.0, "lon": -77.10404283333334}, {"is_disabled": 0, "rental_uris": {"ios": "https://dc.lft.to/lastmile_qr_scan", "android": "https://dc.lft.to/lastmile_qr_scan"}, "is_reserved": 0, "fusion_lon": 0.0, "lat": 38.973683, "type": "electric_scooter", "name": "bee133c937b17a3927f8aca2a79c6d5f", "bike_id": "bee133c937b17a3927f8aca2a79c6d5f", "fusion_lat": 0.0, "lon": -77.0186865}, {"is_disabled": 0, "rental_uris": {"ios": "https://dc.lft.to/lastmile_qr_scan", "android": "https://dc.lft.to/lastmile_qr_scan"}, "is_reserved": 0, "fusion_lon": 0.0, "lat": 38.905792166666664, "type": "electric_scooter", "name": "12b975dc926c41d03c1efa767a5d064b", "bike_id": "12b975dc926c41d03c1efa767a5d064b", "fusion_lat": 0.0, "lon": -77.00885583333333}, {"is_disabled": 0, "rental_uris": {"ios": "https://dc.lft.to/lastmile_qr_scan", "android": "https://dc.lft.to/lastmile_qr_scan"}, "is_reserved": 0, "fusion_lon": 0.0, "lat": 38.90840883333333, "type": "electric_scooter", "name": "1e3ba716130a9ef6d0fb029e3c50fd6d", "bike_id": "1e3ba716130a9ef6d0fb029e3c50fd6d", "fusion_lat": 0.0, "lon": -76.9344775}, {"is_disabled": 0, "rental_uris": {"ios": "https://dc.lft.to/lastmile_qr_scan", "android": "https://dc.lft.to/lastmile_qr_scan"}, "is_reserved": 0, "fusion_lon": 0.0, "lat": 38.9679335, "type": "electric_scooter", "name": "1847f5633968b930e634eda9b8e049a1", "bike_id": "1847f5633968b930e634eda9b8e049a1", "fusion_lat": 0.0, "lon": -77.02432433333334}, {"is_disabled": 0, "rental_uris": {"ios": "https://dc.lft.to/lastmile_qr_scan", "android": "https://dc.lft.to/lastmile_qr_scan"}, "is_reserved": 0, "fusion_lon": 0.0, "lat": 38.914191, "type": "electric_scooter", "name": "320b78e2608a56351714c9b497a2f846", "bike_id": "320b78e2608a56351714c9b497a2f846", "fusion_lat": 0.0, "lon": -77.03169516666667}, {"is_disabled": 0, "rental_uris": {"ios": "https://dc.lft.to/lastmile_qr_scan", "android": "https://dc.lft.to/lastmile_qr_scan"}, "is_reserved": 0, "fusion_lon": 0.0, "lat": 38.90256983333333, "type": "electric_bike", "name": "291dbe30bc327c119110480ab6de0bcb", "bike_id": "291dbe30bc327c119110480ab6de0bcb", "fusion_lat": 0.0, "lon": -77.00196883333334}, {"is_disabled": 0, "rental_uris": {"ios": "https://dc.lft.to/lastmile_qr_scan", "android": "https://dc.lft.to/lastmile_qr_scan"}, "is_reserved": 0, "fusion_lon": 0.0, "lat": 38.89465716666667, "type": "electric_scooter", "name": "e7e55d6e691d7ddaa8dac5fa3a5a9149", "bike_id": "e7e55d6e691d7ddaa8dac5fa3a5a9149", "fusion_lat": 0.0, "lon": -77.02678266666666}, {"is_disabled": 0, "rental_uris": {"ios": "https://dc.lft.to/lastmile_qr_scan", "android": "https://dc.lft.to/lastmile_qr_scan"}, "is_reserved": 0, "fusion_lon": 0.0, "lat": 38.8992115, "type": "electric_scooter", "name": "10388a4ce85cbae35b07effadfc3cff2", "bike_id": "10388a4ce85cbae35b07effadfc3cff2", "fusion_lat": 0.0, "lon": -77.02200466666666}, {"is_disabled": 0, "rental_uris": {"ios": "https://dc.lft.to/lastmile_qr_scan", "android": "https://dc.lft.to/lastmile_qr_scan"}, "is_reserved": 0, "fusion_lon": 0.0, "lat": 38.91864316666667, "type": "electric_scooter", "name": "51707d736318ff26f20ead1dd006047e", "bike_id": "51707d736318ff26f20ead1dd006047e", "fusion_lat": 0.0, "lon": -76.96561333333334}, {"is_disabled": 0, "rental_uris": {"ios": "https://dc.lft.to/lastmile_qr_scan", "android": "https://dc.lft.to/lastmile_qr_scan"}, "is_reserved": 0, "fusion_lon": 0.0, "lat": 38.922614333333335, "type": "electric_scooter", "name": "22a1bd181bdabe513df7ea848c83ece0", "bike_id": "22a1bd181bdabe513df7ea848c83ece0", "fusion_lat": 0.0, "lon": -77.02442366666666}, {"is_disabled": 0, "rental_uris": {"ios": "https://dc.lft.to/lastmile_qr_scan", "android": "https://dc.lft.to/lastmile_qr_scan"}, "is_reserved": 0, "fusion_lon": 0.0, "lat": 38.8999745, "type": "electric_bike", "name": "8d98ed870008603fa28f20f90c7036ba", "bike_id": "8d98ed870008603fa28f20f90c7036ba", "fusion_lat": 0.0, "lon": -77.001826}, {"is_disabled": 0, "rental_uris": {"ios": "https://dc.lft.to/lastmile_qr_scan", "android": "https://dc.lft.to/lastmile_qr_scan"}, "is_reserved": 0, "fusion_lon": 0.0, "lat": 38.91652, "type": "electric_scooter", "name": "8f4517a529363e5b8b82c28ab21118f1", "bike_id": "8f4517a529363e5b8b82c28ab21118f1", "fusion_lat": 0.0, "lon": -77.0227525}, {"is_disabled": 0, "rental_uris": {"ios": "https://dc.lft.to/lastmile_qr_scan", "android": "https://dc.lft.to/lastmile_qr_scan"}, "is_reserved": 0, "fusion_lon": 0.0, "lat": 38.92547783333333, "type": "electric_scooter", "name": "919c3b28396e8e206cebc2a00220a283", "bike_id": "919c3b28396e8e206cebc2a00220a283", "fusion_lat": 0.0, "lon": -77.02266466666667}, {"is_disabled": 0, "rental_uris": {"ios": "https://dc.lft.to/lastmile_qr_scan", "android": "https://dc.lft.to/lastmile_qr_scan"}, "is_reserved": 0, "fusion_lon": 0.0, "lat": 38.920325, "type": "electric_scooter", "name": "990f8529dfd4ca2fd0e643183c003bb8", "bike_id": "990f8529dfd4ca2fd0e643183c003bb8", "fusion_lat": 0.0, "lon": -77.02611733333333}, {"is_disabled": 0, "rental_uris": {"ios": "https://dc.lft.to/lastmile_qr_scan", "android": "https://dc.lft.to/lastmile_qr_scan"}, "is_reserved": 0, "fusion_lon": 0.0, "lat": 38.91573016666667, "type": "electric_scooter", "name": "6054b9f0486b6f56b7eebe6a6adb1f28", "bike_id": "6054b9f0486b6f56b7eebe6a6adb1f28", "fusion_lat": 0.0, "lon": -77.04641233333334}, {"is_disabled": 0, "rental_uris": {"ios": "https://dc.lft.to/lastmile_qr_scan", "android": "https://dc.lft.to/lastmile_qr_scan"}, "is_reserved": 0, "fusion_lon": 0.0, "lat": 38.89916016666667, "type": "electric_scooter", "name": "5b2b03000fbb49dcddc551146d94ad9c", "bike_id": "5b2b03000fbb49dcddc551146d94ad9c", "fusion_lat": 0.0, "lon": -77.0240755}, {"is_disabled": 0, "rental_uris": {"ios": "https://dc.lft.to/lastmile_qr_scan", "android": "https://dc.lft.to/lastmile_qr_scan"}, "is_reserved": 0, "fusion_lon": 0.0, "lat": 38.9005185, "type": "electric_scooter", "name": "3751fd707c1f592741d1fd28be5e5284", "bike_id": "3751fd707c1f592741d1fd28be5e5284", "fusion_lat": 0.0, "lon": -77.04824183333334}, {"is_disabled": 0, "rental_uris": {"ios": "https://dc.lft.to/lastmile_qr_scan", "android": "https://dc.lft.to/lastmile_qr_scan"}, "is_reserved": 0, "fusion_lon": 0.0, "lat": 38.904977333333335, "type": "electric_scooter", "name": "f543dacba1f0ab367c00086946d7612b", "bike_id": "f543dacba1f0ab367c00086946d7612b", "fusion_lat": 0.0, "lon": -77.02954016666666}, {"is_disabled": 0, "rental_uris": {"ios": "https://dc.lft.to/lastmile_qr_scan", "android": "https://dc.lft.to/lastmile_qr_scan"}, "is_reserved": 0, "fusion_lon": 0.0, "lat": 38.906687833333336, "type": "electric_scooter", "name": "9b8d31b288c416aca14367b6d3e7a740", "bike_id": "9b8d31b288c416aca14367b6d3e7a740", "fusion_lat": 0.0, "lon": -77.027131}, {"is_disabled": 0, "rental_uris": {"ios": "https://dc.lft.to/lastmile_qr_scan", "android": "https://dc.lft.to/lastmile_qr_scan"}, "is_reserved": 0, "fusion_lon": 0.0, "lat": 38.8864935, "type": "electric_bike", "name": "c213d8884dd4b0a9aaca0964c46abdd7", "bike_id": "c213d8884dd4b0a9aaca0964c46abdd7", "fusion_lat": 0.0, "lon": -77.09728116666666}, {"is_disabled": 0, "rental_uris": {"ios": "https://dc.lft.to/lastmile_qr_scan", "android": "https://dc.lft.to/lastmile_qr_scan"}, "is_reserved": 0, "fusion_lon": 0.0, "lat": 38.907324833333334, "type": "electric_scooter", "name": "ee1312f3407fa2c42249dd6c51f34e0d", "bike_id": "ee1312f3407fa2c42249dd6c51f34e0d", "fusion_lat": 0.0, "lon": -77.04482816666666}, {"is_disabled": 0, "rental_uris": {"ios": "https://dc.lft.to/lastmile_qr_scan", "android": "https://dc.lft.to/lastmile_qr_scan"}, "is_reserved": 0, "fusion_lon": 0.0, "lat": 38.88771066666666, "type": "electric_scooter", "name": "6bd71174bbbd9195392c1bc695a9135e", "bike_id": "6bd71174bbbd9195392c1bc695a9135e", "fusion_lat": 0.0, "lon": -76.93263683333333}, {"is_disabled": 0, "rental_uris": {"ios": "https://dc.lft.to/lastmile_qr_scan", "android": "https://dc.lft.to/lastmile_qr_scan"}, "is_reserved": 0, "fusion_lon": 0.0, "lat": 38.90612516666667, "type": "electric_scooter", "name": "7e5741e71192b8c8f9f56c7e0595bc5e", "bike_id": "7e5741e71192b8c8f9f56c7e0595bc5e", "fusion_lat": 0.0, "lon": -76.97799516666667}, {"is_disabled": 0, "rental_uris": {"ios": "https://dc.lft.to/lastmile_qr_scan", "android": "https://dc.lft.to/lastmile_qr_scan"}, "is_reserved": 0, "fusion_lon": 0.0, "lat": 38.9247585, "type": "electric_scooter", "name": "9efd7b2af6e7fdbd2e4ebbb6a740f3db", "bike_id": "9efd7b2af6e7fdbd2e4ebbb6a740f3db", "fusion_lat": 0.0, "lon": -77.022225}, {"is_disabled": 0, "rental_uris": {"ios": "https://dc.lft.to/lastmile_qr_scan", "android": "https://dc.lft.to/lastmile_qr_scan"}, "is_reserved": 0, "fusion_lon": 0.0, "lat": 38.9569995, "type": "electric_bike", "name": "8a57e43bde0c4edf7b4abb812b915604", "bike_id": "8a57e43bde0c4edf7b4abb812b915604", "fusion_lat": 0.0, "lon": -77.35973016666667}, {"is_disabled": 0, "rental_uris": {"ios": "https://dc.lft.to/lastmile_qr_scan", "android": "https://dc.lft.to/lastmile_qr_scan"}, "is_reserved": 0, "fusion_lon": 0.0, "lat": 39.08434866666666, "type": "electric_bike", "name": "36c395b5481e98a22e28f2766a2313d0", "bike_id": "36c395b5481e98a22e28f2766a2313d0", "fusion_lat": 0.0, "lon": -76.95143766666666}, {"is_disabled": 0, "rental_uris": {"ios": "https://dc.lft.to/lastmile_qr_scan", "android": "https://dc.lft.to/lastmile_qr_scan"}, "is_reserved": 0, "fusion_lon": 0.0, "lat": 38.918626833333335, "type": "electric_scooter", "name": "d6e88ac18fb83895480ffa92a07b824d", "bike_id": "d6e88ac18fb83895480ffa92a07b824d", "fusion_lat": 0.0, "lon": -76.96557716666666}, {"is_disabled": 0, "rental_uris": {"ios": "https://dc.lft.to/lastmile_qr_scan", "android": "https://dc.lft.to/lastmile_qr_scan"}, "is_reserved": 0, "fusion_lon": 0.0, "lat": 38.90053316666667, "type": "electric_scooter", "name": "7ec01250b50fc25cff5b7802c31df436", "bike_id": "7ec01250b50fc25cff5b7802c31df436", "fusion_lat": 0.0, "lon": -77.01669033333333}, {"is_disabled": 0, "rental_uris": {"ios": "https://dc.lft.to/lastmile_qr_scan", "android": "https://dc.lft.to/lastmile_qr_scan"}, "is_reserved": 0, "fusion_lon": 0.0, "lat": 38.91256, "type": "electric_scooter", "name": "2c4e497b003b65aa84439b710a5a229f", "bike_id": "2c4e497b003b65aa84439b710a5a229f", "fusion_lat": 0.0, "lon": -77.02861233333333}, {"is_disabled": 0, "rental_uris": {"ios": "https://dc.lft.to/lastmile_qr_scan", "android": "https://dc.lft.to/lastmile_qr_scan"}, "is_reserved": 0, "fusion_lon": 0.0, "lat": 38.883869, "type": "electric_scooter", "name": "41a159f4f5452f67865e12db7c15877d", "bike_id": "41a159f4f5452f67865e12db7c15877d", "fusion_lat": 0.0, "lon": -76.93042733333333}, {"is_disabled": 0, "rental_uris": {"ios": "https://dc.lft.to/lastmile_qr_scan", "android": "https://dc.lft.to/lastmile_qr_scan"}, "is_reserved": 0, "fusion_lon": 0.0, "lat": 38.903913, "type": "electric_scooter", "name": "a8abe504377ff2b2d26fd8aa8052eb46", "bike_id": "a8abe504377ff2b2d26fd8aa8052eb46", "fusion_lat": 0.0, "lon": -76.98944283333333}, {"is_disabled": 0, "rental_uris": {"ios": "https://dc.lft.to/lastmile_qr_scan", "android": "https://dc.lft.to/lastmile_qr_scan"}, "is_reserved": 0, "fusion_lon": 0.0, "lat": 38.905318666666666, "type": "electric_scooter", "name": "071aebff608794d7f6593929387816f7", "bike_id": "071aebff608794d7f6593929387816f7", "fusion_lat": 0.0, "lon": -77.06523916666667}, {"is_disabled": 0, "rental_uris": {"ios": "https://dc.lft.to/lastmile_qr_scan", "android": "https://dc.lft.to/lastmile_qr_scan"}, "is_reserved": 0, "fusion_lon": 0.0, "lat": 38.9084935, "type": "electric_scooter", "name": "c56937e786388b96baafbb28f5ce2180", "bike_id": "c56937e786388b96baafbb28f5ce2180", "fusion_lat": 0.0, "lon": -76.99800983333333}, {"is_disabled": 0, "rental_uris": {"ios": "https://dc.lft.to/lastmile_qr_scan", "android": "https://dc.lft.to/lastmile_qr_scan"}, "is_reserved": 0, "fusion_lon": 0.0, "lat": 38.924854833333335, "type": "electric_scooter", "name": "f29cb9f3d18e3db104f473fa2635e228", "bike_id": "f29cb9f3d18e3db104f473fa2635e228", "fusion_lat": 0.0, "lon": -77.02269066666666}, {"is_disabled": 0, "rental_uris": {"ios": "https://dc.lft.to/lastmile_qr_scan", "android": "https://dc.lft.to/lastmile_qr_scan"}, "is_reserved": 0, "fusion_lon": 0.0, "lat": 38.92640983333333, "type": "electric_scooter", "name": "2fb5725392783a7a4cc9ac0713e61799", "bike_id": "2fb5725392783a7a4cc9ac0713e61799", "fusion_lat": 0.0, "lon": -77.03402283333334}, {"is_disabled": 0, "rental_uris": {"ios": "https://dc.lft.to/lastmile_qr_scan", "android": "https://dc.lft.to/lastmile_qr_scan"}, "is_reserved": 0, "fusion_lon": 0.0, "lat": 39.0520075, "type": "electric_bike", "name": "28e05563ee4731a6eb4ed0f7acc96a69", "bike_id": "28e05563ee4731a6eb4ed0f7acc96a69", "fusion_lat": 0.0, "lon": -77.10914116666666}, {"is_disabled": 0, "rental_uris": {"ios": "https://dc.lft.to/lastmile_qr_scan", "android": "https://dc.lft.to/lastmile_qr_scan"}, "is_reserved": 0, "fusion_lon": 0.0, "lat": 38.91323966666667, "type": "electric_scooter", "name": "15be706d4c643425ff56bdab5fb4498b", "bike_id": "15be706d4c643425ff56bdab5fb4498b", "fusion_lat": 0.0, "lon": -77.0370675}, {"is_disabled": 0, "rental_uris": {"ios": "https://dc.lft.to/lastmile_qr_scan", "android": "https://dc.lft.to/lastmile_qr_scan"}, "is_reserved": 0, "fusion_lon": 0.0, "lat": 38.94918916666666, "type": "electric_scooter", "name": "55b781a4e8d0f94eac560df1e64d55bf", "bike_id": "55b781a4e8d0f94eac560df1e64d55bf", "fusion_lat": 0.0, "lon": -77.02316916666666}, {"is_disabled": 0, "rental_uris": {"ios": "https://dc.lft.to/lastmile_qr_scan", "android": "https://dc.lft.to/lastmile_qr_scan"}, "is_reserved": 0, "fusion_lon": 0.0, "lat": 38.8848005, "type": "electric_scooter", "name": "601a30425b563a41f13629269280f0d3", "bike_id": "601a30425b563a41f13629269280f0d3", "fusion_lat": 0.0, "lon": -77.02637966666667}, {"is_disabled": 0, "rental_uris": {"ios": "https://dc.lft.to/lastmile_qr_scan", "android": "https://dc.lft.to/lastmile_qr_scan"}, "is_reserved": 0, "fusion_lon": 0.0, "lat": 38.92323416666667, "type": "electric_scooter", "name": "ade6234c1bd8f980ae5b1ae60c9efc4d", "bike_id": "ade6234c1bd8f980ae5b1ae60c9efc4d", "fusion_lat": 0.0, "lon": -77.019566}, {"is_disabled": 0, "rental_uris": {"ios": "https://dc.lft.to/lastmile_qr_scan", "android": "https://dc.lft.to/lastmile_qr_scan"}, "is_reserved": 0, "fusion_lon": 0.0, "lat": 38.90771266666667, "type": "electric_scooter", "name": "2e4bcc53e3a9c88f7d02c5ea371c4131", "bike_id": "2e4bcc53e3a9c88f7d02c5ea371c4131", "fusion_lat": 0.0, "lon": -77.04236833333333}, {"is_disabled": 0, "rental_uris": {"ios": "https://dc.lft.to/lastmile_qr_scan", "android": "https://dc.lft.to/lastmile_qr_scan"}, "is_reserved": 0, "fusion_lon": 0.0, "lat": 38.896027333333336, "type": "electric_scooter", "name": "ef36edcfc11c9245722ea074451dcee9", "bike_id": "ef36edcfc11c9245722ea074451dcee9", "fusion_lat": 0.0, "lon": -76.9725475}, {"is_disabled": 0, "rental_uris": {"ios": "https://dc.lft.to/lastmile_qr_scan", "android": "https://dc.lft.to/lastmile_qr_scan"}, "is_reserved": 0, "fusion_lon": 0.0, "lat": 38.904872, "type": "electric_scooter", "name": "d0a07dd76dddaca6561b72bb7b7ebd8c", "bike_id": "d0a07dd76dddaca6561b72bb7b7ebd8c", "fusion_lat": 0.0, "lon": -76.94964733333333}, {"is_disabled": 0, "rental_uris": {"ios": "https://dc.lft.to/lastmile_qr_scan", "android": "https://dc.lft.to/lastmile_qr_scan"}, "is_reserved": 0, "fusion_lon": 0.0, "lat": 38.921152666666664, "type": "electric_scooter", "name": "12c6d22e69f688c66edc29a5ebe29ff4", "bike_id": "12c6d22e69f688c66edc29a5ebe29ff4", "fusion_lat": 0.0, "lon": -77.03657066666666}, {"is_disabled": 0, "rental_uris": {"ios": "https://dc.lft.to/lastmile_qr_scan", "android": "https://dc.lft.to/lastmile_qr_scan"}, "is_reserved": 0, "fusion_lon": 0.0, "lat": 38.89220433333333, "type": "electric_scooter", "name": "0f7f0d2c3798f5c517e07b24e06283a7", "bike_id": "0f7f0d2c3798f5c517e07b24e06283a7", "fusion_lat": 0.0, "lon": -77.02372566666666}, {"is_disabled": 0, "rental_uris": {"ios": "https://dc.lft.to/lastmile_qr_scan", "android": "https://dc.lft.to/lastmile_qr_scan"}, "is_reserved": 0, "fusion_lon": 0.0, "lat": 38.916009333333335, "type": "electric_bike", "name": "86b95229d691cd5204bbfbbde401ec92", "bike_id": "86b95229d691cd5204bbfbbde401ec92", "fusion_lat": 0.0, "lon": -77.02396616666667}, {"is_disabled": 0, "rental_uris": {"ios": "https://dc.lft.to/lastmile_qr_scan", "android": "https://dc.lft.to/lastmile_qr_scan"}, "is_reserved": 0, "fusion_lon": 0.0, "lat": 38.90142866666667, "type": "electric_scooter", "name": "fd24e902117eb1ab1f03e7fd4bb8e6f7", "bike_id": "fd24e902117eb1ab1f03e7fd4bb8e6f7", "fusion_lat": 0.0, "lon": -77.04015416666667}, {"is_disabled": 0, "rental_uris": {"ios": "https://dc.lft.to/lastmile_qr_scan", "android": "https://dc.lft.to/lastmile_qr_scan"}, "is_reserved": 0, "fusion_lon": 0.0, "lat": 38.9208865, "type": "electric_scooter", "name": "058ed914dfbfe4c56f79f74818f22620", "bike_id": "058ed914dfbfe4c56f79f74818f22620", "fusion_lat": 0.0, "lon": -77.02511116666666}, {"is_disabled": 0, "rental_uris": {"ios": "https://dc.lft.to/lastmile_qr_scan", "android": "https://dc.lft.to/lastmile_qr_scan"}, "is_reserved": 0, "fusion_lon": 0.0, "lat": 38.881359833333335, "type": "electric_scooter", "name": "828fbcee029b298ab08094225d790d2b", "bike_id": "828fbcee029b298ab08094225d790d2b", "fusion_lat": 0.0, "lon": -77.02270316666667}, {"is_disabled": 0, "rental_uris": {"ios": "https://dc.lft.to/lastmile_qr_scan", "android": "https://dc.lft.to/lastmile_qr_scan"}, "is_reserved": 0, "fusion_lon": 0.0, "lat": 38.905274, "type": "electric_scooter", "name": "a84a702ad7178dd14be04118166c7f5a", "bike_id": "a84a702ad7178dd14be04118166c7f5a", "fusion_lat": 0.0, "lon": -77.06609016666667}, {"is_disabled": 0, "rental_uris": {"ios": "https://dc.lft.to/lastmile_qr_scan", "android": "https://dc.lft.to/lastmile_qr_scan"}, "is_reserved": 0, "fusion_lon": 0.0, "lat": 38.910368, "type": "electric_scooter", "name": "195e0266c6167891c0c9c701a05c524a", "bike_id": "195e0266c6167891c0c9c701a05c524a", "fusion_lat": 0.0, "lon": -77.02693916666666}, {"is_disabled": 0, "rental_uris": {"ios": "https://dc.lft.to/lastmile_qr_scan", "android": "https://dc.lft.to/lastmile_qr_scan"}, "is_reserved": 0, "fusion_lon": 0.0, "lat": 38.91984216666667, "type": "electric_scooter", "name": "1d08504a7555e17c9330469b0d0edb46", "bike_id": "1d08504a7555e17c9330469b0d0edb46", "fusion_lat": 0.0, "lon": -77.0180615}, {"is_disabled": 0, "rental_uris": {"ios": "https://dc.lft.to/lastmile_qr_scan", "android": "https://dc.lft.to/lastmile_qr_scan"}, "is_reserved": 0, "fusion_lon": 0.0, "lat": 38.91718733333333, "type": "electric_scooter", "name": "187b6ddf0e2209fd733ea795ec0370d6", "bike_id": "187b6ddf0e2209fd733ea795ec0370d6", "fusion_lat": 0.0, "lon": -77.04105066666666}, {"is_disabled": 0, "rental_uris": {"ios": "https://dc.lft.to/lastmile_qr_scan", "android": "https://dc.lft.to/lastmile_qr_scan"}, "is_reserved": 0, "fusion_lon": 0.0, "lat": 38.912498666666664, "type": "electric_scooter", "name": "f6e9f9e8f68703c007d7bec017fc7557", "bike_id": "f6e9f9e8f68703c007d7bec017fc7557", "fusion_lat": 0.0, "lon": -77.03701533333333}, {"is_disabled": 0, "rental_uris": {"ios": "https://dc.lft.to/lastmile_qr_scan", "android": "https://dc.lft.to/lastmile_qr_scan"}, "is_reserved": 0, "fusion_lon": 0.0, "lat": 38.9729885, "type": "electric_bike", "name": "349f2586393ac43cc56ee6d1a97ea0c7", "bike_id": "349f2586393ac43cc56ee6d1a97ea0c7", "fusion_lat": 0.0, "lon": -77.0287755}, {"is_disabled": 0, "rental_uris": {"ios": "https://dc.lft.to/lastmile_qr_scan", "android": "https://dc.lft.to/lastmile_qr_scan"}, "is_reserved": 0, "fusion_lon": 0.0, "lat": 38.90393133333333, "type": "electric_scooter", "name": "e9f1cb5db3ae22ad0eb0e4e4ee9f3608", "bike_id": "e9f1cb5db3ae22ad0eb0e4e4ee9f3608", "fusion_lat": 0.0, "lon": -77.03433083333333}, {"is_disabled": 0, "rental_uris": {"ios": "https://dc.lft.to/lastmile_qr_scan", "android": "https://dc.lft.to/lastmile_qr_scan"}, "is_reserved": 0, "fusion_lon": 0.0, "lat": 38.922195, "type": "electric_scooter", "name": "6ff8e70781fc0ff1cd919f4a077ff078", "bike_id": "6ff8e70781fc0ff1cd919f4a077ff078", "fusion_lat": 0.0, "lon": -77.04240333333334}, {"is_disabled": 0, "rental_uris": {"ios": "https://dc.lft.to/lastmile_qr_scan", "android": "https://dc.lft.to/lastmile_qr_scan"}, "is_reserved": 0, "fusion_lon": 0.0, "lat": 38.84189516666667, "type": "electric_bike", "name": "424f132fec1670bbaa0a603cc64e732c", "bike_id": "424f132fec1670bbaa0a603cc64e732c", "fusion_lat": 0.0, "lon": -77.077484}, {"is_disabled": 0, "rental_uris": {"ios": "https://dc.lft.to/lastmile_qr_scan", "android": "https://dc.lft.to/lastmile_qr_scan"}, "is_reserved": 0, "fusion_lon": 0.0, "lat": 38.911162833333336, "type": "electric_scooter", "name": "66f449963f8fd502f1b3c874e8eb4201", "bike_id": "66f449963f8fd502f1b3c874e8eb4201", "fusion_lat": 0.0, "lon": -77.04477033333333}, {"is_disabled": 0, "rental_uris": {"ios": "https://dc.lft.to/lastmile_qr_scan", "android": "https://dc.lft.to/lastmile_qr_scan"}, "is_reserved": 0, "fusion_lon": 0.0, "lat": 38.911963, "type": "electric_scooter", "name": "8003a5905203f57fb801cc547e331b9d", "bike_id": "8003a5905203f57fb801cc547e331b9d", "fusion_lat": 0.0, "lon": -76.98772766666667}, {"is_disabled": 0, "rental_uris": {"ios": "https://dc.lft.to/lastmile_qr_scan", "android": "https://dc.lft.to/lastmile_qr_scan"}, "is_reserved": 0, "fusion_lon": 0.0, "lat": 38.89531683333333, "type": "electric_scooter", "name": "4c28f5dd724c7e6e7e0bb5991a854afd", "bike_id": "4c28f5dd724c7e6e7e0bb5991a854afd", "fusion_lat": 0.0, "lon": -76.9493135}, {"is_disabled": 0, "rental_uris": {"ios": "https://dc.lft.to/lastmile_qr_scan", "android": "https://dc.lft.to/lastmile_qr_scan"}, "is_reserved": 0, "fusion_lon": 0.0, "lat": 38.8860355, "type": "electric_scooter", "name": "076459f829bc3ad7dbc9191ab0a901a4", "bike_id": "076459f829bc3ad7dbc9191ab0a901a4", "fusion_lat": 0.0, "lon": -77.02011033333334}, {"is_disabled": 0, "rental_uris": {"ios": "https://dc.lft.to/lastmile_qr_scan", "android": "https://dc.lft.to/lastmile_qr_scan"}, "is_reserved": 0, "fusion_lon": 0.0, "lat": 38.91059683333334, "type": "electric_scooter", "name": "608305adce2925d2831772a506f9df54", "bike_id": "608305adce2925d2831772a506f9df54", "fusion_lat": 0.0, "lon": -77.03667}, {"is_disabled": 0, "rental_uris": {"ios": "https://dc.lft.to/lastmile_qr_scan", "android": "https://dc.lft.to/lastmile_qr_scan"}, "is_reserved": 0, "fusion_lon": 0.0, "lat": 38.92705483333334, "type": "electric_scooter", "name": "a44a73049ace0bbfc5284d349e41605a", "bike_id": "a44a73049ace0bbfc5284d349e41605a", "fusion_lat": 0.0, "lon": -77.01488983333333}, {"is_disabled": 0, "rental_uris": {"ios": "https://dc.lft.to/lastmile_qr_scan", "android": "https://dc.lft.to/lastmile_qr_scan"}, "is_reserved": 0, "fusion_lon": 0.0, "lat": 38.916810166666664, "type": "electric_scooter", "name": "c1befa0cff632565c8dff7b9a1c34b92", "bike_id": "c1befa0cff632565c8dff7b9a1c34b92", "fusion_lat": 0.0, "lon": -77.02973016666667}, {"is_disabled": 0, "rental_uris": {"ios": "https://dc.lft.to/lastmile_qr_scan", "android": "https://dc.lft.to/lastmile_qr_scan"}, "is_reserved": 0, "fusion_lon": 0.0, "lat": 38.898960833333334, "type": "electric_scooter", "name": "34e65ba031318865108a19b709f1d1bd", "bike_id": "34e65ba031318865108a19b709f1d1bd", "fusion_lat": 0.0, "lon": -77.03951633333334}, {"is_disabled": 0, "rental_uris": {"ios": "https://dc.lft.to/lastmile_qr_scan", "android": "https://dc.lft.to/lastmile_qr_scan"}, "is_reserved": 0, "fusion_lon": 0.0, "lat": 38.9186665, "type": "electric_scooter", "name": "351a569ab712b7fa6b415495e9232948", "bike_id": "351a569ab712b7fa6b415495e9232948", "fusion_lat": 0.0, "lon": -76.96548883333334}, {"is_disabled": 0, "rental_uris": {"ios": "https://dc.lft.to/lastmile_qr_scan", "android": "https://dc.lft.to/lastmile_qr_scan"}, "is_reserved": 0, "fusion_lon": 0.0, "lat": 38.898928833333336, "type": "electric_scooter", "name": "a86b7e4f876741b1775c5dd3ab29e951", "bike_id": "a86b7e4f876741b1775c5dd3ab29e951", "fusion_lat": 0.0, "lon": -77.04893766666666}, {"is_disabled": 0, "rental_uris": {"ios": "https://dc.lft.to/lastmile_qr_scan", "android": "https://dc.lft.to/lastmile_qr_scan"}, "is_reserved": 0, "fusion_lon": 0.0, "lat": 38.895099333333334, "type": "electric_scooter", "name": "b0d491cf20ecdd129c9ad3b17e3ad088", "bike_id": "b0d491cf20ecdd129c9ad3b17e3ad088", "fusion_lat": 0.0, "lon": -76.9950595}, {"is_disabled": 0, "rental_uris": {"ios": "https://dc.lft.to/lastmile_qr_scan", "android": "https://dc.lft.to/lastmile_qr_scan"}, "is_reserved": 0, "fusion_lon": 0.0, "lat": 38.936269, "type": "electric_bike", "name": "ee8d8cc0670bc4ab2974657711b36581", "bike_id": "ee8d8cc0670bc4ab2974657711b36581", "fusion_lat": 0.0, "lon": -77.03433566666666}, {"is_disabled": 0, "rental_uris": {"ios": "https://dc.lft.to/lastmile_qr_scan", "android": "https://dc.lft.to/lastmile_qr_scan"}, "is_reserved": 0, "fusion_lon": 0.0, "lat": 38.89264083333333, "type": "electric_scooter", "name": "52665444270f171a22ee21b32298f62d", "bike_id": "52665444270f171a22ee21b32298f62d", "fusion_lat": 0.0, "lon": -77.003447}, {"is_disabled": 0, "rental_uris": {"ios": "https://dc.lft.to/lastmile_qr_scan", "android": "https://dc.lft.to/lastmile_qr_scan"}, "is_reserved": 0, "fusion_lon": 0.0, "lat": 38.9207625, "type": "electric_scooter", "name": "002d8c1a7816039e23fc25d2c419741a", "bike_id": "002d8c1a7816039e23fc25d2c419741a", "fusion_lat": 0.0, "lon": -77.00455916666667}, {"is_disabled": 0, "rental_uris": {"ios": "https://dc.lft.to/lastmile_qr_scan", "android": "https://dc.lft.to/lastmile_qr_scan"}, "is_reserved": 0, "fusion_lon": 0.0, "lat": 38.956334, "type": "electric_scooter", "name": "18538d318a8a3d38c68fd9b4275d6839", "bike_id": "18538d318a8a3d38c68fd9b4275d6839", "fusion_lat": 0.0, "lon": -77.02440283333334}, {"is_disabled": 0, "rental_uris": {"ios": "https://dc.lft.to/lastmile_qr_scan", "android": "https://dc.lft.to/lastmile_qr_scan"}, "is_reserved": 0, "fusion_lon": 0.0, "lat": 38.878919333333336, "type": "electric_scooter", "name": "0f353ab8db5e894b2a640903766c9d0c", "bike_id": "0f353ab8db5e894b2a640903766c9d0c", "fusion_lat": 0.0, "lon": -76.9353095}, {"is_disabled": 0, "rental_uris": {"ios": "https://dc.lft.to/lastmile_qr_scan", "android": "https://dc.lft.to/lastmile_qr_scan"}, "is_reserved": 0, "fusion_lon": 0.0, "lat": 38.9215555, "type": "electric_scooter", "name": "bd1ffd331beff79b5e6a2f206687be22", "bike_id": "bd1ffd331beff79b5e6a2f206687be22", "fusion_lat": 0.0, "lon": -77.0422305}, {"is_disabled": 0, "rental_uris": {"ios": "https://dc.lft.to/lastmile_qr_scan", "android": "https://dc.lft.to/lastmile_qr_scan"}, "is_reserved": 0, "fusion_lon": 0.0, "lat": 38.930483833333334, "type": "electric_scooter", "name": "753164cac95878f6e30c20f54f3f5d2c", "bike_id": "753164cac95878f6e30c20f54f3f5d2c", "fusion_lat": 0.0, "lon": -77.03631833333333}, {"is_disabled": 0, "rental_uris": {"ios": "https://dc.lft.to/lastmile_qr_scan", "android": "https://dc.lft.to/lastmile_qr_scan"}, "is_reserved": 0, "fusion_lon": 0.0, "lat": 38.89724983333333, "type": "electric_scooter", "name": "399d65600751a263a7ae85265370997e", "bike_id": "399d65600751a263a7ae85265370997e", "fusion_lat": 0.0, "lon": -77.00921233333334}, {"is_disabled": 0, "rental_uris": {"ios": "https://dc.lft.to/lastmile_qr_scan", "android": "https://dc.lft.to/lastmile_qr_scan"}, "is_reserved": 0, "fusion_lon": 0.0, "lat": 38.858096, "type": "electric_scooter", "name": "44792caa12637fb67d889fe85bcca44f", "bike_id": "44792caa12637fb67d889fe85bcca44f", "fusion_lat": 0.0, "lon": -76.98911}, {"is_disabled": 0, "rental_uris": {"ios": "https://dc.lft.to/lastmile_qr_scan", "android": "https://dc.lft.to/lastmile_qr_scan"}, "is_reserved": 0, "fusion_lon": 0.0, "lat": 38.92207716666667, "type": "electric_scooter", "name": "44cdaedde8aa8dc25d892a01c656ce38", "bike_id": "44cdaedde8aa8dc25d892a01c656ce38", "fusion_lat": 0.0, "lon": -77.03901633333334}, {"is_disabled": 0, "rental_uris": {"ios": "https://dc.lft.to/lastmile_qr_scan", "android": "https://dc.lft.to/lastmile_qr_scan"}, "is_reserved": 0, "fusion_lon": 0.0, "lat": 38.90704, "type": "electric_scooter", "name": "3ef56cce515733c8b2281d602097fdfa", "bike_id": "3ef56cce515733c8b2281d602097fdfa", "fusion_lat": 0.0, "lon": -77.00578183333333}, {"is_disabled": 0, "rental_uris": {"ios": "https://dc.lft.to/lastmile_qr_scan", "android": "https://dc.lft.to/lastmile_qr_scan"}, "is_reserved": 0, "fusion_lon": 0.0, "lat": 38.86492416666667, "type": "electric_bike", "name": "0eb6aac0a89558dd0a1b1474b1638036", "bike_id": "0eb6aac0a89558dd0a1b1474b1638036", "fusion_lat": 0.0, "lon": -76.96984233333333}, {"is_disabled": 0, "rental_uris": {"ios": "https://dc.lft.to/lastmile_qr_scan", "android": "https://dc.lft.to/lastmile_qr_scan"}, "is_reserved": 0, "fusion_lon": 0.0, "lat": 38.8717335, "type": "electric_bike", "name": "de3e9e75a388b4545878d1a8ebd9bac2", "bike_id": "de3e9e75a388b4545878d1a8ebd9bac2", "fusion_lat": 0.0, "lon": -77.23396933333333}, {"is_disabled": 0, "rental_uris": {"ios": "https://dc.lft.to/lastmile_qr_scan", "android": "https://dc.lft.to/lastmile_qr_scan"}, "is_reserved": 0, "fusion_lon": 0.0, "lat": 38.886171833333336, "type": "electric_scooter", "name": "15c2ee00f2f2e0a36af4cbfc42d0cb7a", "bike_id": "15c2ee00f2f2e0a36af4cbfc42d0cb7a", "fusion_lat": 0.0, "lon": -76.97707383333334}, {"is_disabled": 0, "rental_uris": {"ios": "https://dc.lft.to/lastmile_qr_scan", "android": "https://dc.lft.to/lastmile_qr_scan"}, "is_reserved": 0, "fusion_lon": 0.0, "lat": 38.93698583333333, "type": "electric_scooter", "name": "fd36eda4c655ca11f86f6b1a460977b3", "bike_id": "fd36eda4c655ca11f86f6b1a460977b3", "fusion_lat": 0.0, "lon": -77.05598466666666}, {"is_disabled": 0, "rental_uris": {"ios": "https://dc.lft.to/lastmile_qr_scan", "android": "https://dc.lft.to/lastmile_qr_scan"}, "is_reserved": 0, "fusion_lon": 0.0, "lat": 38.90564216666667, "type": "electric_scooter", "name": "60d5841026829f05a7ffd4bf1d6b0be5", "bike_id": "60d5841026829f05a7ffd4bf1d6b0be5", "fusion_lat": 0.0, "lon": -77.043381}, {"is_disabled": 0, "rental_uris": {"ios": "https://dc.lft.to/lastmile_qr_scan", "android": "https://dc.lft.to/lastmile_qr_scan"}, "is_reserved": 0, "fusion_lon": 0.0, "lat": 38.899320333333335, "type": "electric_scooter", "name": "f940c6a082c011607b6853013ad64e2d", "bike_id": "f940c6a082c011607b6853013ad64e2d", "fusion_lat": 0.0, "lon": -77.021957}, {"is_disabled": 0, "rental_uris": {"ios": "https://dc.lft.to/lastmile_qr_scan", "android": "https://dc.lft.to/lastmile_qr_scan"}, "is_reserved": 0, "fusion_lon": 0.0, "lat": 38.953689833333335, "type": "electric_scooter", "name": "db55277c5d9befd2ad733bb5cf5408e2", "bike_id": "db55277c5d9befd2ad733bb5cf5408e2", "fusion_lat": 0.0, "lon": -76.99166033333333}, {"is_disabled": 0, "rental_uris": {"ios": "https://dc.lft.to/lastmile_qr_scan", "android": "https://dc.lft.to/lastmile_qr_scan"}, "is_reserved": 0, "fusion_lon": 0.0, "lat": 38.93080066666667, "type": "electric_scooter", "name": "1e6e4f37b1f605a3074cd5c611982135", "bike_id": "1e6e4f37b1f605a3074cd5c611982135", "fusion_lat": 0.0, "lon": -77.03439516666667}, {"is_disabled": 0, "rental_uris": {"ios": "https://dc.lft.to/lastmile_qr_scan", "android": "https://dc.lft.to/lastmile_qr_scan"}, "is_reserved": 0, "fusion_lon": 0.0, "lat": 38.980202, "type": "electric_bike", "name": "f820a0544454288253f258b37fcf36c3", "bike_id": "f820a0544454288253f258b37fcf36c3", "fusion_lat": 0.0, "lon": -76.94249766666667}, {"is_disabled": 0, "rental_uris": {"ios": "https://dc.lft.to/lastmile_qr_scan", "android": "https://dc.lft.to/lastmile_qr_scan"}, "is_reserved": 0, "fusion_lon": 0.0, "lat": 38.8861455, "type": "electric_scooter", "name": "ff4ae37e81ff180588811c54baa67b34", "bike_id": "ff4ae37e81ff180588811c54baa67b34", "fusion_lat": 0.0, "lon": -77.02204866666666}, {"is_disabled": 0, "rental_uris": {"ios": "https://dc.lft.to/lastmile_qr_scan", "android": "https://dc.lft.to/lastmile_qr_scan"}, "is_reserved": 0, "fusion_lon": 0.0, "lat": 38.89247566666667, "type": "electric_scooter", "name": "35af7570fcb56618d88f8ffb71834ad9", "bike_id": "35af7570fcb56618d88f8ffb71834ad9", "fusion_lat": 0.0, "lon": -76.98839866666667}, {"is_disabled": 0, "rental_uris": {"ios": "https://dc.lft.to/lastmile_qr_scan", "android": "https://dc.lft.to/lastmile_qr_scan"}, "is_reserved": 0, "fusion_lon": 0.0, "lat": 38.90275, "type": "electric_scooter", "name": "01b819854157832806810be4ae9067b9", "bike_id": "01b819854157832806810be4ae9067b9", "fusion_lat": 0.0, "lon": -77.034564}, {"is_disabled": 0, "rental_uris": {"ios": "https://dc.lft.to/lastmile_qr_scan", "android": "https://dc.lft.to/lastmile_qr_scan"}, "is_reserved": 0, "fusion_lon": 0.0, "lat": 38.91381766666667, "type": "electric_scooter", "name": "9278d436b7cc7b12c5556cc4db8e0547", "bike_id": "9278d436b7cc7b12c5556cc4db8e0547", "fusion_lat": 0.0, "lon": -77.0295605}, {"is_disabled": 0, "rental_uris": {"ios": "https://dc.lft.to/lastmile_qr_scan", "android": "https://dc.lft.to/lastmile_qr_scan"}, "is_reserved": 0, "fusion_lon": 0.0, "lat": 38.926446, "type": "electric_scooter", "name": "5c97c3ad94a153c1647a17bcf81d6bd6", "bike_id": "5c97c3ad94a153c1647a17bcf81d6bd6", "fusion_lat": 0.0, "lon": -77.0384135}, {"is_disabled": 0, "rental_uris": {"ios": "https://dc.lft.to/lastmile_qr_scan", "android": "https://dc.lft.to/lastmile_qr_scan"}, "is_reserved": 0, "fusion_lon": 0.0, "lat": 38.9264075, "type": "electric_scooter", "name": "3f4187483028fbd791bde8359561b35e", "bike_id": "3f4187483028fbd791bde8359561b35e", "fusion_lat": 0.0, "lon": -77.0383845}, {"is_disabled": 0, "rental_uris": {"ios": "https://dc.lft.to/lastmile_qr_scan", "android": "https://dc.lft.to/lastmile_qr_scan"}, "is_reserved": 0, "fusion_lon": 0.0, "lat": 38.883786666666666, "type": "electric_bike", "name": "45d4d95bcf735f5e79c1dc06b3b53b32", "bike_id": "45d4d95bcf735f5e79c1dc06b3b53b32", "fusion_lat": 0.0, "lon": -77.0298105}, {"is_disabled": 0, "rental_uris": {"ios": "https://dc.lft.to/lastmile_qr_scan", "android": "https://dc.lft.to/lastmile_qr_scan"}, "is_reserved": 0, "fusion_lon": 0.0, "lat": 38.91750783333333, "type": "electric_scooter", "name": "55fd563a7ff55e5f1c5f5dae4f566868", "bike_id": "55fd563a7ff55e5f1c5f5dae4f566868", "fusion_lat": 0.0, "lon": -77.02115116666667}, {"is_disabled": 0, "rental_uris": {"ios": "https://dc.lft.to/lastmile_qr_scan", "android": "https://dc.lft.to/lastmile_qr_scan"}, "is_reserved": 0, "fusion_lon": 0.0, "lat": 38.971531666666664, "type": "electric_bike", "name": "f839809741428fe8f1ada0acb4af0fad", "bike_id": "f839809741428fe8f1ada0acb4af0fad", "fusion_lat": 0.0, "lon": -76.98363383333333}, {"is_disabled": 0, "rental_uris": {"ios": "https://dc.lft.to/lastmile_qr_scan", "android": "https://dc.lft.to/lastmile_qr_scan"}, "is_reserved": 0, "fusion_lon": 0.0, "lat": 38.910137, "type": "electric_scooter", "name": "56b054301122c187a0388b457a4eec03", "bike_id": "56b054301122c187a0388b457a4eec03", "fusion_lat": 0.0, "lon": -77.04663483333333}, {"is_disabled": 0, "rental_uris": {"ios": "https://dc.lft.to/lastmile_qr_scan", "android": "https://dc.lft.to/lastmile_qr_scan"}, "is_reserved": 0, "fusion_lon": 0.0, "lat": 38.92018016666667, "type": "electric_scooter", "name": "dc2ddd3f4b27e5b0a915a621dc1c8546", "bike_id": "dc2ddd3f4b27e5b0a915a621dc1c8546", "fusion_lat": 0.0, "lon": -77.03138216666666}, {"is_disabled": 0, "rental_uris": {"ios": "https://dc.lft.to/lastmile_qr_scan", "android": "https://dc.lft.to/lastmile_qr_scan"}, "is_reserved": 0, "fusion_lon": 0.0, "lat": 38.94392066666666, "type": "electric_scooter", "name": "48971686c9311da9965996cb4d6fc786", "bike_id": "48971686c9311da9965996cb4d6fc786", "fusion_lat": 0.0, "lon": -77.01985716666667}, {"is_disabled": 0, "rental_uris": {"ios": "https://dc.lft.to/lastmile_qr_scan", "android": "https://dc.lft.to/lastmile_qr_scan"}, "is_reserved": 0, "fusion_lon": 0.0, "lat": 38.914039, "type": "electric_scooter", "name": "42923628a1fb3c36f74b706e17690fad", "bike_id": "42923628a1fb3c36f74b706e17690fad", "fusion_lat": 0.0, "lon": -77.0286035}, {"is_disabled": 0, "rental_uris": {"ios": "https://dc.lft.to/lastmile_qr_scan", "android": "https://dc.lft.to/lastmile_qr_scan"}, "is_reserved": 0, "fusion_lon": 0.0, "lat": 38.88037716666667, "type": "electric_scooter", "name": "7f3d57118d69ea0519c1a9437183c46b", "bike_id": "7f3d57118d69ea0519c1a9437183c46b", "fusion_lat": 0.0, "lon": -76.927233}, {"is_disabled": 0, "rental_uris": {"ios": "https://dc.lft.to/lastmile_qr_scan", "android": "https://dc.lft.to/lastmile_qr_scan"}, "is_reserved": 0, "fusion_lon": 0.0, "lat": 38.89706916666667, "type": "electric_scooter", "name": "9790d4e234b5320f982cdbbb047d98c5", "bike_id": "9790d4e234b5320f982cdbbb047d98c5", "fusion_lat": 0.0, "lon": -76.93913366666666}, {"is_disabled": 0, "rental_uris": {"ios": "https://dc.lft.to/lastmile_qr_scan", "android": "https://dc.lft.to/lastmile_qr_scan"}, "is_reserved": 0, "fusion_lon": 0.0, "lat": 38.926488166666665, "type": "electric_bike", "name": "44de46039db84d002a967ec210390183", "bike_id": "44de46039db84d002a967ec210390183", "fusion_lat": 0.0, "lon": -77.09024383333333}, {"is_disabled": 0, "rental_uris": {"ios": "https://dc.lft.to/lastmile_qr_scan", "android": "https://dc.lft.to/lastmile_qr_scan"}, "is_reserved": 0, "fusion_lon": 0.0, "lat": 38.92382716666667, "type": "electric_scooter", "name": "6b427d4599541cd82a6fe0f238277a33", "bike_id": "6b427d4599541cd82a6fe0f238277a33", "fusion_lat": 0.0, "lon": -77.0245345}, {"is_disabled": 0, "rental_uris": {"ios": "https://dc.lft.to/lastmile_qr_scan", "android": "https://dc.lft.to/lastmile_qr_scan"}, "is_reserved": 0, "fusion_lon": 0.0, "lat": 38.90596033333333, "type": "electric_scooter", "name": "e45450e88c0e12baaa22ab614c8e6375", "bike_id": "e45450e88c0e12baaa22ab614c8e6375", "fusion_lat": 0.0, "lon": -77.04122516666666}, {"is_disabled": 0, "rental_uris": {"ios": "https://dc.lft.to/lastmile_qr_scan", "android": "https://dc.lft.to/lastmile_qr_scan"}, "is_reserved": 0, "fusion_lon": 0.0, "lat": 38.9291225, "type": "electric_scooter", "name": "1ea14cf1f108b176eacc36f355ab1c3a", "bike_id": "1ea14cf1f108b176eacc36f355ab1c3a", "fusion_lat": 0.0, "lon": -77.0326685}, {"is_disabled": 0, "rental_uris": {"ios": "https://dc.lft.to/lastmile_qr_scan", "android": "https://dc.lft.to/lastmile_qr_scan"}, "is_reserved": 0, "fusion_lon": 0.0, "lat": 38.9012995, "type": "electric_scooter", "name": "cef4757c06683cd12dd446ea9910d81a", "bike_id": "cef4757c06683cd12dd446ea9910d81a", "fusion_lat": 0.0, "lon": -77.04058433333333}, {"is_disabled": 0, "rental_uris": {"ios": "https://dc.lft.to/lastmile_qr_scan", "android": "https://dc.lft.to/lastmile_qr_scan"}, "is_reserved": 0, "fusion_lon": 0.0, "lat": 38.90725966666667, "type": "electric_scooter", "name": "8fe2b023eaaa6fec0c2199b76ed15c21", "bike_id": "8fe2b023eaaa6fec0c2199b76ed15c21", "fusion_lat": 0.0, "lon": -77.03951316666667}, {"is_disabled": 0, "rental_uris": {"ios": "https://dc.lft.to/lastmile_qr_scan", "android": "https://dc.lft.to/lastmile_qr_scan"}, "is_reserved": 0, "fusion_lon": 0.0, "lat": 38.892205833333335, "type": "electric_scooter", "name": "459fdb4e98432534771f2378d6b65be6", "bike_id": "459fdb4e98432534771f2378d6b65be6", "fusion_lat": 0.0, "lon": -77.04688133333333}, {"is_disabled": 0, "rental_uris": {"ios": "https://dc.lft.to/lastmile_qr_scan", "android": "https://dc.lft.to/lastmile_qr_scan"}, "is_reserved": 0, "fusion_lon": 0.0, "lat": 38.8765435, "type": "electric_scooter", "name": "dd6874e2359a23352ad4da6e6d902f45", "bike_id": "dd6874e2359a23352ad4da6e6d902f45", "fusion_lat": 0.0, "lon": -77.00960133333334}, {"is_disabled": 0, "rental_uris": {"ios": "https://dc.lft.to/lastmile_qr_scan", "android": "https://dc.lft.to/lastmile_qr_scan"}, "is_reserved": 0, "fusion_lon": 0.0, "lat": 38.9618545, "type": "electric_bike", "name": "40475a7fc766cc6f95eab9d6079cdf66", "bike_id": "40475a7fc766cc6f95eab9d6079cdf66", "fusion_lat": 0.0, "lon": -77.099027}, {"is_disabled": 0, "rental_uris": {"ios": "https://dc.lft.to/lastmile_qr_scan", "android": "https://dc.lft.to/lastmile_qr_scan"}, "is_reserved": 0, "fusion_lon": 0.0, "lat": 38.90215966666667, "type": "electric_bike", "name": "0e76f7251c41832fbca13549bf7565e7", "bike_id": "0e76f7251c41832fbca13549bf7565e7", "fusion_lat": 0.0, "lon": -76.93179283333333}, {"is_disabled": 0, "rental_uris": {"ios": "https://dc.lft.to/lastmile_qr_scan", "android": "https://dc.lft.to/lastmile_qr_scan"}, "is_reserved": 0, "fusion_lon": 0.0, "lat": 38.90680833333333, "type": "electric_scooter", "name": "d8be32107c92c31c5e1c78a1d6a59862", "bike_id": "d8be32107c92c31c5e1c78a1d6a59862", "fusion_lat": 0.0, "lon": -76.97934283333333}, {"is_disabled": 0, "rental_uris": {"ios": "https://dc.lft.to/lastmile_qr_scan", "android": "https://dc.lft.to/lastmile_qr_scan"}, "is_reserved": 0, "fusion_lon": 0.0, "lat": 38.924631, "type": "electric_scooter", "name": "99b1fdc035e05a59d1d0376977854253", "bike_id": "99b1fdc035e05a59d1d0376977854253", "fusion_lat": 0.0, "lon": -77.02716266666667}, {"is_disabled": 0, "rental_uris": {"ios": "https://dc.lft.to/lastmile_qr_scan", "android": "https://dc.lft.to/lastmile_qr_scan"}, "is_reserved": 0, "fusion_lon": 0.0, "lat": 38.9246725, "type": "electric_scooter", "name": "214b6d15334cdbc53620cb61b54d3e3b", "bike_id": "214b6d15334cdbc53620cb61b54d3e3b", "fusion_lat": 0.0, "lon": -77.03819716666666}, {"is_disabled": 0, "rental_uris": {"ios": "https://dc.lft.to/lastmile_qr_scan", "android": "https://dc.lft.to/lastmile_qr_scan"}, "is_reserved": 0, "fusion_lon": 0.0, "lat": 38.93111533333333, "type": "electric_scooter", "name": "21976aac0e2ef2a40477091ca44d9341", "bike_id": "21976aac0e2ef2a40477091ca44d9341", "fusion_lat": 0.0, "lon": -77.03281716666666}, {"is_disabled": 0, "rental_uris": {"ios": "https://dc.lft.to/lastmile_qr_scan", "android": "https://dc.lft.to/lastmile_qr_scan"}, "is_reserved": 0, "fusion_lon": 0.0, "lat": 38.90541733333333, "type": "electric_scooter", "name": "77a863bcf9851f7b79f338fcd5480bf6", "bike_id": "77a863bcf9851f7b79f338fcd5480bf6", "fusion_lat": 0.0, "lon": -77.04178016666667}, {"is_disabled": 0, "rental_uris": {"ios": "https://dc.lft.to/lastmile_qr_scan", "android": "https://dc.lft.to/lastmile_qr_scan"}, "is_reserved": 0, "fusion_lon": 0.0, "lat": 38.90512433333333, "type": "electric_scooter", "name": "6b350cb0e814910ef197acc58a0e0914", "bike_id": "6b350cb0e814910ef197acc58a0e0914", "fusion_lat": 0.0, "lon": -77.0604595}, {"is_disabled": 0, "rental_uris": {"ios": "https://dc.lft.to/lastmile_qr_scan", "android": "https://dc.lft.to/lastmile_qr_scan"}, "is_reserved": 0, "fusion_lon": 0.0, "lat": 38.900010333333334, "type": "electric_scooter", "name": "86b857c47febe205194c73f793279d24", "bike_id": "86b857c47febe205194c73f793279d24", "fusion_lat": 0.0, "lon": -77.05557333333333}, {"is_disabled": 0, "rental_uris": {"ios": "https://dc.lft.to/lastmile_qr_scan", "android": "https://dc.lft.to/lastmile_qr_scan"}, "is_reserved": 0, "fusion_lon": 0.0, "lat": 38.935214, "type": "electric_scooter", "name": "700e9f127701bda6ecfefbb7a5ee0c34", "bike_id": "700e9f127701bda6ecfefbb7a5ee0c34", "fusion_lat": 0.0, "lon": -77.02354883333334}, {"is_disabled": 0, "rental_uris": {"ios": "https://dc.lft.to/lastmile_qr_scan", "android": "https://dc.lft.to/lastmile_qr_scan"}, "is_reserved": 0, "fusion_lon": 0.0, "lat": 38.83861983333333, "type": "electric_bike", "name": "a1c1668b394ca3261a6475bc4e53ca4e", "bike_id": "a1c1668b394ca3261a6475bc4e53ca4e", "fusion_lat": 0.0, "lon": -76.99702833333333}, {"is_disabled": 0, "rental_uris": {"ios": "https://dc.lft.to/lastmile_qr_scan", "android": "https://dc.lft.to/lastmile_qr_scan"}, "is_reserved": 0, "fusion_lon": 0.0, "lat": 38.918552, "type": "electric_bike", "name": "83d585af262b6f2d6bdf3d89bda5eb5c", "bike_id": "83d585af262b6f2d6bdf3d89bda5eb5c", "fusion_lat": 0.0, "lon": -76.96090416666667}, {"is_disabled": 0, "rental_uris": {"ios": "https://dc.lft.to/lastmile_qr_scan", "android": "https://dc.lft.to/lastmile_qr_scan"}, "is_reserved": 0, "fusion_lon": 0.0, "lat": 38.899109, "type": "electric_scooter", "name": "a635b369689b13cb26169b0753734fd1", "bike_id": "a635b369689b13cb26169b0753734fd1", "fusion_lat": 0.0, "lon": -76.93390733333334}, {"is_disabled": 0, "rental_uris": {"ios": "https://dc.lft.to/lastmile_qr_scan", "android": "https://dc.lft.to/lastmile_qr_scan"}, "is_reserved": 0, "fusion_lon": 0.0, "lat": 38.8923115, "type": "electric_scooter", "name": "8c56e9d400928f629c8e4367ddf1f85c", "bike_id": "8c56e9d400928f629c8e4367ddf1f85c", "fusion_lat": 0.0, "lon": -77.0197945}, {"is_disabled": 0, "rental_uris": {"ios": "https://dc.lft.to/lastmile_qr_scan", "android": "https://dc.lft.to/lastmile_qr_scan"}, "is_reserved": 0, "fusion_lon": 0.0, "lat": 38.90148683333334, "type": "electric_scooter", "name": "8e1b5f7f6c26e0f771e4914185bcaa77", "bike_id": "8e1b5f7f6c26e0f771e4914185bcaa77", "fusion_lat": 0.0, "lon": -77.023081}, {"is_disabled": 0, "rental_uris": {"ios": "https://dc.lft.to/lastmile_qr_scan", "android": "https://dc.lft.to/lastmile_qr_scan"}, "is_reserved": 0, "fusion_lon": 0.0, "lat": 38.901483, "type": "electric_scooter", "name": "55479e6a1e76305a36f2945fd3b6a2e1", "bike_id": "55479e6a1e76305a36f2945fd3b6a2e1", "fusion_lat": 0.0, "lon": -76.974212}, {"is_disabled": 0, "rental_uris": {"ios": "https://dc.lft.to/lastmile_qr_scan", "android": "https://dc.lft.to/lastmile_qr_scan"}, "is_reserved": 0, "fusion_lon": 0.0, "lat": 38.880380333333335, "type": "electric_scooter", "name": "64b3c4d24e827cb3a612fd0c41691abb", "bike_id": "64b3c4d24e827cb3a612fd0c41691abb", "fusion_lat": 0.0, "lon": -76.92722766666667}, {"is_disabled": 0, "rental_uris": {"ios": "https://dc.lft.to/lastmile_qr_scan", "android": "https://dc.lft.to/lastmile_qr_scan"}, "is_reserved": 0, "fusion_lon": 0.0, "lat": 38.901357, "type": "electric_scooter", "name": "7f8f07d865791b37f93f5472380f12a2", "bike_id": "7f8f07d865791b37f93f5472380f12a2", "fusion_lat": 0.0, "lon": -77.02940316666667}, {"is_disabled": 0, "rental_uris": {"ios": "https://dc.lft.to/lastmile_qr_scan", "android": "https://dc.lft.to/lastmile_qr_scan"}, "is_reserved": 0, "fusion_lon": 0.0, "lat": 38.91517983333333, "type": "electric_scooter", "name": "aac21f46144ef566e0805a0690e26ec0", "bike_id": "aac21f46144ef566e0805a0690e26ec0", "fusion_lat": 0.0, "lon": -77.01984383333334}, {"is_disabled": 0, "rental_uris": {"ios": "https://dc.lft.to/lastmile_qr_scan", "android": "https://dc.lft.to/lastmile_qr_scan"}, "is_reserved": 0, "fusion_lon": 0.0, "lat": 38.829233333333335, "type": "electric_bike", "name": "d7c51d4d37a23a06cd2a8665eb8236dc", "bike_id": "d7c51d4d37a23a06cd2a8665eb8236dc", "fusion_lat": 0.0, "lon": -77.06880233333334}, {"is_disabled": 0, "rental_uris": {"ios": "https://dc.lft.to/lastmile_qr_scan", "android": "https://dc.lft.to/lastmile_qr_scan"}, "is_reserved": 0, "fusion_lon": 0.0, "lat": 38.915753, "type": "electric_scooter", "name": "457464042bd6037ae8f1db876cbded37", "bike_id": "457464042bd6037ae8f1db876cbded37", "fusion_lat": 0.0, "lon": -77.01998183333333}, {"is_disabled": 0, "rental_uris": {"ios": "https://dc.lft.to/lastmile_qr_scan", "android": "https://dc.lft.to/lastmile_qr_scan"}, "is_reserved": 0, "fusion_lon": 0.0, "lat": 38.923674, "type": "electric_scooter", "name": "9d5933782e0d4cb135b46e7dbfbf07ab", "bike_id": "9d5933782e0d4cb135b46e7dbfbf07ab", "fusion_lat": 0.0, "lon": -77.04333566666666}, {"is_disabled": 0, "rental_uris": {"ios": "https://dc.lft.to/lastmile_qr_scan", "android": "https://dc.lft.to/lastmile_qr_scan"}, "is_reserved": 0, "fusion_lon": 0.0, "lat": 38.8745975, "type": "electric_scooter", "name": "938549d50c027d28906c88f66aa74e9f", "bike_id": "938549d50c027d28906c88f66aa74e9f", "fusion_lat": 0.0, "lon": -77.00941866666666}, {"is_disabled": 0, "rental_uris": {"ios": "https://dc.lft.to/lastmile_qr_scan", "android": "https://dc.lft.to/lastmile_qr_scan"}, "is_reserved": 0, "fusion_lon": 0.0, "lat": 38.89036933333333, "type": "electric_scooter", "name": "87ede37b4bdedc1402dcbc6347af7470", "bike_id": "87ede37b4bdedc1402dcbc6347af7470", "fusion_lat": 0.0, "lon": -76.93759}, {"is_disabled": 0, "rental_uris": {"ios": "https://dc.lft.to/lastmile_qr_scan", "android": "https://dc.lft.to/lastmile_qr_scan"}, "is_reserved": 0, "fusion_lon": 0.0, "lat": 38.918319833333335, "type": "electric_scooter", "name": "df0ab051e0f0ee8cb00e11cb52db087f", "bike_id": "df0ab051e0f0ee8cb00e11cb52db087f", "fusion_lat": 0.0, "lon": -77.0352175}, {"is_disabled": 0, "rental_uris": {"ios": "https://dc.lft.to/lastmile_qr_scan", "android": "https://dc.lft.to/lastmile_qr_scan"}, "is_reserved": 0, "fusion_lon": 0.0, "lat": 38.961713333333336, "type": "electric_scooter", "name": "6119d058185f3305cb70693a939798f7", "bike_id": "6119d058185f3305cb70693a939798f7", "fusion_lat": 0.0, "lon": -77.032287}, {"is_disabled": 0, "rental_uris": {"ios": "https://dc.lft.to/lastmile_qr_scan", "android": "https://dc.lft.to/lastmile_qr_scan"}, "is_reserved": 0, "fusion_lon": 0.0, "lat": 38.88953033333333, "type": "electric_scooter", "name": "d17f9b87090ba543ee7715132b897154", "bike_id": "d17f9b87090ba543ee7715132b897154", "fusion_lat": 0.0, "lon": -76.9360735}, {"is_disabled": 0, "rental_uris": {"ios": "https://dc.lft.to/lastmile_qr_scan", "android": "https://dc.lft.to/lastmile_qr_scan"}, "is_reserved": 0, "fusion_lon": 0.0, "lat": 38.89503066666666, "type": "electric_scooter", "name": "6c4004349f72c448af7846f71060f96e", "bike_id": "6c4004349f72c448af7846f71060f96e", "fusion_lat": 0.0, "lon": -77.04168933333334}, {"is_disabled": 0, "rental_uris": {"ios": "https://dc.lft.to/lastmile_qr_scan", "android": "https://dc.lft.to/lastmile_qr_scan"}, "is_reserved": 0, "fusion_lon": 0.0, "lat": 38.89222783333334, "type": "electric_scooter", "name": "87ebf181682f14bbe586d623521410a3", "bike_id": "87ebf181682f14bbe586d623521410a3", "fusion_lat": 0.0, "lon": -77.048751}, {"is_disabled": 0, "rental_uris": {"ios": "https://dc.lft.to/lastmile_qr_scan", "android": "https://dc.lft.to/lastmile_qr_scan"}, "is_reserved": 0, "fusion_lon": 0.0, "lat": 38.9241425, "type": "electric_scooter", "name": "f07739ea2aa726e9df8413bd8a0f9246", "bike_id": "f07739ea2aa726e9df8413bd8a0f9246", "fusion_lat": 0.0, "lon": -77.04162}, {"is_disabled": 0, "rental_uris": {"ios": "https://dc.lft.to/lastmile_qr_scan", "android": "https://dc.lft.to/lastmile_qr_scan"}, "is_reserved": 0, "fusion_lon": 0.0, "lat": 38.96506633333333, "type": "electric_bike", "name": "697343a072def317df46b7124b02fcc8", "bike_id": "697343a072def317df46b7124b02fcc8", "fusion_lat": 0.0, "lon": -77.0336355}, {"is_disabled": 0, "rental_uris": {"ios": "https://dc.lft.to/lastmile_qr_scan", "android": "https://dc.lft.to/lastmile_qr_scan"}, "is_reserved": 0, "fusion_lon": 0.0, "lat": 38.88710666666667, "type": "electric_bike", "name": "122e0e57fea7abfcdb06551c140de3ba", "bike_id": "122e0e57fea7abfcdb06551c140de3ba", "fusion_lat": 0.0, "lon": -77.133169}, {"is_disabled": 0, "rental_uris": {"ios": "https://dc.lft.to/lastmile_qr_scan", "android": "https://dc.lft.to/lastmile_qr_scan"}, "is_reserved": 0, "fusion_lon": 0.0, "lat": 38.918632833333334, "type": "electric_scooter", "name": "554a39eed66854c0d8a2284a37ab53cc", "bike_id": "554a39eed66854c0d8a2284a37ab53cc", "fusion_lat": 0.0, "lon": -76.965527}, {"is_disabled": 0, "rental_uris": {"ios": "https://dc.lft.to/lastmile_qr_scan", "android": "https://dc.lft.to/lastmile_qr_scan"}, "is_reserved": 0, "fusion_lon": 0.0, "lat": 38.93522216666667, "type": "electric_scooter", "name": "64a0913387338c8642e0844e3b32f671", "bike_id": "64a0913387338c8642e0844e3b32f671", "fusion_lat": 0.0, "lon": -77.03815733333333}, {"is_disabled": 0, "rental_uris": {"ios": "https://dc.lft.to/lastmile_qr_scan", "android": "https://dc.lft.to/lastmile_qr_scan"}, "is_reserved": 0, "fusion_lon": 0.0, "lat": 38.892420333333334, "type": "electric_scooter", "name": "da285f6ba4f107f32bfb9cb288d0544c", "bike_id": "da285f6ba4f107f32bfb9cb288d0544c", "fusion_lat": 0.0, "lon": -77.03349066666667}, {"is_disabled": 0, "rental_uris": {"ios": "https://dc.lft.to/lastmile_qr_scan", "android": "https://dc.lft.to/lastmile_qr_scan"}, "is_reserved": 0, "fusion_lon": 0.0, "lat": 38.877737, "type": "electric_scooter", "name": "455b0dca87264d5189aa21e91a18bd01", "bike_id": "455b0dca87264d5189aa21e91a18bd01", "fusion_lat": 0.0, "lon": -77.00208283333333}, {"is_disabled": 0, "rental_uris": {"ios": "https://dc.lft.to/lastmile_qr_scan", "android": "https://dc.lft.to/lastmile_qr_scan"}, "is_reserved": 0, "fusion_lon": 0.0, "lat": 38.918276, "type": "electric_scooter", "name": "09609681cda9e26e34254f3aa7370742", "bike_id": "09609681cda9e26e34254f3aa7370742", "fusion_lat": 0.0, "lon": -77.05319766666666}, {"is_disabled": 0, "rental_uris": {"ios": "https://dc.lft.to/lastmile_qr_scan", "android": "https://dc.lft.to/lastmile_qr_scan"}, "is_reserved": 0, "fusion_lon": 0.0, "lat": 38.91188783333333, "type": "electric_scooter", "name": "1c6b0c06cfdd64610423760dcf702d87", "bike_id": "1c6b0c06cfdd64610423760dcf702d87", "fusion_lat": 0.0, "lon": -77.00663283333333}, {"is_disabled": 0, "rental_uris": {"ios": "https://dc.lft.to/lastmile_qr_scan", "android": "https://dc.lft.to/lastmile_qr_scan"}, "is_reserved": 0, "fusion_lon": 0.0, "lat": 38.90046383333333, "type": "electric_scooter", "name": "e5e3fd7e30eafa49689e2eb0c6e1c783", "bike_id": "e5e3fd7e30eafa49689e2eb0c6e1c783", "fusion_lat": 0.0, "lon": -77.047175}, {"is_disabled": 0, "rental_uris": {"ios": "https://dc.lft.to/lastmile_qr_scan", "android": "https://dc.lft.to/lastmile_qr_scan"}, "is_reserved": 0, "fusion_lon": 0.0, "lat": 38.921210333333335, "type": "electric_scooter", "name": "4dd23fb97e486448a789939a552a2156", "bike_id": "4dd23fb97e486448a789939a552a2156", "fusion_lat": 0.0, "lon": -77.0190355}, {"is_disabled": 0, "rental_uris": {"ios": "https://dc.lft.to/lastmile_qr_scan", "android": "https://dc.lft.to/lastmile_qr_scan"}, "is_reserved": 0, "fusion_lon": 0.0, "lat": 38.9004195, "type": "electric_scooter", "name": "99b7d11cd663326161ca48261a6fbf71", "bike_id": "99b7d11cd663326161ca48261a6fbf71", "fusion_lat": 0.0, "lon": -77.02622633333333}, {"is_disabled": 0, "rental_uris": {"ios": "https://dc.lft.to/lastmile_qr_scan", "android": "https://dc.lft.to/lastmile_qr_scan"}, "is_reserved": 0, "fusion_lon": 0.0, "lat": 38.84276716666667, "type": "electric_bike", "name": "ae260499b458b8ae12417f36e04a5dfb", "bike_id": "ae260499b458b8ae12417f36e04a5dfb", "fusion_lat": 0.0, "lon": -76.98839233333334}, {"is_disabled": 0, "rental_uris": {"ios": "https://dc.lft.to/lastmile_qr_scan", "android": "https://dc.lft.to/lastmile_qr_scan"}, "is_reserved": 0, "fusion_lon": 0.0, "lat": 38.930380666666665, "type": "electric_scooter", "name": "f90f12f530b4490bbd728c6d30fc7426", "bike_id": "f90f12f530b4490bbd728c6d30fc7426", "fusion_lat": 0.0, "lon": -77.02970483333333}, {"is_disabled": 0, "rental_uris": {"ios": "https://dc.lft.to/lastmile_qr_scan", "android": "https://dc.lft.to/lastmile_qr_scan"}, "is_reserved": 0, "fusion_lon": 0.0, "lat": 38.892871166666666, "type": "electric_bike", "name": "4dc726c612f70694ed955e3a2379942a", "bike_id": "4dc726c612f70694ed955e3a2379942a", "fusion_lat": 0.0, "lon": -76.92235333333333}, {"is_disabled": 0, "rental_uris": {"ios": "https://dc.lft.to/lastmile_qr_scan", "android": "https://dc.lft.to/lastmile_qr_scan"}, "is_reserved": 0, "fusion_lon": 0.0, "lat": 38.859358, "type": "electric_scooter", "name": "5275c2670229b25eab61f4664d589e9e", "bike_id": "5275c2670229b25eab61f4664d589e9e", "fusion_lat": 0.0, "lon": -76.9843935}, {"is_disabled": 0, "rental_uris": {"ios": "https://dc.lft.to/lastmile_qr_scan", "android": "https://dc.lft.to/lastmile_qr_scan"}, "is_reserved": 0, "fusion_lon": 0.0, "lat": 38.89897116666667, "type": "electric_scooter", "name": "811f456ef9c9070e79860216b2de968c", "bike_id": "811f456ef9c9070e79860216b2de968c", "fusion_lat": 0.0, "lon": -77.03953316666667}, {"is_disabled": 0, "rental_uris": {"ios": "https://dc.lft.to/lastmile_qr_scan", "android": "https://dc.lft.to/lastmile_qr_scan"}, "is_reserved": 0, "fusion_lon": 0.0, "lat": 38.933998333333335, "type": "electric_scooter", "name": "9d4224560d32f442e8fa1cb5285ab761", "bike_id": "9d4224560d32f442e8fa1cb5285ab761", "fusion_lat": 0.0, "lon": -77.04140216666667}, {"is_disabled": 0, "rental_uris": {"ios": "https://dc.lft.to/lastmile_qr_scan", "android": "https://dc.lft.to/lastmile_qr_scan"}, "is_reserved": 0, "fusion_lon": 0.0, "lat": 38.900310833333336, "type": "electric_scooter", "name": "6cf8566100168d20b968b2a31207bf8c", "bike_id": "6cf8566100168d20b968b2a31207bf8c", "fusion_lat": 0.0, "lon": -77.0119025}, {"is_disabled": 0, "rental_uris": {"ios": "https://dc.lft.to/lastmile_qr_scan", "android": "https://dc.lft.to/lastmile_qr_scan"}, "is_reserved": 0, "fusion_lon": 0.0, "lat": 38.87639033333333, "type": "electric_scooter", "name": "39606756d0f7b7d986b84ae72db377b7", "bike_id": "39606756d0f7b7d986b84ae72db377b7", "fusion_lat": 0.0, "lon": -77.02079066666667}, {"is_disabled": 0, "rental_uris": {"ios": "https://dc.lft.to/lastmile_qr_scan", "android": "https://dc.lft.to/lastmile_qr_scan"}, "is_reserved": 0, "fusion_lon": 0.0, "lat": 38.862807333333336, "type": "electric_bike", "name": "5b1fea4bfd3462a4c33215c5ee865e0e", "bike_id": "5b1fea4bfd3462a4c33215c5ee865e0e", "fusion_lat": 0.0, "lon": -76.94515833333334}, {"is_disabled": 0, "rental_uris": {"ios": "https://dc.lft.to/lastmile_qr_scan", "android": "https://dc.lft.to/lastmile_qr_scan"}, "is_reserved": 0, "fusion_lon": 0.0, "lat": 38.917819333333334, "type": "electric_scooter", "name": "c1938ccc439c7adc5853f9ea4da14245", "bike_id": "c1938ccc439c7adc5853f9ea4da14245", "fusion_lat": 0.0, "lon": -77.0409735}, {"is_disabled": 0, "rental_uris": {"ios": "https://dc.lft.to/lastmile_qr_scan", "android": "https://dc.lft.to/lastmile_qr_scan"}, "is_reserved": 0, "fusion_lon": 0.0, "lat": 38.9096755, "type": "electric_scooter", "name": "edd2d3093f5b82281e35262031f75c69", "bike_id": "edd2d3093f5b82281e35262031f75c69", "fusion_lat": 0.0, "lon": -77.04677716666667}, {"is_disabled": 0, "rental_uris": {"ios": "https://dc.lft.to/lastmile_qr_scan", "android": "https://dc.lft.to/lastmile_qr_scan"}, "is_reserved": 0, "fusion_lon": 0.0, "lat": 38.975493666666665, "type": "electric_scooter", "name": "9eb14448829819785e528a771fef5b26", "bike_id": "9eb14448829819785e528a771fef5b26", "fusion_lat": 0.0, "lon": -77.02658133333334}, {"is_disabled": 0, "rental_uris": {"ios": "https://dc.lft.to/lastmile_qr_scan", "android": "https://dc.lft.to/lastmile_qr_scan"}, "is_reserved": 0, "fusion_lon": 0.0, "lat": 38.905775, "type": "electric_scooter", "name": "bdc061133d9f7eb8af05c6541e54a337", "bike_id": "bdc061133d9f7eb8af05c6541e54a337", "fusion_lat": 0.0, "lon": -77.00818033333333}, {"is_disabled": 0, "rental_uris": {"ios": "https://dc.lft.to/lastmile_qr_scan", "android": "https://dc.lft.to/lastmile_qr_scan"}, "is_reserved": 0, "fusion_lon": 0.0, "lat": 38.92331866666667, "type": "electric_scooter", "name": "aae29aa5f3c8a074abb9df4f83885c2c", "bike_id": "aae29aa5f3c8a074abb9df4f83885c2c", "fusion_lat": 0.0, "lon": -77.04186766666666}, {"is_disabled": 0, "rental_uris": {"ios": "https://dc.lft.to/lastmile_qr_scan", "android": "https://dc.lft.to/lastmile_qr_scan"}, "is_reserved": 0, "fusion_lon": 0.0, "lat": 38.90657216666666, "type": "electric_scooter", "name": "9af6c1eff1689ce2b06fbd8057e069a6", "bike_id": "9af6c1eff1689ce2b06fbd8057e069a6", "fusion_lat": 0.0, "lon": -77.07506266666667}, {"is_disabled": 0, "rental_uris": {"ios": "https://dc.lft.to/lastmile_qr_scan", "android": "https://dc.lft.to/lastmile_qr_scan"}, "is_reserved": 0, "fusion_lon": 0.0, "lat": 38.928781, "type": "electric_scooter", "name": "64e9963ff3d293b16d9f1717231d9f8c", "bike_id": "64e9963ff3d293b16d9f1717231d9f8c", "fusion_lat": 0.0, "lon": -77.03220483333334}, {"is_disabled": 0, "rental_uris": {"ios": "https://dc.lft.to/lastmile_qr_scan", "android": "https://dc.lft.to/lastmile_qr_scan"}, "is_reserved": 0, "fusion_lon": 0.0, "lat": 38.935414333333334, "type": "electric_scooter", "name": "e87beac673601cb625343f73d1a5ff97", "bike_id": "e87beac673601cb625343f73d1a5ff97", "fusion_lat": 0.0, "lon": -77.07295983333333}, {"is_disabled": 0, "rental_uris": {"ios": "https://dc.lft.to/lastmile_qr_scan", "android": "https://dc.lft.to/lastmile_qr_scan"}, "is_reserved": 0, "fusion_lon": 0.0, "lat": 38.9065535, "type": "electric_scooter", "name": "76b8e698c0191d6c134f1626c27a940d", "bike_id": "76b8e698c0191d6c134f1626c27a940d", "fusion_lat": 0.0, "lon": -76.979401}, {"is_disabled": 0, "rental_uris": {"ios": "https://dc.lft.to/lastmile_qr_scan", "android": "https://dc.lft.to/lastmile_qr_scan"}, "is_reserved": 0, "fusion_lon": 0.0, "lat": 38.92153483333333, "type": "electric_scooter", "name": "723b9412de386355225f6bcc50f1ebb3", "bike_id": "723b9412de386355225f6bcc50f1ebb3", "fusion_lat": 0.0, "lon": -77.04017883333333}, {"is_disabled": 0, "rental_uris": {"ios": "https://dc.lft.to/lastmile_qr_scan", "android": "https://dc.lft.to/lastmile_qr_scan"}, "is_reserved": 0, "fusion_lon": 0.0, "lat": 38.923547, "type": "electric_scooter", "name": "50f9b07a9a3034e767cb2a5d9efb62ed", "bike_id": "50f9b07a9a3034e767cb2a5d9efb62ed", "fusion_lat": 0.0, "lon": -77.0213265}, {"is_disabled": 0, "rental_uris": {"ios": "https://dc.lft.to/lastmile_qr_scan", "android": "https://dc.lft.to/lastmile_qr_scan"}, "is_reserved": 0, "fusion_lon": 0.0, "lat": 38.89219333333333, "type": "electric_scooter", "name": "009159e30f326dac560799e6e24b9c20", "bike_id": "009159e30f326dac560799e6e24b9c20", "fusion_lat": 0.0, "lon": -77.04684783333333}, {"is_disabled": 0, "rental_uris": {"ios": "https://dc.lft.to/lastmile_qr_scan", "android": "https://dc.lft.to/lastmile_qr_scan"}, "is_reserved": 0, "fusion_lon": 0.0, "lat": 38.9210345, "type": "electric_bike", "name": "18eae4a1f8abfd09ebb539a635d3be0d", "bike_id": "18eae4a1f8abfd09ebb539a635d3be0d", "fusion_lat": 0.0, "lon": -77.031956}, {"is_disabled": 0, "rental_uris": {"ios": "https://dc.lft.to/lastmile_qr_scan", "android": "https://dc.lft.to/lastmile_qr_scan"}, "is_reserved": 0, "fusion_lon": 0.0, "lat": 38.909766166666664, "type": "electric_scooter", "name": "cff15b4308c899a066b879ccea5af8df", "bike_id": "cff15b4308c899a066b879ccea5af8df", "fusion_lat": 0.0, "lon": -77.0441325}, {"is_disabled": 0, "rental_uris": {"ios": "https://dc.lft.to/lastmile_qr_scan", "android": "https://dc.lft.to/lastmile_qr_scan"}, "is_reserved": 0, "fusion_lon": 0.0, "lat": 38.91264016666667, "type": "electric_scooter", "name": "e5fd864e523ceb165a9395bcea35f2f9", "bike_id": "e5fd864e523ceb165a9395bcea35f2f9", "fusion_lat": 0.0, "lon": -77.03144216666666}, {"is_disabled": 0, "rental_uris": {"ios": "https://dc.lft.to/lastmile_qr_scan", "android": "https://dc.lft.to/lastmile_qr_scan"}, "is_reserved": 0, "fusion_lon": 0.0, "lat": 38.994104666666665, "type": "electric_bike", "name": "e8722d4449b0fb9ef599f66b7c3f4525", "bike_id": "e8722d4449b0fb9ef599f66b7c3f4525", "fusion_lat": 0.0, "lon": -77.0180055}, {"is_disabled": 0, "rental_uris": {"ios": "https://dc.lft.to/lastmile_qr_scan", "android": "https://dc.lft.to/lastmile_qr_scan"}, "is_reserved": 0, "fusion_lon": 0.0, "lat": 38.96777866666667, "type": "electric_bike", "name": "d7c714055f536fb108a80b485df15c18", "bike_id": "d7c714055f536fb108a80b485df15c18", "fusion_lat": 0.0, "lon": -76.9965695}, {"is_disabled": 0, "rental_uris": {"ios": "https://dc.lft.to/lastmile_qr_scan", "android": "https://dc.lft.to/lastmile_qr_scan"}, "is_reserved": 0, "fusion_lon": 0.0, "lat": 38.91679716666667, "type": "electric_scooter", "name": "dd1c6800791ed322c8b3e8e6a9e42413", "bike_id": "dd1c6800791ed322c8b3e8e6a9e42413", "fusion_lat": 0.0, "lon": -77.02289633333334}, {"is_disabled": 0, "rental_uris": {"ios": "https://dc.lft.to/lastmile_qr_scan", "android": "https://dc.lft.to/lastmile_qr_scan"}, "is_reserved": 0, "fusion_lon": 0.0, "lat": 38.89300266666667, "type": "electric_scooter", "name": "7495fb105bc47a3b11bdacb53e509186", "bike_id": "7495fb105bc47a3b11bdacb53e509186", "fusion_lat": 0.0, "lon": -76.9995945}, {"is_disabled": 0, "rental_uris": {"ios": "https://dc.lft.to/lastmile_qr_scan", "android": "https://dc.lft.to/lastmile_qr_scan"}, "is_reserved": 0, "fusion_lon": 0.0, "lat": 38.900308, "type": "electric_scooter", "name": "ff08abb97d1dcc31fb5949bb236fa652", "bike_id": "ff08abb97d1dcc31fb5949bb236fa652", "fusion_lat": 0.0, "lon": -77.03196483333333}, {"is_disabled": 0, "rental_uris": {"ios": "https://dc.lft.to/lastmile_qr_scan", "android": "https://dc.lft.to/lastmile_qr_scan"}, "is_reserved": 0, "fusion_lon": 0.0, "lat": 38.922143, "type": "electric_scooter", "name": "5d5503eefccbc720d100c4285527e791", "bike_id": "5d5503eefccbc720d100c4285527e791", "fusion_lat": 0.0, "lon": -77.04245816666666}, {"is_disabled": 0, "rental_uris": {"ios": "https://dc.lft.to/lastmile_qr_scan", "android": "https://dc.lft.to/lastmile_qr_scan"}, "is_reserved": 0, "fusion_lon": 0.0, "lat": 38.9224035, "type": "electric_scooter", "name": "e7349f88624738173a1e8cc159c26ca1", "bike_id": "e7349f88624738173a1e8cc159c26ca1", "fusion_lat": 0.0, "lon": -77.04016933333334}, {"is_disabled": 0, "rental_uris": {"ios": "https://dc.lft.to/lastmile_qr_scan", "android": "https://dc.lft.to/lastmile_qr_scan"}, "is_reserved": 0, "fusion_lon": 0.0, "lat": 38.909000166666665, "type": "electric_scooter", "name": "b081cbcd8768c6a84d1f5fadb162aaa0", "bike_id": "b081cbcd8768c6a84d1f5fadb162aaa0", "fusion_lat": 0.0, "lon": -77.004585}, {"is_disabled": 0, "rental_uris": {"ios": "https://dc.lft.to/lastmile_qr_scan", "android": "https://dc.lft.to/lastmile_qr_scan"}, "is_reserved": 0, "fusion_lon": 0.0, "lat": 38.92864616666667, "type": "electric_scooter", "name": "4cd6ea352debd144e3aa91f703046ae9", "bike_id": "4cd6ea352debd144e3aa91f703046ae9", "fusion_lat": 0.0, "lon": -77.03105783333334}, {"is_disabled": 0, "rental_uris": {"ios": "https://dc.lft.to/lastmile_qr_scan", "android": "https://dc.lft.to/lastmile_qr_scan"}, "is_reserved": 0, "fusion_lon": 0.0, "lat": 38.901608, "type": "electric_scooter", "name": "da072df9a68eeb3ad5f5e1e5443be5cd", "bike_id": "da072df9a68eeb3ad5f5e1e5443be5cd", "fusion_lat": 0.0, "lon": -77.05083266666666}, {"is_disabled": 0, "rental_uris": {"ios": "https://dc.lft.to/lastmile_qr_scan", "android": "https://dc.lft.to/lastmile_qr_scan"}, "is_reserved": 0, "fusion_lon": 0.0, "lat": 38.8987315, "type": "electric_scooter", "name": "00ae2c6258dd915e47df1befc48ba77f", "bike_id": "00ae2c6258dd915e47df1befc48ba77f", "fusion_lat": 0.0, "lon": -76.93188683333334}, {"is_disabled": 0, "rental_uris": {"ios": "https://dc.lft.to/lastmile_qr_scan", "android": "https://dc.lft.to/lastmile_qr_scan"}, "is_reserved": 0, "fusion_lon": 0.0, "lat": 38.917094, "type": "electric_scooter", "name": "56630c537a45475928c09bbaeef30e1b", "bike_id": "56630c537a45475928c09bbaeef30e1b", "fusion_lat": 0.0, "lon": -77.03345516666667}, {"is_disabled": 0, "rental_uris": {"ios": "https://dc.lft.to/lastmile_qr_scan", "android": "https://dc.lft.to/lastmile_qr_scan"}, "is_reserved": 0, "fusion_lon": 0.0, "lat": 38.91684733333334, "type": "electric_scooter", "name": "7dac064b1eb90b89113293f599cceab6", "bike_id": "7dac064b1eb90b89113293f599cceab6", "fusion_lat": 0.0, "lon": -77.037525}, {"is_disabled": 0, "rental_uris": {"ios": "https://dc.lft.to/lastmile_qr_scan", "android": "https://dc.lft.to/lastmile_qr_scan"}, "is_reserved": 0, "fusion_lon": 0.0, "lat": 38.89833516666667, "type": "electric_scooter", "name": "980ca4bf09f2078aaa6b990fd2f73cfe", "bike_id": "980ca4bf09f2078aaa6b990fd2f73cfe", "fusion_lat": 0.0, "lon": -76.92605816666666}, {"is_disabled": 0, "rental_uris": {"ios": "https://dc.lft.to/lastmile_qr_scan", "android": "https://dc.lft.to/lastmile_qr_scan"}, "is_reserved": 0, "fusion_lon": 0.0, "lat": 38.940507333333336, "type": "electric_scooter", "name": "9b118fd9e1510dc78e79eba26c0bb62e", "bike_id": "9b118fd9e1510dc78e79eba26c0bb62e", "fusion_lat": 0.0, "lon": -77.0297505}, {"is_disabled": 0, "rental_uris": {"ios": "https://dc.lft.to/lastmile_qr_scan", "android": "https://dc.lft.to/lastmile_qr_scan"}, "is_reserved": 0, "fusion_lon": 0.0, "lat": 38.8954885, "type": "electric_scooter", "name": "7de38796bbbe0697e2b26dc78c04f90c", "bike_id": "7de38796bbbe0697e2b26dc78c04f90c", "fusion_lat": 0.0, "lon": -77.02940383333333}, {"is_disabled": 0, "rental_uris": {"ios": "https://dc.lft.to/lastmile_qr_scan", "android": "https://dc.lft.to/lastmile_qr_scan"}, "is_reserved": 0, "fusion_lon": 0.0, "lat": 38.90783783333333, "type": "electric_scooter", "name": "d623b4db363f08ea944c3b4152a1db54", "bike_id": "d623b4db363f08ea944c3b4152a1db54", "fusion_lat": 0.0, "lon": -76.99708483333333}, {"is_disabled": 0, "rental_uris": {"ios": "https://dc.lft.to/lastmile_qr_scan", "android": "https://dc.lft.to/lastmile_qr_scan"}, "is_reserved": 0, "fusion_lon": 0.0, "lat": 38.9148305, "type": "electric_scooter", "name": "5a62e580708ecdfa49be3cedb129d04c", "bike_id": "5a62e580708ecdfa49be3cedb129d04c", "fusion_lat": 0.0, "lon": -77.01851816666667}, {"is_disabled": 0, "rental_uris": {"ios": "https://dc.lft.to/lastmile_qr_scan", "android": "https://dc.lft.to/lastmile_qr_scan"}, "is_reserved": 0, "fusion_lon": 0.0, "lat": 38.936615833333335, "type": "electric_scooter", "name": "ca91a623b315a607fcc093887d53815d", "bike_id": "ca91a623b315a607fcc093887d53815d", "fusion_lat": 0.0, "lon": -77.06613}, {"is_disabled": 0, "rental_uris": {"ios": "https://dc.lft.to/lastmile_qr_scan", "android": "https://dc.lft.to/lastmile_qr_scan"}, "is_reserved": 0, "fusion_lon": 0.0, "lat": 38.89224733333333, "type": "electric_scooter", "name": "3c8f9feefe1d758247a2ace5eb940922", "bike_id": "3c8f9feefe1d758247a2ace5eb940922", "fusion_lat": 0.0, "lon": -77.03339216666667}, {"is_disabled": 0, "rental_uris": {"ios": "https://dc.lft.to/lastmile_qr_scan", "android": "https://dc.lft.to/lastmile_qr_scan"}, "is_reserved": 0, "fusion_lon": 0.0, "lat": 38.8925625, "type": "electric_scooter", "name": "0f2b7d12d7b51d845ce88cba065696c6", "bike_id": "0f2b7d12d7b51d845ce88cba065696c6", "fusion_lat": 0.0, "lon": -77.04659366666667}, {"is_disabled": 0, "rental_uris": {"ios": "https://dc.lft.to/lastmile_qr_scan", "android": "https://dc.lft.to/lastmile_qr_scan"}, "is_reserved": 0, "fusion_lon": 0.0, "lat": 38.89403983333333, "type": "electric_scooter", "name": "7daf508dca2ade1fa56eb6025e1641ce", "bike_id": "7daf508dca2ade1fa56eb6025e1641ce", "fusion_lat": 0.0, "lon": -77.03210383333334}, {"is_disabled": 0, "rental_uris": {"ios": "https://dc.lft.to/lastmile_qr_scan", "android": "https://dc.lft.to/lastmile_qr_scan"}, "is_reserved": 0, "fusion_lon": 0.0, "lat": 38.922396166666665, "type": "electric_scooter", "name": "b8c6f1d78dc41018e841b08249201b92", "bike_id": "b8c6f1d78dc41018e841b08249201b92", "fusion_lat": 0.0, "lon": -77.03897083333334}, {"is_disabled": 0, "rental_uris": {"ios": "https://dc.lft.to/lastmile_qr_scan", "android": "https://dc.lft.to/lastmile_qr_scan"}, "is_reserved": 0, "fusion_lon": 0.0, "lat": 38.887079166666666, "type": "electric_scooter", "name": "be181add507e9a9e677373d0b24e30b5", "bike_id": "be181add507e9a9e677373d0b24e30b5", "fusion_lat": 0.0, "lon": -76.98343266666667}, {"is_disabled": 0, "rental_uris": {"ios": "https://dc.lft.to/lastmile_qr_scan", "android": "https://dc.lft.to/lastmile_qr_scan"}, "is_reserved": 0, "fusion_lon": 0.0, "lat": 38.918397166666665, "type": "electric_scooter", "name": "7ebe6c8176bd5de61c75f29e653408ac", "bike_id": "7ebe6c8176bd5de61c75f29e653408ac", "fusion_lat": 0.0, "lon": -77.041152}, {"is_disabled": 0, "rental_uris": {"ios": "https://dc.lft.to/lastmile_qr_scan", "android": "https://dc.lft.to/lastmile_qr_scan"}, "is_reserved": 0, "fusion_lon": 0.0, "lat": 38.80382733333333, "type": "electric_bike", "name": "c6547a6b21c1ec3dcb4aaa0e5d4badcd", "bike_id": "c6547a6b21c1ec3dcb4aaa0e5d4badcd", "fusion_lat": 0.0, "lon": -76.98815633333334}, {"is_disabled": 0, "rental_uris": {"ios": "https://dc.lft.to/lastmile_qr_scan", "android": "https://dc.lft.to/lastmile_qr_scan"}, "is_reserved": 0, "fusion_lon": 0.0, "lat": 38.901990166666664, "type": "electric_scooter", "name": "b83e45c29bfc0d3ff2d9e6afc92b7f82", "bike_id": "b83e45c29bfc0d3ff2d9e6afc92b7f82", "fusion_lat": 0.0, "lon": -77.034008}, {"is_disabled": 0, "rental_uris": {"ios": "https://dc.lft.to/lastmile_qr_scan", "android": "https://dc.lft.to/lastmile_qr_scan"}, "is_reserved": 0, "fusion_lon": 0.0, "lat": 38.902672333333335, "type": "electric_scooter", "name": "f9ece3de14eb10ae6eb74660511b6a21", "bike_id": "f9ece3de14eb10ae6eb74660511b6a21", "fusion_lat": 0.0, "lon": -77.03594183333334}, {"is_disabled": 0, "rental_uris": {"ios": "https://dc.lft.to/lastmile_qr_scan", "android": "https://dc.lft.to/lastmile_qr_scan"}, "is_reserved": 0, "fusion_lon": 0.0, "lat": 38.911085666666665, "type": "electric_scooter", "name": "3cd676d715265e3c1a02974cf0941537", "bike_id": "3cd676d715265e3c1a02974cf0941537", "fusion_lat": 0.0, "lon": -77.00602733333334}, {"is_disabled": 0, "rental_uris": {"ios": "https://dc.lft.to/lastmile_qr_scan", "android": "https://dc.lft.to/lastmile_qr_scan"}, "is_reserved": 0, "fusion_lon": 0.0, "lat": 38.92494716666667, "type": "electric_scooter", "name": "18d5db59b1a975246d2e4b78d5cb1d6d", "bike_id": "18d5db59b1a975246d2e4b78d5cb1d6d", "fusion_lat": 0.0, "lon": -77.02152816666667}, {"is_disabled": 0, "rental_uris": {"ios": "https://dc.lft.to/lastmile_qr_scan", "android": "https://dc.lft.to/lastmile_qr_scan"}, "is_reserved": 0, "fusion_lon": 0.0, "lat": 38.870832, "type": "electric_bike", "name": "28df0c8b99d27d5c1c598906e9d351e3", "bike_id": "28df0c8b99d27d5c1c598906e9d351e3", "fusion_lat": 0.0, "lon": -77.13334966666666}, {"is_disabled": 0, "rental_uris": {"ios": "https://dc.lft.to/lastmile_qr_scan", "android": "https://dc.lft.to/lastmile_qr_scan"}, "is_reserved": 0, "fusion_lon": 0.0, "lat": 38.906776, "type": "electric_scooter", "name": "f53af72aab4ebcc2857d38209f973fc5", "bike_id": "f53af72aab4ebcc2857d38209f973fc5", "fusion_lat": 0.0, "lon": -76.98378566666666}, {"is_disabled": 0, "rental_uris": {"ios": "https://dc.lft.to/lastmile_qr_scan", "android": "https://dc.lft.to/lastmile_qr_scan"}, "is_reserved": 0, "fusion_lon": 0.0, "lat": 38.9102985, "type": "electric_bike", "name": "8cd40393ed6254a49a489b8fd6daef16", "bike_id": "8cd40393ed6254a49a489b8fd6daef16", "fusion_lat": 0.0, "lon": -77.0489265}, {"is_disabled": 0, "rental_uris": {"ios": "https://dc.lft.to/lastmile_qr_scan", "android": "https://dc.lft.to/lastmile_qr_scan"}, "is_reserved": 0, "fusion_lon": 0.0, "lat": 38.8464385, "type": "electric_scooter", "name": "67ee54670a0d0f330040cb4eda5521e0", "bike_id": "67ee54670a0d0f330040cb4eda5521e0", "fusion_lat": 0.0, "lon": -77.003685}, {"is_disabled": 0, "rental_uris": {"ios": "https://dc.lft.to/lastmile_qr_scan", "android": "https://dc.lft.to/lastmile_qr_scan"}, "is_reserved": 0, "fusion_lon": 0.0, "lat": 38.91356483333333, "type": "electric_scooter", "name": "a89d14fec1465172346ca001ebcb1991", "bike_id": "a89d14fec1465172346ca001ebcb1991", "fusion_lat": 0.0, "lon": -77.02053816666667}, {"is_disabled": 0, "rental_uris": {"ios": "https://dc.lft.to/lastmile_qr_scan", "android": "https://dc.lft.to/lastmile_qr_scan"}, "is_reserved": 0, "fusion_lon": 0.0, "lat": 38.897922666666666, "type": "electric_scooter", "name": "577f3d06a8a28ca5b00b0506cf8ea1df", "bike_id": "577f3d06a8a28ca5b00b0506cf8ea1df", "fusion_lat": 0.0, "lon": -77.01199333333334}, {"is_disabled": 0, "rental_uris": {"ios": "https://dc.lft.to/lastmile_qr_scan", "android": "https://dc.lft.to/lastmile_qr_scan"}, "is_reserved": 0, "fusion_lon": 0.0, "lat": 38.899614, "type": "electric_scooter", "name": "aae00415f47b656843298dba85a5038c", "bike_id": "aae00415f47b656843298dba85a5038c", "fusion_lat": 0.0, "lon": -77.04719783333333}, {"is_disabled": 0, "rental_uris": {"ios": "https://dc.lft.to/lastmile_qr_scan", "android": "https://dc.lft.to/lastmile_qr_scan"}, "is_reserved": 0, "fusion_lon": 0.0, "lat": 38.88025016666667, "type": "electric_scooter", "name": "992b586546b1105ceab49e74713d78a4", "bike_id": "992b586546b1105ceab49e74713d78a4", "fusion_lat": 0.0, "lon": -76.94325966666666}, {"is_disabled": 0, "rental_uris": {"ios": "https://dc.lft.to/lastmile_qr_scan", "android": "https://dc.lft.to/lastmile_qr_scan"}, "is_reserved": 0, "fusion_lon": 0.0, "lat": 38.913131166666666, "type": "electric_scooter", "name": "f6fa6d64ffdcbd849a69ad6e94d4a640", "bike_id": "f6fa6d64ffdcbd849a69ad6e94d4a640", "fusion_lat": 0.0, "lon": -77.03195883333333}, {"is_disabled": 0, "rental_uris": {"ios": "https://dc.lft.to/lastmile_qr_scan", "android": "https://dc.lft.to/lastmile_qr_scan"}, "is_reserved": 0, "fusion_lon": 0.0, "lat": 38.90050383333333, "type": "electric_scooter", "name": "5ed3099156f37ff2b993951195398351", "bike_id": "5ed3099156f37ff2b993951195398351", "fusion_lat": 0.0, "lon": -77.01795733333333}, {"is_disabled": 0, "rental_uris": {"ios": "https://dc.lft.to/lastmile_qr_scan", "android": "https://dc.lft.to/lastmile_qr_scan"}, "is_reserved": 0, "fusion_lon": 0.0, "lat": 38.92731833333333, "type": "electric_scooter", "name": "28c29bb94db1b2826a2dbb0df097be2f", "bike_id": "28c29bb94db1b2826a2dbb0df097be2f", "fusion_lat": 0.0, "lon": -77.02309133333333}, {"is_disabled": 0, "rental_uris": {"ios": "https://dc.lft.to/lastmile_qr_scan", "android": "https://dc.lft.to/lastmile_qr_scan"}, "is_reserved": 0, "fusion_lon": 0.0, "lat": 38.90717516666667, "type": "electric_scooter", "name": "0e0d22507f9068427b4113a7382b1d51", "bike_id": "0e0d22507f9068427b4113a7382b1d51", "fusion_lat": 0.0, "lon": -77.02795883333333}, {"is_disabled": 0, "rental_uris": {"ios": "https://dc.lft.to/lastmile_qr_scan", "android": "https://dc.lft.to/lastmile_qr_scan"}, "is_reserved": 0, "fusion_lon": 0.0, "lat": 38.92269816666666, "type": "electric_scooter", "name": "12ba747f9c2df3ff3e65b7194c0279a5", "bike_id": "12ba747f9c2df3ff3e65b7194c0279a5", "fusion_lat": 0.0, "lon": -77.03668416666666}, {"is_disabled": 0, "rental_uris": {"ios": "https://dc.lft.to/lastmile_qr_scan", "android": "https://dc.lft.to/lastmile_qr_scan"}, "is_reserved": 0, "fusion_lon": 0.0, "lat": 38.9236515, "type": "electric_scooter", "name": "26e3346ec359588743af3e1a88590db3", "bike_id": "26e3346ec359588743af3e1a88590db3", "fusion_lat": 0.0, "lon": -77.04103016666667}, {"is_disabled": 0, "rental_uris": {"ios": "https://dc.lft.to/lastmile_qr_scan", "android": "https://dc.lft.to/lastmile_qr_scan"}, "is_reserved": 0, "fusion_lon": 0.0, "lat": 38.897532166666664, "type": "electric_scooter", "name": "724207f5cafec26d1677d778bd81be31", "bike_id": "724207f5cafec26d1677d778bd81be31", "fusion_lat": 0.0, "lon": -77.02507583333333}, {"is_disabled": 0, "rental_uris": {"ios": "https://dc.lft.to/lastmile_qr_scan", "android": "https://dc.lft.to/lastmile_qr_scan"}, "is_reserved": 0, "fusion_lon": 0.0, "lat": 38.90502766666667, "type": "electric_scooter", "name": "debe15cd7e5c2dac87ebfd8a300d9a37", "bike_id": "debe15cd7e5c2dac87ebfd8a300d9a37", "fusion_lat": 0.0, "lon": -77.0515315},