{"data": {"bikes": [{"lon": -76.99013133333334, "bike_id": "a66fb53c0b57751d7a285e20db352d72", "lat": 38.94600633333334, "fusion_lon": 0.0, "fusion_lat": 0.0, "type": "electric_scooter", "name": "a66fb53c0b57751d7a285e20db352d72", "is_disabled": 0, "rental_uris": {"ios": "https://dc.lft.to/lastmile_qr_scan", "android": "https://dc.lft.to/lastmile_qr_scan"}, "is_reserved": 0}, {"lon": -77.0386925, "bike_id": "d1b6e9167a078bd733c905cab6a59f9a", "lat": 38.92014733333333, "fusion_lon": 0.0, "fusion_lat": 0.0, "type": "electric_scooter", "name": "d1b6e9167a078bd733c905cab6a59f9a", "is_disabled": 0, "rental_uris": {"ios": "https://dc.lft.to/lastmile_qr_scan", "android": "https://dc.lft.to/lastmile_qr_scan"}, "is_reserved": 0}, {"lon": -76.99367683333334, "bike_id": "52fc2c8b8ad405982e97d4a21e6e91e1", "lat": 38.940263, "fusion_lon": 0.0, "fusion_lat": 0.0, "type": "electric_scooter", "name": "52fc2c8b8ad405982e97d4a21e6e91e1", "is_disabled": 0, "rental_uris": {"ios": "https://dc.lft.to/lastmile_qr_scan", "android": "https://dc.lft.to/lastmile_qr_scan"}, "is_reserved": 0}, {"lon": -76.9450755, "bike_id": "0a18b1aed950af42e0ef660c88d96e32", "lat": 38.8648375, "fusion_lon": 0.0, "fusion_lat": 0.0, "type": "electric_bike", "name": "0a18b1aed950af42e0ef660c88d96e32", "is_disabled": 0, "rental_uris": {"ios": "https://dc.lft.to/lastmile_qr_scan", "android": "https://dc.lft.to/lastmile_qr_scan"}, "is_reserved": 0}, {"lon": -77.0366425, "bike_id": "96ec1488f068c7d3c5f660a8cadb4e04", "lat": 38.929872833333334, "fusion_lon": 0.0, "fusion_lat": 0.0, "type": "electric_scooter", "name": "96ec1488f068c7d3c5f660a8cadb4e04", "is_disabled": 0, "rental_uris": {"ios": "https://dc.lft.to/lastmile_qr_scan", "android": "https://dc.lft.to/lastmile_qr_scan"}, "is_reserved": 0}, {"lon": -77.05145683333333, "bike_id": "0b6bfc833f34c87fd71b4bf7d7daec55", "lat": 38.89865133333333, "fusion_lon": 0.0, "fusion_lat": 0.0, "type": "electric_scooter", "name": "0b6bfc833f34c87fd71b4bf7d7daec55", "is_disabled": 0, "rental_uris": {"ios": "https://dc.lft.to/lastmile_qr_scan", "android": "https://dc.lft.to/lastmile_qr_scan"}, "is_reserved": 0}, {"lon": -77.049808, "bike_id": "5185687b7726981d590e37aa77b0c1f8", "lat": 39.062969, "fusion_lon": 0.0, "fusion_lat": 0.0, "type": "electric_bike", "name": "5185687b7726981d590e37aa77b0c1f8", "is_disabled": 0, "rental_uris": {"ios": "https://dc.lft.to/lastmile_qr_scan", "android": "https://dc.lft.to/lastmile_qr_scan"}, "is_reserved": 0}, {"lon": -76.99850783333333, "bike_id": "b90ef27d5e1cc2c4807c5780d5fe12c9", "lat": 38.90103283333333, "fusion_lon": 0.0, "fusion_lat": 0.0, "type": "electric_scooter", "name": "b90ef27d5e1cc2c4807c5780d5fe12c9", "is_disabled": 0, "rental_uris": {"ios": "https://dc.lft.to/lastmile_qr_scan", "android": "https://dc.lft.to/lastmile_qr_scan"}, "is_reserved": 0}, {"lon": -76.98096316666667, "bike_id": "69fe9e884c3a5714675856d4cfb18264", "lat": 38.89553433333333, "fusion_lon": 0.0, "fusion_lat": 0.0, "type": "electric_scooter", "name": "69fe9e884c3a5714675856d4cfb18264", "is_disabled": 0, "rental_uris": {"ios": "https://dc.lft.to/lastmile_qr_scan", "android": "https://dc.lft.to/lastmile_qr_scan"}, "is_reserved": 0}, {"lon": -77.0193645, "bike_id": "46ad0996d7f55c20939ecc544ce70c6a", "lat": 38.935919, "fusion_lon": 0.0, "fusion_lat": 0.0, "type": "electric_bike", "name": "46ad0996d7f55c20939ecc544ce70c6a", "is_disabled": 0, "rental_uris": {"ios": "https://dc.lft.to/lastmile_qr_scan", "android": "https://dc.lft.to/lastmile_qr_scan"}, "is_reserved": 0}, {"lon": -76.96152966666666, "bike_id": "9df0a01654f3a62aa27639e9c25e28e2", "lat": 38.88357366666666, "fusion_lon": 0.0, "fusion_lat": 0.0, "type": "electric_scooter", "name": "9df0a01654f3a62aa27639e9c25e28e2", "is_disabled": 0, "rental_uris": {"ios": "https://dc.lft.to/lastmile_qr_scan", "android": "https://dc.lft.to/lastmile_qr_scan"}, "is_reserved": 0}, {"lon": -77.00575216666667, "bike_id": "fbe3b35477fcb14c40cacdc365dbfc07", "lat": 38.884358666666664, "fusion_lon": 0.0, "fusion_lat": 0.0, "type": "electric_scooter", "name": "fbe3b35477fcb14c40cacdc365dbfc07", "is_disabled": 0, "rental_uris": {"ios": "https://dc.lft.to/lastmile_qr_scan", "android": "https://dc.lft.to/lastmile_qr_scan"}, "is_reserved": 0}, {"lon": -76.99860016666666, "bike_id": "084e036891fee6025951c2db8ba21dde", "lat": 38.90028216666666, "fusion_lon": 0.0, "fusion_lat": 0.0, "type": "electric_scooter", "name": "084e036891fee6025951c2db8ba21dde", "is_disabled": 0, "rental_uris": {"ios": "https://dc.lft.to/lastmile_qr_scan", "android": "https://dc.lft.to/lastmile_qr_scan"}, "is_reserved": 0}, {"lon": -77.03678316666667, "bike_id": "f36e5f33cd53f6d0500170ca38254624", "lat": 38.9190955, "fusion_lon": 0.0, "fusion_lat": 0.0, "type": "electric_scooter", "name": "f36e5f33cd53f6d0500170ca38254624", "is_disabled": 0, "rental_uris": {"ios": "https://dc.lft.to/lastmile_qr_scan", "android": "https://dc.lft.to/lastmile_qr_scan"}, "is_reserved": 0}, {"lon": -76.96773133333333, "bike_id": "d056337bf8d094df7cecf3ddd731a087", "lat": 38.8685185, "fusion_lon": 0.0, "fusion_lat": 0.0, "type": "electric_scooter", "name": "d056337bf8d094df7cecf3ddd731a087", "is_disabled": 0, "rental_uris": {"ios": "https://dc.lft.to/lastmile_qr_scan", "android": "https://dc.lft.to/lastmile_qr_scan"}, "is_reserved": 0}, {"lon": -76.998449, "bike_id": "e58384ae2f8112932b6e9fb8871e6ab5", "lat": 38.902162833333335, "fusion_lon": 0.0, "fusion_lat": 0.0, "type": "electric_scooter", "name": "e58384ae2f8112932b6e9fb8871e6ab5", "is_disabled": 0, "rental_uris": {"ios": "https://dc.lft.to/lastmile_qr_scan", "android": "https://dc.lft.to/lastmile_qr_scan"}, "is_reserved": 0}, {"lon": -77.02403866666667, "bike_id": "a0a60b7079ac16079a6af02dbabb4d66", "lat": 38.907426, "fusion_lon": 0.0, "fusion_lat": 0.0, "type": "electric_scooter", "name": "a0a60b7079ac16079a6af02dbabb4d66", "is_disabled": 0, "rental_uris": {"ios": "https://dc.lft.to/lastmile_qr_scan", "android": "https://dc.lft.to/lastmile_qr_scan"}, "is_reserved": 0}, {"lon": -76.95368066666667, "bike_id": "31d4862015769c1886ffa04566ebfc89", "lat": 38.89204466666666, "fusion_lon": 0.0, "fusion_lat": 0.0, "type": "electric_scooter", "name": "31d4862015769c1886ffa04566ebfc89", "is_disabled": 0, "rental_uris": {"ios": "https://dc.lft.to/lastmile_qr_scan", "android": "https://dc.lft.to/lastmile_qr_scan"}, "is_reserved": 0}, {"lon": -77.038662, "bike_id": "f186d20bf2199a8d68fac94a19bb610a", "lat": 38.945032, "fusion_lon": 0.0, "fusion_lat": 0.0, "type": "electric_scooter", "name": "f186d20bf2199a8d68fac94a19bb610a", "is_disabled": 0, "rental_uris": {"ios": "https://dc.lft.to/lastmile_qr_scan", "android": "https://dc.lft.to/lastmile_qr_scan"}, "is_reserved": 0}, {"lon": -77.038908, "bike_id": "312e042876a9c22f0ab8d8b11534c3ba", "lat": 38.90998483333333, "fusion_lon": 0.0, "fusion_lat": 0.0, "type": "electric_scooter", "name": "312e042876a9c22f0ab8d8b11534c3ba", "is_disabled": 0, "rental_uris": {"ios": "https://dc.lft.to/lastmile_qr_scan", "android": "https://dc.lft.to/lastmile_qr_scan"}, "is_reserved": 0}, {"lon": -77.03840133333334, "bike_id": "e07f22119aae93305427c224c468aba5", "lat": 38.9100255, "fusion_lon": 0.0, "fusion_lat": 0.0, "type": "electric_scooter", "name": "e07f22119aae93305427c224c468aba5", "is_disabled": 0, "rental_uris": {"ios": "https://dc.lft.to/lastmile_qr_scan", "android": "https://dc.lft.to/lastmile_qr_scan"}, "is_reserved": 0}, {"lon": -77.02570366666667, "bike_id": "9b22e91d31f983fba1a876b6990d7091", "lat": 38.897355833333336, "fusion_lon": 0.0, "fusion_lat": 0.0, "type": "electric_scooter", "name": "9b22e91d31f983fba1a876b6990d7091", "is_disabled": 0, "rental_uris": {"ios": "https://dc.lft.to/lastmile_qr_scan", "android": "https://dc.lft.to/lastmile_qr_scan"}, "is_reserved": 0}, {"lon": -76.99464783333333, "bike_id": "f3e224ce56294b8bed65272ee49c84b3", "lat": 38.940671, "fusion_lon": 0.0, "fusion_lat": 0.0, "type": "electric_scooter", "name": "f3e224ce56294b8bed65272ee49c84b3", "is_disabled": 0, "rental_uris": {"ios": "https://dc.lft.to/lastmile_qr_scan", "android": "https://dc.lft.to/lastmile_qr_scan"}, "is_reserved": 0}, {"lon": -77.02440066666666, "bike_id": "5c8dda02bc76b5a7c0f9fdd454c35d11", "lat": 38.88358816666667, "fusion_lon": 0.0, "fusion_lat": 0.0, "type": "electric_scooter", "name": "5c8dda02bc76b5a7c0f9fdd454c35d11", "is_disabled": 0, "rental_uris": {"ios": "https://dc.lft.to/lastmile_qr_scan", "android": "https://dc.lft.to/lastmile_qr_scan"}, "is_reserved": 0}, {"lon": -77.03837283333333, "bike_id": "ea3abf4fe1a40a7fb4438f819625e2f2", "lat": 38.916912333333336, "fusion_lon": 0.0, "fusion_lat": 0.0, "type": "electric_scooter", "name": "ea3abf4fe1a40a7fb4438f819625e2f2", "is_disabled": 0, "rental_uris": {"ios": "https://dc.lft.to/lastmile_qr_scan", "android": "https://dc.lft.to/lastmile_qr_scan"}, "is_reserved": 0}, {"lon": -76.98803033333333, "bike_id": "d41a15685e1e51e834b226cca1cec850", "lat": 38.867289, "fusion_lon": 0.0, "fusion_lat": 0.0, "type": "electric_scooter", "name": "d41a15685e1e51e834b226cca1cec850", "is_disabled": 0, "rental_uris": {"ios": "https://dc.lft.to/lastmile_qr_scan", "android": "https://dc.lft.to/lastmile_qr_scan"}, "is_reserved": 0}, {"lon": -77.00615833333333, "bike_id": "bcf3a44d4bd808c24e1802bd2ad69ffb", "lat": 38.90007716666667, "fusion_lon": 0.0, "fusion_lat": 0.0, "type": "electric_scooter", "name": "bcf3a44d4bd808c24e1802bd2ad69ffb", "is_disabled": 0, "rental_uris": {"ios": "https://dc.lft.to/lastmile_qr_scan", "android": "https://dc.lft.to/lastmile_qr_scan"}, "is_reserved": 0}, {"lon": -76.976721, "bike_id": "65f92cdd25bb12eaaf32453a1c680f3b", "lat": 38.95244833333334, "fusion_lon": 0.0, "fusion_lat": 0.0, "type": "electric_bike", "name": "65f92cdd25bb12eaaf32453a1c680f3b", "is_disabled": 0, "rental_uris": {"ios": "https://dc.lft.to/lastmile_qr_scan", "android": "https://dc.lft.to/lastmile_qr_scan"}, "is_reserved": 0}, {"lon": -77.07928066666666, "bike_id": "1bab4f0df756c1af26e4a2fea2b800dd", "lat": 38.93110683333333, "fusion_lon": 0.0, "fusion_lat": 0.0, "type": "electric_scooter", "name": "1bab4f0df756c1af26e4a2fea2b800dd", "is_disabled": 0, "rental_uris": {"ios": "https://dc.lft.to/lastmile_qr_scan", "android": "https://dc.lft.to/lastmile_qr_scan"}, "is_reserved": 0}, {"lon": -77.03599333333334, "bike_id": "7c7f868549474511590d16ab6646fae6", "lat": 38.93941183333333, "fusion_lon": 0.0, "fusion_lat": 0.0, "type": "electric_scooter", "name": "7c7f868549474511590d16ab6646fae6", "is_disabled": 0, "rental_uris": {"ios": "https://dc.lft.to/lastmile_qr_scan", "android": "https://dc.lft.to/lastmile_qr_scan"}, "is_reserved": 0}, {"lon": -77.02445316666666, "bike_id": "2c3aff9875b84de4fc138a036e78acdc", "lat": 38.92507916666667, "fusion_lon": 0.0, "fusion_lat": 0.0, "type": "electric_scooter", "name": "2c3aff9875b84de4fc138a036e78acdc", "is_disabled": 0, "rental_uris": {"ios": "https://dc.lft.to/lastmile_qr_scan", "android": "https://dc.lft.to/lastmile_qr_scan"}, "is_reserved": 0}, {"lon": -77.00678033333334, "bike_id": "3b51c29322b6d8c750ee5e1590c296a4", "lat": 38.9000985, "fusion_lon": 0.0, "fusion_lat": 0.0, "type": "electric_scooter", "name": "3b51c29322b6d8c750ee5e1590c296a4", "is_disabled": 0, "rental_uris": {"ios": "https://dc.lft.to/lastmile_qr_scan", "android": "https://dc.lft.to/lastmile_qr_scan"}, "is_reserved": 0}, {"lon": -77.03258983333333, "bike_id": "d33bd74ee2ef9ddf86985cbabf3e9be6", "lat": 38.905931333333335, "fusion_lon": 0.0, "fusion_lat": 0.0, "type": "electric_scooter", "name": "d33bd74ee2ef9ddf86985cbabf3e9be6", "is_disabled": 0, "rental_uris": {"ios": "https://dc.lft.to/lastmile_qr_scan", "android": "https://dc.lft.to/lastmile_qr_scan"}, "is_reserved": 0}, {"lon": -77.0178865, "bike_id": "ebb1361914bd3283f15f5bafae1a1f7a", "lat": 38.903952, "fusion_lon": 0.0, "fusion_lat": 0.0, "type": "electric_scooter", "name": "ebb1361914bd3283f15f5bafae1a1f7a", "is_disabled": 0, "rental_uris": {"ios": "https://dc.lft.to/lastmile_qr_scan", "android": "https://dc.lft.to/lastmile_qr_scan"}, "is_reserved": 0}, {"lon": -77.03640633333333, "bike_id": "3a0124104298375b995c3be90eb031c5", "lat": 38.917379, "fusion_lon": 0.0, "fusion_lat": 0.0, "type": "electric_scooter", "name": "3a0124104298375b995c3be90eb031c5", "is_disabled": 0, "rental_uris": {"ios": "https://dc.lft.to/lastmile_qr_scan", "android": "https://dc.lft.to/lastmile_qr_scan"}, "is_reserved": 0}, {"lon": -77.03022366666667, "bike_id": "f47f1165e0de89971d13221fc0e18843", "lat": 38.896153, "fusion_lon": 0.0, "fusion_lat": 0.0, "type": "electric_scooter", "name": "f47f1165e0de89971d13221fc0e18843", "is_disabled": 0, "rental_uris": {"ios": "https://dc.lft.to/lastmile_qr_scan", "android": "https://dc.lft.to/lastmile_qr_scan"}, "is_reserved": 0}, {"lon": -76.98154016666666, "bike_id": "da850b74af497ddc3f657046e89a68be", "lat": 38.903217, "fusion_lon": 0.0, "fusion_lat": 0.0, "type": "electric_scooter", "name": "da850b74af497ddc3f657046e89a68be", "is_disabled": 0, "rental_uris": {"ios": "https://dc.lft.to/lastmile_qr_scan", "android": "https://dc.lft.to/lastmile_qr_scan"}, "is_reserved": 0}, {"lon": -77.0384905, "bike_id": "d74137b7481ccd26ab34adc8f564cef4", "lat": 38.916234833333334, "fusion_lon": 0.0, "fusion_lat": 0.0, "type": "electric_scooter", "name": "d74137b7481ccd26ab34adc8f564cef4", "is_disabled": 0, "rental_uris": {"ios": "https://dc.lft.to/lastmile_qr_scan", "android": "https://dc.lft.to/lastmile_qr_scan"}, "is_reserved": 0}, {"lon": -77.18744516666666, "bike_id": "3184d65d81c9f1ad43e660a70130aabb", "lat": 38.893541666666664, "fusion_lon": 0.0, "fusion_lat": 0.0, "type": "electric_bike", "name": "3184d65d81c9f1ad43e660a70130aabb", "is_disabled": 0, "rental_uris": {"ios": "https://dc.lft.to/lastmile_qr_scan", "android": "https://dc.lft.to/lastmile_qr_scan"}, "is_reserved": 0}, {"lon": -77.08458, "bike_id": "b226fce1e7e7c7bb08cdd0089f108428", "lat": 38.84817566666667, "fusion_lon": 0.0, "fusion_lat": 0.0, "type": "electric_bike", "name": "b226fce1e7e7c7bb08cdd0089f108428", "is_disabled": 0, "rental_uris": {"ios": "https://dc.lft.to/lastmile_qr_scan", "android": "https://dc.lft.to/lastmile_qr_scan"}, "is_reserved": 0}, {"lon": -77.03262616666666, "bike_id": "a1087781f6588a1ee1b2c35cf2ad74d0", "lat": 38.914038, "fusion_lon": 0.0, "fusion_lat": 0.0, "type": "electric_scooter", "name": "a1087781f6588a1ee1b2c35cf2ad74d0", "is_disabled": 0, "rental_uris": {"ios": "https://dc.lft.to/lastmile_qr_scan", "android": "https://dc.lft.to/lastmile_qr_scan"}, "is_reserved": 0}, {"lon": -77.03815516666667, "bike_id": "d50c0d349d1b2d022006af9ecfd5161c", "lat": 38.91039583333333, "fusion_lon": 0.0, "fusion_lat": 0.0, "type": "electric_scooter", "name": "d50c0d349d1b2d022006af9ecfd5161c", "is_disabled": 0, "rental_uris": {"ios": "https://dc.lft.to/lastmile_qr_scan", "android": "https://dc.lft.to/lastmile_qr_scan"}, "is_reserved": 0}, {"lon": -77.01334633333333, "bike_id": "2d387cbb063c9abc97c41a96489582a6", "lat": 38.8792635, "fusion_lon": 0.0, "fusion_lat": 0.0, "type": "electric_scooter", "name": "2d387cbb063c9abc97c41a96489582a6", "is_disabled": 0, "rental_uris": {"ios": "https://dc.lft.to/lastmile_qr_scan", "android": "https://dc.lft.to/lastmile_qr_scan"}, "is_reserved": 0}, {"lon": -77.06342166666667, "bike_id": "45dcd2f867669ded97731244e516060b", "lat": 38.906832333333334, "fusion_lon": 0.0, "fusion_lat": 0.0, "type": "electric_scooter", "name": "45dcd2f867669ded97731244e516060b", "is_disabled": 0, "rental_uris": {"ios": "https://dc.lft.to/lastmile_qr_scan", "android": "https://dc.lft.to/lastmile_qr_scan"}, "is_reserved": 0}, {"lon": -77.03504466666666, "bike_id": "f74ca7eb2fe088f570fde73526cddeea", "lat": 38.9375915, "fusion_lon": 0.0, "fusion_lat": 0.0, "type": "electric_scooter", "name": "f74ca7eb2fe088f570fde73526cddeea", "is_disabled": 0, "rental_uris": {"ios": "https://dc.lft.to/lastmile_qr_scan", "android": "https://dc.lft.to/lastmile_qr_scan"}, "is_reserved": 0}, {"lon": -77.03190366666666, "bike_id": "fb4dd8b4b56ef403a3b25f1e747ee0a7", "lat": 38.90873066666666, "fusion_lon": 0.0, "fusion_lat": 0.0, "type": "electric_scooter", "name": "fb4dd8b4b56ef403a3b25f1e747ee0a7", "is_disabled": 0, "rental_uris": {"ios": "https://dc.lft.to/lastmile_qr_scan", "android": "https://dc.lft.to/lastmile_qr_scan"}, "is_reserved": 0}, {"lon": -77.055372, "bike_id": "0b40078c6d9ad14cac5c35c320ad2d46", "lat": 38.934313333333336, "fusion_lon": 0.0, "fusion_lat": 0.0, "type": "electric_scooter", "name": "0b40078c6d9ad14cac5c35c320ad2d46", "is_disabled": 0, "rental_uris": {"ios": "https://dc.lft.to/lastmile_qr_scan", "android": "https://dc.lft.to/lastmile_qr_scan"}, "is_reserved": 0}, {"lon": -77.02426766666666, "bike_id": "9feb9010f337371585693403fc7e486f", "lat": 38.926562, "fusion_lon": 0.0, "fusion_lat": 0.0, "type": "electric_scooter", "name": "9feb9010f337371585693403fc7e486f", "is_disabled": 0, "rental_uris": {"ios": "https://dc.lft.to/lastmile_qr_scan", "android": "https://dc.lft.to/lastmile_qr_scan"}, "is_reserved": 0}, {"lon": -76.988439, "bike_id": "abadb8348f53581f4c30974fc557ce6b", "lat": 38.9007245, "fusion_lon": 0.0, "fusion_lat": 0.0, "type": "electric_scooter", "name": "abadb8348f53581f4c30974fc557ce6b", "is_disabled": 0, "rental_uris": {"ios": "https://dc.lft.to/lastmile_qr_scan", "android": "https://dc.lft.to/lastmile_qr_scan"}, "is_reserved": 0}, {"lon": -77.04940883333333, "bike_id": "96995d020bcc814f78c300a8007d61e7", "lat": 38.89735266666667, "fusion_lon": 0.0, "fusion_lat": 0.0, "type": "electric_scooter", "name": "96995d020bcc814f78c300a8007d61e7", "is_disabled": 0, "rental_uris": {"ios": "https://dc.lft.to/lastmile_qr_scan", "android": "https://dc.lft.to/lastmile_qr_scan"}, "is_reserved": 0}, {"lon": -77.038957, "bike_id": "e58f9c6678172bf7dc7eb33d1b437b92", "lat": 38.923567, "fusion_lon": 0.0, "fusion_lat": 0.0, "type": "electric_scooter", "name": "e58f9c6678172bf7dc7eb33d1b437b92", "is_disabled": 0, "rental_uris": {"ios": "https://dc.lft.to/lastmile_qr_scan", "android": "https://dc.lft.to/lastmile_qr_scan"}, "is_reserved": 0}, {"lon": -77.034219, "bike_id": "a23b8df6589eebe5d086779b73346f12", "lat": 38.92245533333333, "fusion_lon": 0.0, "fusion_lat": 0.0, "type": "electric_scooter", "name": "a23b8df6589eebe5d086779b73346f12", "is_disabled": 0, "rental_uris": {"ios": "https://dc.lft.to/lastmile_qr_scan", "android": "https://dc.lft.to/lastmile_qr_scan"}, "is_reserved": 0}, {"lon": -77.003564, "bike_id": "18726ea8760f899593ab69a2be8ca0fd", "lat": 38.920459666666666, "fusion_lon": 0.0, "fusion_lat": 0.0, "type": "electric_scooter", "name": "18726ea8760f899593ab69a2be8ca0fd", "is_disabled": 0, "rental_uris": {"ios": "https://dc.lft.to/lastmile_qr_scan", "android": "https://dc.lft.to/lastmile_qr_scan"}, "is_reserved": 0}, {"lon": -77.0273095, "bike_id": "3c1b6466b299a3f783f09a9e4c464881", "lat": 38.90052583333333, "fusion_lon": 0.0, "fusion_lat": 0.0, "type": "electric_scooter", "name": "3c1b6466b299a3f783f09a9e4c464881", "is_disabled": 0, "rental_uris": {"ios": "https://dc.lft.to/lastmile_qr_scan", "android": "https://dc.lft.to/lastmile_qr_scan"}, "is_reserved": 0}, {"lon": -77.04212566666666, "bike_id": "e965545d0dcfdc5e80707c28a46aed46", "lat": 38.92318483333333, "fusion_lon": 0.0, "fusion_lat": 0.0, "type": "electric_scooter", "name": "e965545d0dcfdc5e80707c28a46aed46", "is_disabled": 0, "rental_uris": {"ios": "https://dc.lft.to/lastmile_qr_scan", "android": "https://dc.lft.to/lastmile_qr_scan"}, "is_reserved": 0}, {"lon": -77.05441133333333, "bike_id": "b0124129c66b214f5abd8e22ff8dda26", "lat": 38.92846316666667, "fusion_lon": 0.0, "fusion_lat": 0.0, "type": "electric_bike", "name": "b0124129c66b214f5abd8e22ff8dda26", "is_disabled": 0, "rental_uris": {"ios": "https://dc.lft.to/lastmile_qr_scan", "android": "https://dc.lft.to/lastmile_qr_scan"}, "is_reserved": 0}, {"lon": -77.00008766666667, "bike_id": "61c15c8bf8890c64d6e29953d0e538b1", "lat": 38.897391666666664, "fusion_lon": 0.0, "fusion_lat": 0.0, "type": "electric_scooter", "name": "61c15c8bf8890c64d6e29953d0e538b1", "is_disabled": 0, "rental_uris": {"ios": "https://dc.lft.to/lastmile_qr_scan", "android": "https://dc.lft.to/lastmile_qr_scan"}, "is_reserved": 0}, {"lon": -76.99866466666667, "bike_id": "2acdbf023919c15cd62f0bcea0434524", "lat": 38.90024866666667, "fusion_lon": 0.0, "fusion_lat": 0.0, "type": "electric_scooter", "name": "2acdbf023919c15cd62f0bcea0434524", "is_disabled": 0, "rental_uris": {"ios": "https://dc.lft.to/lastmile_qr_scan", "android": "https://dc.lft.to/lastmile_qr_scan"}, "is_reserved": 0}, {"lon": -77.01439583333334, "bike_id": "02ecddbab42a5ecdeb661c27b2edb67c", "lat": 38.87680183333333, "fusion_lon": 0.0, "fusion_lat": 0.0, "type": "electric_bike", "name": "02ecddbab42a5ecdeb661c27b2edb67c", "is_disabled": 0, "rental_uris": {"ios": "https://dc.lft.to/lastmile_qr_scan", "android": "https://dc.lft.to/lastmile_qr_scan"}, "is_reserved": 0}, {"lon": -77.01530966666667, "bike_id": "aa24c13bf14898fd5701e38e044c217c", "lat": 38.884960166666666, "fusion_lon": 0.0, "fusion_lat": 0.0, "type": "electric_scooter", "name": "aa24c13bf14898fd5701e38e044c217c", "is_disabled": 0, "rental_uris": {"ios": "https://dc.lft.to/lastmile_qr_scan", "android": "https://dc.lft.to/lastmile_qr_scan"}, "is_reserved": 0}, {"lon": -77.02005916666667, "bike_id": "4300acaf655098f466139f6119e2bbd0", "lat": 38.8960055, "fusion_lon": 0.0, "fusion_lat": 0.0, "type": "electric_scooter", "name": "4300acaf655098f466139f6119e2bbd0", "is_disabled": 0, "rental_uris": {"ios": "https://dc.lft.to/lastmile_qr_scan", "android": "https://dc.lft.to/lastmile_qr_scan"}, "is_reserved": 0}, {"lon": -77.0458885, "bike_id": "99a38b24b7aea9d1261355dcbc51ac7f", "lat": 38.913611833333334, "fusion_lon": 0.0, "fusion_lat": 0.0, "type": "electric_scooter", "name": "99a38b24b7aea9d1261355dcbc51ac7f", "is_disabled": 0, "rental_uris": {"ios": "https://dc.lft.to/lastmile_qr_scan", "android": "https://dc.lft.to/lastmile_qr_scan"}, "is_reserved": 0}, {"lon": -77.06488583333334, "bike_id": "5a4de9f77d06f53ebe9b78fa49c57e21", "lat": 38.90976783333333, "fusion_lon": 0.0, "fusion_lat": 0.0, "type": "electric_scooter", "name": "5a4de9f77d06f53ebe9b78fa49c57e21", "is_disabled": 0, "rental_uris": {"ios": "https://dc.lft.to/lastmile_qr_scan", "android": "https://dc.lft.to/lastmile_qr_scan"}, "is_reserved": 0}, {"lon": -77.04992966666667, "bike_id": "47236162d1724ff1a4ff545e6c2e6c84", "lat": 38.900776, "fusion_lon": 0.0, "fusion_lat": 0.0, "type": "electric_scooter", "name": "47236162d1724ff1a4ff545e6c2e6c84", "is_disabled": 0, "rental_uris": {"ios": "https://dc.lft.to/lastmile_qr_scan", "android": "https://dc.lft.to/lastmile_qr_scan"}, "is_reserved": 0}, {"lon": -77.1080825, "bike_id": "5ba708b117a53f9ed4d01dc39d0a7f38", "lat": 38.812053666666664, "fusion_lon": 0.0, "fusion_lat": 0.0, "type": "electric_bike", "name": "5ba708b117a53f9ed4d01dc39d0a7f38", "is_disabled": 0, "rental_uris": {"ios": "https://dc.lft.to/lastmile_qr_scan", "android": "https://dc.lft.to/lastmile_qr_scan"}, "is_reserved": 0}, {"lon": -77.05291866666667, "bike_id": "5ea46031d467355235e0cf42b008c64c", "lat": 38.90335816666666, "fusion_lon": 0.0, "fusion_lat": 0.0, "type": "electric_scooter", "name": "5ea46031d467355235e0cf42b008c64c", "is_disabled": 0, "rental_uris": {"ios": "https://dc.lft.to/lastmile_qr_scan", "android": "https://dc.lft.to/lastmile_qr_scan"}, "is_reserved": 0}, {"lon": -77.02328383333334, "bike_id": "d6a3108cfda88eae740ba43d98893f5f", "lat": 38.949674333333334, "fusion_lon": 0.0, "fusion_lat": 0.0, "type": "electric_scooter", "name": "d6a3108cfda88eae740ba43d98893f5f", "is_disabled": 0, "rental_uris": {"ios": "https://dc.lft.to/lastmile_qr_scan", "android": "https://dc.lft.to/lastmile_qr_scan"}, "is_reserved": 0}, {"lon": -76.94127266666666, "bike_id": "9c1c3fc0322b450985a87e33f7667117", "lat": 38.908251, "fusion_lon": 0.0, "fusion_lat": 0.0, "type": "electric_scooter", "name": "9c1c3fc0322b450985a87e33f7667117", "is_disabled": 0, "rental_uris": {"ios": "https://dc.lft.to/lastmile_qr_scan", "android": "https://dc.lft.to/lastmile_qr_scan"}, "is_reserved": 0}, {"lon": -77.03378016666667, "bike_id": "865fd6fc16f534a490fbc33435b6d1fa", "lat": 38.938797666666666, "fusion_lon": 0.0, "fusion_lat": 0.0, "type": "electric_scooter", "name": "865fd6fc16f534a490fbc33435b6d1fa", "is_disabled": 0, "rental_uris": {"ios": "https://dc.lft.to/lastmile_qr_scan", "android": "https://dc.lft.to/lastmile_qr_scan"}, "is_reserved": 0}, {"lon": -77.03182683333333, "bike_id": "d2be5a6a5323f861da6e5cda35c5d2ba", "lat": 38.90908683333333, "fusion_lon": 0.0, "fusion_lat": 0.0, "type": "electric_scooter", "name": "d2be5a6a5323f861da6e5cda35c5d2ba", "is_disabled": 0, "rental_uris": {"ios": "https://dc.lft.to/lastmile_qr_scan", "android": "https://dc.lft.to/lastmile_qr_scan"}, "is_reserved": 0}, {"lon": -76.94791316666667, "bike_id": "26c750a0b8ebd96381aee15dbc90ab83", "lat": 38.86184433333333, "fusion_lon": 0.0, "fusion_lat": 0.0, "type": "electric_bike", "name": "26c750a0b8ebd96381aee15dbc90ab83", "is_disabled": 0, "rental_uris": {"ios": "https://dc.lft.to/lastmile_qr_scan", "android": "https://dc.lft.to/lastmile_qr_scan"}, "is_reserved": 0}, {"lon": -76.9936895, "bike_id": "3e68afbc2864cb6e5727ee8fbb9f788b", "lat": 38.893727166666665, "fusion_lon": 0.0, "fusion_lat": 0.0, "type": "electric_scooter", "name": "3e68afbc2864cb6e5727ee8fbb9f788b", "is_disabled": 0, "rental_uris": {"ios": "https://dc.lft.to/lastmile_qr_scan", "android": "https://dc.lft.to/lastmile_qr_scan"}, "is_reserved": 0}, {"lon": -77.024155, "bike_id": "563f7fde20d507c6633ba348ec3df685", "lat": 38.91602733333333, "fusion_lon": 0.0, "fusion_lat": 0.0, "type": "electric_scooter", "name": "563f7fde20d507c6633ba348ec3df685", "is_disabled": 0, "rental_uris": {"ios": "https://dc.lft.to/lastmile_qr_scan", "android": "https://dc.lft.to/lastmile_qr_scan"}, "is_reserved": 0}, {"lon": -76.99056183333333, "bike_id": "7579e30d98dbbf18a9e75715dadce984", "lat": 38.863800833333336, "fusion_lon": 0.0, "fusion_lat": 0.0, "type": "electric_scooter", "name": "7579e30d98dbbf18a9e75715dadce984", "is_disabled": 0, "rental_uris": {"ios": "https://dc.lft.to/lastmile_qr_scan", "android": "https://dc.lft.to/lastmile_qr_scan"}, "is_reserved": 0}, {"lon": -77.00679966666667, "bike_id": "6f28867a4a96de0eb502e6ed8a40864f", "lat": 38.834940333333336, "fusion_lon": 0.0, "fusion_lat": 0.0, "type": "electric_scooter", "name": "6f28867a4a96de0eb502e6ed8a40864f", "is_disabled": 0, "rental_uris": {"ios": "https://dc.lft.to/lastmile_qr_scan", "android": "https://dc.lft.to/lastmile_qr_scan"}, "is_reserved": 0}, {"lon": -77.0347685, "bike_id": "5420bccaa36adca77e90c6acf0e139dc", "lat": 38.88487833333333, "fusion_lon": 0.0, "fusion_lat": 0.0, "type": "electric_scooter", "name": "5420bccaa36adca77e90c6acf0e139dc", "is_disabled": 0, "rental_uris": {"ios": "https://dc.lft.to/lastmile_qr_scan", "android": "https://dc.lft.to/lastmile_qr_scan"}, "is_reserved": 0}, {"lon": -76.9488045, "bike_id": "2a66d68d0a4dc4c45f5eb31a7cfa0ea4", "lat": 38.89430616666667, "fusion_lon": 0.0, "fusion_lat": 0.0, "type": "electric_scooter", "name": "2a66d68d0a4dc4c45f5eb31a7cfa0ea4", "is_disabled": 0, "rental_uris": {"ios": "https://dc.lft.to/lastmile_qr_scan", "android": "https://dc.lft.to/lastmile_qr_scan"}, "is_reserved": 0}, {"lon": -76.99623466666667, "bike_id": "2280332a2b3c3361c79931148ccddcc1", "lat": 38.8880235, "fusion_lon": 0.0, "fusion_lat": 0.0, "type": "electric_scooter", "name": "2280332a2b3c3361c79931148ccddcc1", "is_disabled": 0, "rental_uris": {"ios": "https://dc.lft.to/lastmile_qr_scan", "android": "https://dc.lft.to/lastmile_qr_scan"}, "is_reserved": 0}, {"lon": -77.04108633333334, "bike_id": "6cb06750b6c3f736b5a6029a106ca263", "lat": 38.9245165, "fusion_lon": 0.0, "fusion_lat": 0.0, "type": "electric_scooter", "name": "6cb06750b6c3f736b5a6029a106ca263", "is_disabled": 0, "rental_uris": {"ios": "https://dc.lft.to/lastmile_qr_scan", "android": "https://dc.lft.to/lastmile_qr_scan"}, "is_reserved": 0}, {"lon": -77.03862233333334, "bike_id": "dbda630c7b959c33af73b9a9754f59d8", "lat": 38.910195333333334, "fusion_lon": 0.0, "fusion_lat": 0.0, "type": "electric_scooter", "name": "dbda630c7b959c33af73b9a9754f59d8", "is_disabled": 0, "rental_uris": {"ios": "https://dc.lft.to/lastmile_qr_scan", "android": "https://dc.lft.to/lastmile_qr_scan"}, "is_reserved": 0}, {"lon": -77.03331833333333, "bike_id": "27fed2e434322ea0c12e0dfe568defa8", "lat": 38.91559016666667, "fusion_lon": 0.0, "fusion_lat": 0.0, "type": "electric_scooter", "name": "27fed2e434322ea0c12e0dfe568defa8", "is_disabled": 0, "rental_uris": {"ios": "https://dc.lft.to/lastmile_qr_scan", "android": "https://dc.lft.to/lastmile_qr_scan"}, "is_reserved": 0}, {"lon": -77.03664916666666, "bike_id": "89f5f83a8fe5ef85448f50d7c29c0e7f", "lat": 38.922437, "fusion_lon": 0.0, "fusion_lat": 0.0, "type": "electric_scooter", "name": "89f5f83a8fe5ef85448f50d7c29c0e7f", "is_disabled": 0, "rental_uris": {"ios": "https://dc.lft.to/lastmile_qr_scan", "android": "https://dc.lft.to/lastmile_qr_scan"}, "is_reserved": 0}, {"lon": -77.02449716666666, "bike_id": "e8a0a3f2e3bd6896fa2aa37a02a0f316", "lat": 38.9235445, "fusion_lon": 0.0, "fusion_lat": 0.0, "type": "electric_scooter", "name": "e8a0a3f2e3bd6896fa2aa37a02a0f316", "is_disabled": 0, "rental_uris": {"ios": "https://dc.lft.to/lastmile_qr_scan", "android": "https://dc.lft.to/lastmile_qr_scan"}, "is_reserved": 0}, {"lon": -77.0505995, "bike_id": "223316534372b2fa51908ad62e8ae49d", "lat": 38.925865, "fusion_lon": 0.0, "fusion_lat": 0.0, "type": "electric_scooter", "name": "223316534372b2fa51908ad62e8ae49d", "is_disabled": 0, "rental_uris": {"ios": "https://dc.lft.to/lastmile_qr_scan", "android": "https://dc.lft.to/lastmile_qr_scan"}, "is_reserved": 0}, {"lon": -77.0409305, "bike_id": "470bfeb6523e60a60e5afe1db94522a4", "lat": 38.90963633333333, "fusion_lon": 0.0, "fusion_lat": 0.0, "type": "electric_scooter", "name": "470bfeb6523e60a60e5afe1db94522a4", "is_disabled": 0, "rental_uris": {"ios": "https://dc.lft.to/lastmile_qr_scan", "android": "https://dc.lft.to/lastmile_qr_scan"}, "is_reserved": 0}, {"lon": -76.98440816666667, "bike_id": "81100ad53fe7f2aad134340491d765cb", "lat": 38.91455283333333, "fusion_lon": 0.0, "fusion_lat": 0.0, "type": "electric_scooter", "name": "81100ad53fe7f2aad134340491d765cb", "is_disabled": 0, "rental_uris": {"ios": "https://dc.lft.to/lastmile_qr_scan", "android": "https://dc.lft.to/lastmile_qr_scan"}, "is_reserved": 0}, {"lon": -76.98988266666667, "bike_id": "ce750881cdc98150c1ce317dae5e7307", "lat": 38.93364016666666, "fusion_lon": 0.0, "fusion_lat": 0.0, "type": "electric_scooter", "name": "ce750881cdc98150c1ce317dae5e7307", "is_disabled": 0, "rental_uris": {"ios": "https://dc.lft.to/lastmile_qr_scan", "android": "https://dc.lft.to/lastmile_qr_scan"}, "is_reserved": 0}, {"lon": -77.0269755, "bike_id": "306a4ac2167d1c4762eb4ac021f4d4b2", "lat": 38.916376666666665, "fusion_lon": 0.0, "fusion_lat": 0.0, "type": "electric_scooter", "name": "306a4ac2167d1c4762eb4ac021f4d4b2", "is_disabled": 0, "rental_uris": {"ios": "https://dc.lft.to/lastmile_qr_scan", "android": "https://dc.lft.to/lastmile_qr_scan"}, "is_reserved": 0}, {"lon": -77.034636, "bike_id": "df6bf7247ef2570e5c4d6d45d9d48bd7", "lat": 38.90955816666666, "fusion_lon": 0.0, "fusion_lat": 0.0, "type": "electric_scooter", "name": "df6bf7247ef2570e5c4d6d45d9d48bd7", "is_disabled": 0, "rental_uris": {"ios": "https://dc.lft.to/lastmile_qr_scan", "android": "https://dc.lft.to/lastmile_qr_scan"}, "is_reserved": 0}, {"lon": -76.99177016666667, "bike_id": "40e1256d836092c72f5d46da2e958128", "lat": 38.88987433333333, "fusion_lon": 0.0, "fusion_lat": 0.0, "type": "electric_scooter", "name": "40e1256d836092c72f5d46da2e958128", "is_disabled": 0, "rental_uris": {"ios": "https://dc.lft.to/lastmile_qr_scan", "android": "https://dc.lft.to/lastmile_qr_scan"}, "is_reserved": 0}, {"lon": -77.01669233333334, "bike_id": "dcded3aba25bc496436086ddff7c3939", "lat": 38.8814835, "fusion_lon": 0.0, "fusion_lat": 0.0, "type": "electric_scooter", "name": "dcded3aba25bc496436086ddff7c3939", "is_disabled": 0, "rental_uris": {"ios": "https://dc.lft.to/lastmile_qr_scan", "android": "https://dc.lft.to/lastmile_qr_scan"}, "is_reserved": 0}, {"lon": -77.00570433333333, "bike_id": "1a957fe3981f2a3db22445531d70337c", "lat": 38.87443666666667, "fusion_lon": 0.0, "fusion_lat": 0.0, "type": "electric_scooter", "name": "1a957fe3981f2a3db22445531d70337c", "is_disabled": 0, "rental_uris": {"ios": "https://dc.lft.to/lastmile_qr_scan", "android": "https://dc.lft.to/lastmile_qr_scan"}, "is_reserved": 0}, {"lon": -77.02281333333333, "bike_id": "9aaaf6061020e895b60ff4b264356640", "lat": 38.909596666666665, "fusion_lon": 0.0, "fusion_lat": 0.0, "type": "electric_scooter", "name": "9aaaf6061020e895b60ff4b264356640", "is_disabled": 0, "rental_uris": {"ios": "https://dc.lft.to/lastmile_qr_scan", "android": "https://dc.lft.to/lastmile_qr_scan"}, "is_reserved": 0}, {"lon": -77.03263833333334, "bike_id": "a8732a563d31270a5f02c6c6d4c53ff4", "lat": 38.93523916666667, "fusion_lon": 0.0, "fusion_lat": 0.0, "type": "electric_scooter", "name": "a8732a563d31270a5f02c6c6d4c53ff4", "is_disabled": 0, "rental_uris": {"ios": "https://dc.lft.to/lastmile_qr_scan", "android": "https://dc.lft.to/lastmile_qr_scan"}, "is_reserved": 0}, {"lon": -77.03324266666667, "bike_id": "892ac86580850c9871b6b79cd917644f", "lat": 38.91563933333333, "fusion_lon": 0.0, "fusion_lat": 0.0, "type": "electric_scooter", "name": "892ac86580850c9871b6b79cd917644f", "is_disabled": 0, "rental_uris": {"ios": "https://dc.lft.to/lastmile_qr_scan", "android": "https://dc.lft.to/lastmile_qr_scan"}, "is_reserved": 0}, {"lon": -76.98560166666667, "bike_id": "4d56fe9784d36bba6928f913e1c61a45", "lat": 38.910353666666666, "fusion_lon": 0.0, "fusion_lat": 0.0, "type": "electric_scooter", "name": "4d56fe9784d36bba6928f913e1c61a45", "is_disabled": 0, "rental_uris": {"ios": "https://dc.lft.to/lastmile_qr_scan", "android": "https://dc.lft.to/lastmile_qr_scan"}, "is_reserved": 0}, {"lon": -77.04122466666666, "bike_id": "08c71c084953c1eaad1d59f51821b980", "lat": 38.9440755, "fusion_lon": 0.0, "fusion_lat": 0.0, "type": "electric_bike", "name": "08c71c084953c1eaad1d59f51821b980", "is_disabled": 0, "rental_uris": {"ios": "https://dc.lft.to/lastmile_qr_scan", "android": "https://dc.lft.to/lastmile_qr_scan"}, "is_reserved": 0}, {"lon": -77.03802566666667, "bike_id": "36d50a86a692f82c910fdcc1c5ffe45b", "lat": 38.9206405, "fusion_lon": 0.0, "fusion_lat": 0.0, "type": "electric_scooter", "name": "36d50a86a692f82c910fdcc1c5ffe45b", "is_disabled": 0, "rental_uris": {"ios": "https://dc.lft.to/lastmile_qr_scan", "android": "https://dc.lft.to/lastmile_qr_scan"}, "is_reserved": 0}, {"lon": -77.08190116666667, "bike_id": "1bda56e48990b8b8bbd7c73164128350", "lat": 38.92214416666667, "fusion_lon": 0.0, "fusion_lat": 0.0, "type": "electric_bike", "name": "1bda56e48990b8b8bbd7c73164128350", "is_disabled": 0, "rental_uris": {"ios": "https://dc.lft.to/lastmile_qr_scan", "android": "https://dc.lft.to/lastmile_qr_scan"}, "is_reserved": 0}, {"lon": -76.97758416666667, "bike_id": "984648ab62c7427efc03d9ce3836a77d", "lat": 38.865061, "fusion_lon": 0.0, "fusion_lat": 0.0, "type": "electric_scooter", "name": "984648ab62c7427efc03d9ce3836a77d", "is_disabled": 0, "rental_uris": {"ios": "https://dc.lft.to/lastmile_qr_scan", "android": "https://dc.lft.to/lastmile_qr_scan"}, "is_reserved": 0}, {"lon": -77.040631, "bike_id": "6d2e7987db89384cb43547c563cf9db0", "lat": 38.9148765, "fusion_lon": 0.0, "fusion_lat": 0.0, "type": "electric_scooter", "name": "6d2e7987db89384cb43547c563cf9db0", "is_disabled": 0, "rental_uris": {"ios": "https://dc.lft.to/lastmile_qr_scan", "android": "https://dc.lft.to/lastmile_qr_scan"}, "is_reserved": 0}, {"lon": -77.0415155, "bike_id": "76d833d5321b5eaeb2f4ff56ec6bbbac", "lat": 38.90454866666666, "fusion_lon": 0.0, "fusion_lat": 0.0, "type": "electric_scooter", "name": "76d833d5321b5eaeb2f4ff56ec6bbbac", "is_disabled": 0, "rental_uris": {"ios": "https://dc.lft.to/lastmile_qr_scan", "android": "https://dc.lft.to/lastmile_qr_scan"}, "is_reserved": 0}, {"lon": -77.01130016666667, "bike_id": "b6367b7f0eeba431c6a8c030ac7613bd", "lat": 38.89481983333334, "fusion_lon": 0.0, "fusion_lat": 0.0, "type": "electric_scooter", "name": "b6367b7f0eeba431c6a8c030ac7613bd", "is_disabled": 0, "rental_uris": {"ios": "https://dc.lft.to/lastmile_qr_scan", "android": "https://dc.lft.to/lastmile_qr_scan"}, "is_reserved": 0}, {"lon": -76.98846616666667, "bike_id": "c600b66cfe9f05873fb7ec472e087742", "lat": 38.901316333333334, "fusion_lon": 0.0, "fusion_lat": 0.0, "type": "electric_scooter", "name": "c600b66cfe9f05873fb7ec472e087742", "is_disabled": 0, "rental_uris": {"ios": "https://dc.lft.to/lastmile_qr_scan", "android": "https://dc.lft.to/lastmile_qr_scan"}, "is_reserved": 0}, {"lon": -77.01154333333334, "bike_id": "503af564af573f89502153a344c1bb33", "lat": 38.89586966666667, "fusion_lon": 0.0, "fusion_lat": 0.0, "type": "electric_scooter", "name": "503af564af573f89502153a344c1bb33", "is_disabled": 0, "rental_uris": {"ios": "https://dc.lft.to/lastmile_qr_scan", "android": "https://dc.lft.to/lastmile_qr_scan"}, "is_reserved": 0}, {"lon": -77.0179895, "bike_id": "194144ffc2c45e49c4f5ba33c090bd18", "lat": 38.9200325, "fusion_lon": 0.0, "fusion_lat": 0.0, "type": "electric_scooter", "name": "194144ffc2c45e49c4f5ba33c090bd18", "is_disabled": 0, "rental_uris": {"ios": "https://dc.lft.to/lastmile_qr_scan", "android": "https://dc.lft.to/lastmile_qr_scan"}, "is_reserved": 0}, {"lon": -77.12222683333333, "bike_id": "db230409330ba4c6a3415d053c0bd062", "lat": 38.853001666666664, "fusion_lon": 0.0, "fusion_lat": 0.0, "type": "electric_bike", "name": "db230409330ba4c6a3415d053c0bd062", "is_disabled": 0, "rental_uris": {"ios": "https://dc.lft.to/lastmile_qr_scan", "android": "https://dc.lft.to/lastmile_qr_scan"}, "is_reserved": 0}, {"lon": -77.01457216666667, "bike_id": "9d91808db0fb5ef80b5d19a7f749010a", "lat": 38.905231666666666, "fusion_lon": 0.0, "fusion_lat": 0.0, "type": "electric_scooter", "name": "9d91808db0fb5ef80b5d19a7f749010a", "is_disabled": 0, "rental_uris": {"ios": "https://dc.lft.to/lastmile_qr_scan", "android": "https://dc.lft.to/lastmile_qr_scan"}, "is_reserved": 0}, {"lon": -77.01839033333333, "bike_id": "357ec12de5903853dd1342db80022726", "lat": 38.909338166666664, "fusion_lon": 0.0, "fusion_lat": 0.0, "type": "electric_scooter", "name": "357ec12de5903853dd1342db80022726", "is_disabled": 0, "rental_uris": {"ios": "https://dc.lft.to/lastmile_qr_scan", "android": "https://dc.lft.to/lastmile_qr_scan"}, "is_reserved": 0}, {"lon": -77.00745766666667, "bike_id": "4a043ff8d71f4aa7b0a217ceabc360c4", "lat": 38.897956, "fusion_lon": 0.0, "fusion_lat": 0.0, "type": "electric_bike", "name": "4a043ff8d71f4aa7b0a217ceabc360c4", "is_disabled": 0, "rental_uris": {"ios": "https://dc.lft.to/lastmile_qr_scan", "android": "https://dc.lft.to/lastmile_qr_scan"}, "is_reserved": 0}, {"lon": -76.97246483333333, "bike_id": "e526b05672f328176a4325c55affd5aa", "lat": 38.9034465, "fusion_lon": 0.0, "fusion_lat": 0.0, "type": "electric_scooter", "name": "e526b05672f328176a4325c55affd5aa", "is_disabled": 0, "rental_uris": {"ios": "https://dc.lft.to/lastmile_qr_scan", "android": "https://dc.lft.to/lastmile_qr_scan"}, "is_reserved": 0}, {"lon": -77.00537333333334, "bike_id": "fc9c92b41298c2a3062c30b44046b3cb", "lat": 38.875439666666665, "fusion_lon": 0.0, "fusion_lat": 0.0, "type": "electric_scooter", "name": "fc9c92b41298c2a3062c30b44046b3cb", "is_disabled": 0, "rental_uris": {"ios": "https://dc.lft.to/lastmile_qr_scan", "android": "https://dc.lft.to/lastmile_qr_scan"}, "is_reserved": 0}, {"lon": -77.01374433333334, "bike_id": "01e55349469cf0efad4d2f194b35bd74", "lat": 38.869741833333336, "fusion_lon": 0.0, "fusion_lat": 0.0, "type": "electric_scooter", "name": "01e55349469cf0efad4d2f194b35bd74", "is_disabled": 0, "rental_uris": {"ios": "https://dc.lft.to/lastmile_qr_scan", "android": "https://dc.lft.to/lastmile_qr_scan"}, "is_reserved": 0}, {"lon": -76.97890533333333, "bike_id": "68d707e3248bd87465c99a97def6c29d", "lat": 38.885404333333334, "fusion_lon": 0.0, "fusion_lat": 0.0, "type": "electric_scooter", "name": "68d707e3248bd87465c99a97def6c29d", "is_disabled": 0, "rental_uris": {"ios": "https://dc.lft.to/lastmile_qr_scan", "android": "https://dc.lft.to/lastmile_qr_scan"}, "is_reserved": 0}, {"lon": -77.02693816666667, "bike_id": "c9ba7bb8de0dec57242933555f24a436", "lat": 38.918116166666664, "fusion_lon": 0.0, "fusion_lat": 0.0, "type": "electric_scooter", "name": "c9ba7bb8de0dec57242933555f24a436", "is_disabled": 0, "rental_uris": {"ios": "https://dc.lft.to/lastmile_qr_scan", "android": "https://dc.lft.to/lastmile_qr_scan"}, "is_reserved": 0}, {"lon": -76.9855795, "bike_id": "1c6ca783e32815a79d0821c2b0ba5541", "lat": 38.90720233333333, "fusion_lon": 0.0, "fusion_lat": 0.0, "type": "electric_scooter", "name": "1c6ca783e32815a79d0821c2b0ba5541", "is_disabled": 0, "rental_uris": {"ios": "https://dc.lft.to/lastmile_qr_scan", "android": "https://dc.lft.to/lastmile_qr_scan"}, "is_reserved": 0}, {"lon": -76.99702716666667, "bike_id": "3aedc976c1aaac64a0aec343d64a6dfd", "lat": 38.844307, "fusion_lon": 0.0, "fusion_lat": 0.0, "type": "electric_scooter", "name": "3aedc976c1aaac64a0aec343d64a6dfd", "is_disabled": 0, "rental_uris": {"ios": "https://dc.lft.to/lastmile_qr_scan", "android": "https://dc.lft.to/lastmile_qr_scan"}, "is_reserved": 0}, {"lon": -77.01513366666667, "bike_id": "beaf7d0821844b85f24e59eeb4ca0d2b", "lat": 38.918703666666666, "fusion_lon": 0.0, "fusion_lat": 0.0, "type": "electric_scooter", "name": "beaf7d0821844b85f24e59eeb4ca0d2b", "is_disabled": 0, "rental_uris": {"ios": "https://dc.lft.to/lastmile_qr_scan", "android": "https://dc.lft.to/lastmile_qr_scan"}, "is_reserved": 0}, {"lon": -76.98334666666666, "bike_id": "b73970c0d9e10a4d06b84e5e39621331", "lat": 38.89545283333333, "fusion_lon": 0.0, "fusion_lat": 0.0, "type": "electric_scooter", "name": "b73970c0d9e10a4d06b84e5e39621331", "is_disabled": 0, "rental_uris": {"ios": "https://dc.lft.to/lastmile_qr_scan", "android": "https://dc.lft.to/lastmile_qr_scan"}, "is_reserved": 0}, {"lon": -77.038682, "bike_id": "967820b57df7772c8aa64ed619c6a200", "lat": 38.921532166666665, "fusion_lon": 0.0, "fusion_lat": 0.0, "type": "electric_scooter", "name": "967820b57df7772c8aa64ed619c6a200", "is_disabled": 0, "rental_uris": {"ios": "https://dc.lft.to/lastmile_qr_scan", "android": "https://dc.lft.to/lastmile_qr_scan"}, "is_reserved": 0}, {"lon": -77.04883966666667, "bike_id": "2c306edd4be2f458b62aaac0033205de", "lat": 38.906072, "fusion_lon": 0.0, "fusion_lat": 0.0, "type": "electric_scooter", "name": "2c306edd4be2f458b62aaac0033205de", "is_disabled": 0, "rental_uris": {"ios": "https://dc.lft.to/lastmile_qr_scan", "android": "https://dc.lft.to/lastmile_qr_scan"}, "is_reserved": 0}, {"lon": -77.0961485, "bike_id": "fc7a9901bddadccd37b8883cb1977ff5", "lat": 38.869491333333336, "fusion_lon": 0.0, "fusion_lat": 0.0, "type": "electric_bike", "name": "fc7a9901bddadccd37b8883cb1977ff5", "is_disabled": 0, "rental_uris": {"ios": "https://dc.lft.to/lastmile_qr_scan", "android": "https://dc.lft.to/lastmile_qr_scan"}, "is_reserved": 0}, {"lon": -76.98750866666667, "bike_id": "894b09fbb3c899c7af4dd50a1a42e5ca", "lat": 38.9003085, "fusion_lon": 0.0, "fusion_lat": 0.0, "type": "electric_scooter", "name": "894b09fbb3c899c7af4dd50a1a42e5ca", "is_disabled": 0, "rental_uris": {"ios": "https://dc.lft.to/lastmile_qr_scan", "android": "https://dc.lft.to/lastmile_qr_scan"}, "is_reserved": 0}, {"lon": -76.99724033333334, "bike_id": "59c07d3e1d6ec07e980d7d217e9c2afa", "lat": 38.910987666666664, "fusion_lon": 0.0, "fusion_lat": 0.0, "type": "electric_scooter", "name": "59c07d3e1d6ec07e980d7d217e9c2afa", "is_disabled": 0, "rental_uris": {"ios": "https://dc.lft.to/lastmile_qr_scan", "android": "https://dc.lft.to/lastmile_qr_scan"}, "is_reserved": 0}, {"lon": -77.04992983333334, "bike_id": "612deecb7b62126d55f43deede77a0c0", "lat": 38.900716833333334, "fusion_lon": 0.0, "fusion_lat": 0.0, "type": "electric_scooter", "name": "612deecb7b62126d55f43deede77a0c0", "is_disabled": 0, "rental_uris": {"ios": "https://dc.lft.to/lastmile_qr_scan", "android": "https://dc.lft.to/lastmile_qr_scan"}, "is_reserved": 0}, {"lon": -77.03888116666667, "bike_id": "adb6d6f3eaf7071fa386c30ec29de97a", "lat": 38.92009516666667, "fusion_lon": 0.0, "fusion_lat": 0.0, "type": "electric_scooter", "name": "adb6d6f3eaf7071fa386c30ec29de97a", "is_disabled": 0, "rental_uris": {"ios": "https://dc.lft.to/lastmile_qr_scan", "android": "https://dc.lft.to/lastmile_qr_scan"}, "is_reserved": 0}, {"lon": -77.06732033333333, "bike_id": "366b68a85e7dee6bb5f91efc5f1bf9e2", "lat": 38.90970766666667, "fusion_lon": 0.0, "fusion_lat": 0.0, "type": "electric_scooter", "name": "366b68a85e7dee6bb5f91efc5f1bf9e2", "is_disabled": 0, "rental_uris": {"ios": "https://dc.lft.to/lastmile_qr_scan", "android": "https://dc.lft.to/lastmile_qr_scan"}, "is_reserved": 0}, {"lon": -77.0460705, "bike_id": "1dc9770c436d2fe6d5e603c1a7052b91", "lat": 38.8838185, "fusion_lon": 0.0, "fusion_lat": 0.0, "type": "electric_scooter", "name": "1dc9770c436d2fe6d5e603c1a7052b91", "is_disabled": 0, "rental_uris": {"ios": "https://dc.lft.to/lastmile_qr_scan", "android": "https://dc.lft.to/lastmile_qr_scan"}, "is_reserved": 0}, {"lon": -77.01415866666666, "bike_id": "fb07fcfc504be89235a2462d533cbe34", "lat": 38.9284095, "fusion_lon": 0.0, "fusion_lat": 0.0, "type": "electric_scooter", "name": "fb07fcfc504be89235a2462d533cbe34", "is_disabled": 0, "rental_uris": {"ios": "https://dc.lft.to/lastmile_qr_scan", "android": "https://dc.lft.to/lastmile_qr_scan"}, "is_reserved": 0}, {"lon": -77.05171, "bike_id": "8cceb61947cefd143cf6a7569f47fb52", "lat": 38.903286333333334, "fusion_lon": 0.0, "fusion_lat": 0.0, "type": "electric_scooter", "name": "8cceb61947cefd143cf6a7569f47fb52", "is_disabled": 0, "rental_uris": {"ios": "https://dc.lft.to/lastmile_qr_scan", "android": "https://dc.lft.to/lastmile_qr_scan"}, "is_reserved": 0}, {"lon": -77.02085116666667, "bike_id": "2a0b833b5e6d70fd82649ad17128c463", "lat": 38.930133833333336, "fusion_lon": 0.0, "fusion_lat": 0.0, "type": "electric_scooter", "name": "2a0b833b5e6d70fd82649ad17128c463", "is_disabled": 0, "rental_uris": {"ios": "https://dc.lft.to/lastmile_qr_scan", "android": "https://dc.lft.to/lastmile_qr_scan"}, "is_reserved": 0}, {"lon": -77.03456716666666, "bike_id": "fbfe2397a64c9d171b603ddd3292e960", "lat": 38.9063905, "fusion_lon": 0.0, "fusion_lat": 0.0, "type": "electric_scooter", "name": "fbfe2397a64c9d171b603ddd3292e960", "is_disabled": 0, "rental_uris": {"ios": "https://dc.lft.to/lastmile_qr_scan", "android": "https://dc.lft.to/lastmile_qr_scan"}, "is_reserved": 0}, {"lon": -76.92996966666666, "bike_id": "3214b6acd8c2345e077b88fbf0fea6a6", "lat": 38.901859333333334, "fusion_lon": 0.0, "fusion_lat": 0.0, "type": "electric_scooter", "name": "3214b6acd8c2345e077b88fbf0fea6a6", "is_disabled": 0, "rental_uris": {"ios": "https://dc.lft.to/lastmile_qr_scan", "android": "https://dc.lft.to/lastmile_qr_scan"}, "is_reserved": 0}, {"lon": -77.1090915, "bike_id": "50237cd7a323e6f89f60b8e3c2a93804", "lat": 39.052055833333334, "fusion_lon": 0.0, "fusion_lat": 0.0, "type": "electric_bike", "name": "50237cd7a323e6f89f60b8e3c2a93804", "is_disabled": 0, "rental_uris": {"ios": "https://dc.lft.to/lastmile_qr_scan", "android": "https://dc.lft.to/lastmile_qr_scan"}, "is_reserved": 0}, {"lon": -77.02391183333333, "bike_id": "ad640c3da7050f54fe9aa0eef578f88d", "lat": 38.9168365, "fusion_lon": 0.0, "fusion_lat": 0.0, "type": "electric_scooter", "name": "ad640c3da7050f54fe9aa0eef578f88d", "is_disabled": 0, "rental_uris": {"ios": "https://dc.lft.to/lastmile_qr_scan", "android": "https://dc.lft.to/lastmile_qr_scan"}, "is_reserved": 0}, {"lon": -76.9871385, "bike_id": "ce01ab6cbcb73e6a13a6003792a187b6", "lat": 38.866267666666666, "fusion_lon": 0.0, "fusion_lat": 0.0, "type": "electric_scooter", "name": "ce01ab6cbcb73e6a13a6003792a187b6", "is_disabled": 0, "rental_uris": {"ios": "https://dc.lft.to/lastmile_qr_scan", "android": "https://dc.lft.to/lastmile_qr_scan"}, "is_reserved": 0}, {"lon": -77.0519735, "bike_id": "d17373fbc6bff03dded98b6edf350362", "lat": 38.924535, "fusion_lon": 0.0, "fusion_lat": 0.0, "type": "electric_scooter", "name": "d17373fbc6bff03dded98b6edf350362", "is_disabled": 0, "rental_uris": {"ios": "https://dc.lft.to/lastmile_qr_scan", "android": "https://dc.lft.to/lastmile_qr_scan"}, "is_reserved": 0}, {"lon": -77.05495716666667, "bike_id": "3f5f54904f8a90be2482ca885a0c8d36", "lat": 38.90843116666667, "fusion_lon": 0.0, "fusion_lat": 0.0, "type": "electric_scooter", "name": "3f5f54904f8a90be2482ca885a0c8d36", "is_disabled": 0, "rental_uris": {"ios": "https://dc.lft.to/lastmile_qr_scan", "android": "https://dc.lft.to/lastmile_qr_scan"}, "is_reserved": 0}, {"lon": -76.9888405, "bike_id": "9f9ce4fc38074653e730f40e0d57625a", "lat": 38.86658, "fusion_lon": 0.0, "fusion_lat": 0.0, "type": "electric_scooter", "name": "9f9ce4fc38074653e730f40e0d57625a", "is_disabled": 0, "rental_uris": {"ios": "https://dc.lft.to/lastmile_qr_scan", "android": "https://dc.lft.to/lastmile_qr_scan"}, "is_reserved": 0}, {"lon": -76.9605995, "bike_id": "d93320c8839efbb28e4603ad17d7093b", "lat": 38.88404233333333, "fusion_lon": 0.0, "fusion_lat": 0.0, "type": "electric_bike", "name": "d93320c8839efbb28e4603ad17d7093b", "is_disabled": 0, "rental_uris": {"ios": "https://dc.lft.to/lastmile_qr_scan", "android": "https://dc.lft.to/lastmile_qr_scan"}, "is_reserved": 0}, {"lon": -76.92771183333333, "bike_id": "682359713eac232e82aeba945172c316", "lat": 38.900852666666665, "fusion_lon": 0.0, "fusion_lat": 0.0, "type": "electric_scooter", "name": "682359713eac232e82aeba945172c316", "is_disabled": 0, "rental_uris": {"ios": "https://dc.lft.to/lastmile_qr_scan", "android": "https://dc.lft.to/lastmile_qr_scan"}, "is_reserved": 0}, {"lon": -77.02154516666667, "bike_id": "b5538e2e99a39615675e33f053431385", "lat": 38.92236916666667, "fusion_lon": 0.0, "fusion_lat": 0.0, "type": "electric_scooter", "name": "b5538e2e99a39615675e33f053431385", "is_disabled": 0, "rental_uris": {"ios": "https://dc.lft.to/lastmile_qr_scan", "android": "https://dc.lft.to/lastmile_qr_scan"}, "is_reserved": 0}, {"lon": -76.99786116666667, "bike_id": "51377053aa5fbf94650325ab43918df8", "lat": 38.9104465, "fusion_lon": 0.0, "fusion_lat": 0.0, "type": "electric_scooter", "name": "51377053aa5fbf94650325ab43918df8", "is_disabled": 0, "rental_uris": {"ios": "https://dc.lft.to/lastmile_qr_scan", "android": "https://dc.lft.to/lastmile_qr_scan"}, "is_reserved": 0}, {"lon": -77.024597, "bike_id": "d93ce111d08df65e3c5ed56c7414d743", "lat": 38.88424716666667, "fusion_lon": 0.0, "fusion_lat": 0.0, "type": "electric_scooter", "name": "d93ce111d08df65e3c5ed56c7414d743", "is_disabled": 0, "rental_uris": {"ios": "https://dc.lft.to/lastmile_qr_scan", "android": "https://dc.lft.to/lastmile_qr_scan"}, "is_reserved": 0}, {"lon": -76.97005083333333, "bike_id": "8bcc47c719e12d0ed6540ca8d56f29ba", "lat": 38.8736915, "fusion_lon": 0.0, "fusion_lat": 0.0, "type": "electric_scooter", "name": "8bcc47c719e12d0ed6540ca8d56f29ba", "is_disabled": 0, "rental_uris": {"ios": "https://dc.lft.to/lastmile_qr_scan", "android": "https://dc.lft.to/lastmile_qr_scan"}, "is_reserved": 0}, {"lon": -77.0612775, "bike_id": "fb7a73cc9b8be0f708e447d728f9b33d", "lat": 38.905391, "fusion_lon": 0.0, "fusion_lat": 0.0, "type": "electric_scooter", "name": "fb7a73cc9b8be0f708e447d728f9b33d", "is_disabled": 0, "rental_uris": {"ios": "https://dc.lft.to/lastmile_qr_scan", "android": "https://dc.lft.to/lastmile_qr_scan"}, "is_reserved": 0}, {"lon": -77.023964, "bike_id": "bc2d1db576cfece37ccf40a5795e38e6", "lat": 38.907006833333334, "fusion_lon": 0.0, "fusion_lat": 0.0, "type": "electric_scooter", "name": "bc2d1db576cfece37ccf40a5795e38e6", "is_disabled": 0, "rental_uris": {"ios": "https://dc.lft.to/lastmile_qr_scan", "android": "https://dc.lft.to/lastmile_qr_scan"}, "is_reserved": 0}, {"lon": -77.009292, "bike_id": "5e0ff55376a72f02329502c93bd82a5e", "lat": 38.918070166666666, "fusion_lon": 0.0, "fusion_lat": 0.0, "type": "electric_scooter", "name": "5e0ff55376a72f02329502c93bd82a5e", "is_disabled": 0, "rental_uris": {"ios": "https://dc.lft.to/lastmile_qr_scan", "android": "https://dc.lft.to/lastmile_qr_scan"}, "is_reserved": 0}, {"lon": -77.0657735, "bike_id": "492f04dd803d44b7a0228537c147f3fd", "lat": 38.91130966666667, "fusion_lon": 0.0, "fusion_lat": 0.0, "type": "electric_bike", "name": "492f04dd803d44b7a0228537c147f3fd", "is_disabled": 0, "rental_uris": {"ios": "https://dc.lft.to/lastmile_qr_scan", "android": "https://dc.lft.to/lastmile_qr_scan"}, "is_reserved": 0}, {"lon": -77.0533045, "bike_id": "addbe699f20d547a1a2fb06db30c009f", "lat": 38.907307833333334, "fusion_lon": 0.0, "fusion_lat": 0.0, "type": "electric_scooter", "name": "addbe699f20d547a1a2fb06db30c009f", "is_disabled": 0, "rental_uris": {"ios": "https://dc.lft.to/lastmile_qr_scan", "android": "https://dc.lft.to/lastmile_qr_scan"}, "is_reserved": 0}, {"lon": -77.00133833333334, "bike_id": "5a557a5197a7fcdc5c2a0ed7f1d6288c", "lat": 38.885252, "fusion_lon": 0.0, "fusion_lat": 0.0, "type": "electric_scooter", "name": "5a557a5197a7fcdc5c2a0ed7f1d6288c", "is_disabled": 0, "rental_uris": {"ios": "https://dc.lft.to/lastmile_qr_scan", "android": "https://dc.lft.to/lastmile_qr_scan"}, "is_reserved": 0}, {"lon": -77.03251066666667, "bike_id": "66defc196992e4ecd4c56c03ef05ef8b", "lat": 38.91564183333333, "fusion_lon": 0.0, "fusion_lat": 0.0, "type": "electric_scooter", "name": "66defc196992e4ecd4c56c03ef05ef8b", "is_disabled": 0, "rental_uris": {"ios": "https://dc.lft.to/lastmile_qr_scan", "android": "https://dc.lft.to/lastmile_qr_scan"}, "is_reserved": 0}, {"lon": -77.0249825, "bike_id": "9b0935810ed62a31db4f0d4e9fce9cb0", "lat": 38.904148666666664, "fusion_lon": 0.0, "fusion_lat": 0.0, "type": "electric_scooter", "name": "9b0935810ed62a31db4f0d4e9fce9cb0", "is_disabled": 0, "rental_uris": {"ios": "https://dc.lft.to/lastmile_qr_scan", "android": "https://dc.lft.to/lastmile_qr_scan"}, "is_reserved": 0}, {"lon": -77.0253355, "bike_id": "ceceaf65dace58f0d98774fdcf6f9753", "lat": 38.943033, "fusion_lon": 0.0, "fusion_lat": 0.0, "type": "electric_scooter", "name": "ceceaf65dace58f0d98774fdcf6f9753", "is_disabled": 0, "rental_uris": {"ios": "https://dc.lft.to/lastmile_qr_scan", "android": "https://dc.lft.to/lastmile_qr_scan"}, "is_reserved": 0}, {"lon": -77.06132766666667, "bike_id": "ec18b60f5335bda488e770565dacb0c1", "lat": 38.9437035, "fusion_lon": 0.0, "fusion_lat": 0.0, "type": "electric_scooter", "name": "ec18b60f5335bda488e770565dacb0c1", "is_disabled": 0, "rental_uris": {"ios": "https://dc.lft.to/lastmile_qr_scan", "android": "https://dc.lft.to/lastmile_qr_scan"}, "is_reserved": 0}, {"lon": -77.07797833333333, "bike_id": "2b3cf7877cde7afeb23e443070ae887c", "lat": 38.996036, "fusion_lon": 0.0, "fusion_lat": 0.0, "type": "electric_bike", "name": "2b3cf7877cde7afeb23e443070ae887c", "is_disabled": 0, "rental_uris": {"ios": "https://dc.lft.to/lastmile_qr_scan", "android": "https://dc.lft.to/lastmile_qr_scan"}, "is_reserved": 0}, {"lon": -76.93756733333333, "bike_id": "e273900e7e71d0cf4048e6039211514c", "lat": 38.89049166666667, "fusion_lon": 0.0, "fusion_lat": 0.0, "type": "electric_scooter", "name": "e273900e7e71d0cf4048e6039211514c", "is_disabled": 0, "rental_uris": {"ios": "https://dc.lft.to/lastmile_qr_scan", "android": "https://dc.lft.to/lastmile_qr_scan"}, "is_reserved": 0}, {"lon": -77.05232, "bike_id": "b12bc745655eb966d6d762e367e96955", "lat": 38.92457383333333, "fusion_lon": 0.0, "fusion_lat": 0.0, "type": "electric_scooter", "name": "b12bc745655eb966d6d762e367e96955", "is_disabled": 0, "rental_uris": {"ios": "https://dc.lft.to/lastmile_qr_scan", "android": "https://dc.lft.to/lastmile_qr_scan"}, "is_reserved": 0}, {"lon": -76.99549366666666, "bike_id": "1bd39a2cdc3be7163387b5983ae89676", "lat": 38.86258766666667, "fusion_lon": 0.0, "fusion_lat": 0.0, "type": "electric_scooter", "name": "1bd39a2cdc3be7163387b5983ae89676", "is_disabled": 0, "rental_uris": {"ios": "https://dc.lft.to/lastmile_qr_scan", "android": "https://dc.lft.to/lastmile_qr_scan"}, "is_reserved": 0}, {"lon": -77.01653433333334, "bike_id": "dcbd97b29b081d89d9a64453bc4b8ec3", "lat": 38.929025333333335, "fusion_lon": 0.0, "fusion_lat": 0.0, "type": "electric_scooter", "name": "dcbd97b29b081d89d9a64453bc4b8ec3", "is_disabled": 0, "rental_uris": {"ios": "https://dc.lft.to/lastmile_qr_scan", "android": "https://dc.lft.to/lastmile_qr_scan"}, "is_reserved": 0}, {"lon": -77.03668333333333, "bike_id": "8167e38b8a6f5502537b7f7fded5fdae", "lat": 38.909619166666666, "fusion_lon": 0.0, "fusion_lat": 0.0, "type": "electric_scooter", "name": "8167e38b8a6f5502537b7f7fded5fdae", "is_disabled": 0, "rental_uris": {"ios": "https://dc.lft.to/lastmile_qr_scan", "android": "https://dc.lft.to/lastmile_qr_scan"}, "is_reserved": 0}, {"lon": -77.04907366666667, "bike_id": "ab0f86e1db37436669a54803bd13a06b", "lat": 38.903460833333334, "fusion_lon": 0.0, "fusion_lat": 0.0, "type": "electric_scooter", "name": "ab0f86e1db37436669a54803bd13a06b", "is_disabled": 0, "rental_uris": {"ios": "https://dc.lft.to/lastmile_qr_scan", "android": "https://dc.lft.to/lastmile_qr_scan"}, "is_reserved": 0}, {"lon": -77.03257183333334, "bike_id": "a40383e73be05d8e2510be1dd9a97a40", "lat": 38.9313435, "fusion_lon": 0.0, "fusion_lat": 0.0, "type": "electric_scooter", "name": "a40383e73be05d8e2510be1dd9a97a40", "is_disabled": 0, "rental_uris": {"ios": "https://dc.lft.to/lastmile_qr_scan", "android": "https://dc.lft.to/lastmile_qr_scan"}, "is_reserved": 0}, {"lon": -77.03672, "bike_id": "7bb6b0d625933d64152cdcf3426dc9c1", "lat": 38.92121783333333, "fusion_lon": 0.0, "fusion_lat": 0.0, "type": "electric_scooter", "name": "7bb6b0d625933d64152cdcf3426dc9c1", "is_disabled": 0, "rental_uris": {"ios": "https://dc.lft.to/lastmile_qr_scan", "android": "https://dc.lft.to/lastmile_qr_scan"}, "is_reserved": 0}, {"lon": -77.05800033333334, "bike_id": "f1f1f28988865180876f109a35298107", "lat": 38.934526, "fusion_lon": 0.0, "fusion_lat": 0.0, "type": "electric_scooter", "name": "f1f1f28988865180876f109a35298107", "is_disabled": 0, "rental_uris": {"ios": "https://dc.lft.to/lastmile_qr_scan", "android": "https://dc.lft.to/lastmile_qr_scan"}, "is_reserved": 0}, {"lon": -76.93735066666666, "bike_id": "6d68c24701bb5df411d7472228f698df", "lat": 38.88999, "fusion_lon": 0.0, "fusion_lat": 0.0, "type": "electric_scooter", "name": "6d68c24701bb5df411d7472228f698df", "is_disabled": 0, "rental_uris": {"ios": "https://dc.lft.to/lastmile_qr_scan", "android": "https://dc.lft.to/lastmile_qr_scan"}, "is_reserved": 0}, {"lon": -77.04502933333333, "bike_id": "552cab429d13eb967da5413b9ac44f4b", "lat": 38.91390633333334, "fusion_lon": 0.0, "fusion_lat": 0.0, "type": "electric_scooter", "name": "552cab429d13eb967da5413b9ac44f4b", "is_disabled": 0, "rental_uris": {"ios": "https://dc.lft.to/lastmile_qr_scan", "android": "https://dc.lft.to/lastmile_qr_scan"}, "is_reserved": 0}, {"lon": -77.036778, "bike_id": "3d149326c6ff4fd0bee25ab8c536dc82", "lat": 38.90874683333333, "fusion_lon": 0.0, "fusion_lat": 0.0, "type": "electric_scooter", "name": "3d149326c6ff4fd0bee25ab8c536dc82", "is_disabled": 0, "rental_uris": {"ios": "https://dc.lft.to/lastmile_qr_scan", "android": "https://dc.lft.to/lastmile_qr_scan"}, "is_reserved": 0}, {"lon": -77.0067335, "bike_id": "685c7dd70715be586fdfc08cede6e052", "lat": 38.9001235, "fusion_lon": 0.0, "fusion_lat": 0.0, "type": "electric_scooter", "name": "685c7dd70715be586fdfc08cede6e052", "is_disabled": 0, "rental_uris": {"ios": "https://dc.lft.to/lastmile_qr_scan", "android": "https://dc.lft.to/lastmile_qr_scan"}, "is_reserved": 0}, {"lon": -77.02933766666666, "bike_id": "074cf4d3b94dc2bf82a1c2366ba6d041", "lat": 38.920816, "fusion_lon": 0.0, "fusion_lat": 0.0, "type": "electric_scooter", "name": "074cf4d3b94dc2bf82a1c2366ba6d041", "is_disabled": 0, "rental_uris": {"ios": "https://dc.lft.to/lastmile_qr_scan", "android": "https://dc.lft.to/lastmile_qr_scan"}, "is_reserved": 0}, {"lon": -77.05223116666667, "bike_id": "9e5fc548791a830a97644d8aded773db", "lat": 38.92434866666667, "fusion_lon": 0.0, "fusion_lat": 0.0, "type": "electric_scooter", "name": "9e5fc548791a830a97644d8aded773db", "is_disabled": 0, "rental_uris": {"ios": "https://dc.lft.to/lastmile_qr_scan", "android": "https://dc.lft.to/lastmile_qr_scan"}, "is_reserved": 0}, {"lon": -77.05930233333333, "bike_id": "7271a6753cbbff9b392ec45317ae4710", "lat": 38.8624905, "fusion_lon": 0.0, "fusion_lat": 0.0, "type": "electric_scooter", "name": "7271a6753cbbff9b392ec45317ae4710", "is_disabled": 0, "rental_uris": {"ios": "https://dc.lft.to/lastmile_qr_scan", "android": "https://dc.lft.to/lastmile_qr_scan"}, "is_reserved": 0}, {"lon": -77.02986883333334, "bike_id": "fa8433124624333c1825d3c881450ad0", "lat": 38.902922333333336, "fusion_lon": 0.0, "fusion_lat": 0.0, "type": "electric_scooter", "name": "fa8433124624333c1825d3c881450ad0", "is_disabled": 0, "rental_uris": {"ios": "https://dc.lft.to/lastmile_qr_scan", "android": "https://dc.lft.to/lastmile_qr_scan"}, "is_reserved": 0}, {"lon": -77.00846333333334, "bike_id": "4070a84d866a0c90f1716bc01b00f45c", "lat": 38.916261666666664, "fusion_lon": 0.0, "fusion_lat": 0.0, "type": "electric_scooter", "name": "4070a84d866a0c90f1716bc01b00f45c", "is_disabled": 0, "rental_uris": {"ios": "https://dc.lft.to/lastmile_qr_scan", "android": "https://dc.lft.to/lastmile_qr_scan"}, "is_reserved": 0}, {"lon": -77.00205483333333, "bike_id": "55d7d164740b2284e9bcea85c6dcb1a7", "lat": 38.902388333333334, "fusion_lon": 0.0, "fusion_lat": 0.0, "type": "electric_scooter", "name": "55d7d164740b2284e9bcea85c6dcb1a7", "is_disabled": 0, "rental_uris": {"ios": "https://dc.lft.to/lastmile_qr_scan", "android": "https://dc.lft.to/lastmile_qr_scan"}, "is_reserved": 0}, {"lon": -77.04249916666667, "bike_id": "5e57a0b9692933154c22ff87f7085847", "lat": 38.92253433333333, "fusion_lon": 0.0, "fusion_lat": 0.0, "type": "electric_scooter", "name": "5e57a0b9692933154c22ff87f7085847", "is_disabled": 0, "rental_uris": {"ios": "https://dc.lft.to/lastmile_qr_scan", "android": "https://dc.lft.to/lastmile_qr_scan"}, "is_reserved": 0}, {"lon": -76.9889945, "bike_id": "9752de7507524122f4aac2c3aa3026c1", "lat": 38.91345716666667, "fusion_lon": 0.0, "fusion_lat": 0.0, "type": "electric_scooter", "name": "9752de7507524122f4aac2c3aa3026c1", "is_disabled": 0, "rental_uris": {"ios": "https://dc.lft.to/lastmile_qr_scan", "android": "https://dc.lft.to/lastmile_qr_scan"}, "is_reserved": 0}, {"lon": -77.04169733333333, "bike_id": "e5c1b86e3491f958e2368b90a320a40e", "lat": 38.90471266666667, "fusion_lon": 0.0, "fusion_lat": 0.0, "type": "electric_scooter", "name": "e5c1b86e3491f958e2368b90a320a40e", "is_disabled": 0, "rental_uris": {"ios": "https://dc.lft.to/lastmile_qr_scan", "android": "https://dc.lft.to/lastmile_qr_scan"}, "is_reserved": 0}, {"lon": -77.03427883333333, "bike_id": "88e745d62f878651ecf9203cdce41201", "lat": 38.9192765, "fusion_lon": 0.0, "fusion_lat": 0.0, "type": "electric_scooter", "name": "88e745d62f878651ecf9203cdce41201", "is_disabled": 0, "rental_uris": {"ios": "https://dc.lft.to/lastmile_qr_scan", "android": "https://dc.lft.to/lastmile_qr_scan"}, "is_reserved": 0}, {"lon": -77.02052566666667, "bike_id": "a19cf50d7d3b76f4d3d4e007a558e295", "lat": 38.91559566666667, "fusion_lon": 0.0, "fusion_lat": 0.0, "type": "electric_scooter", "name": "a19cf50d7d3b76f4d3d4e007a558e295", "is_disabled": 0, "rental_uris": {"ios": "https://dc.lft.to/lastmile_qr_scan", "android": "https://dc.lft.to/lastmile_qr_scan"}, "is_reserved": 0}, {"lon": -77.01088483333334, "bike_id": "8eff7706f50ee3fccee9d7b20f061237", "lat": 38.9037695, "fusion_lon": 0.0, "fusion_lat": 0.0, "type": "electric_scooter", "name": "8eff7706f50ee3fccee9d7b20f061237", "is_disabled": 0, "rental_uris": {"ios": "https://dc.lft.to/lastmile_qr_scan", "android": "https://dc.lft.to/lastmile_qr_scan"}, "is_reserved": 0}, {"lon": -76.999396, "bike_id": "2020d9d1d6c82e8420fcb77aa99f04bc", "lat": 38.890452, "fusion_lon": 0.0, "fusion_lat": 0.0, "type": "electric_scooter", "name": "2020d9d1d6c82e8420fcb77aa99f04bc", "is_disabled": 0, "rental_uris": {"ios": "https://dc.lft.to/lastmile_qr_scan", "android": "https://dc.lft.to/lastmile_qr_scan"}, "is_reserved": 0}, {"lon": -77.00634766666667, "bike_id": "42b4c0e36d9df9cdd88aa3ac08b17f2e", "lat": 38.955986, "fusion_lon": 0.0, "fusion_lat": 0.0, "type": "electric_scooter", "name": "42b4c0e36d9df9cdd88aa3ac08b17f2e", "is_disabled": 0, "rental_uris": {"ios": "https://dc.lft.to/lastmile_qr_scan", "android": "https://dc.lft.to/lastmile_qr_scan"}, "is_reserved": 0}, {"lon": -77.018469, "bike_id": "ff7926b3010d6a220e0e5f8af1d5ec7c", "lat": 38.91265166666667, "fusion_lon": 0.0, "fusion_lat": 0.0, "type": "electric_scooter", "name": "ff7926b3010d6a220e0e5f8af1d5ec7c", "is_disabled": 0, "rental_uris": {"ios": "https://dc.lft.to/lastmile_qr_scan", "android": "https://dc.lft.to/lastmile_qr_scan"}, "is_reserved": 0}, {"lon": -77.02377633333333, "bike_id": "c6952bafe7e9d166d3a030841fa276df", "lat": 38.9266145, "fusion_lon": 0.0, "fusion_lat": 0.0, "type": "electric_scooter", "name": "c6952bafe7e9d166d3a030841fa276df", "is_disabled": 0, "rental_uris": {"ios": "https://dc.lft.to/lastmile_qr_scan", "android": "https://dc.lft.to/lastmile_qr_scan"}, "is_reserved": 0}, {"lon": -77.04388033333333, "bike_id": "a629b8e6fc24d4416fa7f8525bd0c474", "lat": 38.91079366666666, "fusion_lon": 0.0, "fusion_lat": 0.0, "type": "electric_scooter", "name": "a629b8e6fc24d4416fa7f8525bd0c474", "is_disabled": 0, "rental_uris": {"ios": "https://dc.lft.to/lastmile_qr_scan", "android": "https://dc.lft.to/lastmile_qr_scan"}, "is_reserved": 0}, {"lon": -76.989278, "bike_id": "f6c7cba46227da7bb74f13916fc78931", "lat": 38.88204283333334, "fusion_lon": 0.0, "fusion_lat": 0.0, "type": "electric_scooter", "name": "f6c7cba46227da7bb74f13916fc78931", "is_disabled": 0, "rental_uris": {"ios": "https://dc.lft.to/lastmile_qr_scan", "android": "https://dc.lft.to/lastmile_qr_scan"}, "is_reserved": 0}, {"lon": -77.035168, "bike_id": "f8c91f1c89291d848276efb06addd023", "lat": 38.90693516666666, "fusion_lon": 0.0, "fusion_lat": 0.0, "type": "electric_scooter", "name": "f8c91f1c89291d848276efb06addd023", "is_disabled": 0, "rental_uris": {"ios": "https://dc.lft.to/lastmile_qr_scan", "android": "https://dc.lft.to/lastmile_qr_scan"}, "is_reserved": 0}, {"lon": -77.04183283333333, "bike_id": "1030b432874638237d9ce798e530655f", "lat": 38.91555433333333, "fusion_lon": 0.0, "fusion_lat": 0.0, "type": "electric_scooter", "name": "1030b432874638237d9ce798e530655f", "is_disabled": 0, "rental_uris": {"ios": "https://dc.lft.to/lastmile_qr_scan", "android": "https://dc.lft.to/lastmile_qr_scan"}, "is_reserved": 0}, {"lon": -77.00006833333333, "bike_id": "6c6142c8c4a873a148bcb8c1f3e5176f", "lat": 38.924510833333336, "fusion_lon": 0.0, "fusion_lat": 0.0, "type": "electric_scooter", "name": "6c6142c8c4a873a148bcb8c1f3e5176f", "is_disabled": 0, "rental_uris": {"ios": "https://dc.lft.to/lastmile_qr_scan", "android": "https://dc.lft.to/lastmile_qr_scan"}, "is_reserved": 0}, {"lon": -76.95006933333333, "bike_id": "4f50c553edf126152bd9cadb370e0482", "lat": 38.893821333333335, "fusion_lon": 0.0, "fusion_lat": 0.0, "type": "electric_scooter", "name": "4f50c553edf126152bd9cadb370e0482", "is_disabled": 0, "rental_uris": {"ios": "https://dc.lft.to/lastmile_qr_scan", "android": "https://dc.lft.to/lastmile_qr_scan"}, "is_reserved": 0}, {"lon": -76.98877016666667, "bike_id": "890d68fb20a3d34e97bdc4223d5cddc2", "lat": 38.86659916666667, "fusion_lon": 0.0, "fusion_lat": 0.0, "type": "electric_scooter", "name": "890d68fb20a3d34e97bdc4223d5cddc2", "is_disabled": 0, "rental_uris": {"ios": "https://dc.lft.to/lastmile_qr_scan", "android": "https://dc.lft.to/lastmile_qr_scan"}, "is_reserved": 0}, {"lon": -77.02177383333333, "bike_id": "06cb73d755d3a6cec11e4f70cda1b3ed", "lat": 38.90961133333333, "fusion_lon": 0.0, "fusion_lat": 0.0, "type": "electric_scooter", "name": "06cb73d755d3a6cec11e4f70cda1b3ed", "is_disabled": 0, "rental_uris": {"ios": "https://dc.lft.to/lastmile_qr_scan", "android": "https://dc.lft.to/lastmile_qr_scan"}, "is_reserved": 0}, {"lon": -76.98527166666666, "bike_id": "d9e2f6e19eb848c99f8fc7eea543834c", "lat": 38.866874, "fusion_lon": 0.0, "fusion_lat": 0.0, "type": "electric_scooter", "name": "d9e2f6e19eb848c99f8fc7eea543834c", "is_disabled": 0, "rental_uris": {"ios": "https://dc.lft.to/lastmile_qr_scan", "android": "https://dc.lft.to/lastmile_qr_scan"}, "is_reserved": 0}, {"lon": -77.00888833333333, "bike_id": "33425e410c4b2d825f22b8b385ccd8d4", "lat": 38.922776, "fusion_lon": 0.0, "fusion_lat": 0.0, "type": "electric_scooter", "name": "33425e410c4b2d825f22b8b385ccd8d4", "is_disabled": 0, "rental_uris": {"ios": "https://dc.lft.to/lastmile_qr_scan", "android": "https://dc.lft.to/lastmile_qr_scan"}, "is_reserved": 0}, {"lon": -77.23320533333333, "bike_id": "f2c7ecc9aa659738a7d1a45c20abbf3d", "lat": 38.87282066666667, "fusion_lon": 0.0, "fusion_lat": 0.0, "type": "electric_bike", "name": "f2c7ecc9aa659738a7d1a45c20abbf3d", "is_disabled": 0, "rental_uris": {"ios": "https://dc.lft.to/lastmile_qr_scan", "android": "https://dc.lft.to/lastmile_qr_scan"}, "is_reserved": 0}, {"lon": -77.02875533333334, "bike_id": "04222c8309969fad3892721b2fc191bc", "lat": 38.90425483333333, "fusion_lon": 0.0, "fusion_lat": 0.0, "type": "electric_scooter", "name": "04222c8309969fad3892721b2fc191bc", "is_disabled": 0, "rental_uris": {"ios": "https://dc.lft.to/lastmile_qr_scan", "android": "https://dc.lft.to/lastmile_qr_scan"}, "is_reserved": 0}, {"lon": -77.02828283333334, "bike_id": "67728c5b98c4024863c00aad86e275a7", "lat": 38.887333166666664, "fusion_lon": 0.0, "fusion_lat": 0.0, "type": "electric_scooter", "name": "67728c5b98c4024863c00aad86e275a7", "is_disabled": 0, "rental_uris": {"ios": "https://dc.lft.to/lastmile_qr_scan", "android": "https://dc.lft.to/lastmile_qr_scan"}, "is_reserved": 0}, {"lon": -76.97300983333334, "bike_id": "faa40786f0886ef0f9972d26a553161b", "lat": 38.916457, "fusion_lon": 0.0, "fusion_lat": 0.0, "type": "electric_bike", "name": "faa40786f0886ef0f9972d26a553161b", "is_disabled": 0, "rental_uris": {"ios": "https://dc.lft.to/lastmile_qr_scan", "android": "https://dc.lft.to/lastmile_qr_scan"}, "is_reserved": 0}, {"lon": -76.96543183333333, "bike_id": "46b12dc4e5c3f13ab3c879c417f9aff2", "lat": 38.918433, "fusion_lon": 0.0, "fusion_lat": 0.0, "type": "electric_scooter", "name": "46b12dc4e5c3f13ab3c879c417f9aff2", "is_disabled": 0, "rental_uris": {"ios": "https://dc.lft.to/lastmile_qr_scan", "android": "https://dc.lft.to/lastmile_qr_scan"}, "is_reserved": 0}, {"lon": -77.23329983333333, "bike_id": "f10960c6488781e1939cad7aea57565f", "lat": 38.8727565, "fusion_lon": 0.0, "fusion_lat": 0.0, "type": "electric_bike", "name": "f10960c6488781e1939cad7aea57565f", "is_disabled": 0, "rental_uris": {"ios": "https://dc.lft.to/lastmile_qr_scan", "android": "https://dc.lft.to/lastmile_qr_scan"}, "is_reserved": 0}, {"lon": -77.0215825, "bike_id": "ce90dba03ada9eded456499de5e74164", "lat": 38.92602516666667, "fusion_lon": 0.0, "fusion_lat": 0.0, "type": "electric_scooter", "name": "ce90dba03ada9eded456499de5e74164", "is_disabled": 0, "rental_uris": {"ios": "https://dc.lft.to/lastmile_qr_scan", "android": "https://dc.lft.to/lastmile_qr_scan"}, "is_reserved": 0}, {"lon": -77.0589555, "bike_id": "a451f061b66f41a25a311e642849ed0a", "lat": 38.9361095, "fusion_lon": 0.0, "fusion_lat": 0.0, "type": "electric_scooter", "name": "a451f061b66f41a25a311e642849ed0a", "is_disabled": 0, "rental_uris": {"ios": "https://dc.lft.to/lastmile_qr_scan", "android": "https://dc.lft.to/lastmile_qr_scan"}, "is_reserved": 0}, {"lon": -76.97342733333333, "bike_id": "adfdfb8b11daa35a636cc0283642a0c6", "lat": 38.86569933333333, "fusion_lon": 0.0, "fusion_lat": 0.0, "type": "electric_scooter", "name": "adfdfb8b11daa35a636cc0283642a0c6", "is_disabled": 0, "rental_uris": {"ios": "https://dc.lft.to/lastmile_qr_scan", "android": "https://dc.lft.to/lastmile_qr_scan"}, "is_reserved": 0}, {"lon": -77.0382875, "bike_id": "05e048f13c87612dc00d4bd8d7691bc4", "lat": 38.912557, "fusion_lon": 0.0, "fusion_lat": 0.0, "type": "electric_scooter", "name": "05e048f13c87612dc00d4bd8d7691bc4", "is_disabled": 0, "rental_uris": {"ios": "https://dc.lft.to/lastmile_qr_scan", "android": "https://dc.lft.to/lastmile_qr_scan"}, "is_reserved": 0}, {"lon": -76.98229533333334, "bike_id": "ecaf425f08059d26b14f7aea2a074bf4", "lat": 38.91648583333333, "fusion_lon": 0.0, "fusion_lat": 0.0, "type": "electric_scooter", "name": "ecaf425f08059d26b14f7aea2a074bf4", "is_disabled": 0, "rental_uris": {"ios": "https://dc.lft.to/lastmile_qr_scan", "android": "https://dc.lft.to/lastmile_qr_scan"}, "is_reserved": 0}, {"lon": -77.03180183333333, "bike_id": "2a1b1daf0715a87c9f957078c72a42ff", "lat": 38.936878166666666, "fusion_lon": 0.0, "fusion_lat": 0.0, "type": "electric_scooter", "name": "2a1b1daf0715a87c9f957078c72a42ff", "is_disabled": 0, "rental_uris": {"ios": "https://dc.lft.to/lastmile_qr_scan", "android": "https://dc.lft.to/lastmile_qr_scan"}, "is_reserved": 0}, {"lon": -77.00961133333334, "bike_id": "e0316e3aff6f9b5cef2c2fb2f0fbf1c5", "lat": 38.917048333333334, "fusion_lon": 0.0, "fusion_lat": 0.0, "type": "electric_scooter", "name": "e0316e3aff6f9b5cef2c2fb2f0fbf1c5", "is_disabled": 0, "rental_uris": {"ios": "https://dc.lft.to/lastmile_qr_scan", "android": "https://dc.lft.to/lastmile_qr_scan"}, "is_reserved": 0}, {"lon": -77.111582, "bike_id": "676c16a8d0f621b6b5a19b5aeafe8169", "lat": 38.85514033333333, "fusion_lon": 0.0, "fusion_lat": 0.0, "type": "electric_bike", "name": "676c16a8d0f621b6b5a19b5aeafe8169", "is_disabled": 0, "rental_uris": {"ios": "https://dc.lft.to/lastmile_qr_scan", "android": "https://dc.lft.to/lastmile_qr_scan"}, "is_reserved": 0}, {"lon": -77.0380585, "bike_id": "340c03b83ba7a6bb695ec88f90b57612", "lat": 38.911178, "fusion_lon": 0.0, "fusion_lat": 0.0, "type": "electric_scooter", "name": "340c03b83ba7a6bb695ec88f90b57612", "is_disabled": 0, "rental_uris": {"ios": "https://dc.lft.to/lastmile_qr_scan", "android": "https://dc.lft.to/lastmile_qr_scan"}, "is_reserved": 0}, {"lon": -77.0258575, "bike_id": "46892bbda598e82afa57296fd14b8b11", "lat": 38.91413333333333, "fusion_lon": 0.0, "fusion_lat": 0.0, "type": "electric_scooter", "name": "46892bbda598e82afa57296fd14b8b11", "is_disabled": 0, "rental_uris": {"ios": "https://dc.lft.to/lastmile_qr_scan", "android": "https://dc.lft.to/lastmile_qr_scan"}, "is_reserved": 0}, {"lon": -77.10487233333333, "bike_id": "27f84f7d9314bae91a326aefc1ac1c23", "lat": 38.8560115, "fusion_lon": 0.0, "fusion_lat": 0.0, "type": "electric_bike", "name": "27f84f7d9314bae91a326aefc1ac1c23", "is_disabled": 0, "rental_uris": {"ios": "https://dc.lft.to/lastmile_qr_scan", "android": "https://dc.lft.to/lastmile_qr_scan"}, "is_reserved": 0}, {"lon": -77.05515116666666, "bike_id": "1f6bec559c31d4074a95b5ae73fd4911", "lat": 38.89965683333333, "fusion_lon": 0.0, "fusion_lat": 0.0, "type": "electric_scooter", "name": "1f6bec559c31d4074a95b5ae73fd4911", "is_disabled": 0, "rental_uris": {"ios": "https://dc.lft.to/lastmile_qr_scan", "android": "https://dc.lft.to/lastmile_qr_scan"}, "is_reserved": 0}, {"lon": -77.0326485, "bike_id": "063c21c9719328ab6778cdeb54bd18d1", "lat": 38.930768, "fusion_lon": 0.0, "fusion_lat": 0.0, "type": "electric_scooter", "name": "063c21c9719328ab6778cdeb54bd18d1", "is_disabled": 0, "rental_uris": {"ios": "https://dc.lft.to/lastmile_qr_scan", "android": "https://dc.lft.to/lastmile_qr_scan"}, "is_reserved": 0}, {"lon": -76.98228683333333, "bike_id": "0038343b20c8925561d8395550b9ab76", "lat": 38.886473, "fusion_lon": 0.0, "fusion_lat": 0.0, "type": "electric_scooter", "name": "0038343b20c8925561d8395550b9ab76", "is_disabled": 0, "rental_uris": {"ios": "https://dc.lft.to/lastmile_qr_scan", "android": "https://dc.lft.to/lastmile_qr_scan"}, "is_reserved": 0}, {"lon": -77.00566566666667, "bike_id": "77b90ad8287549ff2dd0f0c59754ff9b", "lat": 38.87473333333333, "fusion_lon": 0.0, "fusion_lat": 0.0, "type": "electric_scooter", "name": "77b90ad8287549ff2dd0f0c59754ff9b", "is_disabled": 0, "rental_uris": {"ios": "https://dc.lft.to/lastmile_qr_scan", "android": "https://dc.lft.to/lastmile_qr_scan"}, "is_reserved": 0}, {"lon": -77.03275483333333, "bike_id": "f0bd53e39b0bf132bd435749c0e53738", "lat": 38.91996316666667, "fusion_lon": 0.0, "fusion_lat": 0.0, "type": "electric_scooter", "name": "f0bd53e39b0bf132bd435749c0e53738", "is_disabled": 0, "rental_uris": {"ios": "https://dc.lft.to/lastmile_qr_scan", "android": "https://dc.lft.to/lastmile_qr_scan"}, "is_reserved": 0}, {"lon": -76.99531766666666, "bike_id": "24d312b7da66c42deede9242be69fa95", "lat": 38.88373216666667, "fusion_lon": 0.0, "fusion_lat": 0.0, "type": "electric_scooter", "name": "24d312b7da66c42deede9242be69fa95", "is_disabled": 0, "rental_uris": {"ios": "https://dc.lft.to/lastmile_qr_scan", "android": "https://dc.lft.to/lastmile_qr_scan"}, "is_reserved": 0}, {"lon": -76.93733616666667, "bike_id": "50320e589dafb064487e66fc68432fae", "lat": 38.89016016666667, "fusion_lon": 0.0, "fusion_lat": 0.0, "type": "electric_scooter", "name": "50320e589dafb064487e66fc68432fae", "is_disabled": 0, "rental_uris": {"ios": "https://dc.lft.to/lastmile_qr_scan", "android": "https://dc.lft.to/lastmile_qr_scan"}, "is_reserved": 0}, {"lon": -77.05094333333334, "bike_id": "fdd56931d4fa5e2e2ff42bde9071acb4", "lat": 38.90969116666667, "fusion_lon": 0.0, "fusion_lat": 0.0, "type": "electric_scooter", "name": "fdd56931d4fa5e2e2ff42bde9071acb4", "is_disabled": 0, "rental_uris": {"ios": "https://dc.lft.to/lastmile_qr_scan", "android": "https://dc.lft.to/lastmile_qr_scan"}, "is_reserved": 0}, {"lon": -77.05301433333334, "bike_id": "69d6e28c46ea92ee58eb74396448d925", "lat": 38.925521, "fusion_lon": 0.0, "fusion_lat": 0.0, "type": "electric_scooter", "name": "69d6e28c46ea92ee58eb74396448d925", "is_disabled": 0, "rental_uris": {"ios": "https://dc.lft.to/lastmile_qr_scan", "android": "https://dc.lft.to/lastmile_qr_scan"}, "is_reserved": 0}, {"lon": -77.0102845, "bike_id": "24c6991666be9762030506c518fac83d", "lat": 38.9000065, "fusion_lon": 0.0, "fusion_lat": 0.0, "type": "electric_scooter", "name": "24c6991666be9762030506c518fac83d", "is_disabled": 0, "rental_uris": {"ios": "https://dc.lft.to/lastmile_qr_scan", "android": "https://dc.lft.to/lastmile_qr_scan"}, "is_reserved": 0}, {"lon": -77.05727833333333, "bike_id": "e1aff7f54694ed9d05b7eac5159402b7", "lat": 38.93367033333333, "fusion_lon": 0.0, "fusion_lat": 0.0, "type": "electric_scooter", "name": "e1aff7f54694ed9d05b7eac5159402b7", "is_disabled": 0, "rental_uris": {"ios": "https://dc.lft.to/lastmile_qr_scan", "android": "https://dc.lft.to/lastmile_qr_scan"}, "is_reserved": 0}, {"lon": -77.0469205, "bike_id": "648ce4b51d86bfe2a7d641c21320d2db", "lat": 39.023943, "fusion_lon": 0.0, "fusion_lat": 0.0, "type": "electric_bike", "name": "648ce4b51d86bfe2a7d641c21320d2db", "is_disabled": 0, "rental_uris": {"ios": "https://dc.lft.to/lastmile_qr_scan", "android": "https://dc.lft.to/lastmile_qr_scan"}, "is_reserved": 0}, {"lon": -77.03509016666666, "bike_id": "f2dcc02c4e7f1815e329e680c045434b", "lat": 38.921532, "fusion_lon": 0.0, "fusion_lat": 0.0, "type": "electric_scooter", "name": "f2dcc02c4e7f1815e329e680c045434b", "is_disabled": 0, "rental_uris": {"ios": "https://dc.lft.to/lastmile_qr_scan", "android": "https://dc.lft.to/lastmile_qr_scan"}, "is_reserved": 0}, {"lon": -77.03700083333334, "bike_id": "5b9934a3721e0ff60643d550d2873afd", "lat": 38.932777, "fusion_lon": 0.0, "fusion_lat": 0.0, "type": "electric_scooter", "name": "5b9934a3721e0ff60643d550d2873afd", "is_disabled": 0, "rental_uris": {"ios": "https://dc.lft.to/lastmile_qr_scan", "android": "https://dc.lft.to/lastmile_qr_scan"}, "is_reserved": 0}, {"lon": -77.01983916666667, "bike_id": "d293324b54b54814909156d1909bc8c7", "lat": 38.91513616666667, "fusion_lon": 0.0, "fusion_lat": 0.0, "type": "electric_scooter", "name": "d293324b54b54814909156d1909bc8c7", "is_disabled": 0, "rental_uris": {"ios": "https://dc.lft.to/lastmile_qr_scan", "android": "https://dc.lft.to/lastmile_qr_scan"}, "is_reserved": 0}, {"lon": -77.01622133333333, "bike_id": "553a73ed24617bfe1c501efd0714d185", "lat": 38.910094666666666, "fusion_lon": 0.0, "fusion_lat": 0.0, "type": "electric_scooter", "name": "553a73ed24617bfe1c501efd0714d185", "is_disabled": 0, "rental_uris": {"ios": "https://dc.lft.to/lastmile_qr_scan", "android": "https://dc.lft.to/lastmile_qr_scan"}, "is_reserved": 0}, {"lon": -76.99505283333333, "bike_id": "1077e2b2b90b1cb3da3f5891a4423244", "lat": 38.880593833333336, "fusion_lon": 0.0, "fusion_lat": 0.0, "type": "electric_scooter", "name": "1077e2b2b90b1cb3da3f5891a4423244", "is_disabled": 0, "rental_uris": {"ios": "https://dc.lft.to/lastmile_qr_scan", "android": "https://dc.lft.to/lastmile_qr_scan"}, "is_reserved": 0}, {"lon": -77.02099683333333, "bike_id": "62cb91976e0a61068256a1b36ec33013", "lat": 38.91635566666667, "fusion_lon": 0.0, "fusion_lat": 0.0, "type": "electric_scooter", "name": "62cb91976e0a61068256a1b36ec33013", "is_disabled": 0, "rental_uris": {"ios": "https://dc.lft.to/lastmile_qr_scan", "android": "https://dc.lft.to/lastmile_qr_scan"}, "is_reserved": 0}, {"lon": -77.03099633333333, "bike_id": "fbd75f5239cee4fb32a6f936fa121602", "lat": 38.928584666666666, "fusion_lon": 0.0, "fusion_lat": 0.0, "type": "electric_scooter", "name": "fbd75f5239cee4fb32a6f936fa121602", "is_disabled": 0, "rental_uris": {"ios": "https://dc.lft.to/lastmile_qr_scan", "android": "https://dc.lft.to/lastmile_qr_scan"}, "is_reserved": 0}, {"lon": -77.0388095, "bike_id": "55a0c26f50ee6a4e16c9f34df085643c", "lat": 38.9231455, "fusion_lon": 0.0, "fusion_lat": 0.0, "type": "electric_scooter", "name": "55a0c26f50ee6a4e16c9f34df085643c", "is_disabled": 0, "rental_uris": {"ios": "https://dc.lft.to/lastmile_qr_scan", "android": "https://dc.lft.to/lastmile_qr_scan"}, "is_reserved": 0}, {"lon": -76.98084583333333, "bike_id": "fa15873afae9abdf58191d1d16042391", "lat": 38.907085333333335, "fusion_lon": 0.0, "fusion_lat": 0.0, "type": "electric_scooter", "name": "fa15873afae9abdf58191d1d16042391", "is_disabled": 0, "rental_uris": {"ios": "https://dc.lft.to/lastmile_qr_scan", "android": "https://dc.lft.to/lastmile_qr_scan"}, "is_reserved": 0}, {"lon": -77.00536016666666, "bike_id": "42e2875e6042d7e9e60151b7ff91bcfb", "lat": 38.87455933333333, "fusion_lon": 0.0, "fusion_lat": 0.0, "type": "electric_scooter", "name": "42e2875e6042d7e9e60151b7ff91bcfb", "is_disabled": 0, "rental_uris": {"ios": "https://dc.lft.to/lastmile_qr_scan", "android": "https://dc.lft.to/lastmile_qr_scan"}, "is_reserved": 0}, {"lon": -77.003318, "bike_id": "d724aaf3bd2a05d474888b197f8c18a6", "lat": 38.897295166666666, "fusion_lon": 0.0, "fusion_lat": 0.0, "type": "electric_scooter", "name": "d724aaf3bd2a05d474888b197f8c18a6", "is_disabled": 0, "rental_uris": {"ios": "https://dc.lft.to/lastmile_qr_scan", "android": "https://dc.lft.to/lastmile_qr_scan"}, "is_reserved": 0}, {"lon": -77.03323616666667, "bike_id": "41f2cd93b2880cfded16fd94a51169fe", "lat": 38.91566816666667, "fusion_lon": 0.0, "fusion_lat": 0.0, "type": "electric_scooter", "name": "41f2cd93b2880cfded16fd94a51169fe", "is_disabled": 0, "rental_uris": {"ios": "https://dc.lft.to/lastmile_qr_scan", "android": "https://dc.lft.to/lastmile_qr_scan"}, "is_reserved": 0}, {"lon": -76.99004766666667, "bike_id": "afc10de40b25d8c0b809ec9f13f968b3", "lat": 38.865075166666664, "fusion_lon": 0.0, "fusion_lat": 0.0, "type": "electric_scooter", "name": "afc10de40b25d8c0b809ec9f13f968b3", "is_disabled": 0, "rental_uris": {"ios": "https://dc.lft.to/lastmile_qr_scan", "android": "https://dc.lft.to/lastmile_qr_scan"}, "is_reserved": 0}, {"lon": -77.05239016666667, "bike_id": "0ed8464e7cd842a79a4e1b204d248418", "lat": 38.923444, "fusion_lon": 0.0, "fusion_lat": 0.0, "type": "electric_scooter", "name": "0ed8464e7cd842a79a4e1b204d248418", "is_disabled": 0, "rental_uris": {"ios": "https://dc.lft.to/lastmile_qr_scan", "android": "https://dc.lft.to/lastmile_qr_scan"}, "is_reserved": 0}, {"lon": -77.0683, "bike_id": "25d4ffa667a8bd18017e9ef26ea7c743", "lat": 38.80569783333333, "fusion_lon": 0.0, "fusion_lat": 0.0, "type": "electric_bike", "name": "25d4ffa667a8bd18017e9ef26ea7c743", "is_disabled": 0, "rental_uris": {"ios": "https://dc.lft.to/lastmile_qr_scan", "android": "https://dc.lft.to/lastmile_qr_scan"}, "is_reserved": 0}, {"lon": -77.027647, "bike_id": "9d68fd9024a64e3ffb8114892d54218f", "lat": 38.95427333333333, "fusion_lon": 0.0, "fusion_lat": 0.0, "type": "electric_scooter", "name": "9d68fd9024a64e3ffb8114892d54218f", "is_disabled": 0, "rental_uris": {"ios": "https://dc.lft.to/lastmile_qr_scan", "android": "https://dc.lft.to/lastmile_qr_scan"}, "is_reserved": 0}, {"lon": -77.032625, "bike_id": "396227e646ddb454b9de6e6a3b3d720d", "lat": 38.937225833333336, "fusion_lon": 0.0, "fusion_lat": 0.0, "type": "electric_scooter", "name": "396227e646ddb454b9de6e6a3b3d720d", "is_disabled": 0, "rental_uris": {"ios": "https://dc.lft.to/lastmile_qr_scan", "android": "https://dc.lft.to/lastmile_qr_scan"}, "is_reserved": 0}, {"lon": -76.9876885, "bike_id": "935cee79b0a246992cf446fc94d0253f", "lat": 38.857723, "fusion_lon": 0.0, "fusion_lat": 0.0, "type": "electric_bike", "name": "935cee79b0a246992cf446fc94d0253f", "is_disabled": 0, "rental_uris": {"ios": "https://dc.lft.to/lastmile_qr_scan", "android": "https://dc.lft.to/lastmile_qr_scan"}, "is_reserved": 0}, {"lon": -77.02160516666666, "bike_id": "722e45a42d5369a2e997bca99ce9bf81", "lat": 38.898867, "fusion_lon": 0.0, "fusion_lat": 0.0, "type": "electric_bike", "name": "722e45a42d5369a2e997bca99ce9bf81", "is_disabled": 0, "rental_uris": {"ios": "https://dc.lft.to/lastmile_qr_scan", "android": "https://dc.lft.to/lastmile_qr_scan"}, "is_reserved": 0}, {"lon": -77.0248205, "bike_id": "68d20748a2d19955f5948eaac35bf565", "lat": 38.93623983333333, "fusion_lon": 0.0, "fusion_lat": 0.0, "type": "electric_scooter", "name": "68d20748a2d19955f5948eaac35bf565", "is_disabled": 0, "rental_uris": {"ios": "https://dc.lft.to/lastmile_qr_scan", "android": "https://dc.lft.to/lastmile_qr_scan"}, "is_reserved": 0}, {"lon": -77.0184575, "bike_id": "cf4c6adfe96ec29619408cc8b8d31e0c", "lat": 38.93028666666667, "fusion_lon": 0.0, "fusion_lat": 0.0, "type": "electric_bike", "name": "cf4c6adfe96ec29619408cc8b8d31e0c", "is_disabled": 0, "rental_uris": {"ios": "https://dc.lft.to/lastmile_qr_scan", "android": "https://dc.lft.to/lastmile_qr_scan"}, "is_reserved": 0}, {"lon": -77.11782766666667, "bike_id": "479723bacfbf72fc7bb905ca93661d5d", "lat": 39.054935, "fusion_lon": 0.0, "fusion_lat": 0.0, "type": "electric_bike", "name": "479723bacfbf72fc7bb905ca93661d5d", "is_disabled": 0, "rental_uris": {"ios": "https://dc.lft.to/lastmile_qr_scan", "android": "https://dc.lft.to/lastmile_qr_scan"}, "is_reserved": 0}, {"lon": -77.03283783333333, "bike_id": "6c459e2cb3853cb464bc0ed6ef9e36c2", "lat": 38.93642916666667, "fusion_lon": 0.0, "fusion_lat": 0.0, "type": "electric_scooter", "name": "6c459e2cb3853cb464bc0ed6ef9e36c2", "is_disabled": 0, "rental_uris": {"ios": "https://dc.lft.to/lastmile_qr_scan", "android": "https://dc.lft.to/lastmile_qr_scan"}, "is_reserved": 0}, {"lon": -77.17839133333334, "bike_id": "3de63db8bec935248601602426dac34e", "lat": 39.08860633333333, "fusion_lon": 0.0, "fusion_lat": 0.0, "type": "electric_bike", "name": "3de63db8bec935248601602426dac34e", "is_disabled": 0, "rental_uris": {"ios": "https://dc.lft.to/lastmile_qr_scan", "android": "https://dc.lft.to/lastmile_qr_scan"}, "is_reserved": 0}, {"lon": -77.03297216666667, "bike_id": "37b6e1eea0d3d16e83d94c4d83b12622", "lat": 38.956548, "fusion_lon": 0.0, "fusion_lat": 0.0, "type": "electric_scooter", "name": "37b6e1eea0d3d16e83d94c4d83b12622", "is_disabled": 0, "rental_uris": {"ios": "https://dc.lft.to/lastmile_qr_scan", "android": "https://dc.lft.to/lastmile_qr_scan"}, "is_reserved": 0}, {"lon": -77.07863416666666, "bike_id": "ac83fe823a6b782d04f86f2705d834fb", "lat": 38.924657833333335, "fusion_lon": 0.0, "fusion_lat": 0.0, "type": "electric_scooter", "name": "ac83fe823a6b782d04f86f2705d834fb", "is_disabled": 0, "rental_uris": {"ios": "https://dc.lft.to/lastmile_qr_scan", "android": "https://dc.lft.to/lastmile_qr_scan"}, "is_reserved": 0}, {"lon": -76.99051816666666, "bike_id": "0e9c9aa4de24f7c1446ddda67ed917e2", "lat": 38.863806833333335, "fusion_lon": 0.0, "fusion_lat": 0.0, "type": "electric_scooter", "name": "0e9c9aa4de24f7c1446ddda67ed917e2", "is_disabled": 0, "rental_uris": {"ios": "https://dc.lft.to/lastmile_qr_scan", "android": "https://dc.lft.to/lastmile_qr_scan"}, "is_reserved": 0}, {"lon": -76.98219983333334, "bike_id": "a07fd6b2a9be107321e8bdff0706545b", "lat": 38.91656733333333, "fusion_lon": 0.0, "fusion_lat": 0.0, "type": "electric_scooter", "name": "a07fd6b2a9be107321e8bdff0706545b", "is_disabled": 0, "rental_uris": {"ios": "https://dc.lft.to/lastmile_qr_scan", "android": "https://dc.lft.to/lastmile_qr_scan"}, "is_reserved": 0}, {"lon": -77.035882, "bike_id": "3fc114a923d28a116a2bcb41445e178a", "lat": 38.9075845, "fusion_lon": 0.0, "fusion_lat": 0.0, "type": "electric_scooter", "name": "3fc114a923d28a116a2bcb41445e178a", "is_disabled": 0, "rental_uris": {"ios": "https://dc.lft.to/lastmile_qr_scan", "android": "https://dc.lft.to/lastmile_qr_scan"}, "is_reserved": 0}, {"lon": -77.032161, "bike_id": "fe90ddf82b9319ac0c2c1348f84b8739", "lat": 38.91676733333333, "fusion_lon": 0.0, "fusion_lat": 0.0, "type": "electric_scooter", "name": "fe90ddf82b9319ac0c2c1348f84b8739", "is_disabled": 0, "rental_uris": {"ios": "https://dc.lft.to/lastmile_qr_scan", "android": "https://dc.lft.to/lastmile_qr_scan"}, "is_reserved": 0}, {"lon": -77.05582433333333, "bike_id": "c79cc9de2fb38e1dfafd9103eb54c569", "lat": 38.893108, "fusion_lon": 0.0, "fusion_lat": 0.0, "type": "electric_scooter", "name": "c79cc9de2fb38e1dfafd9103eb54c569", "is_disabled": 0, "rental_uris": {"ios": "https://dc.lft.to/lastmile_qr_scan", "android": "https://dc.lft.to/lastmile_qr_scan"}, "is_reserved": 0}, {"lon": -77.06394383333334, "bike_id": "500b4efc183e81a88e25f9d78ae82eed", "lat": 38.90920933333334, "fusion_lon": 0.0, "fusion_lat": 0.0, "type": "electric_scooter", "name": "500b4efc183e81a88e25f9d78ae82eed", "is_disabled": 0, "rental_uris": {"ios": "https://dc.lft.to/lastmile_qr_scan", "android": "https://dc.lft.to/lastmile_qr_scan"}, "is_reserved": 0}, {"lon": -77.04019133333334, "bike_id": "f2ce6cd34b5296fb78a1b784fdc0ee79", "lat": 38.914928333333336, "fusion_lon": 0.0, "fusion_lat": 0.0, "type": "electric_scooter", "name": "f2ce6cd34b5296fb78a1b784fdc0ee79", "is_disabled": 0, "rental_uris": {"ios": "https://dc.lft.to/lastmile_qr_scan", "android": "https://dc.lft.to/lastmile_qr_scan"}, "is_reserved": 0}, {"lon": -77.04620783333333, "bike_id": "15ee5f5a1a6d3e99525cdbcb7123462d", "lat": 38.915729666666664, "fusion_lon": 0.0, "fusion_lat": 0.0, "type": "electric_scooter", "name": "15ee5f5a1a6d3e99525cdbcb7123462d", "is_disabled": 0, "rental_uris": {"ios": "https://dc.lft.to/lastmile_qr_scan", "android": "https://dc.lft.to/lastmile_qr_scan"}, "is_reserved": 0}, {"lon": -77.04015116666666, "bike_id": "1ef4bb9344bccfcbe1e0df35ed71c83b", "lat": 38.914867, "fusion_lon": 0.0, "fusion_lat": 0.0, "type": "electric_scooter", "name": "1ef4bb9344bccfcbe1e0df35ed71c83b", "is_disabled": 0, "rental_uris": {"ios": "https://dc.lft.to/lastmile_qr_scan", "android": "https://dc.lft.to/lastmile_qr_scan"}, "is_reserved": 0}, {"lon": -77.02509533333334, "bike_id": "854f78607f70c3ececdf1bb9f5e89072", "lat": 38.907196666666664, "fusion_lon": 0.0, "fusion_lat": 0.0, "type": "electric_scooter", "name": "854f78607f70c3ececdf1bb9f5e89072", "is_disabled": 0, "rental_uris": {"ios": "https://dc.lft.to/lastmile_qr_scan", "android": "https://dc.lft.to/lastmile_qr_scan"}, "is_reserved": 0}, {"lon": -77.02192283333333, "bike_id": "e04d25e059978fcdd4ecaab098d70567", "lat": 38.8999565, "fusion_lon": 0.0, "fusion_lat": 0.0, "type": "electric_scooter", "name": "e04d25e059978fcdd4ecaab098d70567", "is_disabled": 0, "rental_uris": {"ios": "https://dc.lft.to/lastmile_qr_scan", "android": "https://dc.lft.to/lastmile_qr_scan"}, "is_reserved": 0}, {"lon": -76.9953165, "bike_id": "f16a1b0de866e8245b5c2cfdafe627d4", "lat": 38.88373333333333, "fusion_lon": 0.0, "fusion_lat": 0.0, "type": "electric_scooter", "name": "f16a1b0de866e8245b5c2cfdafe627d4", "is_disabled": 0, "rental_uris": {"ios": "https://dc.lft.to/lastmile_qr_scan", "android": "https://dc.lft.to/lastmile_qr_scan"}, "is_reserved": 0}, {"lon": -77.0263, "bike_id": "8bb8b1efc279306dff8a0cd68f460e15", "lat": 38.962263666666665, "fusion_lon": 0.0, "fusion_lat": 0.0, "type": "electric_bike", "name": "8bb8b1efc279306dff8a0cd68f460e15", "is_disabled": 0, "rental_uris": {"ios": "https://dc.lft.to/lastmile_qr_scan", "android": "https://dc.lft.to/lastmile_qr_scan"}, "is_reserved": 0}, {"lon": -77.03968333333333, "bike_id": "bfb0fddf80bcfe09e1be9649b3823354", "lat": 38.91628516666667, "fusion_lon": 0.0, "fusion_lat": 0.0, "type": "electric_scooter", "name": "bfb0fddf80bcfe09e1be9649b3823354", "is_disabled": 0, "rental_uris": {"ios": "https://dc.lft.to/lastmile_qr_scan", "android": "https://dc.lft.to/lastmile_qr_scan"}, "is_reserved": 0}, {"lon": -77.01908016666667, "bike_id": "95ddd776b24b557ec838d6332c1bd79d", "lat": 38.886022, "fusion_lon": 0.0, "fusion_lat": 0.0, "type": "electric_scooter", "name": "95ddd776b24b557ec838d6332c1bd79d", "is_disabled": 0, "rental_uris": {"ios": "https://dc.lft.to/lastmile_qr_scan", "android": "https://dc.lft.to/lastmile_qr_scan"}, "is_reserved": 0}, {"lon": -77.0295735, "bike_id": "dc31a47d3e85c48f0230617fec61b5b3", "lat": 38.9050015, "fusion_lon": 0.0, "fusion_lat": 0.0, "type": "electric_scooter", "name": "dc31a47d3e85c48f0230617fec61b5b3", "is_disabled": 0, "rental_uris": {"ios": "https://dc.lft.to/lastmile_qr_scan", "android": "https://dc.lft.to/lastmile_qr_scan"}, "is_reserved": 0}, {"lon": -77.03206016666667, "bike_id": "1a98bc6e5dd5ddccd02823d4973938e5", "lat": 38.92193983333333, "fusion_lon": 0.0, "fusion_lat": 0.0, "type": "electric_scooter", "name": "1a98bc6e5dd5ddccd02823d4973938e5", "is_disabled": 0, "rental_uris": {"ios": "https://dc.lft.to/lastmile_qr_scan", "android": "https://dc.lft.to/lastmile_qr_scan"}, "is_reserved": 0}, {"lon": -77.03423266666667, "bike_id": "83c23516557815b4b79b1fc321cab87d", "lat": 38.91927533333333, "fusion_lon": 0.0, "fusion_lat": 0.0, "type": "electric_scooter", "name": "83c23516557815b4b79b1fc321cab87d", "is_disabled": 0, "rental_uris": {"ios": "https://dc.lft.to/lastmile_qr_scan", "android": "https://dc.lft.to/lastmile_qr_scan"}, "is_reserved": 0}, {"lon": -77.0628645, "bike_id": "b1ed4bcd49f36414e5d61cdfbc35e997", "lat": 38.902774666666666, "fusion_lon": 0.0, "fusion_lat": 0.0, "type": "electric_scooter", "name": "b1ed4bcd49f36414e5d61cdfbc35e997", "is_disabled": 0, "rental_uris": {"ios": "https://dc.lft.to/lastmile_qr_scan", "android": "https://dc.lft.to/lastmile_qr_scan"}, "is_reserved": 0}, {"lon": -77.00925466666666, "bike_id": "9e34332ef7899ba6ef5291bcba6d0859", "lat": 38.896055, "fusion_lon": 0.0, "fusion_lat": 0.0, "type": "electric_scooter", "name": "9e34332ef7899ba6ef5291bcba6d0859", "is_disabled": 0, "rental_uris": {"ios": "https://dc.lft.to/lastmile_qr_scan", "android": "https://dc.lft.to/lastmile_qr_scan"}, "is_reserved": 0}, {"lon": -77.01093716666666, "bike_id": "dc2a996a9591d9d598e50f928e31d1a0", "lat": 38.894901833333336, "fusion_lon": 0.0, "fusion_lat": 0.0, "type": "electric_scooter", "name": "dc2a996a9591d9d598e50f928e31d1a0", "is_disabled": 0, "rental_uris": {"ios": "https://dc.lft.to/lastmile_qr_scan", "android": "https://dc.lft.to/lastmile_qr_scan"}, "is_reserved": 0}, {"lon": -77.03137366666667, "bike_id": "4e64fabf11970089b653508344d09330", "lat": 38.917671666666664, "fusion_lon": 0.0, "fusion_lat": 0.0, "type": "electric_scooter", "name": "4e64fabf11970089b653508344d09330", "is_disabled": 0, "rental_uris": {"ios": "https://dc.lft.to/lastmile_qr_scan", "android": "https://dc.lft.to/lastmile_qr_scan"}, "is_reserved": 0}, {"lon": -77.03247716666667, "bike_id": "550597f31d1a0e4a0cdf537b1448b63b", "lat": 38.9156505, "fusion_lon": 0.0, "fusion_lat": 0.0, "type": "electric_scooter", "name": "550597f31d1a0e4a0cdf537b1448b63b", "is_disabled": 0, "rental_uris": {"ios": "https://dc.lft.to/lastmile_qr_scan", "android": "https://dc.lft.to/lastmile_qr_scan"}, "is_reserved": 0}, {"lon": -77.02244316666666, "bike_id": "22736abc1be61f22e13c9f3b569db06c", "lat": 38.9040015, "fusion_lon": 0.0, "fusion_lat": 0.0, "type": "electric_scooter", "name": "22736abc1be61f22e13c9f3b569db06c", "is_disabled": 0, "rental_uris": {"ios": "https://dc.lft.to/lastmile_qr_scan", "android": "https://dc.lft.to/lastmile_qr_scan"}, "is_reserved": 0}, {"lon": -77.031146, "bike_id": "4b3147dd6408040ec88c1592d33288b0", "lat": 38.93322366666666, "fusion_lon": 0.0, "fusion_lat": 0.0, "type": "electric_scooter", "name": "4b3147dd6408040ec88c1592d33288b0", "is_disabled": 0, "rental_uris": {"ios": "https://dc.lft.to/lastmile_qr_scan", "android": "https://dc.lft.to/lastmile_qr_scan"}, "is_reserved": 0}, {"lon": -76.97838833333333, "bike_id": "b8bd13704560ba23fa4486a8dfeba612", "lat": 38.84359116666667, "fusion_lon": 0.0, "fusion_lat": 0.0, "type": "electric_bike", "name": "b8bd13704560ba23fa4486a8dfeba612", "is_disabled": 0, "rental_uris": {"ios": "https://dc.lft.to/lastmile_qr_scan", "android": "https://dc.lft.to/lastmile_qr_scan"}, "is_reserved": 0}, {"lon": -77.04748916666667, "bike_id": "a1828a8b7ab4d7da496b9ebec3b6fb00", "lat": 38.909554, "fusion_lon": 0.0, "fusion_lat": 0.0, "type": "electric_scooter", "name": "a1828a8b7ab4d7da496b9ebec3b6fb00", "is_disabled": 0, "rental_uris": {"ios": "https://dc.lft.to/lastmile_qr_scan", "android": "https://dc.lft.to/lastmile_qr_scan"}, "is_reserved": 0}, {"lon": -77.0359025, "bike_id": "2c0258231d6453f20432192ea0a87bf6", "lat": 38.9922685, "fusion_lon": 0.0, "fusion_lat": 0.0, "type": "electric_scooter", "name": "2c0258231d6453f20432192ea0a87bf6", "is_disabled": 0, "rental_uris": {"ios": "https://dc.lft.to/lastmile_qr_scan", "android": "https://dc.lft.to/lastmile_qr_scan"}, "is_reserved": 0}, {"lon": -76.930727, "bike_id": "f6f29bf01f4429c8ec8c98432bf803c2", "lat": 38.895582, "fusion_lon": 0.0, "fusion_lat": 0.0, "type": "electric_scooter", "name": "f6f29bf01f4429c8ec8c98432bf803c2", "is_disabled": 0, "rental_uris": {"ios": "https://dc.lft.to/lastmile_qr_scan", "android": "https://dc.lft.to/lastmile_qr_scan"}, "is_reserved": 0}, {"lon": -77.11766833333333, "bike_id": "0b7dace5461a9b0e18bdcdd510397594", "lat": 38.85584716666666, "fusion_lon": 0.0, "fusion_lat": 0.0, "type": "electric_bike", "name": "0b7dace5461a9b0e18bdcdd510397594", "is_disabled": 0, "rental_uris": {"ios": "https://dc.lft.to/lastmile_qr_scan", "android": "https://dc.lft.to/lastmile_qr_scan"}, "is_reserved": 0}, {"lon": -77.00201833333334, "bike_id": "71985d57714ce45bc72f01b9456156e5", "lat": 38.902379833333335, "fusion_lon": 0.0, "fusion_lat": 0.0, "type": "electric_scooter", "name": "71985d57714ce45bc72f01b9456156e5", "is_disabled": 0, "rental_uris": {"ios": "https://dc.lft.to/lastmile_qr_scan", "android": "https://dc.lft.to/lastmile_qr_scan"}, "is_reserved": 0}, {"lon": -77.0247025, "bike_id": "171a1334a483fb8f6d402cff40b715cf", "lat": 38.920021166666665, "fusion_lon": 0.0, "fusion_lat": 0.0, "type": "electric_scooter", "name": "171a1334a483fb8f6d402cff40b715cf", "is_disabled": 0, "rental_uris": {"ios": "https://dc.lft.to/lastmile_qr_scan", "android": "https://dc.lft.to/lastmile_qr_scan"}, "is_reserved": 0},